Subject_ac,Timestamp,SampleDate_ac,SampleTime_ac,Configuration_ac,Scenario_ac,DisTime_ac,MarkingTxt_ac,Aplication_ac,EntId_ac,Site_ac,ExersiseId_ac,ForceId_ac,Category_ac,Country_ac,Domain_ac,Kind_ac,Extra_ac,Specific_ac,Subcategory_ac,AltCategory_ac,AltCountry_ac,AltDomain_ac,AltKind_ac,EcefX_ac,EcefY_ac,EcefZ_ac,OriPhi_ac,OriPsi_ac,OriTheta_ac,LinVelX_ac,LinVelY_ac,LinVelZ_ac,LinAccX_ac,LinAccY_ac,LinAccZ_ac,AngVelX_ac,AngVelY_ac,AngVelZ_ac,DrAlg_ac,Apperance_ac,Latitude_ac,Longitude_ac,Altitude_ac,Heading_ac,Pitch_ac,Roll_ac,CM_Altitude_Lead_ac,CM_Altitude_Wing_ac,CM_Airspeed_ac,Subject_cm,SampleDate_cm,SampleTime_cm,Configuration_cm,Scenario_cm,DisTime_cm,MarkingTxt_cm,Aplication_cm,EntId_cm,Site_cm,ExersiseId_cm,ForceId_cm,Category_cm,Country_cm,Domain_cm,Kind_cm,Extra_cm,Specific_cm,Subcategory_cm,AltCategory_cm,AltCountry_cm,AltDomain_cm,AltKind_cm,EcefX_cm,EcefY_cm,EcefZ_cm,OriPhi_cm,OriPsi_cm,OriTheta_cm,LinVelX_cm,LinVelY_cm,LinVelZ_cm,LinAccX_cm,LinAccY_cm,LinAccZ_cm,AngVelX_cm,AngVelY_cm,AngVelZ_cm,DrAlg_cm,Apperance_cm,Latitude_cm,Longitude_cm,Altitude_cm,Heading_cm,Pitch_cm,Roll_cm,CM_Altitude_Lead_cm,CM_Altitude_Wing_cm,CM_Airspeed_cm,Bank_Angle_Condition,distance_nm,Distance_Condition,angle_between_vel,angle_between_pos,Cone_Condition,Intercept_Criteria,Intercept_Complete
1,1970-07-23 09:33:51.220909204,2025-09-08,2025-09-11 20:25:22.090,HA,A,1480091012,AMBUSH51,1,1,48,2,1,1,225,2,1,0,0,9,1,225,2,1,-144064.50761189975,-4793322.658082413,4196309.622247311,2.2848,2.95303,-0.19601,-113.186,23.738,25.9415,-0.0860787,-7.45736,6.55938,-0.0126615,-0.00154068,0.0011308,4,0,41.37837799093728,-91.72152070345736,11234.154333429517,-75.6107266989106,0.7195604031012587,-1.272768890649267,12000,10000,150,1,2025-09-08,2025-09-11 20:25:21.816,HA,A,4033866160,JASSM,3,136,76,2,2,1,225,9,2,0,1,26,0,0,0,0,-188183.50232108065,-4786559.776338424,4202591.102995396,-2.30155,-0.153302,0.128183,96.25,-14.75,-12.375,0.0,0.0,0.0,0.0,0.0,0.0,2,0,41.45190065203423,-92.25142292483972,12000.00313968092,99.817046696373,-0.0033568321628582,0.0023903023080967,12000,10000,150,True,24.234945741460212,False,173.7813431470293,179.23201812316546,False,False,False
1,1970-07-23 09:33:51.225244506,2025-09-08,2025-09-11 20:25:22.524,HA,A,1480607978,AMBUSH51,1,1,48,2,1,1,225,2,1,0,0,9,1,225,2,1,-144114.0652874764,-4793312.196647087,4196321.091284893,2.28218,2.95584,-0.197069,-113.082,23.6157,25.9845,-0.164299,-7.54002,6.65276,-0.0056665,0.000879051,-0.0117398,4,0,41.37850878343045,-91.72211630015056,11236.95093047526,-75.67249290143864,0.8781350369053667,-1.3926282625963993,12000,10000,150,1,2025-09-08,2025-09-11 20:25:21.816,HA,A,4033866160,JASSM,3,136,76,2,2,1,225,9,2,0,1,26,0,0,0,0,-188183.50232108065,-4786559.776338424,4202591.102995396,-2.30155,-0.153302,0.128183,96.25,-14.75,-12.375,0.0,0.0,0.0,0.0,0.0,0.0,2,0,41.45190065203423,-92.25142292483972,12000.00313968092,99.817046696373,-0.0033568321628582,0.0023903023080967,12000,10000,150,True,24.207180519387187,False,173.77567239623218,179.2375047208626,False,False,False
1,1970-07-23 09:33:51.229579114,2025-09-08,2025-09-11 20:25:22.957,HA,A,1481124944,AMBUSH51,1,1,48,2,1,1,225,2,1,0,0,9,1,225,2,1,-144162.31224149524,-4793302.162002919,4196332.189626973,2.28211,2.95645,-0.196767,-113.084,23.3546,26.1203,-0.284227,-7.60381,6.7555,0.0127697,0.00205667,-0.0102147,4,0,41.37863476630972,-91.7226960924862,11239.898167338952,-75.70836563146467,0.8920214331209626,-1.390428491052248,12000,10000,150,1,2025-09-08,2025-09-11 20:25:22.911,HA,A,4034999766,JASSM,3,136,76,2,2,1,225,9,2,0,1,26,0,0,0,0,-188092.04919608065,-4786573.913057174,4202579.175261021,-2.30155,-0.153302,0.128183,96.25,-14.75,-12.375,0.0,0.0,0.0,0.0,0.0,0.0,2,0,41.45175745141985,-92.2503232676483,12000.000883166917,99.8177746586157,-0.0025202778929251,0.0023897333358928,12000,10000,150,True,24.13002820262483,False,173.77445869973195,179.24139846591837,False,False,False
1,1970-07-23 09:33:51.233242681,2025-09-08,2025-09-11 20:25:23.324,HA,A,1481562376,AMBUSH51,1,1,48,2,1,1,225,2,1,0,0,9,1,225,2,1,-144204.53089201232,-4793293.421092717,4196341.911787563,2.28265,2.95742,-0.197484,-113.07,23.3544,26.0362,-0.246286,-7.4167,6.86231,0.00605349,0.00369826,-0.0044764,4,0,41.37874483917634,-91.72320342896612,11242.59932104171,-75.71507355914346,0.9606493976532524,-1.3483718111107106,12000,10000,150,1,2025-09-08,2025-09-11 20:25:22.911,HA,A,4034999766,JASSM,3,136,76,2,2,1,225,9,2,0,1,26,0,0,0,0,-188092.04919608065,-4786573.913057174,4202579.175261021,-2.30155,-0.153302,0.128183,96.25,-14.75,-12.375,0.0,0.0,0.0,0.0,0.0,0.0,2,0,41.45175745141985,-92.2503232676483,12000.000883166917,99.8177746586157,-0.0025202778929251,0.0023897333358928,12000,10000,150,True,24.10639246709011,False,173.80754413265691,179.2460188421166,False,False,False
1,1970-07-23 09:33:51.237583490,2025-09-08,2025-09-11 20:25:23.758,HA,A,1482079342,AMBUSH51,1,1,48,2,1,1,225,2,1,0,0,9,1,225,2,1,-144252.7657015289,-4793283.485646974,4196353.026971989,2.28475,2.95745,-0.19745,-113.058,23.1001,26.1734,-0.0731654,-7.52643,6.67722,0.0114422,0.00200465,0.00192143,4,0,41.37887034256544,-91.72378304449808,11245.82873694884,-75.7181268016838,0.9611433983509066,-1.2278004608377295,12000,10000,150,1,2025-09-08,2025-09-11 20:25:23.725,HA,A,4036192600,JASSM,3,136,76,2,2,1,225,9,2,0,1,26,0,0,0,0,-187995.81872733065,-4786588.790010299,4202566.622526646,-2.30155,-0.153302,0.128183,96.25,-14.75,-12.375,0.0,0.0,0.0,0.0,0.0,0.0,2,0,41.45160673551989,-92.2491661707764,12000.003490980209,99.81854064312924,-0.0016400189386588,0.0023891116518052,12000,10000,150,True,24.02663386420525,False,173.7996839679924,179.24988552267214,False,False,False
1,1970-07-23 09:33:51.239913270,2025-09-08,2025-09-11 20:25:23.991,HA,A,1482357708,AMBUSH51,1,1,48,2,1,1,225,2,1,0,0,9,1,225,2,1,-144279.14686749576,-4793278.3007086925,4196359.315608704,2.28741,2.95751,-0.198095,-113.075,21.344,27.7314,-0.0731654,-7.52643,6.67722,0.0114422,0.00200465,0.00192143,4,0,41.378938916008025,-91.72409996617266,11248.662562824316,-75.69318342892863,0.9886934941037414,-1.074417943975697,12000,10000,150,1,2025-09-08,2025-09-11 20:25:23.725,HA,A,4036192600,JASSM,3,136,76,2,2,1,225,9,2,0,1,26,0,0,0,0,-187995.81872733065,-4786588.790010299,4202566.622526646,-2.30155,-0.153302,0.128183,96.25,-14.75,-12.375,0.0,0.0,0.0,0.0,0.0,0.0,2,0,41.45160673551989,-92.2491661707764,12000.003490980209,99.81854064312924,-0.0016400189386588,0.0023891116518052,12000,10000,150,True,24.01187139823969,False,173.40071312270416,179.25305971361328,False,False,False
1,1970-07-23 09:33:51.241241915,2025-09-08,2025-09-11 20:25:24.124,HA,A,1482516776,AMBUSH51,1,1,48,2,1,1,225,2,1,0,0,9,1,225,2,1,-144294.97326995124,-4793274.831518813,4196362.754662907,2.28757,2.95838,-0.195438,-113.047,23.1161,26.0879,-0.220198,-7.58225,6.72398,0.00547509,-0.00138256,-0.00198385,4,0,41.37897993388653,-91.72429022080992,11248.756754210612,-75.83891865784264,0.9229080333346278,-1.0577458672247613,12000,10000,150,1,2025-09-08,2025-09-11 20:25:23.725,HA,A,4036192600,JASSM,3,136,76,2,2,1,225,9,2,0,1,26,0,0,0,0,-187995.81872733065,-4786588.790010299,4202566.622526646,-2.30155,-0.153302,0.128183,96.25,-14.75,-12.375,0.0,0.0,0.0,0.0,0.0,0.0,2,0,41.45160673551989,-92.2491661707764,12000.003490980209,99.81854064312924,-0.0016400189386588,0.0023891116518052,12000,10000,150,True,24.00301084110264,False,173.83095016483722,179.25452241428437,False,False,False
1,1970-07-23 09:33:51.244581603,2025-09-08,2025-09-11 20:25:24.458,HA,A,1482914442,AMBUSH51,1,1,48,2,1,1,225,2,1,0,0,9,1,225,2,1,-144331.7680996025,-4793267.079539191,4196371.4976101685,2.29195,2.95962,-0.195636,-112.987,23.0003,26.3232,-0.217878,-7.39637,6.8148,0.00568523,-0.00109959,-0.00111,4,0,41.3790784782624,-91.72473243229987,11251.368931325607,-75.87762199884389,0.9825772116706972,-0.793927400417646,12000,10000,150,1,2025-09-08,2025-09-11 20:25:23.725,HA,A,4036192600,JASSM,3,136,76,2,2,1,225,9,2,0,1,26,0,0,0,0,-187995.81872733065,-4786588.790010299,4202566.622526646,-2.30155,-0.153302,0.128183,96.25,-14.75,-12.375,0.0,0.0,0.0,0.0,0.0,0.0,2,0,41.45160673551989,-92.2491661707764,12000.003490980209,99.81854064312924,-0.0016400189386588,0.0023891116518052,12000,10000,150,True,23.9823813416854,False,173.7460620064819,179.25888576368357,False,False,False
1,1970-07-23 09:33:51.245913525,2025-09-08,2025-09-11 20:25:24.591,HA,A,1483073508,AMBUSH51,1,1,48,2,1,1,225,2,1,0,0,9,1,225,2,1,-144347.96567114905,-4793263.7666104175,4196375.253133776,2.29248,2.96009,-0.195741,-112.972,23.0853,26.2216,-0.111533,-7.41477,6.63481,0.00227305,0.00538146,-0.00452425,4,0,41.37912063645707,-91.72492706422616,11252.56194991999,-75.8908832740434,1.0062446519817227,-0.7587131112213895,12000,10000,150,1,2025-09-08,2025-09-11 20:25:23.725,HA,A,4036192600,JASSM,3,136,76,2,2,1,225,9,2,0,1,26,0,0,0,0,-187995.81872733065,-4786588.790010299,4202566.622526646,-2.30155,-0.153302,0.128183,96.25,-14.75,-12.375,0.0,0.0,0.0,0.0,0.0,0.0,2,0,41.45160673551989,-92.2491661707764,12000.003490980209,99.81854064312924,-0.0016400189386588,0.0023891116518052,12000,10000,150,True,23.973314899057,False,173.77045440129586,179.26069272638082,False,False,False
1,1970-07-23 09:33:51.246576127,2025-09-08,2025-09-11 20:25:24.657,HA,A,1483153042,AMBUSH51,1,1,48,2,1,1,225,2,1,0,0,9,1,225,2,1,-144354.36854640796,-4793262.454420133,4196376.73727846,2.29275,2.96076,-0.19591,-112.978,22.9499,26.3429,-0.295888,-7.47333,6.83417,0.0102979,0.0121267,-0.00298253,4,0,41.37913731410716,-91.72500400292532,11253.026319589577,-75.90898179988295,1.040746614900116,-0.7357772542227327,12000,10000,150,1,2025-09-08,2025-09-11 20:25:23.725,HA,A,4036192600,JASSM,3,136,76,2,2,1,225,9,2,0,1,26,0,0,0,0,-187995.81872733065,-4786588.790010299,4202566.622526646,-2.30155,-0.153302,0.128183,96.25,-14.75,-12.375,0.0,0.0,0.0,0.0,0.0,0.0,2,0,41.45160673551989,-92.2491661707764,12000.003490980209,99.81854064312924,-0.0016400189386588,0.0023891116518052,12000,10000,150,True,23.96973077647139,False,173.74608148967383,179.26140626809217,False,False,False
1,1970-07-23 09:33:51.247584976,2025-09-08,2025-09-11 20:25:24.758,HA,A,1483272342,AMBUSH51,1,1,48,2,1,1,225,2,1,0,0,9,1,225,2,1,-144366.79185355338,-4793259.920364233,4196379.620107866,2.29322,2.9609,-0.195696,-112.966,22.9293,26.3472,-0.111537,-7.35766,6.63453,0.0107411,-0.00207331,-0.00492581,4,0,41.37916962358788,-91.72515328058452,11253.963700878365,-75.92331786275409,1.038294443058843,-0.7075318418567091,12000,10000,150,1,2025-09-08,2025-09-11 20:25:24.730,HA,A,4037325994,JASSM,3,136,76,2,2,1,225,9,2,0,1,26,0,0,0,0,-187904.3831804556,-4786602.922822799,4202554.692839146,-2.30155,-0.153302,0.128183,96.25,-14.75,-12.375,0.0,0.0,0.0,0.0,0.0,0.0,2,0,41.451463519297455,-92.24806673543206,11999.998262392108,99.81926845426749,-0.0008036221550028,0.002388521392324,12000,10000,150,True,23.912647311010307,False,173.74650877665263,179.26146404376553,False,False,False
1,1970-07-23 09:33:51.247916702,2025-09-08,2025-09-11 20:25:24.791,HA,A,1483312108,AMBUSH51,1,1,48,2,1,1,225,2,1,0,0,9,1,225,2,1,-144369.42921017238,-4793259.375669545,4196380.228716753,2.29326,2.96098,-0.195815,-112.963,23.0422,26.2425,-0.186208,-7.36745,6.75138,0.0129902,0.00443479,-0.00218566,4,0,41.37917649974589,-91.72518497333265,11254.138779331724,-75.92158098577815,1.0465709295611751,-0.7044985600868662,12000,10000,150,1,2025-09-08,2025-09-11 20:25:24.730,HA,A,4037325994,JASSM,3,136,76,2,2,1,225,9,2,0,1,26,0,0,0,0,-187904.3831804556,-4786602.922822799,4202554.692839146,-2.30155,-0.153302,0.128183,96.25,-14.75,-12.375,0.0,0.0,0.0,0.0,0.0,0.0,2,0,41.451463519297455,-92.24806673543206,11999.998262392108,99.81926845426749,-0.0008036221550028,0.002388521392324,12000,10000,150,True,23.911170863175894,False,173.76879618735194,179.26175468301523,False,False,False
1,1970-07-23 09:33:51.248911528,2025-09-08,2025-09-11 20:25:24.891,HA,A,1483431408,AMBUSH51,1,1,48,2,1,1,225,2,1,0,0,9,1,225,2,1,-144381.85238286064,-4793256.831068503,4196383.102534298,2.29342,2.96151,-0.195625,-112.955,23.0193,26.2527,-0.0893632,-7.30496,6.69535,0.0109054,-0.000375547,-0.00265172,4,0,41.379208810861904,-91.72533425334262,11255.030763180994,-75.94945647461019,1.0611986133182167,-0.6900215871285907,12000,10000,150,1,2025-09-08,2025-09-11 20:25:24.730,HA,A,4037325994,JASSM,3,136,76,2,2,1,225,9,2,0,1,26,0,0,0,0,-187904.3831804556,-4786602.922822799,4202554.692839146,-2.30155,-0.153302,0.128183,96.25,-14.75,-12.375,0.0,0.0,0.0,0.0,0.0,0.0,2,0,41.451463519297455,-92.24806673543206,11999.998262392108,99.81926845426749,-0.0008036221550028,0.002388521392324,12000,10000,150,True,23.904217311654943,False,173.76782075795714,179.26313379171853,False,False,False
1,1970-07-23 09:33:51.249574617,2025-09-08,2025-09-11 20:25:24.957,HA,A,1483510942,AMBUSH51,1,1,48,2,1,1,225,2,1,0,0,9,1,225,2,1,-144388.25537740684,-4793255.536861543,4196384.6019885,2.29331,2.96181,-0.195615,-112.956,22.8838,26.3687,-0.178341,-7.41064,6.70504,0.000889454,0.00340489,-0.00179659,4,0,41.379225484661376,-91.7254111871868,11255.572717407358,-75.9614365572951,1.0735620619630228,-0.6932593026292967,12000,10000,150,1,2025-09-08,2025-09-11 20:25:24.730,HA,A,4037325994,JASSM,3,136,76,2,2,1,225,9,2,0,1,26,0,0,0,0,-187904.3831804556,-4786602.922822799,4202554.692839146,-2.30155,-0.153302,0.128183,96.25,-14.75,-12.375,0.0,0.0,0.0,0.0,0.0,0.0,2,0,41.451463519297455,-92.24806673543206,11999.998262392108,99.81926845426749,-0.0008036221550028,0.002388521392324,12000,10000,150,True,23.900633458618668,False,173.74456383599778,179.26386890782678,False,False,False
1,1970-07-23 09:33:51.249916932,2025-09-08,2025-09-11 20:25:24.991,HA,A,1483550708,AMBUSH51,1,1,48,2,1,1,225,2,1,0,0,9,1,225,2,1,-144393.1529334106,-4793254.530237971,4196385.732980997,2.29331,2.96179,-0.195238,-112.949,22.9938,26.2615,-0.147864,-7.47549,6.61727,0.00705842,-0.00935956,-0.00808207,4,0,41.37923823000559,-91.72547003878164,11255.911641200704,-75.97650431851861,1.0580490431709848,-0.6937913182240677,12000,10000,150,1,2025-09-08,2025-09-11 20:25:24.730,HA,A,4037325994,JASSM,3,136,76,2,2,1,225,9,2,0,1,26,0,0,0,0,-187904.3831804556,-4786602.922822799,4202554.692839146,-2.30155,-0.153302,0.128183,96.25,-14.75,-12.375,0.0,0.0,0.0,0.0,0.0,0.0,2,0,41.451463519297455,-92.24806673543206,11999.998262392108,99.81926845426749,-0.0008036221550028,0.002388521392324,12000,10000,150,True,23.897892048309657,False,173.76819048050606,179.26440980495232,False,False,False
1,1970-07-23 09:33:51.250582228,2025-09-08,2025-09-11 20:25:25.058,HA,A,1483630240,AMBUSH51,1,1,48,2,1,1,225,2,1,0,0,9,1,225,2,1,-144399.54839062842,-4793253.225331722,4196387.216381358,2.29346,2.96216,-0.195359,-112.946,22.8579,26.3744,-0.0820302,-7.54669,6.58868,0.00171129,0.00311985,-0.00298045,4,0,41.37925486027794,-91.7255468865226,11256.391932985203,-75.98565105109589,1.0784800958025802,-0.6807508048330703,12000,10000,150,1,2025-09-08,2025-09-11 20:25:24.730,HA,A,4037325994,JASSM,3,136,76,2,2,1,225,9,2,0,1,26,0,0,0,0,-187904.3831804556,-4786602.922822799,4202554.692839146,-2.30155,-0.153302,0.128183,96.25,-14.75,-12.375,0.0,0.0,0.0,0.0,0.0,0.0,2,0,41.451463519297455,-92.24806673543206,11999.998262392108,99.81926845426749,-0.0008036221550028,0.002388521392324,12000,10000,150,True,23.894312486152145,False,173.74560891578562,179.26512498401914,False,False,False
1,1970-07-23 09:33:51.251913584,2025-09-08,2025-09-11 20:25:25.191,HA,A,1483789308,AMBUSH51,1,1,48,2,1,1,225,2,1,0,0,9,1,225,2,1,-144415.73977441917,-4793249.925397318,4196390.97218474,2.29362,2.96235,-0.195336,-112.937,22.953,26.2801,-0.227646,-7.30993,6.65381,0.00289515,-0.00380021,0.0027183,4,0,41.379296942805055,-91.72574144083424,11257.617691718524,-75.99371642714952,1.085459321590826,-0.6701085464314016,12000,10000,150,1,2025-09-08,2025-09-11 20:25:24.730,HA,A,4037325994,JASSM,3,136,76,2,2,1,225,9,2,0,1,26,0,0,0,0,-187904.3831804556,-4786602.922822799,4202554.692839146,-2.30155,-0.153302,0.128183,96.25,-14.75,-12.375,0.0,0.0,0.0,0.0,0.0,0.0,2,0,41.451463519297455,-92.24806673543206,11999.998262392108,99.81926845426749,-0.0008036221550028,0.002388521392324,12000,10000,150,True,23.885250402615437,False,173.76648310563587,179.26693599089012,False,False,False
1,1970-07-23 09:33:51.252579979,2025-09-08,2025-09-11 20:25:25.257,HA,A,1483868840,AMBUSH51,1,1,48,2,1,1,225,2,1,0,0,9,1,225,2,1,-144422.13500699284,-4793248.618849571,4196392.460211007,2.29344,2.96278,-0.194745,-112.938,22.8216,26.3976,-0.22254,-7.35791,6.73095,-0.00152404,-0.0027287,-0.0117356,4,0,41.37931361393073,-91.7258182866088,11258.104041423512,-76.03518511381758,1.0808437907251052,-0.6762461860817139,12000,10000,150,1,2025-09-08,2025-09-11 20:25:24.730,HA,A,4037325994,JASSM,3,136,76,2,2,1,225,9,2,0,1,26,0,0,0,0,-187904.3831804556,-4786602.922822799,4202554.692839146,-2.30155,-0.153302,0.128183,96.25,-14.75,-12.375,0.0,0.0,0.0,0.0,0.0,0.0,2,0,41.451463519297455,-92.24806673543206,11999.998262392108,99.81926845426749,-0.0008036221550028,0.002388521392324,12000,10000,150,True,23.881670501681736,False,173.74137311354127,179.26765683977774,False,False,False
1,1970-07-23 09:33:51.253578516,2025-09-08,2025-09-11 20:25:25.357,HA,A,1483988140,AMBUSH51,1,1,48,2,1,1,225,2,1,0,0,9,1,225,2,1,-144434.47345165504,-4793246.115542732,4196395.355367595,2.29414,2.96388,-0.195419,-112.883,22.789,26.4033,-0.203481,-7.45939,6.68969,0.00845658,0.00170713,-0.00685244,4,0,41.3793458379452,-91.72596654045763,11259.138001599704,-76.04796269028961,1.1526194103207152,-0.6240654409478987,12000,10000,150,1,2025-09-08,2025-09-11 20:25:24.730,HA,A,4037325994,JASSM,3,136,76,2,2,1,225,9,2,0,1,26,0,0,0,0,-187904.3831804556,-4786602.922822799,4202554.692839146,-2.30155,-0.153302,0.128183,96.25,-14.75,-12.375,0.0,0.0,0.0,0.0,0.0,0.0,2,0,41.451463519297455,-92.24806673543206,11999.998262392108,99.81926845426749,-0.0008036221550028,0.002388521392324,12000,10000,150,True,23.87476336501467,False,173.73742281756782,179.26907964020447,False,False,False
1,1970-07-23 09:33:51.254603361,2025-09-08,2025-09-11 20:25:25.460,HA,A,1484107440,AMBUSH51,1,1,48,2,1,1,225,2,1,0,0,9,1,225,2,1,-144444.63663723224,-4793244.044519872,4196397.711188307,2.29451,2.96432,-0.195173,-112.87,22.7747,26.4076,-0.0286959,-7.36013,6.55717,0.00465741,0.00498406,-0.00948647,4,0,41.37937223924341,-91.72608866061252,11259.904752631111,-76.07502649572206,1.161581666005029,-0.5984807059240214,12000,10000,150,1,2025-09-08,2025-09-11 20:25:24.730,HA,A,4037325994,JASSM,3,136,76,2,2,1,225,9,2,0,1,26,0,0,0,0,-187904.3831804556,-4786602.922822799,4202554.692839146,-2.30155,-0.153302,0.128183,96.25,-14.75,-12.375,0.0,0.0,0.0,0.0,0.0,0.0,2,0,41.451463519297455,-92.24806673543206,11999.998262392108,99.81926845426749,-0.0008036221550028,0.002388521392324,12000,10000,150,True,23.86907535850813,False,173.73643631987258,179.27021393200906,False,False,False
1,1970-07-23 09:33:51.255914676,2025-09-08,2025-09-11 20:25:25.591,HA,A,1484266506,AMBUSH51,1,1,48,2,1,1,225,2,1,0,0,9,1,225,2,1,-144460.8086825542,-4793240.7580083525,4196401.479201888,2.29491,2.96475,-0.195174,-112.86,22.8605,26.3206,-0.237489,-7.56429,6.80202,-0.00304287,0.00304703,-0.00172793,4,0,41.37941432694066,-91.72628297977592,11261.188997962608,-76.09140504917845,1.1798345295132435,-0.5714978148417089,12000,10000,150,1,2025-09-08,2025-09-11 20:25:24.730,HA,A,4037325994,JASSM,3,136,76,2,2,1,225,9,2,0,1,26,0,0,0,0,-187904.3831804556,-4786602.922822799,4202554.692839146,-2.30155,-0.153302,0.128183,96.25,-14.75,-12.375,0.0,0.0,0.0,0.0,0.0,0.0,2,0,41.451463519297455,-92.24806673543206,11999.998262392108,99.81926845426749,-0.0008036221550028,0.002388521392324,12000,10000,150,True,23.86002371293857,False,173.75622143693573,179.27204395191353,False,False,False
1,1970-07-23 09:33:51.256581659,2025-09-08,2025-09-11 20:25:25.658,HA,A,1484346040,AMBUSH51,1,1,48,2,1,1,225,2,1,0,0,9,1,225,2,1,-144467.20971295386,-4793239.459119629,4196402.967275961,2.29606,2.96517,-0.19508,-112.855,22.7306,26.4326,-0.0598536,-7.47765,6.63661,0.0183207,0.00460748,-0.0112342,4,0,41.379430951440845,-91.7263598922856,11261.694889654413,-76.11128546398884,1.193810633934829,-0.501059404332355,12000,10000,150,1,2025-09-08,2025-09-11 20:25:24.730,HA,A,4037325994,JASSM,3,136,76,2,2,1,225,9,2,0,1,26,0,0,0,0,-187904.3831804556,-4786602.922822799,4202554.692839146,-2.30155,-0.153302,0.128183,96.25,-14.75,-12.375,0.0,0.0,0.0,0.0,0.0,0.0,2,0,41.451463519297455,-92.24806673543206,11999.998262392108,99.81926845426749,-0.0008036221550028,0.002388521392324,12000,10000,150,True,23.856441404961878,False,173.73176032730012,179.27276408508183,False,False,False
1,1970-07-23 09:33:51.256910699,2025-09-08,2025-09-11 20:25:25.691,HA,A,1484385806,AMBUSH51,1,1,48,2,1,1,225,2,1,0,0,9,1,225,2,1,-144472.09520268644,-4793238.460921338,4196404.100428775,2.29581,2.96468,-0.195468,-112.851,22.8426,26.3296,-0.198312,-7.55588,6.69124,-0.00705009,-0.00516716,0.00802797,4,0,41.37944366294453,-91.72641859708284,11262.05855293276,-76.07653280428407,1.1885644145810637,-0.5202039019848962,12000,10000,150,1,2025-09-08,2025-09-11 20:25:24.730,HA,A,4037325994,JASSM,3,136,76,2,2,1,225,9,2,0,1,26,0,0,0,0,-187904.3831804556,-4786602.922822799,4202554.692839146,-2.30155,-0.153302,0.128183,96.25,-14.75,-12.375,0.0,0.0,0.0,0.0,0.0,0.0,2,0,41.451463519297455,-92.24806673543206,11999.998262392108,99.81926845426749,-0.0008036221550028,0.002388521392324,12000,10000,150,True,23.853706904969115,False,173.75451030326076,179.27330986932702,False,False,False
1,1970-07-23 09:33:51.257251236,2025-09-08,2025-09-11 20:25:25.725,HA,A,1484425574,AMBUSH51,1,1,48,2,1,1,225,2,1,0,0,9,1,225,2,1,-144474.72771720155,-4793237.923745419,4196404.710972821,2.29609,2.96478,-0.195632,-112.845,22.9614,26.2221,-0.098667,-7.35431,6.69659,0.00941365,0.00261427,-0.00117033,4,0,41.37945050797609,-91.72645022954065,11262.256126481418,-76.07324326105561,1.1989031483790658,-0.5026384472729134,12000,10000,150,1,2025-09-08,2025-09-11 20:25:25.718,HA,A,4038519040,JASSM,3,136,76,2,2,1,225,9,2,0,1,26,0,0,0,0,-187808.1370867056,-4786617.799775924,4202542.136198521,-2.30145,-0.153206,0.128183,96.25,-14.75,-12.375,0.0,0.0,0.0,0.0,0.0,0.0,2,0,41.45131275799615,-92.24690946226384,12000.000530834865,99.81639818129648,-0.0039801590116924,0.007177290010154,12000,10000,150,True,23.799465672185377,False,173.77679693946192,179.27221721839484,False,False,False
1,1970-07-23 09:33:51.259911564,2025-09-08,2025-09-11 20:25:25.991,HA,A,1484743706,AMBUSH51,1,1,48,2,1,1,225,2,1,0,0,9,1,225,2,1,-144505.9488822527,-4793231.608585616,4196411.998445448,2.29818,2.96443,-0.19624,-112.826,22.7883,26.3661,-0.31917,-7.46844,6.83838,0.0126802,0.00648625,-0.00522541,4,0,41.379531671434286,-91.72682536542004,11264.837460150346,-76.03435781636327,1.2078253819608618,-0.3862572295521038,12000,10000,150,1,2025-09-08,2025-09-11 20:25:25.718,HA,A,4038519040,JASSM,3,136,76,2,2,1,225,9,2,0,1,26,0,0,0,0,-187808.1370867056,-4786617.799775924,4202542.136198521,-2.30145,-0.153206,0.128183,96.25,-14.75,-12.375,0.0,0.0,0.0,0.0,0.0,0.0,2,0,41.45131275799615,-92.24690946226384,12000.000530834865,99.81639818129648,-0.0039801590116924,0.007177290010154,12000,10000,150,True,23.781992368965643,False,173.74562120691468,179.27577418870652,False,False,False
1,1970-07-23 09:33:51.260577996,2025-09-08,2025-09-11 20:25:26.057,HA,A,1484823240,AMBUSH51,1,1,48,2,1,1,225,2,1,0,0,9,1,225,2,1,-144512.34233076748,-4793230.315880405,4196413.48520376,2.29866,2.9646,-0.195775,-112.817,22.6552,26.4737,-0.0801212,-7.5668,6.50678,0.00440774,-0.000810392,-0.0106766,4,0,41.37954825127228,-91.72690218540556,11265.355313666574,-76.06070961993281,1.1972601708100394,-0.3573132850507562,12000,10000,150,1,2025-09-08,2025-09-11 20:25:25.718,HA,A,4038519040,JASSM,3,136,76,2,2,1,225,9,2,0,1,26,0,0,0,0,-187808.1370867056,-4786617.799775924,4202542.136198521,-2.30145,-0.153206,0.128183,96.25,-14.75,-12.375,0.0,0.0,0.0,0.0,0.0,0.0,2,0,41.45131275799615,-92.24690946226384,12000.000530834865,99.81639818129648,-0.0039801590116924,0.007177290010154,12000,10000,150,True,23.778414660006682,False,173.72256992933467,179.27649536952748,False,False,False
1,1970-07-23 09:33:51.260909828,2025-09-08,2025-09-11 20:25:26.090,HA,A,1484863006,AMBUSH51,1,1,48,2,1,1,225,2,1,0,0,9,1,225,2,1,-144517.22869162678,-4793229.320541015,4196414.621439546,2.29891,2.96447,-0.19596,-112.814,22.7719,26.3773,-0.224507,-7.46871,6.79625,-0.00108503,0.00285978,0.00356094,4,0,41.379560966156944,-91.72696089976834,11265.732886584125,-76.04791108070096,1.1989248726970447,-0.3443073145807055,12000,10000,150,1,2025-09-08,2025-09-11 20:25:25.718,HA,A,4038519040,JASSM,3,136,76,2,2,1,225,9,2,0,1,26,0,0,0,0,-187808.1370867056,-4786617.799775924,4202542.136198521,-2.30145,-0.153206,0.128183,96.25,-14.75,-12.375,0.0,0.0,0.0,0.0,0.0,0.0,2,0,41.45131275799615,-92.24690946226384,12000.000530834865,99.81639818129648,-0.0039801590116924,0.007177290010154,12000,10000,150,True,23.775679716842888,False,173.74222160484555,179.2770458689026,False,False,False
1,1970-07-23 09:33:51.261912645,2025-09-08,2025-09-11 20:25:26.191,HA,A,1484982306,AMBUSH51,1,1,48,2,1,1,225,2,1,0,0,9,1,225,2,1,-144527.386127375,-4793227.287246137,4196417.010737821,2.29935,2.96447,-0.195741,-112.804,22.7601,26.3878,-0.148726,-7.29511,6.68218,0.00760978,0.00298669,0.00506105,4,0,41.37958736913449,-91.72708293839912,11266.665124668272,-76.05746375959423,1.1908176801879586,-0.319486706243355,12000,10000,150,1,2025-09-08,2025-09-11 20:25:25.718,HA,A,4038519040,JASSM,3,136,76,2,2,1,225,9,2,0,1,26,0,0,0,0,-187808.1370867056,-4786617.799775924,4202542.136198521,-2.30145,-0.153206,0.128183,96.25,-14.75,-12.375,0.0,0.0,0.0,0.0,0.0,0.0,2,0,41.45131275799615,-92.24690946226384,12000.000530834865,99.81639818129648,-0.0039801590116924,0.007177290010154,12000,10000,150,True,23.76999538143453,False,173.7385359268065,179.27822805132624,False,False,False
1,1970-07-23 09:33:51.262910272,2025-09-08,2025-09-11 20:25:26.291,HA,A,1485101606,AMBUSH51,1,1,48,2,1,1,225,2,1,0,0,9,1,225,2,1,-144539.82182733945,-4793224.699737623,4196419.9850965245,2.3019,2.96382,-0.196221,-112.792,22.7683,26.4344,-0.291469,-7.43161,6.71147,0.0159176,-0.00340489,0.0118833,4,0,41.379620609542265,-91.72723238517897,11267.67161318344,-76.01244619312921,1.1819726706280456,-0.1795892977365074,12000,10000,150,1,2025-09-08,2025-09-11 20:25:25.718,HA,A,4038519040,JASSM,3,136,76,2,2,1,225,9,2,0,1,26,0,0,0,0,-187808.1370867056,-4786617.799775924,4202542.136198521,-2.30145,-0.153206,0.128183,96.25,-14.75,-12.375,0.0,0.0,0.0,0.0,0.0,0.0,2,0,41.45131275799615,-92.24690946226384,12000.000530834865,99.81639818129648,-0.0039801590116924,0.007177290010154,12000,10000,150,True,23.763024584409372,False,173.71545316988292,179.27973038372264,False,False,False
1,1970-07-23 09:33:51.263579740,2025-09-08,2025-09-11 20:25:26.357,HA,A,1485181140,AMBUSH51,1,1,48,2,1,1,225,2,1,0,0,9,1,225,2,1,-144546.21466167553,-4793223.403547963,4196421.482447404,2.30299,2.96365,-0.195887,-112.785,22.6434,26.5525,-0.0642285,-7.36035,6.68349,0.0197313,-0.00916606,-0.00109127,4,0,41.379637281459416,-91.72730919927209,11268.203941937078,-76.0203744383643,1.1621990011434158,-0.1189139267657036,12000,10000,150,1,2025-09-08,2025-09-11 20:25:25.718,HA,A,4038519040,JASSM,3,136,76,2,2,1,225,9,2,0,1,26,0,0,0,0,-187808.1370867056,-4786617.799775924,4202542.136198521,-2.30145,-0.153206,0.128183,96.25,-14.75,-12.375,0.0,0.0,0.0,0.0,0.0,0.0,2,0,41.45131275799615,-92.24690946226384,12000.000530834865,99.81639818129648,-0.0039801590116924,0.007177290010154,12000,10000,150,True,23.759446164777458,False,173.68642612075132,179.2804647020883,False,False,False
1,1970-07-23 09:33:51.263917765,2025-09-08,2025-09-11 20:25:26.391,HA,A,1485220906,AMBUSH51,1,1,48,2,1,1,225,2,1,0,0,9,1,225,2,1,-144551.10205349265,-4793222.429917492,4196422.636739619,2.30318,2.96403,-0.195538,-112.78,22.7558,26.4521,-0.183527,-7.3838,6.76161,0.00861678,-0.00409565,-0.00407901,4,0,41.3796499887892,-91.7273679182726,11268.674262965884,-76.04968438527874,1.1647836538457426,-0.1044573079056695,12000,10000,150,1,2025-09-08,2025-09-11 20:25:25.718,HA,A,4038519040,JASSM,3,136,76,2,2,1,225,9,2,0,1,26,0,0,0,0,-187808.1370867056,-4786617.799775924,4202542.136198521,-2.30145,-0.153206,0.128183,96.25,-14.75,-12.375,0.0,0.0,0.0,0.0,0.0,0.0,2,0,41.45131275799615,-92.24690946226384,12000.000530834865,99.81639818129648,-0.0039801590116924,0.007177290010154,12000,10000,150,True,23.756711120757913,False,173.708523726624,179.28103975257542,False,False,False
1,1970-07-23 09:33:51.264908345,2025-09-08,2025-09-11 20:25:26.490,HA,A,1485340206,AMBUSH51,1,1,48,2,1,1,225,2,1,0,0,9,1,225,2,1,-144561.25163389143,-4793220.37080751,4196425.009434407,2.30412,2.96442,-0.195541,-112.768,22.7468,26.4627,-0.0986895,-7.34101,6.58993,0.0118396,0.00722278,-0.00197344,4,0,41.37967643412167,-91.72748987268376,11269.506580456127,-76.06416404995116,1.1810919573798258,-0.0464208038311019,12000,10000,150,1,2025-09-08,2025-09-11 20:25:25.718,HA,A,4038519040,JASSM,3,136,76,2,2,1,225,9,2,0,1,26,0,0,0,0,-187808.1370867056,-4786617.799775924,4202542.136198521,-2.30145,-0.153206,0.128183,96.25,-14.75,-12.375,0.0,0.0,0.0,0.0,0.0,0.0,2,0,41.45131275799615,-92.24690946226384,12000.000530834865,99.81639818129648,-0.0039801590116924,0.007177290010154,12000,10000,150,True,23.75103009645145,False,173.70398330818458,179.28219947872864,False,False,False
1,1970-07-23 09:33:51.265581237,2025-09-08,2025-09-11 20:25:26.558,HA,A,1485419740,AMBUSH51,1,1,48,2,1,1,225,2,1,0,0,9,1,225,2,1,-144569.89742418905,-4793218.622240642,4196427.031077901,2.30502,2.96459,-0.195764,-112.765,22.6126,26.5847,-0.168324,-7.47879,6.6571,0.0108264,0.00472399,-0.00519629,4,0,41.37969893200656,-91.7275937560934,11270.230130304106,-76.0612402702728,1.1969761890731518,0.0067380248091863,12000,10000,150,1,2025-09-08,2025-09-11 20:25:25.718,HA,A,4038519040,JASSM,3,136,76,2,2,1,225,9,2,0,1,26,0,0,0,0,-187808.1370867056,-4786617.799775924,4202542.136198521,-2.30145,-0.153206,0.128183,96.25,-14.75,-12.375,0.0,0.0,0.0,0.0,0.0,0.0,2,0,41.45131275799615,-92.24690946226384,12000.000530834865,99.81639818129648,-0.0039801590116924,0.007177290010154,12000,10000,150,True,23.746191200498288,False,173.67529091485576,179.28318836654714,False,False,False
1,1970-07-23 09:33:51.266581661,2025-09-08,2025-09-11 20:25:26.658,HA,A,1485539038,AMBUSH51,1,1,48,2,1,1,225,2,1,0,0,9,1,225,2,1,-144580.04744312796,-4793216.581780967,4196429.420449993,2.30616,2.96414,-0.196301,-112.757,22.6071,26.599,-0.226922,-7.34563,6.62042,0.0138765,-0.00154484,0.00415807,4,0,41.37972537873232,-91.72771570918832,11271.144648900165,-76.02139998262022,1.1987254391398123,0.0678677994117589,12000,10000,150,1,2025-09-08,2025-09-11 20:25:26.624,HA,A,4039652714,JASSM,3,136,76,2,2,1,225,9,2,0,1,26,0,0,0,0,-187716.67810233065,-4786631.934541549,4202530.204557896,-2.30145,-0.153206,0.128279,96.25,-14.75,-12.375,0.0,0.0,0.0,0.0,0.0,0.0,2,0,41.45116950087137,-92.24580975581635,12000.002771729049,99.8212166872619,-0.0068099763899118,0.0071763081481951,12000,10000,150,True,23.69036686491003,False,173.66900504192773,179.28306768868663,False,False,False
1,1970-07-23 09:33:51.269916808,2025-09-08,2025-09-11 20:25:26.991,HA,A,1485936706,AMBUSH51,1,1,48,2,1,1,225,2,1,0,0,9,1,225,2,1,-144618.7464076306,-4793208.761636458,4196438.509154295,2.31161,2.96471,-0.197002,-112.705,22.6965,26.5584,-0.0540669,-7.47584,6.64408,0.0167353,0.00450969,-0.000683475,4,0,41.37982630816065,-91.72818069499824,11274.486251307952,-76.01344760683583,1.2499208220890583,0.3867642849525328,12000,10000,150,1,2025-09-08,2025-09-11 20:25:26.624,HA,A,4039652714,JASSM,3,136,76,2,2,1,225,9,2,0,1,26,0,0,0,0,-187716.67810233065,-4786631.934541549,4202530.204557896,-2.30145,-0.153206,0.128279,96.25,-14.75,-12.375,0.0,0.0,0.0,0.0,0.0,0.0,2,0,41.45116950087137,-92.24580975581635,12000.002771729049,99.8212166872619,-0.0068099763899118,0.0071763081481951,12000,10000,150,True,23.66870540298873,False,173.66340315064676,179.28755173229362,False,False,False
1,1970-07-23 09:33:51.270254204,2025-09-08,2025-09-11 20:25:27.025,HA,A,1485976472,AMBUSH51,1,1,48,2,1,1,225,2,1,0,0,9,1,225,2,1,-144621.37523234362,-4793208.253641233,4196439.149897463,2.31201,2.96465,-0.197095,-112.698,22.8174,26.4564,-0.185412,-7.51634,6.70539,0.00496742,0.00395417,0.00218775,4,0,41.37983318376688,-91.7282122732099,11274.821066764738,-76.00731875921444,1.2510904186819898,0.4092490812099325,12000,10000,150,1,2025-09-08,2025-09-11 20:25:26.624,HA,A,4039652714,JASSM,3,136,76,2,2,1,225,9,2,0,1,26,0,0,0,0,-187716.67810233065,-4786631.934541549,4202530.204557896,-2.30145,-0.153206,0.128279,96.25,-14.75,-12.375,0.0,0.0,0.0,0.0,0.0,0.0,2,0,41.45116950087137,-92.24580975581635,12000.002771729049,99.8212166872619,-0.0068099763899118,0.0071763081481951,12000,10000,150,True,23.667234101823304,False,173.68406619127353,179.2878884634901,False,False,False
1,1970-07-23 09:33:51.271577272,2025-09-08,2025-09-11 20:25:27.157,HA,A,1486135538,AMBUSH51,1,1,48,2,1,1,225,2,1,0,0,9,1,225,2,1,-144637.52737883464,-4793204.987400919,4196442.9468741305,2.31355,2.96463,-0.19725,-112.691,22.5684,26.7051,-0.215705,-7.36686,6.79673,0.0119312,0.00123483,-0.00770548,4,0,41.37987534642292,-91.72840634989558,11276.218137008147,-76.0000807189596,1.2563533109667628,0.4976280529920038,12000,10000,150,1,2025-09-08,2025-09-11 20:25:26.624,HA,A,4039652714,JASSM,3,136,76,2,2,1,225,9,2,0,1,26,0,0,0,0,-187716.67810233065,-4786631.934541549,4202530.204557896,-2.30145,-0.153206,0.128279,96.25,-14.75,-12.375,0.0,0.0,0.0,0.0,0.0,0.0,2,0,41.45116950087137,-92.24580975581635,12000.002771729049,99.8212166872619,-0.0068099763899118,0.0071763081481951,12000,10000,150,True,23.658192666937122,False,173.6209536929435,179.2897637874318,False,False,False
1,1970-07-23 09:33:51.272579203,2025-09-08,2025-09-11 20:25:27.257,HA,A,1486254838,AMBUSH51,1,1,48,2,1,1,225,2,1,0,0,9,1,225,2,1,-144647.67057151115,-4793202.9599192375,4196445.353967858,2.31483,2.96414,-0.197468,-112.678,22.5619,26.7215,-0.273446,-7.39359,6.73335,0.00989427,-0.000685556,0.00103926,4,0,41.37990183599155,-91.7285282173779,11277.202903459389,-75.97242689763942,1.244301252246127,0.5655080583409114,12000,10000,150,1,2025-09-08,2025-09-11 20:25:26.624,HA,A,4039652714,JASSM,3,136,76,2,2,1,225,9,2,0,1,26,0,0,0,0,-187716.67810233065,-4786631.934541549,4202530.204557896,-2.30145,-0.153206,0.128279,96.25,-14.75,-12.375,0.0,0.0,0.0,0.0,0.0,0.0,2,0,41.45116950087137,-92.24580975581635,12000.002771729049,99.8212166872619,-0.0068099763899118,0.0071763081481951,12000,10000,150,True,23.652515100510616,False,173.61321187713114,179.2909727292469,False,False,False
1,1970-07-23 09:33:51.272916386,2025-09-08,2025-09-11 20:25:27.291,HA,A,1486294604,AMBUSH51,1,1,48,2,1,1,225,2,1,0,0,9,1,225,2,1,-144652.43113008072,-4793201.948829608,4196446.526628991,2.31595,2.96538,-0.198612,-112.597,22.6902,26.6286,-0.188442,-7.31833,6.68839,0.0102064,0.00381061,-0.00736218,4,0,41.37991491222211,-91.72858543557388,11277.611749942498,-75.97039877228785,1.339975195385524,0.6440544200986336,12000,10000,150,1,2025-09-08,2025-09-11 20:25:26.624,HA,A,4039652714,JASSM,3,136,76,2,2,1,225,9,2,0,1,26,0,0,0,0,-187716.67810233065,-4786631.934541549,4202530.204557896,-2.30145,-0.153206,0.128279,96.25,-14.75,-12.375,0.0,0.0,0.0,0.0,0.0,0.0,2,0,41.45116950087137,-92.24580975581635,12000.002771729049,99.8212166872619,-0.0068099763899118,0.0071763081481951,12000,10000,150,True,23.64984249034824,False,173.61949338972707,179.29158968328062,False,False,False
1,1970-07-23 09:33:51.274578385,2025-09-08,2025-09-11 20:25:27.457,HA,A,1486493438,AMBUSH51,1,1,48,2,1,1,225,2,1,0,0,9,1,225,2,1,-144670.0658519225,-4793198.401334819,4196450.706386445,2.31802,2.96572,-0.198533,-112.575,22.5608,26.7673,-0.149663,-7.39078,6.58821,0.0170806,-0.000783344,0.00220439,4,0,41.37996106526756,-91.72879731999464,11279.257319520952,-75.98668069135825,1.3511946538097517,0.7660541260291758,12000,10000,150,1,2025-09-08,2025-09-11 20:25:26.624,HA,A,4039652714,JASSM,3,136,76,2,2,1,225,9,2,0,1,26,0,0,0,0,-187716.67810233065,-4786631.934541549,4202530.204557896,-2.30145,-0.153206,0.128279,96.25,-14.75,-12.375,0.0,0.0,0.0,0.0,0.0,0.0,2,0,41.45116950087137,-92.24580975581635,12000.002771729049,99.8212166872619,-0.0068099763899118,0.0071763081481951,12000,10000,150,True,23.63997020508578,False,173.57943888222792,179.29368228711996,False,False,False
1,1970-07-23 09:33:51.274909269,2025-09-08,2025-09-11 20:25:27.490,HA,A,1486533204,AMBUSH51,1,1,48,2,1,1,225,2,1,0,0,9,1,225,2,1,-144674.9490887775,-4793197.409059055,4196451.854442434,2.31802,2.96603,-0.198356,-112.563,22.6839,26.6713,-0.149332,-7.37174,6.62409,0.0087978,-0.000843681,-0.0101023,4,0,41.37997384132767,-91.7288559966114,11279.66826804929,-76.00600949226042,1.357545540260105,0.7689848730700805,12000,10000,150,1,2025-09-08,2025-09-11 20:25:26.624,HA,A,4039652714,JASSM,3,136,76,2,2,1,225,9,2,0,1,26,0,0,0,0,-187716.67810233065,-4786631.934541549,4202530.204557896,-2.30145,-0.153206,0.128279,96.25,-14.75,-12.375,0.0,0.0,0.0,0.0,0.0,0.0,2,0,41.45116950087137,-92.24580975581635,12000.002771729049,99.8212166872619,-0.0068099763899118,0.0071763081481951,12000,10000,150,True,23.637236359659582,False,173.59755646332593,179.29424863707717,False,False,False
1,1970-07-23 09:33:51.275251816,2025-09-08,2025-09-11 20:25:27.525,HA,A,1486572972,AMBUSH51,1,1,48,2,1,1,225,2,1,0,0,9,1,225,2,1,-144677.57253978075,-4793196.87733975,4196452.472451204,2.31846,2.96599,-0.198418,-112.553,22.8068,26.57,-0.182801,-7.32986,6.70418,0.0053024,0.00268085,-0.00594322,4,0,41.37998070526369,-91.72888751932244,11279.89508498106,-76.00182581112723,1.3582047998612092,0.793774832859588,12000,10000,150,1,2025-09-08,2025-09-11 20:25:26.624,HA,A,4039652714,JASSM,3,136,76,2,2,1,225,9,2,0,1,26,0,0,0,0,-187716.67810233065,-4786631.934541549,4202530.204557896,-2.30145,-0.153206,0.128279,96.25,-14.75,-12.375,0.0,0.0,0.0,0.0,0.0,0.0,2,0,41.45116950087137,-92.24580975581635,12000.002771729049,99.8212166872619,-0.0068099763899118,0.0071763081481951,12000,10000,150,True,23.635767660128124,False,173.61741132479645,179.2945546061384,False,False,False
1,1970-07-23 09:33:51.275909140,2025-09-08,2025-09-11 20:25:27.590,HA,A,1486652504,AMBUSH51,1,1,48,2,1,1,225,2,1,0,0,9,1,225,2,1,-144686.20075108565,-4793195.1299709175,4196454.510149672,2.31899,2.96618,-0.19823,-112.545,22.6866,26.6918,-0.11515,-7.26694,6.55742,0.0110677,-0.00505897,-0.00434532,4,0,41.38000330630601,-91.72899119322592,11280.65566274914,-76.0170463850951,1.358944829815066,0.8262170285685202,12000,10000,150,1,2025-09-08,2025-09-11 20:25:26.624,HA,A,4039652714,JASSM,3,136,76,2,2,1,225,9,2,0,1,26,0,0,0,0,-187716.67810233065,-4786631.934541549,4202530.204557896,-2.30145,-0.153206,0.128279,96.25,-14.75,-12.375,0.0,0.0,0.0,0.0,0.0,0.0,2,0,41.45116950087137,-92.24580975581635,12000.002771729049,99.8212166872619,-0.0068099763899118,0.0071763081481951,12000,10000,150,True,23.630937026795852,False,173.58576410555534,179.2955675888221,False,False,False
1,1970-07-23 09:33:51.277575347,2025-09-08,2025-09-11 20:25:27.757,HA,A,1486851338,AMBUSH51,1,1,48,2,1,1,225,2,1,0,0,9,1,225,2,1,-144703.82716669375,-4793191.564437643,4196458.687744217,2.32019,2.96574,-0.198622,-112.525,22.5642,26.8398,-0.18901,-7.29777,6.76066,0.00175914,-0.00561865,0.00087281,4,0,41.380049552736565,-91.72920298546268,11282.251873479268,-75.98388782540287,1.35573231683368,0.8905600550310945,12000,10000,150,1,2025-09-08,2025-09-11 20:25:27.630,HA,A,4040845482,JASSM,3,136,76,2,2,1,225,9,2,0,1,26,0,0,0,0,-187620.4534929556,-4786646.803682174,4202517.647917271,-2.30145,-0.153206,0.128279,96.25,-14.75,-12.375,0.0,0.0,0.0,0.0,0.0,0.0,2,0,41.45101875834892,-92.24465275353226,11999.997567123728,99.82198260030516,-0.005929774969874,0.0071757023599798,12000,10000,150,True,23.568311236676934,False,173.5405825648379,179.29631008928976,False,False,False
1,1970-07-23 09:33:51.278917581,2025-09-08,2025-09-11 20:25:27.891,HA,A,1487010404,AMBUSH51,1,1,48,2,1,1,225,2,1,0,0,9,1,225,2,1,-144719.95611205266,-4793188.302229963,4196462.510733731,2.32148,2.96562,-0.198196,-112.496,22.6879,26.7636,-0.384222,-7.37175,6.81915,0.0100274,-0.0105601,-0.000993484,4,0,41.38009186952758,-91.72939678475844,11283.714309054942,-75.99747263824362,1.3344265927060224,0.9626396120680356,12000,10000,150,1,2025-09-08,2025-09-11 20:25:27.630,HA,A,4040845482,JASSM,3,136,76,2,2,1,225,9,2,0,1,26,0,0,0,0,-187620.4534929556,-4786646.803682174,4202517.647917271,-2.30145,-0.153206,0.128279,96.25,-14.75,-12.375,0.0,0.0,0.0,0.0,0.0,0.0,2,0,41.45101875834892,-92.24465275353226,11999.997567123728,99.82198260030516,-0.005929774969874,0.0071757023599798,12000,10000,150,True,23.559280543313307,False,173.5478308652465,179.298224691116,False,False,False
1,1970-07-23 09:33:51.280582050,2025-09-08,2025-09-11 20:25:28.058,HA,A,1487209238,AMBUSH51,1,1,48,2,1,1,225,2,1,0,0,9,1,225,2,1,-144737.57421150245,-4793184.731769785,4196466.691167708,2.32247,2.96493,-0.198229,-112.468,22.5718,26.8953,-0.128495,-7.40383,6.44893,0.010868,-0.00783864,0.00504024,4,0,41.380138165160126,-91.72960847996744,11285.304271756217,-75.9705255816468,1.3073983539064051,1.012509011670007,12000,10000,150,1,2025-09-08,2025-09-11 20:25:27.630,HA,A,4040845482,JASSM,3,136,76,2,2,1,225,9,2,0,1,26,0,0,0,0,-187620.4534929556,-4786646.803682174,4202517.647917271,-2.30145,-0.153206,0.128279,96.25,-14.75,-12.375,0.0,0.0,0.0,0.0,0.0,0.0,2,0,41.45101875834892,-92.24465275353226,11999.997567123728,99.82198260030516,-0.005929774969874,0.0071757023599798,12000,10000,150,True,23.549415202864758,False,173.50736534576825,179.30032059100446,False,False,False
1,1970-07-23 09:33:51.280911083,2025-09-08,2025-09-11 20:25:28.091,HA,A,1487249004,AMBUSH51,1,1,48,2,1,1,225,2,1,0,0,9,1,225,2,1,-144742.45211122918,-4793183.737799788,4196467.847780242,2.32248,2.96501,-0.198262,-112.457,22.6992,26.8024,-0.152458,-7.33799,6.56868,0.000263195,-0.00535441,-0.00330919,4,0,41.38015100960924,-91.72966709374056,11285.72939788067,-75.97214580330537,1.311970168982206,1.013686748431773,12000,10000,150,1,2025-09-08,2025-09-11 20:25:27.630,HA,A,4040845482,JASSM,3,136,76,2,2,1,225,9,2,0,1,26,0,0,0,0,-187620.4534929556,-4786646.803682174,4202517.647917271,-2.30145,-0.153206,0.128279,96.25,-14.75,-12.375,0.0,0.0,0.0,0.0,0.0,0.0,2,0,41.45101875834892,-92.24465275353226,11999.997567123728,99.82198260030516,-0.005929774969874,0.0071757023599798,12000,10000,150,True,23.546683429685558,False,173.5237019070825,179.30089913208542,False,False,False
1,1970-07-23 09:33:51.281579475,2025-09-08,2025-09-11 20:25:28.157,HA,A,1487328538,AMBUSH51,1,1,48,2,1,1,225,2,1,0,0,9,1,225,2,1,-144748.81847065326,-4793182.448310563,4196469.36223551,2.32293,2.96469,-0.19838,-112.454,22.5846,26.9211,-0.158374,-7.18072,6.61568,0.00331751,-0.00570603,0.0044119,4,0,41.38016776027992,-91.72974359035284,11286.314071483792,-75.95518962639927,1.3032529980154632,1.0365107796527528,12000,10000,150,1,2025-09-08,2025-09-11 20:25:27.630,HA,A,4040845482,JASSM,3,136,76,2,2,1,225,9,2,0,1,26,0,0,0,0,-187620.4534929556,-4786646.803682174,4202517.647917271,-2.30145,-0.153206,0.128279,96.25,-14.75,-12.375,0.0,0.0,0.0,0.0,0.0,0.0,2,0,41.45101875834892,-92.24465275353226,11999.997567123728,99.82198260030516,-0.005929774969874,0.0071757023599798,12000,10000,150,True,23.54311834417652,False,173.49204668984007,179.3016613355118,False,False,False
1,1970-07-23 09:33:51.281912772,2025-09-08,2025-09-11 20:25:28.191,HA,A,1487368304,AMBUSH51,1,1,48,2,1,1,225,2,1,0,0,9,1,225,2,1,-144753.69665783056,-4793181.455376285,4196470.519160626,2.32301,2.96495,-0.198336,-112.444,22.7055,26.8237,-0.326637,-7.25101,6.7046,0.00270789,-0.00215654,-0.00341114,4,0,41.38018060055939,-91.72980220723296,11286.742476294645,-75.9666949473714,1.3122745769861224,1.0434743273439917,12000,10000,150,1,2025-09-08,2025-09-11 20:25:27.630,HA,A,4040845482,JASSM,3,136,76,2,2,1,225,9,2,0,1,26,0,0,0,0,-187620.4534929556,-4786646.803682174,4202517.647917271,-2.30145,-0.153206,0.128279,96.25,-14.75,-12.375,0.0,0.0,0.0,0.0,0.0,0.0,2,0,41.45101875834892,-92.24465275353226,11999.997567123728,99.82198260030516,-0.005929774969874,0.0071757023599798,12000,10000,150,True,23.540386486515928,False,173.51160029660375,179.30224023258305,False,False,False
1,1970-07-23 09:33:51.282579905,2025-09-08,2025-09-11 20:25:28.257,HA,A,1487447836,AMBUSH51,1,1,48,2,1,1,225,2,1,0,0,9,1,225,2,1,-144760.0627458429,-4793180.165926798,4196472.033930747,2.32291,2.96485,-0.198628,-112.441,22.5825,26.9411,-0.300789,-7.37992,6.64583,-0.0049799,-0.00024655,0.00101221,4,0,41.380197353077,-91.7298787006514,11287.327950691595,-75.95051574646686,1.3192886763311016,1.037000842994186,12000,10000,150,1,2025-09-08,2025-09-11 20:25:27.630,HA,A,4040845482,JASSM,3,136,76,2,2,1,225,9,2,0,1,26,0,0,0,0,-187620.4534929556,-4786646.803682174,4202517.647917271,-2.30145,-0.153206,0.128279,96.25,-14.75,-12.375,0.0,0.0,0.0,0.0,0.0,0.0,2,0,41.45101875834892,-92.24465275353226,11999.997567123728,99.82198260030516,-0.005929774969874,0.0071757023599798,12000,10000,150,True,23.536821532401913,False,173.48194517074012,179.30300275520608,False,False,False
1,1970-07-23 09:33:51.282912814,2025-09-08,2025-09-11 20:25:28.291,HA,A,1487487604,AMBUSH51,1,1,48,2,1,1,225,2,1,0,0,9,1,225,2,1,-144764.9765385012,-4793179.179287821,4196473.209439291,2.32272,2.96461,-0.198623,-112.432,22.7056,26.8439,-0.204269,-7.48375,6.74039,-0.00668391,0.0003485,-0.00027984,4,0,41.38021027494215,-91.7299377405344,11287.814826728298,-75.94169939520151,1.309123171533675,1.023581435061912,12000,10000,150,1,2025-09-08,2025-09-11 20:25:27.630,HA,A,4040845482,JASSM,3,136,76,2,2,1,225,9,2,0,1,26,0,0,0,0,-187620.4534929556,-4786646.803682174,4202517.647917271,-2.30145,-0.153206,0.128279,96.25,-14.75,-12.375,0.0,0.0,0.0,0.0,0.0,0.0,2,0,41.45101875834892,-92.24465275353226,11999.997567123728,99.82198260030516,-0.005929774969874,0.0071757023599798,12000,10000,150,True,23.534070088364686,False,173.50120949246246,179.30360039128186,False,False,False
1,1970-07-23 09:33:51.283260977,2025-09-08,2025-09-11 20:25:28.326,HA,A,1487527370,AMBUSH51,1,1,48,2,1,1,225,2,1,0,0,9,1,225,2,1,-144767.60201608963,-4793178.647337029,4196473.830286302,2.32296,2.96442,-0.198597,-112.422,22.8342,26.7393,-0.146486,-7.34246,6.61623,-0.00479265,-0.00234379,0.0101668,4,0,41.38021715875387,-91.7299692877358,11288.04751321384,-75.93590069866963,1.3005266316675286,1.035478315519593,12000,10000,150,1,2025-09-08,2025-09-11 20:25:27.630,HA,A,4040845482,JASSM,3,136,76,2,2,1,225,9,2,0,1,26,0,0,0,0,-187620.4534929556,-4786646.803682174,4202517.647917271,-2.30145,-0.153206,0.128279,96.25,-14.75,-12.375,0.0,0.0,0.0,0.0,0.0,0.0,2,0,41.45101875834892,-92.24465275353226,11999.997567123728,99.82198260030516,-0.005929774969874,0.0071757023599798,12000,10000,150,True,23.532600116574113,False,173.52166939508712,179.30390980129945,False,False,False
1,1970-07-23 09:33:51.283909250,2025-09-08,2025-09-11 20:25:28.390,HA,A,1487606904,AMBUSH51,1,1,48,2,1,1,225,2,1,0,0,9,1,225,2,1,-144776.22086133642,-4793176.89453778,4196475.885023962,2.32302,2.96436,-0.199069,-112.417,22.7167,26.8639,-0.290412,-7.26421,6.78127,0.0029971,0.00186733,0.00626363,4,0,41.38023990783185,-91.73007285241248,11288.831424741167,-75.91342448908642,1.315948472843251,1.0384799553397015,12000,10000,150,1,2025-09-08,2025-09-11 20:25:27.630,HA,A,4040845482,JASSM,3,136,76,2,2,1,225,9,2,0,1,26,0,0,0,0,-187620.4534929556,-4786646.803682174,4202517.647917271,-2.30145,-0.153206,0.128279,96.25,-14.75,-12.375,0.0,0.0,0.0,0.0,0.0,0.0,2,0,41.45101875834892,-92.24465275353226,11999.997567123728,99.82198260030516,-0.005929774969874,0.0071757023599798,12000,10000,150,True,23.527772798262063,False,173.48853692460727,179.3049462164989,False,False,False
1,1970-07-23 09:33:51.284246352,2025-09-08,2025-09-11 20:25:28.424,HA,A,1487646670,AMBUSH51,1,1,48,2,1,1,225,2,1,0,0,9,1,225,2,1,-144778.83969680063,-4793176.362919007,4196476.505568455,2.3227,2.96424,-0.199081,-112.403,22.8419,26.759,-0.170806,-7.3483,6.44479,-0.00937828,-0.011592,-0.00365456,4,0,41.38024678878182,-91.73010432019466,11289.06379506591,-75.90844869621701,1.3115165347085422,1.0190006673407934,12000,10000,150,1,2025-09-08,2025-09-11 20:25:27.630,HA,A,4040845482,JASSM,3,136,76,2,2,1,225,9,2,0,1,26,0,0,0,0,-187620.4534929556,-4786646.803682174,4202517.647917271,-2.30145,-0.153206,0.128279,96.25,-14.75,-12.375,0.0,0.0,0.0,0.0,0.0,0.0,2,0,41.45101875834892,-92.24465275353226,11999.997567123728,99.82198260030516,-0.005929774969874,0.0071757023599798,12000,10000,150,True,23.526306374551844,False,173.50917117028695,179.30525630847427,False,False,False
1,1970-07-23 09:33:51.284913314,2025-09-08,2025-09-11 20:25:28.491,HA,A,1487726204,AMBUSH51,1,1,48,2,1,1,225,2,1,0,0,9,1,225,2,1,-144787.45840188893,-4793174.616754744,4196478.566610165,2.32245,2.96391,-0.19926,-112.396,22.7213,26.8837,-0.141092,-7.47703,6.65269,-0.00128685,-0.00108087,0.00924096,4,0,41.380269540875645,-91.73020788088785,11289.877749221032,-75.88867578369945,1.3048600896077582,1.0014834052033663,12000,10000,150,1,2025-09-08,2025-09-11 20:25:27.630,HA,A,4040845482,JASSM,3,136,76,2,2,1,225,9,2,0,1,26,0,0,0,0,-187620.4534929556,-4786646.803682174,4202517.647917271,-2.30145,-0.153206,0.128279,96.25,-14.75,-12.375,0.0,0.0,0.0,0.0,0.0,0.0,2,0,41.45101875834892,-92.24465275353226,11999.997567123728,99.82198260030516,-0.005929774969874,0.0071757023599798,12000,10000,150,True,23.52147921370427,False,173.47626734294877,179.3063014566218,False,False,False
1,1970-07-23 09:33:51.285258194,2025-09-08,2025-09-11 20:25:28.525,HA,A,1487765970,AMBUSH51,1,1,48,2,1,1,225,2,1,0,0,9,1,225,2,1,-144790.08451624744,-4793174.082787394,4196479.191045643,2.32258,2.96383,-0.199238,-112.388,22.8499,26.7801,-0.138518,-7.29464,6.6325,-0.000958114,-0.000356822,0.00812576,4,0,41.380276460719294,-91.73023943647256,11290.113337014818,-75.88647432846733,1.3005228550028252,1.008009781327203,12000,10000,150,1,2025-09-08,2025-09-11 20:25:27.630,HA,A,4040845482,JASSM,3,136,76,2,2,1,225,9,2,0,1,26,0,0,0,0,-187620.4534929556,-4786646.803682174,4202517.647917271,-2.30145,-0.153206,0.128279,96.25,-14.75,-12.375,0.0,0.0,0.0,0.0,0.0,0.0,2,0,41.45101875834892,-92.24465275353226,11999.997567123728,99.82198260030516,-0.005929774969874,0.0071757023599798,12000,10000,150,True,23.520008489273476,False,173.49657239377916,179.30661505219285,False,False,False
1,1970-07-23 09:33:51.285912785,2025-09-08,2025-09-11 20:25:28.591,HA,A,1487845504,AMBUSH51,1,1,48,2,1,1,225,2,1,0,0,9,1,225,2,1,-144798.69586081084,-4793172.333791507,4196481.243690172,2.3226,2.9636,-0.199318,-112.381,22.7347,26.9023,-0.169798,-7.24035,6.65097,-0.00134927,-0.00367745,0.00685036,4,0,41.38029917414742,-91.73034291036632,11290.901619185965,-75.87452199543378,1.2941704549844162,1.0068629987017512,12000,10000,150,1,2025-09-08,2025-09-11 20:25:27.630,HA,A,4040845482,JASSM,3,136,76,2,2,1,225,9,2,0,1,26,0,0,0,0,-187620.4534929556,-4786646.803682174,4202517.647917271,-2.30145,-0.153206,0.128279,96.25,-14.75,-12.375,0.0,0.0,0.0,0.0,0.0,0.0,2,0,41.45101875834892,-92.24465275353226,11999.997567123728,99.82198260030516,-0.005929774969874,0.0071757023599798,12000,10000,150,True,23.515185600430488,False,173.463786165097,179.3076500179571,False,False,False
1,1970-07-23 09:33:51.287908294,2025-09-08,2025-09-11 20:25:28.790,HA,A,1488084102,AMBUSH51,1,1,48,2,1,1,225,2,1,0,0,9,1,225,2,1,-144820.04797002836,-4793168.00699022,4196486.356526284,2.32252,2.9633,-0.198859,-112.348,22.7533,26.9406,-0.192181,-7.19902,6.64804,-0.00949063,-0.00950312,-0.00169048,4,0,41.38035559051604,-91.73059947396295,11292.931105721384,-75.8827705486199,1.2640273148731729,0.9989191334630534,12000,10000,150,1,2025-09-08,2025-09-11 20:25:28.615,HA,A,4042038526,JASSM,3,136,76,2,2,1,225,9,2,0,1,26,0,0,0,0,-187524.20544608065,-4786661.676729049,4202505.089323521,-2.30145,-0.153206,0.128279,96.25,-14.75,-12.375,0.0,0.0,0.0,0.0,0.0,0.0,2,0,41.45086797322671,-92.24349547466156,12000.000410902634,99.82274869415107,-0.0050493600196121,0.0071751020734636,12000,10000,150,True,23.450456382113966,False,173.43938007888758,179.30891835860714,False,False,False
1,1970-07-23 09:33:51.288910019,2025-09-08,2025-09-11 20:25:28.891,HA,A,1488203402,AMBUSH51,1,1,48,2,1,1,225,2,1,0,0,9,1,225,2,1,-144832.40178754838,-4793165.509402499,4196489.327471484,2.32276,2.96355,-0.198523,-112.328,22.7598,26.9623,-0.2278,-7.36364,6.58817,0.00124524,-0.000231986,-0.00396041,4,0,41.38038828324635,-91.73074791358576,11294.147415606336,-75.90675869771843,1.261941748450299,1.0146137345454984,12000,10000,150,1,2025-09-08,2025-09-11 20:25:28.615,HA,A,4042038526,JASSM,3,136,76,2,2,1,225,9,2,0,1,26,0,0,0,0,-187524.20544608065,-4786661.676729049,4202505.089323521,-2.30145,-0.153206,0.128279,96.25,-14.75,-12.375,0.0,0.0,0.0,0.0,0.0,0.0,2,0,41.45086797322671,-92.24349547466156,12000.000410902634,99.82274869415107,-0.0050493600196121,0.0071751020734636,12000,10000,150,True,23.44353650128198,False,173.42608373494684,179.31044040769888,False,False,False
1,1970-07-23 09:33:51.289911694,2025-09-08,2025-09-11 20:25:28.991,HA,A,1488322702,AMBUSH51,1,1,48,2,1,1,225,2,1,0,0,9,1,225,2,1,-144843.6352770204,-4793163.270331322,4196492.056528797,2.32283,2.96381,-0.198218,-112.351,22.0234,27.6211,-0.2278,-7.36364,6.58817,0.00124524,-0.000231986,-0.00396041,4,0,41.38041800656481,-91.73088288025455,11295.392005664386,-75.92956575581114,1.261122161529287,1.0212376931360487,12000,10000,150,1,2025-09-08,2025-09-11 20:25:28.615,HA,A,4042038526,JASSM,3,136,76,2,2,1,225,9,2,0,1,26,0,0,0,0,-187524.20544608065,-4786661.676729049,4202505.089323521,-2.30145,-0.153206,0.128279,96.25,-14.75,-12.375,0.0,0.0,0.0,0.0,0.0,0.0,2,0,41.45086797322671,-92.24349547466156,12000.000410902634,99.82274869415107,-0.0050493600196121,0.0071751020734636,12000,10000,150,True,23.43724473771036,False,173.26064246232986,179.31186385807388,False,False,False
1,1970-07-23 09:33:51.290583708,2025-09-08,2025-09-11 20:25:29.058,HA,A,1488402236,AMBUSH51,1,1,48,2,1,1,225,2,1,0,0,9,1,225,2,1,-144849.9957532259,-4793161.926812146,4196493.539028881,2.32378,2.96292,-0.198825,-112.306,22.6557,27.1036,-0.155209,-7.25504,6.68837,0.00786985,-0.00048998,0.00275367,4,0,41.38043486296894,-91.73095932666077,11295.774352973043,-75.87029280602007,1.2473528815991564,1.0671155760210271,12000,10000,150,1,2025-09-08,2025-09-11 20:25:28.615,HA,A,4042038526,JASSM,3,136,76,2,2,1,225,9,2,0,1,26,0,0,0,0,-187524.20544608065,-4786661.676729049,4202505.089323521,-2.30145,-0.153206,0.128279,96.25,-14.75,-12.375,0.0,0.0,0.0,0.0,0.0,0.0,2,0,41.45086797322671,-92.24349547466156,12000.000410902634,99.82274869415107,-0.0050493600196121,0.0071751020734636,12000,10000,150,True,23.433680805725665,False,173.38017886410347,179.3125789278721,False,False,False
1,1970-07-23 09:33:51.290908387,2025-09-08,2025-09-11 20:25:29.090,HA,A,1488442002,AMBUSH51,1,1,48,2,1,1,225,2,1,0,0,9,1,225,2,1,-144854.86213235513,-4793160.93080247,4196494.701392624,2.3236,2.9634,-0.199311,-112.292,22.7831,27.0037,-0.097591,-7.26451,6.6433,-0.000550317,0.0135124,-0.00358799,4,0,41.380447759750055,-91.73101780405804,11296.206385835434,-75.86771168816313,1.2860405133654818,1.062345301671118,12000,10000,150,1,2025-09-08,2025-09-11 20:25:28.615,HA,A,4042038526,JASSM,3,136,76,2,2,1,225,9,2,0,1,26,0,0,0,0,-187524.20544608065,-4786661.676729049,4202505.089323521,-2.30145,-0.153206,0.128279,96.25,-14.75,-12.375,0.0,0.0,0.0,0.0,0.0,0.0,2,0,41.45086797322671,-92.24349547466156,12000.000410902634,99.82274869415107,-0.0050493600196121,0.0071751020734636,12000,10000,150,True,23.43095456566158,False,173.3990738036093,179.3131663728371,False,False,False
1,1970-07-23 09:33:51.292573418,2025-09-08,2025-09-11 20:25:29.257,HA,A,1488640836,AMBUSH51,1,1,48,2,1,1,225,2,1,0,0,9,1,225,2,1,-144872.45553068674,-4793157.35176355,4196498.929440199,2.32494,2.96322,-0.199309,-112.268,22.6765,27.1384,-0.0705726,-7.32302,6.52242,0.0128362,-0.00135967,0.00179659,4,0,41.3804944292997,-91.73122920941891,11297.878006743776,-75.86115547052869,1.278665783601027,1.1369638075260138,12000,10000,150,1,2025-09-08,2025-09-11 20:25:28.615,HA,A,4042038526,JASSM,3,136,76,2,2,1,225,9,2,0,1,26,0,0,0,0,-187524.20544608065,-4786661.676729049,4202505.089323521,-2.30145,-0.153206,0.128279,96.25,-14.75,-12.375,0.0,0.0,0.0,0.0,0.0,0.0,2,0,41.45086797322671,-92.24349547466156,12000.000410902634,99.82274869415107,-0.0050493600196121,0.0071751020734636,12000,10000,150,True,23.421098298013398,False,173.35621268871753,179.31532581928573,False,False,False
1,1970-07-23 09:33:51.292906129,2025-09-08,2025-09-11 20:25:29.290,HA,A,1488680602,AMBUSH51,1,1,48,2,1,1,225,2,1,0,0,9,1,225,2,1,-144877.21101053973,-4793156.409133667,4196500.03480404,2.32436,2.96438,-0.200495,-112.2,22.7789,27.0117,-0.138467,-7.1937,6.6198,0.00543139,0.000666831,-0.00682331,4,0,41.38050664357751,-91.73128634319971,11298.309577415934,-75.85453580650908,1.3727247046564997,1.1174050612774538,12000,10000,150,1,2025-09-08,2025-09-11 20:25:28.615,HA,A,4042038526,JASSM,3,136,76,2,2,1,225,9,2,0,1,26,0,0,0,0,-187524.20544608065,-4786661.676729049,4202505.089323521,-2.30145,-0.153206,0.128279,96.25,-14.75,-12.375,0.0,0.0,0.0,0.0,0.0,0.0,2,0,41.45086797322671,-92.24349547466156,12000.000410902634,99.82274869415107,-0.0050493600196121,0.0071751020734636,12000,10000,150,True,23.418438890744813,False,173.38350696131843,179.31586387812138,False,False,False
1,1970-07-23 09:33:51.296584291,2025-09-08,2025-09-11 20:25:29.658,HA,A,1489118036,AMBUSH51,1,1,48,2,1,1,225,2,1,0,0,9,1,225,2,1,-144917.59015021677,-4793148.168207456,4196509.749768547,2.32959,2.96412,-0.20023,-112.131,22.8289,27.0858,-0.207976,-7.2285,6.53047,0.0163691,-0.000889454,-0.00275159,4,0,41.38061398707308,-91.73177155679814,11302.105519307748,-75.8561890380509,1.3519417564438672,1.4135928550465844,12000,10000,150,1,2025-09-08,2025-09-11 20:25:29.629,HA,A,4043231574,JASSM,3,136,76,2,2,1,225,9,2,0,1,26,0,0,0,0,-187427.95935233065,-4786676.549775924,4202492.526823521,-2.30145,-0.153206,0.128279,96.25,-14.75,-12.375,0.0,0.0,0.0,0.0,0.0,0.0,2,0,41.450717149656725,-92.24233822449396,11999.99990934508,99.82351476670638,-0.0041689577133667,0.0071744723482139,12000,10000,150,True,23.343045262067907,False,173.33297196078445,179.31952017207283,False,False,False
1,1970-07-23 09:33:51.300248600,2025-09-08,2025-09-11 20:25:30.024,HA,A,1489555468,AMBUSH51,1,1,48,2,1,1,225,2,1,0,0,9,1,225,2,1,-144959.8086172121,-4793139.541992494,4196519.951313777,2.3351,2.96406,-0.198762,-112.062,22.7726,27.2742,-0.22324,-7.311,6.59856,0.00274534,-0.0037898,-0.0042517,4,0,41.38072657431471,-91.73227887766228,11306.146526138897,-75.91680986713715,1.293569418695238,1.7271773629135292,12000,10000,150,1,2025-09-08,2025-09-11 20:25:29.629,HA,A,4043231574,JASSM,3,136,76,2,2,1,225,9,2,0,1,26,0,0,0,0,-187427.95935233065,-4786676.549775924,4202492.526823521,-2.30145,-0.153206,0.128279,96.25,-14.75,-12.375,0.0,0.0,0.0,0.0,0.0,0.0,2,0,41.450717149656725,-92.24233822449396,11999.99990934508,99.82351476670638,-0.0041689577133667,0.0071744723482139,12000,10000,150,True,23.319386620851194,False,173.25184761553336,179.32477000998682,False,False,False
1,1970-07-23 09:33:51.300579738,2025-09-08,2025-09-11 20:25:30.057,HA,A,1489595234,AMBUSH51,1,1,48,2,1,1,225,2,1,0,0,9,1,225,2,1,-144962.42581310446,-4793139.000547217,4196520.580592618,2.33588,2.96416,-0.198808,-112.049,22.9061,27.1712,-0.0903391,-7.18195,6.44503,0.0188991,-0.00401243,-0.00482802,4,0,41.380733572353165,-91.73231032982936,11306.373809630291,-75.91868179131649,1.2996081024526018,1.7730486821533864,12000,10000,150,1,2025-09-08,2025-09-11 20:25:29.629,HA,A,4043231574,JASSM,3,136,76,2,2,1,225,9,2,0,1,26,0,0,0,0,-187427.95935233065,-4786676.549775924,4202492.526823521,-2.30145,-0.153206,0.128279,96.25,-14.75,-12.375,0.0,0.0,0.0,0.0,0.0,0.0,2,0,41.450717149656725,-92.24233822449396,11999.99990934508,99.82351476670638,-0.0041689577133667,0.0071744723482139,12000,10000,150,True,23.317919680062584,False,173.27080279978222,179.32509023366225,False,False,False
