Subject_ac,Timestamp,SampleDate_ac,SampleTime_ac,Configuration_ac,Scenario_ac,DisTime_ac,MarkingTxt_ac,Aplication_ac,EntId_ac,Site_ac,ExersiseId_ac,ForceId_ac,Category_ac,Country_ac,Domain_ac,Kind_ac,Extra_ac,Specific_ac,Subcategory_ac,AltCategory_ac,AltCountry_ac,AltDomain_ac,AltKind_ac,EcefX_ac,EcefY_ac,EcefZ_ac,OriPhi_ac,OriPsi_ac,OriTheta_ac,LinVelX_ac,LinVelY_ac,LinVelZ_ac,LinAccX_ac,LinAccY_ac,LinAccZ_ac,AngVelX_ac,AngVelY_ac,AngVelZ_ac,DrAlg_ac,Apperance_ac,Latitude_ac,Longitude_ac,Altitude_ac,Heading_ac,Pitch_ac,Roll_ac,CM_Altitude_Lead_ac,CM_Altitude_Wing_ac,CM_Airspeed_ac,Subject_cm,SampleDate_cm,SampleTime_cm,Configuration_cm,Scenario_cm,DisTime_cm,MarkingTxt_cm,Aplication_cm,EntId_cm,Site_cm,ExersiseId_cm,ForceId_cm,Category_cm,Country_cm,Domain_cm,Kind_cm,Extra_cm,Specific_cm,Subcategory_cm,AltCategory_cm,AltCountry_cm,AltDomain_cm,AltKind_cm,EcefX_cm,EcefY_cm,EcefZ_cm,OriPhi_cm,OriPsi_cm,OriTheta_cm,LinVelX_cm,LinVelY_cm,LinVelZ_cm,LinAccX_cm,LinAccY_cm,LinAccZ_cm,AngVelX_cm,AngVelY_cm,AngVelZ_cm,DrAlg_cm,Apperance_cm,Latitude_cm,Longitude_cm,Altitude_cm,Heading_cm,Pitch_cm,Roll_cm,CM_Altitude_Lead_cm,CM_Altitude_Wing_cm,CM_Airspeed_cm,Bank_Angle_Condition,distance_nm,Distance_Condition,angle_between_vel,angle_between_pos,Cone_Condition,Intercept_Criteria
1,1970-07-23 09:33:35.683845656,2025-09-08,2025-09-11 19:59:28.384,HH,A,3921456384,AMBUSH51,1,1,48,2,1,1,225,2,1,0,0,9,1,225,2,1,-141256.902735179,-4795230.294957813,4194285.738097894,2.37197,2.75231,-0.39348,-94.4715,36.1726,37.8364,-0.123782,-7.11136,6.7579,-0.015102,0.000670992,-0.00456378,4,0,41.35386525413398,-91.68731927770123,11335.396288152486,-59.82196646079375,0.5273729736924309,0.5396206723526029,10000,12000,150,1.0,2025-09-08,2025-09-11 19:59:28.311,HH,A,2180468468.0,JASSM,3.0,113.0,76.0,2.0,2.0,1.0,225.0,9.0,2.0,0.0,1.0,26.0,0.0,0.0,0.0,0.0,-187663.7659929556,-4786640.110322799,4202523.300261021,-2.30145,-0.153206,0.128279,96.25,-14.75,-12.375,0.0,0.0,0.0,0.0,0.0,0.0,2.0,0.0,41.45108661714249,-92.24517354150572,11999.998908344389,99.8216378490633,-0.0063259712011207,0.0071759802540139,10000,12000,150.0,True,25.75665905562527,False,162.21400697982702,176.8151368626761,False,False
1,1970-07-23 09:33:35.687844438,2025-09-08,2025-09-11 19:59:28.784,HH,A,3921933584,AMBUSH51,1,1,48,2,1,1,225,2,1,0,0,9,1,225,2,1,-141294.08088760375,-4795215.946637899,4194300.55030945,2.37108,2.75165,-0.394277,-94.5431,36.3691,37.8364,-0.032491,-7.07162,6.79032,-0.000747974,0.00159478,0.00993588,4,0,41.35404407929445,-91.68776816260905,11334.879951521838,-59.765283855819824,0.5356813783478331,0.4745370030605436,10000,12000,150,1.0,2025-09-08,2025-09-11 19:59:28.311,HH,A,2180468468.0,JASSM,3.0,113.0,76.0,2.0,2.0,1.0,225.0,9.0,2.0,0.0,1.0,26.0,0.0,0.0,0.0,0.0,-187663.7659929556,-4786640.110322799,4202523.300261021,-2.30145,-0.153206,0.128279,96.25,-14.75,-12.375,0.0,0.0,0.0,0.0,0.0,0.0,2.0,0.0,41.45108661714249,-92.24517354150572,11999.998908344389,99.8216378490633,-0.0063259712011207,0.0071759802540139,10000,12000,150.0,True,25.73456734544254,False,162.17470048669466,176.8278310746222,False,False
1,1970-07-23 09:33:35.688513100,2025-09-08,2025-09-11 19:59:28.851,HH,A,3922013116,AMBUSH51,1,1,48,2,1,1,225,2,1,0,0,9,1,225,2,1,-141300.38358364804,-4795213.537843727,4194303.0877213352,2.37119,2.75122,-0.394815,-94.5453,35.8976,38.289,-0.032491,-7.07162,6.79032,-0.000747974,0.00159478,0.00993588,4,0,41.35407443229988,-91.6878442525978,11334.907789252537,-59.72733344652197,0.5415244423417029,0.4720316244704325,10000,12000,150,1.0,2025-09-08,2025-09-11 19:59:28.311,HH,A,2180468468.0,JASSM,3.0,113.0,76.0,2.0,2.0,1.0,225.0,9.0,2.0,0.0,1.0,26.0,0.0,0.0,0.0,0.0,-187663.7659929556,-4786640.110322799,4202523.300261021,-2.30145,-0.153206,0.128279,96.25,-14.75,-12.375,0.0,0.0,0.0,0.0,0.0,0.0,2.0,0.0,41.45108661714249,-92.24517354150572,11999.998908344389,99.8216378490633,-0.0063259712011207,0.0071759802540139,10000,12000,150.0,True,25.730822186748966,False,162.14851286321027,176.82999638176994,False,False
1,1970-07-23 09:33:35.691855365,2025-09-08,2025-09-11 19:59:29.185,HH,A,3922410782,AMBUSH51,1,1,48,2,1,1,225,2,1,0,0,9,1,225,2,1,-141332.54260902945,-4795201.098670853,4194315.91795836,2.37089,2.7498,-0.394661,-94.6212,36.3245,38.0497,-0.068987,-7.03053,6.68552,0.00745997,0.000406756,0.00345691,4,0,41.35422939947733,-91.6882325493,11334.431728086522,-59.68029861825355,0.4827912170385455,0.4235548220202446,10000,12000,150,1.0,2025-09-08,2025-09-11 19:59:28.311,HH,A,2180468468.0,JASSM,3.0,113.0,76.0,2.0,2.0,1.0,225.0,9.0,2.0,0.0,1.0,26.0,0.0,0.0,0.0,0.0,-187663.7659929556,-4786640.110322799,4202523.300261021,-2.30145,-0.153206,0.128279,96.25,-14.75,-12.375,0.0,0.0,0.0,0.0,0.0,0.0,2.0,0.0,41.45108661714249,-92.24517354150572,11999.998908344389,99.8216378490633,-0.0063259712011207,0.0071759802540139,10000,12000,150.0,True,25.711709803802087,False,162.13123631459752,176.84103102497733,False,False
1,1970-07-23 09:33:35.695517535,2025-09-08,2025-09-11 19:59:29.551,HH,A,3922848216,AMBUSH51,1,1,48,2,1,1,225,2,1,0,0,9,1,225,2,1,-141366.5837568549,-4795188.001168991,4194329.451110359,2.36816,2.74808,-0.393464,-94.7098,36.3916,38.0749,-0.118985,-6.93711,6.68903,-0.013554,-0.00370034,0.00917022,4,0,41.354392696514665,-91.68864354875582,11333.996081747426,-59.66393368803083,0.3705528658148219,0.2296678167520994,10000,12000,150,1.0,2025-09-08,2025-09-11 19:59:29.239,HH,A,2181602312.0,JASSM,3.0,113.0,76.0,2.0,2.0,1.0,225.0,9.0,2.0,0.0,1.0,26.0,0.0,0.0,0.0,0.0,-187572.2933367056,-4786654.247041549,4202511.364714146,-2.30145,-0.153206,0.128279,96.25,-14.75,-12.375,0.0,0.0,0.0,0.0,0.0,0.0,2.0,0.0,41.45094330863456,-92.24407367838234,12000.003204381565,99.82236593594855,-0.0054892362032271,0.0071754000990801,10000,12000,150.0,True,25.64141857872454,False,162.12533485093206,176.8467312151131,False,False
1,1970-07-23 09:33:35.699179369,2025-09-08,2025-09-11 19:59:29.917,HH,A,3923285648,AMBUSH51,1,1,48,2,1,1,225,2,1,0,0,9,1,225,2,1,-141401.96430038096,-4795174.27580258,4194343.573002718,2.36763,2.74701,-0.392695,-94.7907,36.6457,37.9909,-0.137886,-6.98447,6.62424,-0.00283897,0.00184653,0.00486547,4,0,41.35456346596289,-91.68907076135814,11333.389075975463,-59.65477928924816,0.2997741472485815,0.1758381800892603,10000,12000,150,1.0,2025-09-08,2025-09-11 19:59:29.239,HH,A,2181602312.0,JASSM,3.0,113.0,76.0,2.0,2.0,1.0,225.0,9.0,2.0,0.0,1.0,26.0,0.0,0.0,0.0,0.0,-187572.2933367056,-4786654.247041549,4202511.364714146,-2.30145,-0.153206,0.128279,96.25,-14.75,-12.375,0.0,0.0,0.0,0.0,0.0,0.0,2.0,0.0,41.45094330863456,-92.24407367838234,12000.003204381565,99.82236593594855,-0.0054892362032271,0.0071754000990801,10000,12000,150.0,True,25.620388740590275,False,162.10167060569756,176.85895689920255,False,False
1,1970-07-23 09:33:35.703515874,2025-09-08,2025-09-11 19:59:30.351,HH,A,3923802614,AMBUSH51,1,1,48,2,1,1,225,2,1,0,0,9,1,225,2,1,-141442.36947633064,-4795158.522720162,4194359.765830223,2.36802,2.74656,-0.39272,-94.8878,36.6708,38.1571,-0.107894,-7.05167,6.69838,0.00521501,0.00308448,0.000102989,4,0,41.35475939377258,-91.68955867573617,11332.645443099676,-59.6372674228951,0.2847015368678776,0.1884735362891483,10000,12000,150,1.0,2025-09-08,2025-09-11 19:59:30.239,HH,A,2182794908.0,JASSM,3.0,113.0,76.0,2.0,2.0,1.0,225.0,9.0,2.0,0.0,1.0,26.0,0.0,0.0,0.0,0.0,-187476.0823992056,-4786669.114229049,4202498.808073521,-2.30145,-0.153206,0.128279,96.25,-14.75,-12.375,0.0,0.0,0.0,0.0,0.0,0.0,2.0,0.0,41.45079255708448,-92.24291684845056,12000.001940926952,99.82313173146198,-0.0046091575400633,0.0071747815471911,10000,12000,150.0,True,25.543692723349277,False,162.06001898621494,176.86686255989287,False,False
1,1970-07-23 09:33:35.707177680,2025-09-08,2025-09-11 19:59:30.717,HH,A,3924240048,AMBUSH51,1,1,48,2,1,1,225,2,1,0,0,9,1,225,2,1,-141477.8074435998,-4795144.711466732,4194373.92660561,2.3652,2.74644,-0.393529,-94.9826,36.8746,38.1145,-0.143454,-6.9908,6.80299,-0.00596402,-0.000970597,-0.00151571,4,0,41.35493092288158,-91.68998660897664,11331.917278982077,-59.60045811592712,0.3135811027444461,0.0245094022998242,10000,12000,150,1.0,2025-09-08,2025-09-11 19:59:30.239,HH,A,2182794908.0,JASSM,3.0,113.0,76.0,2.0,2.0,1.0,225.0,9.0,2.0,0.0,1.0,26.0,0.0,0.0,0.0,0.0,-187476.0823992056,-4786669.114229049,4202498.808073521,-2.30145,-0.153206,0.128279,96.25,-14.75,-12.375,0.0,0.0,0.0,0.0,0.0,0.0,2.0,0.0,41.45079255708448,-92.24291684845056,12000.001940926952,99.82313173146198,-0.0046091575400633,0.0071747815471911,10000,12000,150.0,True,25.52262303381546,False,162.03966323287835,176.87922386443034,False,False
1,1970-07-23 09:33:35.711517162,2025-09-08,2025-09-11 19:59:31.151,HH,A,3924757014,AMBUSH51,1,1,48,2,1,1,225,2,1,0,0,9,1,225,2,1,-141518.36163738515,-4795128.910917988,4194390.16025785,2.36201,2.74692,-0.394332,-95.0897,36.8244,38.3019,-0.200862,-7.05902,6.81581,-0.00971118,0.00893719,0.00367329,4,0,41.35512737856863,-91.69047632466236,11331.15819136683,-59.58654791869693,0.3645670809870544,-0.1475932291313882,10000,12000,150,1.0,2025-09-08,2025-09-11 19:59:31.149,HH,A,2183928304.0,JASSM,3.0,113.0,76.0,2.0,2.0,1.0,225.0,9.0,2.0,0.0,1.0,26.0,0.0,0.0,0.0,0.0,-187384.64685233065,-4786683.241182174,4202486.874479771,-2.30145,-0.153206,0.128279,96.25,-14.75,-12.375,0.0,0.0,0.0,0.0,0.0,0.0,2.0,0.0,41.45064928964929,-92.24181744334436,11999.999226946553,99.82385951090268,-0.0037727641152735,0.0071742057434979,10000,12000,150.0,True,25.448456372030634,False,162.01536990409838,176.88755005016145,False,False
1,1970-07-23 09:33:35.715844180,2025-09-08,2025-09-11 19:59:31.584,HH,A,3925273980,AMBUSH51,1,1,48,2,1,1,225,2,1,0,0,9,1,225,2,1,-141560.07055091162,-4795112.558375666,4194406.932320724,2.36258,2.74474,-0.395743,-95.16,36.9325,38.3542,-0.101028,-7.08687,6.65296,0.0113257,0.00414142,0.0187368,4,0,41.355330547284346,-91.6909800233584,11330.292466005616,-59.44790573718775,0.341757437647899,-0.1621951281322716,10000,12000,150,1.0,2025-09-08,2025-09-11 19:59:31.149,HH,A,2183928304.0,JASSM,3.0,113.0,76.0,2.0,2.0,1.0,225.0,9.0,2.0,0.0,1.0,26.0,0.0,0.0,0.0,0.0,-187384.64685233065,-4786683.241182174,4202486.874479771,-2.30145,-0.153206,0.128279,96.25,-14.75,-12.375,0.0,0.0,0.0,0.0,0.0,0.0,2.0,0.0,41.45064928964929,-92.24181744334436,11999.999226946553,99.82385951090268,-0.0037727641152735,0.0071742057434979,10000,12000,150.0,True,25.423641724622343,False,161.98327666893658,176.90233728795496,False,False
1,1970-07-23 09:33:35.719843356,2025-09-08,2025-09-11 19:59:31.984,HH,A,3925751180,AMBUSH51,1,1,48,2,1,1,225,2,1,0,0,9,1,225,2,1,-141597.52195589113,-4795097.92484637,4194421.947894684,2.3622,2.74498,-0.396386,-95.2574,37.1205,38.3147,-0.0393937,-7.06598,6.75919,0.00606181,-0.000369306,-0.00286186,4,0,41.3555123790832,-91.69143229129872,11329.542338581592,-59.43145103431791,0.3773200792918189,-0.178254804351097,10000,12000,150,1.0,2025-09-08,2025-09-11 19:59:31.149,HH,A,2183928304.0,JASSM,3.0,113.0,76.0,2.0,2.0,1.0,225.0,9.0,2.0,0.0,1.0,26.0,0.0,0.0,0.0,0.0,-187384.64685233065,-4786683.241182174,4202486.874479771,-2.30145,-0.153206,0.128279,96.25,-14.75,-12.375,0.0,0.0,0.0,0.0,0.0,0.0,2.0,0.0,41.45064928964929,-92.24181744334436,11999.999226946553,99.82385951090268,-0.0037727641152735,0.0071742057434979,10000,12000,150.0,True,25.401370331577002,False,161.96713803296177,176.91556237291496,False,False
1,1970-07-23 09:33:35.724178537,2025-09-08,2025-09-11 19:59:32.417,HH,A,3926268146,AMBUSH51,1,1,48,2,1,1,225,2,1,0,0,9,1,225,2,1,-141639.34215865974,-4795081.587226635,4194438.714476833,2.36126,2.74575,-0.396547,-95.3436,37.1507,38.3718,-0.153204,-7.13239,6.77501,-0.00405404,-0.000346419,-0.0097195,4,0,41.35571539838087,-91.691937319372,11328.71178835849,-59.45449651707645,0.4130153940858922,-0.2154286563506239,10000,12000,150,1.0,2025-09-08,2025-09-11 19:59:32.151,HH,A,2185061794.0,JASSM,3.0,113.0,76.0,2.0,2.0,1.0,225.0,9.0,2.0,0.0,1.0,26.0,0.0,0.0,0.0,0.0,-187293.2034929556,-4786697.368135299,4202474.940886021,-2.30145,-0.153206,0.128279,96.25,-14.75,-12.375,0.0,0.0,0.0,0.0,0.0,0.0,2.0,0.0,41.45050601352354,-92.24071794970476,12000.000229624722,99.82458734688036,-0.0029363020221626,0.0071736436340484,10000,12000,150.0,True,25.326442285004457,False,161.9602428533582,176.92452716777402,False,False
1,1970-07-23 09:33:35.728517468,2025-09-08,2025-09-11 19:59:32.851,HH,A,3926785112,AMBUSH51,1,1,48,2,1,1,225,2,1,0,0,9,1,225,2,1,-141680.04482059172,-4795065.649357969,4194455.038444599,2.35911,2.74532,-0.397613,-95.4457,37.0898,38.548,-0.0830992,-7.16569,6.74132,-0.00237708,0.00870209,0.00292636,4,0,41.35591324596386,-91.6924288678712,11327.825675291311,-59.3957845289742,0.4410460914083314,-0.3478159876022446,10000,12000,150,1.0,2025-09-08,2025-09-11 19:59:32.151,HH,A,2185061794.0,JASSM,3.0,113.0,76.0,2.0,2.0,1.0,225.0,9.0,2.0,0.0,1.0,26.0,0.0,0.0,0.0,0.0,-187293.2034929556,-4786697.368135299,4202474.940886021,-2.30145,-0.153206,0.128279,96.25,-14.75,-12.375,0.0,0.0,0.0,0.0,0.0,0.0,2.0,0.0,41.45050601352354,-92.24071794970476,12000.000229624722,99.82458734688036,-0.0029363020221626,0.0071736436340484,10000,12000,150.0,True,25.302236210719506,False,161.94202018822702,176.9389995646025,False,False
1,1970-07-23 09:33:35.732180990,2025-09-08,2025-09-11 19:59:33.218,HH,A,3927222544,AMBUSH51,1,1,48,2,1,1,225,2,1,0,0,9,1,225,2,1,-141715.69938567773,-4795051.695380316,4194469.346765071,2.35798,2.74461,-0.397698,-95.5464,37.2346,38.5056,-0.0559307,-7.21934,6.71276,-0.00815697,-0.00334872,-0.0029971,4,0,41.35608657134079,-91.69285945261508,11327.087465111666,-59.36565769618093,0.4184008448468084,-0.428044860516051,10000,12000,150,1.0,2025-09-08,2025-09-11 19:59:33.114,HH,A,2186195090.0,JASSM,3.0,113.0,76.0,2.0,2.0,1.0,225.0,9.0,2.0,0.0,1.0,26.0,0.0,0.0,0.0,0.0,-187201.77575858065,-4786711.493135299,4202463.005339146,-2.30145,-0.153206,0.128279,96.25,-14.75,-12.375,0.0,0.0,0.0,0.0,0.0,0.0,2.0,0.0,41.45036272170093,-92.23961864855866,11999.998161303272,99.82531505336496,-0.00209997761337,0.0071730523736292,10000,12000,150.0,True,25.230979787882546,False,161.94049646582613,176.94590216530554,False,False
1,1970-07-23 09:33:35.734843622,2025-09-08,2025-09-11 19:59:33.484,HH,A,3927540678,AMBUSH51,1,1,48,2,1,1,225,2,1,0,0,9,1,225,2,1,-141740.25777262705,-4795041.949642188,4194479.37986578,2.35878,2.74474,-0.399441,-95.5104,37.2764,38.5783,-0.0973241,-7.08909,6.68698,0.00335912,-0.00662149,0.00701681,4,0,41.35620795406112,-91.69315608240524,11326.63385696338,-59.301130640961325,0.4950034455903142,-0.3785186847911318,10000,12000,150,1.0,2025-09-08,2025-09-11 19:59:33.114,HH,A,2186195090.0,JASSM,3.0,113.0,76.0,2.0,2.0,1.0,225.0,9.0,2.0,0.0,1.0,26.0,0.0,0.0,0.0,0.0,-187201.77575858065,-4786711.493135299,4202463.005339146,-2.30145,-0.153206,0.128279,96.25,-14.75,-12.375,0.0,0.0,0.0,0.0,0.0,0.0,2.0,0.0,41.45036272170093,-92.23961864855866,11999.998161303272,99.82531505336496,-0.00209997761337,0.0071730523736292,10000,12000,150.0,True,25.216346945094866,False,161.89358241268653,176.9549402821697,False,False
1,1970-07-23 09:33:35.738509579,2025-09-08,2025-09-11 19:59:33.850,HH,A,3927978110,AMBUSH51,1,1,48,2,1,1,225,2,1,0,0,9,1,225,2,1,-141775.28340037624,-4795028.758682829,4194493.974145379,2.36151,2.7409,-0.399529,-95.5461,34.6772,41.0301,-0.0973241,-7.08909,6.68698,0.00335912,-0.00662149,0.00701681,4,0,41.356378783859945,-91.6935788931266,11328.349443906896,-59.15316973952298,0.3571440898561165,-0.3068312548793438,10000,12000,150,1.0,2025-09-08,2025-09-11 19:59:33.114,HH,A,2186195090.0,JASSM,3.0,113.0,76.0,2.0,2.0,1.0,225.0,9.0,2.0,0.0,1.0,26.0,0.0,0.0,0.0,0.0,-187201.77575858065,-4786711.493135299,4202463.005339146,-2.30145,-0.153206,0.128279,96.25,-14.75,-12.375,0.0,0.0,0.0,0.0,0.0,0.0,2.0,0.0,41.45036272170093,-92.23961864855866,11999.998161303272,99.82531505336496,-0.00209997761337,0.0071730523736292,10000,12000,150.0,True,25.19552008145976,False,161.70706680444835,176.96769385897682,False,False
1,1970-07-23 09:33:35.738844818,2025-09-08,2025-09-11 19:59:33.884,HH,A,3928017878,AMBUSH51,1,1,48,2,1,1,225,2,1,0,0,9,1,225,2,1,-141779.12232043743,-4795026.709434304,4194495.022287795,2.36078,2.74335,-0.401062,-95.5964,37.2172,38.7452,-0.0867624,-7.09044,6.82807,0.00553958,-0.00550213,0.00455962,4,0,41.35639736912919,-91.6936254476818,11325.856629832935,-59.18376913131354,0.5100565637855632,-0.2942276302116353,10000,12000,150,1.0,2025-09-08,2025-09-11 19:59:33.114,HH,A,2186195090.0,JASSM,3.0,113.0,76.0,2.0,2.0,1.0,225.0,9.0,2.0,0.0,1.0,26.0,0.0,0.0,0.0,0.0,-187201.77575858065,-4786711.493135299,4202463.005339146,-2.30145,-0.153206,0.128279,96.25,-14.75,-12.375,0.0,0.0,0.0,0.0,0.0,0.0,2.0,0.0,41.45036272170093,-92.23961864855866,11999.998161303272,99.82531505336496,-0.00209997761337,0.0071730523736292,10000,12000,150.0,True,25.19322998331544,False,161.87404816225393,176.9689113301466,False,False
1,1970-07-23 09:33:35.742843667,2025-09-08,2025-09-11 19:59:34.284,HH,A,3928495076,AMBUSH51,1,1,48,2,1,1,225,2,1,0,0,9,1,225,2,1,-141816.78259523213,-4795012.065220622,4194510.110354202,2.36143,2.74538,-0.401371,-95.7182,37.3157,38.6923,-0.0624881,-7.40418,6.89447,0.0111281,0.00368369,-0.00647585,4,0,41.35657970704131,-91.6940802279433,11325.258097003642,-59.2481450311257,0.5981574400611227,-0.2119084348625323,10000,12000,150,1.0,2025-09-08,2025-09-11 19:59:34.155,HH,A,2187328484.0,JASSM,3.0,113.0,76.0,2.0,2.0,1.0,225.0,9.0,2.0,0.0,1.0,26.0,0.0,0.0,0.0,0.0,-187110.3402117056,-4786725.618135299,4202451.069792271,-2.30145,-0.153206,0.128279,96.25,-14.75,-12.375,0.0,0.0,0.0,0.0,0.0,0.0,2.0,0.0,41.45021942118797,-92.23851925887983,11999.999809640394,99.82604281638584,-0.0012635845362402,0.0071724748074529,10000,12000,150.0,True,25.1207893760765,False,161.89518399733797,176.97655737941568,False,False
1,1970-07-23 09:33:35.746842406,2025-09-08,2025-09-11 19:59:34.684,HH,A,3928972276,AMBUSH51,1,1,48,2,1,1,225,2,1,0,0,9,1,225,2,1,-141855.7279738465,-4794996.843796432,4194525.823875289,2.36191,2.74694,-0.399895,-95.8065,37.1884,38.9157,-0.0986455,-7.24676,6.89403,0.00300126,0.00220647,0.00376692,4,0,41.35676947276508,-91.69455055700917,11324.689130907902,-59.36663022007407,0.5961722660442378,-0.1507478609370902,10000,12000,150,1.0,2025-09-08,2025-09-11 19:59:34.155,HH,A,2187328484.0,JASSM,3.0,113.0,76.0,2.0,2.0,1.0,225.0,9.0,2.0,0.0,1.0,26.0,0.0,0.0,0.0,0.0,-187110.3402117056,-4786725.618135299,4202451.069792271,-2.30145,-0.153206,0.128279,96.25,-14.75,-12.375,0.0,0.0,0.0,0.0,0.0,0.0,2.0,0.0,41.45021942118797,-92.23851925887983,11999.999809640394,99.82604281638584,-0.0012635845362402,0.0071724748074529,10000,12000,150.0,True,25.09762788919366,False,161.8758421932847,176.99063421922415,False,False
1,1970-07-23 09:33:35.750917864,2025-09-08,2025-09-11 19:59:35.091,HH,A,3929449476,AMBUSH51,1,1,48,2,1,1,225,2,1,0,0,9,1,225,2,1,-141893.43057106546,-4794982.110506067,4194541.057239004,2.35747,2.74774,-0.398217,-95.9022,37.301,38.9036,-0.154946,-7.19815,6.80224,-0.0126698,-0.0103499,0.00306368,4,0,41.35695331048649,-91.695005879237,11324.191337078362,-59.46418508527862,0.5573277390924886,-0.3883668621431111,10000,12000,150,1.0,2025-09-08,2025-09-11 19:59:34.947,HH,A,2188461876.0,JASSM,3.0,113.0,76.0,2.0,2.0,1.0,225.0,9.0,2.0,0.0,1.0,26.0,0.0,0.0,0.0,0.0,-187018.90466483065,-4786739.741182174,4202439.134245396,-2.30145,-0.15311,0.128279,96.25,-14.75,-12.375,0.0,0.0,0.0,0.0,0.0,0.0,2.0,0.0,41.45007612179093,-92.23741987495212,12000.001126511614,99.82313429886956,-0.0044841265037839,0.0064693349800881,10000,12000,150.0,True,25.02514469207264,False,161.8720997597057,176.99855854177443,False,False
1,1970-07-23 09:33:35.754843706,2025-09-08,2025-09-11 19:59:35.484,HH,A,3929926676,AMBUSH51,1,1,48,2,1,1,225,2,1,0,0,9,1,225,2,1,-141932.38707781344,-4794966.936043205,4194556.732177198,2.34969,2.74592,-0.400685,-95.993,37.1754,39.0273,-0.10275,-7.04514,6.78045,-0.0100191,0.0111135,0.0115234,4,0,41.35714253073529,-91.6954763299896,11323.65715607134,-59.29718625916165,0.59151976997835,-0.8731210626015327,10000,12000,150,1.0,2025-09-08,2025-09-11 19:59:34.947,HH,A,2188461876.0,JASSM,3.0,113.0,76.0,2.0,2.0,1.0,225.0,9.0,2.0,0.0,1.0,26.0,0.0,0.0,0.0,0.0,-187018.90466483065,-4786739.741182174,4202439.134245396,-2.30145,-0.15311,0.128279,96.25,-14.75,-12.375,0.0,0.0,0.0,0.0,0.0,0.0,2.0,0.0,41.45007612179093,-92.23741987495212,12000.001126511614,99.82313429886956,-0.0044841265037839,0.0064693349800881,10000,12000,150.0,True,25.001987643124448,False,161.88764261899564,177.0126334247587,False,False
1,1970-07-23 09:33:35.758516444,2025-09-08,2025-09-11 19:59:35.851,HH,A,3930364108,AMBUSH51,1,1,48,2,1,1,225,2,1,0,0,9,1,225,2,1,-141966.9677087094,-4794953.428457434,4194570.678087126,2.34704,2.74417,-0.403669,-96.083,37.1874,39.0622,-0.0296119,-7.15419,6.80809,-0.0023646,0.00669015,0.00803214,4,0,41.35731093252651,-91.6958939519238,11323.159920399814,-59.11151349050434,0.6489363859601172,-1.0618044046479085,10000,12000,150,1.0,2025-09-08,2025-09-11 19:59:34.947,HH,A,2188461876.0,JASSM,3.0,113.0,76.0,2.0,2.0,1.0,225.0,9.0,2.0,0.0,1.0,26.0,0.0,0.0,0.0,0.0,-187018.90466483065,-4786739.741182174,4202439.134245396,-2.30145,-0.15311,0.128279,96.25,-14.75,-12.375,0.0,0.0,0.0,0.0,0.0,0.0,2.0,0.0,41.45007612179093,-92.23741987495212,12000.001126511614,99.82313429886956,-0.0044841265037839,0.0064693349800881,10000,12000,150.0,True,24.981426597209733,False,161.8947616986822,177.02520324521763,False,False
1,1970-07-23 09:33:35.762182418,2025-09-08,2025-09-11 19:59:36.218,HH,A,3930801540,AMBUSH51,1,1,48,2,1,1,225,2,1,0,0,9,1,225,2,1,-142002.8550284337,-4794939.454514232,4194585.183531887,2.34931,2.74197,-0.405529,-96.1812,37.3066,38.9929,-0.0486337,-7.14603,6.80839,0.00615544,0.00298253,0.0132752,4,0,41.35748565422005,-91.69632734114634,11322.82377491474,-58.95463777087559,0.6444172747706997,-0.980027890185398,10000,12000,150,1.0,2025-09-08,2025-09-11 19:59:35.940,HH,A,2189595272.0,JASSM,3.0,113.0,76.0,2.0,2.0,1.0,225.0,9.0,2.0,0.0,1.0,26.0,0.0,0.0,0.0,0.0,-186927.4691179556,-4786753.864229049,4202427.196745396,-2.30145,-0.15311,0.128279,96.25,-14.75,-12.375,0.0,0.0,0.0,0.0,0.0,0.0,2.0,0.0,41.449932798710655,-92.23632049586342,12000.002669341617,99.823862050786,-0.0036477338331088,0.0064687026100001,10000,12000,150.0,True,24.910028527586125,False,161.90999672935766,177.032571475986,False,False
1,1970-07-23 09:33:35.765844050,2025-09-08,2025-09-11 19:59:36.584,HH,A,3931238974,AMBUSH51,1,1,48,2,1,1,225,2,1,0,0,9,1,225,2,1,-142037.30020967658,-4794925.976894674,4194599.233153368,2.35111,2.74277,-0.405651,-96.1988,37.3403,39.0293,-0.143109,-6.99085,6.7131,0.00672552,-0.000573204,-0.00757024,4,0,41.35765459921653,-91.69674333980328,11322.616901666826,-58.97997739358756,0.6791481709379481,-0.8588465257817824,10000,12000,150,1.0,2025-09-08,2025-09-11 19:59:35.940,HH,A,2189595272.0,JASSM,3.0,113.0,76.0,2.0,2.0,1.0,225.0,9.0,2.0,0.0,1.0,26.0,0.0,0.0,0.0,0.0,-186927.4691179556,-4786753.864229049,4202427.196745396,-2.30145,-0.15311,0.128279,96.25,-14.75,-12.375,0.0,0.0,0.0,0.0,0.0,0.0,2.0,0.0,41.449932798710655,-92.23632049586342,12000.002669341617,99.823862050786,-0.0036477338331088,0.0064687026100001,10000,12000,150.0,True,24.889533392294624,False,161.89201925057972,177.04532814197358,False,False
1,1970-07-23 09:33:35.769844518,2025-09-08,2025-09-11 19:59:36.984,HH,A,3931716174,AMBUSH51,1,1,48,2,1,1,225,2,1,0,0,9,1,225,2,1,-142076.4416037953,-4794910.733470722,4194615.062042358,2.3503,2.7443,-0.402571,-96.2963,37.2869,39.1348,-0.187756,-6.89104,6.65245,-0.00381477,0.00261843,-0.0154266,4,0,41.35784522959666,-91.6972160324472,11322.26398480329,-59.16164069425904,0.6102131538487936,-0.8727852976920545,10000,12000,150,1.0,2025-09-08,2025-09-11 19:59:35.940,HH,A,2189595272.0,JASSM,3.0,113.0,76.0,2.0,2.0,1.0,225.0,9.0,2.0,0.0,1.0,26.0,0.0,0.0,0.0,0.0,-186927.4691179556,-4786753.864229049,4202427.196745396,-2.30145,-0.15311,0.128279,96.25,-14.75,-12.375,0.0,0.0,0.0,0.0,0.0,0.0,2.0,0.0,41.449932798710655,-92.23632049586342,12000.002669341617,99.823862050786,-0.0036477338331088,0.0064687026100001,10000,12000,150.0,True,24.86626454596001,False,161.89490414542067,177.0596625224091,False,False
1,1970-07-23 09:33:35.773509291,2025-09-08,2025-09-11 19:59:37.350,HH,A,3932153606,AMBUSH51,1,1,48,2,1,1,225,2,1,0,0,9,1,225,2,1,-142111.10721878242,-4794897.274197822,4194628.957375286,2.34533,2.74527,-0.400727,-96.387,37.3269,39.0493,-0.0873769,-6.89882,6.553,-0.0100378,-0.00528575,0.00410813,4,0,41.35801298131818,-91.69763466094216,11321.785595174935,-59.27238049436097,0.5710036731558276,-1.136981983589658,10000,12000,150,1.0,2025-09-08,2025-09-11 19:59:37.113,HH,A,2190669014.0,JASSM,3.0,113.0,76.0,2.0,2.0,1.0,225.0,9.0,2.0,0.0,1.0,26.0,0.0,0.0,0.0,0.0,-186840.84607108065,-4786767.243135299,4202415.886198521,-2.30145,-0.15311,0.128375,96.25,-14.75,-12.5,0.0,0.0,0.0,0.0,0.0,0.0,2.0,0.0,41.44979700511361,-92.23527898490858,12000.00333906279,99.8286420589406,-0.0065217367227753,0.0064677644641255,10000,12000,150.0,True,24.79824330698525,False,161.9913885052394,177.12778778684074,False,False
1,1970-07-23 09:33:35.777178853,2025-09-08,2025-09-11 19:59:37.717,HH,A,3932591038,AMBUSH51,1,1,48,2,1,1,225,2,1,0,0,9,1,225,2,1,-142147.1113624667,-4794883.17242398,4194643.3895144025,2.34019,2.74535,-0.399531,-96.4922,37.5511,38.864,-0.109729,-6.87664,6.55555,-0.0164024,-0.0036504,0.00633229,4,0,41.35818794050403,-91.69806949952236,11320.987898771413,-59.323706736860935,0.5254101308756509,-1.430112614432946,10000,12000,150,1.0,2025-09-08,2025-09-11 19:59:37.113,HH,A,2190669014.0,JASSM,3.0,113.0,76.0,2.0,2.0,1.0,225.0,9.0,2.0,0.0,1.0,26.0,0.0,0.0,0.0,0.0,-186840.84607108065,-4786767.243135299,4202415.886198521,-2.30145,-0.15311,0.128375,96.25,-14.75,-12.5,0.0,0.0,0.0,0.0,0.0,0.0,2.0,0.0,41.44979700511361,-92.23527898490858,12000.00333906279,99.8286420589406,-0.0065217367227753,0.0064677644641255,10000,12000,150.0,True,24.776845452276913,False,162.01795053845288,177.14098680136817,False,False
1,1970-07-23 09:33:35.780839608,2025-09-08,2025-09-11 19:59:38.083,HH,A,3933028472,AMBUSH51,1,1,48,2,1,1,225,2,1,0,0,9,1,225,2,1,-142181.86919375946,-4794869.557775911,4194657.295479044,2.33645,2.74438,-0.399704,-96.5991,37.6255,38.797,0.0198607,-6.92229,6.50012,0.00127436,-0.00209412,0.0114984,4,0,41.35835666820194,-91.6984892884168,11320.158485452434,-59.28036688508482,0.4968504937342959,-1.6658896257789355,10000,12000,150,1.0,2025-09-08,2025-09-11 19:59:37.845,HH,A,2191862060.0,JASSM,3.0,113.0,76.0,2.0,2.0,1.0,225.0,9.0,2.0,0.0,1.0,26.0,0.0,0.0,0.0,0.0,-186744.59997733065,-4786782.106416549,4202403.317839146,-2.30145,-0.15311,0.128375,96.25,-14.75,-12.5,0.0,0.0,0.0,0.0,0.0,0.0,2.0,0.0,41.44964611747204,-92.23412177736996,12000.001263453923,99.8294080870769,-0.0056413407923879,0.0064671591543844,10000,12000,150.0,True,24.703492239878177,False,162.04656750588464,177.14778718784035,False,False
1,1970-07-23 09:33:35.784840616,2025-09-08,2025-09-11 19:59:38.484,HH,A,3933505672,AMBUSH51,1,1,48,2,1,1,225,2,1,0,0,9,1,225,2,1,-142221.052895147,-4794854.137292245,4194673.069347487,2.33669,2.74217,-0.401279,-96.6793,37.5865,38.8654,-0.134768,-6.95129,6.5751,-0.00272246,-0.00109335,0.00169464,4,0,41.35854796471881,-91.69896255912356,11319.25737194667,-59.13429655804547,0.4800760684097866,-1.6998374293875271,10000,12000,150,1.0,2025-09-08,2025-09-11 19:59:37.845,HH,A,2191862060.0,JASSM,3.0,113.0,76.0,2.0,2.0,1.0,225.0,9.0,2.0,0.0,1.0,26.0,0.0,0.0,0.0,0.0,-186744.59997733065,-4786782.106416549,4202403.317839146,-2.30145,-0.15311,0.128375,96.25,-14.75,-12.5,0.0,0.0,0.0,0.0,0.0,0.0,2.0,0.0,41.44964611747204,-92.23412177736996,12000.001263453923,99.8294080870769,-0.0056413407923879,0.0064671591543844,10000,12000,150.0,True,24.680193899697464,False,162.05441315221663,177.16233862978967,False,False
1,1970-07-23 09:33:35.788844051,2025-09-08,2025-09-11 19:59:38.884,HH,A,3933982870,AMBUSH51,1,1,48,2,1,1,225,2,1,0,0,9,1,225,2,1,-142259.10606518335,-4794839.236464669,4194688.241281744,2.33543,2.74244,-0.401521,-96.8056,37.777,38.6827,-0.145069,-6.96101,6.59215,-0.00555207,-0.000799989,-0.00318019,4,0,41.358732304065015,-91.69942215120152,11318.248929441515,-59.13510998503202,0.5004273882509218,-1.7659064053429805,10000,12000,150,1.0,2025-09-08,2025-09-11 19:59:38.849,HH,A,2193055108.0,JASSM,3.0,113.0,76.0,2.0,2.0,1.0,225.0,9.0,2.0,0.0,1.0,26.0,0.0,0.0,0.0,0.0,-186648.34997733065,-4786796.969697799,4202390.749479771,-2.30145,-0.15311,0.128375,96.25,-14.75,-12.5,0.0,0.0,0.0,0.0,0.0,0.0,2.0,0.0,41.44949521909281,-92.23296452850909,12000.00376383512,99.83017414027272,-0.0047609105151244,0.0064665606675806,10000,12000,150.0,True,24.60488654274997,False,162.09384878393274,177.1703832736821,False,False
1,1970-07-23 09:33:35.792842851,2025-09-08,2025-09-11 19:59:39.284,HH,A,3934460070,AMBUSH51,1,1,48,2,1,1,225,2,1,0,0,9,1,225,2,1,-142298.50509793064,-4794823.818764102,4194703.92333427,2.33485,2.74309,-0.400326,-96.9336,37.7306,38.7175,-0.222183,-6.99444,6.63486,0.0101419,0.00102677,0.000681395,4,0,41.3589229220553,-91.69989799729728,11317.173395201482,-59.20776775012164,0.475816686884447,-1.7851555148264535,10000,12000,150,1.0,2025-09-08,2025-09-11 19:59:38.849,HH,A,2193055108.0,JASSM,3.0,113.0,76.0,2.0,2.0,1.0,225.0,9.0,2.0,0.0,1.0,26.0,0.0,0.0,0.0,0.0,-186648.34997733065,-4786796.969697799,4202390.749479771,-2.30145,-0.15311,0.128375,96.25,-14.75,-12.5,0.0,0.0,0.0,0.0,0.0,0.0,2.0,0.0,41.44949521909281,-92.23296452850909,12000.00376383512,99.83017414027272,-0.0047609105151244,0.0064665606675806,10000,12000,150.0,True,24.581486831324085,False,162.12757833329,177.18484888160927,False,False
1,1970-07-23 09:33:35.796841267,2025-09-08,2025-09-11 19:59:39.684,HH,A,3934937270,AMBUSH51,1,1,48,2,1,1,225,2,1,0,0,9,1,225,2,1,-142336.6199041922,-4794808.785477714,4194719.13740678,2.33452,2.74399,-0.398434,-97.0533,37.93,38.5751,-0.131791,-7.01486,6.74962,-0.00237916,-0.000402595,0.000827036,4,0,41.35910831875712,-91.70035837756498,11315.936753046872,-59.318047588261024,0.4322452904438167,-1.7848279847752084,10000,12000,150,1.0,2025-09-08,2025-09-11 19:59:38.849,HH,A,2193055108.0,JASSM,3.0,113.0,76.0,2.0,2.0,1.0,225.0,9.0,2.0,0.0,1.0,26.0,0.0,0.0,0.0,0.0,-186648.34997733065,-4786796.969697799,4202390.749479771,-2.30145,-0.15311,0.128375,96.25,-14.75,-12.5,0.0,0.0,0.0,0.0,0.0,0.0,2.0,0.0,41.44949521909281,-92.23296452850909,12000.00376383512,99.83017414027272,-0.0047609105151244,0.0064665606675806,10000,12000,150.0,True,24.558836341894004,False,162.148082961822,177.19898704466124,False,False
1,1970-07-23 09:33:35.800520967,2025-09-08,2025-09-11 19:59:40.052,HH,A,3935374702,AMBUSH51,1,1,48,2,1,1,225,2,1,0,0,9,1,225,2,1,-142372.87247614982,-4794794.554918723,4194733.469585982,2.33241,2.74464,-0.397246,-97.1853,38.0952,38.3971,-0.238754,-7.13847,6.75439,-0.00925136,-0.00684412,-0.0017529,4,0,41.35928331415207,-91.7007962426081,11314.62899281877,-59.39026444531272,0.4078754993564598,-1.892421280264008,10000,12000,150,1.0,2025-09-08,2025-09-11 19:59:40.031,HH,A,2194307806.0,JASSM,3.0,113.0,76.0,2.0,2.0,1.0,225.0,9.0,2.0,0.0,1.0,26.0,0.0,0.0,0.0,0.0,-186547.2894304556,-4786812.573213424,4202377.550261021,-2.30145,-0.15311,0.128375,96.25,-14.75,-12.5,0.0,0.0,0.0,0.0,0.0,0.0,2.0,0.0,41.449336763779776,-92.231749447685,11999.999403210357,99.83097847348346,-0.0038364770349832,0.006465929557027,10000,12000,150.0,True,24.48197359143302,False,162.19299211055144,177.2061125266359,False,False
1,1970-07-23 09:33:35.804508125,2025-09-08,2025-09-11 19:59:40.450,HH,A,3935851902,AMBUSH51,1,1,48,2,1,1,225,2,1,0,0,9,1,225,2,1,-142410.97125017396,-4794779.327204008,4194748.796837594,2.32919,2.74403,-0.396755,-97.2671,37.971,38.6699,-0.0963151,-7.10819,6.69287,-0.0145257,-0.00506105,0.00428707,4,0,41.35947063026126,-91.70125650560853,11313.159880387237,-59.38725109514012,0.3655879259527004,-2.0903943988597526,10000,12000,150,1.0,2025-09-08,2025-09-11 19:59:40.031,HH,A,2194307806.0,JASSM,3.0,113.0,76.0,2.0,2.0,1.0,225.0,9.0,2.0,0.0,1.0,26.0,0.0,0.0,0.0,0.0,-186547.2894304556,-4786812.573213424,4202377.550261021,-2.30145,-0.15311,0.128375,96.25,-14.75,-12.5,0.0,0.0,0.0,0.0,0.0,0.0,2.0,0.0,41.449336763779776,-92.231749447685,11999.999403210357,99.83097847348346,-0.0038364770349832,0.006465929557027,10000,12000,150.0,True,24.45930521427257,False,162.15720152256864,177.22056969681088,False,False
1,1970-07-23 09:33:35.808182568,2025-09-08,2025-09-11 19:59:40.818,HH,A,3936289336,AMBUSH51,1,1,48,2,1,1,225,2,1,0,0,9,1,225,2,1,-142447.31827618167,-4794765.017933301,4194763.10319916,2.32422,2.74285,-0.396521,-97.4164,38.1025,38.499,-0.106721,-7.04065,6.5861,-0.00908492,0.000791666,0.00512971,4,0,41.35964589906148,-91.70169553121644,11311.611131228958,-59.35246229556759,0.3127264569522403,-2.4009533534044123,10000,12000,150,1.0,2025-09-08,2025-09-11 19:59:40.031,HH,A,2194307806.0,JASSM,3.0,113.0,76.0,2.0,2.0,1.0,225.0,9.0,2.0,0.0,1.0,26.0,0.0,0.0,0.0,0.0,-186547.2894304556,-4786812.573213424,4202377.550261021,-2.30145,-0.15311,0.128375,96.25,-14.75,-12.5,0.0,0.0,0.0,0.0,0.0,0.0,2.0,0.0,41.449336763779776,-92.231749447685,11999.999403210357,99.83097847348346,-0.0038364770349832,0.006465929557027,10000,12000,150.0,True,24.43772933603471,False,162.21399170232917,177.23391412208846,False,False
1,1970-07-23 09:33:35.812510545,2025-09-08,2025-09-11 19:59:41.251,HH,A,3936806302,AMBUSH51,1,1,48,2,1,1,225,2,1,0,0,9,1,225,2,1,-142488.91912032026,-4794748.684368327,4194779.446408246,2.32139,2.74342,-0.396278,-97.5795,38.008,38.5233,-0.0878571,-6.97925,6.54776,0.00652995,-0.0044868,-0.00852524,4,0,41.35984602845391,-91.702198003571,11309.88066342465,-59.384203765465976,0.3244607543584354,-2.550228462402021,10000,12000,150,1.0,2025-09-08,2025-09-11 19:59:40.939,HH,A,2195620156.0,JASSM,3.0,113.0,76.0,2.0,2.0,1.0,225.0,9.0,2.0,0.0,1.0,26.0,0.0,0.0,0.0,0.0,-186441.41638358065,-4786828.918916549,4202363.722136021,-2.30145,-0.15311,0.128375,96.25,-14.75,-12.5,0.0,0.0,0.0,0.0,0.0,0.0,2.0,0.0,41.44917075170064,-92.2304765114896,11999.997815134204,99.83182110184262,-0.0028680227782222,0.0064652708912983,10000,12000,150.0,True,24.355066717529358,False,162.2741733732325,177.24275681933082,False,False
1,1970-07-23 09:33:35.816176527,2025-09-08,2025-09-11 19:59:41.617,HH,A,3937243734,AMBUSH51,1,1,48,2,1,1,225,2,1,0,0,9,1,225,2,1,-142525.39395070932,-4794734.368936107,4194793.759509883,2.31998,2.74386,-0.396456,-97.7449,38.1266,38.3677,0.00248869,-7.14904,6.77666,0.00138047,0.00410605,-0.00925136,4,0,41.36002135327495,-91.702638562432,11308.342617259184,-59.39378388437631,0.3482238748360958,-2.621764432755843,10000,12000,150,1.0,2025-09-08,2025-09-11 19:59:40.939,HH,A,2195620156.0,JASSM,3.0,113.0,76.0,2.0,2.0,1.0,225.0,9.0,2.0,0.0,1.0,26.0,0.0,0.0,0.0,0.0,-186441.41638358065,-4786828.918916549,4202363.722136021,-2.30145,-0.15311,0.128375,96.25,-14.75,-12.5,0.0,0.0,0.0,0.0,0.0,0.0,2.0,0.0,41.44917075170064,-92.2304765114896,11999.997815134204,99.83182110184262,-0.0028680227782222,0.0064652708912983,10000,12000,150.0,True,24.333425152891554,False,162.33301411441857,177.25614488028097,False,False
1,1970-07-23 09:33:35.820508299,2025-09-08,2025-09-11 19:59:42.050,HH,A,3937760700,AMBUSH51,1,1,48,2,1,1,225,2,1,0,0,9,1,225,2,1,-142567.1405631355,-4794718.046603736,4194810.058796887,2.32145,2.74417,-0.395812,-97.9169,37.9852,38.4264,-0.13009,-7.16881,6.74664,-0.00331959,0.00728312,0.00156357,4,0,41.36022108939731,-91.70314277709068,11306.55742830888,-59.43187793924437,0.3340461675834497,-2.5304846767050155,10000,12000,150,1.0,2025-09-08,2025-09-11 19:59:41.945,HH,A,2196813462.0,JASSM,3.0,113.0,76.0,2.0,2.0,1.0,225.0,9.0,2.0,0.0,1.0,26.0,0.0,0.0,0.0,0.0,-186345.14685233065,-4786843.782197799,4202351.147917271,-2.30145,-0.15311,0.128375,96.25,-14.75,-12.5,0.0,0.0,0.0,0.0,0.0,0.0,2.0,0.0,41.44901978164479,-92.229319046102,12000.001316351092,99.83258729114333,-0.0019874140614598,0.0064646676607419,10000,12000,150.0,True,24.25595148677798,False,162.39740423283786,177.26557665203467,False,False
1,1970-07-23 09:33:35.823838820,2025-09-08,2025-09-11 19:59:42.383,HH,A,3938158366,AMBUSH51,1,1,48,2,1,1,225,2,1,0,0,9,1,225,2,1,-142600.56126600236,-4794704.968752115,4194823.126852275,2.32251,2.74256,-0.393619,-98.095,38.0024,38.421,-0.0178921,-7.0568,6.65243,0.00108087,-0.0090766,0.0037898,4,0,41.36038118473316,-91.7035464377286,11305.144698981974,-59.459206003301006,0.1849080797162482,-2.505587214033712,10000,12000,150,1.0,2025-09-08,2025-09-11 19:59:41.945,HH,A,2196813462.0,JASSM,3.0,113.0,76.0,2.0,2.0,1.0,225.0,9.0,2.0,0.0,1.0,26.0,0.0,0.0,0.0,0.0,-186345.14685233065,-4786843.782197799,4202351.147917271,-2.30145,-0.15311,0.128375,96.25,-14.75,-12.5,0.0,0.0,0.0,0.0,0.0,0.0,2.0,0.0,41.44901978164479,-92.229319046102,12000.001316351092,99.83258729114333,-0.0019874140614598,0.0064646676607419,10000,12000,150.0,True,24.236131792664832,False,162.4381319121122,177.27783154870272,False,False
1,1970-07-23 09:33:35.827838355,2025-09-08,2025-09-11 19:59:42.783,HH,A,3938635566,AMBUSH51,1,1,48,2,1,1,225,2,1,0,0,9,1,225,2,1,-142639.18109806656,-4794689.902714266,4194838.116099396,2.32138,2.74342,-0.392691,-98.2728,38.0977,38.2539,-0.166404,-7.10825,6.6518,-3.22492e-05,-0.0062241,-0.0021607,4,0,41.36056515377491,-91.70401288037948,11303.384773819516,-59.52940909209832,0.1793855750496857,-2.5516546390714683,10000,12000,150,1.0,2025-09-08,2025-09-11 19:59:41.945,HH,A,2196813462.0,JASSM,3.0,113.0,76.0,2.0,2.0,1.0,225.0,9.0,2.0,0.0,1.0,26.0,0.0,0.0,0.0,0.0,-186345.14685233065,-4786843.782197799,4202351.147917271,-2.30145,-0.15311,0.128375,96.25,-14.75,-12.5,0.0,0.0,0.0,0.0,0.0,0.0,2.0,0.0,41.44901978164479,-92.229319046102,12000.001316351092,99.83258729114333,-0.0019874140614598,0.0064646676607419,10000,12000,150.0,True,24.213244496067396,False,162.51023320980198,177.29186669846598,False,False
1,1970-07-23 09:33:35.831840325,2025-09-08,2025-09-11 19:59:43.184,HH,A,3939112766,AMBUSH51,1,1,48,2,1,1,225,2,1,0,0,9,1,225,2,1,-142679.1823816366,-4794674.34269567,4194853.593342557,2.31964,2.7442,-0.392791,-98.4438,37.9486,38.3255,-0.160172,-7.23144,6.87948,-0.00317187,0.00228345,0.00881652,4,0,41.36075510898728,-91.70449599481285,11301.56911401024,-59.55494430845732,0.2125337124268924,-2.634514075256112,10000,12000,150,1.0,2025-09-08,2025-09-11 19:59:41.945,HH,A,2196813462.0,JASSM,3.0,113.0,76.0,2.0,2.0,1.0,225.0,9.0,2.0,0.0,1.0,26.0,0.0,0.0,0.0,0.0,-186345.14685233065,-4786843.782197799,4202351.147917271,-2.30145,-0.15311,0.128375,96.25,-14.75,-12.5,0.0,0.0,0.0,0.0,0.0,0.0,2.0,0.0,41.44901978164479,-92.229319046102,12000.001316351092,99.83258729114333,-0.0019874140614598,0.0064646676607419,10000,12000,150.0,True,24.189548552288436,False,162.5719340317572,177.3063482511795,False,False
1,1970-07-23 09:33:35.835851750,2025-09-08,2025-09-11 19:59:43.585,HH,A,3939589964,AMBUSH51,1,1,48,2,1,1,225,2,1,0,0,9,1,225,2,1,-142718.0339639693,-4794659.237089455,4194868.650799829,2.31778,2.74389,-0.392363,-98.6584,38.0473,38.2098,-0.107304,-7.09393,6.81133,-0.0153683,-0.0012702,-0.00597859,4,0,41.36093972914609,-91.70496522397384,11299.878684904405,-59.560722316250576,0.1839312959006962,-2.747585337505444,10000,12000,150,1.0,2025-09-08,2025-09-11 19:59:43.313,HH,A,2198066150.0,JASSM,3.0,113.0,76.0,2.0,2.0,1.0,225.0,9.0,2.0,0.0,1.0,26.0,0.0,0.0,0.0,0.0,-186244.08825858065,-4786859.381807174,4202337.946745396,-2.30145,-0.153015,0.128375,96.25,-14.75,-12.5,0.0,0.0,0.0,0.0,0.0,0.0,2.0,0.0,41.44886129744015,-92.2281040081801,11999.99967675887,99.82975540882737,-0.0051199278876087,0.0057609871293282,10000,12000,150.0,True,24.1111894441976,False,162.63436826471428,177.31445623796887,False,False
1,1970-07-23 09:33:35.838839825,2025-09-08,2025-09-11 19:59:43.883,HH,A,3939947864,AMBUSH51,1,1,48,2,1,1,225,2,1,0,0,9,1,225,2,1,-142747.63512582603,-4794648.142559575,4194880.419767148,2.31278,2.7449,-0.390785,-98.6906,35.9192,40.2531,-0.107304,-7.09393,6.81133,-0.0153683,-0.0012702,-0.00597859,4,0,41.36107993052678,-91.70532258587455,11300.2547279718,-59.66249500258365,0.1572641074545485,-3.0120193481826174,10000,12000,150,1.0,2025-09-08,2025-09-11 19:59:43.313,HH,A,2198066150.0,JASSM,3.0,113.0,76.0,2.0,2.0,1.0,225.0,9.0,2.0,0.0,1.0,26.0,0.0,0.0,0.0,0.0,-186244.08825858065,-4786859.381807174,4202337.946745396,-2.30145,-0.153015,0.128375,96.25,-14.75,-12.5,0.0,0.0,0.0,0.0,0.0,0.0,2.0,0.0,41.44886129744015,-92.2281040081801,11999.99967675887,99.82975540882737,-0.0051199278876087,0.0057609871293282,10000,12000,150.0,True,24.09366723359723,False,162.5198028046638,177.32529405625777,False,False
1,1970-07-23 09:33:35.839840925,2025-09-08,2025-09-11 19:59:43.984,HH,A,3940067164,AMBUSH51,1,1,48,2,1,1,225,2,1,0,0,9,1,225,2,1,-142758.19714884943,-4794643.722996844,4194884.133727212,2.31552,2.74325,-0.392228,-98.834,37.8795,38.2764,-0.131171,-7.11871,6.72322,-0.00518172,-0.0106079,-0.0169537,4,0,41.3611294171659,-91.7054502607834,11298.202362851887,-59.54244882948898,0.1553304128407658,-2.891193676178086,10000,12000,150,1.0,2025-09-08,2025-09-11 19:59:43.313,HH,A,2198066150.0,JASSM,3.0,113.0,76.0,2.0,2.0,1.0,225.0,9.0,2.0,0.0,1.0,26.0,0.0,0.0,0.0,0.0,-186244.08825858065,-4786859.381807174,4202337.946745396,-2.30145,-0.153015,0.128375,96.25,-14.75,-12.5,0.0,0.0,0.0,0.0,0.0,0.0,2.0,0.0,41.44886129744015,-92.2281040081801,11999.99967675887,99.82975540882737,-0.0051199278876087,0.0057609871293282,10000,12000,150.0,True,24.08741519334391,False,162.70400757960175,177.32894204384687,False,False
1,1970-07-23 09:33:35.843841457,2025-09-08,2025-09-11 19:59:44.384,HH,A,3940544364,AMBUSH51,1,1,48,2,1,1,225,2,1,0,0,9,1,225,2,1,-142797.10049222974,-4794628.719910795,4194899.129280838,2.31343,2.74549,-0.391866,-99.0084,37.9407,38.127,-0.102168,-7.16133,6.64101,-0.0154349,0.000215342,-0.00456587,4,0,41.361312996807285,-91.70592007702318,11296.63591192448,-59.64184769074927,0.2238536169637884,-2.9618703181267563,10000,12000,150,1.0,2025-09-08,2025-09-11 19:59:44.051,HH,A,2199318600.0,JASSM,3.0,113.0,76.0,2.0,2.0,1.0,225.0,9.0,2.0,0.0,1.0,26.0,0.0,0.0,0.0,0.0,-186143.0472429556,-4786874.979463424,4202324.745573521,-2.30145,-0.153015,0.128375,96.25,-14.75,-12.5,0.0,0.0,0.0,0.0,0.0,0.0,2.0,0.0,41.4487028079552,-92.2268891871611,12000.000375085823,99.830559559993,-0.0041956716865539,0.0057602838635115,10000,12000,150.0,True,24.009054442507143,False,162.7787489448602,177.33700702097605,False,False
1,1970-07-23 09:33:35.847840195,2025-09-08,2025-09-11 19:59:44.784,HH,A,3941021564,AMBUSH51,1,1,48,2,1,1,225,2,1,0,0,9,1,225,2,1,-142837.40396450847,-4794613.255151815,4194914.575693069,2.31288,2.74685,-0.390007,-99.1883,37.7575,38.1949,-0.166405,-7.26746,6.80507,0.00257266,0.00320308,-0.0107265,4,0,41.36150211612537,-91.70640677693297,11295.014256458588,-59.76811708883834,0.1987259104058078,-2.964252130653615,10000,12000,150,1.0,2025-09-08,2025-09-11 19:59:44.051,HH,A,2199318600.0,JASSM,3.0,113.0,76.0,2.0,2.0,1.0,225.0,9.0,2.0,0.0,1.0,26.0,0.0,0.0,0.0,0.0,-186143.0472429556,-4786874.979463424,4202324.745573521,-2.30145,-0.153015,0.128375,96.25,-14.75,-12.5,0.0,0.0,0.0,0.0,0.0,0.0,2.0,0.0,41.4487028079552,-92.2268891871611,12000.000375085823,99.830559559993,-0.0041956716865539,0.0057602838635115,10000,12000,150.0,True,23.985217181624126,False,162.85309928647683,177.35145645316135,False,False
1,1970-07-23 09:33:35.851838439,2025-09-08,2025-09-11 19:59:45.183,HH,A,3941498762,AMBUSH51,1,1,48,2,1,1,225,2,1,0,0,9,1,225,2,1,-142876.4570204146,-4794598.305909987,4194929.483202885,2.3117,2.74799,-0.389256,-99.3739,37.7891,38.0505,-0.125343,-7.27279,6.88101,-0.00574556,-0.00733306,-0.0127946,4,0,41.3616847506492,-91.7068783670146,11293.402488302128,-59.841567649956,0.2107443120559517,-3.007588339829006,10000,12000,150,1.0,2025-09-08,2025-09-11 19:59:44.051,HH,A,2199318600.0,JASSM,3.0,113.0,76.0,2.0,2.0,1.0,225.0,9.0,2.0,0.0,1.0,26.0,0.0,0.0,0.0,0.0,-186143.0472429556,-4786874.979463424,4202324.745573521,-2.30145,-0.153015,0.128375,96.25,-14.75,-12.5,0.0,0.0,0.0,0.0,0.0,0.0,2.0,0.0,41.4487028079552,-92.2268891871611,12000.000375085823,99.830559559993,-0.0041956716865539,0.0057602838635115,10000,12000,150.0,True,23.962129558248645,False,162.93731162406277,177.36539422835392,False,False
1,1970-07-23 09:33:35.855175050,2025-09-08,2025-09-11 19:59:45.517,HH,A,3941896430,AMBUSH51,1,1,48,2,1,1,225,2,1,0,0,9,1,225,2,1,-142910.3799115671,-4794585.496464267,4194942.265487961,2.30605,2.75048,-0.387534,-99.577,37.6635,37.9677,-0.0343358,-7.20199,6.74258,-0.00651538,-0.00140128,0.000163327,4,0,41.3618412184272,-91.70728794671064,11292.07460258365,-60.00527807161743,0.2335272325233836,-3.2774583073551957,10000,12000,150,1.0,2025-09-08,2025-09-11 19:59:45.192,HH,A,2200512068.0,JASSM,3.0,113.0,76.0,2.0,2.0,1.0,225.0,9.0,2.0,0.0,1.0,26.0,0.0,0.0,0.0,0.0,-186046.76403983065,-4786889.838838424,4202312.167448521,-2.30145,-0.153015,0.128375,96.25,-14.75,-12.5,0.0,0.0,0.0,0.0,0.0,0.0,2.0,0.0,41.44855180186076,-92.22573157682874,11999.999838178954,99.83132583817005,-0.003314943616136,0.0057596453533428,10000,12000,150.0,True,23.889375259273397,False,163.050794489516,177.37157920716464,False,False
1,1970-07-23 09:33:35.859513857,2025-09-08,2025-09-11 19:59:45.951,HH,A,3942413396,AMBUSH51,1,1,48,2,1,1,225,2,1,0,0,9,1,225,2,1,-142952.91357371342,-4794569.403782681,4194958.407681204,2.30319,2.75318,-0.386613,-99.7775,37.4231,38.0396,-0.117995,-7.30727,6.87311,-0.00705842,0.000142521,-0.00966124,4,0,41.36203836879203,-91.70780150566692,11290.582584645435,-60.14479670395552,0.2972263703467002,-3.38367440756266,10000,12000,150,1.0,2025-09-08,2025-09-11 19:59:45.192,HH,A,2200512068.0,JASSM,3.0,113.0,76.0,2.0,2.0,1.0,225.0,9.0,2.0,0.0,1.0,26.0,0.0,0.0,0.0,0.0,-186046.76403983065,-4786889.838838424,4202312.167448521,-2.30145,-0.153015,0.128375,96.25,-14.75,-12.5,0.0,0.0,0.0,0.0,0.0,0.0,2.0,0.0,41.44855180186076,-92.22573157682874,11999.999838178954,99.83132583817005,-0.003314943616136,0.0057596453533428,10000,12000,150.0,True,23.86425808272297,False,163.14448329413693,177.38661227071134,False,False
1,1970-07-23 09:33:35.863180416,2025-09-08,2025-09-11 19:59:46.318,HH,A,3942850828,AMBUSH51,1,1,48,2,1,1,225,2,1,0,0,9,1,225,2,1,-142990.11754723758,-4794555.200503385,4194972.679974347,2.30403,2.75284,-0.386741,-99.9216,37.4643,37.9748,-0.0799112,-7.39683,6.95448,1.35239e-05,-0.00253937,-0.000866568,4,0,41.362212600866826,-91.70825076087752,11289.296960983984,-60.12703038287944,0.2900567206731559,-3.3426406797009047,10000,12000,150,1.0,2025-09-08,2025-09-11 19:59:46.316,HH,A,2201764346.0,JASSM,3.0,113.0,76.0,2.0,2.0,1.0,225.0,9.0,2.0,0.0,1.0,26.0,0.0,0.0,0.0,0.0,-185945.73669608065,-4786905.430635299,4202298.966276646,-2.30145,-0.153015,0.128471,96.25,-14.75,-12.5,0.0,0.0,0.0,0.0,0.0,0.0,2.0,0.0,41.44839331903032,-92.22451693347448,11999.998097861504,99.83622047706731,-0.0060571392663452,0.0057586504095974,10000,12000,150.0,True,23.786932552147785,False,163.18878433781586,177.39413496249952,False,False
1,1970-07-23 09:33:35.867509018,2025-09-08,2025-09-11 19:59:46.750,HH,A,3943367794,AMBUSH51,1,1,48,2,1,1,225,2,1,0,0,9,1,225,2,1,-143032.7991120695,-4794539.190681469,4194988.821794324,2.30315,2.75434,-0.385875,-100.124,37.1925,38.0657,-0.0972451,-7.37508,6.84156,-0.00983809,0.00689197,-0.00191103,4,0,41.36240922569151,-91.70876606217978,11288.021183186886,-60.21866314170646,0.3109669370455777,-3.361457549987391,10000,12000,150,1.0,2025-09-08,2025-09-11 19:59:46.316,HH,A,2201764346.0,JASSM,3.0,113.0,76.0,2.0,2.0,1.0,225.0,9.0,2.0,0.0,1.0,26.0,0.0,0.0,0.0,0.0,-185945.73669608065,-4786905.430635299,4202298.966276646,-2.30145,-0.153015,0.128471,96.25,-14.75,-12.5,0.0,0.0,0.0,0.0,0.0,0.0,2.0,0.0,41.44839331903032,-92.22451693347448,11999.998097861504,99.83622047706731,-0.0060571392663452,0.0057586504095974,10000,12000,150.0,True,23.761748346633734,False,163.28458149498093,177.4091506775122,False,False
1,1970-07-23 09:33:35.871171042,2025-09-08,2025-09-11 19:59:47.117,HH,A,3943805228,AMBUSH51,1,1,48,2,1,1,225,2,1,0,0,9,1,225,2,1,-143070.2226478503,-4794525.232222659,4195002.931906126,2.29609,2.75632,-0.385451,-100.318,37.1788,37.9112,-0.260207,-7.38073,6.98693,-0.0306586,0.0136081,-0.00835463,4,0,41.36258086440164,-91.70921785689237,11287.00461885807,-60.31093253566033,0.368155931897061,-3.723539292144423,10000,12000,150,1.0,2025-09-08,2025-09-11 19:59:46.316,HH,A,2201764346.0,JASSM,3.0,113.0,76.0,2.0,2.0,1.0,225.0,9.0,2.0,0.0,1.0,26.0,0.0,0.0,0.0,0.0,-185945.73669608065,-4786905.430635299,4202298.966276646,-2.30145,-0.153015,0.128471,96.25,-14.75,-12.5,0.0,0.0,0.0,0.0,0.0,0.0,2.0,0.0,41.44839331903032,-92.22451693347448,11999.998097861504,99.83622047706731,-0.0060571392663452,0.0057586504095974,10000,12000,150.0,True,23.739679148649493,False,163.3869942679218,177.42224173300448,False,False
1,1970-07-23 09:33:35.874846639,2025-09-08,2025-09-11 19:59:47.484,HH,A,3944242660,AMBUSH51,1,1,48,2,1,1,225,2,1,0,0,9,1,225,2,1,-143106.3953717908,-4794511.870892559,4195016.491997199,2.28533,2.75861,-0.385207,-100.499,37.0009,37.836,0.00583813,-7.33121,6.86138,-0.0216933,0.00346939,-0.000643944,4,0,41.36274545880891,-91.70965450696794,11286.174326120614,-60.40736279105705,0.4441175972719754,-4.291714759154554,10000,12000,150,1.0,2025-09-08,2025-09-11 19:59:47.149,HH,A,2203017084.0,JASSM,3.0,113.0,76.0,2.0,2.0,1.0,225.0,9.0,2.0,0.0,1.0,26.0,0.0,0.0,0.0,0.0,-185844.67419608065,-4786921.028291549,4202285.761198521,-2.30145,-0.153015,0.128471,96.25,-14.75,-12.5,0.0,0.0,0.0,0.0,0.0,0.0,2.0,0.0,41.44823477027121,-92.2233018731536,12000.004372870604,99.8370247792036,-0.0051326896609349,0.0057580247978107,10000,12000,150.0,True,23.663014878192197,False,163.50649784279585,177.42889830904042,False,False
1,1970-07-23 09:33:35.878838553,2025-09-08,2025-09-11 19:59:47.883,HH,A,3944719860,AMBUSH51,1,1,48,2,1,1,225,2,1,0,0,9,1,225,2,1,-143147.3178762941,-4794496.834214377,4195031.832192567,2.27746,2.76024,-0.385247,-100.71,36.6987,37.8769,-0.0404853,-7.2999,6.78189,-0.0215643,0.00605141,0.000107151,4,0,41.36293119058956,-91.71014846733785,11285.429774587355,-60.46768142883307,0.5073307247184552,-4.707712521356321,10000,12000,150,1.0,2025-09-08,2025-09-11 19:59:47.149,HH,A,2203017084.0,JASSM,3.0,113.0,76.0,2.0,2.0,1.0,225.0,9.0,2.0,0.0,1.0,26.0,0.0,0.0,0.0,0.0,-185844.67419608065,-4786921.028291549,4202285.761198521,-2.30145,-0.153015,0.128471,96.25,-14.75,-12.5,0.0,0.0,0.0,0.0,0.0,0.0,2.0,0.0,41.44823477027121,-92.2233018731536,12000.004372870604,99.8370247792036,-0.0051326896609349,0.0057580247978107,10000,12000,150.0,True,23.638913222496832,False,163.62845223208834,177.44304471444852,False,False
1,1970-07-23 09:33:35.882840223,2025-09-08,2025-09-11 19:59:48.284,HH,A,3945197060,AMBUSH51,1,1,48,2,1,1,225,2,1,0,0,9,1,225,2,1,-143186.80469355773,-4794482.284408814,4195046.7466206085,2.27062,2.7649,-0.381605,-100.855,36.6831,37.6925,-0.142062,-7.28922,6.82901,-0.0182541,0.00455962,-0.0166416,4,0,41.3631114052908,-91.71062511525444,11284.856029223896,-60.79077548498287,0.5344394649357573,-5.002710643879049,10000,12000,150,1.0,2025-09-08,2025-09-11 19:59:48.237,HH,A,2204329396.0,JASSM,3.0,113.0,76.0,2.0,2.0,1.0,225.0,9.0,2.0,0.0,1.0,26.0,0.0,0.0,0.0,0.0,-185738.80310233065,-4786937.364229049,4202271.925261021,-2.30145,-0.153015,0.128471,96.25,-14.75,-12.5,0.0,0.0,0.0,0.0,0.0,0.0,2.0,0.0,41.44806866967094,-92.22202900791888,12000.0017594321,99.8378673422532,-0.0041642566539926,0.0057573747924935,10000,12000,150.0,True,23.557657074538984,False,163.73000582661865,177.45076903090842,False,False
1,1970-07-23 09:33:35.886843433,2025-09-08,2025-09-11 19:59:48.684,HH,A,3945674258,AMBUSH51,1,1,48,2,1,1,225,2,1,0,0,9,1,225,2,1,-143227.87603156568,-4794467.330520051,4195062.04919649,2.25845,2.76939,-0.378574,-101.086,36.3892,37.6581,-0.194868,-7.29461,6.79152,-0.0264683,0.00220855,-0.00880612,4,0,41.36329636027358,-91.71112082872072,11284.246784794388,-61.08288030788746,0.5807612874650424,-5.607135968576264,10000,12000,150,1.0,2025-09-08,2025-09-11 19:59:48.237,HH,A,2204329396.0,JASSM,3.0,113.0,76.0,2.0,2.0,1.0,225.0,9.0,2.0,0.0,1.0,26.0,0.0,0.0,0.0,0.0,-185738.80310233065,-4786937.364229049,4202271.925261021,-2.30145,-0.153015,0.128471,96.25,-14.75,-12.5,0.0,0.0,0.0,0.0,0.0,0.0,2.0,0.0,41.44806866967094,-92.22202900791888,12000.0017594321,99.8378673422532,-0.0041642566539926,0.0057573747924935,10000,12000,150.0,True,23.533490860525802,False,163.87922702472483,177.4648550146233,False,False
1,1970-07-23 09:33:35.889176627,2025-09-08,2025-09-11 19:59:48.917,HH,A,3945952624,AMBUSH51,1,1,48,2,1,1,225,2,1,0,0,9,1,225,2,1,-143251.46722302312,-4794459.038608817,4195071.020596453,2.2516,2.77122,-0.377308,-101.132,34.6872,39.2427,-0.194868,-7.29461,6.79152,-0.0264683,0.00220855,-0.00880612,4,0,41.3634020550084,-91.7114054594406,11285.02352803735,-61.20317846749987,0.5985080190861802,-5.962196617108138,10000,12000,150,1.0,2025-09-08,2025-09-11 19:59:48.237,HH,A,2204329396.0,JASSM,3.0,113.0,76.0,2.0,2.0,1.0,225.0,9.0,2.0,0.0,1.0,26.0,0.0,0.0,0.0,0.0,-185738.80310233065,-4786937.364229049,4202271.925261021,-2.30145,-0.153015,0.128471,96.25,-14.75,-12.5,0.0,0.0,0.0,0.0,0.0,0.0,2.0,0.0,41.44806866967094,-92.22202900791888,12000.0017594321,99.8378673422532,-0.0041642566539926,0.0057573747924935,10000,12000,150.0,True,23.519622227361957,False,163.78558439471348,177.47296753429092,False,False
1,1970-07-23 09:33:35.890506044,2025-09-08,2025-09-11 19:59:49.050,HH,A,3946111692,AMBUSH51,1,1,48,2,1,1,225,2,1,0,0,9,1,225,2,1,-143264.31072333865,-4794454.158622906,4195075.4663911965,2.24703,2.77298,-0.376525,-101.312,36.1799,37.5109,-0.10762,-7.38887,6.86426,-0.0287132,0.00415391,-0.0107848,4,0,41.36345880975853,-91.71156054875682,11283.595933111976,-61.3012850792819,0.6333102851094699,-6.18828017080488,10000,12000,150,1.0,2025-09-08,2025-09-11 19:59:48.237,HH,A,2204329396.0,JASSM,3.0,113.0,76.0,2.0,2.0,1.0,225.0,9.0,2.0,0.0,1.0,26.0,0.0,0.0,0.0,0.0,-185738.80310233065,-4786937.364229049,4202271.925261021,-2.30145,-0.153015,0.128471,96.25,-14.75,-12.5,0.0,0.0,0.0,0.0,0.0,0.0,2.0,0.0,41.44806866967094,-92.22202900791888,12000.0017594321,99.8378673422532,-0.0041642566539926,0.0057573747924935,10000,12000,150.0,True,23.51207654128526,False,164.04156283000685,177.47713795631472,False,False
1,1970-07-23 09:33:35.894170969,2025-09-08,2025-09-11 19:59:49.417,HH,A,3946549124,AMBUSH51,1,1,48,2,1,1,225,2,1,0,0,9,1,225,2,1,-143302.18996520393,-4794440.600224302,4195089.335581339,2.23629,2.77669,-0.374827,-101.568,36.0322,37.1994,-0.133691,-7.37156,6.97984,-0.0241609,0.0110115,-0.0153746,4,0,41.36362635126715,-91.71201765656976,11283.08089757384,-61.51000461762765,0.7050114783607696,-6.727786497711282,10000,12000,150,1.0,2025-09-08,2025-09-11 19:59:49.339,HH,A,2205582094.0,JASSM,3.0,113.0,76.0,2.0,2.0,1.0,225.0,9.0,2.0,0.0,1.0,26.0,0.0,0.0,0.0,0.0,-185637.7425554556,-4786952.957979049,4202258.716276646,-2.30145,-0.153015,0.128471,96.25,-14.75,-12.5,0.0,0.0,0.0,0.0,0.0,0.0,2.0,0.0,41.44791009107804,-92.22081398486722,12000.00131416334,99.8386716145385,-0.0032398249674531,0.0057567423625359,10000,12000,150.0,True,23.434478971204133,False,164.24982101145113,177.48398041816554,False,False
1,1970-07-23 09:33:35.897837514,2025-09-08,2025-09-11 19:59:49.783,HH,A,3946986558,AMBUSH51,1,1,48,2,1,1,225,2,1,0,0,9,1,225,2,1,-143338.80202077993,-4794427.620212983,4195102.639291856,2.22909,2.77906,-0.374048,-101.82,35.7756,37.0102,-0.134021,-7.31212,6.86573,-0.00955929,0.00191103,-0.00494245,4,0,41.36378685868668,-91.7124594303059,11282.67109359454,-61.630922044251726,0.7634348481093209,-7.092725408144638,10000,12000,150,1.0,2025-09-08,2025-09-11 19:59:49.339,HH,A,2205582094.0,JASSM,3.0,113.0,76.0,2.0,2.0,1.0,225.0,9.0,2.0,0.0,1.0,26.0,0.0,0.0,0.0,0.0,-185637.7425554556,-4786952.957979049,4202258.716276646,-2.30145,-0.153015,0.128471,96.25,-14.75,-12.5,0.0,0.0,0.0,0.0,0.0,0.0,2.0,0.0,41.44791009107804,-92.22081398486722,12000.00131416334,99.8386716145385,-0.0032398249674531,0.0057567423625359,10000,12000,150.0,True,23.413001353224832,False,164.44554070877706,177.4960250318737,False,False
1,1970-07-23 09:33:35.901843206,2025-09-08,2025-09-11 19:59:50.184,HH,A,3947463756,AMBUSH51,1,1,48,2,1,1,225,2,1,0,0,9,1,225,2,1,-143380.2672562325,-4794413.088506894,4195117.592693437,2.22183,2.7838,-0.372015,-102.096,35.3544,36.9107,-0.0931427,-7.41762,6.92175,-0.0113361,0.00929922,-0.0145569,4,0,41.363966867777165,-91.7129597065258,11282.37696066492,-61.8921052966198,0.8614015965421946,-7.413254983567902,10000,12000,150,1.0,2025-09-08,2025-09-11 19:59:49.339,HH,A,2205582094.0,JASSM,3.0,113.0,76.0,2.0,2.0,1.0,225.0,9.0,2.0,0.0,1.0,26.0,0.0,0.0,0.0,0.0,-185637.7425554556,-4786952.957979049,4202258.716276646,-2.30145,-0.153015,0.128471,96.25,-14.75,-12.5,0.0,0.0,0.0,0.0,0.0,0.0,2.0,0.0,41.44791009107804,-92.22081398486722,12000.00131416334,99.8386716145385,-0.0032398249674531,0.0057567423625359,10000,12000,150.0,True,23.388703544267187,False,164.66146446956893,177.50945536317593,False,False
1,1970-07-23 09:33:35.906505818,2025-09-08,2025-09-11 19:59:50.650,HH,A,3948020490,AMBUSH51,1,1,48,2,1,1,225,2,1,0,0,9,1,225,2,1,-143428.28419042187,-4794396.298875086,4195134.977056816,2.21719,2.78791,-0.369139,-102.41,35.029,36.7152,-0.0922298,-7.35328,6.93096,-0.00175706,0.00366497,-0.00526911,4,0,41.36417555063724,-91.7135390185349,11282.279620717674,-62.16427552953193,0.9024170076013616,-7.597953603222764,10000,12000,150,1.0,2025-09-08,2025-09-11 19:59:50.343,HH,A,2206834884.0,JASSM,3.0,113.0,76.0,2.0,2.0,1.0,225.0,9.0,2.0,0.0,1.0,26.0,0.0,0.0,0.0,0.0,-185536.67419608065,-4786968.549775924,4202245.505339146,-2.30145,-0.153015,0.128471,96.25,-14.75,-12.5,0.0,0.0,0.0,0.0,0.0,0.0,2.0,0.0,41.44775149990193,-92.21959887526944,11999.996541544431,99.8394759415804,-0.0023153250112882,0.0057561219770382,10000,12000,150.0,True,23.305204859441382,False,164.89140639019584,177.51936755619454,False,False
1,1970-07-23 09:33:35.906839751,2025-09-08,2025-09-11 19:59:50.683,HH,A,3948060256,AMBUSH51,1,1,48,2,1,1,225,2,1,0,0,9,1,225,2,1,-143430.67752973855,-4794395.472911658,4195135.825222821,2.21624,2.78847,-0.368614,-102.436,35.1185,36.5742,-0.0110556,-7.34676,6.82881,-0.0145777,0.00291179,-0.0209152,4,0,41.36418576349245,-91.71356788976658,11282.261867854131,-62.2065145633534,0.9023960792628904,-7.641615947658314,10000,12000,150,1.0,2025-09-08,2025-09-11 19:59:50.343,HH,A,2206834884.0,JASSM,3.0,113.0,76.0,2.0,2.0,1.0,225.0,9.0,2.0,0.0,1.0,26.0,0.0,0.0,0.0,0.0,-185536.67419608065,-4786968.549775924,4202245.505339146,-2.30145,-0.153015,0.128471,96.25,-14.75,-12.5,0.0,0.0,0.0,0.0,0.0,0.0,2.0,0.0,41.44775149990193,-92.21959887526944,11999.996541544431,99.8394759415804,-0.0023153250112882,0.0057561219770382,10000,12000,150.0,True,23.303804983256214,False,164.92147481307683,177.52012180537892,False,False
1,1970-07-23 09:33:35.910837871,2025-09-08,2025-09-11 19:59:51.083,HH,A,3948537456,AMBUSH51,1,1,48,2,1,1,225,2,1,0,0,9,1,225,2,1,-143472.40007555703,-4794381.236196609,4195150.61078205,2.2098,2.7937,-0.364775,-102.725,34.6533,36.4522,-0.119117,-7.49218,6.91054,-0.014817,0.00739339,-0.00494037,4,0,41.36436283481465,-91.71407113898508,11282.351279196606,-62.56018070897576,0.9479465327314618,-7.908560081952054,10000,12000,150,1.0,2025-09-08,2025-09-11 19:59:50.343,HH,A,2206834884.0,JASSM,3.0,113.0,76.0,2.0,2.0,1.0,225.0,9.0,2.0,0.0,1.0,26.0,0.0,0.0,0.0,0.0,-185536.67419608065,-4786968.549775924,4202245.505339146,-2.30145,-0.153015,0.128471,96.25,-14.75,-12.5,0.0,0.0,0.0,0.0,0.0,0.0,2.0,0.0,41.44775149990193,-92.21959887526944,11999.996541544431,99.8394759415804,-0.0023153250112882,0.0057561219770382,10000,12000,150.0,True,23.279416910347447,False,165.1586614800502,177.53317936827912,False,False
