Subject_ac,Timestamp,SampleDate_ac,SampleTime_ac,Configuration_ac,Scenario_ac,DisTime_ac,MarkingTxt_ac,Aplication_ac,EntId_ac,Site_ac,ExersiseId_ac,ForceId_ac,Category_ac,Country_ac,Domain_ac,Kind_ac,Extra_ac,Specific_ac,Subcategory_ac,AltCategory_ac,AltCountry_ac,AltDomain_ac,AltKind_ac,EcefX_ac,EcefY_ac,EcefZ_ac,OriPhi_ac,OriPsi_ac,OriTheta_ac,LinVelX_ac,LinVelY_ac,LinVelZ_ac,LinAccX_ac,LinAccY_ac,LinAccZ_ac,AngVelX_ac,AngVelY_ac,AngVelZ_ac,DrAlg_ac,Apperance_ac,Latitude_ac,Longitude_ac,Altitude_ac,Heading_ac,Pitch_ac,Roll_ac,CM_Altitude_Lead_ac,CM_Altitude_Wing_ac,CM_Airspeed_ac,Subject_cm,SampleDate_cm,SampleTime_cm,Configuration_cm,Scenario_cm,DisTime_cm,MarkingTxt_cm,Aplication_cm,EntId_cm,Site_cm,ExersiseId_cm,ForceId_cm,Category_cm,Country_cm,Domain_cm,Kind_cm,Extra_cm,Specific_cm,Subcategory_cm,AltCategory_cm,AltCountry_cm,AltDomain_cm,AltKind_cm,EcefX_cm,EcefY_cm,EcefZ_cm,OriPhi_cm,OriPsi_cm,OriTheta_cm,LinVelX_cm,LinVelY_cm,LinVelZ_cm,LinAccX_cm,LinAccY_cm,LinAccZ_cm,AngVelX_cm,AngVelY_cm,AngVelZ_cm,DrAlg_cm,Apperance_cm,Latitude_cm,Longitude_cm,Altitude_cm,Heading_cm,Pitch_cm,Roll_cm,CM_Altitude_Lead_cm,CM_Altitude_Wing_cm,CM_Airspeed_cm,Bank_Angle_Condition,distance_nm,Distance_Condition,angle_between_vel,angle_between_pos,Cone_Condition,Intercept_Criteria
1,1970-07-23 09:33:44.433106664,2025-09-08,2025-09-11 20:14:03.310,HH,B,670283460,AMBUSH51,1,1,48,2,1,1,225,2,1,0,0,9,1,225,2,1,-154684.23429788288,-4793052.039871175,4196106.360496096,-2.32557,0.0257183,-0.0540248,119.347,3.39027,4.79401,-0.0957419,-7.62004,6.73449,0.00829013,0.00901834,0.00260803,4,0,41.37664667696043,-91.84844201918848,10941.802473072788,85.48216431446217,-0.4426536367173236,-1.761257421287978,10000,12000,150,1.0,2025-09-08,2025-09-11 20:14:03.235,HH,B,3224070148.0,JASSM,3.0,129.0,76.0,2.0,2.0,1.0,225.0,9.0,2.0,0.0,1.0,26.0,0.0,0.0,0.0,0.0,-118692.03386842164,-4815604.042066869,4172041.7831711774,2.50662,2.45207,-0.615702,-53.875,44.625,49.625,0.0,0.0,0.0,0.0,0.0,0.0,2.0,0.0,41.08613772458537,-91.41190512088497,12000.001199520217,-39.97651278449706,-0.0045361257367663,0.0011922757985192,10000,12000,150.0,True,26.335464986733182,False,126.11428297461623,171.36936960054146,False,False
1,1970-07-23 09:33:44.436779749,2025-09-08,2025-09-11 20:14:03.677,HH,B,670720894,AMBUSH51,1,1,48,2,1,1,225,2,1,0,0,9,1,225,2,1,-154639.66689768442,-4793050.660794064,4196108.139638676,-2.32179,0.0248912,-0.0546895,119.419,3.44581,4.86845,-0.311609,-7.71329,7.00854,0.00464077,0.00460124,-0.00339033,4,0,41.37667544093858,-91.84791034933508,10938.728885608554,85.48532996363437,-0.3815778198037414,-1.547392753422317,10000,12000,150,1.0,2025-09-08,2025-09-11 20:14:03.235,HH,B,3224070148.0,JASSM,3.0,129.0,76.0,2.0,2.0,1.0,225.0,9.0,2.0,0.0,1.0,26.0,0.0,0.0,0.0,0.0,-118692.03386842164,-4815604.042066869,4172041.7831711774,2.50662,2.45207,-0.615702,-53.875,44.625,49.625,0.0,0.0,0.0,0.0,0.0,0.0,2.0,0.0,41.08613772458537,-91.41190512088497,12000.001199520217,-39.97651278449706,-0.0045361257367663,0.0011922757985192,10000,12000,150.0,True,26.3185890433407,False,126.07168411835394,171.40648407066467,False,False
1,1970-07-23 09:33:44.440437490,2025-09-08,2025-09-11 20:14:04.043,HH,B,671158326,AMBUSH51,1,1,48,2,1,1,225,2,1,0,0,9,1,225,2,1,-154596.66100537518,-4793049.405762632,4196109.892299931,-2.3191,0.0253682,-0.056477,119.488,3.38371,5.01862,-0.190121,-7.70361,6.73034,0.00110584,-0.000127957,0.00110584,4,0,41.3767029866781,-91.8473972778377,10936.02804582079,85.39086963468708,-0.3337933483332191,-1.3914838152913849,10000,12000,150,1.0,2025-09-08,2025-09-11 20:14:03.962,HH,B,3225143890.0,JASSM,3.0,129.0,76.0,2.0,2.0,1.0,225.0,9.0,2.0,0.0,1.0,26.0,0.0,0.0,0.0,0.0,-118740.81511842164,-4815563.969801244,4172086.3476243024,2.50557,2.45389,-0.614551,-54.0,44.5,49.5,0.0,0.0,0.0,0.0,0.0,0.0,2.0,0.0,41.0866698219549,-91.41249691397148,12000.000096691254,-40.08462459171239,-0.0062951780427312,0.0009934706063794,10000,12000,150.0,True,26.260986516218807,False,126.17852695945123,171.56708220801892,False,False
1,1970-07-23 09:33:44.444439507,2025-09-08,2025-09-11 20:14:04.443,HH,B,671635526,AMBUSH51,1,1,48,2,1,1,225,2,1,0,0,9,1,225,2,1,-154548.0949915903,-4793047.995750254,4196111.921861386,-2.32066,0.0265938,-0.0582227,119.517,3.23563,5.27457,-0.259176,-7.50102,6.73374,-0.00355678,0.000379709,-0.00814865,4,0,41.37673438740985,-91.84681786916076,10933.106166020818,85.26987795559073,-0.3196208992470045,-1.4761367463518829,10000,12000,150,1.0,2025-09-08,2025-09-11 20:14:03.962,HH,B,3225143890.0,JASSM,3.0,129.0,76.0,2.0,2.0,1.0,225.0,9.0,2.0,0.0,1.0,26.0,0.0,0.0,0.0,0.0,-118740.81511842164,-4815563.969801244,4172086.3476243024,2.50557,2.45389,-0.614551,-54.0,44.5,49.5,0.0,0.0,0.0,0.0,0.0,0.0,2.0,0.0,41.0866698219549,-91.41249691397148,12000.000096691254,-40.08462459171239,-0.0062951780427312,0.0009934706063794,10000,12000,150.0,True,26.24261795152019,False,126.1347425356718,171.60769173287858,False,False
1,1970-07-23 09:33:44.448107124,2025-09-08,2025-09-11 20:14:04.810,HH,B,672072958,AMBUSH51,1,1,48,2,1,1,225,2,1,0,0,9,1,225,2,1,-154505.05328927826,-4793046.736784713,4196113.759436975,-2.3241,0.0272695,-0.0591026,119.582,3.23417,5.38066,-0.108958,-7.33941,6.706,-0.00752655,0.00170713,-0.0152268,4,0,41.376762531966,-91.84630437034927,10930.578982081968,85.20684835624554,-0.3147844539311717,-1.6704208309278887,10000,12000,150,1.0,2025-09-08,2025-09-11 20:14:03.962,HH,B,3225143890.0,JASSM,3.0,129.0,76.0,2.0,2.0,1.0,225.0,9.0,2.0,0.0,1.0,26.0,0.0,0.0,0.0,0.0,-118740.81511842164,-4815563.969801244,4172086.3476243024,2.50557,2.45389,-0.614551,-54.0,44.5,49.5,0.0,0.0,0.0,0.0,0.0,0.0,2.0,0.0,41.0866698219549,-91.41249691397148,12000.000096691254,-40.08462459171239,-0.0062951780427312,0.0009934706063794,10000,12000,150.0,True,26.226362693905678,False,126.09884994051366,171.6437604714085,False,False
1,1970-07-23 09:33:44.451772764,2025-09-08,2025-09-11 20:14:05.177,HH,B,672510392,AMBUSH51,1,1,48,2,1,1,225,2,1,0,0,9,1,225,2,1,-154460.39477193353,-4793045.440587901,4196115.70848079,-2.32771,0.0265252,-0.0597472,119.644,3.36372,5.38631,-0.00146762,-7.33166,6.44839,-0.0039729,0.00429331,0.00507353,4,0,41.37679195811727,-91.8457715780396,10928.074671154343,85.20774127199891,-0.2580276765648499,-1.879751309673436,10000,12000,150,1.0,2025-09-08,2025-09-11 20:14:05.031,HH,B,3226412308.0,JASSM,3.0,129.0,76.0,2.0,2.0,1.0,225.0,9.0,2.0,0.0,1.0,26.0,0.0,0.0,0.0,0.0,-118798.44011842164,-4815516.630445776,4172138.9926438336,2.50557,2.45389,-0.614551,-54.0,44.5,49.5,0.0,0.0,0.0,0.0,0.0,0.0,2.0,0.0,41.08729840338879,-91.41319600857317,12000.00004297826,-40.08508403934405,-0.0054749628359502,0.0009918529655223,10000,12000,150.0,True,26.16069397744691,False,126.0573180339102,171.66582123009266,False,False
1,1970-07-23 09:33:44.455105661,2025-09-08,2025-09-11 20:14:05.510,HH,B,672908058,AMBUSH51,1,1,48,2,1,1,225,2,1,0,0,9,1,225,2,1,-154421.40029290455,-4793044.414854168,4196117.321532751,-2.32932,0.0265375,-0.0605309,119.624,3.22171,5.53953,-0.145882,-7.49154,6.58242,-0.00403115,0.000277759,0.00490708,4,0,41.37681641989307,-91.84530631845756,10925.957242254526,85.17394278063583,-0.2284549702258266,-1.971571705898418,10000,12000,150,1.0,2025-09-08,2025-09-11 20:14:05.031,HH,B,3226412308.0,JASSM,3.0,129.0,76.0,2.0,2.0,1.0,225.0,9.0,2.0,0.0,1.0,26.0,0.0,0.0,0.0,0.0,-118798.44011842164,-4815516.630445776,4172138.9926438336,2.50557,2.45389,-0.614551,-54.0,44.5,49.5,0.0,0.0,0.0,0.0,0.0,0.0,2.0,0.0,41.08729840338879,-91.41319600857317,12000.00004297826,-40.08508403934405,-0.0054749628359502,0.0009918529655223,10000,12000,150.0,True,26.145939578367575,False,126.0470137367607,171.69853477467035,False,False
1,1970-07-23 09:33:44.458780107,2025-09-08,2025-09-11 20:14:05.878,HH,B,673345490,AMBUSH51,1,1,48,2,1,1,225,2,1,0,0,9,1,225,2,1,-154376.72879652344,-4793043.117104481,4196119.329249584,-2.32877,0.0270551,-0.0614537,119.677,3.39447,5.52459,-0.181047,-7.29466,6.50798,-0.0019568,-0.00246655,-0.000148763,4,0,41.37684624936771,-91.8447733706291,10923.57724621145,85.11508023741318,-0.2152040211189098,-1.9382292004126025,10000,12000,150,1.0,2025-09-08,2025-09-11 20:14:05.031,HH,B,3226412308.0,JASSM,3.0,129.0,76.0,2.0,2.0,1.0,225.0,9.0,2.0,0.0,1.0,26.0,0.0,0.0,0.0,0.0,-118798.44011842164,-4815516.630445776,4172138.9926438336,2.50557,2.45389,-0.614551,-54.0,44.5,49.5,0.0,0.0,0.0,0.0,0.0,0.0,2.0,0.0,41.08729840338879,-91.41319600857317,12000.00004297826,-40.08508403934405,-0.0054749628359502,0.0009918529655223,10000,12000,150.0,True,26.12912148132612,False,125.99900748035184,171.73623059582357,False,False
1,1970-07-23 09:33:44.462440250,2025-09-08,2025-09-11 20:14:06.244,HH,B,673782924,AMBUSH51,1,1,48,2,1,1,225,2,1,0,0,9,1,225,2,1,-154333.63196399657,-4793041.847699146,4196121.304962595,-2.32725,0.0293112,-0.0619501,119.726,3.45055,5.59919,-0.176734,-7.10638,6.56113,0.00603476,-0.0115483,-0.00261011,4,0,41.37687539028023,-91.84425921525012,10921.323375604565,85.00863391326013,-0.2926131867045016,-1.842704274408511,10000,12000,150,1.0,2025-09-08,2025-09-11 20:14:06.035,HH,B,3227665076.0,JASSM,3.0,129.0,76.0,2.0,2.0,1.0,225.0,9.0,2.0,0.0,1.0,26.0,0.0,0.0,0.0,0.0,-118855.35418092164,-4815469.874586401,4172190.9867844586,2.50557,2.45389,-0.614551,-54.0,44.5,49.5,0.0,0.0,0.0,0.0,0.0,0.0,2.0,0.0,41.0879192194385,-91.41388649146631,11999.99987532797,-40.08553783302541,-0.0046648715938443,0.0009902593584974,10000,12000,150.0,True,26.064691011244857,False,125.95586711959109,171.7575484296036,False,False
1,1970-07-23 09:33:44.465105221,2025-09-08,2025-09-11 20:14:06.510,HH,B,674101056,AMBUSH51,1,1,48,2,1,1,225,2,1,0,0,9,1,225,2,1,-154300.54789564572,-4793040.875411255,4196122.811693119,-2.32695,0.0296187,-0.0636762,119.717,3.38469,5.75615,-0.202612,-7.28407,6.5726,0.00422673,0.00629068,-0.0111634,4,0,41.37689767896264,-91.84386451327994,10919.57759533499,84.92317473216202,-0.239951743912985,-1.823841633746991,10000,12000,150,1.0,2025-09-08,2025-09-11 20:14:06.035,HH,B,3227665076.0,JASSM,3.0,129.0,76.0,2.0,2.0,1.0,225.0,9.0,2.0,0.0,1.0,26.0,0.0,0.0,0.0,0.0,-118855.35418092164,-4815469.874586401,4172190.9867844586,2.50557,2.45389,-0.614551,-54.0,44.5,49.5,0.0,0.0,0.0,0.0,0.0,0.0,2.0,0.0,41.0879192194385,-91.41388649146631,11999.99987532797,-40.08553783302541,-0.0046648715938443,0.0009902593584974,10000,12000,150.0,True,26.05225578513369,False,125.92039101133643,171.78559437739176,False,False
1,1970-07-23 09:33:44.465445399,2025-09-08,2025-09-11 20:14:06.544,HH,B,674140822,AMBUSH51,1,1,48,2,1,1,225,2,1,0,0,9,1,225,2,1,-154297.75829523636,-4793040.785069453,4196122.94141382,-2.32657,0.0297553,-0.0635114,119.726,3.51486,5.64821,-0.117263,-7.20895,6.3953,0.0142198,-0.000660589,-0.00346315,4,0,41.37689962602107,-91.84383123578368,10919.41565111838,84.92509114329991,-0.2520320922499689,-1.80191949902069,10000,12000,150,1.0,2025-09-08,2025-09-11 20:14:06.035,HH,B,3227665076.0,JASSM,3.0,129.0,76.0,2.0,2.0,1.0,225.0,9.0,2.0,0.0,1.0,26.0,0.0,0.0,0.0,0.0,-118855.35418092164,-4815469.874586401,4172190.9867844586,2.50557,2.45389,-0.614551,-54.0,44.5,49.5,0.0,0.0,0.0,0.0,0.0,0.0,2.0,0.0,41.0879192194385,-91.41388649146631,11999.99987532797,-40.08553783302541,-0.0046648715938443,0.0009902593584974,10000,12000,150.0,True,26.051210367702424,False,125.91801205236871,171.78796641795483,False,False
1,1970-07-23 09:33:44.467103254,2025-09-08,2025-09-11 20:14:06.710,HH,B,674339656,AMBUSH51,1,1,48,2,1,1,225,2,1,0,0,9,1,225,2,1,-154276.6026012667,-4793040.148394445,4196123.927871221,-2.32674,0.0303791,-0.0642701,119.744,3.42481,5.78405,-0.140136,-7.17452,6.47266,-0.00525246,-0.00307616,-0.0139098,4,0,41.37691412178668,-91.84357884812675,10918.312688798207,84.86906328989853,-0.2497492399038447,-1.8089560472964448,10000,12000,150,1.0,2025-09-08,2025-09-11 20:14:06.035,HH,B,3227665076.0,JASSM,3.0,129.0,76.0,2.0,2.0,1.0,225.0,9.0,2.0,0.0,1.0,26.0,0.0,0.0,0.0,0.0,-118855.35418092164,-4815469.874586401,4172190.9867844586,2.50557,2.45389,-0.614551,-54.0,44.5,49.5,0.0,0.0,0.0,0.0,0.0,0.0,2.0,0.0,41.0879192194385,-91.41388649146631,11999.99987532797,-40.08553783302541,-0.0046648715938443,0.0009902593584974,10000,12000,150.0,True,26.0432722131223,False,125.89844755599044,171.80593942078036,False,False
1,1970-07-23 09:33:44.467453741,2025-09-08,2025-09-11 20:14:06.745,HH,B,674379422,AMBUSH51,1,1,48,2,1,1,225,2,1,0,0,9,1,225,2,1,-154273.80643139218,-4793040.058932289,4196124.057182343,-2.32644,0.0305182,-0.0644201,119.751,3.5505,5.68304,-0.148137,-7.2432,6.42704,0.00781783,-0.00385014,-0.0169475,4,0,41.3769160620241,-91.84354549182147,10918.151534879717,84.85738160289044,-0.2499859281384915,-1.7915087297018348,10000,12000,150,1.0,2025-09-08,2025-09-11 20:14:06.035,HH,B,3227665076.0,JASSM,3.0,129.0,76.0,2.0,2.0,1.0,225.0,9.0,2.0,0.0,1.0,26.0,0.0,0.0,0.0,0.0,-118855.35418092164,-4815469.874586401,4172190.9867844586,2.50557,2.45389,-0.614551,-54.0,44.5,49.5,0.0,0.0,0.0,0.0,0.0,0.0,2.0,0.0,41.0879192194385,-91.41388649146631,11999.99987532797,-40.08553783302541,-0.0046648715938443,0.0009902593584974,10000,12000,150.0,True,26.042224254458606,False,125.89495610601826,171.80831757291818,False,False
1,1970-07-23 09:33:44.471438432,2025-09-08,2025-09-11 20:14:07.143,HH,B,674856622,AMBUSH51,1,1,48,2,1,1,225,2,1,0,0,9,1,225,2,1,-154225.09229395626,-4793038.5474850815,4196126.339033223,-2.32832,0.0324613,-0.0666751,119.803,3.4905,5.8773,-0.108135,-7.23797,6.65438,-0.0164107,0.00110584,-0.0111093,4,0,41.37694977852855,-91.84296434851504,10915.523538327516,84.6873846125599,-0.247117302406886,-1.8907173487670197,10000,12000,150,1.0,2025-09-08,2025-09-11 20:14:06.035,HH,B,3227665076.0,JASSM,3.0,129.0,76.0,2.0,2.0,1.0,225.0,9.0,2.0,0.0,1.0,26.0,0.0,0.0,0.0,0.0,-118855.35418092164,-4815469.874586401,4172190.9867844586,2.50557,2.45389,-0.614551,-54.0,44.5,49.5,0.0,0.0,0.0,0.0,0.0,0.0,2.0,0.0,41.0879192194385,-91.41388649146631,11999.99987532797,-40.08553783302541,-0.0046648715938443,0.0009902593584974,10000,12000,150.0,True,26.023970281223054,False,125.84594987232597,171.84977648715795,False,False
1,1970-07-23 09:33:44.475442847,2025-09-08,2025-09-11 20:14:07.544,HH,B,675333822,AMBUSH51,1,1,48,2,1,1,225,2,1,0,0,9,1,225,2,1,-154177.79463140538,-4793037.379409704,4196128.194825996,-2.32676,0.033418,-0.0662076,119.912,3.56764,5.70936,-0.168055,-7.22241,6.56173,-0.00455338,0.000824956,0.00146578,4,0,41.37697830253298,-91.84239998754867,10912.929796187367,84.671563998934,-0.3053988064926685,-1.797904337863964,10000,12000,150,1.0,2025-09-08,2025-09-11 20:14:07.361,HH,B,3228977358.0,JASSM,3.0,129.0,76.0,2.0,2.0,1.0,225.0,9.0,2.0,0.0,1.0,26.0,0.0,0.0,0.0,0.0,-118914.97527467164,-4815420.897047338,4172245.450163365,2.50557,2.45389,-0.614551,-54.0,44.5,49.5,0.0,0.0,0.0,0.0,0.0,0.0,2.0,0.0,41.088569520525496,-91.41460982942954,12000.00144370518,-40.08601322552834,-0.0038162795484073,0.0009886144838647,10000,12000,150.0,True,25.955550655572747,False,125.88439022032154,171.87399031190643,False,False
1,1970-07-23 09:33:44.476113005,2025-09-08,2025-09-11 20:14:07.611,HH,B,675413354,AMBUSH51,1,1,48,2,1,1,225,2,1,0,0,9,1,225,2,1,-154168.60127929607,-4793037.100595132,4196128.625983071,-2.3271,0.033375,-0.0657602,119.92,3.45983,5.8214,-0.0867793,-7.20663,6.39656,-0.000964356,-0.00639263,0.0114547,4,0,41.37698462999927,-91.84229031126232,10912.451152128888,84.69245905538085,-0.3204693152190889,-1.817483747125333,10000,12000,150,1.0,2025-09-08,2025-09-11 20:14:07.361,HH,B,3228977358.0,JASSM,3.0,129.0,76.0,2.0,2.0,1.0,225.0,9.0,2.0,0.0,1.0,26.0,0.0,0.0,0.0,0.0,-118914.97527467164,-4815420.897047338,4172245.450163365,2.50557,2.45389,-0.614551,-54.0,44.5,49.5,0.0,0.0,0.0,0.0,0.0,0.0,2.0,0.0,41.088569520525496,-91.41460982942954,12000.00144370518,-40.08601322552834,-0.0038162795484073,0.0009886144838647,10000,12000,150.0,True,25.952107380184415,False,125.87869267481399,171.88184140659843,False,False
1,1970-07-23 09:33:44.476442296,2025-09-08,2025-09-11 20:14:07.644,HH,B,675453122,AMBUSH51,1,1,48,2,1,1,225,2,1,0,0,9,1,225,2,1,-154165.80101296902,-4793037.010966566,4196128.753953776,-2.32757,0.0336793,-0.0661494,119.923,3.58867,5.72643,-0.316232,-7.1561,6.65326,-0.0120394,-0.00421424,-0.00635518,4,0,41.376986562585365,-91.84225690600918,10912.286513062489,84.66425225800435,-0.3186875036809685,-1.843457501743204,10000,12000,150,1.0,2025-09-08,2025-09-11 20:14:07.361,HH,B,3228977358.0,JASSM,3.0,129.0,76.0,2.0,2.0,1.0,225.0,9.0,2.0,0.0,1.0,26.0,0.0,0.0,0.0,0.0,-118914.97527467164,-4815420.897047338,4172245.450163365,2.50557,2.45389,-0.614551,-54.0,44.5,49.5,0.0,0.0,0.0,0.0,0.0,0.0,2.0,0.0,41.088569520525496,-91.41460982942954,12000.00144370518,-40.08601322552834,-0.0038162795484073,0.0009886144838647,10000,12000,150.0,True,25.95105893905719,False,125.87195217596219,171.88423311008262,False,False
1,1970-07-23 09:33:44.479104529,2025-09-08,2025-09-11 20:14:07.910,HH,B,675771254,AMBUSH51,1,1,48,2,1,1,225,2,1,0,0,9,1,225,2,1,-154132.6196468916,-4793035.991158582,4196130.326146537,-2.32865,0.0338837,-0.0658423,119.964,3.5188,5.86271,-0.0517564,-7.22644,6.2939,-0.00338409,0.00450969,1.14433e-05,4,0,41.37700958761592,-91.84186105870322,10910.560930347736,84.66994133129309,-0.3388029462943954,-1.904383842427129,10000,12000,150,1.0,2025-09-08,2025-09-11 20:14:07.361,HH,B,3228977358.0,JASSM,3.0,129.0,76.0,2.0,2.0,1.0,225.0,9.0,2.0,0.0,1.0,26.0,0.0,0.0,0.0,0.0,-118914.97527467164,-4815420.897047338,4172245.450163365,2.50557,2.45389,-0.614551,-54.0,44.5,49.5,0.0,0.0,0.0,0.0,0.0,0.0,2.0,0.0,41.088569520525496,-91.41460982942954,12000.00144370518,-40.08601322552834,-0.0038162795484073,0.0009886144838647,10000,12000,150.0,True,25.938643548941034,False,125.84652058781593,171.91260711695338,False,False
1,1970-07-23 09:33:44.479446847,2025-09-08,2025-09-11 20:14:07.944,HH,B,675811022,AMBUSH51,1,1,48,2,1,1,225,2,1,0,0,9,1,225,2,1,-154129.8199978095,-4793035.899410313,4196130.45690355,-2.32844,0.0341785,-0.0656669,119.969,3.64684,5.76895,-0.205813,-7.25517,6.52707,0.000949791,-0.00255809,0.00161558,4,0,41.377011551378274,-91.84182766160308,10910.397218851762,84.66632056366448,-0.3580603972409089,-1.8915180735404136,10000,12000,150,1.0,2025-09-08,2025-09-11 20:14:07.361,HH,B,3228977358.0,JASSM,3.0,129.0,76.0,2.0,2.0,1.0,225.0,9.0,2.0,0.0,1.0,26.0,0.0,0.0,0.0,0.0,-118914.97527467164,-4815420.897047338,4172245.450163365,2.50557,2.45389,-0.614551,-54.0,44.5,49.5,0.0,0.0,0.0,0.0,0.0,0.0,2.0,0.0,41.088569520525496,-91.41460982942954,12000.00144370518,-40.08601322552834,-0.0038162795484073,0.0009886144838647,10000,12000,150.0,True,25.937597223566755,False,125.8396505745099,171.91500378545612,False,False
1,1970-07-23 09:33:44.480443590,2025-09-08,2025-09-11 20:14:08.044,HH,B,675930322,AMBUSH51,1,1,48,2,1,1,225,2,1,0,0,9,1,225,2,1,-154116.6179565794,-4793035.497154372,4196131.0949118,-2.32871,0.034458,-0.0652613,119.987,3.66874,5.78432,-0.11556,-7.21726,6.43303,0.00937412,-0.00257474,0.00885397,4,0,41.37702077545202,-91.84167016234264,10909.74648915489,84.67323096023617,-0.3853114446087026,-1.905488117803956,10000,12000,150,1.0,2025-09-08,2025-09-11 20:14:07.361,HH,B,3228977358.0,JASSM,3.0,129.0,76.0,2.0,2.0,1.0,225.0,9.0,2.0,0.0,1.0,26.0,0.0,0.0,0.0,0.0,-118914.97527467164,-4815420.897047338,4172245.450163365,2.50557,2.45389,-0.614551,-54.0,44.5,49.5,0.0,0.0,0.0,0.0,0.0,0.0,2.0,0.0,41.088569520525496,-91.41460982942954,12000.00144370518,-40.08601322552834,-0.0038162795484073,0.0009886144838647,10000,12000,150.0,True,25.93266194331926,False,125.82774184881313,171.92630859094754,False,False
1,1970-07-23 09:33:44.481440703,2025-09-08,2025-09-11 20:14:08.144,HH,B,676049620,AMBUSH51,1,1,48,2,1,1,225,2,1,0,0,9,1,225,2,1,-154105.8184723359,-4793035.156112811,4196131.606507114,-2.32875,0.0346429,-0.0648494,120.001,3.68512,5.79824,-0.104711,-7.2774,6.42514,0.00132846,-0.00949063,-0.00313858,4,0,41.377028322426064,-91.84154132995144,10909.162396840073,84.68397707952947,-0.4087735055368441,-1.9076067523064828,10000,12000,150,1.0,2025-09-08,2025-09-11 20:14:07.361,HH,B,3228977358.0,JASSM,3.0,129.0,76.0,2.0,2.0,1.0,225.0,9.0,2.0,0.0,1.0,26.0,0.0,0.0,0.0,0.0,-118914.97527467164,-4815420.897047338,4172245.450163365,2.50557,2.45389,-0.614551,-54.0,44.5,49.5,0.0,0.0,0.0,0.0,0.0,0.0,2.0,0.0,41.088569520525496,-91.41460982942954,12000.00144370518,-40.08601322552834,-0.0038162795484073,0.0009886144838647,10000,12000,150.0,True,25.92862578394501,False,125.8179884578251,171.93555762192895,False,False
1,1970-07-23 09:33:44.482105913,2025-09-08,2025-09-11 20:14:08.210,HH,B,676129154,AMBUSH51,1,1,48,2,1,1,225,2,1,0,0,9,1,225,2,1,-154096.61690545728,-4793034.881217228,4196132.056807557,-2.32864,0.0346431,-0.0647539,120.003,3.57245,5.92104,-0.265388,-7.35737,6.5586,-0.00163639,0.000500383,0.000777102,4,0,41.377034756618855,-91.84143155385628,10908.734602341912,84.68813823862381,-0.4123262843422597,-1.9010522083783743,10000,12000,150,1.0,2025-09-08,2025-09-11 20:14:07.361,HH,B,3228977358.0,JASSM,3.0,129.0,76.0,2.0,2.0,1.0,225.0,9.0,2.0,0.0,1.0,26.0,0.0,0.0,0.0,0.0,-118914.97527467164,-4815420.897047338,4172245.450163365,2.50557,2.45389,-0.614551,-54.0,44.5,49.5,0.0,0.0,0.0,0.0,0.0,0.0,2.0,0.0,41.088569520525496,-91.41460982942954,12000.00144370518,-40.08601322552834,-0.0038162795484073,0.0009886144838647,10000,12000,150.0,True,25.92518731974052,False,125.80985087987717,171.94344305991893,False,False
1,1970-07-23 09:33:44.482454333,2025-09-08,2025-09-11 20:14:08.245,HH,B,676168920,AMBUSH51,1,1,48,2,1,1,225,2,1,0,0,9,1,225,2,1,-154093.8178761608,-4793034.789482134,4196132.185835026,-2.32867,0.0348085,-0.064943,120.015,3.70548,5.81809,-0.199021,-7.18041,6.57557,-0.00463036,-0.00141376,-0.00779287,4,0,41.3770367083807,-91.8413981641203,10908.56727338178,84.6737792558793,-0.4121970534658176,-1.902288553554772,10000,12000,150,1.0,2025-09-08,2025-09-11 20:14:08.225,HH,B,3230289708.0,JASSM,3.0,129.0,76.0,2.0,2.0,1.0,225.0,9.0,2.0,0.0,1.0,26.0,0.0,0.0,0.0,0.0,-118974.59636842164,-4815371.915113744,4172299.915007115,2.50557,2.45389,-0.614551,-54.0,44.5,49.5,0.0,0.0,0.0,0.0,0.0,0.0,2.0,0.0,41.08921985291757,-91.4153331829471,11999.999896741056,-40.086488634464914,-0.0029676594914504,0.0009869472505057,10000,12000,150.0,True,25.873596047468247,False,125.80486965786706,171.9302116505437,False,False
1,1970-07-23 09:33:44.483105991,2025-09-08,2025-09-11 20:14:08.310,HH,B,676248454,AMBUSH51,1,1,48,2,1,1,225,2,1,0,0,9,1,225,2,1,-154084.61388716142,-4793034.654347781,4196132.452058136,-2.32733,0.0345089,-0.0655259,120.007,3.5375,5.88001,-0.211693,-7.40003,6.56289,-0.00559576,0.00310529,0.000614816,4,0,41.377041068882505,-91.84128830541324,10908.0840361826,84.66020029389634,-0.3771528277974404,-1.8262175420404465,10000,12000,150,1.0,2025-09-08,2025-09-11 20:14:08.225,HH,B,3230289708.0,JASSM,3.0,129.0,76.0,2.0,2.0,1.0,225.0,9.0,2.0,0.0,1.0,26.0,0.0,0.0,0.0,0.0,-118974.59636842164,-4815371.915113744,4172299.915007115,2.50557,2.45389,-0.614551,-54.0,44.5,49.5,0.0,0.0,0.0,0.0,0.0,0.0,2.0,0.0,41.08921985291757,-91.4153331829471,11999.999896741056,-40.086488634464914,-0.0029676594914504,0.0009869472505057,10000,12000,150.0,True,25.87007144900015,False,125.83560382770509,171.9379119412061,False,False
1,1970-07-23 09:33:44.483442897,2025-09-08,2025-09-11 20:14:08.344,HH,B,676288220,AMBUSH51,1,1,48,2,1,1,225,2,1,0,0,9,1,225,2,1,-154081.8149443677,-4793034.562843412,4196132.582458789,-2.32717,0.0348697,-0.065711,120.019,3.67361,5.77223,-0.021584,-7.12467,6.4086,0.00566234,-0.0052587,-0.00447848,4,0,41.37704302848752,-91.84125491661196,10907.920277051066,84.63860983409563,-0.3855441430414705,-1.815579768003549,10000,12000,150,1.0,2025-09-08,2025-09-11 20:14:08.225,HH,B,3230289708.0,JASSM,3.0,129.0,76.0,2.0,2.0,1.0,225.0,9.0,2.0,0.0,1.0,26.0,0.0,0.0,0.0,0.0,-118974.59636842164,-4815371.915113744,4172299.915007115,2.50557,2.45389,-0.614551,-54.0,44.5,49.5,0.0,0.0,0.0,0.0,0.0,0.0,2.0,0.0,41.08921985291757,-91.4153331829471,11999.999896741056,-40.086488634464914,-0.0029676594914504,0.0009869472505057,10000,12000,150.0,True,25.8690257379887,False,125.83136701367185,171.94031490346075,False,False
1,1970-07-23 09:33:44.484107266,2025-09-08,2025-09-11 20:14:08.410,HH,B,676367754,AMBUSH51,1,1,48,2,1,1,225,2,1,0,0,9,1,225,2,1,-154072.61252428198,-4793034.271206569,4196133.017368899,-2.32727,0.0354906,-0.06568,120.022,3.56226,5.89279,-0.234047,-7.24161,6.53762,-0.00473439,-0.00543555,-0.00817362,4,0,41.37704945817839,-91.8411451366892,10907.417958720036,84.61647695023382,-0.413213408482348,-1.8189512032858697,10000,12000,150,1.0,2025-09-08,2025-09-11 20:14:08.225,HH,B,3230289708.0,JASSM,3.0,129.0,76.0,2.0,2.0,1.0,225.0,9.0,2.0,0.0,1.0,26.0,0.0,0.0,0.0,0.0,-118974.59636842164,-4815371.915113744,4172299.915007115,2.50557,2.45389,-0.614551,-54.0,44.5,49.5,0.0,0.0,0.0,0.0,0.0,0.0,2.0,0.0,41.08921985291757,-91.4153331829471,11999.999896741056,-40.086488634464914,-0.0029676594914504,0.0009869472505057,10000,12000,150.0,True,25.865587309494963,False,125.82364295082462,171.9482166745388,False,False
1,1970-07-23 09:33:44.484776544,2025-09-08,2025-09-11 20:14:08.477,HH,B,676447288,AMBUSH51,1,1,48,2,1,1,225,2,1,0,0,9,1,225,2,1,-154065.8069011583,-4793034.051647327,4196133.334454908,-2.32695,0.0358156,-0.065679,120.042,3.82184,5.68659,0.0126,-7.24078,6.22258,0.000275679,-0.006867,-0.00565818,4,0,41.377054205510696,-91.8410639507373,10907.027082916293,84.60425550775929,-0.4271001414761262,-1.799048339581904,10000,12000,150,1.0,2025-09-08,2025-09-11 20:14:08.225,HH,B,3230289708.0,JASSM,3.0,129.0,76.0,2.0,2.0,1.0,225.0,9.0,2.0,0.0,1.0,26.0,0.0,0.0,0.0,0.0,-118974.59636842164,-4815371.915113744,4172299.915007115,2.50557,2.45389,-0.614551,-54.0,44.5,49.5,0.0,0.0,0.0,0.0,0.0,0.0,2.0,0.0,41.08921985291757,-91.4153331829471,11999.999896741056,-40.086488634464914,-0.0029676594914504,0.0009869472505057,10000,12000,150.0,True,25.863044492235318,False,125.81563568477996,171.9540603101369,False,False
1,1970-07-23 09:33:44.487109563,2025-09-08,2025-09-11 20:14:08.710,HH,B,676725654,AMBUSH51,1,1,48,2,1,1,225,2,1,0,0,9,1,225,2,1,-154036.5948937148,-4793033.140989345,4196134.748325776,-2.32639,0.037683,-0.0659586,120.069,3.61898,5.92896,-0.201712,-7.29403,6.39441,0.00332375,-0.0101002,-0.00616168,4,0,41.37707474991148,-91.84071546115806,10905.54231650704,84.52170805651045,-0.496146090162545,-1.7596290095738194,10000,12000,150,1.0,2025-09-08,2025-09-11 20:14:08.225,HH,B,3230289708.0,JASSM,3.0,129.0,76.0,2.0,2.0,1.0,225.0,9.0,2.0,0.0,1.0,26.0,0.0,0.0,0.0,0.0,-118974.59636842164,-4815371.915113744,4172299.915007115,2.50557,2.45389,-0.614551,-54.0,44.5,49.5,0.0,0.0,0.0,0.0,0.0,0.0,2.0,0.0,41.08921985291757,-91.4153331829471,11999.999896741056,-40.086488634464914,-0.0029676594914504,0.0009869472505057,10000,12000,150.0,True,25.85213927693695,False,125.7941413195927,171.97917851090511,False,False
1,1970-07-23 09:33:44.487445140,2025-09-08,2025-09-11 20:14:08.744,HH,B,676765420,AMBUSH51,1,1,48,2,1,1,225,2,1,0,0,9,1,225,2,1,-154033.789918328,-4793033.049334906,4196134.87647356,-2.3262,0.0377793,-0.0659053,120.079,3.7509,5.83158,-0.226772,-7.17021,6.60623,0.00718533,-0.00676922,-0.00178619,4,0,41.37707669618235,-91.84068200033242,10905.372894546015,84.52036509589087,-0.5022608248583125,-1.7482167547613263,10000,12000,150,1.0,2025-09-08,2025-09-11 20:14:08.225,HH,B,3230289708.0,JASSM,3.0,129.0,76.0,2.0,2.0,1.0,225.0,9.0,2.0,0.0,1.0,26.0,0.0,0.0,0.0,0.0,-118974.59636842164,-4815371.915113744,4172299.915007115,2.50557,2.45389,-0.614551,-54.0,44.5,49.5,0.0,0.0,0.0,0.0,0.0,0.0,2.0,0.0,41.08921985291757,-91.4153331829471,11999.999896741056,-40.086488634464914,-0.0029676594914504,0.0009869472505057,10000,12000,150.0,True,25.85109140480037,False,125.78746419249835,171.9815879999174,False,False
1,1970-07-23 09:33:44.489443497,2025-09-08,2025-09-11 20:14:08.944,HH,B,677004020,AMBUSH51,1,1,48,2,1,1,225,2,1,0,0,9,1,225,2,1,-154008.572160871,-4793032.2472479725,4196136.095481574,-2.32575,0.0386772,-0.0666667,120.118,3.79512,5.85653,-0.0606318,-7.14587,6.59882,0.00989843,0.00348812,0.00367121,4,0,41.37709451495958,-91.84038116671336,10904.04895857037,84.45386633871303,-0.5115381975685055,-1.7182132764810452,10000,12000,150,1.0,2025-09-08,2025-09-11 20:14:08.225,HH,B,3230289708.0,JASSM,3.0,129.0,76.0,2.0,2.0,1.0,225.0,9.0,2.0,0.0,1.0,26.0,0.0,0.0,0.0,0.0,-118974.59636842164,-4815371.915113744,4172299.915007115,2.50557,2.45389,-0.614551,-54.0,44.5,49.5,0.0,0.0,0.0,0.0,0.0,0.0,2.0,0.0,41.08921985291757,-91.4153331829471,11999.999896741056,-40.086488634464914,-0.0029676594914504,0.0009869472505057,10000,12000,150.0,True,25.841685334512807,False,125.76569743240294,172.00329656531048,False,False
1,1970-07-23 09:33:44.491442520,2025-09-08,2025-09-11 20:14:09.144,HH,B,677242620,AMBUSH51,1,1,48,2,1,1,225,2,1,0,0,9,1,225,2,1,-153985.7436059494,-4793031.525129794,4196137.2166498825,-2.32563,0.0399185,-0.0674124,120.145,3.83327,5.87759,-0.232741,-7.3236,6.44465,0.0108222,-0.00170297,-0.010042,4,0,41.37711074042038,-91.84010883323256,10902.898806393556,84.37500556336039,-0.5361122372779585,-1.7062141295653326,10000,12000,150,1.0,2025-09-08,2025-09-11 20:14:08.225,HH,B,3230289708.0,JASSM,3.0,129.0,76.0,2.0,2.0,1.0,225.0,9.0,2.0,0.0,1.0,26.0,0.0,0.0,0.0,0.0,-118974.59636842164,-4815371.915113744,4172299.915007115,2.50557,2.45389,-0.614551,-54.0,44.5,49.5,0.0,0.0,0.0,0.0,0.0,0.0,2.0,0.0,41.08921985291757,-91.4153331829471,11999.999896741056,-40.086488634464914,-0.0029676594914504,0.0009869472505057,10000,12000,150.0,True,25.833177434601414,False,125.74691285339037,172.02297242654518,False,False
1,1970-07-23 09:33:44.492116713,2025-09-08,2025-09-11 20:14:09.211,HH,B,677322152,AMBUSH51,1,1,48,2,1,1,225,2,1,0,0,9,1,225,2,1,-153976.53182745195,-4793031.2247599885,4196137.660262058,-2.3247,0.0403562,-0.0677378,120.15,3.71977,5.99698,-0.277379,-7.41918,6.55223,0.0199789,-0.00266836,-0.00665894,4,0,41.37711728149535,-91.83999894462464,10902.393587264556,84.34453173533468,-0.5423930504748692,-1.6508911469520295,10000,12000,150,1.0,2025-09-08,2025-09-11 20:14:08.225,HH,B,3230289708.0,JASSM,3.0,129.0,76.0,2.0,2.0,1.0,225.0,9.0,2.0,0.0,1.0,26.0,0.0,0.0,0.0,0.0,-118974.59636842164,-4815371.915113744,4172299.915007115,2.50557,2.45389,-0.614551,-54.0,44.5,49.5,0.0,0.0,0.0,0.0,0.0,0.0,2.0,0.0,41.08921985291757,-91.4153331829471,11999.999896741056,-40.086488634464914,-0.0029676594914504,0.0009869472505057,10000,12000,150.0,True,25.8297450709398,False,125.74037380939386,172.03091357313576,False,False
1,1970-07-23 09:33:44.493778366,2025-09-08,2025-09-11 20:14:09.377,HH,B,677520986,AMBUSH51,1,1,48,2,1,1,225,2,1,0,0,9,1,225,2,1,-153957.6646473745,-4793030.565894773,4196138.612874443,-2.32533,0.0411324,-0.0681719,120.203,4.033,5.83655,-0.22365,-7.2626,6.5141,-0.000254873,0.00290555,-0.00565194,4,0,41.377131235204665,-91.8397738920283,10901.346999518002,84.2966362934651,-0.5589369253661864,-1.6836806439712328,10000,12000,150,1.0,2025-09-08,2025-09-11 20:14:09.327,HH,B,3231542408.0,JASSM,3.0,129.0,76.0,2.0,2.0,1.0,225.0,9.0,2.0,0.0,1.0,26.0,0.0,0.0,0.0,0.0,-119031.50652467164,-4815325.159254369,4172351.903776646,2.50557,2.45379,-0.614551,-54.0,44.5,49.5,0.0,0.0,0.0,0.0,0.0,0.0,2.0,0.0,41.08984062009265,-91.41602365962018,12000.000853033374,-40.08333302468665,-0.0048227040470503,-0.0021812075535759,10000,12000,150.0,True,25.77448071051927,False,125.700067764439,172.0324514446304,False,False
1,1970-07-23 09:33:44.496467699,2025-09-08,2025-09-11 20:14:09.646,HH,B,677839120,AMBUSH51,1,1,48,2,1,1,225,2,1,0,0,9,1,225,2,1,-153924.3993154299,-4793029.454104299,4196140.240506522,-2.32444,0.042353,-0.0687877,120.247,3.96041,5.98387,-0.165996,-7.24495,6.52127,0.00755568,-0.0036296,-0.0126864,4,0,41.3771551890176,-91.83937707514188,10899.51223648546,84.22420766840287,-0.5874486462429157,-1.6268927962385442,10000,12000,150,1.0,2025-09-08,2025-09-11 20:14:09.327,HH,B,3231542408.0,JASSM,3.0,129.0,76.0,2.0,2.0,1.0,225.0,9.0,2.0,0.0,1.0,26.0,0.0,0.0,0.0,0.0,-119031.50652467164,-4815325.159254369,4172351.903776646,2.50557,2.45379,-0.614551,-54.0,44.5,49.5,0.0,0.0,0.0,0.0,0.0,0.0,2.0,0.0,41.08984062009265,-91.41602365962018,12000.000853033374,-40.08333302468665,-0.0048227040470503,-0.0021812075535759,10000,12000,150.0,True,25.762104269563007,False,125.67189153138895,172.06123890779128,False,False
1,1970-07-23 09:33:44.500114165,2025-09-08,2025-09-11 20:14:10.011,HH,B,678276552,AMBUSH51,1,1,48,2,1,1,225,2,1,0,0,9,1,225,2,1,-153881.4973476728,-4793027.9843712505,4196142.34544061,-2.32466,0.0426231,-0.0693792,120.308,3.9011,6.13684,-0.119076,-7.24468,6.40949,-0.00770964,-0.00465949,-0.00188398,4,0,41.3771863323755,-91.83886531756912,10897.071109624396,84.18894636281084,-0.576138860119265,-1.6379564737123613,10000,12000,150,1.0,2025-09-08,2025-09-11 20:14:09.327,HH,B,3231542408.0,JASSM,3.0,129.0,76.0,2.0,2.0,1.0,225.0,9.0,2.0,0.0,1.0,26.0,0.0,0.0,0.0,0.0,-119031.50652467164,-4815325.159254369,4172351.903776646,2.50557,2.45379,-0.614551,-54.0,44.5,49.5,0.0,0.0,0.0,0.0,0.0,0.0,2.0,0.0,41.08984062009265,-91.41602365962018,12000.000853033374,-40.08333302468665,-0.0048227040470503,-0.0021812075535759,10000,12000,150.0,True,25.746162800197474,False,125.63796763169856,172.09842695643445,False,False
1,1970-07-23 09:33:44.501110459,2025-09-08,2025-09-11 20:14:10.111,HH,B,678395852,AMBUSH51,1,1,48,2,1,1,225,2,1,0,0,9,1,225,2,1,-153868.2653930631,-4793027.530978482,4196143.00074103,-2.32464,0.0426948,-0.0697419,120.325,3.9208,6.15125,-0.142601,-7.27761,6.39305,-0.00416431,0.00128477,-0.01123,4,0,41.377195978927766,-91.83870747966444,10896.331379586149,84.17078004693735,-0.5652994573105761,-1.636480598915673,10000,12000,150,1.0,2025-09-08,2025-09-11 20:14:09.327,HH,B,3231542408.0,JASSM,3.0,129.0,76.0,2.0,2.0,1.0,225.0,9.0,2.0,0.0,1.0,26.0,0.0,0.0,0.0,0.0,-119031.50652467164,-4815325.159254369,4172351.903776646,2.50557,2.45379,-0.614551,-54.0,44.5,49.5,0.0,0.0,0.0,0.0,0.0,0.0,2.0,0.0,41.08984062009265,-91.41602365962018,12000.000853033374,-40.08333302468665,-0.0048227040470503,-0.0021812075535759,10000,12000,150.0,True,25.741249971119636,False,125.62713307780129,172.10991002279877,False,False
1,1970-07-23 09:33:44.503772312,2025-09-08,2025-09-11 20:14:10.377,HH,B,678713984,AMBUSH51,1,1,48,2,1,1,225,2,1,0,0,9,1,225,2,1,-153837.1503379355,-4793026.405696224,4196144.604123843,-2.32573,0.0415324,-0.0705077,120.286,3.99455,6.22052,-0.20449,-7.28239,6.65315,-0.00484258,0.00920143,0.0036504,4,0,41.37721943520256,-91.83833634490726,10894.582178933477,84.1822569822646,-0.4861964620088418,-1.7039698866941897,10000,12000,150,1.0,2025-09-08,2025-09-11 20:14:09.327,HH,B,3231542408.0,JASSM,3.0,129.0,76.0,2.0,2.0,1.0,225.0,9.0,2.0,0.0,1.0,26.0,0.0,0.0,0.0,0.0,-119031.50652467164,-4815325.159254369,4172351.903776646,2.50557,2.45379,-0.614551,-54.0,44.5,49.5,0.0,0.0,0.0,0.0,0.0,0.0,2.0,0.0,41.08984062009265,-91.41602365962018,12000.000853033374,-40.08333302468665,-0.0048227040470503,-0.0021812075535759,10000,12000,150.0,True,25.729733375632172,False,125.57820775668618,172.13700392130315,False,False
1,1970-07-23 09:33:44.507454752,2025-09-08,2025-09-11 20:14:10.745,HH,B,679151418,AMBUSH51,1,1,48,2,1,1,225,2,1,0,0,9,1,225,2,1,-153792.22810535732,-4793024.828380077,4196146.867753809,-2.32378,0.042,-0.0700142,120.352,4.18254,6.16099,-0.191115,-7.29849,6.58826,0.0118438,-0.00137631,-0.000810392,4,0,41.37725267066977,-91.8378005019258,10892.0629178703,84.18604573078265,-0.5245487254712159,-1.589961664815052,10000,12000,150,1.0,2025-09-08,2025-09-11 20:14:10.481,HH,B,3232854764.0,JASSM,3.0,129.0,76.0,2.0,2.0,1.0,225.0,9.0,2.0,0.0,1.0,26.0,0.0,0.0,0.0,0.0,-119091.12761842164,-4815276.175367651,4172406.367155552,2.50557,2.45379,-0.614551,-54.0,44.5,49.5,0.0,0.0,0.0,0.0,0.0,0.0,2.0,0.0,41.09049094507823,-91.41674704159342,12000.00028977264,-40.08380846439509,-0.0039740825616344,-0.0021828219818728,10000,12000,150.0,True,25.662518514211307,False,125.54205380412664,172.16079657713553,False,False
1,1970-07-23 09:33:44.509451570,2025-09-08,2025-09-11 20:14:10.945,HH,B,679390018,AMBUSH51,1,1,48,2,1,1,225,2,1,0,0,9,1,225,2,1,-153769.35531660475,-4793024.0339460205,4196148.042695916,-2.32292,0.0426198,-0.069967,120.384,4.21193,6.18502,-0.13392,-7.21624,6.44573,0.00826932,-0.00205875,-0.000115473,4,0,41.37726969157009,-91.8375276663249,10890.850496257222,84.16475237688245,-0.5526474137715123,-1.5384580362198326,10000,12000,150,1.0,2025-09-08,2025-09-11 20:14:10.481,HH,B,3232854764.0,JASSM,3.0,129.0,76.0,2.0,2.0,1.0,225.0,9.0,2.0,0.0,1.0,26.0,0.0,0.0,0.0,0.0,-119091.12761842164,-4815276.175367651,4172406.367155552,2.50557,2.45379,-0.614551,-54.0,44.5,49.5,0.0,0.0,0.0,0.0,0.0,0.0,2.0,0.0,41.09049094507823,-91.41674704159342,12000.00028977264,-40.08380846439509,-0.0039740825616344,-0.0021828219818728,10000,12000,150.0,True,25.65405089987023,False,125.52521234035638,172.1807682804002,False,False
1,1970-07-23 09:33:44.510101678,2025-09-08,2025-09-11 20:14:11.010,HH,B,679469550,AMBUSH51,1,1,48,2,1,1,225,2,1,0,0,9,1,225,2,1,-153760.12476164146,-4793023.703276878,4196148.513758839,-2.32283,0.0429888,-0.0697071,120.39,4.10468,6.30959,-0.197115,-7.09083,6.68118,-0.000827036,-0.00432452,-0.00160726,4,0,41.37727659928936,-91.83741756444998,10890.329799392915,84.16197813870554,-0.5782261948887037,-1.53141000215779,10000,12000,150,1.0,2025-09-08,2025-09-11 20:14:10.481,HH,B,3232854764.0,JASSM,3.0,129.0,76.0,2.0,2.0,1.0,225.0,9.0,2.0,0.0,1.0,26.0,0.0,0.0,0.0,0.0,-119091.12761842164,-4815276.175367651,4172406.367155552,2.50557,2.45379,-0.614551,-54.0,44.5,49.5,0.0,0.0,0.0,0.0,0.0,0.0,2.0,0.0,41.09049094507823,-91.41674704159342,12000.00028977264,-40.08380846439509,-0.0039740825616344,-0.0021828219818728,10000,12000,150.0,True,25.650636292969697,False,125.51496505296933,172.18883433331578,False,False
1,1970-07-23 09:33:44.511462962,2025-09-08,2025-09-11 20:14:11.146,HH,B,679628618,AMBUSH51,1,1,48,2,1,1,225,2,1,0,0,9,1,225,2,1,-153745.28011063018,-4793023.17622089,4196149.2770460425,-2.32217,0.0428681,-0.0698899,120.417,4.23402,6.21729,-0.111647,-7.4267,6.52511,-0.00297005,0.0097195,0.00550629,4,0,41.3772877186294,-91.837240495878,10889.51654322864,84.15883459456408,-0.565983924903154,-1.4943097962612522,10000,12000,150,1.0,2025-09-08,2025-09-11 20:14:10.481,HH,B,3232854764.0,JASSM,3.0,129.0,76.0,2.0,2.0,1.0,225.0,9.0,2.0,0.0,1.0,26.0,0.0,0.0,0.0,0.0,-119091.12761842164,-4815276.175367651,4172406.367155552,2.50557,2.45379,-0.614551,-54.0,44.5,49.5,0.0,0.0,0.0,0.0,0.0,0.0,2.0,0.0,41.09049094507823,-91.41674704159342,12000.00028977264,-40.08380846439509,-0.0039740825616344,-0.0021828219818728,10000,12000,150.0,True,25.645146334680636,False,125.50778764790134,172.20181240938558,False,False
1,1970-07-23 09:33:44.512111153,2025-09-08,2025-09-11 20:14:11.211,HH,B,679708150,AMBUSH51,1,1,48,2,1,1,225,2,1,0,0,9,1,225,2,1,-153736.04203137098,-4793022.845419976,4196149.748500584,-2.32146,0.0435454,-0.0705304,120.422,4.12268,6.33449,-0.19399,-7.30306,6.5217,0.00119738,-5.9297e-05,-0.0107952,4,0,41.37729463093774,-91.83713030412568,10888.995892084087,84.10576309762058,-0.5705229829845064,-1.450476896753878,10000,12000,150,1.0,2025-09-08,2025-09-11 20:14:10.481,HH,B,3232854764.0,JASSM,3.0,129.0,76.0,2.0,2.0,1.0,225.0,9.0,2.0,0.0,1.0,26.0,0.0,0.0,0.0,0.0,-119091.12761842164,-4815276.175367651,4172406.367155552,2.50557,2.45379,-0.614551,-54.0,44.5,49.5,0.0,0.0,0.0,0.0,0.0,0.0,2.0,0.0,41.09049094507823,-91.41674704159342,12000.00028977264,-40.08380846439509,-0.0039740825616344,-0.0021828219818728,10000,12000,150.0,True,25.641730252618363,False,125.50141271251222,172.2098903445393,False,False
1,1970-07-23 09:33:44.512444823,2025-09-08,2025-09-11 20:14:11.244,HH,B,679747918,AMBUSH51,1,1,48,2,1,1,225,2,1,0,0,9,1,225,2,1,-153733.23526977035,-4793022.740319464,4196149.887861553,-2.32123,0.0439012,-0.0706807,120.433,4.24936,6.23113,-0.168723,-7.28784,6.50782,0.00106006,-0.0017425,-0.00795515,4,0,41.37729673217677,-91.83709682684486,10888.817995884856,84.08584765741588,-0.5799994961282317,-1.4353971917189712,10000,12000,150,1.0,2025-09-08,2025-09-11 20:14:10.481,HH,B,3232854764.0,JASSM,3.0,129.0,76.0,2.0,2.0,1.0,225.0,9.0,2.0,0.0,1.0,26.0,0.0,0.0,0.0,0.0,-119091.12761842164,-4815276.175367651,4172406.367155552,2.50557,2.45379,-0.614551,-54.0,44.5,49.5,0.0,0.0,0.0,0.0,0.0,0.0,2.0,0.0,41.09049094507823,-91.41674704159342,12000.00028977264,-40.08380846439509,-0.0039740825616344,-0.0021828219818728,10000,12000,150.0,True,25.640692566984136,False,125.49852582283978,172.21234444418903,False,False
1,1970-07-23 09:33:44.513113638,2025-09-08,2025-09-11 20:14:11.311,HH,B,679827450,AMBUSH51,1,1,48,2,1,1,225,2,1,0,0,9,1,225,2,1,-153724.10304842418,-4793022.377640411,4196150.391702727,-2.3217,0.0435546,-0.0723855,120.385,4.15389,6.36818,-0.111337,-7.28832,6.43782,0.00324469,0.00223768,-0.0122495,4,0,41.3773040324006,-91.83698791138912,10888.297553441507,84.02597226600541,-0.5002944381283663,-1.4630407462340496,10000,12000,150,1.0,2025-09-08,2025-09-11 20:14:10.481,HH,B,3232854764.0,JASSM,3.0,129.0,76.0,2.0,2.0,1.0,225.0,9.0,2.0,0.0,1.0,26.0,0.0,0.0,0.0,0.0,-119091.12761842164,-4815276.175367651,4172406.367155552,2.50557,2.45379,-0.614551,-54.0,44.5,49.5,0.0,0.0,0.0,0.0,0.0,0.0,2.0,0.0,41.09049094507823,-91.41674704159342,12000.00028977264,-40.08380846439509,-0.0039740825616344,-0.0021828219818728,10000,12000,150.0,True,25.63733556637928,False,125.47855716215724,172.22037776314886,False,False
1,1970-07-23 09:33:44.517101982,2025-09-08,2025-09-11 20:14:11.710,HH,B,680304650,AMBUSH51,1,1,48,2,1,1,225,2,1,0,0,9,1,225,2,1,-153676.73587968323,-4793020.67759626,4196152.859127611,-2.32054,0.0454988,-0.0747684,120.451,4.28581,6.36431,-0.231333,-7.44418,6.8336,0.00563321,0.00640719,-0.0011204,4,0,41.37733983359607,-91.8364229169386,10885.728003111835,83.85048271114776,-0.4924031421881691,-1.387139811934744,10000,12000,150,1.0,2025-09-08,2025-09-11 20:14:11.535,HH,B,3234167108.0,JASSM,3.0,129.0,76.0,2.0,2.0,1.0,225.0,9.0,2.0,0.0,1.0,26.0,0.0,0.0,0.0,0.0,-119150.74871217164,-4815227.190992651,4172460.829557896,2.50557,2.45379,-0.614551,-54.0,44.5,49.5,0.0,0.0,0.0,0.0,0.0,0.0,2.0,0.0,41.0911412617124,-91.41747043797608,12000.001003233589,-40.08428391978629,-0.0031254639612904,-0.0021844338944258,10000,12000,150.0,True,25.569264338591434,False,125.44040460327355,172.24669096122886,False,False
1,1970-07-23 09:33:44.517777757,2025-09-08,2025-09-11 20:14:11.777,HH,B,680384184,AMBUSH51,1,1,48,2,1,1,225,2,1,0,0,9,1,225,2,1,-153668.70666223657,-4793020.40842803,4196153.298582858,-2.32015,0.0452362,-0.0751141,120.435,3.78956,6.81987,-0.231333,-7.44418,6.8336,0.00563321,0.00640719,-0.0011204,4,0,41.37734593215431,-91.83632713727376,10885.385299691752,83.84567957059494,-0.4679680260539176,-1.3655915182275604,10000,12000,150,1.0,2025-09-08,2025-09-11 20:14:11.535,HH,B,3234167108.0,JASSM,3.0,129.0,76.0,2.0,2.0,1.0,225.0,9.0,2.0,0.0,1.0,26.0,0.0,0.0,0.0,0.0,-119150.74871217164,-4815227.190992651,4172460.829557896,2.50557,2.45379,-0.614551,-54.0,44.5,49.5,0.0,0.0,0.0,0.0,0.0,0.0,2.0,0.0,41.0911412617124,-91.41747043797608,12000.001003233589,-40.08428391978629,-0.0031254639612904,-0.0021844338944258,10000,12000,150.0,True,25.56630120898733,False,125.43395261136921,172.25374999717474,False,False
1,1970-07-23 09:33:44.521101094,2025-09-08,2025-09-11 20:14:12.110,HH,B,680781850,AMBUSH51,1,1,48,2,1,1,225,2,1,0,0,9,1,225,2,1,-153627.73595061855,-4793018.912749264,4196155.451427991,-2.32035,0.0451165,-0.0758409,120.509,4.13131,6.6125,-0.335968,-7.43684,7.04594,-0.00360463,0.00598067,0.000475416,4,0,41.377377171750034,-91.83583844853828,10883.14219891413,83.8193874732021,-0.4348489315881437,-1.3774507351550351,10000,12000,150,1.0,2025-09-08,2025-09-11 20:14:11.535,HH,B,3234167108.0,JASSM,3.0,129.0,76.0,2.0,2.0,1.0,225.0,9.0,2.0,0.0,1.0,26.0,0.0,0.0,0.0,0.0,-119150.74871217164,-4815227.190992651,4172460.829557896,2.50557,2.45379,-0.614551,-54.0,44.5,49.5,0.0,0.0,0.0,0.0,0.0,0.0,2.0,0.0,41.0911412617124,-91.41747043797608,12000.001003233589,-40.08428391978629,-0.0031254639612904,-0.0021844338944258,10000,12000,150.0,True,25.551193814306114,False,125.40270397584362,172.28978868837015,False,False
1,1970-07-23 09:33:44.524445101,2025-09-08,2025-09-11 20:14:12.444,HH,B,681179516,AMBUSH51,1,1,48,2,1,1,225,2,1,0,0,9,1,225,2,1,-153588.36672568004,-4793017.46179849,4196157.622862366,-2.31437,0.0449671,-0.0758675,120.556,4.37314,6.50016,-0.0760112,-7.27443,6.57166,0.0498271,0.00331959,0.007693,4,0,41.37740796374985,-91.83536886666556,10881.176607144023,83.82422059096497,-0.4270989271560855,-1.0354700913367711,10000,12000,150,1.0,2025-09-08,2025-09-11 20:14:11.535,HH,B,3234167108.0,JASSM,3.0,129.0,76.0,2.0,2.0,1.0,225.0,9.0,2.0,0.0,1.0,26.0,0.0,0.0,0.0,0.0,-119150.74871217164,-4815227.190992651,4172460.829557896,2.50557,2.45379,-0.614551,-54.0,44.5,49.5,0.0,0.0,0.0,0.0,0.0,0.0,2.0,0.0,41.0911412617124,-91.41747043797608,12000.001003233589,-40.08428391978629,-0.0031254639612904,-0.0021844338944258,10000,12000,150.0,True,25.536718045815647,False,125.36801305728387,172.32453959807071,False,False
1,1970-07-23 09:33:44.528467086,2025-09-08,2025-09-11 20:14:12.846,HH,B,681656716,AMBUSH51,1,1,48,2,1,1,225,2,1,0,0,9,1,225,2,1,-153539.33253664535,-4793015.734848177,4196160.3233146975,-2.29486,0.043068,-0.077173,120.607,4.18682,6.69148,-0.145301,-7.52929,6.72033,0.0341831,0.00223352,-0.000100909,4,0,41.37744580810524,-91.83478397317438,10878.91813022715,83.84061738222044,-0.2958579368134412,0.0738483161459186,10000,12000,150,1.0,2025-09-08,2025-09-11 20:14:12.637,HH,B,3235479462.0,JASSM,3.0,129.0,76.0,2.0,2.0,1.0,225.0,9.0,2.0,0.0,1.0,26.0,0.0,0.0,0.0,0.0,-119210.36980592164,-4815178.205152807,4172515.290983677,2.50557,2.45379,-0.614455,-54.0,44.5,49.5,0.0,0.0,0.0,0.0,0.0,0.0,2.0,0.0,41.09179157576954,-91.41819384905608,12000.000579432915,-40.088021177951255,-0.0066946499338377,-0.0021857914750729,10000,12000,150.0,True,25.46808660636668,False,125.3602770563423,172.35279161529743,False,False
1,1970-07-23 09:33:44.532446354,2025-09-08,2025-09-11 20:14:13.244,HH,B,682133914,AMBUSH51,1,1,48,2,1,1,225,2,1,0,0,9,1,225,2,1,-153492.2811017014,-4793014.1322036125,4196162.953092393,-2.28522,0.0418768,-0.0800938,120.662,4.02659,6.79483,-0.194483,-7.58979,6.79059,0.0148502,-0.00329878,-0.00876659,4,0,41.37748205563351,-91.83422270893898,10876.96972261186,83.76089591238875,-0.1335060111729223,0.6212169878818135,10000,12000,150,1.0,2025-09-08,2025-09-11 20:14:12.637,HH,B,3235479462.0,JASSM,3.0,129.0,76.0,2.0,2.0,1.0,225.0,9.0,2.0,0.0,1.0,26.0,0.0,0.0,0.0,0.0,-119210.36980592164,-4815178.205152807,4172515.290983677,2.50557,2.45379,-0.614455,-54.0,44.5,49.5,0.0,0.0,0.0,0.0,0.0,0.0,2.0,0.0,41.09179157576954,-91.41819384905608,12000.000579432915,-40.088021177951255,-0.0066946499338377,-0.0021857914750729,10000,12000,150.0,True,25.45078420875335,False,125.37550423650035,172.3944626950557,False,False
1,1970-07-23 09:33:44.533108581,2025-09-08,2025-09-11 20:14:13.310,HH,B,682213448,AMBUSH51,1,1,48,2,1,1,225,2,1,0,0,9,1,225,2,1,-153483.15731005737,-4793013.924483905,4196163.353738051,-2.28304,0.0403947,-0.0819921,120.599,3.8337,6.89159,-0.246778,-7.60294,7.00825,0.0172513,0.00885397,-0.00907868,4,0,41.37748773333775,-91.83411383412869,10876.608570228756,83.73571197490999,0.0020569164490954,0.7388417470689377,10000,12000,150,1.0,2025-09-08,2025-09-11 20:14:12.637,HH,B,3235479462.0,JASSM,3.0,129.0,76.0,2.0,2.0,1.0,225.0,9.0,2.0,0.0,1.0,26.0,0.0,0.0,0.0,0.0,-119210.36980592164,-4815178.205152807,4172515.290983677,2.50557,2.45379,-0.614455,-54.0,44.5,49.5,0.0,0.0,0.0,0.0,0.0,0.0,2.0,0.0,41.09179157576954,-91.41819384905608,12000.000579432915,-40.088021177951255,-0.0066946499338377,-0.0021857914750729,10000,12000,150.0,True,25.447374746147222,False,125.39959498196718,172.40241794972638,False,False
1,1970-07-23 09:33:44.537106855,2025-09-08,2025-09-11 20:14:13.710,HH,B,682690648,AMBUSH51,1,1,48,2,1,1,225,2,1,0,0,9,1,225,2,1,-153435.70883489336,-4793012.397520158,4196166.028048335,-2.28363,0.0396829,-0.0819501,120.65,3.76603,6.8538,-0.203104,-7.69725,6.83811,-0.00429955,-0.00316979,0.00112456,4,0,41.37752390392368,-91.83354779873616,10874.913046928828,83.76484681033675,0.0313109624811825,0.7017864038149907,10000,12000,150,1.0,2025-09-08,2025-09-11 20:14:12.637,HH,B,3235479462.0,JASSM,3.0,129.0,76.0,2.0,2.0,1.0,225.0,9.0,2.0,0.0,1.0,26.0,0.0,0.0,0.0,0.0,-119210.36980592164,-4815178.205152807,4172515.290983677,2.50557,2.45379,-0.614455,-54.0,44.5,49.5,0.0,0.0,0.0,0.0,0.0,0.0,2.0,0.0,41.09179157576954,-91.41819384905608,12000.000579432915,-40.088021177951255,-0.0066946499338377,-0.0021857914750729,10000,12000,150.0,True,25.42992625416527,False,125.43569756623778,172.44447911182127,False,False
1,1970-07-23 09:33:44.541105049,2025-09-08,2025-09-11 20:14:14.110,HH,B,683167846,AMBUSH51,1,1,48,2,1,1,225,2,1,0,0,9,1,225,2,1,-153386.63666880142,-4793010.873548362,4196168.801495355,-2.28298,0.039612,-0.0790066,120.693,3.53214,6.96084,-0.107746,-7.4117,6.45796,6.13775e-05,-0.0064384,0.0107952,4,0,41.3775610323464,-91.832962371695,10873.313186841018,83.89414605877128,-0.0770694918449043,0.7389369080139234,10000,12000,150,1.0,2025-09-08,2025-09-11 20:14:13.800,HH,B,3236791810.0,JASSM,3.0,129.0,76.0,2.0,2.0,1.0,225.0,9.0,2.0,0.0,1.0,26.0,0.0,0.0,0.0,0.0,-119269.99089967164,-4815129.218336401,4172569.751432896,2.50557,2.45379,-0.614455,-54.0,44.5,49.5,0.0,0.0,0.0,0.0,0.0,0.0,2.0,0.0,41.09244188436239,-91.41891727469046,12000.000225343938,-40.088496664863,-0.0058460303600542,-0.0021874519959884,10000,12000,150.0,True,25.36127618843351,False,125.47197170033697,172.47315230684163,False,False
1,1970-07-23 09:33:44.544775228,2025-09-08,2025-09-11 20:14:14.477,HH,B,683605280,AMBUSH51,1,1,48,2,1,1,225,2,1,0,0,9,1,225,2,1,-153343.17223282676,-4793009.4987192,4196171.292523377,-2.28267,0.039577,-0.0780707,120.724,3.49757,6.94374,-0.229629,-7.32097,6.53355,0.0120456,-0.00258514,0.00387095,4,0,41.3775942972175,-91.8324438533528,10871.910506839457,83.93594593492443,-0.1107412501417262,0.7563389282697123,10000,12000,150,1.0,2025-09-08,2025-09-11 20:14:13.800,HH,B,3236791810.0,JASSM,3.0,129.0,76.0,2.0,2.0,1.0,225.0,9.0,2.0,0.0,1.0,26.0,0.0,0.0,0.0,0.0,-119269.99089967164,-4815129.218336401,4172569.751432896,2.50557,2.45379,-0.614455,-54.0,44.5,49.5,0.0,0.0,0.0,0.0,0.0,0.0,2.0,0.0,41.09244188436239,-91.41891727469046,12000.000225343938,-40.088496664863,-0.0058460303600542,-0.0021874519959884,10000,12000,150.0,True,25.345318963832515,False,125.48974341645868,172.51186950055188,False,False
1,1970-07-23 09:33:44.548442996,2025-09-08,2025-09-11 20:14:14.844,HH,B,684042712,AMBUSH51,1,1,48,2,1,1,225,2,1,0,0,9,1,225,2,1,-153298.090179549,-4793008.143584961,4196173.817621863,-2.2841,0.0383182,-0.0778797,120.771,3.5533,6.80327,-0.290679,-7.4541,6.72527,-0.00463036,0.00664438,0.00897048,4,0,41.37762798034552,-91.8319060096001,10870.503845513202,83.99217753304848,-0.0637762781344468,0.6685005892710545,10000,12000,150,1.0,2025-09-08,2025-09-11 20:14:14.827,HH,B,3238104164.0,JASSM,3.0,129.0,76.0,2.0,2.0,1.0,225.0,9.0,2.0,0.0,1.0,26.0,0.0,0.0,0.0,0.0,-119329.61199342164,-4815080.230543432,4172624.2113938336,2.50557,2.45379,-0.614455,-54.0,44.5,49.5,0.0,0.0,0.0,0.0,0.0,0.0,2.0,0.0,41.09309219080256,-91.41964071487982,12000.000993929529,-40.08897216755406,-0.0049974088584353,-0.0021891139100355,10000,12000,150.0,True,25.27813204440411,False,125.52362839495014,172.5372134694648,False,False
1,1970-07-23 09:33:44.552110285,2025-09-08,2025-09-11 20:14:15.211,HH,B,684480146,AMBUSH51,1,1,48,2,1,1,225,2,1,0,0,9,1,225,2,1,-153254.6085665862,-4793006.874078976,4196176.259302744,-2.28861,0.0382031,-0.0776127,120.815,3.47684,6.79598,-0.120885,-7.44998,6.65056,-0.0166832,-0.00137215,0.00296381,4,0,41.377660284276494,-91.8313872447072,10869.253935363384,84.00833121460435,-0.0686052810551703,0.4097938728085374,10000,12000,150,1.0,2025-09-08,2025-09-11 20:14:14.827,HH,B,3238104164.0,JASSM,3.0,129.0,76.0,2.0,2.0,1.0,225.0,9.0,2.0,0.0,1.0,26.0,0.0,0.0,0.0,0.0,-119329.61199342164,-4815080.230543432,4172624.2113938336,2.50557,2.45379,-0.614455,-54.0,44.5,49.5,0.0,0.0,0.0,0.0,0.0,0.0,2.0,0.0,41.09309219080256,-91.41964071487982,12000.000993929529,-40.08897216755406,-0.0049974088584353,-0.0021891139100355,10000,12000,150.0,True,25.262147389865202,False,125.55133839116365,172.57602020641102,False,False
1,1970-07-23 09:33:44.556109494,2025-09-08,2025-09-11 20:14:15.610,HH,B,684957344,AMBUSH51,1,1,48,2,1,1,225,2,1,0,0,9,1,225,2,1,-153205.59511229795,-4793005.232530111,4196179.282124148,-2.29466,0.0373868,-0.0770731,120.795,3.37949,7.00627,-0.3128,-7.40854,6.71045,-0.00482594,-0.0029971,0.00409773,4,0,41.37769977363332,-91.83080256089976,10867.914784201075,84.0627821512416,-0.0537621497924958,0.059443010578415,10000,12000,150,1.0,2025-09-08,2025-09-11 20:14:14.827,HH,B,3238104164.0,JASSM,3.0,129.0,76.0,2.0,2.0,1.0,225.0,9.0,2.0,0.0,1.0,26.0,0.0,0.0,0.0,0.0,-119329.61199342164,-4815080.230543432,4172624.2113938336,2.50557,2.45379,-0.614455,-54.0,44.5,49.5,0.0,0.0,0.0,0.0,0.0,0.0,2.0,0.0,41.09309219080256,-91.41964071487982,12000.000993929529,-40.08897216755406,-0.0049974088584353,-0.0021891139100355,10000,12000,150.0,True,25.244270788139506,False,125.50639794789298,172.6201255054598,False,False
1,1970-07-23 09:33:44.560109086,2025-09-08,2025-09-11 20:14:16.010,HH,B,685434544,AMBUSH51,1,1,48,2,1,1,225,2,1,0,0,9,1,225,2,1,-153158.07166655103,-4793003.864691478,4196181.996881131,-2.29597,0.0377553,-0.0755094,120.843,3.47887,6.87249,-0.254797,-7.42842,6.46633,-0.000259034,-0.00947399,0.0124347,4,0,41.377735269222256,-91.83023556532396,10866.699412531982,84.11625953482024,-0.1285034177394065,-0.0140085331580521,10000,12000,150,1.0,2025-09-08,2025-09-11 20:14:14.827,HH,B,3238104164.0,JASSM,3.0,129.0,76.0,2.0,2.0,1.0,225.0,9.0,2.0,0.0,1.0,26.0,0.0,0.0,0.0,0.0,-119329.61199342164,-4815080.230543432,4172624.2113938336,2.50557,2.45379,-0.614455,-54.0,44.5,49.5,0.0,0.0,0.0,0.0,0.0,0.0,2.0,0.0,41.09309219080256,-91.41964071487982,12000.000993929529,-40.08897216755406,-0.0049974088584353,-0.0021891139100355,10000,12000,150.0,True,25.226835877969247,False,125.52436227601001,172.66267629260798,False,False
1,1970-07-23 09:33:44.564434288,2025-09-08,2025-09-11 20:14:16.443,HH,B,685951510,AMBUSH51,1,1,48,2,1,1,225,2,1,0,0,9,1,225,2,1,-153105.0299918608,-4793002.333432613,4196185.002039971,-2.29685,0.0381755,-0.0760657,120.835,3.47518,6.83204,-0.0486586,-7.23296,6.41965,-0.00525246,-0.00564777,-0.00577261,4,0,41.37777474278835,-91.82960273347764,10865.279154329588,84.07690496857317,-0.1248588248689661,-0.0626783813625591,10000,12000,150,1.0,2025-09-08,2025-09-11 20:14:16.121,HH,B,3239357050.0,JASSM,3.0,129.0,76.0,2.0,2.0,1.0,225.0,9.0,2.0,0.0,1.0,26.0,0.0,0.0,0.0,0.0,-119386.53386842164,-4815033.461012182,4172676.202604771,2.50566,2.45379,-0.614455,-54.0,44.5,49.5,0.0,0.0,0.0,0.0,0.0,0.0,2.0,0.0,41.09371302742881,-91.42033141602953,12000.00022517283,-40.08942615733108,-0.0041872256110403,0.003300787081075,10000,12000,150.0,True,25.159049356510764,False,125.53963630419928,172.6963415191451,False,False
1,1970-07-23 09:33:44.567769686,2025-09-08,2025-09-11 20:14:16.776,HH,B,686349176,AMBUSH51,1,1,48,2,1,1,225,2,1,0,0,9,1,225,2,1,-153064.75583175317,-4793001.576884927,4196187.635914702,-2.29881,0.0408687,-0.0762521,120.819,1.06429,8.97184,-0.0486586,-7.23296,6.41965,-0.00525246,-0.00564777,-0.00577261,4,0,41.37780467527183,-91.8291220733817,10865.964593188552,83.96718980024875,-0.2325740717284448,-0.1626583184650047,10000,12000,150,1.0,2025-09-08,2025-09-11 20:14:16.121,HH,B,3239357050.0,JASSM,3.0,129.0,76.0,2.0,2.0,1.0,225.0,9.0,2.0,0.0,1.0,26.0,0.0,0.0,0.0,0.0,-119386.53386842164,-4815033.461012182,4172676.202604771,2.50566,2.45379,-0.614455,-54.0,44.5,49.5,0.0,0.0,0.0,0.0,0.0,0.0,2.0,0.0,41.09371302742881,-91.42033141602953,12000.00022517283,-40.08942615733108,-0.0041872256110403,0.003300787081075,10000,12000,150.0,True,25.144283627189758,False,125.51652716509274,172.7326133300952,False,False
1,1970-07-23 09:33:44.568770762,2025-09-08,2025-09-11 20:14:16.877,HH,B,686468476,AMBUSH51,1,1,48,2,1,1,225,2,1,0,0,9,1,225,2,1,-153053.46454462738,-4793000.845210295,4196187.911481092,-2.29811,0.0392786,-0.0761604,120.876,3.36155,6.91263,-0.183331,-7.19618,6.45004,-0.0061492,-0.00957594,-0.0065778,4,0,41.37781303035018,-91.8289875132924,10863.87464860878,84.03145565380812,-0.1679697162339363,-0.1298095567184967,10000,12000,150,1.0,2025-09-08,2025-09-11 20:14:16.121,HH,B,3239357050.0,JASSM,3.0,129.0,76.0,2.0,2.0,1.0,225.0,9.0,2.0,0.0,1.0,26.0,0.0,0.0,0.0,0.0,-119386.53386842164,-4815033.461012182,4172676.202604771,2.50566,2.45379,-0.614455,-54.0,44.5,49.5,0.0,0.0,0.0,0.0,0.0,0.0,2.0,0.0,41.09371302742881,-91.42033141602953,12000.00022517283,-40.08942615733108,-0.0041872256110403,0.003300787081075,10000,12000,150.0,True,25.14015082284436,False,125.5476042638034,172.74269672643572,False,False
1,1970-07-23 09:33:44.572441941,2025-09-08,2025-09-11 20:14:17.244,HH,B,686905910,AMBUSH51,1,1,48,2,1,1,225,2,1,0,0,9,1,225,2,1,-153008.32402013786,-4792999.546950066,4196190.447778527,-2.29936,0.0395052,-0.0759589,120.921,3.49032,6.78159,-0.320949,-7.24053,6.4329,-0.0117647,-0.00232298,-0.0184205,4,0,41.37784644591481,-91.82844894557942,10862.634356766492,84.0318707968062,-0.1849103417016713,-0.2006993812307377,10000,12000,150,1.0,2025-09-08,2025-09-11 20:14:17.031,HH,B,3240669212.0,JASSM,3.0,129.0,76.0,2.0,2.0,1.0,225.0,9.0,2.0,0.0,1.0,26.0,0.0,0.0,0.0,0.0,-119446.14714967164,-4814984.478590307,4172730.6523118014,2.50566,2.45379,-0.614455,-54.0,44.5,49.5,0.0,0.0,0.0,0.0,0.0,0.0,2.0,0.0,41.094363224686695,-91.42105478961648,12000.00064945933,-40.08990162838873,-0.0033387267824779,0.0032991352416809,10000,12000,150.0,True,25.072984862833042,False,125.55530720137438,172.7688845344048,False,False
1,1970-07-23 09:33:44.576771534,2025-09-08,2025-09-11 20:14:17.677,HH,B,687422876,AMBUSH51,1,1,48,2,1,1,225,2,1,0,0,9,1,225,2,1,-152956.69112940162,-4792997.977286631,4196193.379500186,-2.30523,0.0398703,-0.0748933,120.977,3.41911,6.89965,-0.284476,-7.20101,6.46276,-0.0114651,-0.00723735,-0.00964252,4,0,41.37788537479954,-91.8278329495207,10861.075053000635,84.06413904430671,-0.2405497196446635,-0.5354323788373238,10000,12000,150,1.0,2025-09-08,2025-09-11 20:14:17.031,HH,B,3240669212.0,JASSM,3.0,129.0,76.0,2.0,2.0,1.0,225.0,9.0,2.0,0.0,1.0,26.0,0.0,0.0,0.0,0.0,-119446.14714967164,-4814984.478590307,4172730.6523118014,2.50566,2.45379,-0.614455,-54.0,44.5,49.5,0.0,0.0,0.0,0.0,0.0,0.0,2.0,0.0,41.094363224686695,-91.42105478961648,12000.00064945933,-40.08990162838873,-0.0033387267824779,0.0032991352416809,10000,12000,150.0,True,25.05411325169876,False,125.53722798133339,172.81556130272227,False,False
1,1970-07-23 09:33:44.580449365,2025-09-08,2025-09-11 20:14:18.044,HH,B,687860308,AMBUSH51,1,1,48,2,1,1,225,2,1,0,0,9,1,225,2,1,-152911.50951368175,-4792996.650767396,4196195.915390545,-2.30899,0.0376689,-0.0766406,121.026,3.51967,6.83233,-0.0771064,-7.48582,6.60023,-0.00535857,0.0101377,-0.00400827,4,0,41.37791895803591,-91.82729390053848,10859.763370682162,84.07296387182365,-0.0796176369248364,-0.7604360251611471,10000,12000,150,1.0,2025-09-08,2025-09-11 20:14:18.035,HH,B,3241921912.0,JASSM,3.0,129.0,76.0,2.0,2.0,1.0,225.0,9.0,2.0,0.0,1.0,26.0,0.0,0.0,0.0,0.0,-119503.05730592164,-4814937.714430151,4172782.634245396,2.50566,2.45379,-0.614455,-54.0,44.5,49.5,0.0,0.0,0.0,0.0,0.0,0.0,2.0,0.0,41.09498395973682,-91.42174537644392,12000.00099513646,-40.09035555461245,-0.0025286832390815,0.0032975427950899,10000,12000,150.0,True,24.98924906074478,False,125.53122513236019,172.84272701941504,False,False
