Subject_ac,Timestamp,SampleDate_ac,SampleTime_ac,Configuration_ac,Scenario_ac,DisTime_ac,MarkingTxt_ac,Aplication_ac,EntId_ac,Site_ac,ExersiseId_ac,ForceId_ac,Category_ac,Country_ac,Domain_ac,Kind_ac,Extra_ac,Specific_ac,Subcategory_ac,AltCategory_ac,AltCountry_ac,AltDomain_ac,AltKind_ac,EcefX_ac,EcefY_ac,EcefZ_ac,OriPhi_ac,OriPsi_ac,OriTheta_ac,LinVelX_ac,LinVelY_ac,LinVelZ_ac,LinAccX_ac,LinAccY_ac,LinAccZ_ac,AngVelX_ac,AngVelY_ac,AngVelZ_ac,DrAlg_ac,Apperance_ac,Latitude_ac,Longitude_ac,Altitude_ac,Heading_ac,Pitch_ac,Roll_ac,CM_Altitude_Lead_ac,CM_Altitude_Wing_ac,CM_Airspeed_ac,Subject_cm,SampleDate_cm,SampleTime_cm,Configuration_cm,Scenario_cm,DisTime_cm,MarkingTxt_cm,Aplication_cm,EntId_cm,Site_cm,ExersiseId_cm,ForceId_cm,Category_cm,Country_cm,Domain_cm,Kind_cm,Extra_cm,Specific_cm,Subcategory_cm,AltCategory_cm,AltCountry_cm,AltDomain_cm,AltKind_cm,EcefX_cm,EcefY_cm,EcefZ_cm,OriPhi_cm,OriPsi_cm,OriTheta_cm,LinVelX_cm,LinVelY_cm,LinVelZ_cm,LinAccX_cm,LinAccY_cm,LinAccZ_cm,AngVelX_cm,AngVelY_cm,AngVelZ_cm,DrAlg_cm,Apperance_cm,Latitude_cm,Longitude_cm,Altitude_cm,Heading_cm,Pitch_cm,Roll_cm,CM_Altitude_Lead_cm,CM_Altitude_Wing_cm,CM_Airspeed_cm,Bank_Angle_Condition,distance_nm,Distance_Condition,angle_between_vel,angle_between_pos,Cone_Condition,Intercept_Criteria
1,1970-07-23 09:33:42.671120439,2025-09-08,2025-09-11 20:11:07.112,HH,B,460077080,AMBUSH51,1,1,48,2,1,1,225,2,1,0,0,9,1,225,2,1,-147261.421570923,-4792359.38808263,4196933.739046875,2.33304,2.86547,-0.263482,-108.091,30.1327,28.2131,-0.0991514,-7.33265,6.83229,-0.00851899,0.00411854,-0.00757857,4,0,41.38774264763607,-91.76005243330738,10456.756926878135,-69.48308301033349,-0.2171001348754715,0.3736558450043186,10000,12000,150,1,2025-09-08,2025-09-11 20:11:07.026,HH,B,3014050036,JASSM,3,123,76,2,2,1,225,9,2,0,1,26,0,0,0,0,-170845.47448904935,-4793851.516572799,4195064.324675083,-2.29541,0.0348981,-0.079767,97.25,3.375,7.75,0.0,0.0,0.0,0.0,0.0,0.0,2,0,41.36159509568683,-92.04106938647388,11999.99938656999,83.90250967325063,-0.003625299773394,0.0057514384735623,10000,12000,150,True,12.751981360504507,False,154.4652097917052,178.37225488699298,False,False
1,1970-07-23 09:33:42.673454937,2025-09-08,2025-09-11 20:11:07.345,HH,B,460355448,AMBUSH51,1,1,48,2,1,1,225,2,1,0,0,9,1,225,2,1,-147287.47602957403,-4792351.973017869,4196940.659766153,2.33413,2.86276,-0.262501,-108.209,30.2125,28.3695,-0.20796,-7.44774,6.86369,-0.00249567,-0.00340489,0.0053024,4,0,41.38782871303323,-91.76036635948311,10455.495558691982,-69.42140917416724,-0.3644415412725028,0.3958560839270654,10000,12000,150,1,2025-09-08,2025-09-11 20:11:07.026,HH,B,3014050036,JASSM,3,123,76,2,2,1,225,9,2,0,1,26,0,0,0,0,-170845.47448904935,-4793851.516572799,4195064.324675083,-2.29541,0.0348981,-0.079767,97.25,3.375,7.75,0.0,0.0,0.0,0.0,0.0,0.0,2,0,41.36159509568683,-92.04106938647388,11999.99938656999,83.90250967325063,-0.003625299773394,0.0057514384735623,10000,12000,150,True,12.738588799031017,False,154.40755671556943,178.35065493942295,False,False
1,1970-07-23 09:33:42.674454623,2025-09-08,2025-09-11 20:11:07.445,HH,B,460474746,AMBUSH51,1,1,48,2,1,1,225,2,1,0,0,9,1,225,2,1,-147297.20985627186,-4792349.241631673,4196943.204308408,2.33375,2.86279,-0.26273,-108.23,30.2156,28.4023,-0.0693634,-7.3448,6.86656,-0.00767427,0.00443063,0.00256225,4,0,41.38786035854129,-91.76048362682803,10455.031048554012,-69.41299360468868,-0.3541931949877506,0.3744342906927929,10000,12000,150,1,2025-09-08,2025-09-11 20:11:07.026,HH,B,3014050036,JASSM,3,123,76,2,2,1,225,9,2,0,1,26,0,0,0,0,-170845.47448904935,-4793851.516572799,4195064.324675083,-2.29541,0.0348981,-0.079767,97.25,3.375,7.75,0.0,0.0,0.0,0.0,0.0,0.0,2,0,41.36159509568683,-92.04106938647388,11999.99938656999,83.90250967325063,-0.003625299773394,0.0057514384735623,10000,12000,150,True,12.73358320378295,False,154.39903077826781,178.34259327459483,False,False
1,1970-07-23 09:33:42.675121225,2025-09-08,2025-09-11 20:11:07.512,HH,B,460554280,AMBUSH51,1,1,48,2,1,1,225,2,1,0,0,9,1,225,2,1,-147305.512481287,-4792346.917639995,4196945.379139718,2.33352,2.86302,-0.262843,-108.249,30.0869,28.5374,-0.15042,-7.50484,6.82935,-0.000435885,-0.000681395,-0.000818714,4,0,41.387887346433466,-91.76058364987657,10454.658716015814,-69.41704529258533,-0.3404625832291543,0.3644790498452437,10000,12000,150,1,2025-09-08,2025-09-11 20:11:07.026,HH,B,3014050036,JASSM,3,123,76,2,2,1,225,9,2,0,1,26,0,0,0,0,-170845.47448904935,-4793851.516572799,4195064.324675083,-2.29541,0.0348981,-0.079767,97.25,3.375,7.75,0.0,0.0,0.0,0.0,0.0,0.0,2,0,41.36159509568683,-92.04106938647388,11999.99938656999,83.90250967325063,-0.003625299773394,0.0057514384735623,10000,12000,150,True,12.729314056095403,False,154.395505390451,178.3356954606267,False,False
1,1970-07-23 09:33:42.679120885,2025-09-08,2025-09-11 20:11:07.912,HH,B,461031480,AMBUSH51,1,1,48,2,1,1,225,2,1,0,0,9,1,225,2,1,-147348.1141088389,-4792335.013476593,4196956.570729662,2.33156,2.86314,-0.264644,-108.352,30.1932,28.5815,-0.170885,-7.44633,6.8171,-0.00176538,-0.00208788,0.0084545,4,0,41.38802591907882,-91.76109687231872,10452.869335658515,-69.34696507645755,-0.2643101814109638,0.2537201905097053,10000,12000,150,1,2025-09-08,2025-09-11 20:11:07.026,HH,B,3014050036,JASSM,3,123,76,2,2,1,225,9,2,0,1,26,0,0,0,0,-170845.47448904935,-4793851.516572799,4195064.324675083,-2.29541,0.0348981,-0.079767,97.25,3.375,7.75,0.0,0.0,0.0,0.0,0.0,0.0,2,0,41.36159509568683,-92.04106938647388,11999.99938656999,83.90250967325063,-0.003625299773394,0.0057514384735623,10000,12000,150,True,12.707415404541328,False,154.3658243805324,178.2998461337063,False,False
1,1970-07-23 09:33:42.683121130,2025-09-08,2025-09-11 20:11:08.312,HH,B,461508680,AMBUSH51,1,1,48,2,1,1,225,2,1,0,0,9,1,225,2,1,-147392.2726179221,-4792322.806816999,4196968.116852606,2.32885,2.86411,-0.265783,-108.497,30.0126,28.8253,-0.227648,-7.41624,6.96247,0.000130037,0.00714996,-0.00196304,4,0,41.38816839747288,-91.76162880423742,10451.22364031179,-69.33679943279282,-0.1799373804517756,0.1128858593912835,10000,12000,150,1,2025-09-08,2025-09-11 20:11:07.955,HH,B,3015243082,JASSM,3,123,76,2,2,1,225,9,2,0,1,26,0,0,0,0,-170748.195436315,-4793848.123018111,4195072.110807896,-2.29541,0.0348981,-0.079767,97.25,3.375,7.75,0.0,0.0,0.0,0.0,0.0,0.0,2,0,41.3616884486355,-92.03990963083425,11999.999499621188,83.90327605081474,-0.0027498495021538,0.0057518085569083,10000,12000,150,True,12.632184912578566,False,154.3625959656354,178.25497042469956,False,False
1,1970-07-23 09:33:42.687120107,2025-09-08,2025-09-11 20:11:08.712,HH,B,461985878,AMBUSH51,1,1,48,2,1,1,225,2,1,0,0,9,1,225,2,1,-147434.96872357727,-4792310.933741438,4196979.409160341,2.32293,2.86546,-0.266047,-108.597,30.0903,28.845,-0.192303,-7.43189,6.90965,-0.0227523,-0.00964044,-0.000319371,4,0,41.38830744335367,-91.76214314834884,10449.738544346332,-69.37727371669331,-0.1149297996928793,-0.2057549676535253,10000,12000,150,1,2025-09-08,2025-09-11 20:11:07.955,HH,B,3015243082,JASSM,3,123,76,2,2,1,225,9,2,0,1,26,0,0,0,0,-170748.195436315,-4793848.123018111,4195072.110807896,-2.29541,0.0348981,-0.079767,97.25,3.375,7.75,0.0,0.0,0.0,0.0,0.0,0.0,2,0,41.3616884486355,-92.03990963083425,11999.999499621188,83.90327605081474,-0.0027498495021538,0.0057518085569083,10000,12000,150,True,12.610260557239839,False,154.34972406997682,178.21737066448975,False,False
1,1970-07-23 09:33:42.691118012,2025-09-08,2025-09-11 20:11:09.111,HH,B,462463078,AMBUSH51,1,1,48,2,1,1,225,2,1,0,0,9,1,225,2,1,-147479.1559968709,-4792298.676683039,4196991.131453225,2.30953,2.8668,-0.268306,-108.695,29.9161,29.0512,0.0192084,-7.31385,6.69972,-0.0289275,0.00951976,0.0110532,4,0,41.38845140089214,-91.76267544710733,10448.355429486322,-69.33423207787615,0.0281725000112761,-0.9533761560890672,10000,12000,150,1,2025-09-08,2025-09-11 20:11:09.020,HH,B,3016436128,JASSM,3,123,76,2,2,1,225,9,2,0,1,26,0,0,0,0,-170650.91638358062,-4793844.728486861,4195079.895964146,-2.29541,0.0348981,-0.0796711,97.25,3.375,7.75,0.0,0.0,0.0,0.0,0.0,0.0,2,0,41.36178178910299,-92.0387498722953,11999.999987370848,83.90815511261873,-0.0055159485468221,0.0057519126021072,10000,12000,150,True,12.535048819692824,False,154.348648369171,178.17013969172518,False,False
1,1970-07-23 09:33:42.692454840,2025-09-08,2025-09-11 20:11:09.245,HH,B,462622144,AMBUSH51,1,1,48,2,1,1,225,2,1,0,0,9,1,225,2,1,-147492.56232421024,-4792294.957039936,4196994.687296788,2.3044,2.86776,-0.268725,-108.738,30.0041,28.9728,-0.185147,-7.44383,6.98055,-0.03374,0.0111676,-0.00361087,4,0,41.38849507747992,-91.7628369462504,10447.932399244111,-69.35321402494971,0.083394989289815,-1.2324929062423406,10000,12000,150,1,2025-09-08,2025-09-11 20:11:09.020,HH,B,3016436128,JASSM,3,123,76,2,2,1,225,9,2,0,1,26,0,0,0,0,-170650.91638358062,-4793844.728486861,4195079.895964146,-2.29541,0.0348981,-0.0796711,97.25,3.375,7.75,0.0,0.0,0.0,0.0,0.0,0.0,2,0,41.36178178910299,-92.0387498722953,11999.999987370848,83.90815511261873,-0.0055159485468221,0.0057519126021072,10000,12000,150,True,12.528170543731315,False,154.3566361412685,178.1578971435605,False,False
1,1970-07-23 09:33:42.693123503,2025-09-08,2025-09-11 20:11:09.312,HH,B,462701678,AMBUSH51,1,1,48,2,1,1,225,2,1,0,0,9,1,225,2,1,-147501.0488185991,-4792292.793993162,4196996.74450293,2.30006,2.867,-0.269238,-108.825,29.8221,29.0405,-0.046009,-7.43015,6.77687,-0.0295871,0.0128404,0.00461164,4,0,41.3885202783097,-91.76293910837931,10447.71576373088,-69.30290707490809,0.0728399495515263,-1.4929795758091802,10000,12000,150,1,2025-09-08,2025-09-11 20:11:09.020,HH,B,3016436128,JASSM,3,123,76,2,2,1,225,9,2,0,1,26,0,0,0,0,-170650.91638358062,-4793844.728486861,4195079.895964146,-2.29541,0.0348981,-0.0796711,97.25,3.375,7.75,0.0,0.0,0.0,0.0,0.0,0.0,2,0,41.36178178910299,-92.0387498722953,11999.999987370848,83.90815511261873,-0.0055159485468221,0.0057519126021072,10000,12000,150,True,12.523801289189748,False,154.4035867968848,178.15062144477199,False,False
1,1970-07-23 09:33:42.697118103,2025-09-08,2025-09-11 20:11:09.711,HH,B,463178878,AMBUSH51,1,1,48,2,1,1,225,2,1,0,0,9,1,225,2,1,-147543.88258795254,-4792281.011112326,4197008.105253169,2.28606,2.86906,-0.270089,-108.952,29.8155,28.9838,-0.158401,-7.39419,6.89916,-0.0321962,0.00716037,-0.0013992,4,0,41.38865921885957,-91.76345506939312,10446.614195171043,-69.34564949430603,0.1894529337447864,-2.263758991543946,10000,12000,150,1,2025-09-08,2025-09-11 20:11:09.020,HH,B,3016436128,JASSM,3,123,76,2,2,1,225,9,2,0,1,26,0,0,0,0,-170650.91638358062,-4793844.728486861,4195079.895964146,-2.29541,0.0348981,-0.0796711,97.25,3.375,7.75,0.0,0.0,0.0,0.0,0.0,0.0,2,0,41.36178178910299,-92.0387498722953,11999.999987370848,83.90815511261873,-0.0055159485468221,0.0057519126021072,10000,12000,150,True,12.501830347328838,False,154.44741625632577,178.11114621517305,False,False
1,1970-07-23 09:33:42.701134343,2025-09-08,2025-09-11 20:11:10.113,HH,B,463656076,AMBUSH51,1,1,48,2,1,1,225,2,1,0,0,9,1,225,2,1,-147588.22080760484,-4792268.886945441,4197019.861216687,2.27332,2.87124,-0.270929,-109.09,29.5141,29.1313,-0.182847,-7.47084,7.01028,-0.0270321,0.0110615,-0.00231466,4,0,41.388802579702606,-91.7639891281813,10445.645334191297,-69.39348746245895,0.3106764153069088,-2.9603249829071268,10000,12000,150,1,2025-09-08,2025-09-11 20:11:10.026,HH,B,3017629176,JASSM,3,123,76,2,2,1,225,9,2,0,1,26,0,0,0,0,-170553.63708670562,-4793841.332979049,4195087.680143833,-2.29541,0.0348981,-0.0796711,97.25,3.375,7.75,0.0,0.0,0.0,0.0,0.0,0.0,2,0,41.36187511714091,-92.03759010794305,12000.000828436436,83.90892149875876,-0.0046404969402729,0.0057523437458866,10000,12000,150,True,12.426565788999032,False,154.51104899428663,178.0616303931559,False,False
1,1970-07-23 09:33:42.702448876,2025-09-08,2025-09-11 20:11:10.244,HH,B,463815144,AMBUSH51,1,1,48,2,1,1,225,2,1,0,0,9,1,225,2,1,-147601.6787822356,-4792265.233172407,4197023.437034191,2.27002,2.87129,-0.270653,-109.137,29.5627,29.021,-0.150407,-7.57092,6.95581,-0.0271715,0.0013888,-0.00260386,4,0,41.38884598810336,-91.7641512217908,10445.43246173777,-69.40700724207804,0.3019617357059493,-3.1488853724792163,10000,12000,150,1,2025-09-08,2025-09-11 20:11:10.026,HH,B,3017629176,JASSM,3,123,76,2,2,1,225,9,2,0,1,26,0,0,0,0,-170553.63708670562,-4793841.332979049,4195087.680143833,-2.29541,0.0348981,-0.0796711,97.25,3.375,7.75,0.0,0.0,0.0,0.0,0.0,0.0,2,0,41.36187511714091,-92.03759010794305,12000.000828436436,83.90892149875876,-0.0046404969402729,0.0057523437458866,10000,12000,150,True,12.419667305767467,False,154.5429344867342,178.04892097402737,False,False
1,1970-07-23 09:33:42.703119901,2025-09-08,2025-09-11 20:11:10.311,HH,B,463894676,AMBUSH51,1,1,48,2,1,1,225,2,1,0,0,9,1,225,2,1,-147610.114881651,-4792263.076377936,4197025.524105309,2.26716,2.8707,-0.270625,-109.201,29.3785,29.1047,-0.10698,-7.5067,6.95846,-0.0236095,0.00224392,-0.00450137,4,0,41.388871361460815,-91.76425278075622,10445.29271099382,-69.38583924844956,0.2771100540865222,-3.321843219947005,10000,12000,150,1,2025-09-08,2025-09-11 20:11:10.026,HH,B,3017629176,JASSM,3,123,76,2,2,1,225,9,2,0,1,26,0,0,0,0,-170553.63708670562,-4793841.332979049,4195087.680143833,-2.29541,0.0348981,-0.0796711,97.25,3.375,7.75,0.0,0.0,0.0,0.0,0.0,0.0,2,0,41.36187511714091,-92.03759010794305,12000.000828436436,83.90892149875876,-0.0046404969402729,0.0057523437458866,10000,12000,150,True,12.415331328291417,False,154.58019629008695,178.04129901116258,False,False
1,1970-07-23 09:33:42.707119284,2025-09-08,2025-09-11 20:11:10.711,HH,B,464371876,AMBUSH51,1,1,48,2,1,1,225,2,1,0,0,9,1,225,2,1,-147653.1029184884,-4792251.480512903,4197036.883743282,2.25679,2.87327,-0.269833,-109.362,29.2678,28.9678,-0.100367,-7.48175,6.84286,-0.0246769,0.000190374,-0.0079073,4,0,41.38900914811523,-91.76477052130568,10444.663274863868,-69.5163932300728,0.3498887906372442,-3.877129517024682,10000,12000,150,1,2025-09-08,2025-09-11 20:11:10.026,HH,B,3017629176,JASSM,3,123,76,2,2,1,225,9,2,0,1,26,0,0,0,0,-170553.63708670562,-4793841.332979049,4195087.680143833,-2.29541,0.0348981,-0.0796711,97.25,3.375,7.75,0.0,0.0,0.0,0.0,0.0,0.0,2,0,41.36187511714091,-92.03759010794305,12000.000828436436,83.90892149875876,-0.0046404969402729,0.0057523437458866,10000,12000,150,True,12.393298851284797,False,154.68879678501702,178.00035179067163,False,False
1,1970-07-23 09:33:42.711115207,2025-09-08,2025-09-11 20:11:11.111,HH,B,464849076,AMBUSH51,1,1,48,2,1,1,225,2,1,0,0,9,1,225,2,1,-147697.6093621036,-4792239.585169697,4197048.609697638,2.24449,2.87658,-0.269193,-109.531,28.8968,29.027,-0.204482,-7.53643,6.91292,-0.024756,0.00814241,-0.00253937,4,0,41.38915090852017,-91.76530651108833,10444.207878976456,-69.66870606852204,0.4587314918177095,-4.53256698216041,10000,12000,150,1,2025-09-08,2025-09-11 20:11:11.000,HH,B,3018822222,JASSM,3,123,76,2,2,1,225,9,2,0,1,26,0,0,0,0,-170456.35778983062,-4793837.935518111,4195095.463346958,-2.29541,0.0348981,-0.0796711,97.25,3.375,7.75,0.0,0.0,0.0,0.0,0.0,0.0,2,0,41.361968438501066,-92.03643034110635,11999.999641015393,83.90968788796454,-0.0037650454352291,0.0057527798942462,10000,12000,150,True,12.317966723381291,False,154.80780648986413,177.94893187245296,False,False
1,1970-07-23 09:33:42.711807204,2025-09-08,2025-09-11 20:11:11.180,HH,B,464928608,AMBUSH51,1,1,48,2,1,1,225,2,1,0,0,9,1,225,2,1,-147704.91157471485,-4792237.675541013,4197050.560112795,2.24269,2.87713,-0.269398,-109.544,28.3944,29.4878,-0.204482,-7.53643,6.91292,-0.024756,0.00814241,-0.00253937,4,0,41.389174096051455,-91.76539443616193,10444.294270749828,-69.68092230667997,0.4890376955628241,-4.627212814340082,10000,12000,150,1,2025-09-08,2025-09-11 20:11:11.000,HH,B,3018822222,JASSM,3,123,76,2,2,1,225,9,2,0,1,26,0,0,0,0,-170456.35778983062,-4793837.935518111,4195095.463346958,-2.29541,0.0348981,-0.0796711,97.25,3.375,7.75,0.0,0.0,0.0,0.0,0.0,0.0,2,0,41.361968438501066,-92.03643034110635,11999.999641015393,83.90968788796454,-0.0037650454352291,0.0057527798942462,10000,12000,150,True,12.31422640901151,False,154.7960201332979,177.94191019241737,False,False
1,1970-07-23 09:33:42.712458542,2025-09-08,2025-09-11 20:11:11.245,HH,B,465008142,AMBUSH51,1,1,48,2,1,1,225,2,1,0,0,9,1,225,2,1,-147711.1259450558,-4792236.003801431,4197052.162071177,2.23886,2.8778,-0.26957,-109.589,28.928,28.8846,-0.122327,-7.38758,7.0067,-0.0516185,0.0112092,-0.00257266,4,0,41.38919371541744,-91.76546927986016,10444.127593006637,-69.69895921778759,0.5227275443239393,-4.836689550054839,10000,12000,150,1,2025-09-08,2025-09-11 20:11:11.000,HH,B,3018822222,JASSM,3,123,76,2,2,1,225,9,2,0,1,26,0,0,0,0,-170456.35778983062,-4793837.935518111,4195095.463346958,-2.29541,0.0348981,-0.0796711,97.25,3.375,7.75,0.0,0.0,0.0,0.0,0.0,0.0,2,0,41.361968438501066,-92.03643034110635,11999.999641015393,83.90968788796454,-0.0037650454352291,0.0057527798942462,10000,12000,150,True,12.311041863279955,False,154.85822062066586,177.93583024183167,False,False
1,1970-07-23 09:33:42.713115294,2025-09-08,2025-09-11 20:11:11.311,HH,B,465087676,AMBUSH51,1,1,48,2,1,1,225,2,1,0,0,9,1,225,2,1,-147719.41256352374,-4792233.851393938,4197054.300100601,2.23583,2.87949,-0.268741,-109.583,28.7522,28.9814,-0.193666,-7.46559,6.98257,-0.0404166,-0.0017321,-0.0161631,4,0,41.38921943298512,-91.76556905278656,10444.09837507295,-69.7975034096453,0.5585055901294546,-4.985707852015927,10000,12000,150,1,2025-09-08,2025-09-11 20:11:11.000,HH,B,3018822222,JASSM,3,123,76,2,2,1,225,9,2,0,1,26,0,0,0,0,-170456.35778983062,-4793837.935518111,4195095.463346958,-2.29541,0.0348981,-0.0796711,97.25,3.375,7.75,0.0,0.0,0.0,0.0,0.0,0.0,2,0,41.361968438501066,-92.03643034110635,11999.999641015393,83.90968788796454,-0.0037650454352291,0.0057527798942462,10000,12000,150,True,12.306793444702208,False,154.87560613097875,177.9278918321986,False,False
1,1970-07-23 09:33:42.716460387,2025-09-08,2025-09-11 20:11:11.646,HH,B,465485342,AMBUSH51,1,1,48,2,1,1,225,2,1,0,0,9,1,225,2,1,-147755.23489039292,-4792224.428271677,4197063.672073252,2.21454,2.8829,-0.26796,-109.749,28.7107,28.6237,-0.160761,-7.44097,6.99138,-0.0818724,0.00610759,-0.00945734,4,0,41.389332185344,-91.76600040695278,10443.961928553435,-69.9592650904857,0.6660540446912221,-6.155184915595923,10000,12000,150,1,2025-09-08,2025-09-11 20:11:11.000,HH,B,3018822222,JASSM,3,123,76,2,2,1,225,9,2,0,1,26,0,0,0,0,-170456.35778983062,-4793837.935518111,4195095.463346958,-2.29541,0.0348981,-0.0796711,97.25,3.375,7.75,0.0,0.0,0.0,0.0,0.0,0.0,2,0,41.361968438501066,-92.03643034110635,11999.999641015393,83.90968788796454,-0.0037650454352291,0.0057527798942462,10000,12000,150,True,12.288442793028132,False,155.04137178564486,177.89297660872526,False,False
1,1970-07-23 09:33:42.720455586,2025-09-08,2025-09-11 20:11:12.045,HH,B,465962542,AMBUSH51,1,1,48,2,1,1,225,2,1,0,0,9,1,225,2,1,-147799.90922712456,-4792212.844700513,4197075.28556071,2.17417,2.88672,-0.266483,-109.961,28.2116,28.5325,-0.0500797,-7.49184,7.00403,-0.0976434,0.00875202,-0.0134958,4,0,41.38947129564078,-91.76653829267543,10444.044998016749,-70.16551238015651,0.763116813364935,-8.412956071901426,10000,12000,150,1,2025-09-08,2025-09-11 20:11:12.015,HH,B,3020015268,JASSM,3,123,76,2,2,1,225,9,2,0,1,26,0,0,0,0,-170359.07849295562,-4793834.537080611,4195103.245573521,-2.29541,0.0348981,-0.0796711,97.25,3.375,7.75,0.0,0.0,0.0,0.0,0.0,0.0,2,0,41.362061747379904,-92.03527057137062,11999.998828295866,83.91045428051049,-0.0028895943377439,0.0057532152433833,10000,12000,150,True,12.213034538577254,False,155.25744760737817,177.8401442522169,False,False
1,1970-07-23 09:33:42.724121254,2025-09-08,2025-09-11 20:11:12.412,HH,B,466399974,AMBUSH51,1,1,48,2,1,1,225,2,1,0,0,9,1,225,2,1,-147839.4303214107,-4792202.723717053,4197085.490875617,2.1389,2.8908,-0.264236,-110.16,27.8133,28.2846,-0.138403,-7.54917,7.03481,-0.0938608,0.0026746,-0.00395833,4,0,41.389593142708144,-91.76701408791284,10444.281764141404,-70.41390266349337,0.8409538027118703,-10.375804435583088,10000,12000,150,1,2025-09-08,2025-09-11 20:11:12.015,HH,B,3020015268,JASSM,3,123,76,2,2,1,225,9,2,0,1,26,0,0,0,0,-170359.07849295562,-4793834.537080611,4195103.245573521,-2.29541,0.0348981,-0.0796711,97.25,3.375,7.75,0.0,0.0,0.0,0.0,0.0,0.0,2,0,41.362061747379904,-92.03527057137062,11999.998828295866,83.91045428051049,-0.0028895943377439,0.0057532152433833,10000,12000,150,False,12.192791895702632,False,155.49585033818659,177.801190827047,False,False
1,1970-07-23 09:33:42.728123244,2025-09-08,2025-09-11 20:11:12.812,HH,B,466877174,AMBUSH51,1,1,48,2,1,1,225,2,1,0,0,9,1,225,2,1,-147884.29651587817,-4792191.518992486,4197096.889160478,2.10015,2.89587,-0.260501,-110.447,27.1592,27.9841,0.0114623,-7.54659,6.91833,-0.0882807,0.00152404,-0.0234597,4,0,41.389728506888446,-91.7675541299719,10444.846812403111,-70.76172349839753,0.900982465152498,-12.52637058623826,10000,12000,150,1,2025-09-08,2025-09-11 20:11:12.015,HH,B,3020015268,JASSM,3,123,76,2,2,1,225,9,2,0,1,26,0,0,0,0,-170359.07849295562,-4793834.537080611,4195103.245573521,-2.29541,0.0348981,-0.0796711,97.25,3.375,7.75,0.0,0.0,0.0,0.0,0.0,0.0,2,0,41.362061747379904,-92.03527057137062,11999.998828295866,83.91045428051049,-0.0028895943377439,0.0057532152433833,10000,12000,150,False,12.169802083686474,False,155.84230338800802,177.75722705590343,False,False
1,1970-07-23 09:33:42.732114728,2025-09-08,2025-09-11 20:11:13.211,HH,B,467354374,AMBUSH51,1,1,48,2,1,1,225,2,1,0,0,9,1,225,2,1,-147927.81629889226,-4792180.916675878,4197107.724911802,2.06018,2.90285,-0.255197,-110.794,26.6635,27.2904,-0.0501907,-7.55152,6.94131,-0.09482,0.0128258,-0.0178442,4,0,41.38985673485913,-91.76807786962124,10445.572561907971,-71.24781828639638,0.9784923431112686,-14.722153810132898,10000,12000,150,1,2025-09-08,2025-09-11 20:11:13.021,HH,B,3021208316,JASSM,3,123,76,2,2,1,225,9,2,0,1,26,0,0,0,0,-170261.79919608062,-4793831.138643111,4195111.026823521,-2.29541,0.0348981,-0.0796711,97.25,3.375,7.75,0.0,0.0,0.0,0.0,0.0,0.0,2,0,41.36215503797379,-92.03411079832196,12000.000793484338,83.91122067667004,-0.0020141439542332,0.0057536439894824,10000,12000,150,False,12.09497247987862,False,156.29087440183434,177.70498802574278,False,False
1,1970-07-23 09:33:42.736118159,2025-09-08,2025-09-11 20:11:13.611,HH,B,467831572,AMBUSH51,1,1,48,2,1,1,225,2,1,0,0,9,1,225,2,1,-147973.0114745281,-4792170.387194738,4197118.492112655,2.01757,2.90956,-0.24794,-111.201,25.8161,26.6765,-0.0476699,-7.61179,6.95785,-0.0982093,0.00533985,-0.0232122,4,0,41.38998375673779,-91.768621596549,10446.457163008958,-71.80646194842876,0.9705219999837222,-17.077335443405904,10000,12000,150,1,2025-09-08,2025-09-11 20:11:13.021,HH,B,3021208316,JASSM,3,123,76,2,2,1,225,9,2,0,1,26,0,0,0,0,-170261.79919608062,-4793831.138643111,4195111.026823521,-2.29541,0.0348981,-0.0796711,97.25,3.375,7.75,0.0,0.0,0.0,0.0,0.0,0.0,2,0,41.36215503797379,-92.03411079832196,12000.000793484338,83.91122067667004,-0.0020141439542332,0.0057536439894824,10000,12000,150,False,12.071771461613247,False,156.82367736373985,177.66172069355784,False,False
1,1970-07-23 09:33:42.739458486,2025-09-08,2025-09-11 20:11:13.945,HH,B,468229238,AMBUSH51,1,1,48,2,1,1,225,2,1,0,0,9,1,225,2,1,-148009.40479465353,-4792162.041617809,4197127.039912091,1.98956,2.91715,-0.241992,-111.584,25.3406,25.7317,0.0309083,-7.62707,7.24772,-0.0744426,0.0137871,-0.0223674,4,0,41.3900844195132,-91.76905938385444,10447.23253476022,-72.34333370645403,1.050585202317334,-18.58642324374958,10000,12000,150,1,2025-09-08,2025-09-11 20:11:13.925,HH,B,3022341710,JASSM,3,123,76,2,2,1,225,9,2,0,1,26,0,0,0,0,-170169.3839128775,-4793827.908174361,4195118.418425083,-2.29541,0.0348981,-0.0796711,97.25,3.375,7.75,0.0,0.0,0.0,0.0,0.0,0.0,2,0,41.36224366085027,-92.03300901226848,12000.001122041387,83.91194875543535,-0.0011824663458415,0.0057540589657331,10000,12000,150,False,12.003194784541233,False,157.36082192781808,177.61713960189306,False,False
1,1970-07-23 09:33:42.743459767,2025-09-08,2025-09-11 20:11:14.345,HH,B,468706438,AMBUSH51,1,1,48,2,1,1,225,2,1,0,0,9,1,225,2,1,-148054.86810000677,-4792152.03970721,4197137.290359594,1.96672,2.92492,-0.234503,-112.023,24.3468,24.978,0.0182389,-7.73162,7.06735,-0.0345181,0.00788441,-0.0333155,4,0,41.39020476079493,-91.76960612255958,10448.316581936628,-72.95260702027689,1.079877353215721,-19.80103625460593,10000,12000,150,1,2025-09-08,2025-09-11 20:11:13.925,HH,B,3022341710,JASSM,3,123,76,2,2,1,225,9,2,0,1,26,0,0,0,0,-170169.3839128775,-4793827.908174361,4195118.418425083,-2.29541,0.0348981,-0.0796711,97.25,3.375,7.75,0.0,0.0,0.0,0.0,0.0,0.0,2,0,41.36224366085027,-92.03300901226848,12000.001122041387,83.91194875543535,-0.0011824663458415,0.0057540589657331,10000,12000,150,False,11.979822717681236,False,157.99076555075501,177.5743780158639,False,False
1,1970-07-23 09:33:42.747123141,2025-09-08,2025-09-11 20:11:14.712,HH,B,469143872,AMBUSH51,1,1,48,2,1,1,225,2,1,0,0,9,1,225,2,1,-148095.27977028114,-4792143.420704654,4197146.103820577,1.95792,2.93215,-0.227033,-112.429,23.5416,24.1372,-0.118816,-7.68674,7.18542,-0.00938244,0.00517548,-0.0226858,4,0,41.39030810109298,-91.7700920120408,10449.30275782302,-73.54094310685635,1.0889501035421894,-20.2217983176181,10000,12000,150,1,2025-09-08,2025-09-11 20:11:13.925,HH,B,3022341710,JASSM,3,123,76,2,2,1,225,9,2,0,1,26,0,0,0,0,-170169.3839128775,-4793827.908174361,4195118.418425083,-2.29541,0.0348981,-0.0796711,97.25,3.375,7.75,0.0,0.0,0.0,0.0,0.0,0.0,2,0,41.36224366085027,-92.03300901226848,12000.001122041387,83.91194875543535,-0.0011824663458415,0.0057540589657331,10000,12000,150,False,11.959029228473561,False,158.59060865761808,177.53686880115777,False,False
1,1970-07-23 09:33:42.751116401,2025-09-08,2025-09-11 20:11:15.111,HH,B,469621070,AMBUSH51,1,1,48,2,1,1,225,2,1,0,0,9,1,225,2,1,-148141.09755734674,-4792134.043096233,4197155.701313578,1.95759,2.93979,-0.218308,-112.861,22.5499,23.3001,-0.23265,-7.71455,7.11342,-0.00156565,0.00594322,-0.027494,4,0,41.39042025070773,-91.77064275810382,10450.535442162112,-74.19835702933689,1.0679064279981176,-20.15596713453327,10000,12000,150,1,2025-09-08,2025-09-11 20:11:15.028,HH,B,3023594408,JASSM,3,123,76,2,2,1,225,9,2,0,1,26,0,0,0,0,-170067.24035819,-4793824.335908736,4195126.586393833,-2.29541,0.0349939,-0.0796711,97.25,3.375,7.75,0.0,0.0,0.0,0.0,0.0,0.0,2,0,41.36234159917959,-92.03179124185674,11999.998617018857,83.90912346661406,-0.0043628624966227,0.0061918478397261,10000,12000,150,False,11.880290049897805,False,159.24705317809017,177.4836591834872,False,False
1,1970-07-23 09:33:42.754783412,2025-09-08,2025-09-11 20:11:15.478,HH,B,470058504,AMBUSH51,1,1,48,2,1,1,225,2,1,0,0,9,1,225,2,1,-148181.78540527466,-4792126.003394627,4197163.927962883,1.95599,2.94738,-0.211016,-113.244,21.7652,22.4623,-0.162714,-7.7725,7.18576,0.00466365,0.0132253,-0.0291918,4,0,41.39051612847228,-91.77113173565286,10451.696821356538,-74.79397389893444,1.1018021297041016,-20.16621914953748,10000,12000,150,1,2025-09-08,2025-09-11 20:11:15.028,HH,B,3023594408,JASSM,3,123,76,2,2,1,225,9,2,0,1,26,0,0,0,0,-170067.24035819,-4793824.335908736,4195126.586393833,-2.29541,0.0349939,-0.0796711,97.25,3.375,7.75,0.0,0.0,0.0,0.0,0.0,0.0,2,0,41.36234159917959,-92.03179124185674,11999.998617018857,83.90912346661406,-0.0043628624966227,0.0061918478397261,10000,12000,150,False,11.85931163507779,False,159.83519508951593,177.44705475417632,False,False
1,1970-07-23 09:33:42.758454331,2025-09-08,2025-09-11 20:11:15.845,HH,B,470495936,AMBUSH51,1,1,48,2,1,1,225,2,1,0,0,9,1,225,2,1,-148224.1483030829,-4792117.990278423,4197172.037669586,1.95045,2.9557,-0.202412,-113.652,20.9808,21.3794,-0.103788,-7.84731,7.18868,-0.0110386,0.0149959,-0.023362,4,0,41.39061074833377,-91.77164071294206,10452.79830739288,-75.47295343773312,1.1166791066905035,-20.39922931320159,10000,12000,150,1,2025-09-08,2025-09-11 20:11:15.028,HH,B,3023594408,JASSM,3,123,76,2,2,1,225,9,2,0,1,26,0,0,0,0,-170067.24035819,-4793824.335908736,4195126.586393833,-2.29541,0.0349939,-0.0796711,97.25,3.375,7.75,0.0,0.0,0.0,0.0,0.0,0.0,2,0,41.36234159917959,-92.03179124185674,11999.998617018857,83.90912346661406,-0.0043628624966227,0.0061918478397261,10000,12000,150,False,11.837437634837478,False,160.51560947057945,177.40985761056567,False,False
1,1970-07-23 09:33:42.761798678,2025-09-08,2025-09-11 20:11:16.179,HH,B,470893602,AMBUSH51,1,1,48,2,1,1,225,2,1,0,0,9,1,225,2,1,-148262.0366897459,-4792111.432880503,4197179.563185916,1.94525,2.96337,-0.197012,-113.687,18.3651,23.7755,-0.103788,-7.84731,7.18868,-0.0110386,0.0149959,-0.023362,4,0,41.39069358712727,-91.77209570636128,10455.874254094657,-75.99157864097621,1.2289404744547068,-20.620656691789318,10000,12000,150,1,2025-09-08,2025-09-11 20:11:16.033,HH,B,3024847106,JASSM,3,123,76,2,2,1,225,9,2,0,1,26,0,0,0,0,-169965.09704764312,-4793820.763643111,4195134.754362583,-2.29541,0.0349939,-0.0796711,97.25,3.375,7.75,0.0,0.0,0.0,0.0,0.0,0.0,2,0,41.3624395245699,-92.03057347070794,12000.001530176409,83.90992819331807,-0.0034436396283129,0.0061922470824313,10000,12000,150,False,11.762742908357666,False,160.34396663022778,177.36541647696396,False,False
1,1970-07-23 09:33:42.762117955,2025-09-08,2025-09-11 20:11:16.211,HH,B,470933370,AMBUSH51,1,1,48,2,1,1,225,2,1,0,0,9,1,225,2,1,-148265.13643131297,-4792110.574536513,4197179.530569005,1.94607,2.96245,-0.195752,-114.016,20.1411,20.4754,-0.0252781,-7.74543,7.12701,-0.014948,0.00273078,-0.0209214,4,0,41.39069790156141,-91.77213304948212,10453.927766006143,-76.01048484587051,1.1421544789625753,-20.584136451249783,10000,12000,150,1,2025-09-08,2025-09-11 20:11:16.033,HH,B,3024847106,JASSM,3,123,76,2,2,1,225,9,2,0,1,26,0,0,0,0,-169965.09704764312,-4793820.763643111,4195134.754362583,-2.29541,0.0349939,-0.0796711,97.25,3.375,7.75,0.0,0.0,0.0,0.0,0.0,0.0,2,0,41.3624395245699,-92.03057347070794,12000.001530176409,83.90992819331807,-0.0034436396283129,0.0061922470824313,10000,12000,150,False,11.76111612245692,False,161.1407834999892,177.3624737968997,False,False
1,1970-07-23 09:33:42.766119165,2025-09-08,2025-09-11 20:11:16.611,HH,B,471410568,AMBUSH51,1,1,48,2,1,1,225,2,1,0,0,9,1,225,2,1,-148311.528130834,-4792102.487319586,4197187.750193659,1.94458,2.9696,-0.189194,-114.375,19.1422,19.6712,-0.194341,-7.73934,7.18447,-0.0023209,0.0135395,-0.0211004,4,0,41.3907929582319,-91.7726901803654,10455.394083363764,-76.55955323573181,1.1897343673753893,-20.602347347676385,10000,12000,150,1,2025-09-08,2025-09-11 20:11:16.033,HH,B,3024847106,JASSM,3,123,76,2,2,1,225,9,2,0,1,26,0,0,0,0,-169965.09704764312,-4793820.763643111,4195134.754362583,-2.29541,0.0349939,-0.0796711,97.25,3.375,7.75,0.0,0.0,0.0,0.0,0.0,0.0,2,0,41.3624395245699,-92.03057347070794,12000.001530176409,83.90992819331807,-0.0034436396283129,0.0061922470824313,10000,12000,150,False,11.737114975827582,False,161.77483448195676,177.32310563925003,False,False
1,1970-07-23 09:33:42.769785658,2025-09-08,2025-09-11 20:11:16.978,HH,B,471848002,AMBUSH51,1,1,48,2,1,1,225,2,1,0,0,9,1,225,2,1,-148352.77239888185,-4792095.725048907,4197194.588168799,1.94287,2.97731,-0.183237,-114.706,18.3033,18.76,-0.140453,-7.73677,7.24699,-0.00240829,0.0196419,-0.0313951,4,0,41.39087175144804,-91.77318533747425,10456.731947580622,-77.10395027694112,1.2843268090250504,-20.63054595740956,10000,12000,150,1,2025-09-08,2025-09-11 20:11:16.033,HH,B,3024847106,JASSM,3,123,76,2,2,1,225,9,2,0,1,26,0,0,0,0,-169965.09704764312,-4793820.763643111,4195134.754362583,-2.29541,0.0349939,-0.0796711,97.25,3.375,7.75,0.0,0.0,0.0,0.0,0.0,0.0,2,0,41.3624395245699,-92.03057347070794,12000.001530176409,83.90992819331807,-0.0034436396283129,0.0061922470824313,10000,12000,150,False,11.715740097420351,False,162.39728934837993,177.2892794508708,False,False
1,1970-07-23 09:33:42.773455898,2025-09-08,2025-09-11 20:11:17.345,HH,B,472285434,AMBUSH51,1,1,48,2,1,1,225,2,1,0,0,9,1,225,2,1,-148395.60728047826,-4792089.015158709,4197201.378962619,1.94418,2.98539,-0.172955,-115.022,17.5265,17.6786,-0.181316,-7.7246,7.18022,-0.00165511,0.014303,-0.0433211,4,0,41.390949619484594,-91.77369947601562,10458.218425249328,-77.84718940118594,1.230191364598164,-20.489595709440803,10000,12000,150,1,2025-09-08,2025-09-11 20:11:17.019,HH,B,3026040154,JASSM,3,123,76,2,2,1,225,9,2,0,1,26,0,0,0,0,-169867.8175066275,-4793817.359346236,4195142.530729771,-2.29541,0.0349939,-0.0796711,97.25,3.375,7.75,0.0,0.0,0.0,0.0,0.0,0.0,2,0,41.362532769716296,-92.0294136838134,11999.998293955632,83.91069460436495,-0.0025681887532847,0.0061926220328771,10000,12000,150,False,11.641015869202317,False,163.0628311219244,177.24264115151144,False,False
1,1970-07-23 09:33:42.777119081,2025-09-08,2025-09-11 20:11:17.711,HH,B,472722868,AMBUSH51,1,1,48,2,1,1,225,2,1,0,0,9,1,225,2,1,-148437.0752479078,-4792082.866003505,4197207.556118023,1.94456,2.99392,-0.164158,-115.323,16.6898,16.7581,-0.143535,-7.70698,7.17585,0.00486963,0.0156097,-0.0362679,4,0,41.39102025900395,-91.7741970806116,10459.650071724418,-78.54444217870738,1.2530065142592413,-20.40084815879137,10000,12000,150,1,2025-09-08,2025-09-11 20:11:17.019,HH,B,3026040154,JASSM,3,123,76,2,2,1,225,9,2,0,1,26,0,0,0,0,-169867.8175066275,-4793817.359346236,4195142.530729771,-2.29541,0.0349939,-0.0796711,97.25,3.375,7.75,0.0,0.0,0.0,0.0,0.0,0.0,2,0,41.362532769716296,-92.0294136838134,11999.998293955632,83.91069460436495,-0.0025681887532847,0.0061926220328771,10000,12000,150,False,11.619472279003165,False,163.68416120334194,177.2101877145604,False,False
1,1970-07-23 09:33:42.781116451,2025-09-08,2025-09-11 20:11:18.111,HH,B,473200066,AMBUSH51,1,1,48,2,1,1,225,2,1,0,0,9,1,225,2,1,-148484.05005044717,-4792076.25748505,4197214.117455989,1.94199,3.00183,-0.155009,-115.631,15.6705,15.8646,-0.0984938,-7.693,7.01394,-0.0071895,0.0085294,-0.02579,4,0,41.39109520746904,-91.77476063476968,10461.20570543144,-79.23430782403611,1.2381508277804678,-20.49093293176674,10000,12000,150,1,2025-09-08,2025-09-11 20:11:17.019,HH,B,3026040154,JASSM,3,123,76,2,2,1,225,9,2,0,1,26,0,0,0,0,-169867.8175066275,-4793817.359346236,4195142.530729771,-2.29541,0.0349939,-0.0796711,97.25,3.375,7.75,0.0,0.0,0.0,0.0,0.0,0.0,2,0,41.362532769716296,-92.0294136838134,11999.998293955632,83.91069460436495,-0.0025681887532847,0.0061926220328771,10000,12000,150,False,11.595034443098314,False,164.34913271324723,177.17443523681237,False,False
1,1970-07-23 09:33:42.782453596,2025-09-08,2025-09-11 20:11:18.245,HH,B,473359134,AMBUSH51,1,1,48,2,1,1,225,2,1,0,0,9,1,225,2,1,-148498.31493253435,-4792074.316968153,4197216.013287613,1.94211,3.00453,-0.152426,-115.736,15.4745,15.3867,-0.0636992,-7.7542,7.01003,0.00617,0.0180835,-0.0244543,4,0,41.39111691969895,-91.77493174548565,10461.631768787876,-79.44658479252192,1.2536277453573967,-20.465315120811045,10000,12000,150,1,2025-09-08,2025-09-11 20:11:18.115,HH,B,3027233592,JASSM,3,123,76,2,2,1,225,9,2,0,1,26,0,0,0,0,-169770.5061052603,-4793813.954072799,4195150.310026646,-2.29541,0.0349939,-0.0795753,97.25,3.375,7.75,0.0,0.0,0.0,0.0,0.0,0.0,2,0,41.36262603546966,-92.02825351370196,12000.0011247333,83.91557392295391,-0.0053340314899018,0.0061927466320986,10000,12000,150,False,11.535092047585133,False,164.5963211280132,177.15095496973942,False,False
1,1970-07-23 09:33:42.783117063,2025-09-08,2025-09-11 20:11:18.311,HH,B,473438666,AMBUSH51,1,1,48,2,1,1,225,2,1,0,0,9,1,225,2,1,-148507.2138742005,-4792073.161927953,4197217.131169082,1.94183,3.00575,-0.151314,-115.795,15.2052,15.3381,-0.0299135,-7.71048,6.989,0.0052483,0.018277,-0.0272901,4,0,41.39112969666199,-91.77503846994728,10461.89363105009,-79.5401564276583,1.2628393113067364,-20.472877790985223,10000,12000,150,1,2025-09-08,2025-09-11 20:11:18.115,HH,B,3027233592,JASSM,3,123,76,2,2,1,225,9,2,0,1,26,0,0,0,0,-169770.5061052603,-4793813.954072799,4195150.310026646,-2.29541,0.0349939,-0.0795753,97.25,3.375,7.75,0.0,0.0,0.0,0.0,0.0,0.0,2,0,41.36262603546966,-92.02825351370196,12000.0011247333,83.91557392295391,-0.0053340314899018,0.0061927466320986,10000,12000,150,False,11.530452746189956,False,164.69914395853297,177.14445611983214,False,False
1,1970-07-23 09:33:42.786785063,2025-09-08,2025-09-11 20:11:18.678,HH,B,473876100,AMBUSH51,1,1,48,2,1,1,225,2,1,0,0,9,1,225,2,1,-148548.9617713547,-4792067.789998282,4197222.38490988,1.94492,3.01213,-0.145055,-116.06,14.3862,14.4101,-0.133887,-7.68661,7.07288,0.0195524,0.00685452,-0.0274004,4,0,41.3911894216574,-91.77553913312998,10463.25804481776,-80.0490780331586,1.2947045179454195,-20.253169896203243,10000,12000,150,1,2025-09-08,2025-09-11 20:11:18.115,HH,B,3027233592,JASSM,3,123,76,2,2,1,225,9,2,0,1,26,0,0,0,0,-169770.5061052603,-4793813.954072799,4195150.310026646,-2.29541,0.0349939,-0.0795753,97.25,3.375,7.75,0.0,0.0,0.0,0.0,0.0,0.0,2,0,41.36262603546966,-92.02825351370196,12000.0011247333,83.91557392295391,-0.0053340314899018,0.0061927466320986,10000,12000,150,False,11.508689565943861,False,165.3131661532727,177.1139580573454,False,False
1,1970-07-23 09:33:42.790461710,2025-09-08,2025-09-11 20:11:19.046,HH,B,474313532,AMBUSH51,1,1,48,2,1,1,225,2,1,0,0,9,1,225,2,1,-148592.34565111055,-4792062.522648194,4197227.477537691,1.9519,3.0191,-0.138999,-116.319,13.6326,13.3088,-0.118944,-7.65746,7.18303,0.0264537,0.011334,-0.0193194,4,0,41.39124713299681,-91.77605930009013,10464.655962396688,-80.57129148971045,1.3594050421203905,-19.80861602500937,10000,12000,150,1,2025-09-08,2025-09-11 20:11:19.028,HH,B,3028426644,JASSM,3,123,76,2,2,1,225,9,2,0,1,26,0,0,0,0,-169673.22607596344,-4793810.547822799,4195158.085417271,-2.29541,0.0349939,-0.0795753,97.25,3.375,7.75,0.0,0.0,0.0,0.0,0.0,0.0,2,0,41.36271926234744,-92.02709371518182,12000.00071419664,83.91634034449858,-0.0044585763966511,0.0061931890204391,10000,12000,150,False,11.433550307365214,False,165.97273254586713,177.0698927242882,False,False
1,1970-07-23 09:33:42.794116410,2025-09-08,2025-09-11 20:11:19.411,HH,B,474750966,AMBUSH51,1,1,48,2,1,1,225,2,1,0,0,9,1,225,2,1,-148634.16869523912,-4792057.716187075,4197232.188288286,1.96629,3.02763,-0.131904,-116.502,12.838,12.4982,-0.136292,-7.75963,7.02947,0.0458199,0.00917438,-0.0259877,4,0,41.39129981047376,-91.77656065309782,10466.24122384684,-81.19734093709461,1.4518405000441093,-18.933347877112297,10000,12000,150,1,2025-09-08,2025-09-11 20:11:19.028,HH,B,3028426644,JASSM,3,123,76,2,2,1,225,9,2,0,1,26,0,0,0,0,-169673.22607596344,-4793810.547822799,4195158.085417271,-2.29541,0.0349939,-0.0795753,97.25,3.375,7.75,0.0,0.0,0.0,0.0,0.0,0.0,2,0,41.36271926234744,-92.02709371518182,12000.00071419664,83.91634034449858,-0.0044585763966511,0.0061931890204391,10000,12000,150,False,11.411702596671077,False,166.5278846781464,177.04075233014,False,False
1,1970-07-23 09:33:42.798119997,2025-09-08,2025-09-11 20:11:19.811,HH,B,475228164,AMBUSH51,1,1,48,2,1,1,225,2,1,0,0,9,1,225,2,1,-148681.59193815658,-4792052.671921955,4197237.044967216,1.98308,3.03549,-0.124045,-116.714,11.8434,11.7288,-0.131576,-7.7317,7.08893,0.0423474,0.00699392,-0.0255362,4,0,41.391353851950605,-91.77712898888664,10467.986391203474,-81.83130719426138,1.4877467557831636,-17.9300595639617,10000,12000,150,1,2025-09-08,2025-09-11 20:11:19.028,HH,B,3028426644,JASSM,3,123,76,2,2,1,225,9,2,0,1,26,0,0,0,0,-169673.22607596344,-4793810.547822799,4195158.085417271,-2.29541,0.0349939,-0.0795753,97.25,3.375,7.75,0.0,0.0,0.0,0.0,0.0,0.0,2,0,41.36271926234744,-92.02709371518182,12000.00071419664,83.91634034449858,-0.0044585763966511,0.0061931890204391,10000,12000,150,False,11.386889075881651,False,167.12688095823688,177.00898149529905,False,False
1,1970-07-23 09:33:42.801802933,2025-09-08,2025-09-11 20:11:20.180,HH,B,475665598,AMBUSH51,1,1,48,2,1,1,225,2,1,0,0,9,1,225,2,1,-148723.64681207118,-4792048.479586186,4197241.013687047,1.99727,3.04299,-0.11672,-116.889,11.0553,10.9591,-0.185594,-7.77937,7.14194,0.0438204,0.0111135,-0.0297223,4,0,41.39139781954308,-91.7776328849396,10469.492469036108,-82.42904659808389,1.529359595370912,-17.081576573360362,10000,12000,150,1,2025-09-08,2025-09-11 20:11:20.131,HH,B,3029678944,JASSM,3,123,76,2,2,1,225,9,2,0,1,26,0,0,0,0,-169571.11511404935,-4793806.971650924,4195166.245573521,-2.29541,0.0349939,-0.0795753,97.25,3.375,7.75,0.0,0.0,0.0,0.0,0.0,0.0,2,0,41.36281710167228,-92.02587631775457,12000.000710695014,83.91714483025726,-0.0035396468942102,0.0061936487510036,10000,12000,150,False,11.30976125669611,False,167.6623239395186,176.96706066662847,False,False
1,1970-07-23 09:33:42.805709240,2025-09-08,2025-09-11 20:11:20.570,HH,B,476103030,AMBUSH51,1,1,48,2,1,1,225,2,1,0,0,9,1,225,2,1,-148767.09726647593,-4792044.498935404,4197244.734346969,2.01763,3.05267,-0.110037,-116.953,10.3562,10.0415,-0.076359,-7.64996,7.03291,0.0837387,0.0181085,-0.029223,4,0,41.39143859344141,-91.77815337320642,10471.088716469148,-83.08129391617479,1.6885651981403809,-15.870609864789662,10000,12000,150,1,2025-09-08,2025-09-11 20:11:20.131,HH,B,3029678944,JASSM,3,123,76,2,2,1,225,9,2,0,1,26,0,0,0,0,-169571.11511404935,-4793806.971650924,4195166.245573521,-2.29541,0.0349939,-0.0795753,97.25,3.375,7.75,0.0,0.0,0.0,0.0,0.0,0.0,2,0,41.36281710167228,-92.02587631775457,12000.000710695014,83.91714483025726,-0.0035396468942102,0.0061936487510036,10000,12000,150,False,11.28696593687737,False,168.22243686072375,176.9397654455306,False,False
1,1970-07-23 09:33:42.809116477,2025-09-08,2025-09-11 20:11:20.911,HH,B,476540464,AMBUSH51,1,1,48,2,1,1,225,2,1,0,0,9,1,225,2,1,-148809.22195872723,-4792040.863890536,4197248.175490778,2.04704,3.05964,-0.10547,-117.065,9.64418,9.41181,-0.135008,-7.62235,7.06295,0.0892918,0.010739,-0.0114672,4,0,41.39147566715343,-91.77865789771442,10472.828549336402,-83.54075607456582,1.813177901516753,-14.156384715321613,10000,12000,150,1,2025-09-08,2025-09-11 20:11:20.131,HH,B,3029678944,JASSM,3,123,76,2,2,1,225,9,2,0,1,26,0,0,0,0,-169571.11511404935,-4793806.971650924,4195166.245573521,-2.29541,0.0349939,-0.0795753,97.25,3.375,7.75,0.0,0.0,0.0,0.0,0.0,0.0,2,0,41.36281710167228,-92.02587631775457,12000.000710695014,83.91714483025726,-0.0035396468942102,0.0061936487510036,10000,12000,150,False,11.264850358180022,False,168.67740619780278,176.9138816766266,False,False
1,1970-07-23 09:33:42.812118868,2025-09-08,2025-09-11 20:11:21.211,HH,B,476898364,AMBUSH51,1,1,48,2,1,1,225,2,1,0,0,9,1,225,2,1,-148844.34598730228,-4792038.313730779,4197251.31672899,2.07336,3.06412,-0.103948,-117.105,7.35756,11.5306,-0.135008,-7.62235,7.06295,0.0892918,0.010739,-0.0114672,4,0,41.39150555467055,-91.77907839775648,10476.052722636708,-83.77565168235667,1.947406367273918,-12.629331592562306,10000,12000,150,1,2025-09-08,2025-09-11 20:11:21.119,HH,B,3030931644,JASSM,3,123,76,2,2,1,225,9,2,0,1,26,0,0,0,0,-169468.97143729156,-4793803.392549361,4195174.407682896,-2.29541,0.0349939,-0.0795753,97.25,3.375,7.75,0.0,0.0,0.0,0.0,0.0,0.0,2,0,41.36291496559319,-92.0246585273959,12000.000279506092,83.91794957724255,-0.0026204229079753,0.006194114740894,10000,12000,150,False,11.191302097716163,False,168.4055591208181,176.87792741337364,False,False
1,1970-07-23 09:33:42.813117679,2025-09-08,2025-09-11 20:11:21.311,HH,B,477017662,AMBUSH51,1,1,48,2,1,1,225,2,1,0,0,9,1,225,2,1,-148856.89375985702,-4792037.124348944,4197251.689450663,2.08448,3.06633,-0.101366,-117.183,8.75736,8.93277,-0.252262,-7.68655,7.15634,0.100101,0.0143592,-0.0102833,4,0,41.3915128269458,-91.77922872131153,10474.894091797289,-83.97005581000506,1.9440091012930052,-11.98545714508668,10000,12000,150,1,2025-09-08,2025-09-11 20:11:21.119,HH,B,3030931644,JASSM,3,123,76,2,2,1,225,9,2,0,1,26,0,0,0,0,-169468.97143729156,-4793803.392549361,4195174.407682896,-2.29541,0.0349939,-0.0795753,97.25,3.375,7.75,0.0,0.0,0.0,0.0,0.0,0.0,2,0,41.36291496559319,-92.0246585273959,12000.000279506092,83.91794957724255,-0.0026204229079753,0.006194114740894,10000,12000,150,False,11.184679654769912,False,169.1210892534796,176.87050475712817,False,False
1,1970-07-23 09:33:42.816781555,2025-09-08,2025-09-11 20:11:21.678,HH,B,477455096,AMBUSH51,1,1,48,2,1,1,225,2,1,0,0,9,1,225,2,1,-148899.09015916163,-4792034.006260323,4197254.721502923,2.12098,3.07103,-0.0973363,-117.236,8.14447,8.5285,-0.16975,-7.61271,7.07125,0.109802,0.00316771,-0.0182125,4,0,41.3915440460376,-91.77973391148824,10477.025711529735,-84.32099991864948,1.992638113607776,-9.879883385932615,10000,12000,150,1,2025-09-08,2025-09-11 20:11:21.119,HH,B,3030931644,JASSM,3,123,76,2,2,1,225,9,2,0,1,26,0,0,0,0,-169468.97143729156,-4793803.392549361,4195174.407682896,-2.29541,0.0349939,-0.0795753,97.25,3.375,7.75,0.0,0.0,0.0,0.0,0.0,0.0,2,0,41.36291496559319,-92.0246585273959,12000.000279506092,83.91794957724255,-0.0026204229079753,0.006194114740894,10000,12000,150,True,11.162487711072856,False,169.45303677921729,176.8458648556478,False,False
1,1970-07-23 09:33:42.820455914,2025-09-08,2025-09-11 20:11:22.045,HH,B,477892528,AMBUSH51,1,1,48,2,1,1,225,2,1,0,0,9,1,225,2,1,-148942.86645584795,-4792030.961127321,4197257.72766394,2.16914,3.07431,-0.0940331,-117.262,7.77029,8.07532,-0.22661,-7.43133,7.03327,0.137572,0.0088935,-0.00983601,4,0,41.39157436213003,-91.78025794672644,10479.402373773995,-84.5871769132789,2.0081866095851337,-7.111846470768274,10000,12000,150,1,2025-09-08,2025-09-11 20:11:21.119,HH,B,3030931644,JASSM,3,123,76,2,2,1,225,9,2,0,1,26,0,0,0,0,-169468.97143729156,-4793803.392549361,4195174.407682896,-2.29541,0.0349939,-0.0795753,97.25,3.375,7.75,0.0,0.0,0.0,0.0,0.0,0.0,2,0,41.36291496559319,-92.0246585273959,12000.000279506092,83.91794957724255,-0.0026204229079753,0.006194114740894,10000,12000,150,True,11.139451504292165,False,169.7374974230106,176.82078320135304,False,False
1,1970-07-23 09:33:42.824119424,2025-09-08,2025-09-11 20:11:22.411,HH,B,478329962,AMBUSH51,1,1,48,2,1,1,225,2,1,0,0,9,1,225,2,1,-148985.14967616054,-4792028.174280415,4197260.432379457,2.21991,3.07643,-0.0921294,-117.293,7.45376,7.86316,-0.264004,-7.49242,6.85069,0.146802,0.00239997,-0.00818402,4,0,41.39160138052364,-91.78076405171628,10481.64732003397,-84.74955763557776,2.027355059264297,-4.197008528381801,10000,12000,150,1,2025-09-08,2025-09-11 20:11:22.221,HH,B,3032184342,JASSM,3,123,76,2,2,1,225,9,2,0,1,26,0,0,0,0,-169366.82776053375,-4793799.812471236,4195182.568815708,-2.29541,0.0349939,-0.0795753,97.25,3.375,7.75,0.0,0.0,0.0,0.0,0.0,0.0,2,0,41.3630128158341,-92.0234407338006,12000.00072475652,83.91875432793526,-0.0017011993288914,0.0061945799269947,10000,12000,150,True,11.062081301747483,False,169.90970873954075,176.78117245060326,False,False
1,1970-07-23 09:33:42.827786080,2025-09-08,2025-09-11 20:11:22.778,HH,B,478767394,AMBUSH51,1,1,48,2,1,1,225,2,1,0,0,9,1,225,2,1,-149028.9323694716,-4792025.361658667,4197263.275017077,2.27071,3.07964,-0.0936013,-117.257,7.33451,7.70124,-0.256253,-7.60617,6.99408,0.126909,0.0103062,0.0083255,4,0,41.39162920381298,-91.78128807769512,10484.243698113474,-84.80749361774096,2.2206416943080494,-1.271659325868136,10000,12000,150,1,2025-09-08,2025-09-11 20:11:22.221,HH,B,3032184342,JASSM,3,123,76,2,2,1,225,9,2,0,1,26,0,0,0,0,-169366.82776053375,-4793799.812471236,4195182.568815708,-2.29541,0.0349939,-0.0795753,97.25,3.375,7.75,0.0,0.0,0.0,0.0,0.0,0.0,2,0,41.3630128158341,-92.0234407338006,12000.00072475652,83.91875432793526,-0.0017011993288914,0.0061945799269947,10000,12000,150,True,11.039028786693043,False,170.00547230255933,176.75641344786393,False,False
1,1970-07-23 09:33:42.831783365,2025-09-08,2025-09-11 20:11:23.178,HH,B,479244594,AMBUSH51,1,1,48,2,1,1,225,2,1,0,0,9,1,225,2,1,-149075.0413033201,-4792022.464266768,4197266.285520546,2.31066,3.08132,-0.0952768,-117.208,6.93163,8.03039,-0.195251,-7.62718,7.00047,0.075924,0.00791146,-0.00161558,4,0,41.39165823182616,-91.78183992227684,10487.174705033858,-84.7993801627207,2.3566892606751417,1.026540715283121,10000,12000,150,1,2025-09-08,2025-09-11 20:11:22.221,HH,B,3032184342,JASSM,3,123,76,2,2,1,225,9,2,0,1,26,0,0,0,0,-169366.82776053375,-4793799.812471236,4195182.568815708,-2.29541,0.0349939,-0.0795753,97.25,3.375,7.75,0.0,0.0,0.0,0.0,0.0,0.0,2,0,41.3630128158341,-92.0234407338006,12000.00072475652,83.91875432793526,-0.0017011993288914,0.0061945799269947,10000,12000,150,True,11.014752720702452,False,169.9758456574314,176.73033019136867,False,False
1,1970-07-23 09:33:42.833113664,2025-09-08,2025-09-11 20:11:23.311,HH,B,479403660,AMBUSH51,1,1,48,2,1,1,225,2,1,0,0,9,1,225,2,1,-149091.66652442963,-4792021.547540695,4197267.230944158,2.32253,3.07992,-0.0934443,-117.273,6.88398,8.07591,-0.175532,-7.56474,7.02427,0.0881121,0.00225641,0.00489668,4,0,41.39166699093647,-91.78203885008504,10488.24278716835,-84.82551380545468,2.227476992278649,1.6985163310825748,10000,12000,150,1,2025-09-08,2025-09-11 20:11:23.228,HH,B,3033437046,JASSM,3,123,76,2,2,1,225,9,2,0,1,26,0,0,0,0,-169264.683717565,-4793796.231416549,4195190.727995396,-2.29541,0.0350898,-0.0795753,97.25,3.375,7.75,0.0,0.0,0.0,0.0,0.0,0.0,2,0,41.3631106458761,-92.02222293259751,11999.999897355216,83.91592901245264,-0.0048815982407435,0.0066318768874162,10000,12000,150,True,10.950886696364124,False,169.9722935467354,176.70497665465248,False,False
1,1970-07-23 09:33:42.836780727,2025-09-08,2025-09-11 20:11:23.678,HH,B,479841094,AMBUSH51,1,1,48,2,1,1,225,2,1,0,0,9,1,225,2,1,-149133.86763406487,-4792018.925530936,4197270.044932749,2.34941,3.08035,-0.0970092,-117.196,6.84218,8.3093,-0.14268,-7.51178,6.90861,0.0703772,0.0079073,0.00144081,4,0,41.39169377404136,-91.7825439140429,10491.12726775361,-84.68859185063494,2.381177650558843,3.2464877748483856,10000,12000,150,1,2025-09-08,2025-09-11 20:11:23.228,HH,B,3033437046,JASSM,3,123,76,2,2,1,225,9,2,0,1,26,0,0,0,0,-169264.683717565,-4793796.231416549,4195190.727995396,-2.29541,0.0350898,-0.0795753,97.25,3.375,7.75,0.0,0.0,0.0,0.0,0.0,0.0,2,0,41.3631106458761,-92.02222293259751,11999.999897355216,83.91592901245264,-0.0048815982407435,0.0066318768874162,10000,12000,150,True,10.928675307383129,False,169.88355081740875,176.6807693871658,False,False
1,1970-07-23 09:33:42.840448378,2025-09-08,2025-09-11 20:11:24.044,HH,B,480278526,AMBUSH51,1,1,48,2,1,1,225,2,1,0,0,9,1,225,2,1,-149177.59743073268,-4792016.212623928,4197273.075753818,2.36987,3.07932,-0.100794,-117.092,6.99801,8.5202,-0.213679,-7.62123,6.99489,0.0534682,0.000184133,0.0133168,4,0,41.39172227644672,-91.78306727213908,10494.376500513006,-84.48718056280252,2.48079481148285,4.42149122306188,10000,12000,150,1,2025-09-08,2025-09-11 20:11:23.228,HH,B,3033437046,JASSM,3,123,76,2,2,1,225,9,2,0,1,26,0,0,0,0,-169264.683717565,-4793796.231416549,4195190.727995396,-2.29541,0.0350898,-0.0795753,97.25,3.375,7.75,0.0,0.0,0.0,0.0,0.0,0.0,2,0,41.3631106458761,-92.02222293259751,11999.999897355216,83.91592901245264,-0.0048815982407435,0.0066318768874162,10000,12000,150,True,10.905669032601628,False,169.75217834016084,176.65542239007718,False,False
1,1970-07-23 09:33:42.844114078,2025-09-08,2025-09-11 20:11:24.411,HH,B,480715960,AMBUSH51,1,1,48,2,1,1,225,2,1,0,0,9,1,225,2,1,-149220.01025678223,-4792013.763712583,4197275.779592463,2.38595,3.07764,-0.100051,-117.124,7.0325,8.76067,-0.377781,-7.49361,7.0938,0.0488555,-0.000712604,0.0115296,4,0,41.391747242612695,-91.78357480121062,10497.465969600396,-84.45601943349743,2.381011077051564,5.334356497534738,10000,12000,150,1,2025-09-08,2025-09-11 20:11:24.229,HH,B,3034689974,JASSM,3,123,76,2,2,1,225,9,2,0,1,26,0,0,0,0,-169162.52136404935,-4793792.648408736,4195198.888151646,-2.29541,0.0350898,-0.0795753,97.25,3.375,7.75,0.0,0.0,0.0,0.0,0.0,0.0,2,0,41.36320848507307,-92.02100490999293,12000.000187693817,83.91673391758927,-0.0039622076373961,0.0066322807514791,10000,12000,150,True,10.828231157433272,False,169.6455480563019,176.61439843442417,False,False
1,1970-07-23 09:33:42.848112718,2025-09-08,2025-09-11 20:11:24.811,HH,B,481193158,AMBUSH51,1,1,48,2,1,1,225,2,1,0,0,9,1,225,2,1,-149267.6139950417,-4792010.793450211,4197279.363130685,2.40225,3.07591,-0.102906,-117.0,7.07641,9.26031,-0.140952,-7.41383,6.77977,0.0263767,-0.002814,0.00073549,4,0,41.39178028492714,-91.78414452958911,10501.579899462016,-84.26839128065164,2.4156921612266533,6.266004484811141,10000,12000,150,1,2025-09-08,2025-09-11 20:11:24.229,HH,B,3034689974,JASSM,3,123,76,2,2,1,225,9,2,0,1,26,0,0,0,0,-169162.52136404935,-4793792.648408736,4195198.888151646,-2.29541,0.0350898,-0.0795753,97.25,3.375,7.75,0.0,0.0,0.0,0.0,0.0,0.0,2,0,41.36320848507307,-92.02100490999293,12000.000187693817,83.91673391758927,-0.0039622076373961,0.0066322807514791,10000,12000,150,True,10.803213075350769,False,169.42139927227637,176.58592734915442,False,False
1,1970-07-23 09:33:42.851119975,2025-09-08,2025-09-11 20:11:25.111,HH,B,481551058,AMBUSH51,1,1,48,2,1,1,225,2,1,0,0,9,1,225,2,1,-149301.9091841799,-4792008.535047891,4197281.991351551,2.40812,3.07465,-0.105226,-116.897,7.38498,9.44846,-0.19154,-7.39299,6.82437,0.0234889,0.00470943,0.00486755,4,0,41.3918051070108,-91.78455502367268,10504.353758358038,-84.12122038868387,2.44982862783,6.6008104135642585,10000,12000,150,1,2025-09-08,2025-09-11 20:11:24.229,HH,B,3034689974,JASSM,3,123,76,2,2,1,225,9,2,0,1,26,0,0,0,0,-169162.52136404935,-4793792.648408736,4195198.888151646,-2.29541,0.0350898,-0.0795753,97.25,3.375,7.75,0.0,0.0,0.0,0.0,0.0,0.0,2,0,41.36320848507307,-92.02100490999293,12000.000187693817,83.91673391758927,-0.0039622076373961,0.0066322807514791,10000,12000,150,True,10.785199107464212,False,169.26096128214974,176.5649391895786,False,False
1,1970-07-23 09:33:42.853448314,2025-09-08,2025-09-11 20:11:25.344,HH,B,481829424,AMBUSH51,1,1,48,2,1,1,225,2,1,0,0,9,1,225,2,1,-149330.15490022904,-4792006.778624379,4197284.067419564,2.41001,3.07321,-0.103345,-116.924,7.52149,9.63211,-0.167584,-7.2768,6.81225,0.0115338,-0.00104342,0.0119749,4,0,41.39182433544481,-91.78489307055922,10506.701581693693,-84.14807993293752,2.317221051977938,6.699497769821684,10000,12000,150,1,2025-09-08,2025-09-11 20:11:24.229,HH,B,3034689974,JASSM,3,123,76,2,2,1,225,9,2,0,1,26,0,0,0,0,-169162.52136404935,-4793792.648408736,4195198.888151646,-2.29541,0.0350898,-0.0795753,97.25,3.375,7.75,0.0,0.0,0.0,0.0,0.0,0.0,2,0,41.36320848507307,-92.02100490999293,12000.000187693817,83.91673391758927,-0.0039622076373961,0.0066322807514791,10000,12000,150,True,10.770354138325047,False,169.15181849414756,176.54795093373977,False,False
1,1970-07-23 09:33:42.857118043,2025-09-08,2025-09-11 20:11:25.711,HH,B,482266858,AMBUSH51,1,1,48,2,1,1,225,2,1,0,0,9,1,225,2,1,-149372.223172525,-4792003.931400807,4197287.522222418,2.41364,3.07002,-0.107943,-116.804,7.78428,9.97495,-0.147192,-7.3119,6.70491,0.00958218,0.000171649,0.0223674,4,0,41.391856796523776,-91.7853966331909,10510.417157906326,-83.8304524477609,2.3555891807406986,6.901291895584818,10000,12000,150,1,2025-09-08,2025-09-11 20:11:25.433,HH,B,3036002090,JASSM,3,123,76,2,2,1,225,9,2,0,1,26,0,0,0,0,-169055.53271658844,-4793788.894502486,4195207.433073521,-2.29541,0.0350898,-0.0795753,97.25,3.375,7.75,0.0,0.0,0.0,0.0,0.0,0.0,2,0,41.36331093726879,-92.0197293430556,12000.000676494576,83.91757685139228,-0.0029993837484917,0.0066327084277453,10000,12000,150,True,10.690578332533141,False,168.93740834281456,176.50284473840233,False,False
1,1970-07-23 09:33:42.861113926,2025-09-08,2025-09-11 20:11:26.111,HH,B,482744056,AMBUSH51,1,1,48,2,1,1,225,2,1,0,0,9,1,225,2,1,-149419.69125179606,-4792000.602559997,4197291.579894802,2.41661,3.06808,-0.112313,-116.669,7.95097,10.4786,-0.0808021,-7.33839,6.72316,0.00977359,0.00199633,0.0123889,4,0,41.39189518871993,-91.78596487585578,10514.670838741062,-83.56956087941151,2.4385410579759523,7.070279114268592,10000,12000,150,1,2025-09-08,2025-09-11 20:11:25.433,HH,B,3036002090,JASSM,3,123,76,2,2,1,225,9,2,0,1,26,0,0,0,0,-169055.53271658844,-4793788.894502486,4195207.433073521,-2.29541,0.0350898,-0.0795753,97.25,3.375,7.75,0.0,0.0,0.0,0.0,0.0,0.0,2,0,41.36331093726879,-92.0197293430556,12000.000676494576,83.91757685139228,-0.0029993837484917,0.0066327084277453,10000,12000,150,True,10.66569069071833,False,168.6795578723581,176.47211628215993,False,False
1,1970-07-23 09:33:42.862119912,2025-09-08,2025-09-11 20:11:26.211,HH,B,482863356,AMBUSH51,1,1,48,2,1,1,225,2,1,0,0,9,1,225,2,1,-149431.35803991623,-4791999.844184261,4197292.661323173,2.41768,3.06728,-0.113284,-116.677,7.21715,11.1509,-0.0808021,-7.33839,6.72316,0.00977359,0.00199633,0.0123889,4,0,41.39190483674193,-91.78610451733392,10516.046087698633,-83.49773407178972,2.441219644639783,7.129337234957218,10000,12000,150,1,2025-09-08,2025-09-11 20:11:25.433,HH,B,3036002090,JASSM,3,123,76,2,2,1,225,9,2,0,1,26,0,0,0,0,-169055.53271658844,-4793788.894502486,4195207.433073521,-2.29541,0.0350898,-0.0795753,97.25,3.375,7.75,0.0,0.0,0.0,0.0,0.0,0.0,2,0,41.36331093726879,-92.0197293430556,12000.000676494576,83.91757685139228,-0.0029993837484917,0.0066327084277453,10000,12000,150,True,10.65957738041889,False,168.5754603005413,176.464587386396,False,False
1,1970-07-23 09:33:42.865111941,2025-09-08,2025-09-11 20:11:26.511,HH,B,483221256,AMBUSH51,1,1,48,2,1,1,225,2,1,0,0,9,1,225,2,1,-149465.94523580917,-4791997.251464829,4197295.656790352,2.41696,3.06793,-0.107567,-116.737,8.38625,10.8258,-0.198556,-7.48776,6.82553,-0.00263715,9.36268e-06,0.00657364,4,0,41.39193406546764,-91.786518624962,10518.819481776674,-83.76854950956943,2.2528531320846605,7.081271911015079,10000,12000,150,1,2025-09-08,2025-09-11 20:11:26.421,HH,B,3037195138,JASSM,3,123,76,2,2,1,225,9,2,0,1,26,0,0,0,0,-168958.25280936187,-4793785.480439986,4195215.200651646,-2.29541,0.0350898,-0.0795753,97.25,3.375,7.75,0.0,0.0,0.0,0.0,0.0,0.0,2,0,41.36340407186827,-92.01856952496742,12000.00009061688,83.91834329629366,-0.0021239329540558,0.0066330890758467,10000,12000,150,True,10.588995142134243,False,168.42982124491766,176.42402749710342,False,False
1,1970-07-23 09:33:42.869113057,2025-09-08,2025-09-11 20:11:26.911,HH,B,483698456,AMBUSH51,1,1,48,2,1,1,225,2,1,0,0,9,1,225,2,1,-149513.38491238008,-4791993.711195877,4197300.098265016,2.41761,3.06665,-0.11094,-116.61,8.53957,11.3657,-0.18231,-7.44337,6.90645,-0.0108118,0.00724359,0.00564153,4,0,41.39197630607829,-91.78708660803306,10523.385746077643,-83.57561772344303,2.326450357888618,7.11831520592726,10000,12000,150,1,2025-09-08,2025-09-11 20:11:26.421,HH,B,3037195138,JASSM,3,123,76,2,2,1,225,9,2,0,1,26,0,0,0,0,-168958.25280936187,-4793785.480439986,4195215.200651646,-2.29541,0.0350898,-0.0795753,97.25,3.375,7.75,0.0,0.0,0.0,0.0,0.0,0.0,2,0,41.36340407186827,-92.01856952496742,12000.00009061688,83.91834329629366,-0.0021239329540558,0.0066330890758467,10000,12000,150,True,10.564165951603963,False,168.1607609351455,176.39168589912347,False,False
1,1970-07-23 09:33:42.872453461,2025-09-08,2025-09-11 20:11:27.245,HH,B,484096122,AMBUSH51,1,1,48,2,1,1,225,2,1,0,0,9,1,225,2,1,-149551.4508130065,-4791990.765090749,4197303.781103427,2.41739,3.06542,-0.114308,-116.478,9.0448,11.5192,-0.209829,-7.36797,6.78633,-0.00834006,-0.00148242,0.0146609,4,0,41.392011628102935,-91.78754240092417,10527.04945528446,-83.38477098720091,2.40192559743472,7.105506821800637,10000,12000,150,1,2025-09-08,2025-09-11 20:11:26.421,HH,B,3037195138,JASSM,3,123,76,2,2,1,225,9,2,0,1,26,0,0,0,0,-168958.25280936187,-4793785.480439986,4195215.200651646,-2.29541,0.0350898,-0.0795753,97.25,3.375,7.75,0.0,0.0,0.0,0.0,0.0,0.0,2,0,41.36340407186827,-92.01856952496742,12000.00009061688,83.91834329629366,-0.0021239329540558,0.0066330890758467,10000,12000,150,True,10.544258062067064,False,167.9611547312838,176.36515522841913,False,False
1,1970-07-23 09:33:42.876111946,2025-09-08,2025-09-11 20:11:27.611,HH,B,484533556,AMBUSH51,1,1,48,2,1,1,225,2,1,0,0,9,1,225,2,1,-149594.97238115524,-4791987.378069906,4197308.017487482,2.41635,3.06435,-0.117135,-116.399,9.00876,12.095,-0.117145,-7.48286,6.87275,-0.0114235,0.0033716,0.00947607,4,0,41.392052294997626,-91.78806352617572,10531.249019914285,-83.22319347776461,2.4637972805338726,7.046037353246579,10000,12000,150,1,2025-09-08,2025-09-11 20:11:27.521,HH,B,3038507488,JASSM,3,123,76,2,2,1,225,9,2,0,1,26,0,0,0,0,-168851.24499686187,-4793781.723604049,4195223.744596958,-2.29541,0.0350898,-0.0794794,97.25,3.375,7.75,0.0,0.0,0.0,0.0,0.0,0.0,2,0,41.36350651189471,-92.0172937228458,12000.000896070378,83.92329901367609,-0.0048025498788436,0.0066332992765046,10000,12000,150,True,10.463803123959972,False,167.72824526410244,176.31447531922285,False,False
