Subject_ac,Timestamp,SampleDate_ac,SampleTime_ac,Configuration_ac,Scenario_ac,DisTime_ac,MarkingTxt_ac,Aplication_ac,EntId_ac,Site_ac,ExersiseId_ac,ForceId_ac,Category_ac,Country_ac,Domain_ac,Kind_ac,Extra_ac,Specific_ac,Subcategory_ac,AltCategory_ac,AltCountry_ac,AltDomain_ac,AltKind_ac,EcefX_ac,EcefY_ac,EcefZ_ac,OriPhi_ac,OriPsi_ac,OriTheta_ac,LinVelX_ac,LinVelY_ac,LinVelZ_ac,LinAccX_ac,LinAccY_ac,LinAccZ_ac,AngVelX_ac,AngVelY_ac,AngVelZ_ac,DrAlg_ac,Apperance_ac,Latitude_ac,Longitude_ac,Altitude_ac,Heading_ac,Pitch_ac,Roll_ac,CM_Altitude_Lead_ac,CM_Altitude_Wing_ac,CM_Airspeed_ac,Subject_cm,SampleDate_cm,SampleTime_cm,Configuration_cm,Scenario_cm,DisTime_cm,MarkingTxt_cm,Aplication_cm,EntId_cm,Site_cm,ExersiseId_cm,ForceId_cm,Category_cm,Country_cm,Domain_cm,Kind_cm,Extra_cm,Specific_cm,Subcategory_cm,AltCategory_cm,AltCountry_cm,AltDomain_cm,AltKind_cm,EcefX_cm,EcefY_cm,EcefZ_cm,OriPhi_cm,OriPsi_cm,OriTheta_cm,LinVelX_cm,LinVelY_cm,LinVelZ_cm,LinAccX_cm,LinAccY_cm,LinAccZ_cm,AngVelX_cm,AngVelY_cm,AngVelZ_cm,DrAlg_cm,Apperance_cm,Latitude_cm,Longitude_cm,Altitude_cm,Heading_cm,Pitch_cm,Roll_cm,CM_Altitude_Lead_cm,CM_Altitude_Wing_cm,CM_Airspeed_cm,Bank_Angle_Condition,distance_nm,Distance_Condition,angle_between_vel,angle_between_pos,Cone_Condition,Intercept_Criteria
1,1970-07-23 09:33:44.432113068,2025-09-08,2025-09-11 20:14:03.211,HH,B,4290363362,HAWK11,1,1,73,2,1,1,225,2,1,0,0,12,1,225,2,1,-148809.93591483062,-4787707.241182174,4203396.507292271,-2.66079,-0.833239,0.686936,62.0,-61.5,-72.75,0.078125,-7.20312,7.17188,0.0136719,0.00195312,0.00195312,4,0,41.4587517306509,-91.78027536118164,13163.53658784896,147.4871913968286,-0.190337909882611,-3.849199852548347,10000,12000,150,1.0,2025-09-08,2025-09-11 20:14:03.136,HH,B,3224070148.0,JASSM,3.0,127.0,76.0,2.0,2.0,1.0,225.0,9.0,2.0,0.0,1.0,26.0,0.0,0.0,0.0,0.0,-103391.16863404664,-4799048.826246557,4191350.101042271,2.29982,3.002,-0.133073,-83.25,11.75,11.25,0.0,0.0,0.0,0.0,0.0,0.0,2.0,0.0,41.31707782977465,-91.23419484828496,12000.00065311679,-79.82099673961129,-0.0044466471937194,0.0013147031526418,10000,12000,150.0,True,26.035367333195595,False,134.04299772738693,171.00818186223927,False,False
1,1970-07-23 09:33:44.435092014,2025-09-08,2025-09-11 20:14:03.509,HH,B,4290840562,HAWK11,1,1,73,2,1,1,225,2,1,0,0,12,1,225,2,1,-148785.08825858062,-4787731.686494674,4203367.245573521,-2.65848,-0.831993,0.683964,62.25,-61.625,-72.75,-0.125,-7.09375,7.15625,0.00585938,0.0,-0.00195312,4,0,41.45841343618385,-91.77996920713584,13158.153717525083,147.35144742135736,-0.0734296349202502,-3.762243314059567,10000,12000,150,1.0,2025-09-08,2025-09-11 20:14:03.136,HH,B,3224070148.0,JASSM,3.0,127.0,76.0,2.0,2.0,1.0,225.0,9.0,2.0,0.0,1.0,26.0,0.0,0.0,0.0,0.0,-103391.16863404664,-4799048.826246557,4191350.101042271,2.29982,3.002,-0.133073,-83.25,11.75,11.25,0.0,0.0,0.0,0.0,0.0,0.0,2.0,0.0,41.31707782977465,-91.23419484828496,12000.00065311679,-79.82099673961129,-0.0044466471937194,0.0013147031526418,10000,12000,150.0,True,26.015703904436386,False,134.1275782693905,171.04062030989837,False,False
1,1970-07-23 09:33:44.439160222,2025-09-08,2025-09-11 20:14:03.916,HH,B,4291277994,HAWK11,1,1,73,2,1,1,225,2,1,0,0,12,1,225,2,1,-148762.61364920562,-4787753.727510299,4203340.815886021,-2.65427,-0.828925,0.684155,62.5,-61.75,-72.75,-0.1875,-6.875,6.96875,0.0,-0.0175781,-0.0117188,4,0,41.45810811653943,-91.77969232046864,13153.195905813942,147.2412097274912,-0.1536053006227175,-3.631392510963016,10000,12000,150,1.0,2025-09-08,2025-09-11 20:14:03.136,HH,B,3224070148.0,JASSM,3.0,127.0,76.0,2.0,2.0,1.0,225.0,9.0,2.0,0.0,1.0,26.0,0.0,0.0,0.0,0.0,-103391.16863404664,-4799048.826246557,4191350.101042271,2.29982,3.002,-0.133073,-83.25,11.75,11.25,0.0,0.0,0.0,0.0,0.0,0.0,2.0,0.0,41.31707782977465,-91.23419484828496,12000.00065311679,-79.82099673961129,-0.0044466471937194,0.0013147031526418,10000,12000,150.0,True,25.997939782417713,False,134.21182056625108,171.06992118218687,False,False
1,1970-07-23 09:33:44.442112311,2025-09-08,2025-09-11 20:14:04.211,HH,B,4291675660,HAWK11,1,1,73,2,1,1,225,2,1,0,0,12,1,225,2,1,-148741.30700858062,-4787774.627900924,4203315.884245396,-2.64842,-0.821351,0.692688,62.75,-61.625,-73.0,0.0,-6.23438,6.25,0.00585938,-0.03125,0.0,4,0,41.45781947430128,-91.77942982363992,13148.778884453955,147.21305683350184,-0.7453024424368837,-3.5717918228021355,10000,12000,150,1.0,2025-09-08,2025-09-11 20:14:03.962,HH,B,3225143890.0,JASSM,3.0,127.0,76.0,2.0,2.0,1.0,225.0,9.0,2.0,0.0,1.0,26.0,0.0,0.0,0.0,0.0,-103466.24675904664,-4799038.313551244,4191360.2172532086,2.29972,3.00248,-0.132593,-83.25,11.625,11.25,0.0,0.0,0.0,0.0,0.0,0.0,2.0,0.0,41.31719903725466,-91.23509349359207,12000.00094972226,-79.86020406515092,-0.0017570150043123,-0.0005384025907087,10000,12000,150.0,True,25.94041695251576,False,134.23056444138248,171.03036968748486,False,False
1,1970-07-23 09:33:44.445093982,2025-09-08,2025-09-11 20:14:04.509,HH,B,4291794960,HAWK11,1,1,73,2,1,1,225,2,1,0,0,12,1,225,2,1,-148734.97107108062,-4787780.588838424,4203308.565886021,-2.64861,-0.819433,0.693359,62.875,-61.5,-73.0,0.0,-5.98438,5.95312,0.0136719,-0.0351562,-0.00195312,4,0,41.45773579878067,-91.77935186001908,13147.04836524663,147.16161780195225,-0.8224745809597724,-3.6522547277270094,10000,12000,150,1.0,2025-09-08,2025-09-11 20:14:03.962,HH,B,3225143890.0,JASSM,3.0,127.0,76.0,2.0,2.0,1.0,225.0,9.0,2.0,0.0,1.0,26.0,0.0,0.0,0.0,0.0,-103466.24675904664,-4799038.313551244,4191360.2172532086,2.29972,3.00248,-0.132593,-83.25,11.625,11.25,0.0,0.0,0.0,0.0,0.0,0.0,2.0,0.0,41.31719903725466,-91.23509349359207,12000.00094972226,-79.86020406515092,-0.0017570150043123,-0.0005384025907087,10000,12000,150.0,True,25.93546193793638,False,134.30379763597045,171.0383616202858,False,False
1,1970-07-23 09:33:44.454152300,2025-09-08,2025-09-11 20:14:05.415,HH,B,4292948192,HAWK11,1,1,73,2,1,1,225,2,1,0,0,12,1,225,2,1,-148674.35388358062,-4787838.666963424,4203237.132292271,-2.63145,-0.81857,0.693263,63.375,-61.0,-74.0,0.15625,-6.84375,6.76562,0.0195312,0.0136719,0.015625,4,0,41.45691945223322,-91.77860558656708,13129.99399077753,147.12692637593358,-0.8369261721407556,-2.7000409526963574,10000,12000,150,1.0,2025-09-08,2025-09-11 20:14:05.031,HH,B,3226412308.0,JASSM,3.0,127.0,76.0,2.0,2.0,1.0,225.0,9.0,2.0,0.0,1.0,26.0,0.0,0.0,0.0,0.0,-103554.94011842164,-4799025.893629369,4191372.166471959,2.29972,3.00248,-0.132498,-83.25,11.625,11.25,0.0,0.0,0.0,0.0,0.0,0.0,2.0,0.0,41.317342210551125,-91.23615511051742,11999.999919654403,-79.86500223974097,-0.0046058044394414,-0.0005387733877399,10000,12000,150.0,True,25.839664018752437,False,134.37443144690425,171.100280424741,False,False
1,1970-07-23 09:33:44.454371050,2025-09-08,2025-09-11 20:14:05.437,HH,B,4292232394,HAWK11,1,1,73,2,1,1,225,2,1,0,0,12,1,225,2,1,-148712.30505545562,-4787802.389619674,4203281.852995396,-2.64228,-0.816461,0.699112,63.0,-61.25,-73.5,-0.078125,-6.0,5.89062,0.015625,-0.00976562,0.00585938,4,0,41.457430033334994,-91.77907277968993,13140.872311962788,147.2253821765543,-1.17090134792809,-3.4000153416757306,10000,12000,150,1.0,2025-09-08,2025-09-11 20:14:05.031,HH,B,3226412308.0,JASSM,3.0,127.0,76.0,2.0,2.0,1.0,225.0,9.0,2.0,0.0,1.0,26.0,0.0,0.0,0.0,0.0,-103554.94011842164,-4799025.893629369,4191372.166471959,2.29972,3.00248,-0.132498,-83.25,11.625,11.25,0.0,0.0,0.0,0.0,0.0,0.0,2.0,0.0,41.317342210551125,-91.23615511051742,11999.999919654403,-79.86500223974097,-0.0046058044394414,-0.0005387733877399,10000,12000,150.0,True,25.86951938328716,False,134.28761445424422,171.051035101339,False,False
1,1970-07-23 09:33:44.454378427,2025-09-08,2025-09-11 20:14:05.437,HH,B,4292550526,HAWK11,1,1,73,2,1,1,225,2,1,0,0,12,1,225,2,1,-148695.04333670562,-4787818.952119674,4203261.538542271,-2.63768,-0.817324,0.69729,63.25,-60.875,-73.875,-0.078125,-6.45312,6.32812,0.0273438,0.015625,-0.00585938,4,0,41.45719760852012,-91.77886025756648,13136.13391600118,147.2023404120884,-1.062039563993414,-3.104102900478378,10000,12000,150,1.0,2025-09-08,2025-09-11 20:14:05.031,HH,B,3226412308.0,JASSM,3.0,127.0,76.0,2.0,2.0,1.0,225.0,9.0,2.0,0.0,1.0,26.0,0.0,0.0,0.0,0.0,-103554.94011842164,-4799025.893629369,4191372.166471959,2.29972,3.00248,-0.132498,-83.25,11.625,11.25,0.0,0.0,0.0,0.0,0.0,0.0,2.0,0.0,41.317342210551125,-91.23615511051742,11999.999919654403,-79.86500223974097,-0.0046058044394414,-0.0005387733877399,10000,12000,150.0,True,25.855932853845637,False,134.3705474016679,171.07344189110717,False,False
1,1970-07-23 09:33:44.457132655,2025-09-08,2025-09-11 20:14:05.713,HH,B,4293306092,HAWK11,1,1,73,2,1,1,225,2,1,0,0,12,1,225,2,1,-148654.86169608062,-4787857.366182174,4203214.259245396,-2.62896,-0.817324,0.690867,63.625,-61.25,-73.875,0.015625,-7.03125,7.03125,-0.00585938,0.0,-0.00390625,4,0,41.45665746098864,-91.7783656083374,13124.780340490612,147.00774779243093,-0.7491783703907455,-2.601129987960499,10000,12000,150,1.0,2025-09-08,2025-09-11 20:14:05.031,HH,B,3226412308.0,JASSM,3.0,127.0,76.0,2.0,2.0,1.0,225.0,9.0,2.0,0.0,1.0,26.0,0.0,0.0,0.0,0.0,-103554.94011842164,-4799025.893629369,4191372.166471959,2.29972,3.00248,-0.132498,-83.25,11.625,11.25,0.0,0.0,0.0,0.0,0.0,0.0,2.0,0.0,41.317342210551125,-91.23615511051742,11999.999919654403,-79.86500223974097,-0.0046058044394414,-0.0005387733877399,10000,12000,150.0,True,25.82434122103592,False,134.46492360547356,171.1255825218552,False,False
1,1970-07-23 09:33:44.460133078,2025-09-08,2025-09-11 20:14:06.013,HH,B,4293703758,HAWK11,1,1,73,2,1,1,225,2,1,0,0,12,1,225,2,1,-148634.05310233062,-4787877.188447799,4203189.829557896,-2.62378,-0.814064,0.691634,63.75,-61.125,-74.25,0.125,-6.90625,6.76562,0.00585938,-0.00585938,0.00585938,4,0,41.4563785275988,-91.77810947704846,13118.845833304971,146.9092280051944,-0.8624156274719736,-2.422163032702849,10000,12000,150,1.0,2025-09-08,2025-09-11 20:14:05.031,HH,B,3226412308.0,JASSM,3.0,127.0,76.0,2.0,2.0,1.0,225.0,9.0,2.0,0.0,1.0,26.0,0.0,0.0,0.0,0.0,-103554.94011842164,-4799025.893629369,4191372.166471959,2.29972,3.00248,-0.132498,-83.25,11.625,11.25,0.0,0.0,0.0,0.0,0.0,0.0,2.0,0.0,41.317342210551125,-91.23615511051742,11999.999919654403,-79.86500223974097,-0.0046058044394414,-0.0005387733877399,10000,12000,150.0,True,25.808005996520638,False,134.4542309389534,171.1525356782517,False,False
1,1970-07-23 09:33:44.463051738,2025-09-08,2025-09-11 20:14:06.305,HH,B,4294141192,HAWK11,1,1,73,2,1,1,225,2,1,0,0,12,1,225,2,1,-148610.20739920562,-4787899.981416549,4203161.948698521,-2.62263,-0.811859,0.692784,64.0,-61.375,-74.125,0.0,-6.98438,6.98438,-0.0078125,0.00195312,-0.00390625,4,0,41.45605919176728,-91.7778159359694,13112.485255185207,146.86210936564348,-0.9695791285515676,-2.436107949137934,10000,12000,150,1.0,2025-09-08,2025-09-11 20:14:06.035,HH,B,3227665076.0,JASSM,3.0,127.0,76.0,2.0,2.0,1.0,225.0,9.0,2.0,0.0,1.0,26.0,0.0,0.0,0.0,0.0,-103642.53972779664,-4799013.626051244,4191383.968229771,2.29972,3.00248,-0.132498,-83.25,11.625,11.25,0.0,0.0,0.0,0.0,0.0,0.0,2.0,0.0,41.31748361278401,-91.23720364055129,12000.00077670342,-79.8656945106335,-0.0038056979574101,-0.0005393969276,10000,12000,150.0,True,25.74178887099542,False,134.54432782491645,171.16701910331267,False,False
1,1970-07-23 09:33:44.466175581,2025-09-08,2025-09-11 20:14:06.617,HH,B,4294499092,HAWK11,1,1,73,2,1,1,225,2,1,0,0,12,1,225,2,1,-148591.52575858062,-4787917.831025924,4203139.890104771,-2.62637,-0.811955,0.692496,64.125,-61.375,-74.375,0.09375,-6.96875,6.90625,-0.0175781,0.00390625,0.00585938,4,0,41.4558076001005,-91.77758596919008,13107.016496472716,146.85706498055222,-0.953076027225142,-2.6467430077351586,10000,12000,150,1.0,2025-09-08,2025-09-11 20:14:06.035,HH,B,3227665076.0,JASSM,3.0,127.0,76.0,2.0,2.0,1.0,225.0,9.0,2.0,0.0,1.0,26.0,0.0,0.0,0.0,0.0,-103642.53972779664,-4799013.626051244,4191383.968229771,2.29972,3.00248,-0.132498,-83.25,11.625,11.25,0.0,0.0,0.0,0.0,0.0,0.0,2.0,0.0,41.31748361278401,-91.23720364055129,12000.00077670342,-79.8656945106335,-0.0038056979574101,-0.0005393969276,10000,12000,150.0,True,25.72710768676995,False,134.54069285627688,171.19146422092942,False,False
1,1970-07-23 09:33:44.469153678,2025-09-08,2025-09-11 20:14:06.915,HH,B,4294896758,HAWK11,1,1,73,2,1,1,225,2,1,0,0,12,1,225,2,1,-148569.69763358062,-4787938.627900924,4203114.403776646,-2.63375,-0.811763,0.691346,64.25,-61.5,-74.5,0.0625,-7.0625,7.03125,-0.0195312,0.0,0.00390625,4,0,41.45551592375752,-91.77731729391576,13101.106698867698,146.8149790880954,-0.9014281947918416,-3.076039501620629,10000,12000,150,1.0,2025-09-08,2025-09-11 20:14:06.035,HH,B,3227665076.0,JASSM,3.0,127.0,76.0,2.0,2.0,1.0,225.0,9.0,2.0,0.0,1.0,26.0,0.0,0.0,0.0,0.0,-103642.53972779664,-4799013.626051244,4191383.968229771,2.29972,3.00248,-0.132498,-83.25,11.625,11.25,0.0,0.0,0.0,0.0,0.0,0.0,2.0,0.0,41.31748361278401,-91.23720364055129,12000.00077670342,-79.8656945106335,-0.0038056979574101,-0.0005393969276,10000,12000,150.0,True,25.710004986529754,False,134.544220677125,171.21976958105154,False,False
1,1970-07-23 09:33:44.482130615,2025-09-08,2025-09-11 20:14:08.213,HH,B,1400826,HAWK11,1,1,73,2,1,1,225,2,1,0,0,12,1,225,2,1,-148490.26208670562,-4788014.065400924,4203022.858854771,-2.66251,-0.810038,0.674952,65.125,-63.125,-73.25,0.0,-7.67188,7.5,-0.0253906,0.00390625,-0.00195312,4,0,41.45446404185338,-91.77633965761356,13081.617909094934,146.25013980562505,-0.1461692034352098,-4.781202844359915,10000,12000,150,1.0,2025-09-08,2025-09-11 20:14:07.361,HH,B,3228977358.0,JASSM,3.0,127.0,76.0,2.0,2.0,1.0,225.0,9.0,2.0,0.0,1.0,26.0,0.0,0.0,0.0,0.0,-103734.29754029664,-4799000.775465307,4191396.3285813336,2.29972,3.00248,-0.132498,-83.25,11.625,11.25,0.0,0.0,0.0,0.0,0.0,0.0,2.0,0.0,41.31763171005436,-91.23830194754328,12000.000867113213,-79.86641964785645,-0.0029676128872239,-0.0005400432716741,10000,12000,150.0,True,25.5982249472947,False,134.90440266958427,171.30485972995393,False,False
1,1970-07-23 09:33:44.482373740,2025-09-08,2025-09-11 20:14:08.237,HH,B,366894,HAWK11,1,1,73,2,1,1,225,2,1,0,0,12,1,225,2,1,-148546.50427420562,-4787960.651338424,4203087.360807896,-2.64228,-0.811284,0.687703,64.5,-61.625,-74.5,-0.171875,-7.35938,7.23438,-0.0253906,0.00585938,0.00585938,4,0,41.455206697547,-91.77703184439969,13094.72707927979,146.68604541458342,-0.7356662746287651,-3.5805487150093924,10000,12000,150,1.0,2025-09-08,2025-09-11 20:14:08.225,HH,B,3230289708.0,JASSM,3.0,127.0,76.0,2.0,2.0,1.0,225.0,9.0,2.0,0.0,1.0,26.0,0.0,0.0,0.0,0.0,-103826.06316529664,-4798987.921949682,4191408.688932896,2.29972,3.00238,-0.132498,-83.25,11.625,11.25,0.0,0.0,0.0,0.0,0.0,0.0,2.0,0.0,41.31777981323968,-91.23940035349436,11999.998642367453,-79.86351913907858,-0.0061895227901682,-0.0012664362906504,10000,12000,150.0,True,25.592306074489812,False,134.62648027490133,171.2154928230651,False,False
1,1970-07-23 09:33:44.485095545,2025-09-08,2025-09-11 20:14:08.509,HH,B,1718960,HAWK11,1,1,73,2,1,1,225,2,1,0,0,12,1,225,2,1,-148472.58630545562,-4788030.991182174,4203002.546354771,-2.66548,-0.80975,0.670637,65.375,-62.5,-73.875,-0.09375,-7.6875,7.46875,0.0,-0.00195312,-0.00585938,4,0,41.45422953711179,-91.77612206893492,13077.751526779875,146.10753080404209,0.0563322457892928,-4.961644826802933,10000,12000,150,1.0,2025-09-08,2025-09-11 20:14:08.225,HH,B,3230289708.0,JASSM,3.0,127.0,76.0,2.0,2.0,1.0,225.0,9.0,2.0,0.0,1.0,26.0,0.0,0.0,0.0,0.0,-103826.06316529664,-4798987.921949682,4191408.688932896,2.29972,3.00238,-0.132498,-83.25,11.625,11.25,0.0,0.0,0.0,0.0,0.0,0.0,2.0,0.0,41.31777981323968,-91.23940035349436,11999.998642367453,-79.86351913907858,-0.0061895227901682,-0.0012664362906504,10000,12000,150.0,True,25.534639656714585,False,134.97600753776297,171.31069113548125,False,False
1,1970-07-23 09:33:44.488069711,2025-09-08,2025-09-11 20:14:08.806,HH,B,2156392,HAWK11,1,1,73,2,1,1,225,2,1,0,0,12,1,225,2,1,-148448.99646170562,-4788053.432588424,4202975.833464146,-2.66577,-0.806682,0.667761,65.625,-62.625,-73.625,0.03125,-7.4375,7.34375,0.00195312,0.0,0.0,4,0,41.45392011775006,-91.775831735197,13073.089642404624,145.90313400821225,0.1223515731628674,-5.087478640507128,10000,12000,150,1.0,2025-09-08,2025-09-11 20:14:08.225,HH,B,3230289708.0,JASSM,3.0,127.0,76.0,2.0,2.0,1.0,225.0,9.0,2.0,0.0,1.0,26.0,0.0,0.0,0.0,0.0,-103826.06316529664,-4798987.921949682,4191408.688932896,2.29972,3.00238,-0.132498,-83.25,11.625,11.25,0.0,0.0,0.0,0.0,0.0,0.0,2.0,0.0,41.31777981323968,-91.23940035349436,11999.998642367453,-79.86351913907858,-0.0061895227901682,-0.0012664362906504,10000,12000,150.0,True,25.516298003530565,False,135.11103466351577,171.3408479754496,False,False
1,1970-07-23 09:33:44.491198342,2025-09-08,2025-09-11 20:14:09.119,HH,B,2554058,HAWK11,1,1,73,2,1,1,225,2,1,0,0,12,1,225,2,1,-148426.61169608062,-4788074.682588424,4202950.649870396,-2.66529,-0.804189,0.666419,66.0,-62.875,-73.5,-0.0625,-7.45312,7.40625,0.00195312,0.00195312,-0.00390625,4,0,41.45362788266675,-91.775556252154,13068.913838802737,145.76737115159003,0.1275327441764855,-5.14867577351625,10000,12000,150,1.0,2025-09-08,2025-09-11 20:14:08.225,HH,B,3230289708.0,JASSM,3.0,127.0,76.0,2.0,2.0,1.0,225.0,9.0,2.0,0.0,1.0,26.0,0.0,0.0,0.0,0.0,-103826.06316529664,-4798987.921949682,4191408.688932896,2.29972,3.00238,-0.132498,-83.25,11.625,11.25,0.0,0.0,0.0,0.0,0.0,0.0,2.0,0.0,41.31777981323968,-91.23940035349436,11999.998642367453,-79.86351913907858,-0.0061895227901682,-0.0012664362906504,10000,12000,150.0,True,25.498927072598264,False,135.24777365796635,171.3693272829294,False,False
1,1970-07-23 09:33:44.495090516,2025-09-08,2025-09-11 20:14:09.509,HH,B,3031258,HAWK11,1,1,73,2,1,1,225,2,1,0,0,12,1,225,2,1,-148400.15661795562,-4788099.926729049,4202920.864714146,-2.66213,-0.801409,0.665268,66.25,-63.125,-73.375,-0.078125,-7.28125,7.1875,0.00195312,0.00195312,-0.00585938,4,0,41.453281582665646,-91.77523063173165,13064.25121323158,145.6265117973865,0.1162712478462353,-5.066099858551843,10000,12000,150,1.0,2025-09-08,2025-09-11 20:14:09.327,HH,B,3231542408.0,JASSM,3.0,127.0,76.0,2.0,2.0,1.0,225.0,9.0,2.0,0.0,1.0,26.0,0.0,0.0,0.0,0.0,-103913.65496217164,-4798975.652418432,4191420.487761021,2.29972,3.00238,-0.132498,-83.25,11.625,11.25,0.0,0.0,0.0,0.0,0.0,0.0,2.0,0.0,41.31792117870548,-91.24044880482658,12000.000578947089,-79.86421136401127,-0.0053894861543608,-0.0012670142591993,10000,12000,150.0,True,25.43085384979285,False,135.3332546092734,171.38695992216242,False,False
1,1970-07-23 09:33:44.502113443,2025-09-08,2025-09-11 20:14:10.211,HH,B,3866358,HAWK11,1,1,73,2,1,1,225,2,1,0,0,12,1,225,2,1,-148353.54919608062,-4788144.043916549,4202869.265104771,-2.65618,-0.798341,0.660475,66.875,-63.375,-73.125,0.0,-7.5,7.46875,0.00390625,0.00195312,-0.0078125,4,0,41.4526795067722,-91.77465710789184,13057.06205663433,145.3622069646947,0.2737852793665386,-4.834580517521695,10000,12000,150,1.0,2025-09-08,2025-09-11 20:14:09.327,HH,B,3231542408.0,JASSM,3.0,127.0,76.0,2.0,2.0,1.0,225.0,9.0,2.0,0.0,1.0,26.0,0.0,0.0,0.0,0.0,-103913.65496217164,-4798975.652418432,4191420.487761021,2.29972,3.00238,-0.132498,-83.25,11.625,11.25,0.0,0.0,0.0,0.0,0.0,0.0,2.0,0.0,41.31792117870548,-91.24044880482658,12000.000578947089,-79.86421136401127,-0.0053894861543608,-0.0012670142591993,10000,12000,150.0,True,25.394838814762096,False,135.5956940817278,171.44573775859496,False,False
1,1970-07-23 09:33:44.502415849,2025-09-08,2025-09-11 20:14:10.241,HH,B,3468690,HAWK11,1,1,73,2,1,1,225,2,1,0,0,12,1,225,2,1,-148376.23669608062,-4788122.618135299,4202894.325651646,-2.65829,-0.799683,0.663255,66.625,-63.25,-73.25,0.0625,-7.5,7.25,0.0195312,0.00585938,0.0,4,0,41.45297190531302,-91.77493626745522,13060.558979037263,145.49899959080523,0.1719587866752424,-4.907642728850751,10000,12000,150,1.0,2025-09-08,2025-09-11 20:14:09.327,HH,B,3231542408.0,JASSM,3.0,127.0,76.0,2.0,2.0,1.0,225.0,9.0,2.0,0.0,1.0,26.0,0.0,0.0,0.0,0.0,-103913.65496217164,-4798975.652418432,4191420.487761021,2.29972,3.00238,-0.132498,-83.25,11.625,11.25,0.0,0.0,0.0,0.0,0.0,0.0,2.0,0.0,41.31792117870548,-91.24044880482658,12000.000578947089,-79.86421136401127,-0.0053894861543608,-0.0012670142591993,10000,12000,150.0,True,25.412353012375792,False,135.48982545401162,171.41719168368212,False,False
1,1970-07-23 09:33:44.506173151,2025-09-08,2025-09-11 20:14:10.617,HH,B,4264024,HAWK11,1,1,73,2,1,1,225,2,1,0,0,12,1,225,2,1,-148331.67419608062,-4788164.600557174,4202845.296354771,-2.65388,-0.79652,0.657215,67.125,-63.625,-72.875,0.015625,-7.5,7.125,0.00976562,0.0,-0.0117188,4,0,41.45239949582128,-91.77438798577472,13053.862904208005,145.1920786266791,0.3867731287108624,-4.767616742751856,10000,12000,150,1.0,2025-09-08,2025-09-11 20:14:10.481,HH,B,3232854764.0,JASSM,3.0,127.0,76.0,2.0,2.0,1.0,225.0,9.0,2.0,0.0,1.0,26.0,0.0,0.0,0.0,0.0,-104005.42058717164,-4798962.797926244,4191432.8461594586,2.29972,3.00238,-0.132498,-83.25,11.625,11.25,0.0,0.0,0.0,0.0,0.0,0.0,2.0,0.0,41.318069253997066,-91.24154722074904,12000.000486826204,-79.86493657944078,-0.0045513298505333,-0.0012676038510092,10000,12000,150.0,True,25.328190662997535,False,135.70654992377555,171.45615823834368,False,False
1,1970-07-23 09:33:44.509152507,2025-09-08,2025-09-11 20:14:10.915,HH,B,4661690,HAWK11,1,1,73,2,1,1,225,2,1,0,0,12,1,225,2,1,-148308.81872733062,-4788186.176729049,4202820.401823521,-2.65235,-0.796711,0.654818,67.375,-63.75,-72.625,0.109375,-7.51562,7.28125,0.0078125,0.0,0.0,4,0,41.45210735094832,-91.7741067672604,13051.085013748429,145.1253797741705,0.5073926764449496,-4.673540384417585,10000,12000,150,1.0,2025-09-08,2025-09-11 20:14:10.481,HH,B,3232854764.0,JASSM,3.0,127.0,76.0,2.0,2.0,1.0,225.0,9.0,2.0,0.0,1.0,26.0,0.0,0.0,0.0,0.0,-104005.42058717164,-4798962.797926244,4191432.8461594586,2.29972,3.00238,-0.132498,-83.25,11.625,11.25,0.0,0.0,0.0,0.0,0.0,0.0,2.0,0.0,41.318069253997066,-91.24154722074904,12000.000486826204,-79.86493657944078,-0.0045513298505333,-0.0012676038510092,10000,12000,150.0,True,25.310601988713593,False,135.83858508569014,171.48472252217633,False,False
1,1970-07-23 09:33:44.513056617,2025-09-08,2025-09-11 20:14:11.305,HH,B,5099122,HAWK11,1,1,73,2,1,1,225,2,1,0,0,12,1,225,2,1,-148284.52771170562,-4788209.014619674,4202794.052214146,-2.65034,-0.795369,0.652709,67.625,-64.0,-72.5,-0.015625,-7.59375,7.3125,0.0,0.0,0.0,5,0,41.451798144257815,-91.77380792276487,13048.139541322464,145.00888027554194,0.5764332380144142,-4.60604524063495,10000,12000,150,1.0,2025-09-08,2025-09-11 20:14:10.481,HH,B,3232854764.0,JASSM,3.0,127.0,76.0,2.0,2.0,1.0,225.0,9.0,2.0,0.0,1.0,26.0,0.0,0.0,0.0,0.0,-104005.42058717164,-4798962.797926244,4191432.8461594586,2.29972,3.00238,-0.132498,-83.25,11.625,11.25,0.0,0.0,0.0,0.0,0.0,0.0,2.0,0.0,41.318069253997066,-91.24154722074904,12000.000486826204,-79.86493657944078,-0.0045513298505333,-0.0012676038510092,10000,12000,150.0,True,25.291941548088182,False,135.92119681408184,171.51495948837314,False,False
1,1970-07-23 09:33:44.516172865,2025-09-08,2025-09-11 20:14:11.617,HH,B,5536556,HAWK11,1,1,73,2,1,1,225,2,1,0,0,12,1,225,2,1,-148259.40857108062,-4788232.694307174,4202766.919401646,-2.64813,-0.796903,0.646381,67.75,-64.0,-72.375,0.09375,-7.70312,7.375,0.0175781,0.0136719,-0.00195312,4,0,41.45147879516586,-91.7734988696146,13045.499983631504,144.87194516226796,0.9196606297277558,-4.428327943492546,10000,12000,150,1.0,2025-09-08,2025-09-11 20:14:11.535,HH,B,3234167108.0,JASSM,3.0,127.0,76.0,2.0,2.0,1.0,225.0,9.0,2.0,0.0,1.0,26.0,0.0,0.0,0.0,0.0,-104097.18425904664,-4798949.942457494,4191445.204557896,2.29972,3.00238,-0.132498,-83.25,11.625,11.25,0.0,0.0,0.0,0.0,0.0,0.0,2.0,0.0,41.31821732485559,-91.2426456185881,12000.002371138107,-79.86566178507094,-0.0037131895489638,-0.0012682024073838,10000,12000,150.0,True,25.22284545130065,False,135.9978454585036,171.52940008950142,False,False
1,1970-07-23 09:33:44.520132286,2025-09-08,2025-09-11 20:14:12.013,HH,B,5973988,HAWK11,1,1,73,2,1,1,225,2,1,0,0,12,1,225,2,1,-148234.96130545562,-4788255.721650924,4202740.802214146,-2.64247,-0.797478,0.643793,68.0,-64.125,-72.125,0.0625,-7.65625,7.57812,0.0195312,0.015625,-0.00195312,4,0,41.4511700550626,-91.77319809273,13043.514950065091,144.81418940761236,1.059089250341695,-4.085412389121883,10000,12000,150,1.0,2025-09-08,2025-09-11 20:14:11.535,HH,B,3234167108.0,JASSM,3.0,127.0,76.0,2.0,2.0,1.0,225.0,9.0,2.0,0.0,1.0,26.0,0.0,0.0,0.0,0.0,-104097.18425904664,-4798949.942457494,4191445.204557896,2.29972,3.00238,-0.132498,-83.25,11.625,11.25,0.0,0.0,0.0,0.0,0.0,0.0,2.0,0.0,41.31821732485559,-91.2426456185881,12000.002371138107,-79.86566178507094,-0.0037131895489638,-0.0012682024073838,10000,12000,150.0,True,25.204121737608624,False,136.12881076213,171.5596464980574,False,False
1,1970-07-23 09:33:44.523055214,2025-09-08,2025-09-11 20:14:12.305,HH,B,6371654,HAWK11,1,1,73,2,1,1,225,2,1,0,0,12,1,225,2,1,-148211.81482108062,-4788277.526338424,4202716.126432896,-2.63442,-0.795561,0.641492,68.125,-64.375,-71.875,-0.046875,-7.4375,7.17188,0.0253906,0.00585938,-0.0117188,4,0,41.45087807534577,-91.77291332109635,13041.755162550771,144.66910303456964,1.1228378502017102,-3.692593032578421,10000,12000,150,1.0,2025-09-08,2025-09-11 20:14:11.535,HH,B,3234167108.0,JASSM,3.0,127.0,76.0,2.0,2.0,1.0,225.0,9.0,2.0,0.0,1.0,26.0,0.0,0.0,0.0,0.0,-104097.18425904664,-4798949.942457494,4191445.204557896,2.29972,3.00238,-0.132498,-83.25,11.625,11.25,0.0,0.0,0.0,0.0,0.0,0.0,2.0,0.0,41.31821732485559,-91.2426456185881,12000.002371138107,-79.86566178507094,-0.0037131895489638,-0.0012682024073838,10000,12000,150.0,True,25.186407103767024,False,136.18742655091359,171.58828089082257,False,False
1,1970-07-23 09:33:44.527109996,2025-09-08,2025-09-11 20:14:12.710,HH,B,6809088,HAWK11,1,1,73,2,1,1,225,2,1,0,0,12,1,225,2,1,-148187.23474295562,-4788300.604463424,4202690.079557896,-2.62608,-0.793643,0.640916,68.375,-64.5,-71.75,-0.234375,-7.42188,7.0,0.0117188,-0.00585938,0.0,4,0,41.450569529918425,-91.77261094318116,13040.039360703344,144.57742140078986,1.1032555944969291,-3.2821794505237327,10000,12000,150,1.0,2025-09-08,2025-09-11 20:14:12.637,HH,B,3235479462.0,JASSM,3.0,127.0,76.0,2.0,2.0,1.0,225.0,9.0,2.0,0.0,1.0,26.0,0.0,0.0,0.0,0.0,-104188.94793092164,-4798937.085035619,4191457.5610032086,2.29972,3.00238,-0.132498,-83.25,11.625,11.25,0.0,0.0,0.0,0.0,0.0,0.0,2.0,0.0,41.31836538363002,-91.24374402190446,11999.99969958055,-79.86638699645817,-0.0028750491765103,-0.0012687992826983,10000,12000,150.0,True,25.117809810298613,False,136.29069224409426,171.60178980043685,False,False
1,1970-07-23 09:33:44.530132749,2025-09-08,2025-09-11 20:14:13.013,HH,B,7206754,HAWK11,1,1,73,2,1,1,225,2,1,0,0,12,1,225,2,1,-148163.97107108062,-4788322.454072799,4202665.540495396,-2.61898,-0.792685,0.6413,68.5,-64.5,-71.75,-0.09375,-7.17188,6.70312,0.0234375,-0.00195312,0.00976562,4,0,41.45027822485402,-91.77232475920049,13038.679718534037,144.5525303099742,1.0612839336528097,-2.909009240678696,10000,12000,150,1.0,2025-09-08,2025-09-11 20:14:12.637,HH,B,3235479462.0,JASSM,3.0,127.0,76.0,2.0,2.0,1.0,225.0,9.0,2.0,0.0,1.0,26.0,0.0,0.0,0.0,0.0,-104188.94793092164,-4798937.085035619,4191457.5610032086,2.29972,3.00238,-0.132498,-83.25,11.625,11.25,0.0,0.0,0.0,0.0,0.0,0.0,2.0,0.0,41.31836538363002,-91.24374402190446,11999.99969958055,-79.86638699645817,-0.0028750491765103,-0.0012687992826983,10000,12000,150.0,True,25.100056865150098,False,136.34006736921762,171.63041635917207,False,False
1,1970-07-23 09:33:44.539151672,2025-09-08,2025-09-11 20:14:13.915,HH,B,8002086,HAWK11,1,1,73,2,1,1,225,2,1,0,0,12,1,225,2,1,-148118.33044608062,-4788365.129854049,4202617.433073521,-2.52052,-0.798725,0.641396,68.5,-64.625,-71.625,-0.171875,-7.09375,6.76562,0.224609,0.00585938,0.00976562,4,0,41.44970808933815,-91.7717633772529,13035.622976132136,144.7891513558438,1.2073691256838164,2.9442028983022106,10000,12000,150,1.0,2025-09-08,2025-09-11 20:14:13.799,HH,B,3236791810.0,JASSM,3.0,127.0,76.0,2.0,2.0,1.0,225.0,9.0,2.0,0.0,1.0,26.0,0.0,0.0,0.0,0.0,-104280.71160279664,-4798924.227613744,4191469.917448521,2.29972,3.00238,-0.132498,-83.25,11.625,11.25,0.0,0.0,0.0,0.0,0.0,0.0,2.0,0.0,41.31851343191914,-91.24484243019226,12000.001514431313,-79.86711221326817,-0.0020369088256438,-0.0012693961177028,10000,12000,150.0,True,25.015444308456,False,136.3442749936468,171.66984252814575,False,False
1,1970-07-23 09:33:44.542110073,2025-09-08,2025-09-11 20:14:14.211,HH,B,8439520,HAWK11,1,1,73,2,1,1,225,2,1,0,0,12,1,225,2,1,-148093.72497733062,-4788388.379854049,4202591.466276646,-2.4398,-0.800834,0.639958,68.25,-64.875,-71.75,-0.09375,-7.375,6.98438,0.228516,0.015625,0.00585938,4,0,41.449399062123526,-91.77146064296905,13034.505160900018,144.8265787086318,1.32937104237019,7.64252476421359,10000,12000,150,1.0,2025-09-08,2025-09-11 20:14:13.799,HH,B,3236791810.0,JASSM,3.0,127.0,76.0,2.0,2.0,1.0,225.0,9.0,2.0,0.0,1.0,26.0,0.0,0.0,0.0,0.0,-104280.71160279664,-4798924.227613744,4191469.917448521,2.29972,3.00238,-0.132498,-83.25,11.625,11.25,0.0,0.0,0.0,0.0,0.0,0.0,2.0,0.0,41.31851343191914,-91.24484243019226,12000.001514431313,-79.86711221326817,-0.0020369088256438,-0.0012693961177028,10000,12000,150.0,True,24.99666419036212,False,136.1736156567145,171.70041197385194,False,False
1,1970-07-23 09:33:44.545094957,2025-09-08,2025-09-11 20:14:14.509,HH,B,8876952,HAWK11,1,1,73,2,1,1,225,2,1,0,0,12,1,225,2,1,-148068.38708670562,-4788412.428682174,4202564.470182896,-2.36943,-0.806299,0.638999,67.625,-65.0,-72.125,-0.171875,-7.25,6.98438,0.177734,0.0117188,0.0136719,4,0,41.44907847074607,-91.7711488608136,13033.06070963133,145.00931064271884,1.5109985895086155,11.865895983474273,10000,12000,150,1.0,2025-09-08,2025-09-11 20:14:13.799,HH,B,3236791810.0,JASSM,3.0,127.0,76.0,2.0,2.0,1.0,225.0,9.0,2.0,0.0,1.0,26.0,0.0,0.0,0.0,0.0,-104280.71160279664,-4798924.227613744,4191469.917448521,2.29972,3.00238,-0.132498,-83.25,11.625,11.25,0.0,0.0,0.0,0.0,0.0,0.0,2.0,0.0,41.31851343191914,-91.24484243019226,12000.001514431313,-79.86711221326817,-0.0020369088256438,-0.0012693961177028,10000,12000,150.0,False,24.977286389846668,False,135.82387085250173,171.7322483877815,False,False
1,1970-07-23 09:33:44.548052738,2025-09-08,2025-09-11 20:14:14.805,HH,B,9274618,HAWK11,1,1,73,2,1,1,225,2,1,0,0,12,1,225,2,1,-148046.38708670562,-4788433.571260299,4202540.638151646,-2.32187,-0.812626,0.640916,67.125,-65.375,-72.375,0.09375,-7.25,6.78125,0.144531,0.00195312,0.0234375,4,0,41.44879590723744,-91.77087805701188,13031.598999417856,145.31415514270887,1.5736848476201737,14.815206257625851,10000,12000,150,1.0,2025-09-08,2025-09-11 20:14:13.799,HH,B,3236791810.0,JASSM,3.0,127.0,76.0,2.0,2.0,1.0,225.0,9.0,2.0,0.0,1.0,26.0,0.0,0.0,0.0,0.0,-104280.71160279664,-4798924.227613744,4191469.917448521,2.29972,3.00238,-0.132498,-83.25,11.625,11.25,0.0,0.0,0.0,0.0,0.0,0.0,2.0,0.0,41.31851343191914,-91.24484243019226,12000.001514431313,-79.86711221326817,-0.0020369088256438,-0.0012693961177028,10000,12000,150.0,False,24.960384505889724,False,135.50554697986266,171.76047814370284,False,False
1,1970-07-23 09:33:44.551174087,2025-09-08,2025-09-11 20:14:15.117,HH,B,9672284,HAWK11,1,1,73,2,1,1,225,2,1,0,0,12,1,225,2,1,-148023.73474295562,-4788455.737275924,4202515.741667271,-2.2864,-0.82624,0.646285,66.25,-65.75,-72.875,-0.21875,-7.45312,7.03125,0.117188,0.015625,0.0332031,4,0,41.44850019058468,-91.7705990792302,13030.292368397024,146.00689482125114,1.6427173311814414,17.335207148243992,10000,12000,150,1.0,2025-09-08,2025-09-11 20:14:14.827,HH,B,3238104164.0,JASSM,3.0,127.0,76.0,2.0,2.0,1.0,225.0,9.0,2.0,0.0,1.0,26.0,0.0,0.0,0.0,0.0,-104372.47527467164,-4798911.368238744,4191482.272917271,2.29972,3.00238,-0.132498,-83.25,11.625,11.25,0.0,0.0,0.0,0.0,0.0,0.0,2.0,0.0,41.31866147472432,-91.2459408439576,12000.000888801296,-79.86783743583493,-0.0011987672420541,-0.0012699977689519,10000,12000,150.0,False,24.893048643335742,False,134.9856403986748,171.77364987915453,False,False
1,1970-07-23 09:33:44.554149511,2025-09-08,2025-09-11 20:14:15.414,HH,B,10030184,HAWK11,1,1,73,2,1,1,225,2,1,0,0,12,1,225,2,1,-148004.56286795562,-4788474.915010299,4202494.030729771,-2.26425,-0.839183,0.653572,65.375,-65.875,-73.375,-0.1875,-7.375,7.01562,0.0859375,0.00390625,0.0410156,4,0,41.44824310921671,-91.77036281330652,13028.823959489886,146.72880013879384,1.5946598237034593,19.073283814457188,10000,12000,150,1.0,2025-09-08,2025-09-11 20:14:14.827,HH,B,3238104164.0,JASSM,3.0,127.0,76.0,2.0,2.0,1.0,225.0,9.0,2.0,0.0,1.0,26.0,0.0,0.0,0.0,0.0,-104372.47527467164,-4798911.368238744,4191482.272917271,2.29972,3.00238,-0.132498,-83.25,11.625,11.25,0.0,0.0,0.0,0.0,0.0,0.0,2.0,0.0,41.31866147472432,-91.2459408439576,12000.000888801296,-79.86783743583493,-0.0011987672420541,-0.0012699977689519,10000,12000,150.0,False,24.878111936269143,False,134.5089750852175,171.79976928840895,False,False
1,1970-07-23 09:33:44.557112434,2025-09-08,2025-09-11 20:14:15.711,HH,B,10427850,HAWK11,1,1,73,2,1,1,225,2,1,0,0,12,1,225,2,1,-147982.51208670562,-4788497.301729049,4202468.813932896,-2.2493,-0.85577,0.66431,64.375,-66.25,-74.0,-0.03125,-7.39062,6.9375,0.0625,0.0117188,0.0566406,4,0,41.44794380614829,-91.7700909496364,13027.41144126888,147.68995300744467,1.4528264336639134,20.537653558143717,10000,12000,150,1.0,2025-09-08,2025-09-11 20:14:14.827,HH,B,3238104164.0,JASSM,3.0,127.0,76.0,2.0,2.0,1.0,225.0,9.0,2.0,0.0,1.0,26.0,0.0,0.0,0.0,0.0,-104372.47527467164,-4798911.368238744,4191482.272917271,2.29972,3.00238,-0.132498,-83.25,11.625,11.25,0.0,0.0,0.0,0.0,0.0,0.0,2.0,0.0,41.31866147472432,-91.2459408439576,12000.000888801296,-79.86783743583493,-0.0011987672420541,-0.0012699977689519,10000,12000,150.0,False,24.86086582883384,False,133.91290985925164,171.83031829578826,False,False
1,1970-07-23 09:33:44.561174071,2025-09-08,2025-09-11 20:14:16.117,HH,B,10825516,HAWK11,1,1,73,2,1,1,225,2,1,0,0,12,1,225,2,1,-147961.65661795562,-4788518.881807174,4202444.358854771,-2.23817,-0.869384,0.673034,63.375,-66.625,-74.375,0.125,-7.21875,6.9375,0.0605469,0.00195312,0.0605469,4,0,41.44765422243355,-91.7698336749297,13025.76203529518,148.4710658089478,1.3308718734076124,21.67741873619568,10000,12000,150,1.0,2025-09-08,2025-09-11 20:14:15.833,HH,B,3239357050.0,JASSM,3.0,127.0,76.0,2.0,2.0,1.0,225.0,9.0,2.0,0.0,1.0,26.0,0.0,0.0,0.0,0.0,-104460.08269654664,-4798899.090894994,4191494.067839146,2.29972,3.00238,-0.132402,-83.25,11.625,11.25,0.0,0.0,0.0,0.0,0.0,0.0,2.0,0.0,41.318802798578815,-91.24698951203628,12000.001455795877,-79.87262703460591,-0.0040575255713972,-0.0012704089828547,10000,12000,150.0,False,24.796839399336903,False,133.36719531835098,171.84437053486556,False,False
1,1970-07-23 09:33:44.573054967,2025-09-08,2025-09-11 20:14:17.305,HH,B,12296882,HAWK11,1,1,73,2,1,1,225,2,1,0,0,12,1,225,2,1,-147885.90661795562,-4788601.323213424,4202350.501432896,-2.23837,-0.912239,0.690675,59.0,-67.75,-76.75,-0.328125,-7.57812,7.03125,0.00390625,0.00390625,0.0332031,4,0,41.44654429250968,-91.76889773723748,13018.825945372855,150.62935586158383,1.383312399864565,23.26529377818835,10000,12000,150,1.0,2025-09-08,2025-09-11 20:14:16.933,HH,B,3240669212.0,JASSM,3.0,127.0,76.0,2.0,2.0,1.0,225.0,9.0,2.0,0.0,1.0,26.0,0.0,0.0,0.0,0.0,-104551.83269654664,-4798886.231519994,4191506.419401646,2.29972,3.00238,-0.132402,-83.25,11.75,11.25,0.0,0.0,0.0,0.0,0.0,0.0,2.0,0.0,41.31895079625613,-91.24808777236096,12000.000404409651,-79.87335216000477,-0.0032195090355005,-0.0012710677881217,10000,12000,150.0,False,24.686197183308956,False,130.967452069808,171.99748293546986,False,False
1,1970-07-23 09:33:44.573195887,2025-09-08,2025-09-11 20:14:17.319,HH,B,7365820,HAWK11,1,1,73,2,1,1,225,2,1,0,0,12,1,225,2,1,-148154.84216483062,-4788331.133760299,4202656.019011021,-2.61649,-0.793739,0.642259,68.5,-65.5,-70.875,-0.09375,-7.17188,6.70312,0.0234375,-0.00195312,0.00976562,4,0,41.4501640120812,-91.77221241923992,13038.640481817993,144.62306948158746,1.0415123778012465,-2.7287238795927027,10000,12000,150,1.0,2025-09-08,2025-09-11 20:14:16.933,HH,B,3240669212.0,JASSM,3.0,127.0,76.0,2.0,2.0,1.0,225.0,9.0,2.0,0.0,1.0,26.0,0.0,0.0,0.0,0.0,-104551.83269654664,-4798886.231519994,4191506.419401646,2.29972,3.00238,-0.132402,-83.25,11.75,11.25,0.0,0.0,0.0,0.0,0.0,0.0,2.0,0.0,41.31895079625613,-91.24808777236096,12000.000404409651,-79.87335216000477,-0.0032195090355005,-0.0012710677881217,10000,12000,150.0,True,24.896069076380456,False,136.39917027185595,171.62820935295505,False,False
1,1970-07-23 09:33:44.573199065,2025-09-08,2025-09-11 20:14:17.319,HH,B,7604420,HAWK11,1,1,73,2,1,1,225,2,1,0,0,12,1,225,2,1,-148141.62732108062,-4788343.305635299,4202641.999479771,-2.59022,-0.79441,0.641587,68.5,-64.625,-71.625,0.125,-7.09375,6.85938,0.15625,0.00390625,0.0175781,4,0,41.44999942304389,-91.77204994382244,13037.105303276712,144.62823532804975,1.0907219785232465,-1.20047413763114,10000,12000,150,1.0,2025-09-08,2025-09-11 20:14:16.933,HH,B,3240669212.0,JASSM,3.0,127.0,76.0,2.0,2.0,1.0,225.0,9.0,2.0,0.0,1.0,26.0,0.0,0.0,0.0,0.0,-104551.83269654664,-4798886.231519994,4191506.419401646,2.29972,3.00238,-0.132402,-83.25,11.75,11.25,0.0,0.0,0.0,0.0,0.0,0.0,2.0,0.0,41.31895079625613,-91.24808777236096,12000.000404409651,-79.87335216000477,-0.0032195090355005,-0.0012710677881217,10000,12000,150.0,True,24.886001360110424,False,136.3989142358661,171.64449129145595,False,False
1,1970-07-23 09:33:44.573208601,2025-09-08,2025-09-11 20:14:17.320,HH,B,11143650,HAWK11,1,1,73,2,1,1,225,2,1,0,0,12,1,225,2,1,-147944.25232108062,-4788537.059541549,4202423.780729771,-2.23165,-0.879546,0.679074,62.5,-66.875,-75.0,0.015625,-7.3125,6.9375,0.0527344,0.00195312,0.0371094,4,0,41.4474104082714,-91.76961891355413,13024.431988046605,149.03760636691678,1.257533954580324,22.428111740286568,10000,12000,150,1.0,2025-09-08,2025-09-11 20:14:16.933,HH,B,3240669212.0,JASSM,3.0,127.0,76.0,2.0,2.0,1.0,225.0,9.0,2.0,0.0,1.0,26.0,0.0,0.0,0.0,0.0,-104551.83269654664,-4798886.231519994,4191506.419401646,2.29972,3.00238,-0.132402,-83.25,11.75,11.25,0.0,0.0,0.0,0.0,0.0,0.0,2.0,0.0,41.31895079625613,-91.24808777236096,12000.000404409651,-79.87335216000477,-0.0032195090355005,-0.0012710677881217,10000,12000,150.0,False,24.733240256327733,False,132.8976596157738,171.906238531238,False,False
1,1970-07-23 09:33:44.573218667,2025-09-08,2025-09-11 20:14:17.321,HH,B,11541316,HAWK11,1,1,73,2,1,1,225,2,1,0,0,12,1,225,2,1,-147924.02771170562,-4788558.844697799,4202398.979948521,-2.22724,-0.888846,0.683388,61.5,-67.25,-75.5,0.0,-7.40625,6.9375,0.0195312,0.015625,0.0292969,4,0,41.447117154744106,-91.7693691083769,13022.585235344684,149.5198612088351,1.2468460926521676,23.02689027949905,10000,12000,150,1.0,2025-09-08,2025-09-11 20:14:16.933,HH,B,3240669212.0,JASSM,3.0,127.0,76.0,2.0,2.0,1.0,225.0,9.0,2.0,0.0,1.0,26.0,0.0,0.0,0.0,0.0,-104551.83269654664,-4798886.231519994,4191506.419401646,2.29972,3.00238,-0.132402,-83.25,11.75,11.25,0.0,0.0,0.0,0.0,0.0,0.0,2.0,0.0,41.31895079625613,-91.24808777236096,12000.000404409651,-79.87335216000477,-0.0032195090355005,-0.0012710677881217,10000,12000,150.0,False,24.717064261899857,False,132.32688295576378,171.9369127763114,False,False
1,1970-07-23 09:33:44.573219698,2025-09-08,2025-09-11 20:14:17.321,HH,B,11938982,HAWK11,1,1,73,2,1,1,225,2,1,0,0,12,1,225,2,1,-147903.37927420562,-4788581.696260299,4202373.001432896,-2.22955,-0.899488,0.68684,60.25,-67.625,-76.125,0.0,-7.46875,6.95312,0.015625,0.0117188,0.0292969,4,0,41.44680968615484,-91.7691138453712,13020.770705949606,150.02881977888816,1.3045993506492937,23.292215638963228,10000,12000,150,1.0,2025-09-08,2025-09-11 20:14:16.933,HH,B,3240669212.0,JASSM,3.0,127.0,76.0,2.0,2.0,1.0,225.0,9.0,2.0,0.0,1.0,26.0,0.0,0.0,0.0,0.0,-104551.83269654664,-4798886.231519994,4191506.419401646,2.29972,3.00238,-0.132402,-83.25,11.75,11.25,0.0,0.0,0.0,0.0,0.0,0.0,2.0,0.0,41.31895079625613,-91.24808777236096,12000.000404409651,-79.87335216000477,-0.0032195090355005,-0.0012710677881217,10000,12000,150.0,False,24.700396647442574,False,131.62824033241122,171.9693288516704,False,False
1,1970-07-23 09:33:44.576170986,2025-09-08,2025-09-11 20:14:17.617,HH,B,12694548,HAWK11,1,1,73,2,1,1,225,2,1,0,0,12,1,225,2,1,-147866.07458670562,-4788624.411104049,4202324.126432896,-2.24882,-0.925757,0.696523,57.75,-68.125,-77.375,0.0,-7.54688,7.14062,-0.00390625,0.0078125,0.0371094,4,0,41.4462325914625,-91.76865215036196,13016.794823819328,151.31294872635263,1.3701652006985836,23.178134739572577,10000,12000,150,1.0,2025-09-08,2025-09-11 20:14:16.933,HH,B,3240669212.0,JASSM,3.0,127.0,76.0,2.0,2.0,1.0,225.0,9.0,2.0,0.0,1.0,26.0,0.0,0.0,0.0,0.0,-104551.83269654664,-4798886.231519994,4191506.419401646,2.29972,3.00238,-0.132402,-83.25,11.75,11.25,0.0,0.0,0.0,0.0,0.0,0.0,2.0,0.0,41.31895079625613,-91.24808777236096,12000.000404409651,-79.87335216000477,-0.0032195090355005,-0.0012710677881217,10000,12000,150.0,False,24.669880320384173,False,130.2675448188479,172.03085149730768,False,False
1,1970-07-23 09:33:44.580152380,2025-09-08,2025-09-11 20:14:18.015,HH,B,13092214,HAWK11,1,1,73,2,1,1,225,2,1,0,0,12,1,225,2,1,-147847.41833670562,-4788646.661104049,4202298.601042271,-2.25783,-0.941289,0.702563,56.625,-68.625,-77.75,-0.078125,-8.0,7.32812,0.0136719,0.0253906,0.0410156,4,0,41.44593139248288,-91.7684209297515,13014.63920198144,152.0770441934998,1.3803330704199626,23.253115562709024,10000,12000,150,1.0,2025-09-08,2025-09-11 20:14:16.933,HH,B,3240669212.0,JASSM,3.0,127.0,76.0,2.0,2.0,1.0,225.0,9.0,2.0,0.0,1.0,26.0,0.0,0.0,0.0,0.0,-104551.83269654664,-4798886.231519994,4191506.419401646,2.29972,3.00238,-0.132402,-83.25,11.75,11.25,0.0,0.0,0.0,0.0,0.0,0.0,2.0,0.0,41.31895079625613,-91.24808777236096,12000.000404409651,-79.87335216000477,-0.0032195090355005,-0.0012710677881217,10000,12000,150.0,False,24.654382230923737,False,129.6480080118746,172.06333404127605,False,False
1,1970-07-23 09:33:44.583052226,2025-09-08,2025-09-11 20:14:18.305,HH,B,13450114,HAWK11,1,1,73,2,1,1,225,2,1,0,0,12,1,225,2,1,-147830.30114920562,-4788667.735322799,4202274.540495396,-2.26569,-0.964203,0.705919,55.125,-68.875,-78.5,-0.140625,-8.34375,7.70312,0.0332031,0.0332031,0.0507812,4,0,41.44564679019427,-91.76820854225522,13012.89203793392,153.05655923397111,1.6626590093102736,23.67873793285143,10000,12000,150,1.0,2025-09-08,2025-09-11 20:14:18.035,HH,B,3241921912.0,JASSM,3.0,127.0,76.0,2.0,2.0,1.0,225.0,9.0,2.0,0.0,1.0,26.0,0.0,0.0,0.0,0.0,-104639.42644654664,-4798873.954176244,4191518.210417271,2.29972,3.00229,-0.132402,-83.25,11.75,11.25,0.0,0.0,0.0,0.0,0.0,0.0,2.0,0.0,41.31909207591394,-91.24913628655707,12000.00014716234,-79.87041863098918,-0.0064795279886445,-0.0019969322453993,10000,12000,150.0,False,24.592399840940914,False,128.8369104519719,172.07874651537958,False,False
1,1970-07-23 09:33:44.587109602,2025-09-08,2025-09-11 20:14:18.710,HH,B,13967080,HAWK11,1,1,73,2,1,1,225,2,1,0,0,12,1,225,2,1,-147806.96911795562,-4788697.442354049,4202240.876432896,-2.27202,-0.989993,0.70937,53.375,-69.875,-78.75,0.03125,-8.75,8.29688,0.0351562,0.0195312,0.0371094,4,0,41.4452471604929,-91.7679186828027,13011.039361687186,154.15315227893095,1.9777955089036665,24.3116140811318,10000,12000,150,1.0,2025-09-08,2025-09-11 20:14:18.035,HH,B,3241921912.0,JASSM,3.0,127.0,76.0,2.0,2.0,1.0,225.0,9.0,2.0,0.0,1.0,26.0,0.0,0.0,0.0,0.0,-104639.42644654664,-4798873.954176244,4191518.210417271,2.29972,3.00229,-0.132402,-83.25,11.75,11.25,0.0,0.0,0.0,0.0,0.0,0.0,2.0,0.0,41.31909207591394,-91.24913628655707,12000.00014716234,-79.87041863098918,-0.0064795279886445,-0.0019969322453993,10000,12000,150.0,False,24.572579891501146,False,127.899288087269,172.12255941213044,False,False
1,1970-07-23 09:33:44.591172592,2025-09-08,2025-09-11 20:14:19.117,HH,B,14444280,HAWK11,1,1,73,2,1,1,225,2,1,0,0,12,1,225,2,1,-147785.68005545562,-4788726.125947799,4202208.726042271,-2.27307,-1.01367,0.71378,51.5,-70.875,-79.0,-0.015625,-8.8125,8.45312,0.0429688,0.03125,0.0390625,4,0,41.44486345715448,-91.76765362468704,13010.114312179112,155.19189468454178,2.18439209435153,25.17497208063025,10000,12000,150,1.0,2025-09-08,2025-09-11 20:14:18.035,HH,B,3241921912.0,JASSM,3.0,127.0,76.0,2.0,2.0,1.0,225.0,9.0,2.0,0.0,1.0,26.0,0.0,0.0,0.0,0.0,-104639.42644654664,-4798873.954176244,4191518.210417271,2.29972,3.00229,-0.132402,-83.25,11.75,11.25,0.0,0.0,0.0,0.0,0.0,0.0,2.0,0.0,41.31909207591394,-91.24913628655707,12000.00014716234,-79.87041863098918,-0.0064795279886445,-0.0019969322453993,10000,12000,150.0,False,24.5541315063789,False,126.90532980296095,172.1651067440505,False,False
1,1970-07-23 09:33:44.595093341,2025-09-08,2025-09-11 20:14:19.509,HH,B,14921478,HAWK11,1,1,73,2,1,1,225,2,1,0,0,12,1,225,2,1,-147765.59021170562,-4788754.237275924,4202177.540495396,-2.27585,-1.03438,0.71589,49.625,-71.625,-79.5,0.0,-8.78125,8.29688,0.0273438,0.0390625,0.0332031,4,0,41.44448944760932,-91.7674031153304,13009.969928175484,156.05970303735543,2.4416213160801856,25.82848884935382,10000,12000,150,1.0,2025-09-08,2025-09-11 20:14:19.161,HH,B,3243234262.0,JASSM,3.0,127.0,76.0,2.0,2.0,1.0,225.0,9.0,2.0,0.0,1.0,26.0,0.0,0.0,0.0,0.0,-104731.19011842164,-4798861.091871557,4191530.561979771,2.29972,3.00229,-0.132402,-83.25,11.75,11.25,0.0,0.0,0.0,0.0,0.0,0.0,2.0,0.0,41.319240068731176,-91.25023472051338,12000.00138063924,-79.87114387517174,-0.0056413875143508,-0.0019975316764823,10000,12000,150.0,False,24.486612964860573,False,125.90278562045704,172.19079435520266,False,False
1,1970-07-23 09:33:44.599155822,2025-09-08,2025-09-11 20:14:19.915,HH,B,15398678,HAWK11,1,1,73,2,1,1,225,2,1,0,0,12,1,225,2,1,-147745.87341483062,-4788783.592744674,4202145.112761021,-2.28055,-1.05902,0.718958,47.625,-72.5,-79.625,-0.046875,-8.70312,8.1875,0.0273438,0.0351562,0.0390625,4,0,41.44409958376273,-91.76715660913104,13010.215765308974,157.10749404685228,2.70114788726663,26.534501558746296,10000,12000,150,1.0,2025-09-08,2025-09-11 20:14:19.161,HH,B,3243234262.0,JASSM,3.0,127.0,76.0,2.0,2.0,1.0,225.0,9.0,2.0,0.0,1.0,26.0,0.0,0.0,0.0,0.0,-104731.19011842164,-4798861.091871557,4191530.561979771,2.29972,3.00229,-0.132402,-83.25,11.75,11.25,0.0,0.0,0.0,0.0,0.0,0.0,2.0,0.0,41.319240068731176,-91.25023472051338,12000.00138063924,-79.87114387517174,-0.0056413875143508,-0.0019975316764823,10000,12000,150.0,False,24.46886912313457,False,124.88537399906733,172.2349440676441,False,False
1,1970-07-23 09:33:44.603053740,2025-09-08,2025-09-11 20:14:20.305,HH,B,15915644,HAWK11,1,1,73,2,1,1,225,2,1,0,0,12,1,225,2,1,-147725.88708670562,-4788815.313447799,4202110.138151646,-2.27892,-1.08136,0.72356,45.25,-73.25,-80.25,0.015625,-8.78125,8.28125,0.0527344,0.03125,0.046875,4,0,41.44367850938254,-91.76690601200976,13010.725869768918,158.09802559055134,2.823313037773551,27.520819496008023,10000,12000,150,1.0,2025-09-08,2025-09-11 20:14:20.225,HH,B,3244546614.0,JASSM,3.0,127.0,76.0,2.0,2.0,1.0,225.0,9.0,2.0,0.0,1.0,26.0,0.0,0.0,0.0,0.0,-104822.95379029664,-4798848.227613744,4191542.9125657086,2.29972,3.00229,-0.132402,-83.25,11.75,11.25,0.0,0.0,0.0,0.0,0.0,0.0,2.0,0.0,41.31938805606418,-91.25133315994783,12000.000173662867,-79.87186912511046,-0.004803245805959,-0.0019981359238407,10000,12000,150.0,False,24.40049745992767,False,123.63867168444627,172.267206501071,False,False
1,1970-07-23 09:33:44.607113360,2025-09-08,2025-09-11 20:14:20.711,HH,B,16353078,HAWK11,1,1,73,2,1,1,225,2,1,0,0,12,1,225,2,1,-147710.00818045562,-4788841.862275924,4202081.155729771,-2.27576,-1.10849,0.726436,43.125,-73.875,-80.625,0.03125,-8.92188,8.34375,0.0722656,0.0410156,0.0429688,4,0,41.44332788709213,-91.76670642115911,13011.847467518292,159.24334653587772,3.094078009400927,28.79213751508188,10000,12000,150,1.0,2025-09-08,2025-09-11 20:14:20.225,HH,B,3244546614.0,JASSM,3.0,127.0,76.0,2.0,2.0,1.0,225.0,9.0,2.0,0.0,1.0,26.0,0.0,0.0,0.0,0.0,-104822.95379029664,-4798848.227613744,4191542.9125657086,2.29972,3.00229,-0.132402,-83.25,11.75,11.25,0.0,0.0,0.0,0.0,0.0,0.0,2.0,0.0,41.31938805606418,-91.25133315994783,12000.000173662867,-79.87186912511046,-0.004803245805959,-0.0019981359238407,10000,12000,150.0,False,24.385510324708697,False,122.55320739456263,172.3077938493209,False,False
1,1970-07-23 09:33:44.610132980,2025-09-08,2025-09-11 20:14:21.013,HH,B,16750744,HAWK11,1,1,73,2,1,1,225,2,1,0,0,12,1,225,2,1,-147695.70935233062,-4788867.131807174,4202053.677214146,-2.27202,-1.1363,0.728641,41.125,-74.5,-80.75,-0.203125,-9.28125,8.70312,0.0644531,0.046875,0.0507812,4,0,41.442994734218985,-91.76652619075884,13013.2107574228,160.40516870094646,3.387768849881188,30.131513121067314,10000,12000,150,1.0,2025-09-08,2025-09-11 20:14:20.225,HH,B,3244546614.0,JASSM,3.0,127.0,76.0,2.0,2.0,1.0,225.0,9.0,2.0,0.0,1.0,26.0,0.0,0.0,0.0,0.0,-104822.95379029664,-4798848.227613744,4191542.9125657086,2.29972,3.00229,-0.132402,-83.25,11.75,11.25,0.0,0.0,0.0,0.0,0.0,0.0,2.0,0.0,41.31938805606418,-91.25133315994783,12000.000173662867,-79.87186912511046,-0.004803245805959,-0.0019981359238407,10000,12000,150.0,False,24.371685456206016,False,121.55491317000556,172.34670119735554,False,False
1,1970-07-23 09:33:44.614149971,2025-09-08,2025-09-11 20:14:21.414,HH,B,17148410,HAWK11,1,1,73,2,1,1,225,2,1,0,0,12,1,225,2,1,-147682.86755545562,-4788891.700166549,4202027.194792271,-2.26789,-1.16535,0.728641,39.0,-75.25,-80.875,-0.28125,-9.5625,8.82812,0.0605469,0.0527344,0.0429688,4,0,41.4426722065794,-91.76636363649293,13015.12470479702,161.5809957577271,3.794469887104995,31.549683469817552,10000,12000,150,1.0,2025-09-08,2025-09-11 20:14:21.231,HH,B,3245799314.0,JASSM,3.0,127.0,76.0,2.0,2.0,1.0,225.0,9.0,2.0,0.0,1.0,26.0,0.0,0.0,0.0,0.0,-104910.54754029664,-4798835.947340307,4191554.7016282086,2.29972,3.00229,-0.132402,-83.25,11.75,11.25,0.0,0.0,0.0,0.0,0.0,0.0,2.0,0.0,41.31952931035097,-91.25238168892255,12000.00112145167,-79.87256142342306,-0.0040031905361033,-0.0019987142021068,10000,12000,150.0,False,24.31118562530741,False,120.48154034018734,172.36966331282315,False,False
1,1970-07-23 09:33:44.617110944,2025-09-08,2025-09-11 20:14:21.711,HH,B,17585842,HAWK11,1,1,73,2,1,1,225,2,1,0,0,12,1,225,2,1,-147668.87341483062,-4788920.069307174,4201996.977995396,-2.26617,-1.1989,0.729024,36.25,-75.875,-81.25,-0.3125,-9.82812,9.10938,0.0625,0.0390625,0.0410156,4,0,41.44230207509686,-91.76618590917036,13018.186121365909,162.95652128104973,4.21288461812798,33.02513177735403,10000,12000,150,1.0,2025-09-08,2025-09-11 20:14:21.231,HH,B,3245799314.0,JASSM,3.0,127.0,76.0,2.0,2.0,1.0,225.0,9.0,2.0,0.0,1.0,26.0,0.0,0.0,0.0,0.0,-104910.54754029664,-4798835.947340307,4191554.7016282086,2.29972,3.00229,-0.132402,-83.25,11.75,11.25,0.0,0.0,0.0,0.0,0.0,0.0,2.0,0.0,41.31952931035097,-91.25238168892255,12000.00112145167,-79.87256142342306,-0.0040031905361033,-0.0019987142021068,10000,12000,150.0,False,24.296813509941344,False,119.09784999971858,172.4137612354633,False,False
1,1970-07-23 09:33:44.620136249,2025-09-08,2025-09-11 20:14:22.013,HH,B,17943742,HAWK11,1,1,73,2,1,1,225,2,1,0,0,12,1,225,2,1,-147658.58239920562,-4788942.495088424,4201973.153776646,-2.2678,-1.22623,0.730654,34.0,-76.25,-81.5,-0.09375,-9.71875,9.14062,0.0566406,0.0527344,0.0449219,4,0,41.442009763880925,-91.76605463703402,13020.800249427595,164.1048417450443,4.4564007679702025,34.06241906908234,10000,12000,150,1.0,2025-09-08,2025-09-11 20:14:21.231,HH,B,3245799314.0,JASSM,3.0,127.0,76.0,2.0,2.0,1.0,225.0,9.0,2.0,0.0,1.0,26.0,0.0,0.0,0.0,0.0,-104910.54754029664,-4798835.947340307,4191554.7016282086,2.29972,3.00229,-0.132402,-83.25,11.75,11.25,0.0,0.0,0.0,0.0,0.0,0.0,2.0,0.0,41.31952931035097,-91.25238168892255,12000.00112145167,-79.87256142342306,-0.0040031905361033,-0.0019987142021068,10000,12000,150.0,False,24.285863669705616,False,117.98118047785877,172.44891012111032,False,False
1,1970-07-23 09:33:44.624151661,2025-09-08,2025-09-11 20:14:22.415,HH,B,18420942,HAWK11,1,1,73,2,1,1,225,2,1,0,0,12,1,225,2,1,-147645.56872733062,-4788973.751924361,4201940.185026646,-2.27403,-1.26688,0.732476,31.0,-77.0,-81.375,-0.1875,-9.65625,9.0625,0.0488281,0.0488281,0.046875,4,0,41.4416036992492,-91.76588756852966,13025.060690961667,165.8106297289375,4.809226755384754,35.39919814336494,10000,12000,150,1.0,2025-09-08,2025-09-11 20:14:22.333,HH,B,3247111664.0,JASSM,3.0,127.0,76.0,2.0,2.0,1.0,225.0,9.0,2.0,0.0,1.0,26.0,0.0,0.0,0.0,0.0,-105002.31121217164,-4798823.081129369,4191567.050261021,2.29972,3.00229,-0.132402,-83.25,11.75,11.25,0.0,0.0,0.0,0.0,0.0,0.0,2.0,0.0,41.3196772755899,-91.25348013857904,11999.999641183444,-79.87328668429281,-0.0031650487743142,-0.0019993167299045,10000,12000,150.0,False,24.22140542368446,False,116.5093244165849,172.48260262645942,False,False
1,1970-07-23 09:33:44.628050015,2025-09-08,2025-09-11 20:14:22.805,HH,B,18858374,HAWK11,1,1,73,2,1,1,225,2,1,0,0,12,1,225,2,1,-147634.98474295562,-4789001.748994674,4201910.933073521,-2.27892,-1.3011,0.73679,28.125,-77.5,-81.5,-0.125,-9.64062,9.03125,0.0605469,0.0410156,0.0605469,4,0,41.44124166465315,-91.76575074456598,13029.563800079915,167.28859582365945,4.911262882211153,36.55888649771512,10000,12000,150,1.0,2025-09-08,2025-09-11 20:14:22.333,HH,B,3247111664.0,JASSM,3.0,127.0,76.0,2.0,2.0,1.0,225.0,9.0,2.0,0.0,1.0,26.0,0.0,0.0,0.0,0.0,-105002.31121217164,-4798823.081129369,4191567.050261021,2.29972,3.00229,-0.132402,-83.25,11.75,11.25,0.0,0.0,0.0,0.0,0.0,0.0,2.0,0.0,41.3196772755899,-91.25348013857904,11999.999641183444,-79.87328668429281,-0.0031650487743142,-0.0019993167299045,10000,12000,150.0,False,24.208974392857836,False,115.08388786951456,172.5271147782809,False,False
1,1970-07-23 09:33:44.632111366,2025-09-08,2025-09-11 20:14:23.211,HH,B,19335574,HAWK11,1,1,73,2,1,1,225,2,1,0,0,12,1,225,2,1,-147624.24646170562,-4789033.503877486,4201877.790495396,-2.28343,-1.33734,0.744652,25.0,-77.875,-81.625,-0.328125,-9.21875,8.60938,0.0507812,0.0273438,0.0546875,4,0,41.44083104506267,-91.76561069338558,13034.845717257893,168.8871081950011,4.792521184260085,37.837230293099694,10000,12000,150,1.0,2025-09-08,2025-09-11 20:14:22.333,HH,B,3247111664.0,JASSM,3.0,127.0,76.0,2.0,2.0,1.0,225.0,9.0,2.0,0.0,1.0,26.0,0.0,0.0,0.0,0.0,-105002.31121217164,-4798823.081129369,4191567.050261021,2.29972,3.00229,-0.132402,-83.25,11.75,11.25,0.0,0.0,0.0,0.0,0.0,0.0,2.0,0.0,41.3196772755899,-91.25348013857904,11999.999641183444,-79.87328668429281,-0.0031650487743142,-0.0019993167299045,10000,12000,150.0,False,24.195543382736194,False,113.53943408359788,172.57813083475196,False,False
1,1970-07-23 09:33:44.635090679,2025-09-08,2025-09-11 20:14:23.509,HH,B,19693474,HAWK11,1,1,73,2,1,1,225,2,1,0,0,12,1,225,2,1,-147617.48669608062,-4789056.514619674,4201853.380339146,-2.27969,-1.35307,0.752513,22.625,-77.875,-82.25,-0.25,-8.70312,7.9375,0.03125,0.03125,0.0605469,4,0,41.44053065108768,-91.76552141887312,13037.89612735663,169.6233985502173,4.476555766253878,38.724111779347226,10000,12000,150,1.0,2025-09-08,2025-09-11 20:14:23.435,HH,B,3248424342.0,JASSM,3.0,127.0,76.0,2.0,2.0,1.0,225.0,9.0,2.0,0.0,1.0,26.0,0.0,0.0,0.0,0.0,-105094.09636842164,-4798810.211012182,4191579.401823521,2.29972,3.00229,-0.132402,-83.25,11.75,11.25,0.0,0.0,0.0,0.0,0.0,0.0,2.0,0.0,41.31982527055211,-91.25457885061648,12000.00052993654,-79.87401212054162,-0.0023267096502703,-0.0019999248113645,10000,12000,150.0,False,24.136352465334376,False,112.33848620569634,172.60043453709184,False,False
1,1970-07-23 09:33:44.642111723,2025-09-08,2025-09-11 20:14:24.211,HH,B,20488806,HAWK11,1,1,73,2,1,1,225,2,1,0,0,12,1,225,2,1,-147604.06482108062,-4789108.309541549,4201798.077604771,-2.29244,-1.40033,0.77303,18.0,-77.625,-83.0,0.09375,-7.9375,7.29688,0.03125,0.0214844,0.0644531,4,0,41.43985175063308,-91.76534191278816,13044.123343617735,171.7558600015017,3.64661969261384,40.01599654350435,10000,12000,150,1.0,2025-09-08,2025-09-11 20:14:23.435,HH,B,3248424342.0,JASSM,3.0,127.0,76.0,2.0,2.0,1.0,225.0,9.0,2.0,0.0,1.0,26.0,0.0,0.0,0.0,0.0,-105094.09636842164,-4798810.211012182,4191579.401823521,2.29972,3.00229,-0.132402,-83.25,11.75,11.25,0.0,0.0,0.0,0.0,0.0,0.0,2.0,0.0,41.31982527055211,-91.25457885061648,12000.00052993654,-79.87401212054162,-0.0023267096502703,-0.0019999248113645,10000,12000,150.0,False,24.116441183784637,False,110.03924709731174,172.6867996526998,False,False
1,1970-07-23 09:33:44.642372468,2025-09-08,2025-09-11 20:14:24.237,HH,B,20091140,HAWK11,1,1,73,2,1,1,225,2,1,0,0,12,1,225,2,1,-147610.25232108062,-4789083.029268111,4201825.300261021,-2.28659,-1.37704,0.763731,20.125,-77.75,-82.625,-0.171875,-8.07812,7.26562,0.0273438,0.0195312,0.0546875,4,0,41.44018473111985,-91.76542518160156,13041.55603197005,170.72127738198213,4.019955038744628,39.35419974599508,10000,12000,150,1.0,2025-09-08,2025-09-11 20:14:23.435,HH,B,3248424342.0,JASSM,3.0,127.0,76.0,2.0,2.0,1.0,225.0,9.0,2.0,0.0,1.0,26.0,0.0,0.0,0.0,0.0,-105094.09636842164,-4798810.211012182,4191579.401823521,2.29972,3.00229,-0.132402,-83.25,11.75,11.25,0.0,0.0,0.0,0.0,0.0,0.0,2.0,0.0,41.31982527055211,-91.25457885061648,12000.00052993654,-79.87401212054162,-0.0023267096502703,-0.0019999248113645,10000,12000,150.0,False,24.12599495073965,False,111.09940851200875,172.64426623828615,False,False
1,1970-07-23 09:33:44.645073269,2025-09-08,2025-09-11 20:14:24.507,HH,B,20806940,HAWK11,1,1,73,2,1,1,225,2,1,0,0,12,1,225,2,1,-147599.71911795562,-4789129.140596236,4201775.019011021,-2.29963,-1.42305,0.778016,15.875,-77.125,-83.625,-0.046875,-7.96875,7.23438,0.03125,0.0273438,0.0683594,4,0,41.43957300560494,-91.76528229760196,13044.93494902186,172.71847722840704,3.495958998784355,40.5754328276246,10000,12000,150,1.0,2025-09-08,2025-09-11 20:14:23.435,HH,B,3248424342.0,JASSM,3.0,127.0,76.0,2.0,2.0,1.0,225.0,9.0,2.0,0.0,1.0,26.0,0.0,0.0,0.0,0.0,-105094.09636842164,-4798810.211012182,4191579.401823521,2.29972,3.00229,-0.132402,-83.25,11.75,11.25,0.0,0.0,0.0,0.0,0.0,0.0,2.0,0.0,41.31982527055211,-91.25457885061648,12000.00052993654,-79.87401212054162,-0.0023267096502703,-0.0019999248113645,10000,12000,150.0,False,24.108887847012245,False,108.97842924690727,172.722764422377,False,False
1,1970-07-23 09:33:44.654150546,2025-09-08,2025-09-11 20:14:25.415,HH,B,21960172,HAWK11,1,1,73,2,1,1,225,2,1,0,0,12,1,225,2,1,-147588.08630545562,-4789202.460908736,4201693.583464146,-2.35878,-1.50666,0.791918,8.75,-76.0,-84.875,-0.03125,-8.35938,7.6875,-0.0566406,0.0292969,0.0625,4,0,41.438589363974245,-91.76511625162564,13047.476397083054,176.1759507151931,3.0517686559662702,40.770354162160125,10000,12000,150,1.0,2025-09-08,2025-09-11 20:14:24.537,HH,B,3249736364.0,JASSM,3.0,127.0,76.0,2.0,2.0,1.0,225.0,9.0,2.0,0.0,1.0,26.0,0.0,0.0,0.0,0.0,-105185.83855592164,-4798797.345777807,4191591.746550084,2.29972,3.00229,-0.132402,-83.25,11.75,11.25,0.0,0.0,0.0,0.0,0.0,0.0,2.0,0.0,41.31997318541174,-91.25567705356332,12000.000807399178,-79.87473722279675,-0.0014887628503146,-0.0020005321980912,10000,12000,150.0,False,24.034271187881142,False,105.41473842785564,172.83619820066303,False,False
1,1970-07-23 09:33:44.657109073,2025-09-08,2025-09-11 20:14:25.710,HH,B,22318072,HAWK11,1,1,73,2,1,1,225,2,1,0,0,12,1,225,2,1,-147585.76013358062,-4789225.625947799,4201667.333464146,-2.40106,-1.53369,0.798725,6.75,-75.875,-85.125,-0.21875,-8.20312,7.35938,-0.0859375,0.0234375,0.0625,4,0,41.43827482717892,-91.76507991662793,13047.2515883737,177.2835922514807,2.729025195389987,39.50995547518877,10000,12000,150,1.0,2025-09-08,2025-09-11 20:14:25.624,HH,B,3250989066.0,JASSM,3.0,127.0,76.0,2.0,2.0,1.0,225.0,9.0,2.0,0.0,1.0,26.0,0.0,0.0,0.0,0.0,-105273.43035279664,-4798785.061598119,4191603.5317063336,2.29972,3.00229,-0.132402,-83.25,11.75,11.25,0.0,0.0,0.0,0.0,0.0,0.0,2.0,0.0,41.32011439717217,-91.25672557900572,12000.0005007166,-79.87542952685236,-0.0006887246576383,-0.0020011103704761,10000,12000,150.0,False,23.979435728552424,False,104.40862442143549,172.8636086142849,False,False
