Subject_ac,Timestamp,SampleDate_ac,SampleTime_ac,Configuration_ac,Scenario_ac,DisTime_ac,MarkingTxt_ac,Aplication_ac,EntId_ac,Site_ac,ExersiseId_ac,ForceId_ac,Category_ac,Country_ac,Domain_ac,Kind_ac,Extra_ac,Specific_ac,Subcategory_ac,AltCategory_ac,AltCountry_ac,AltDomain_ac,AltKind_ac,EcefX_ac,EcefY_ac,EcefZ_ac,OriPhi_ac,OriPsi_ac,OriTheta_ac,LinVelX_ac,LinVelY_ac,LinVelZ_ac,LinAccX_ac,LinAccY_ac,LinAccZ_ac,AngVelX_ac,AngVelY_ac,AngVelZ_ac,DrAlg_ac,Apperance_ac,Latitude_ac,Longitude_ac,Altitude_ac,Heading_ac,Pitch_ac,Roll_ac,CM_Altitude_Lead_ac,CM_Altitude_Wing_ac,CM_Airspeed_ac,Subject_cm,SampleDate_cm,SampleTime_cm,Configuration_cm,Scenario_cm,DisTime_cm,MarkingTxt_cm,Aplication_cm,EntId_cm,Site_cm,ExersiseId_cm,ForceId_cm,Category_cm,Country_cm,Domain_cm,Kind_cm,Extra_cm,Specific_cm,Subcategory_cm,AltCategory_cm,AltCountry_cm,AltDomain_cm,AltKind_cm,EcefX_cm,EcefY_cm,EcefZ_cm,OriPhi_cm,OriPsi_cm,OriTheta_cm,LinVelX_cm,LinVelY_cm,LinVelZ_cm,LinAccX_cm,LinAccY_cm,LinAccZ_cm,AngVelX_cm,AngVelY_cm,AngVelZ_cm,DrAlg_cm,Apperance_cm,Latitude_cm,Longitude_cm,Altitude_cm,Heading_cm,Pitch_cm,Roll_cm,CM_Altitude_Lead_cm,CM_Altitude_Wing_cm,CM_Airspeed_cm,Bank_Angle_Condition,distance_nm,Distance_Condition,angle_between_vel,angle_between_pos,Cone_Condition,Intercept_Criteria,Intercept_Complete
1,1970-07-23 09:33:51.226138694,2025-09-08,2025-09-11 20:25:22.613,HA,A,805959182,HAWK11,1,1,73,2,1,1,225,2,1,0,0,12,1,225,2,1,-143401.31091483062,-4791723.541963424,4199102.696745396,2.43702,2.73135,-0.406313,-99.5,32.625,32.375,-0.109375,-7.39062,6.17188,0.0117188,0.0,0.0136719,4,0,41.40686243130525,-91.71417199930823,13310.26015058994,-58.53499326566652,0.3232690578114839,3.7734965506365055,12000,10000,150,1.0,2025-09-08,2025-09-11 20:25:22.328,HA,A,4034462682.0,JASSM,3.0,135.0,76.0,2.0,2.0,1.0,225.0,9.0,2.0,0.0,1.0,26.0,0.0,0.0,0.0,0.0,-103933.20769654664,-4798972.914137182,4191423.120573521,2.29972,3.00238,-0.132498,-83.25,11.625,11.25,0.0,0.0,0.0,0.0,0.0,0.0,2.0,0.0,41.31795272359633,-91.24068284650514,12000.000888336855,-79.86436588693515,-0.0052108993802919,-0.0012671332504491,12000,10000,150.0,True,21.99380431328253,False,13.798523493428974,175.9753311594272,False,False,False
1,1970-07-23 09:33:51.247081967,2025-09-08,2025-09-11 20:25:24.708,HA,A,808504246,HAWK11,1,1,73,2,1,1,225,2,1,0,0,12,1,225,2,1,-143612.33044608062,-4791653.608369674,4199172.427214146,2.37173,2.71802,-0.41964,-98.125,33.0,32.625,0.140625,-7.42188,6.34375,-0.0625,-0.00390625,-0.00390625,4,0,41.40771146644968,-91.71671798889444,13305.107910135855,-57.50318892887006,0.3888944154991243,-0.2670932334225701,12000,10000,150,1.0,2025-09-08,2025-09-11 20:25:24.470,HA,A,4036968452.0,JASSM,3.0,135.0,76.0,2.0,2.0,1.0,225.0,9.0,2.0,0.0,1.0,26.0,0.0,0.0,0.0,0.0,-104108.42058717164,-4798948.367262182,4191446.7172532086,2.29972,3.00238,-0.132498,-83.25,11.625,11.25,0.0,0.0,0.0,0.0,0.0,0.0,2.0,0.0,41.31823545763381,-91.24278011642213,11999.999053933823,-79.86575058599938,-0.0036105598577029,-0.0012682780601668,12000,10000,150.0,True,22.02159073230943,False,14.314440623371667,175.90153020627147,False,False,False
1,1970-07-23 09:33:51.252081334,2025-09-08,2025-09-11 20:25:25.208,HA,A,809060980,HAWK11,1,1,73,2,1,1,225,2,1,0,0,12,1,225,2,1,-143657.51403983062,-4791638.480439986,4199187.491667271,2.3653,2.71802,-0.418873,-98.0,33.0,32.625,-0.109375,-7.59375,6.28125,0.015625,0.0,0.0,4,0,41.407895071955366,-91.7172632011278,13303.920454577668,-57.53398888214763,0.3576439385718356,-0.6352647344623248,12000,10000,150,1.0,2025-09-08,2025-09-11 20:25:24.470,HA,A,4036968452.0,JASSM,3.0,135.0,76.0,2.0,2.0,1.0,225.0,9.0,2.0,0.0,1.0,26.0,0.0,0.0,0.0,0.0,-104108.42058717164,-4798948.367262182,4191446.7172532086,2.29972,3.00238,-0.132498,-83.25,11.625,11.25,0.0,0.0,0.0,0.0,0.0,0.0,2.0,0.0,41.31823545763381,-91.24278011642213,11999.999053933823,-79.86575058599938,-0.0036105598577029,-0.0012682780601668,12000,10000,150.0,True,22.048104620215106,False,14.342677464379525,175.8893206194672,False,False,False
1,1970-07-23 09:33:51.261148458,2025-09-08,2025-09-11 20:25:26.114,HA,A,810174446,HAWK11,1,1,73,2,1,1,225,2,1,0,0,12,1,225,2,1,-143748.53747733062,-4791607.856416549,4199218.147917271,2.39464,2.71582,-0.425104,-97.5,33.125,32.625,-0.078125,-7.64062,6.48438,0.0390625,-0.00585938,0.00390625,4,0,41.408267907289975,-91.71836160701086,13301.836630226557,-57.20432316850067,0.536363849839833,0.9966046542601158,12000,10000,150,1.0,2025-09-08,2025-09-11 20:25:25.519,HA,A,4038280430.0,JASSM,3.0,135.0,76.0,2.0,2.0,1.0,225.0,9.0,2.0,0.0,1.0,26.0,0.0,0.0,0.0,0.0,-104200.15886842164,-4798935.514723119,4191459.0707688336,2.29972,3.00238,-0.132498,-83.25,11.625,11.25,0.0,0.0,0.0,0.0,0.0,0.0,2.0,0.0,41.31838346959395,-91.2438782160796,12000.001256249006,-79.86647559716042,-0.0027726524547511,-0.0012688703170186,12000,10000,150.0,True,22.051366114693387,False,14.498482902734683,175.85491442400115,False,False,False
1,1970-07-23 09:33:51.261501291,2025-09-08,2025-09-11 20:25:26.150,HA,A,806476150,HAWK11,1,1,73,2,1,1,225,2,1,0,0,12,1,225,2,1,-143445.07068045562,-4791709.195283736,4199117.024870396,2.43011,2.72627,-0.40986,-99.25,32.875,32.5,-0.03125,-7.39062,6.1875,-0.0273438,0.0,0.0195312,4,0,41.40703668540287,-91.71469990773464,13309.2856553376,-58.20197761368826,0.2837628283405634,3.264270943563631,12000,10000,150,1.0,2025-09-08,2025-09-11 20:25:25.519,HA,A,4038280430.0,JASSM,3.0,135.0,76.0,2.0,2.0,1.0,225.0,9.0,2.0,0.0,1.0,26.0,0.0,0.0,0.0,0.0,-104200.15886842164,-4798935.514723119,4191459.0707688336,2.29972,3.00238,-0.132498,-83.25,11.625,11.25,0.0,0.0,0.0,0.0,0.0,0.0,2.0,0.0,41.31838346959395,-91.2438782160796,12000.001256249006,-79.86647559716042,-0.0027726524547511,-0.0012688703170186,12000,10000,150.0,True,21.873324675094253,False,13.979130551861072,175.93691190915902,False,False,False
1,1970-07-23 09:33:51.261511693,2025-09-08,2025-09-11 20:25:26.151,HA,A,806834048,HAWK11,1,1,73,2,1,1,225,2,1,0,0,12,1,225,2,1,-143473.85193045562,-4791699.723604049,4199126.515104771,2.4142,2.72291,-0.412641,-99.0,32.875,32.625,0.28125,-7.26562,6.20312,-0.0585938,0.00195312,0.0175781,4,0,41.40715195396293,-91.7150471329032,13308.701768891518,-57.96477602654461,0.2762565584836925,2.2767442001918847,12000,10000,150,1.0,2025-09-08,2025-09-11 20:25:25.519,HA,A,4038280430.0,JASSM,3.0,135.0,76.0,2.0,2.0,1.0,225.0,9.0,2.0,0.0,1.0,26.0,0.0,0.0,0.0,0.0,-104200.15886842164,-4798935.514723119,4191459.0707688336,2.29972,3.00238,-0.132498,-83.25,11.625,11.25,0.0,0.0,0.0,0.0,0.0,0.0,2.0,0.0,41.31838346959395,-91.2438782160796,12000.001256249006,-79.86647559716042,-0.0027726524547511,-0.0012688703170186,12000,10000,150.0,True,21.89018408349794,False,14.076685771095095,175.92930304404865,False,False,False
1,1970-07-23 09:33:51.261512245,2025-09-08,2025-09-11 20:25:26.151,HA,A,807390782,HAWK11,1,1,73,2,1,1,225,2,1,0,0,12,1,225,2,1,-143520.61364920562,-4791684.210908736,4199141.911589146,2.38793,2.71984,-0.41916,-98.625,32.875,32.75,0.25,-7.35938,6.28125,-0.046875,0.00390625,0.0195312,4,0,41.40733981592225,-91.71561132650228,13307.40077094246,-57.59021622087431,0.434245215479614,0.702989098823856,12000,10000,150,1.0,2025-09-08,2025-09-11 20:25:25.519,HA,A,4038280430.0,JASSM,3.0,135.0,76.0,2.0,2.0,1.0,225.0,9.0,2.0,0.0,1.0,26.0,0.0,0.0,0.0,0.0,-104200.15886842164,-4798935.514723119,4191459.0707688336,2.29972,3.00238,-0.132498,-83.25,11.625,11.25,0.0,0.0,0.0,0.0,0.0,0.0,2.0,0.0,41.31838346959395,-91.2438782160796,12000.001256249006,-79.86647559716042,-0.0027726524547511,-0.0012688703170186,12000,10000,150.0,True,21.917587418698893,False,14.202667643874015,175.91689003731648,False,False,False
1,1970-07-23 09:33:51.261520730,2025-09-08,2025-09-11 20:25:26.152,HA,A,807947514,HAWK11,1,1,73,2,1,1,225,2,1,0,0,12,1,225,2,1,-143565.99060233062,-4791669.117158736,4199156.976042271,2.38592,2.71706,-0.420598,-98.375,32.875,32.75,-0.046875,-7.46875,6.17188,0.0078125,-0.00195312,0.00585938,4,0,41.40752318884779,-91.71615883015322,13306.309030974118,-57.42858781305854,0.393324795543389,0.5239349172905589,12000,10000,150,1.0,2025-09-08,2025-09-11 20:25:25.519,HA,A,4038280430.0,JASSM,3.0,135.0,76.0,2.0,2.0,1.0,225.0,9.0,2.0,0.0,1.0,26.0,0.0,0.0,0.0,0.0,-104200.15886842164,-4798935.514723119,4191459.0707688336,2.29972,3.00238,-0.132498,-83.25,11.625,11.25,0.0,0.0,0.0,0.0,0.0,0.0,2.0,0.0,41.31838346959395,-91.2438782160796,12000.001256249006,-79.86647559716042,-0.0027726524547511,-0.0012688703170186,12000,10000,150.0,True,21.944196712416847,False,14.258729568481266,175.90470447368003,False,False,False
1,1970-07-23 09:33:51.261529624,2025-09-08,2025-09-11 20:25:26.152,HA,A,809339346,HAWK11,1,1,73,2,1,1,225,2,1,0,0,12,1,225,2,1,-143680.41638358062,-4791630.987275924,4199195.270964146,2.36856,2.71869,-0.418489,-98.0,31.25,34.125,-0.109375,-7.59375,6.28125,0.015625,0.0,0.0,4,0,41.40798806460491,-91.71753949307468,13304.06039493193,-57.57473028470179,0.3663622342386215,-0.4330899196878043,12000,10000,150,1.0,2025-09-08,2025-09-11 20:25:25.519,HA,A,4038280430.0,JASSM,3.0,135.0,76.0,2.0,2.0,1.0,225.0,9.0,2.0,0.0,1.0,26.0,0.0,0.0,0.0,0.0,-104200.15886842164,-4798935.514723119,4191459.0707688336,2.29972,3.00238,-0.132498,-83.25,11.625,11.25,0.0,0.0,0.0,0.0,0.0,0.0,2.0,0.0,41.31838346959395,-91.2438782160796,12000.001256249006,-79.86647559716042,-0.0027726524547511,-0.0012688703170186,12000,10000,150.0,True,22.011338866023042,False,14.312514495969998,175.8737108009663,False,False,False
1,1970-07-23 09:33:51.261530199,2025-09-08,2025-09-11 20:25:26.153,HA,A,809657480,HAWK11,1,1,73,2,1,1,225,2,1,0,0,12,1,225,2,1,-143706.82458670562,-4791621.850557174,4199204.134245396,2.37863,2.71706,-0.423475,-97.75,32.875,32.75,-0.09375,-7.54688,6.4375,0.0234375,0.00585938,0.00390625,4,0,41.40809752414863,-91.71785825828644,13302.769069269223,-57.31559984093243,0.5136077183266752,0.1075531010471262,12000,10000,150,1.0,2025-09-08,2025-09-11 20:25:25.519,HA,A,4038280430.0,JASSM,3.0,135.0,76.0,2.0,2.0,1.0,225.0,9.0,2.0,0.0,1.0,26.0,0.0,0.0,0.0,0.0,-104200.15886842164,-4798935.514723119,4191459.0707688336,2.29972,3.00238,-0.132498,-83.25,11.625,11.25,0.0,0.0,0.0,0.0,0.0,0.0,2.0,0.0,41.31838346959395,-91.2438782160796,12000.001256249006,-79.86647559716042,-0.0027726524547511,-0.0012688703170186,12000,10000,150.0,True,22.02687267391146,False,14.399909305013843,175.86628642614582,False,False,False
1,1970-07-23 09:33:51.275041327,2025-09-08,2025-09-11 20:25:27.504,HA,A,811844644,HAWK11,1,1,73,2,1,1,225,2,1,0,0,12,1,225,2,1,-143884.84411795562,-4791561.944307174,4199263.915495396,2.43174,2.70556,-0.432199,-96.625,33.25,32.75,-0.109375,-7.23438,6.14062,0.0117188,-0.00195312,0.0117188,4,0,41.40882557609816,-91.72000650116236,13298.292192664056,-56.538023951434845,0.4625362396771575,2.884180022424905,12000,10000,150,1.0,2025-09-08,2025-09-11 20:25:26.525,HA,A,4039533424.0,JASSM,3.0,135.0,76.0,2.0,2.0,1.0,225.0,9.0,2.0,0.0,1.0,26.0,0.0,0.0,0.0,0.0,-104287.77214967164,-4798923.238355932,4191470.8676438336,2.29972,3.00238,-0.132498,-83.25,11.625,11.25,0.0,0.0,0.0,0.0,0.0,0.0,2.0,0.0,41.31852481888985,-91.24492694491684,12000.000730317566,-79.86716801364513,-0.0019724207045461,-0.0012694382653584,12000,10000,150.0,True,22.08348651613092,False,14.78477535159953,175.8086989624723,False,False,False
1,1970-07-23 09:33:51.275477092,2025-09-08,2025-09-11 20:25:27.547,HA,A,810770944,HAWK11,1,1,73,2,1,1,225,2,1,0,0,12,1,225,2,1,-143797.68786795562,-4791591.421846236,4199234.550261021,2.40988,2.71486,-0.427693,-97.25,33.0,32.75,-0.09375,-7.375,6.21875,0.03125,-0.00976562,0.0,4,0,41.40846759921583,-91.71895468771922,13300.635322439335,-57.065977867225904,0.6093208045575476,1.8487645414081015,12000,10000,150,1.0,2025-09-08,2025-09-11 20:25:26.525,HA,A,4039533424.0,JASSM,3.0,135.0,76.0,2.0,2.0,1.0,225.0,9.0,2.0,0.0,1.0,26.0,0.0,0.0,0.0,0.0,-104287.77214967164,-4798923.238355932,4191470.8676438336,2.29972,3.00238,-0.132498,-83.25,11.625,11.25,0.0,0.0,0.0,0.0,0.0,0.0,2.0,0.0,41.31852481888985,-91.24492694491684,12000.000730317566,-79.86716801364513,-0.0019724207045461,-0.0012694382653584,12000,10000,150.0,True,22.032269539991635,False,14.555957131747713,175.83263599423285,False,False,False
1,1970-07-23 09:33:51.275486663,2025-09-08,2025-09-11 20:25:27.548,HA,A,811287910,HAWK11,1,1,73,2,1,1,225,2,1,0,0,12,1,225,2,1,-143839.17614920562,-4791577.386689986,4199248.560026646,2.42177,2.70959,-0.428172,-97.0,33.0,32.875,0.0625,-7.23438,6.10938,0.0117188,-0.00585938,0.00976562,4,0,41.40863823533454,-91.71945537360232,13299.579326870882,-56.84862520613738,0.4396323777885466,2.406586316634173,12000,10000,150,1.0,2025-09-08,2025-09-11 20:25:26.525,HA,A,4039533424.0,JASSM,3.0,135.0,76.0,2.0,2.0,1.0,225.0,9.0,2.0,0.0,1.0,26.0,0.0,0.0,0.0,0.0,-104287.77214967164,-4798923.238355932,4191470.8676438336,2.29972,3.00238,-0.132498,-83.25,11.625,11.25,0.0,0.0,0.0,0.0,0.0,0.0,2.0,0.0,41.31852481888985,-91.24492694491684,12000.000730317566,-79.86716801364513,-0.0019724207045461,-0.0012694382653584,12000,10000,150.0,True,22.05665284967609,False,14.656190172046053,175.82119166456647,False,False,False
1,1970-07-23 09:33:51.279100098,2025-09-08,2025-09-11 20:25:27.910,HA,A,812361610,HAWK11,1,1,73,2,1,1,225,2,1,0,0,12,1,225,2,1,-143926.06286795562,-4791547.733369674,4199277.901823521,2.41727,2.7023,-0.435363,-96.375,33.25,33.0,-0.0625,-7.4375,6.32812,-0.0429688,0.00390625,0.0117188,4,0,41.40899714338481,-91.72050403567248,13296.735363292197,-56.29062225098106,0.4776970103001213,1.978300355374107,12000,10000,150,1.0,2025-09-08,2025-09-11 20:25:27.630,HA,A,4040845482.0,JASSM,3.0,135.0,76.0,2.0,2.0,1.0,225.0,9.0,2.0,0.0,1.0,26.0,0.0,0.0,0.0,0.0,-104379.51629029664,-4798910.381910619,4191483.220182896,2.29972,3.00238,-0.132498,-83.25,11.625,11.25,0.0,0.0,0.0,0.0,0.0,0.0,2.0,0.0,41.31867282620824,-91.24602512522438,12000.000274421707,-79.86789308223688,-0.001134458110001,-0.0012700366700805,12000,10000,150.0,True,22.057548064364212,False,14.928294166286454,175.78750126798937,False,False,False
1,1970-07-23 09:33:51.284098534,2025-09-08,2025-09-11 20:25:28.409,HA,A,812918342,HAWK11,1,1,73,2,1,1,225,2,1,0,0,12,1,225,2,1,-143971.45544608062,-4791532.123994674,4199293.433073521,2.41113,2.69885,-0.439581,-96.0,33.375,33.0,0.078125,-7.4375,6.39062,-0.0488281,-0.00195312,0.0117188,4,0,41.409186708136176,-91.72105193928992,13295.40111297065,-55.99472076713463,0.5304827082318374,1.5456386398975572,12000,10000,150,1.0,2025-09-08,2025-09-11 20:25:27.630,HA,A,4040845482.0,JASSM,3.0,135.0,76.0,2.0,2.0,1.0,225.0,9.0,2.0,0.0,1.0,26.0,0.0,0.0,0.0,0.0,-104379.51629029664,-4798910.381910619,4191483.220182896,2.29972,3.00238,-0.132498,-83.25,11.625,11.25,0.0,0.0,0.0,0.0,0.0,0.0,2.0,0.0,41.31867282620824,-91.24602512522438,12000.000274421707,-79.86789308223688,-0.001134458110001,-0.0012700366700805,12000,10000,150.0,True,22.084276459972436,False,15.058608515450656,175.7746226516617,False,False,False
1,1970-07-23 09:33:51.295983387,2025-09-08,2025-09-11 20:25:29.598,HA,A,814310174,HAWK11,1,1,73,2,1,1,225,2,1,0,0,12,1,225,2,1,-144082.50036795562,-4791493.403291549,4199331.817839146,2.46492,2.6931,-0.442362,-95.375,33.75,33.25,-0.078125,-7.23438,6.35938,0.0703125,-0.0078125,-0.00585938,4,0,41.409656251461605,-91.7223924946455,13291.673460748798,-55.66947207454338,0.442934437559118,4.489584350556319,12000,10000,150,1.0,2025-09-08,2025-09-11 20:25:28.829,HA,A,4042217484.0,JASSM,3.0,135.0,76.0,2.0,2.0,1.0,225.0,9.0,2.0,0.0,1.0,26.0,0.0,0.0,0.0,0.0,-104475.44988404664,-4798896.936598119,4191496.136198521,2.29972,3.00238,-0.132402,-83.25,11.75,11.25,0.0,0.0,0.0,0.0,0.0,0.0,2.0,0.0,41.31882758756608,-91.24717345919768,11999.998908313832,-79.87274848540578,-0.0039171662424756,-0.0012705194675033,12000,10000,150.0,True,22.097273722554053,False,15.361289694658078,175.78126025199612,False,False,False
1,1970-07-23 09:33:51.296280316,2025-09-08,2025-09-11 20:25:29.628,HA,A,813435308,HAWK11,1,1,73,2,1,1,225,2,1,0,0,12,1,225,2,1,-144012.44177420562,-4791517.917939986,4199307.560026646,2.41362,2.69597,-0.442362,-95.875,33.375,33.125,-0.078125,-7.375,6.35938,0.0429688,0.0,0.00976562,4,0,41.40935923249126,-91.72154670096369,13294.14653968733,-55.77730881016496,0.5443681270180005,1.6202262514226913,12000,10000,150,1.0,2025-09-08,2025-09-11 20:25:28.829,HA,A,4042217484.0,JASSM,3.0,135.0,76.0,2.0,2.0,1.0,225.0,9.0,2.0,0.0,1.0,26.0,0.0,0.0,0.0,0.0,-104475.44988404664,-4798896.936598119,4191496.136198521,2.29972,3.00238,-0.132402,-83.25,11.75,11.25,0.0,0.0,0.0,0.0,0.0,0.0,2.0,0.0,41.31882758756608,-91.24717345919768,11999.998908313832,-79.87274848540578,-0.0039171662424756,-0.0012705194675033,12000,10000,150.0,True,22.055943436300637,False,15.072697925893605,175.80164885096562,False,False,False
1,1970-07-23 09:33:51.296286702,2025-09-08,2025-09-11 20:25:29.628,HA,A,813952274,HAWK11,1,1,73,2,1,1,225,2,1,0,0,12,1,225,2,1,-144054.62146170562,-4791503.224580611,4199322.147917271,2.44191,2.69329,-0.442937,-95.625,33.5,33.25,-0.03125,-7.3125,6.28125,0.0761719,-0.00390625,0.0136719,4,0,41.409537551048,-91.72205589739556,13292.783006496182,-55.65388811325384,0.4734620915162585,3.176004074721467,12000,10000,150,1.0,2025-09-08,2025-09-11 20:25:28.829,HA,A,4042217484.0,JASSM,3.0,135.0,76.0,2.0,2.0,1.0,225.0,9.0,2.0,0.0,1.0,26.0,0.0,0.0,0.0,0.0,-104475.44988404664,-4798896.936598119,4191496.136198521,2.29972,3.00238,-0.132402,-83.25,11.75,11.25,0.0,0.0,0.0,0.0,0.0,0.0,2.0,0.0,41.31882758756608,-91.24717345919768,11999.998908313832,-79.87274848540578,-0.0039171662424756,-0.0012705194675033,12000,10000,150.0,True,22.080817982166824,False,15.217113041566025,175.7894353060962,False,False,False
1,1970-07-23 09:33:51.304106101,2025-09-08,2025-09-11 20:25:30.410,HA,A,815344106,HAWK11,1,1,73,2,1,1,225,2,1,0,0,12,1,225,2,1,-144165.00622733062,-4791464.084932174,4199360.659636021,2.50978,2.69012,-0.446868,-94.875,33.75,34.125,-0.109375,-7.17188,6.6875,0.0351562,0.00976562,0.0136719,4,0,41.41001055006566,-91.72338873119982,13288.257488466645,-55.381280207180666,0.5265914086649672,6.989716502126251,12000,10000,150,1.0,2025-09-08,2025-09-11 20:25:29.927,HA,A,4043529836.0,JASSM,3.0,135.0,76.0,2.0,2.0,1.0,225.0,9.0,2.0,0.0,1.0,26.0,0.0,0.0,0.0,0.0,-104567.21550904664,-4798884.076246557,4191508.489714146,2.29972,3.00238,-0.132402,-83.25,11.75,11.25,0.0,0.0,0.0,0.0,0.0,0.0,2.0,0.0,41.31897560046663,-91.2482719070732,12000.001271945215,-79.87347373499408,-0.0030790086753276,-0.0012711703241704,12000,10000,150.0,True,22.095819351956163,False,15.784377094778925,175.74690901470117,False,False,False
1,1970-07-23 09:33:51.312079104,2025-09-08,2025-09-11 20:25:31.207,HA,A,816298506,HAWK11,1,1,73,2,1,1,225,2,1,0,0,12,1,225,2,1,-144240.80700858062,-4791436.289033736,4199388.007292271,2.54372,2.67172,-0.460674,-94.375,34.875,34.75,-0.171875,-6.96875,7.04688,0.03125,0.00195312,0.0253906,4,0,41.41034690020802,-91.72430432489423,13284.851459654386,-54.14904638927856,0.4601081507982703,8.482682540871359,12000,10000,150,1.0,2025-09-08,2025-09-11 20:25:31.029,HA,A,4044842182.0,JASSM,3.0,135.0,76.0,2.0,2.0,1.0,225.0,9.0,2.0,0.0,1.0,26.0,0.0,0.0,0.0,0.0,-104658.97918092164,-4798871.213941869,4191520.8422532086,2.29972,3.00229,-0.132402,-83.25,11.75,11.25,0.0,0.0,0.0,0.0,0.0,0.0,2.0,0.0,41.319123608135634,-91.24937033711856,12000.001090358695,-79.87057316336724,-0.006300939997833,-0.0019970574946281,12000,10000,150.0,True,22.090586184131002,False,16.496701978877375,175.7129310836406,False,False,False
1,1970-07-23 09:33:51.312281523,2025-09-08,2025-09-11 20:25:31.228,HA,A,814827140,HAWK11,1,1,73,2,1,1,225,2,1,0,0,12,1,225,2,1,-144124.46521170562,-4791478.493135299,4199346.491667271,2.49205,2.69252,-0.442074,-95.125,34.0,33.5,0.078125,-7.29688,6.59375,0.0527344,0.00195312,0.0,4,0,41.40983647446853,-91.72289920698528,13289.949195164983,-55.65940047149218,0.4109333399107246,6.030186006568591,12000,10000,150,1.0,2025-09-08,2025-09-11 20:25:31.029,HA,A,4044842182.0,JASSM,3.0,135.0,76.0,2.0,2.0,1.0,225.0,9.0,2.0,0.0,1.0,26.0,0.0,0.0,0.0,0.0,-104658.97918092164,-4798871.213941869,4191520.8422532086,2.29972,3.00229,-0.132402,-83.25,11.75,11.25,0.0,0.0,0.0,0.0,0.0,0.0,2.0,0.0,41.319123608135634,-91.24937033711856,12000.001090358695,-79.87057316336724,-0.006300939997833,-0.0019970574946281,12000,10000,150.0,True,22.021658553025173,False,15.591626054643598,175.74917574110583,False,False,False
1,1970-07-23 09:33:51.312286840,2025-09-08,2025-09-11 20:25:31.228,HA,A,815781540,HAWK11,1,1,73,2,1,1,225,2,1,0,0,12,1,225,2,1,-144200.41833670562,-4791451.168916549,4199373.319792271,2.5257,2.68303,-0.4531,-94.625,34.625,34.125,-0.140625,-7.20312,7.04688,0.0332031,0.00585938,0.0234375,4,0,41.41016648895432,-91.72381644602976,13286.58512161412,-54.87031504021265,0.5375208775992486,7.729571593068189,12000,10000,150,1.0,2025-09-08,2025-09-11 20:25:31.029,HA,A,4044842182.0,JASSM,3.0,135.0,76.0,2.0,2.0,1.0,225.0,9.0,2.0,0.0,1.0,26.0,0.0,0.0,0.0,0.0,-104658.97918092164,-4798871.213941869,4191520.8422532086,2.29972,3.00229,-0.132402,-83.25,11.75,11.25,0.0,0.0,0.0,0.0,0.0,0.0,2.0,0.0,41.319123608135634,-91.24937033711856,12000.001090358695,-79.87057316336724,-0.006300939997833,-0.0019970574946281,12000,10000,150.0,True,22.06660514307517,False,16.137885702827667,175.7259709457833,False,False,False
1,1970-07-23 09:33:51.317077917,2025-09-08,2025-09-11 20:25:31.707,HA,A,816815472,HAWK11,1,1,73,2,1,1,225,2,1,0,0,12,1,225,2,1,-144282.50622733062,-4791420.988252486,4199403.145964146,2.55302,2.66165,-0.465659,-94.25,35.375,35.25,-0.0625,-6.84375,7.0625,0.00390625,0.00390625,0.0214844,4,0,41.41053262343037,-91.72480801527338,13283.159822013862,-53.57621323060864,0.321391854638138,8.761801916858651,12000,10000,150,1.0,2025-09-08,2025-09-11 20:25:31.029,HA,A,4044842182.0,JASSM,3.0,135.0,76.0,2.0,2.0,1.0,225.0,9.0,2.0,0.0,1.0,26.0,0.0,0.0,0.0,0.0,-104658.97918092164,-4798871.213941869,4191520.8422532086,2.29972,3.00229,-0.132402,-83.25,11.75,11.25,0.0,0.0,0.0,0.0,0.0,0.0,2.0,0.0,41.319123608135634,-91.24937033711856,12000.001090358695,-79.87057316336724,-0.006300939997833,-0.0019970574946281,12000,10000,150.0,True,22.115337665998485,False,16.864500953589463,175.69957243013366,False,False,False
1,1970-07-23 09:33:51.320977888,2025-09-08,2025-09-11 20:25:32.097,HA,A,817292672,HAWK11,1,1,73,2,1,1,225,2,1,0,0,12,1,225,2,1,-144319.59997733062,-4791406.879854049,4199417.056120396,2.54612,2.65484,-0.469302,-94.125,36.0,35.625,-0.09375,-6.85938,7.01562,-0.0527344,0.00195312,0.0136719,4,0,41.41070378525815,-91.72525625709793,13281.394743429106,-53.17863838204263,0.2411536004564712,8.192551569354167,12000,10000,150,1.0,2025-09-08,2025-09-11 20:25:31.029,HA,A,4044842182.0,JASSM,3.0,135.0,76.0,2.0,2.0,1.0,225.0,9.0,2.0,0.0,1.0,26.0,0.0,0.0,0.0,0.0,-104658.97918092164,-4798871.213941869,4191520.8422532086,2.29972,3.00229,-0.132402,-83.25,11.75,11.25,0.0,0.0,0.0,0.0,0.0,0.0,2.0,0.0,41.319123608135634,-91.24937033711856,12000.001090358695,-79.87057316336724,-0.006300939997833,-0.0019970574946281,12000,10000,150.0,True,22.13745303058696,False,17.22995462024893,175.6868377552504,False,False,False
1,1970-07-23 09:33:51.324103534,2025-09-08,2025-09-11 20:25:32.410,HA,A,817571038,HAWK11,1,1,73,2,1,1,225,2,1,0,0,12,1,225,2,1,-144342.57849295562,-4791398.501924361,4199425.302214146,2.5186,2.65561,-0.467577,-94.25,36.125,35.875,0.140625,-6.875,7.10938,-0.0996094,0.00390625,0.0136719,4,0,41.410805158990016,-91.7255338010634,13280.386877112587,-53.27438664332219,0.1946720148484544,6.635528380714013,12000,10000,150,1.0,2025-09-08,2025-09-11 20:25:32.115,HA,A,4046154538.0,JASSM,3.0,135.0,76.0,2.0,2.0,1.0,225.0,9.0,2.0,0.0,1.0,26.0,0.0,0.0,0.0,0.0,-104750.74285279664,-4798858.350660619,4191533.1938157086,2.29972,3.00229,-0.132402,-83.25,11.75,11.25,0.0,0.0,0.0,0.0,0.0,0.0,2.0,0.0,41.31927160451952,-91.250468772388,12000.00087405841,-79.87129840887214,-0.0054627983199764,-0.0019976625940909,12000,10000,150.0,True,22.10087866451048,False,17.323519022803595,175.66969639409157,False,False,False
1,1970-07-23 09:33:51.327080288,2025-09-08,2025-09-11 20:25:32.708,HA,A,818088004,HAWK11,1,1,73,2,1,1,225,2,1,0,0,12,1,225,2,1,-144382.79528983062,-4791382.918916549,4199440.649870396,2.49464,2.65283,-0.472178,-94.125,36.375,36.5,0.171875,-6.9375,7.21875,-0.0234375,0.0117188,0.00585938,4,0,41.41099423203436,-91.72601988944815,13278.347536737909,-52.99220982064012,0.2945358151765302,5.191385614495746,12000,10000,150,1.0,2025-09-08,2025-09-11 20:25:32.115,HA,A,4046154538.0,JASSM,3.0,135.0,76.0,2.0,2.0,1.0,225.0,9.0,2.0,0.0,1.0,26.0,0.0,0.0,0.0,0.0,-104750.74285279664,-4798858.350660619,4191533.1938157086,2.29972,3.00229,-0.132402,-83.25,11.75,11.25,0.0,0.0,0.0,0.0,0.0,0.0,2.0,0.0,41.31927160451952,-91.250468772388,12000.00087405841,-79.87129840887214,-0.0054627983199764,-0.0019976625940909,12000,10000,150.0,True,22.12491569610897,False,17.647656512947275,175.65539477489722,False,False,False
1,1970-07-23 09:33:51.330978660,2025-09-08,2025-09-11 20:25:33.097,HA,A,818525436,HAWK11,1,1,73,2,1,1,225,2,1,0,0,12,1,225,2,1,-144417.97693045562,-4791369.174775924,4199454.255339146,2.49138,2.65129,-0.475726,-94.125,36.75,36.75,-0.015625,-7.0625,7.35938,0.0078125,0.00585938,0.0117188,4,0,41.41116150881894,-91.72644516217446,13276.677826657276,-52.79796175205669,0.3927910998499808,4.965732696767292,12000,10000,150,1.0,2025-09-08,2025-09-11 20:25:32.115,HA,A,4046154538.0,JASSM,3.0,135.0,76.0,2.0,2.0,1.0,225.0,9.0,2.0,0.0,1.0,26.0,0.0,0.0,0.0,0.0,-104750.74285279664,-4798858.350660619,4191533.1938157086,2.29972,3.00229,-0.132402,-83.25,11.75,11.25,0.0,0.0,0.0,0.0,0.0,0.0,2.0,0.0,41.31927160451952,-91.250468772388,12000.00087405841,-79.87129840887214,-0.0054627983199764,-0.0019976625940909,12000,10000,150.0,True,22.14597430595691,False,17.853499776962064,175.64262396971228,False,False,False
1,1970-07-23 09:33:51.339099743,2025-09-08,2025-09-11 20:25:33.909,HA,A,819440068,HAWK11,1,1,73,2,1,1,225,2,1,0,0,12,1,225,2,1,-144490.43786795562,-4791340.946260299,4199482.356901646,2.47393,2.64746,-0.476589,-94.125,37.125,37.625,-0.078125,-6.875,7.1875,-0.0410156,-0.0078125,0.00585938,4,0,41.41150609567292,-91.72732104245831,13273.60869794279,-52.62061148486214,0.2990607814276964,3.86645282466699,12000,10000,150,1.0,2025-09-08,2025-09-11 20:25:33.218,HA,A,4047466888.0,JASSM,3.0,135.0,76.0,2.0,2.0,1.0,225.0,9.0,2.0,0.0,1.0,26.0,0.0,0.0,0.0,0.0,-104842.50652467164,-4798845.486402807,4191545.544401646,2.29972,3.00229,-0.132402,-83.25,11.75,11.25,0.0,0.0,0.0,0.0,0.0,0.0,2.0,0.0,41.31941958961819,-91.25156721288138,12000.000623047412,-79.87202365996596,-0.0046246566161816,-0.0019982668328508,12000,10000,150.0,True,22.139154913147614,False,18.26757617179198,175.60628900402236,False,False,False
1,1970-07-23 09:33:51.339478016,2025-09-08,2025-09-11 20:25:33.947,HA,A,818962870,HAWK11,1,1,73,2,1,1,225,2,1,0,0,12,1,225,2,1,-144452.10193045562,-4791356.117158736,4199467.251432896,2.48812,2.65149,-0.476397,-94.125,37.0,37.125,0.0,-6.96875,7.23438,0.0,0.0,0.00585938,4,0,41.41132077686434,-91.7268575658696,13275.296632427086,-52.779621929480825,0.4281690372528359,4.784194837668167,12000,10000,150,1.0,2025-09-08,2025-09-11 20:25:33.218,HA,A,4047466888.0,JASSM,3.0,135.0,76.0,2.0,2.0,1.0,225.0,9.0,2.0,0.0,1.0,26.0,0.0,0.0,0.0,0.0,-104842.50652467164,-4798845.486402807,4191545.544401646,2.29972,3.00229,-0.132402,-83.25,11.75,11.25,0.0,0.0,0.0,0.0,0.0,0.0,2.0,0.0,41.31941958961819,-91.25156721288138,12000.000623047412,-79.87202365996596,-0.0046246566161816,-0.0019982668328508,12000,10000,150.0,True,22.116156132924807,False,18.0599254501867,175.62063456997151,False,False,False
1,1970-07-23 09:33:51.342079370,2025-09-08,2025-09-11 20:25:34.207,HA,A,819877502,HAWK11,1,1,73,2,1,1,225,2,1,0,0,12,1,225,2,1,-144524.37927420562,-4791327.372041549,4199495.815886021,2.44881,2.64219,-0.478698,-94.125,37.375,37.875,0.15625,-6.8125,7.03125,-0.0683594,-0.00585938,0.0214844,4,0,41.41167159080852,-91.72773144330156,13271.949529856549,-52.34070215382622,0.2094234138192207,2.289665311939049,12000,10000,150,1.0,2025-09-08,2025-09-11 20:25:33.218,HA,A,4047466888.0,JASSM,3.0,135.0,76.0,2.0,2.0,1.0,225.0,9.0,2.0,0.0,1.0,26.0,0.0,0.0,0.0,0.0,-104842.50652467164,-4798845.486402807,4191545.544401646,2.29972,3.00229,-0.132402,-83.25,11.75,11.25,0.0,0.0,0.0,0.0,0.0,0.0,2.0,0.0,41.31941958961819,-91.25156721288138,12000.000623047412,-79.87202365996596,-0.0046246566161816,-0.0019982668328508,12000,10000,150.0,True,22.159542073614155,False,18.43088134628812,175.5934064979605,False,False,False
1,1970-07-23 09:33:51.345039963,2025-09-08,2025-09-11 20:25:34.503,HA,A,820195634,HAWK11,1,1,73,2,1,1,225,2,1,0,0,12,1,225,2,1,-144550.44372733062,-4791317.240205611,4199505.935026646,2.42426,2.64123,-0.479848,-94.375,37.625,38.0,0.0,-6.89062,7.23438,-0.0644531,0.0,0.0175781,4,0,41.41179547957165,-91.72804649650998,13270.924939320472,-52.26058970721269,0.2261006616008091,0.8584336937970422,12000,10000,150,1.0,2025-09-08,2025-09-11 20:25:34.468,HA,A,4048779240.0,JASSM,3.0,135.0,76.0,2.0,2.0,1.0,225.0,9.0,2.0,0.0,1.0,26.0,0.0,0.0,0.0,0.0,-104934.27019654664,-4798832.621168432,4191557.894011021,2.29972,3.00229,-0.132402,-83.25,11.75,11.25,0.0,0.0,0.0,0.0,0.0,0.0,2.0,0.0,41.31956756343158,-91.25266565859866,12000.000337316538,-79.87274891664845,-0.0037865148862686,-0.0019988702109175,12000,10000,150.0,True,22.124952708364535,False,18.486783268688363,175.5738339896522,False,False,False
1,1970-07-23 09:33:51.349100484,2025-09-08,2025-09-11 20:25:34.910,HA,A,820633068,HAWK11,1,1,73,2,1,1,225,2,1,0,0,12,1,225,2,1,-144584.49450858062,-4791303.580049361,4199519.538542271,2.40365,2.63931,-0.484163,-94.5,37.625,38.25,-0.03125,-7.07812,7.32812,-0.0449219,0.0,0.0078125,4,0,41.41196243915615,-91.72845823885618,13269.377564260254,-52.02324638301025,0.3452805122504244,-0.3722768301210712,12000,10000,150,1.0,2025-09-08,2025-09-11 20:25:34.468,HA,A,4048779240.0,JASSM,3.0,135.0,76.0,2.0,2.0,1.0,225.0,9.0,2.0,0.0,1.0,26.0,0.0,0.0,0.0,0.0,-104934.27019654664,-4798832.621168432,4191557.894011021,2.29972,3.00229,-0.132402,-83.25,11.75,11.25,0.0,0.0,0.0,0.0,0.0,0.0,2.0,0.0,41.31956756343158,-91.25266565859866,12000.000337316538,-79.87274891664845,-0.0037865148862686,-0.0019988702109175,12000,10000,150.0,True,22.14542315248042,False,18.537496428142745,175.56078601611705,False,False,False
1,1970-07-23 09:33:51.353020051,2025-09-08,2025-09-11 20:25:35.302,HA,A,821110268,HAWK11,1,1,73,2,1,1,225,2,1,0,0,12,1,225,2,1,-144623.03552420562,-4791288.189424361,4199535.075651646,2.38937,2.64046,-0.486751,-94.75,37.625,38.625,0.03125,-7.21875,7.54688,-0.0175781,0.00195312,-0.00195312,4,0,41.41215193491158,-91.728924254212,13268.104615541954,-51.96783885085532,0.4949823250208874,-1.1595298424749074,12000,10000,150,1.0,2025-09-08,2025-09-11 20:25:34.468,HA,A,4048779240.0,JASSM,3.0,135.0,76.0,2.0,2.0,1.0,225.0,9.0,2.0,0.0,1.0,26.0,0.0,0.0,0.0,0.0,-104934.27019654664,-4798832.621168432,4191557.894011021,2.29972,3.00229,-0.132402,-83.25,11.75,11.25,0.0,0.0,0.0,0.0,0.0,0.0,2.0,0.0,41.31956756343158,-91.25266565859866,12000.000337316538,-79.87274891664845,-0.0037865148862686,-0.0019988702109175,12000,10000,150.0,True,22.168601208594996,False,18.597785202185026,175.54594943965117,False,False,False
1,1970-07-23 09:33:51.355979430,2025-09-08,2025-09-11 20:25:35.597,HA,A,821309100,HAWK11,1,1,73,2,1,1,225,2,1,0,0,12,1,225,2,1,-144638.84411795562,-4791282.028291549,4199541.614714146,2.38563,2.64123,-0.486655,-94.75,36.375,39.875,0.03125,-7.21875,7.54688,-0.0175781,0.00195312,-0.00195312,4,0,41.41222987927127,-91.72911534853104,13268.316441608087,-52.00052663802269,0.5170232815861628,-1.3534723362821766,12000,10000,150,1.0,2025-09-08,2025-09-11 20:25:35.326,HA,A,4050031938.0,JASSM,3.0,135.0,76.0,2.0,2.0,1.0,225.0,9.0,2.0,0.0,1.0,26.0,0.0,0.0,0.0,0.0,-105021.86394654664,-4798820.339918432,4191569.682096959,2.29972,3.00229,-0.132402,-83.25,11.75,11.25,0.0,0.0,0.0,0.0,0.0,0.0,2.0,0.0,41.31970880477669,-91.25371419358196,12000.00195903702,-79.8734412214057,-0.0029864595936399,-0.0019994476221112,12000,10000,150.0,True,22.130199891698343,False,18.650132608734634,175.53002064821942,False,False,False
1,1970-07-23 09:33:51.359099626,2025-09-08,2025-09-11 20:25:35.909,HA,A,821587466,HAWK11,1,1,73,2,1,1,225,2,1,0,0,12,1,225,2,1,-144660.47302420562,-4791273.294893111,4199550.202604771,2.38064,2.64372,-0.485601,-95.0,37.625,38.75,0.078125,-7.17188,7.40625,-0.015625,0.0,-0.0078125,4,0,41.41233590764882,-91.72937690915823,13267.080712867675,-52.134981738021146,0.5568154396762155,-1.5736061724733084,12000,10000,150,1.0,2025-09-08,2025-09-11 20:25:35.326,HA,A,4050031938.0,JASSM,3.0,135.0,76.0,2.0,2.0,1.0,225.0,9.0,2.0,0.0,1.0,26.0,0.0,0.0,0.0,0.0,-105021.86394654664,-4798820.339918432,4191569.682096959,2.29972,3.00229,-0.132402,-83.25,11.75,11.25,0.0,0.0,0.0,0.0,0.0,0.0,2.0,0.0,41.31970880477669,-91.25371419358196,12000.00195903702,-79.8734412214057,-0.0029864595936399,-0.0019994476221112,12000,10000,150.0,True,22.14320558334002,False,18.574774655827557,175.5217683444041,False,False,False
1,1970-07-23 09:33:51.362077345,2025-09-08,2025-09-11 20:25:36.207,HA,A,822064666,HAWK11,1,1,73,2,1,1,225,2,1,0,0,12,1,225,2,1,-144699.21911795562,-4791257.907197799,4199565.952604771,2.37201,2.64669,-0.483204,-95.25,37.5,39.125,0.0625,-7.14062,7.375,-0.015625,0.00195312,-0.0078125,4,0,41.41252678210839,-91.72984537907402,13266.29420464304,-52.33918431333627,0.5562206558827257,-1.9906042565650872,12000,10000,150,1.0,2025-09-08,2025-09-11 20:25:35.326,HA,A,4050031938.0,JASSM,3.0,135.0,76.0,2.0,2.0,1.0,225.0,9.0,2.0,0.0,1.0,26.0,0.0,0.0,0.0,0.0,-105021.86394654664,-4798820.339918432,4191569.682096959,2.29972,3.00229,-0.132402,-83.25,11.75,11.25,0.0,0.0,0.0,0.0,0.0,0.0,2.0,0.0,41.31970880477669,-91.25371419358196,12000.00195903702,-79.8734412214057,-0.0029864595936399,-0.0019994476221112,12000,10000,150.0,True,22.166515316259005,False,18.597769053172556,175.50681562277637,False,False,False
1,1970-07-23 09:33:51.365041958,2025-09-08,2025-09-11 20:25:36.504,HA,A,822502098,HAWK11,1,1,73,2,1,1,225,2,1,0,0,12,1,225,2,1,-144733.76403983062,-4791244.346650924,4199579.831511021,2.36291,2.64823,-0.481095,-95.625,37.5,39.25,-0.015625,-7.09375,7.32812,-0.015625,-0.00390625,0.0,4,0,41.41269491233945,-91.73026299867811,13265.62961114588,-52.47827953140235,0.5191671119953197,-2.472949257286861,12000,10000,150,1.0,2025-09-08,2025-09-11 20:25:36.427,HA,A,4051344292.0,JASSM,3.0,135.0,76.0,2.0,2.0,1.0,225.0,9.0,2.0,0.0,1.0,26.0,0.0,0.0,0.0,0.0,-105113.62761842164,-4798807.471754369,4191582.0297532086,2.29972,3.00229,-0.132402,-83.25,11.75,11.25,0.0,0.0,0.0,0.0,0.0,0.0,2.0,0.0,41.31985676229685,-91.2548126497761,11999.998994314508,-79.87416648918688,-0.0021483166013976,-0.0020000549575966,12000,10000,150.0,True,22.137078155397283,False,18.543247012924947,175.48345295411158,False,False,False
1,1970-07-23 09:33:51.370977086,2025-09-08,2025-09-11 20:25:37.097,HA,A,823337198,HAWK11,1,1,73,2,1,1,225,2,1,0,0,12,1,225,2,1,-144800.94763358062,-4791217.872041549,4199607.169401646,2.35763,2.64736,-0.483204,-96.125,37.375,39.625,0.15625,-7.0,7.32812,0.00585938,0.0,0.00390625,4,0,41.41302483100305,-91.73107523590129,13264.839782942548,-52.36524900423794,0.5800812692165425,-2.796805900820412,12000,10000,150,1.0,2025-09-08,2025-09-11 20:25:36.427,HA,A,4051344292.0,JASSM,3.0,135.0,76.0,2.0,2.0,1.0,225.0,9.0,2.0,0.0,1.0,26.0,0.0,0.0,0.0,0.0,-105113.62761842164,-4798807.471754369,4191582.0297532086,2.29972,3.00229,-0.132402,-83.25,11.75,11.25,0.0,0.0,0.0,0.0,0.0,0.0,2.0,0.0,41.31985676229685,-91.2548126497761,11999.998994314508,-79.87416648918688,-0.0021483166013976,-0.0020000549575966,12000,10000,150.0,True,22.177484839217914,False,18.504324626092988,175.4577368988254,False,False,False
1,1970-07-23 09:33:51.371479173,2025-09-08,2025-09-11 20:25:37.147,HA,A,822899766,HAWK11,1,1,73,2,1,1,225,2,1,0,0,12,1,225,2,1,-144766.34997733062,-4791231.462861861,4199593.067839146,2.3584,2.64842,-0.481766,-95.875,37.375,39.375,-0.015625,-7.04688,7.34375,-0.00585938,0.00585938,0.00585938,4,0,41.412855030515765,-91.73065697107285,13265.090129189924,-52.45995457050369,0.5545412705516359,-2.7258176283209625,12000,10000,150,1.0,2025-09-08,2025-09-11 20:25:36.427,HA,A,4051344292.0,JASSM,3.0,135.0,76.0,2.0,2.0,1.0,225.0,9.0,2.0,0.0,1.0,26.0,0.0,0.0,0.0,0.0,-105113.62761842164,-4798807.471754369,4191582.0297532086,2.29972,3.00229,-0.132402,-83.25,11.75,11.25,0.0,0.0,0.0,0.0,0.0,0.0,2.0,0.0,41.31985676229685,-91.2548126497761,11999.998994314508,-79.87416648918688,-0.0021483166013976,-0.0020000549575966,12000,10000,150.0,True,22.15667809490548,False,18.483605701546125,175.47095990066128,False,False,False
1,1970-07-23 09:33:51.375980854,2025-09-08,2025-09-11 20:25:37.598,HA,A,823854164,HAWK11,1,1,73,2,1,1,225,2,1,0,0,12,1,225,2,1,-144843.20739920562,-4791201.484346236,4199624.233854771,2.3584,2.6488,-0.486272,-96.375,37.25,39.625,0.125,-6.92188,7.25,0.0117188,0.00585938,0.0078125,4,0,41.41322988647473,-91.7315860570561,13264.711496938746,-52.30170163213056,0.7597692716951937,-2.713645498996606,12000,10000,150,1.0,2025-09-08,2025-09-11 20:25:37.529,HA,A,4052656634.0,JASSM,3.0,135.0,76.0,2.0,2.0,1.0,225.0,9.0,2.0,0.0,1.0,26.0,0.0,0.0,0.0,0.0,-105205.39129029664,-4798794.603590307,4191594.3774094586,2.29972,3.00229,-0.132402,-83.25,11.75,11.25,0.0,0.0,0.0,0.0,0.0,0.0,2.0,0.0,41.3200047093306,-91.25591111093875,12000.000516030868,-79.87489176238779,-0.0013101736307092,-0.0020006622527632,12000,10000,150.0,True,22.152678408859078,False,18.403437028401466,175.4314903857712,False,False,False
1,1970-07-23 09:33:51.379098495,2025-09-08,2025-09-11 20:25:37.909,HA,A,824291598,HAWK11,1,1,73,2,1,1,225,2,1,0,0,12,1,225,2,1,-144877.98669608062,-4791187.894502486,4199638.366667271,2.36377,2.64746,-0.485984,-96.625,37.25,39.75,0.0625,-6.90625,7.20312,0.0214844,0.00195312,0.00195312,4,0,41.41339985597776,-91.73200649655296,13264.546681519932,-52.26262290315061,0.7022865793160253,-2.4413923359703507,12000,10000,150,1.0,2025-09-08,2025-09-11 20:25:37.529,HA,A,4052656634.0,JASSM,3.0,135.0,76.0,2.0,2.0,1.0,225.0,9.0,2.0,0.0,1.0,26.0,0.0,0.0,0.0,0.0,-105205.39129029664,-4798794.603590307,4191594.3774094586,2.29972,3.00229,-0.132402,-83.25,11.75,11.25,0.0,0.0,0.0,0.0,0.0,0.0,2.0,0.0,41.3200047093306,-91.25591111093875,12000.000516030868,-79.87489176238779,-0.0013101736307092,-0.0020006622527632,12000,10000,150.0,True,22.173585968120733,False,18.382421697871344,175.41833472981767,False,False,False
1,1970-07-23 09:33:51.383020766,2025-09-08,2025-09-11 20:25:38.302,HA,A,824768796,HAWK11,1,1,73,2,1,1,225,2,1,0,0,12,1,225,2,1,-144916.53943045562,-4791172.928682174,4199653.946745396,2.3653,2.65216,-0.487422,-96.75,37.25,39.75,-0.171875,-6.96875,7.15625,0.00390625,0.0078125,-0.00585938,4,0,41.41358709790856,-91.73247251931272,13264.420276842791,-52.383889031121846,0.9234983686804888,-2.229259915861417,12000,10000,150,1.0,2025-09-08,2025-09-11 20:25:37.529,HA,A,4052656634.0,JASSM,3.0,135.0,76.0,2.0,2.0,1.0,225.0,9.0,2.0,0.0,1.0,26.0,0.0,0.0,0.0,0.0,-105205.39129029664,-4798794.603590307,4191594.3774094586,2.29972,3.00229,-0.132402,-83.25,11.75,11.25,0.0,0.0,0.0,0.0,0.0,0.0,2.0,0.0,41.3200047093306,-91.25591111093875,12000.000516030868,-79.87489176238779,-0.0013101736307092,-0.0020006622527632,12000,10000,150.0,True,22.196744109477326,False,18.3507604517917,175.40395081309228,False,False,False
1,1970-07-23 09:33:51.387079089,2025-09-08,2025-09-11 20:25:38.707,HA,A,825166462,HAWK11,1,1,73,2,1,1,225,2,1,0,0,12,1,225,2,1,-144949.51013358062,-4791160.103486861,4199667.302214146,2.36521,2.65359,-0.487614,-97.0,37.25,39.875,-0.015625,-6.96875,7.20312,-0.00585938,0.0,0.0,4,0,41.41374759465717,-91.7328710784914,13264.316126696778,-52.43063229047812,0.9809198783745032,-2.1968762941382414,12000,10000,150,1.0,2025-09-08,2025-09-11 20:25:38.617,HA,A,4053968986.0,JASSM,3.0,135.0,76.0,2.0,2.0,1.0,225.0,9.0,2.0,0.0,1.0,26.0,0.0,0.0,0.0,0.0,-105297.15496217164,-4798781.734449682,4191606.723112584,2.29972,3.00229,-0.132402,-83.25,11.75,11.25,0.0,0.0,0.0,0.0,0.0,0.0,2.0,0.0,41.320152638478646,-91.25700957732494,11999.999887595885,-79.87561704117671,-0.0004720317935114,-0.0020012621898994,12000,10000,150.0,True,22.166376030606866,False,18.330047400112743,175.38104008402985,False,False,False
1,1970-07-23 09:33:51.394096709,2025-09-08,2025-09-11 20:25:39.409,HA,A,826041328,HAWK11,1,1,73,2,1,1,225,2,1,0,0,12,1,225,2,1,-145020.70153983062,-4791132.541963424,4199696.200651646,2.35677,2.65513,-0.488573,-97.375,37.25,40.0,0.0,-6.95312,7.20312,-0.0078125,0.0,0.00585938,4,0,41.41409377081154,-91.73373161964444,13264.548171150273,-52.45163704161236,1.0745187684913289,-2.639307869343792,12000,10000,150,1.0,2025-09-08,2025-09-11 20:25:38.617,HA,A,4053968986.0,JASSM,3.0,135.0,76.0,2.0,2.0,1.0,225.0,9.0,2.0,0.0,1.0,26.0,0.0,0.0,0.0,0.0,-105297.15496217164,-4798781.734449682,4191606.723112584,2.29972,3.00229,-0.132402,-83.25,11.75,11.25,0.0,0.0,0.0,0.0,0.0,0.0,2.0,0.0,41.320152638478646,-91.25700957732494,11999.999887595885,-79.87561704117671,-0.0004720317935114,-0.0020012621898994,12000,10000,150.0,True,22.209153055770717,False,18.27813148837753,175.35448249264581,False,False,False
1,1970-07-23 09:33:51.394275744,2025-09-08,2025-09-11 20:25:39.427,HA,A,825603896,HAWK11,1,1,73,2,1,1,225,2,1,0,0,12,1,225,2,1,-144984.51403983062,-4791146.543916549,4199681.550261021,2.36281,2.65427,-0.487327,-97.25,37.25,40.0,0.015625,-6.96875,7.26562,-0.0078125,-0.00390625,0.00390625,4,0,41.41391811653476,-91.73329419732254,13264.49506896257,-52.46713719315864,0.9919492578309388,-2.3167579749697937,12000,10000,150,1.0,2025-09-08,2025-09-11 20:25:38.617,HA,A,4053968986.0,JASSM,3.0,135.0,76.0,2.0,2.0,1.0,225.0,9.0,2.0,0.0,1.0,26.0,0.0,0.0,0.0,0.0,-105297.15496217164,-4798781.734449682,4191606.723112584,2.29972,3.00229,-0.132402,-83.25,11.75,11.25,0.0,0.0,0.0,0.0,0.0,0.0,2.0,0.0,41.320152638478646,-91.25700957732494,11999.999887595885,-79.87561704117671,-0.0004720317935114,-0.0020012621898994,12000,10000,150.0,True,22.18741316932212,False,18.309536694517607,175.3679211755392,False,False,False
1,1970-07-23 09:33:51.400278028,2025-09-08,2025-09-11 20:25:40.027,HA,A,826438994,HAWK11,1,1,73,2,1,1,225,2,1,0,0,12,1,225,2,1,-145052.58435233062,-4791120.162080611,4199709.102995396,2.3491,2.65158,-0.488669,-97.625,37.25,40.125,-0.265625,-6.89062,7.15625,-0.0761719,-0.00195312,0.00976562,4,0,41.41424875191925,-91.73411702605055,13264.477105717286,-52.31540301871932,0.9581734803582956,-3.1716898507777675,12000,10000,150,1.0,2025-09-08,2025-09-11 20:25:39.909,HA,A,4055221692.0,JASSM,3.0,135.0,76.0,2.0,2.0,1.0,225.0,9.0,2.0,0.0,1.0,26.0,0.0,0.0,0.0,0.0,-105384.74675904664,-4798769.449293432,4191618.507292271,2.29972,3.00229,-0.132306,-83.25,11.75,11.25,0.0,0.0,0.0,0.0,0.0,0.0,2.0,0.0,41.32029383729732,-91.25805810877536,12000.00025472888,-79.88040652353757,-0.0033309832341734,-0.0020017321250891,12000,10000,150.0,True,22.180416220792385,False,18.257917469378775,175.33243880567576,False,False,False
1,1970-07-23 09:33:51.400978919,2025-09-08,2025-09-11 20:25:40.097,HA,A,826836662,HAWK11,1,1,73,2,1,1,225,2,1,0,0,12,1,225,2,1,-145085.85193045562,-4791107.344697799,4199722.601042271,2.31008,2.64995,-0.488189,-97.875,37.25,40.125,0.1875,-6.70312,7.04688,-0.132812,0.00195312,0.00585938,4,0,41.414410105132895,-91.73451913751086,13264.726743025887,-52.273040390202354,0.8827617567996223,-5.450479100128838,12000,10000,150,1.0,2025-09-08,2025-09-11 20:25:39.909,HA,A,4055221692.0,JASSM,3.0,135.0,76.0,2.0,2.0,1.0,225.0,9.0,2.0,0.0,1.0,26.0,0.0,0.0,0.0,0.0,-105384.74675904664,-4798769.449293432,4191618.507292271,2.29972,3.00229,-0.132306,-83.25,11.75,11.25,0.0,0.0,0.0,0.0,0.0,0.0,2.0,0.0,41.32029383729732,-91.25805810877536,12000.00025472888,-79.88040652353757,-0.0033309832341734,-0.0020017321250891,12000,10000,150.0,True,22.200402141770226,False,18.195482149274557,175.32012179258416,False,False,False
1,1970-07-23 09:33:51.404101798,2025-09-08,2025-09-11 20:25:40.410,HA,A,827154794,HAWK11,1,1,73,2,1,1,225,2,1,0,0,12,1,225,2,1,-145111.13903983062,-4791097.792939986,4199732.638151646,2.2771,2.65283,-0.49049,-98.0,37.125,40.0,0.15625,-6.64062,6.92188,-0.0996094,-0.00195312,0.00195312,4,0,41.414530110683486,-91.73482471979187,13264.902657054065,-52.29234046476448,1.0783989852183395,-7.262951792559237,12000,10000,150,1.0,2025-09-08,2025-09-11 20:25:39.909,HA,A,4055221692.0,JASSM,3.0,135.0,76.0,2.0,2.0,1.0,225.0,9.0,2.0,0.0,1.0,26.0,0.0,0.0,0.0,0.0,-105384.74675904664,-4798769.449293432,4191618.507292271,2.29972,3.00229,-0.132306,-83.25,11.75,11.25,0.0,0.0,0.0,0.0,0.0,0.0,2.0,0.0,41.32029383729732,-91.25805810877536,12000.00025472888,-79.88040652353757,-0.0033309832341734,-0.0020017321250891,12000,10000,150.0,True,22.215551090901826,False,18.085755703086893,175.3111654370789,False,False,False
1,1970-07-23 09:33:51.407076518,2025-09-08,2025-09-11 20:25:40.707,HA,A,827552460,HAWK11,1,1,73,2,1,1,225,2,1,0,0,12,1,225,2,1,-145144.54333670562,-4791084.990205611,4199745.946745396,2.25524,2.64976,-0.490778,-98.375,37.125,39.75,0.0,-6.73438,6.95312,-0.0351562,-0.0117188,-0.00390625,4,0,41.41469007115065,-91.73522846291726,13264.788648644397,-52.16670398894779,0.986734144587777,-8.595887883071951,12000,10000,150,1.0,2025-09-08,2025-09-11 20:25:39.909,HA,A,4055221692.0,JASSM,3.0,135.0,76.0,2.0,2.0,1.0,225.0,9.0,2.0,0.0,1.0,26.0,0.0,0.0,0.0,0.0,-105384.74675904664,-4798769.449293432,4191618.507292271,2.29972,3.00229,-0.132306,-83.25,11.75,11.25,0.0,0.0,0.0,0.0,0.0,0.0,2.0,0.0,41.32029383729732,-91.25805810877536,12000.00025472888,-79.88040652353757,-0.0033309832341734,-0.0020017321250891,12000,10000,150.0,True,22.235588584140043,False,17.908295639440958,175.2991523399889,False,False,False
1,1970-07-23 09:33:51.414100231,2025-09-08,2025-09-11 20:25:41.410,HA,A,828387560,HAWK11,1,1,73,2,1,1,225,2,1,0,0,12,1,225,2,1,-145212.92028983062,-4791059.206025924,4199772.653776646,2.25016,2.65964,-0.483683,-99.125,37.0,39.125,0.125,-6.67188,6.96875,0.03125,0.00195312,-0.0214844,4,0,41.4150113745597,-91.73605475847324,13264.43526571623,-52.81068835671111,1.0234101315701007,-8.633302522479,12000,10000,150,1.0,2025-09-08,2025-09-11 20:25:40.750,HA,A,4056474816.0,JASSM,3.0,135.0,76.0,2.0,2.0,1.0,225.0,9.0,2.0,0.0,1.0,26.0,0.0,0.0,0.0,0.0,-105472.36980592164,-4798757.159254369,4191630.294401646,2.29972,3.00219,-0.132306,-83.25,11.75,11.25,0.0,0.0,0.0,0.0,0.0,0.0,2.0,0.0,41.32043507128663,-91.2591070189682,12000.000719662969,-79.87747317640432,-0.0065907390899813,-0.0027270858883524,12000,10000,150.0,True,22.2285988137629,False,17.478016325763996,175.2652129859325,False,False,False
1,1970-07-23 09:33:51.414278507,2025-09-08,2025-09-11 20:25:41.427,HA,A,827910360,HAWK11,1,1,73,2,1,1,225,2,1,0,0,12,1,225,2,1,-145173.49060233062,-4791073.904268111,4199757.384245396,2.2515,2.64947,-0.489244,-98.75,37.125,39.5,0.234375,-6.65625,6.92188,0.00195312,-0.00390625,-0.0136719,4,0,41.41482799289773,-91.73557833435927,13264.504548353922,-52.215181446959456,0.9121305650173646,-8.818631033876608,12000,10000,150,1.0,2025-09-08,2025-09-11 20:25:40.750,HA,A,4056474816.0,JASSM,3.0,135.0,76.0,2.0,2.0,1.0,225.0,9.0,2.0,0.0,1.0,26.0,0.0,0.0,0.0,0.0,-105472.36980592164,-4798757.159254369,4191630.294401646,2.29972,3.00219,-0.132306,-83.25,11.75,11.25,0.0,0.0,0.0,0.0,0.0,0.0,2.0,0.0,41.32043507128663,-91.2591070189682,12000.000719662969,-79.87747317640432,-0.0065907390899813,-0.0027270858883524,12000,10000,150.0,True,22.2050333989857,False,17.731943458901053,175.27856295553062,False,False,False
1,1970-07-23 09:33:51.417077353,2025-09-08,2025-09-11 20:25:41.707,HA,A,828824992,HAWK11,1,1,73,2,1,1,225,2,1,0,0,12,1,225,2,1,-145249.40271170562,-4791045.543916549,4199786.833464146,2.25562,2.66702,-0.476876,-99.5,36.75,39.0,0.078125,-6.82812,7.03125,0.0449219,0.00390625,-0.0195312,4,0,41.41518176677228,-91.73649559617223,13264.330118996972,-53.35114401194837,0.9899927774605418,-8.134190906311419,12000,10000,150,1.0,2025-09-08,2025-09-11 20:25:40.750,HA,A,4056474816.0,JASSM,3.0,135.0,76.0,2.0,2.0,1.0,225.0,9.0,2.0,0.0,1.0,26.0,0.0,0.0,0.0,0.0,-105472.36980592164,-4798757.159254369,4191630.294401646,2.29972,3.00219,-0.132306,-83.25,11.75,11.25,0.0,0.0,0.0,0.0,0.0,0.0,2.0,0.0,41.32043507128663,-91.2591070189682,12000.000719662969,-79.87747317640432,-0.0065907390899813,-0.0027270858883524,12000,10000,150.0,True,22.250415936669302,False,17.2720037727952,175.2527804873181,False,False,False
1,1970-07-23 09:33:51.420978958,2025-09-08,2025-09-11 20:25:42.097,HA,A,829222658,HAWK11,1,1,73,2,1,1,225,2,1,0,0,12,1,225,2,1,-145283.36364920562,-4791032.831025924,4199799.851042271,2.27355,2.67258,-0.472945,-99.875,36.625,38.875,0.015625,-6.98438,7.10938,0.0722656,0.0117188,-0.015625,4,0,41.4153391225864,-91.7369059656292,13263.85006401836,-53.71243843398714,1.0169546171436303,-6.967553880457388,12000,10000,150,1.0,2025-09-08,2025-09-11 20:25:41.825,HA,A,4057730002.0,JASSM,3.0,135.0,76.0,2.0,2.0,1.0,225.0,9.0,2.0,0.0,1.0,26.0,0.0,0.0,0.0,0.0,-105560.13543092164,-4798744.846754369,4191642.101042271,2.29972,3.00219,-0.132306,-83.25,11.75,11.25,0.0,0.0,0.0,0.0,0.0,0.0,2.0,0.0,41.32057654250957,-91.26015764110883,11999.999980505092,-79.87816687114447,-0.0057891106522336,-0.0027276819321657,12000,10000,150.0,True,22.222722543280078,False,17.103533420907503,175.23101356238953,False,False,False
1,1970-07-23 09:33:51.424098995,2025-09-08,2025-09-11 20:25:42.409,HA,A,829540792,HAWK11,1,1,73,2,1,1,225,2,1,0,0,12,1,225,2,1,-145309.18005545562,-4791023.397432174,4199809.649870396,2.2841,2.68514,-0.473712,-100.0,36.5,38.5,-0.046875,-7.0625,7.14062,0.0683594,0.00390625,0.00195312,4,0,41.41545671527219,-91.73721783786652,13263.842238421288,-54.15179648947792,1.485603223404827,-6.044813035973513,12000,10000,150,1.0,2025-09-08,2025-09-11 20:25:41.825,HA,A,4057730002.0,JASSM,3.0,135.0,76.0,2.0,2.0,1.0,225.0,9.0,2.0,0.0,1.0,26.0,0.0,0.0,0.0,0.0,-105560.13543092164,-4798744.846754369,4191642.101042271,2.29972,3.00219,-0.132306,-83.25,11.75,11.25,0.0,0.0,0.0,0.0,0.0,0.0,2.0,0.0,41.32057654250957,-91.26015764110883,11999.999980505092,-79.87816687114447,-0.0057891106522336,-0.0027276819321657,12000,10000,150.0,True,22.238113673771025,False,16.911071842695407,175.22267257157836,False,False,False
1,1970-07-23 09:33:51.430976907,2025-09-08,2025-09-11 20:25:43.097,HA,A,830415658,HAWK11,1,1,73,2,1,1,225,2,1,0,0,12,1,225,2,1,-145383.13903983062,-4790996.245088424,4199837.685026646,2.33462,2.68466,-0.479465,-100.5,36.125,38.625,0.046875,-7.04688,7.14062,0.0722656,0.0117188,0.0136719,4,0,41.41579409912579,-91.73811134343843,13263.430688798764,-53.90934053458054,1.710399747634049,-3.1556171681050187,12000,10000,150,1.0,2025-09-08,2025-09-11 20:25:42.929,HA,A,4059039784.0,JASSM,3.0,135.0,76.0,2.0,2.0,1.0,225.0,9.0,2.0,0.0,1.0,26.0,0.0,0.0,0.0,0.0,-105651.71941529664,-4798731.999098119,4191654.419401646,2.29972,3.00219,-0.132306,-83.25,11.75,11.25,0.0,0.0,0.0,0.0,0.0,0.0,2.0,0.0,41.32072414219213,-91.26125397666182,12000.0006415822,-79.87889075118683,-0.0049526092799577,-0.0027282879338189,12000,10000,150.0,True,22.232150358165626,False,16.725165333509764,175.18781667357467,False,False,False
1,1970-07-23 09:33:51.431478087,2025-09-08,2025-09-11 20:25:43.147,HA,A,830017992,HAWK11,1,1,73,2,1,1,225,2,1,0,0,12,1,225,2,1,-145348.95349295562,-4791008.744111861,4199824.739714146,2.31046,2.68629,-0.475246,-100.25,36.25,38.625,-0.03125,-7.15625,7.23438,0.0742188,0.00195312,0.00390625,4,0,41.41563854826586,-91.73769836205663,13263.522636241463,-54.134868831540416,1.5902447300534732,-4.50354770336911,12000,10000,150,1.0,2025-09-08,2025-09-11 20:25:42.929,HA,A,4059039784.0,JASSM,3.0,135.0,76.0,2.0,2.0,1.0,225.0,9.0,2.0,0.0,1.0,26.0,0.0,0.0,0.0,0.0,-105651.71941529664,-4798731.999098119,4191654.419401646,2.29972,3.00219,-0.132306,-83.25,11.75,11.25,0.0,0.0,0.0,0.0,0.0,0.0,2.0,0.0,41.32072414219213,-91.26125397666182,12000.0006415822,-79.87889075118683,-0.0049526092799577,-0.0027282879338189,12000,10000,150.0,True,22.211769538021606,False,16.820489071750018,175.19880967195593,False,False,False
1,1970-07-23 09:33:51.434098396,2025-09-08,2025-09-11 20:25:43.409,HA,A,830773556,HAWK11,1,1,73,2,1,1,225,2,1,0,0,12,1,225,2,1,-145412.24450858062,-4790985.780244674,4199848.653776646,2.35188,2.68801,-0.484354,-100.5,36.0,38.5,-0.15625,-7.10938,7.0625,0.0625,0.00585938,0.0117188,4,0,41.41592512500713,-91.7384628919545,13263.673071663436,-53.84236155318135,2.0316174772680053,-2.07548829341932,12000,10000,150,1.0,2025-09-08,2025-09-11 20:25:42.929,HA,A,4059039784.0,JASSM,3.0,135.0,76.0,2.0,2.0,1.0,225.0,9.0,2.0,0.0,1.0,26.0,0.0,0.0,0.0,0.0,-105651.71941529664,-4798731.999098119,4191654.419401646,2.29972,3.00219,-0.132306,-83.25,11.75,11.25,0.0,0.0,0.0,0.0,0.0,0.0,2.0,0.0,41.32072414219213,-91.26125397666182,12000.0006415822,-79.87889075118683,-0.0049526092799577,-0.0027282879338189,12000,10000,150.0,True,22.249478726452857,False,16.646390303726925,175.17867003461862,False,False,False
1,1970-07-23 09:33:51.437078687,2025-09-08,2025-09-11 20:25:43.707,HA,A,831131456,HAWK11,1,1,73,2,1,1,225,2,1,0,0,12,1,225,2,1,-145442.43591483062,-4790974.788057174,4199860.028776646,2.37182,2.6861,-0.486847,-100.625,36.0,38.5,-0.015625,-7.10938,7.10938,0.0605469,0.0078125,0.00195312,4,0,41.41606183264816,-91.73882760803488,13263.58191236471,-53.67392457757282,2.069665250894194,-0.9781143472549612,12000,10000,150,1.0,2025-09-08,2025-09-11 20:25:42.929,HA,A,4059039784.0,JASSM,3.0,135.0,76.0,2.0,2.0,1.0,225.0,9.0,2.0,0.0,1.0,26.0,0.0,0.0,0.0,0.0,-105651.71941529664,-4798731.999098119,4191654.419401646,2.29972,3.00219,-0.132306,-83.25,11.75,11.25,0.0,0.0,0.0,0.0,0.0,0.0,2.0,0.0,41.32072414219213,-91.26125397666182,12000.0006415822,-79.87889075118683,-0.0049526092799577,-0.0027282879338189,12000,10000,150.0,True,22.267468667483406,False,16.61712643463869,175.1690911869481,False,False,False
1,1970-07-23 09:33:51.443019339,2025-09-08,2025-09-11 20:25:44.301,HA,A,831926790,HAWK11,1,1,73,2,1,1,225,2,1,0,0,12,1,225,2,1,-145509.37536795562,-4790950.394502486,4199885.536589146,2.40135,2.68466,-0.487614,-100.5,36.0,38.75,-0.125,-7.07812,6.9375,0.015625,0.0,0.0,4,0,41.4163670036121,-91.73963625871528,13263.951791243677,-53.59122261845511,2.052667605433779,0.6783279088719253,12000,10000,150,1.0,2025-09-08,2025-09-11 20:25:44.033,HA,A,4060351792.0,JASSM,3.0,135.0,76.0,2.0,2.0,1.0,225.0,9.0,2.0,0.0,1.0,26.0,0.0,0.0,0.0,0.0,-105743.45964967164,-4798719.128004369,4191666.7582688336,2.29972,3.00219,-0.132306,-83.25,11.75,11.25,0.0,0.0,0.0,0.0,0.0,0.0,2.0,0.0,41.32087198880311,-91.26235218801436,12000.000942700675,-79.8796158719027,-0.0041146795112515,-0.00272890037321,12000,10000,150.0,True,22.257239742591874,False,16.731306774812968,175.1365003924148,False,False,False
1,1970-07-23 09:33:51.443479292,2025-09-08,2025-09-11 20:25:44.347,HA,A,831449590,HAWK11,1,1,73,2,1,1,225,2,1,0,0,12,1,225,2,1,-145469.28943045562,-4790965.071260299,4199870.208464146,2.38764,2.68456,-0.48771,-100.625,35.875,38.625,-0.1875,-7.01562,6.875,0.0507812,-0.00585938,-0.00195312,4,0,41.41618348780752,-91.7391519814433,13263.784354686448,-53.583604521314086,2.052963819761745,-0.1095780172070719,12000,10000,150,1.0,2025-09-08,2025-09-11 20:25:44.033,HA,A,4060351792.0,JASSM,3.0,135.0,76.0,2.0,2.0,1.0,225.0,9.0,2.0,0.0,1.0,26.0,0.0,0.0,0.0,0.0,-105743.45964967164,-4798719.128004369,4191666.7582688336,2.29972,3.00219,-0.132306,-83.25,11.75,11.25,0.0,0.0,0.0,0.0,0.0,0.0,2.0,0.0,41.32087198880311,-91.26235218801436,12000.000942700675,-79.8796158719027,-0.0041146795112515,-0.00272890037321,12000,10000,150.0,True,22.233319011000987,False,16.623306630396048,175.14950046793487,False,False,False
1,1970-07-23 09:33:51.449095805,2025-09-08,2025-09-11 20:25:44.909,HA,A,832563056,HAWK11,1,1,73,2,1,1,225,2,1,0,0,12,1,225,2,1,-145563.69372733062,-4790930.603486861,4199906.188932896,2.39541,2.68159,-0.489723,-100.5,36.0,38.875,-0.328125,-7.17188,6.71875,-0.0292969,0.00390625,0.00390625,4,0,41.41661430147451,-91.74029244677864,13264.162051416735,-53.39561358723735,2.0355602820304823,0.2623129382521698,12000,10000,150,1.0,2025-09-08,2025-09-11 20:25:44.033,HA,A,4060351792.0,JASSM,3.0,135.0,76.0,2.0,2.0,1.0,225.0,9.0,2.0,0.0,1.0,26.0,0.0,0.0,0.0,0.0,-105743.45964967164,-4798719.128004369,4191666.7582688336,2.29972,3.00219,-0.132306,-83.25,11.75,11.25,0.0,0.0,0.0,0.0,0.0,0.0,2.0,0.0,41.32087198880311,-91.26235218801436,12000.000942700675,-79.8796158719027,-0.0041146795112515,-0.00272890037321,12000,10000,150.0,True,22.289632684701083,False,16.773866148654722,175.1191311462867,False,False,False
1,1970-07-23 09:33:51.449477154,2025-09-08,2025-09-11 20:25:44.947,HA,A,832165388,HAWK11,1,1,73,2,1,1,225,2,1,0,0,12,1,225,2,1,-145529.48864920562,-4790943.048799361,4199893.157682896,2.40241,2.68408,-0.487614,-100.5,36.0,38.875,-0.25,-7.1875,6.82812,-0.0078125,0.00195312,-0.00976562,4,0,41.41645850166435,-91.73987924113402,13263.929888421277,-53.57010002094843,2.032977109069904,0.72409739913074,12000,10000,150,1.0,2025-09-08,2025-09-11 20:25:44.033,HA,A,4060351792.0,JASSM,3.0,135.0,76.0,2.0,2.0,1.0,225.0,9.0,2.0,0.0,1.0,26.0,0.0,0.0,0.0,0.0,-105743.45964967164,-4798719.128004369,4191666.7582688336,2.29972,3.00219,-0.132306,-83.25,11.75,11.25,0.0,0.0,0.0,0.0,0.0,0.0,2.0,0.0,41.32087198880311,-91.26235218801436,12000.000942700675,-79.8796158719027,-0.0041146795112515,-0.00272890037321,12000,10000,150.0,True,22.269233257750045,False,16.773866148654722,175.13007719077177,False,False,False
1,1970-07-23 09:33:51.452078371,2025-09-08,2025-09-11 20:25:45.207,HA,A,832920954,HAWK11,1,1,73,2,1,1,225,2,1,0,0,12,1,225,2,1,-145593.18786795562,-4790919.756807174,4199917.356901646,2.38697,2.67747,-0.492695,-100.375,36.25,38.75,0.0,-7.28125,6.79688,-0.0292969,0.0,0.015625,4,0,41.41674886658162,-91.74064878663977,13263.93027929566,-53.12720159934186,2.0185107538057347,-0.3229537734576283,12000,10000,150,1.0,2025-09-08,2025-09-11 20:25:45.117,HA,A,4061664288.0,JASSM,3.0,135.0,76.0,2.0,2.0,1.0,225.0,9.0,2.0,0.0,1.0,26.0,0.0,0.0,0.0,0.0,-105835.23308717164,-4798706.251051244,4191679.1000657086,2.29982,3.00219,-0.132306,-83.25,11.75,11.25,0.0,0.0,0.0,0.0,0.0,0.0,2.0,0.0,41.32101987518905,-91.26345080211988,11999.99944448738,-79.88034126068453,-0.0032764468330439,0.0027619623369428,12000,10000,150.0,True,22.257062907828573,False,16.833260984184317,175.09851738033979,False,False,False
1,1970-07-23 09:33:51.455036775,2025-09-08,2025-09-11 20:25:45.503,HA,A,833318620,HAWK11,1,1,73,2,1,1,225,2,1,0,0,12,1,225,2,1,-145626.68396170562,-4790907.584932174,4199930.132292271,2.37825,2.67411,-0.49653,-100.375,36.25,38.625,-0.234375,-7.28125,6.5625,-0.0429688,-0.00585938,0.0078125,4,0,41.41690143839072,-91.7410534255344,13264.228003986404,-52.85378629419302,2.064743937244662,-0.9042795873507516,12000,10000,150,1.0,2025-09-08,2025-09-11 20:25:45.117,HA,A,4061664288.0,JASSM,3.0,135.0,76.0,2.0,2.0,1.0,225.0,9.0,2.0,0.0,1.0,26.0,0.0,0.0,0.0,0.0,-105835.23308717164,-4798706.251051244,4191679.1000657086,2.29982,3.00219,-0.132306,-83.25,11.75,11.25,0.0,0.0,0.0,0.0,0.0,0.0,2.0,0.0,41.32101987518905,-91.26345080211988,11999.99944448738,-79.88034126068453,-0.0032764468330439,0.0027619623369428,12000,10000,150.0,True,22.277041639506507,False,16.79102650950846,175.08781676637489,False,False,False
1,1970-07-23 09:33:51.458022774,2025-09-08,2025-09-11 20:25:45.802,HA,A,833716288,HAWK11,1,1,73,2,1,1,225,2,1,0,0,12,1,225,2,1,-145660.16247733062,-4790895.332002486,4199942.864714146,2.34172,2.67066,-0.49701,-100.25,36.0,38.75,0.140625,-7.20312,6.375,-0.146484,-0.00976562,0.00585938,4,0,41.41705420426706,-91.74145788572802,13264.23256104446,-52.70772338811737,1.967143981373888,-3.086207492239587,12000,10000,150,1.0,2025-09-08,2025-09-11 20:25:45.117,HA,A,4061664288.0,JASSM,3.0,135.0,76.0,2.0,2.0,1.0,225.0,9.0,2.0,0.0,1.0,26.0,0.0,0.0,0.0,0.0,-105835.23308717164,-4798706.251051244,4191679.1000657086,2.29982,3.00219,-0.132306,-83.25,11.75,11.25,0.0,0.0,0.0,0.0,0.0,0.0,2.0,0.0,41.32101987518905,-91.26345080211988,11999.99944448738,-79.88034126068453,-0.0032764468330439,0.0027619623369428,12000,10000,150.0,True,22.297016368855967,False,16.790117229600387,175.0771096345523,False,False,False
