Subject_ac,Timestamp,SampleDate_ac,SampleTime_ac,Configuration_ac,Scenario_ac,DisTime_ac,MarkingTxt_ac,Aplication_ac,EntId_ac,Site_ac,ExersiseId_ac,ForceId_ac,Category_ac,Country_ac,Domain_ac,Kind_ac,Extra_ac,Specific_ac,Subcategory_ac,AltCategory_ac,AltCountry_ac,AltDomain_ac,AltKind_ac,EcefX_ac,EcefY_ac,EcefZ_ac,OriPhi_ac,OriPsi_ac,OriTheta_ac,LinVelX_ac,LinVelY_ac,LinVelZ_ac,LinAccX_ac,LinAccY_ac,LinAccZ_ac,AngVelX_ac,AngVelY_ac,AngVelZ_ac,DrAlg_ac,Apperance_ac,Latitude_ac,Longitude_ac,Altitude_ac,Heading_ac,Pitch_ac,Roll_ac,CM_Altitude_Lead_ac,CM_Altitude_Wing_ac,CM_Airspeed_ac,Subject_cm,SampleDate_cm,SampleTime_cm,Configuration_cm,Scenario_cm,DisTime_cm,MarkingTxt_cm,Aplication_cm,EntId_cm,Site_cm,ExersiseId_cm,ForceId_cm,Category_cm,Country_cm,Domain_cm,Kind_cm,Extra_cm,Specific_cm,Subcategory_cm,AltCategory_cm,AltCountry_cm,AltDomain_cm,AltKind_cm,EcefX_cm,EcefY_cm,EcefZ_cm,OriPhi_cm,OriPsi_cm,OriTheta_cm,LinVelX_cm,LinVelY_cm,LinVelZ_cm,LinAccX_cm,LinAccY_cm,LinAccZ_cm,AngVelX_cm,AngVelY_cm,AngVelZ_cm,DrAlg_cm,Apperance_cm,Latitude_cm,Longitude_cm,Altitude_cm,Heading_cm,Pitch_cm,Roll_cm,CM_Altitude_Lead_cm,CM_Altitude_Wing_cm,CM_Airspeed_cm,Bank_Angle_Condition,distance_nm,Distance_Condition,angle_between_vel,angle_between_pos,Cone_Condition,Intercept_Criteria
1,1970-07-23 09:33:35.682972776,2025-09-08,2025-09-11 19:59:28.297,HH,A,3246728056,HAWK11,1,1,73,2,1,1,225,2,1,0,0,12,1,225,2,1,-141132.02185233062,-4794934.583955611,4195325.379362583,2.82722,2.65925,-0.485793,-95.375,44.625,48.0,0.015625,-9.125,7.35938,-0.0644531,0.0292969,0.0292969,4,0,41.36266691978821,-91.68593233943662,12852.252256008134,-52.68128916169685,1.0378500732183646,24.440452021605445,10000,12000,150,1.0,2025-09-08,2025-09-11 19:59:28.149,HH,A,2180349162.0,JASSM,3.0,112.0,76.0,2.0,2.0,1.0,225.0,9.0,2.0,0.0,1.0,26.0,0.0,0.0,0.0,0.0,-104333.63347779664,-4798916.811598119,4191477.043425084,2.29972,3.00238,-0.132498,-83.25,11.625,11.25,0.0,0.0,0.0,0.0,0.0,0.0,2.0,0.0,41.318598813244975,-91.24547590587568,12000.001917399446,-79.86753046237304,-0.0015535363311529,-0.0012697440123257,10000,12000,150.0,False,20.023625621256546,False,23.520739112565288,177.56157221073872,False,False
1,1970-07-23 09:33:35.683145354,2025-09-08,2025-09-11 19:59:28.314,HH,A,3240206330,HAWK11,1,1,73,2,1,1,225,2,1,0,0,12,1,225,2,1,-140560.44958670562,-4795145.279268111,4195118.300261021,2.53701,2.80268,-0.328368,-111.75,32.625,27.625,-0.1875,-8.20312,6.54688,0.212891,0.0117188,0.0214844,4,0,41.36011580380976,-91.67903464189123,12880.584794572103,-64.36498324124551,-0.1928807880779193,10.994107450229686,10000,12000,150,1.0,2025-09-08,2025-09-11 19:59:28.149,HH,A,2180349162.0,JASSM,3.0,112.0,76.0,2.0,2.0,1.0,225.0,9.0,2.0,0.0,1.0,26.0,0.0,0.0,0.0,0.0,-104333.63347779664,-4798916.811598119,4191477.043425084,2.29972,3.00238,-0.132498,-83.25,11.625,11.25,0.0,0.0,0.0,0.0,0.0,0.0,2.0,0.0,41.318598813244975,-91.24547590587568,12000.001917399446,-79.86753046237304,-0.0015535363311529,-0.0012697440123257,10000,12000,150.0,False,19.69561535887012,False,9.987218100427699,177.23744649845207,False,False
1,1970-07-23 09:33:35.683146155,2025-09-08,2025-09-11 19:59:28.314,HH,A,3246290624,HAWK11,1,1,73,2,1,1,225,2,1,0,0,12,1,225,2,1,-141096.51403983062,-4794951.357393111,4195307.493620396,2.83719,2.66424,-0.48004,-96.75,43.625,46.625,-0.140625,-9.125,7.70312,-0.0253906,0.0195312,0.015625,4,0,41.36245263587605,-91.68550252280858,12852.18823145348,-53.09026621613212,0.9654812769596272,25.13720541201809,10000,12000,150,1.0,2025-09-08,2025-09-11 19:59:28.149,HH,A,2180349162.0,JASSM,3.0,112.0,76.0,2.0,2.0,1.0,225.0,9.0,2.0,0.0,1.0,26.0,0.0,0.0,0.0,0.0,-104333.63347779664,-4798916.811598119,4191477.043425084,2.29972,3.00238,-0.132498,-83.25,11.625,11.25,0.0,0.0,0.0,0.0,0.0,0.0,2.0,0.0,41.318598813244975,-91.24547590587568,12000.001917399446,-79.86753046237304,-0.0015535363311529,-0.0012697440123257,10000,12000,150.0,False,20.002731249711005,False,22.446100720415195,177.5323833310326,False,False
1,1970-07-23 09:33:35.687973479,2025-09-08,2025-09-11 19:59:28.797,HH,A,3247245022,HAWK11,1,1,73,2,1,1,225,2,1,0,0,12,1,225,2,1,-141172.67224295562,-4794915.251924361,4195346.386198521,2.78485,2.64976,-0.496914,-94.0,45.25,49.25,0.0,-8.82812,7.23438,-0.123047,0.0175781,0.0253906,4,0,41.36291658920971,-91.68642445509548,12853.159080287553,-51.89789690163349,1.186456388776584,21.771120102938323,10000,12000,150,1.0,2025-09-08,2025-09-11 19:59:28.149,HH,A,2180349162.0,JASSM,3.0,112.0,76.0,2.0,2.0,1.0,225.0,9.0,2.0,0.0,1.0,26.0,0.0,0.0,0.0,0.0,-104333.63347779664,-4798916.811598119,4191477.043425084,2.29972,3.00238,-0.132498,-83.25,11.625,11.25,0.0,0.0,0.0,0.0,0.0,0.0,2.0,0.0,41.318598813244975,-91.24547590587568,12000.001917399446,-79.86753046237304,-0.0015535363311529,-0.0012697440123257,10000,12000,150.0,False,20.047589283922736,False,24.4616490109153,177.59561555355975,False,False
1,1970-07-23 09:33:35.692072174,2025-09-08,2025-09-11 19:59:29.207,HH,A,3247722222,HAWK11,1,1,73,2,1,1,225,2,1,0,0,12,1,225,2,1,-141210.62927420562,-4794896.747041549,4195366.706511021,2.74285,2.63567,-0.508035,-92.625,46.125,50.25,0.25,-8.82812,7.26562,-0.109375,0.0273438,0.0371094,4,0,41.36315717488491,-91.6868841277019,12854.419382485154,-50.94570789056184,1.186423114204449,18.99596491772225,10000,12000,150,1.0,2025-09-08,2025-09-11 19:59:28.149,HH,A,2180349162.0,JASSM,3.0,112.0,76.0,2.0,2.0,1.0,225.0,9.0,2.0,0.0,1.0,26.0,0.0,0.0,0.0,0.0,-104333.63347779664,-4798916.811598119,4191477.043425084,2.29972,3.00238,-0.132498,-83.25,11.625,11.25,0.0,0.0,0.0,0.0,0.0,0.0,2.0,0.0,41.318598813244975,-91.24547590587568,12000.001917399446,-79.86753046237304,-0.0015535363311529,-0.0012697440123257,10000,12000,150.0,False,20.070038461101493,False,25.397952395940024,177.6285679585051,False,False
1,1970-07-23 09:33:35.694992685,2025-09-08,2025-09-11 19:59:29.499,HH,A,3248159654,HAWK11,1,1,73,2,1,1,225,2,1,0,0,12,1,225,2,1,-141243.70935233062,-4794879.995088424,4195385.231901646,2.7139,2.62445,-0.518102,-91.5,46.5,51.125,-0.015625,-8.6875,7.0625,-0.0878906,0.0234375,0.0273438,4,0,41.363376070954615,-91.687284961155,12855.750175839856,-50.14403548481534,1.2450472457111408,17.038583779540435,10000,12000,150,1.0,2025-09-08,2025-09-11 19:59:29.239,HH,A,2181602312.0,JASSM,3.0,112.0,76.0,2.0,2.0,1.0,225.0,9.0,2.0,0.0,1.0,26.0,0.0,0.0,0.0,0.0,-104421.25847779664,-4798904.532301244,4191488.840300084,2.29972,3.00238,-0.132498,-83.25,11.625,11.25,0.0,0.0,0.0,0.0,0.0,0.0,2.0,0.0,41.31874016386709,-91.24652478222475,12000.001032942411,-79.86822297922443,-0.0007531978592102,-0.0012703089678825,10000,12000,150.0,False,20.041674860809735,False,26.096941693933886,177.65315583532052,False,False
1,1970-07-23 09:33:35.700051932,2025-09-08,2025-09-11 19:59:30.005,HH,A,3248756154,HAWK11,1,1,73,2,1,1,225,2,1,0,0,12,1,225,2,1,-141288.92419608062,-4794857.015596236,4195411.092253208,2.6745,2.61285,-0.530374,-90.375,46.625,52.375,0.078125,-8.375,7.0625,-0.078125,0.0078125,0.0273438,4,0,41.36367939445094,-91.6878328656094,12858.536949369322,-49.24758881578964,1.3926405877473205,14.468868471373588,10000,12000,150,1.0,2025-09-08,2025-09-11 19:59:29.239,HH,A,2181602312.0,JASSM,3.0,112.0,76.0,2.0,2.0,1.0,225.0,9.0,2.0,0.0,1.0,26.0,0.0,0.0,0.0,0.0,-104421.25847779664,-4798904.532301244,4191488.840300084,2.29972,3.00238,-0.132498,-83.25,11.625,11.25,0.0,0.0,0.0,0.0,0.0,0.0,2.0,0.0,41.31874016386709,-91.24652478222475,12000.001032942411,-79.86822297922443,-0.0007531978592102,-0.0012703089678825,10000,12000,150.0,False,20.068580969083765,False,26.852055768179863,177.69509544441263,False,False
1,1970-07-23 09:33:35.707993455,2025-09-08,2025-09-11 19:59:30.799,HH,A,3249670786,HAWK11,1,1,73,2,1,1,225,2,1,0,0,12,1,225,2,1,-141358.17810233062,-4794820.207002486,4195452.826628208,2.62685,2.607,-0.53488,-88.625,47.25,53.875,-0.328125,-8.0,6.375,-0.0625,-0.00585938,0.00585938,4,0,41.3641679105283,-91.68867264751977,12863.448911066438,-48.86077243910171,1.3978779397189895,11.578077873854614,10000,12000,150,1.0,2025-09-08,2025-09-11 19:59:30.337,HH,A,2182973860.0,JASSM,3.0,112.0,76.0,2.0,2.0,1.0,225.0,9.0,2.0,0.0,1.0,26.0,0.0,0.0,0.0,0.0,-104517.16082154664,-4798891.090894994,4191501.751432896,2.29972,3.00238,-0.132402,-83.25,11.75,11.25,0.0,0.0,0.0,0.0,0.0,0.0,2.0,0.0,41.31889486807643,-91.24767274461786,11999.999169692212,-79.87307813805646,-0.0035361916679299,-0.0012708170422585,10000,12000,150.0,False,20.057475396081458,False,27.957476745162158,177.6965962493352,False,False
1,1970-07-23 09:33:35.708333227,2025-09-08,2025-09-11 19:59:30.833,HH,A,3249114054,HAWK11,1,1,73,2,1,1,225,2,1,0,0,12,1,225,2,1,-141315.98083670562,-4794842.437471236,4195427.430143833,2.65618,2.61122,-0.533154,-89.5,47.25,53.0,0.0625,-8.28125,6.95312,-0.0703125,0.0136719,0.0136719,4,0,41.36387164754727,-91.68816102600128,12860.040580011258,-49.082252826990654,1.4597676909571062,13.37645555112791,10000,12000,150,1.0,2025-09-08,2025-09-11 19:59:30.337,HH,A,2182973860.0,JASSM,3.0,112.0,76.0,2.0,2.0,1.0,225.0,9.0,2.0,0.0,1.0,26.0,0.0,0.0,0.0,0.0,-104517.16082154664,-4798891.090894994,4191501.751432896,2.29972,3.00238,-0.132402,-83.25,11.75,11.25,0.0,0.0,0.0,0.0,0.0,0.0,2.0,0.0,41.31889486807643,-91.24767274461786,11999.999169692212,-79.87307813805646,-0.0035361916679299,-0.0012708170422585,10000,12000,150.0,False,20.032230580939625,False,27.416263597145388,177.65546198589527,False,False
1,1970-07-23 09:33:35.712031858,2025-09-08,2025-09-11 19:59:31.203,HH,A,3250147986,HAWK11,1,1,73,2,1,1,225,2,1,0,0,12,1,225,2,1,-141392.91833670562,-4794801.618135299,4195474.153776646,2.60508,2.60278,-0.535263,-87.875,47.625,54.25,0.265625,-7.60938,6.57812,-0.0527344,-0.00195312,0.0195312,4,0,41.36441634979047,-91.68909396050512,12866.457612111502,-48.68969858536696,1.2784261128430725,10.211914251341792,10000,12000,150,1.0,2025-09-08,2025-09-11 19:59:30.337,HH,A,2182973860.0,JASSM,3.0,112.0,76.0,2.0,2.0,1.0,225.0,9.0,2.0,0.0,1.0,26.0,0.0,0.0,0.0,0.0,-104517.16082154664,-4798891.090894994,4191501.751432896,2.29972,3.00238,-0.132402,-83.25,11.75,11.25,0.0,0.0,0.0,0.0,0.0,0.0,2.0,0.0,41.31889486807643,-91.24767274461786,11999.999169692212,-79.87307813805646,-0.0035361916679299,-0.0012708170422585,10000,12000,150.0,False,20.078308489881508,False,28.401496655523726,177.73112302697922,False,False
1,1970-07-23 09:33:35.715015945,2025-09-08,2025-09-11 19:59:31.501,HH,A,3250307052,HAWK11,1,1,73,2,1,1,225,2,1,0,0,12,1,225,2,1,-141405.02185233062,-4794794.465791549,4195481.895964146,2.60317,2.60096,-0.534305,-87.625,48.0,54.375,-0.40625,-7.54688,6.4375,-0.0625,-0.0078125,0.0117188,4,0,41.36450902954937,-91.68924098490368,12866.518356775883,-48.657919162287904,1.178236384284458,10.049533128501812,10000,12000,150,1.0,2025-09-08,2025-09-11 19:59:31.444,HH,A,2184226928.0,JASSM,3.0,112.0,76.0,2.0,2.0,1.0,225.0,9.0,2.0,0.0,1.0,26.0,0.0,0.0,0.0,0.0,-104604.77996217164,-4798878.810621557,4191513.546354771,2.29972,3.00229,-0.132402,-83.25,11.75,11.25,0.0,0.0,0.0,0.0,0.0,0.0,2.0,0.0,41.319036192032215,-91.24872156078868,11999.99990218905,-79.87014480766338,-0.0067959789160922,-0.0019967013133013,10000,12000,150.0,False,20.037609485054716,False,28.610835837893674,177.73894803942352,False,False
1,1970-07-23 09:33:35.717974556,2025-09-08,2025-09-11 19:59:31.797,HH,A,3250824018,HAWK11,1,1,73,2,1,1,225,2,1,0,0,12,1,225,2,1,-141442.29333670562,-4794774.009736861,4195505.268034458,2.57757,2.59377,-0.53766,-87.0,48.125,54.875,0.015625,-7.40625,6.39062,-0.0546875,-0.00585938,0.0195312,4,0,41.36478193198854,-91.6896931809219,12869.55029675518,-48.264374024658565,1.0927792251550017,8.380289832426941,10000,12000,150,1.0,2025-09-08,2025-09-11 19:59:31.444,HH,A,2184226928.0,JASSM,3.0,112.0,76.0,2.0,2.0,1.0,225.0,9.0,2.0,0.0,1.0,26.0,0.0,0.0,0.0,0.0,-104604.77996217164,-4798878.810621557,4191513.546354771,2.29972,3.00229,-0.132402,-83.25,11.75,11.25,0.0,0.0,0.0,0.0,0.0,0.0,2.0,0.0,41.319036192032215,-91.24872156078868,11999.99990218905,-79.87014480766338,-0.0067959789160922,-0.0019967013133013,10000,12000,150.0,True,20.060030922232244,False,28.993730154059154,177.77704058910874,False,False
1,1970-07-23 09:33:35.722033764,2025-09-08,2025-09-11 19:59:32.203,HH,A,3251340984,HAWK11,1,1,73,2,1,1,225,2,1,0,0,12,1,225,2,1,-141480.47888358062,-4794752.791963424,4195529.522917271,2.55523,2.58389,-0.5437,-86.375,48.375,55.125,0.0625,-7.3125,6.53125,-0.0546875,0.0078125,0.0253906,4,0,41.36506516207061,-91.6901565621932,12872.689129066395,-47.67100921644312,1.0407488594202123,6.820225019814575,10000,12000,150,1.0,2025-09-08,2025-09-11 19:59:31.444,HH,A,2184226928.0,JASSM,3.0,112.0,76.0,2.0,2.0,1.0,225.0,9.0,2.0,0.0,1.0,26.0,0.0,0.0,0.0,0.0,-104604.77996217164,-4798878.810621557,4191513.546354771,2.29972,3.00229,-0.132402,-83.25,11.75,11.25,0.0,0.0,0.0,0.0,0.0,0.0,2.0,0.0,41.319036192032215,-91.24872156078868,11999.99990218905,-79.87014480766338,-0.0067959789160922,-0.0019967013133013,10000,12000,150.0,True,20.083045807894734,False,29.332919866580365,177.8165733334773,False,False
1,1970-07-23 09:33:35.724994425,2025-09-08,2025-09-11 19:59:32.499,HH,A,3251500052,HAWK11,1,1,73,2,1,1,225,2,1,0,0,12,1,225,2,1,-141490.99255545562,-4794746.402314986,4195536.600065708,2.5535,2.58342,-0.545714,-86.125,48.875,55.125,-0.328125,-7.28125,6.35938,-0.0527344,-0.00195312,0.0117188,4,0,41.36514909440218,-91.69028433916868,12873.070612952226,-47.57841668326551,1.1134868701982834,6.708868466538193,10000,12000,150,1.0,2025-09-08,2025-09-11 19:59:31.444,HH,A,2184226928.0,JASSM,3.0,112.0,76.0,2.0,2.0,1.0,225.0,9.0,2.0,0.0,1.0,26.0,0.0,0.0,0.0,0.0,-104604.77996217164,-4798878.810621557,4191513.546354771,2.29972,3.00229,-0.132402,-83.25,11.75,11.25,0.0,0.0,0.0,0.0,0.0,0.0,2.0,0.0,41.319036192032215,-91.24872156078868,11999.99990218905,-79.87014480766338,-0.0067959789160922,-0.0019967013133013,10000,12000,150.0,True,20.089442038747798,False,29.535839133235946,177.8284620012365,False,False
1,1970-07-23 09:33:35.727972368,2025-09-08,2025-09-11 19:59:32.797,HH,A,3252056784,HAWK11,1,1,73,2,1,1,225,2,1,0,0,12,1,225,2,1,-141531.67614920562,-4794723.342744674,4195562.850065708,2.5372,2.57613,-0.549069,-85.625,48.875,55.5,-0.046875,-7.17188,6.39062,-0.0429688,-0.00390625,0.00585938,4,0,41.36545630558367,-91.6907781995984,12876.185251039107,-47.1824372792771,1.0300340783876265,5.565181304552757,10000,12000,150,1.0,2025-09-08,2025-09-11 19:59:32.547,HH,A,2185598958.0,JASSM,3.0,112.0,76.0,2.0,2.0,1.0,225.0,9.0,2.0,0.0,1.0,26.0,0.0,0.0,0.0,0.0,-104700.71746217164,-4798865.363355932,4191526.460417271,2.29972,3.00229,-0.132402,-83.25,11.75,11.25,0.0,0.0,0.0,0.0,0.0,0.0,2.0,0.0,41.31919092437487,-91.24986995464177,12000.001217618064,-79.87090303721745,-0.0059197152692124,-0.0019973322113428,10000,12000,150.0,True,20.061445631467667,False,29.81248855477073,177.86593536277465,False,False
1,1970-07-23 09:33:35.732031387,2025-09-08,2025-09-11 19:59:33.203,HH,A,3252533984,HAWK11,1,1,73,2,1,1,225,2,1,0,0,12,1,225,2,1,-141565.33239920562,-4794704.095674361,4195584.745573521,2.52388,2.57373,-0.549261,-85.25,49.25,55.5,0.0,-7.14062,6.3125,-0.03125,-0.00390625,0.00390625,4,0,41.3657126778568,-91.69118681825329,12878.73273470938,-47.08608577436173,0.9632877273507692,4.731654078922059,10000,12000,150,1.0,2025-09-08,2025-09-11 19:59:32.547,HH,A,2185598958.0,JASSM,3.0,112.0,76.0,2.0,2.0,1.0,225.0,9.0,2.0,0.0,1.0,26.0,0.0,0.0,0.0,0.0,-104700.71746217164,-4798865.363355932,4191526.460417271,2.29972,3.00229,-0.132402,-83.25,11.75,11.25,0.0,0.0,0.0,0.0,0.0,0.0,2.0,0.0,41.31919092437487,-91.24986995464177,12000.001217618064,-79.87090303721745,-0.0059197152692124,-0.0019973322113428,10000,12000,150.0,True,20.081814391429564,False,30.0273800631711,177.9018025106246,False,False
1,1970-07-23 09:33:35.736091170,2025-09-08,2025-09-11 19:59:33.609,HH,A,3253050950,HAWK11,1,1,73,2,1,1,225,2,1,0,0,12,1,225,2,1,-141602.50036795562,-4794682.296846236,4195609.220182896,2.5072,2.57421,-0.548878,-84.875,49.625,55.625,-0.0625,-6.92188,6.23438,-0.046875,-0.00390625,-0.0078125,4,0,41.36600101807535,-91.69163826774675,12880.84808322761,-47.11846685238904,0.9620359608946752,3.789654735476555,10000,12000,150,1.0,2025-09-08,2025-09-11 19:59:32.547,HH,A,2185598958.0,JASSM,3.0,112.0,76.0,2.0,2.0,1.0,225.0,9.0,2.0,0.0,1.0,26.0,0.0,0.0,0.0,0.0,-104700.71746217164,-4798865.363355932,4191526.460417271,2.29972,3.00229,-0.132402,-83.25,11.75,11.25,0.0,0.0,0.0,0.0,0.0,0.0,2.0,0.0,41.31919092437487,-91.24986995464177,12000.001217618064,-79.87090303721745,-0.0059197152692124,-0.0019973322113428,10000,12000,150.0,True,20.104370182694815,False,30.280184634774564,177.94222580159433,False,False
1,1970-07-23 09:33:35.741093486,2025-09-08,2025-09-11 19:59:34.109,HH,A,3253567916,HAWK11,1,1,73,2,1,1,225,2,1,0,0,12,1,225,2,1,-141638.68200858062,-4794661.105439986,4195632.987761021,2.48677,2.56769,-0.546864,-84.625,49.75,55.625,0.125,-6.64062,5.96875,-0.0683594,-0.00585938,0.0078125,4,0,41.366281144126845,-91.69207773063604,12882.854974553606,-46.9488457554327,0.6690165812753777,2.4274930183120764,10000,12000,150,1.0,2025-09-08,2025-09-11 19:59:32.547,HH,A,2185598958.0,JASSM,3.0,112.0,76.0,2.0,2.0,1.0,225.0,9.0,2.0,0.0,1.0,26.0,0.0,0.0,0.0,0.0,-104700.71746217164,-4798865.363355932,4191526.460417271,2.29972,3.00229,-0.132402,-83.25,11.75,11.25,0.0,0.0,0.0,0.0,0.0,0.0,2.0,0.0,41.31919092437487,-91.24986995464177,12000.001217618064,-79.87090303721745,-0.0059197152692124,-0.0019973322113428,10000,12000,150.0,True,20.126332138633238,False,30.394280605120002,177.98138470925116,False,False
1,1970-07-23 09:33:35.749071322,2025-09-08,2025-09-11 19:59:34.907,HH,A,3254562082,HAWK11,1,1,73,2,1,1,225,2,1,0,0,12,1,225,2,1,-141708.77966483062,-4794619.162080611,4195679.129362583,2.44459,2.55858,-0.544084,-84.25,50.75,55.25,-0.09375,-6.53125,5.9375,-0.0664062,-0.0175781,0.00976562,4,0,41.36682976566902,-91.69292946176628,12884.767551416946,-46.70870238303064,0.2618549964491851,-0.2582650093179181,10000,12000,150,1.0,2025-09-08,2025-09-11 19:59:34.722,HH,A,2188223268.0,JASSM,3.0,112.0,76.0,2.0,2.0,1.0,225.0,9.0,2.0,0.0,1.0,26.0,0.0,0.0,0.0,0.0,-104884.21746217164,-4798839.638746557,4191551.157682896,2.29972,3.00229,-0.132402,-83.25,11.75,11.25,0.0,0.0,0.0,0.0,0.0,0.0,2.0,0.0,41.31948684946459,-91.25206650784584,11999.999999342375,-79.87235332279107,-0.0042436819680766,-0.0019985385845729,10000,12000,150.0,True,20.06838406516027,False,30.65667614456228,178.04863784080638,False,False
1,1970-07-23 09:33:35.752971820,2025-09-08,2025-09-11 19:59:35.297,HH,A,3255039280,HAWK11,1,1,73,2,1,1,225,2,1,0,0,12,1,225,2,1,-141743.07849295562,-4794598.476533736,4195701.547331333,2.42292,2.55676,-0.544755,-84.25,50.875,55.125,0.015625,-6.65625,6.09375,-0.0351562,0.00390625,0.0,4,0,41.36709809617964,-91.69334627691649,12884.959687153803,-46.6156934277974,0.2348967807051614,-1.553356401617816,10000,12000,150,1.0,2025-09-08,2025-09-11 19:59:34.722,HH,A,2188223268.0,JASSM,3.0,112.0,76.0,2.0,2.0,1.0,225.0,9.0,2.0,0.0,1.0,26.0,0.0,0.0,0.0,0.0,-104884.21746217164,-4798839.638746557,4191551.157682896,2.29972,3.00229,-0.132402,-83.25,11.75,11.25,0.0,0.0,0.0,0.0,0.0,0.0,2.0,0.0,41.31948684946459,-91.25206650784584,11999.999999342375,-79.87235332279107,-0.0042436819680766,-0.0019985385845729,10000,12000,150.0,True,20.08926087559401,False,30.65178770038272,178.08625031226399,False,False
1,1970-07-23 09:33:35.756092380,2025-09-08,2025-09-11 19:59:35.609,HH,A,3255118814,HAWK11,1,1,73,2,1,1,225,2,1,0,0,12,1,225,2,1,-141747.55700858062,-4794595.111299361,4195705.012175083,2.42474,2.55878,-0.545522,-84.0,51.0,55.25,0.046875,-6.75,6.34375,-0.03125,0.00585938,0.0,4,0,41.367140712370535,-91.69340093662254,12884.51578701396,-46.663632509537294,0.3317369408336253,-1.38939777342778,10000,12000,150,1.0,2025-09-08,2025-09-11 19:59:34.722,HH,A,2188223268.0,JASSM,3.0,112.0,76.0,2.0,2.0,1.0,225.0,9.0,2.0,0.0,1.0,26.0,0.0,0.0,0.0,0.0,-104884.21746217164,-4798839.638746557,4191551.157682896,2.29972,3.00229,-0.132402,-83.25,11.75,11.25,0.0,0.0,0.0,0.0,0.0,0.0,2.0,0.0,41.31948684946459,-91.25206650784584,11999.999999342375,-79.87235332279107,-0.0042436819680766,-0.0019985385845729,10000,12000,150.0,True,20.092062659461753,False,30.80320032395104,178.0924490133801,False,False
1,1970-07-23 09:33:35.759070546,2025-09-08,2025-09-11 19:59:35.907,HH,A,3255635780,HAWK11,1,1,73,2,1,1,225,2,1,0,0,12,1,225,2,1,-141784.58435233062,-4794572.603486861,4195729.252409458,2.43472,2.5582,-0.546001,-84.0,51.25,55.125,-0.140625,-6.8125,6.28125,0.0410156,-0.00585938,-0.00585938,4,0,41.36743170000542,-91.6938509767222,12884.374013515537,-46.62470798242691,0.3353365627850162,-0.8349682892488562,10000,12000,150,1.0,2025-09-08,2025-09-11 19:59:35.837,HH,A,2189476314.0,JASSM,3.0,112.0,76.0,2.0,2.0,1.0,225.0,9.0,2.0,0.0,1.0,26.0,0.0,0.0,0.0,0.0,-104971.83464967164,-4798827.354566869,4191562.949675084,2.29972,3.00229,-0.132402,-83.25,11.75,11.25,0.0,0.0,0.0,0.0,0.0,0.0,2.0,0.0,41.3196281370277,-91.25311532070594,12000.001792700605,-79.87304580990484,-0.0034434121402584,-0.001999119103334,10000,12000,150.0,True,20.066594765438044,False,30.829734105862517,178.12885406544564,False,False
1,1970-07-23 09:33:35.762029304,2025-09-08,2025-09-11 19:59:36.202,HH,A,3256112980,HAWK11,1,1,73,2,1,1,225,2,1,0,0,12,1,225,2,1,-141817.70544608062,-4794552.445283736,4195750.903776646,2.42273,2.55494,-0.541112,-84.125,51.5,54.875,-0.125,-6.59375,6.07812,-0.0820312,-0.0117188,-0.0136719,4,0,41.3676919224435,-91.6942535514202,12884.118489667526,-46.68048257536796,0.0180021151529802,-1.6183657896853347,10000,12000,150,1.0,2025-09-08,2025-09-11 19:59:35.837,HH,A,2189476314.0,JASSM,3.0,112.0,76.0,2.0,2.0,1.0,225.0,9.0,2.0,0.0,1.0,26.0,0.0,0.0,0.0,0.0,-104971.83464967164,-4798827.354566869,4191562.949675084,2.29972,3.00229,-0.132402,-83.25,11.75,11.25,0.0,0.0,0.0,0.0,0.0,0.0,2.0,0.0,41.3196281370277,-91.25311532070594,12000.001792700605,-79.87304580990484,-0.0034434121402584,-0.001999119103334,10000,12000,150.0,True,20.086785236354757,False,30.779101448637938,178.16528816654372,False,False
1,1970-07-23 09:33:35.764992008,2025-09-08,2025-09-11 19:59:36.499,HH,A,3256470880,HAWK11,1,1,73,2,1,1,225,2,1,0,0,12,1,225,2,1,-141842.11364920562,-4794536.718721236,4195767.518034458,2.40317,2.55667,-0.538427,-83.875,51.875,54.75,0.078125,-6.46875,5.90625,-0.0644531,-0.0136719,-0.0078125,4,0,41.36789331550759,-91.69455053393594,12883.214557942283,-46.84406690965074,-0.0461600840555904,-2.688106399575397,10000,12000,150,1.0,2025-09-08,2025-09-11 19:59:35.837,HH,A,2189476314.0,JASSM,3.0,112.0,76.0,2.0,2.0,1.0,225.0,9.0,2.0,0.0,1.0,26.0,0.0,0.0,0.0,0.0,-104971.83464967164,-4798827.354566869,4191562.949675084,2.29972,3.00229,-0.132402,-83.25,11.75,11.25,0.0,0.0,0.0,0.0,0.0,0.0,2.0,0.0,41.3196281370277,-91.25311532070594,12000.001792700605,-79.87304580990484,-0.0034434121402584,-0.001999119103334,10000,12000,150.0,True,20.101766632246793,False,30.923232160581986,178.1937345013373,False,False
1,1970-07-23 09:33:35.771100855,2025-09-08,2025-09-11 19:59:37.110,HH,A,3257186678,HAWK11,1,1,73,2,1,1,225,2,1,0,0,12,1,225,2,1,-141893.38122733062,-4794504.970674361,4195800.755339146,2.37211,2.55283,-0.539098,-84.0,52.125,54.375,0.109375,-6.76562,6.25,-0.0292969,-0.00390625,0.0078125,4,0,41.36829748065559,-91.69517387536028,12880.880174621523,-46.67459220545504,-0.1360275192183656,-4.580870342554979,10000,12000,150,1.0,2025-09-08,2025-09-11 19:59:35.837,HH,A,2189476314.0,JASSM,3.0,112.0,76.0,2.0,2.0,1.0,225.0,9.0,2.0,0.0,1.0,26.0,0.0,0.0,0.0,0.0,-104971.83464967164,-4798827.354566869,4191562.949675084,2.29972,3.00229,-0.132402,-83.25,11.75,11.25,0.0,0.0,0.0,0.0,0.0,0.0,2.0,0.0,41.3196281370277,-91.25311532070594,12000.001792700605,-79.87304580990484,-0.0034434121402584,-0.001999119103334,10000,12000,150.0,True,20.13306619494834,False,30.839602994153058,178.2502256325473,False,False
1,1970-07-23 09:33:35.771514880,2025-09-08,2025-09-11 19:59:37.151,HH,A,3254084882,HAWK11,1,1,73,2,1,1,225,2,1,0,0,12,1,225,2,1,-141675.59411795562,-4794639.044893111,4195657.369596958,2.46549,2.5629,-0.546289,-84.25,50.25,55.5,0.109375,-6.60938,6.10938,-0.046875,0.00195312,0.00390625,4,0,41.36657045484765,-91.69252622530352,12884.108913941727,-46.79018232478623,0.4937259563309014,1.0668718007693443,10000,12000,150,1.0,2025-09-08,2025-09-11 19:59:37.113,HH,A,2190731580.0,JASSM,3.0,112.0,76.0,2.0,2.0,1.0,225.0,9.0,2.0,0.0,1.0,26.0,0.0,0.0,0.0,0.0,-105059.60613404664,-4798815.046949682,4191574.761198521,2.29972,3.00229,-0.132402,-83.25,11.75,11.25,0.0,0.0,0.0,0.0,0.0,0.0,2.0,0.0,41.31976966619195,-91.2541659855746,12000.000569606362,-79.87373952177764,-0.0026417322638227,-0.0019997028824836,10000,12000,150.0,True,19.952058903718065,False,30.605878518501992,178.00294934516728,False,False
1,1970-07-23 09:33:35.771522375,2025-09-08,2025-09-11 19:59:37.152,HH,A,3256828778,HAWK11,1,1,73,2,1,1,225,2,1,0,0,12,1,225,2,1,-141868.15466483062,-4794520.605439986,4195784.433073521,2.38496,2.55456,-0.53766,-83.875,52.0,54.5,0.0,-6.64062,5.9375,-0.0546875,0.00195312,0.0,4,0,41.3680987506813,-91.69486715040183,12882.130525695153,-46.792315657723535,-0.145840333091359,-3.793813398332525,10000,12000,150,1.0,2025-09-08,2025-09-11 19:59:37.113,HH,A,2190731580.0,JASSM,3.0,112.0,76.0,2.0,2.0,1.0,225.0,9.0,2.0,0.0,1.0,26.0,0.0,0.0,0.0,0.0,-105059.60613404664,-4798815.046949682,4191574.761198521,2.29972,3.00229,-0.132402,-83.25,11.75,11.25,0.0,0.0,0.0,0.0,0.0,0.0,2.0,0.0,41.31976966619195,-91.2541659855746,12000.000569606362,-79.87373952177764,-0.0026417322638227,-0.0019997028824836,10000,12000,150.0,True,20.069545327066578,False,30.884978539194133,178.2183504397095,False,False
1,1970-07-23 09:33:35.774218308,2025-09-08,2025-09-11 19:59:37.421,HH,A,3257385512,HAWK11,1,1,73,2,1,1,225,2,1,0,0,12,1,225,2,1,-141906.57263358062,-4794496.780244674,4195809.241667271,2.36617,2.55341,-0.539578,-84.125,52.125,54.375,0.0,-6.78125,6.20312,-0.0332031,0.0,0.0,4,0,41.3684011572954,-91.69533427311788,12880.084343585677,-46.67904012015338,-0.0966824680723999,-4.904506424303227,10000,12000,150,1.0,2025-09-08,2025-09-11 19:59:37.113,HH,A,2190731580.0,JASSM,3.0,112.0,76.0,2.0,2.0,1.0,225.0,9.0,2.0,0.0,1.0,26.0,0.0,0.0,0.0,0.0,-105059.60613404664,-4798815.046949682,4191574.761198521,2.29972,3.00229,-0.132402,-83.25,11.75,11.25,0.0,0.0,0.0,0.0,0.0,0.0,2.0,0.0,41.31976966619195,-91.2541659855746,12000.000569606362,-79.87373952177764,-0.0026417322638227,-0.0019997028824836,10000,12000,150.0,True,20.093001147094327,False,30.79726469020232,178.26067586677607,False,False
1,1970-07-23 09:33:35.777030967,2025-09-08,2025-09-11 19:59:37.703,HH,A,3257942244,HAWK11,1,1,73,2,1,1,225,2,1,0,0,12,1,225,2,1,-141946.08239920562,-4794472.197236861,4195834.835417271,2.35111,2.55772,-0.539482,-84.25,52.25,54.0,-0.25,-6.92188,6.23438,-0.0273438,-0.00976562,-0.00585938,4,0,41.36871317700499,-91.69581470409692,12877.95649312786,-46.84630151415527,0.0347117433718347,-5.6398231965216565,10000,12000,150,1.0,2025-09-08,2025-09-11 19:59:37.113,HH,A,2190731580.0,JASSM,3.0,112.0,76.0,2.0,2.0,1.0,225.0,9.0,2.0,0.0,1.0,26.0,0.0,0.0,0.0,0.0,-105059.60613404664,-4798815.046949682,4191574.761198521,2.29972,3.00229,-0.132402,-83.25,11.75,11.25,0.0,0.0,0.0,0.0,0.0,0.0,2.0,0.0,41.31976966619195,-91.2541659855746,12000.000569606362,-79.87373952177764,-0.0026417322638227,-0.0019997028824836,10000,12000,150.0,True,20.117145475519415,False,30.682912989236556,178.30425909325598,False,False
1,1970-07-23 09:33:35.784994134,2025-09-08,2025-09-11 19:59:38.499,HH,A,3258578510,HAWK11,1,1,73,2,1,1,225,2,1,0,0,12,1,225,2,1,-141990.61755545562,-4794444.754854049,4195863.211393833,2.3283,2.56606,-0.538811,-84.625,51.875,53.875,0.09375,-7.5,6.98438,-0.0234375,0.0195312,-0.0136719,4,0,41.36906009642041,-91.69635615389312,12875.191979534737,-47.18645610793567,0.2680599809460139,-6.70272401101268,10000,12000,150,1.0,2025-09-08,2025-09-11 19:59:37.946,HH,A,2192041018.0,JASSM,3.0,112.0,76.0,2.0,2.0,1.0,225.0,9.0,2.0,0.0,1.0,26.0,0.0,0.0,0.0,0.0,-105151.16668092164,-4798802.208082494,4191587.081511021,2.29972,3.00229,-0.132402,-83.25,11.75,11.25,0.0,0.0,0.0,0.0,0.0,0.0,2.0,0.0,41.319917287003925,-91.25526201208407,12000.001424137628,-79.8744631862086,-0.0018054455846397,-0.0020003040590185,10000,12000,150.0,True,20.094129720917007,False,30.42503659893808,178.34850924392344,False,False
1,1970-07-23 09:33:35.785142722,2025-09-08,2025-09-11 19:59:38.514,HH,A,3258498978,HAWK11,1,1,73,2,1,1,225,2,1,0,0,12,1,225,2,1,-141985.81286795562,-4794447.708955611,4195860.166471958,2.33108,2.56414,-0.538715,-84.625,52.125,53.75,-0.21875,-7.5,7.0,-0.0234375,0.0078125,-0.015625,4,0,41.36902281878687,-91.6962977414583,12875.509699235969,-47.11756545099127,0.2033403213363321,-6.599500634140192,10000,12000,150,1.0,2025-09-08,2025-09-11 19:59:37.946,HH,A,2192041018.0,JASSM,3.0,112.0,76.0,2.0,2.0,1.0,225.0,9.0,2.0,0.0,1.0,26.0,0.0,0.0,0.0,0.0,-105151.16668092164,-4798802.208082494,4191587.081511021,2.29972,3.00229,-0.132402,-83.25,11.75,11.25,0.0,0.0,0.0,0.0,0.0,0.0,2.0,0.0,41.319917287003925,-91.25526201208407,12000.001424137628,-79.8744631862086,-0.0018054455846397,-0.0020003040590185,10000,12000,150.0,True,20.091197908141996,False,30.45489702424203,178.3433244290206,False,False
1,1970-07-23 09:33:35.787972469,2025-09-08,2025-09-11 19:59:38.797,HH,A,3259175010,HAWK11,1,1,73,2,1,1,225,2,1,0,0,12,1,225,2,1,-142033.55896170562,-4794418.568330611,4195890.741667271,2.30318,2.58773,-0.547631,-84.875,51.125,54.0,-0.140625,-8.42188,7.875,-0.0253906,0.03125,-0.00585938,4,0,41.36939411736097,-91.6968781359206,12873.570074078392,-47.67213288563178,1.3406308173076646,-7.506993426465677,10000,12000,150,1.0,2025-09-08,2025-09-11 19:59:37.946,HH,A,2192041018.0,JASSM,3.0,112.0,76.0,2.0,2.0,1.0,225.0,9.0,2.0,0.0,1.0,26.0,0.0,0.0,0.0,0.0,-105151.16668092164,-4798802.208082494,4191587.081511021,2.29972,3.00229,-0.132402,-83.25,11.75,11.25,0.0,0.0,0.0,0.0,0.0,0.0,2.0,0.0,41.319917287003925,-91.25526201208407,12000.001424137628,-79.8744631862086,-0.0018054455846397,-0.0020003040590185,10000,12000,150.0,True,20.120344176839172,False,30.18379677017195,178.39482465503448,False,False
1,1970-07-23 09:33:35.791091472,2025-09-08,2025-09-11 19:59:39.109,HH,A,3259572676,HAWK11,1,1,73,2,1,1,225,2,1,0,0,12,1,225,2,1,-142061.97302420562,-4794401.644502486,4195908.786589146,2.29062,2.59272,-0.549069,-85.25,50.625,54.125,0.0625,-8.32812,7.84375,-0.0253906,0.00195312,0.0,4,0,41.36961157679478,-91.69722338837175,12873.118879950076,-47.803854641632896,1.5621804880703938,-8.081007111777732,10000,12000,150,1.0,2025-09-08,2025-09-11 19:59:39.045,HH,A,2193353370.0,JASSM,3.0,112.0,76.0,2.0,2.0,1.0,225.0,9.0,2.0,0.0,1.0,26.0,0.0,0.0,0.0,0.0,-105242.93035279664,-4798789.338941869,4191599.4281907086,2.29972,3.00229,-0.132402,-83.25,11.75,11.25,0.0,0.0,0.0,0.0,0.0,0.0,2.0,0.0,41.320065228948735,-91.25636047553454,12000.000260042429,-79.87518846179516,-0.000967302574462,-0.0020009105173081,10000,12000,150.0,True,20.08734727110649,False,29.967048223405417,178.42096036486356,False,False
1,1970-07-23 09:33:35.794049394,2025-09-08,2025-09-11 19:59:39.404,HH,A,3259771510,HAWK11,1,1,73,2,1,1,225,2,1,0,0,12,1,225,2,1,-142075.37536795562,-4794393.821260299,4195917.336393833,2.28784,2.59367,-0.548302,-85.375,50.25,54.25,0.0,-8.20312,7.73438,-0.00585938,0.00390625,-0.00390625,4,0,41.36971345934448,-91.6973861814398,12873.381792767408,-47.86817246830333,1.5595723262246797,-8.213408183388466,10000,12000,150,1.0,2025-09-08,2025-09-11 19:59:39.045,HH,A,2193353370.0,JASSM,3.0,112.0,76.0,2.0,2.0,1.0,225.0,9.0,2.0,0.0,1.0,26.0,0.0,0.0,0.0,0.0,-105242.93035279664,-4798789.338941869,4191599.4281907086,2.29972,3.00229,-0.132402,-83.25,11.75,11.25,0.0,0.0,0.0,0.0,0.0,0.0,2.0,0.0,41.320065228948735,-91.25636047553454,12000.000260042429,-79.87518846179516,-0.000967302574462,-0.0020009105173081,10000,12000,150.0,True,20.095507554918697,False,29.866722407052695,178.43494402935715,False,False
1,1970-07-23 09:33:35.797030400,2025-09-08,2025-09-11 19:59:39.703,HH,A,3260248708,HAWK11,1,1,73,2,1,1,225,2,1,0,0,12,1,225,2,1,-142110.10778983062,-4794373.392549361,4195939.637175083,2.2934,2.5954,-0.545043,-85.625,49.75,54.125,0.015625,-7.48438,6.98438,0.03125,-0.00390625,-0.00390625,4,0,41.36997937912292,-91.69780811976116,12873.995145655696,-48.05438212185732,1.4735548097612032,-7.848314096052192,10000,12000,150,1.0,2025-09-08,2025-09-11 19:59:39.045,HH,A,2193353370.0,JASSM,3.0,112.0,76.0,2.0,2.0,1.0,225.0,9.0,2.0,0.0,1.0,26.0,0.0,0.0,0.0,0.0,-105242.93035279664,-4798789.338941869,4191599.4281907086,2.29972,3.00229,-0.132402,-83.25,11.75,11.25,0.0,0.0,0.0,0.0,0.0,0.0,2.0,0.0,41.320065228948735,-91.25636047553454,12000.000260042429,-79.87518846179516,-0.000967302574462,-0.0020009105173081,10000,12000,150.0,True,20.116680188985498,False,29.621751304788592,178.47143399486833,False,False
1,1970-07-23 09:33:35.800070276,2025-09-08,2025-09-11 19:59:40.007,HH,A,3260527076,HAWK11,1,1,73,2,1,1,225,2,1,0,0,12,1,225,2,1,-142130.15271170562,-4794361.814424361,4195952.261198521,2.30164,2.59569,-0.542646,-85.875,49.625,54.0,0.09375,-7.375,6.96875,0.0429688,0.00195312,-0.00976562,4,0,41.370129924949175,-91.698051557175,12874.336754316448,-48.15491133950306,1.3789687429771302,-7.369854089281729,10000,12000,150,1.0,2025-09-08,2025-09-11 19:59:39.045,HH,A,2193353370.0,JASSM,3.0,112.0,76.0,2.0,2.0,1.0,225.0,9.0,2.0,0.0,1.0,26.0,0.0,0.0,0.0,0.0,-105242.93035279664,-4798789.338941869,4191599.4281907086,2.29972,3.00229,-0.132402,-83.25,11.75,11.25,0.0,0.0,0.0,0.0,0.0,0.0,2.0,0.0,41.320065228948735,-91.25636047553454,12000.000260042429,-79.87518846179516,-0.000967302574462,-0.0020009105173081,10000,12000,150.0,True,20.12887377924274,False,29.47127765662786,178.49196554876434,False,False
1,1970-07-23 09:33:35.802972372,2025-09-08,2025-09-11 19:59:40.297,HH,A,3261004274,HAWK11,1,1,73,2,1,1,225,2,1,0,0,12,1,225,2,1,-142163.74450858062,-4794342.541963424,4195973.303190708,2.31171,2.59991,-0.538907,-86.125,49.375,53.75,-0.171875,-7.28125,6.67188,0.0273438,0.00195312,-0.0234375,4,0,41.370380669187256,-91.6984594721782,12874.98461313806,-48.45210898377999,1.3526588468891143,-6.67570871392552,10000,12000,150,1.0,2025-09-08,2025-09-11 19:59:40.149,HH,A,2194665720.0,JASSM,3.0,112.0,76.0,2.0,2.0,1.0,225.0,9.0,2.0,0.0,1.0,26.0,0.0,0.0,0.0,0.0,-105334.69402467164,-4798776.469801244,4191611.7738938336,2.29972,3.00229,-0.132402,-83.25,11.75,11.25,0.0,0.0,0.0,0.0,0.0,0.0,2.0,0.0,41.32021315380688,-91.25745894395293,12000.001466936304,-79.87591374280083,-0.0001291607461318,-0.0020015104379564,10000,12000,150.0,True,20.098983443192903,False,29.25280680014141,178.522499454059,False,False
1,1970-07-23 09:33:35.807970898,2025-09-08,2025-09-11 19:59:40.797,HH,A,3261561008,HAWK11,1,1,73,2,1,1,225,2,1,0,0,12,1,225,2,1,-142204.33630545562,-4794319.097627486,4195998.909636021,2.31995,2.60844,-0.537181,-86.125,49.0,53.75,0.21875,-7.28125,6.8125,0.0136719,0.00585938,0.0,4,0,41.37068580183911,-91.69895244955008,12875.774903256628,-48.8342883715931,1.5538975050822816,-5.962437599526925,10000,12000,150,1.0,2025-09-08,2025-09-11 19:59:40.149,HH,A,2194665720.0,JASSM,3.0,112.0,76.0,2.0,2.0,1.0,225.0,9.0,2.0,0.0,1.0,26.0,0.0,0.0,0.0,0.0,-105334.69402467164,-4798776.469801244,4191611.7738938336,2.29972,3.00229,-0.132402,-83.25,11.75,11.25,0.0,0.0,0.0,0.0,0.0,0.0,2.0,0.0,41.32021315380688,-91.25745894395293,12000.001466936304,-79.87591374280083,-0.0001291607461318,-0.0020015104379564,10000,12000,150.0,True,20.123694645120008,False,29.158317983413593,178.56401240628975,False,False
1,1970-07-23 09:33:35.811091133,2025-09-08,2025-09-11 19:59:41.109,HH,A,3261958674,HAWK11,1,1,73,2,1,1,225,2,1,0,0,12,1,225,2,1,-142233.14685233062,-4794302.744111861,4196016.731901646,2.32312,2.60892,-0.536318,-86.375,49.0,53.5,-0.109375,-7.23438,6.70312,0.0117188,0.0,-0.0078125,4,0,41.37089829112625,-91.69930224786292,12876.277757593149,-48.88483384390469,1.532518259576045,-5.76844587012598,10000,12000,150,1.0,2025-09-08,2025-09-11 19:59:40.149,HH,A,2194665720.0,JASSM,3.0,112.0,76.0,2.0,2.0,1.0,225.0,9.0,2.0,0.0,1.0,26.0,0.0,0.0,0.0,0.0,-105334.69402467164,-4798776.469801244,4191611.7738938336,2.29972,3.00229,-0.132402,-83.25,11.75,11.25,0.0,0.0,0.0,0.0,0.0,0.0,2.0,0.0,41.32021315380688,-91.25745894395293,12000.001466936304,-79.87591374280083,-0.0001291607461318,-0.0020015104379564,10000,12000,150.0,True,20.141198922458408,False,29.002562858166744,178.59272502412674,False,False
1,1970-07-23 09:33:35.818132210,2025-09-08,2025-09-11 19:59:41.813,HH,A,3262754006,HAWK11,1,1,73,2,1,1,225,2,1,0,0,12,1,225,2,1,-142290.46325858062,-4794270.248994674,4196052.188932896,2.3352,2.61093,-0.539194,-86.5,48.5,53.25,-0.15625,-7.21875,6.57812,0.0234375,0.00195312,-0.00195312,4,0,41.3713207942638,-91.69999813808786,12877.37833393386,-48.851413694255264,1.7224646895540707,-5.016245350153533,10000,12000,150,1.0,2025-09-08,2025-09-11 19:59:41.235,HH,A,2195918422.0,JASSM,3.0,112.0,76.0,2.0,2.0,1.0,225.0,9.0,2.0,0.0,1.0,26.0,0.0,0.0,0.0,0.0,-105422.28777467164,-4798764.183668432,4191623.557096959,2.29972,3.00219,-0.132306,-83.25,11.75,11.25,0.0,0.0,0.0,0.0,0.0,0.0,2.0,0.0,41.32035434747673,-91.25850750090746,11999.999170520256,-79.877077333228,-0.007048173541279,-0.0027267543095947,10000,12000,150.0,True,20.128004224770677,False,28.76105829708391,178.64651832561364,False,False
1,1970-07-23 09:33:35.818310513,2025-09-08,2025-09-11 19:59:41.831,HH,A,3262276806,HAWK11,1,1,73,2,1,1,225,2,1,0,0,12,1,225,2,1,-142255.24646170562,-4794290.080049361,4196030.559050083,2.32609,2.61179,-0.538236,-86.375,48.75,53.375,0.125,-7.21875,6.75,0.0175781,0.0,0.00390625,4,0,41.37106305153954,-91.69957061046406,12876.707966771268,-48.919273592795726,1.708671647515677,-5.514793156639342,10000,12000,150,1.0,2025-09-08,2025-09-11 19:59:41.235,HH,A,2195918422.0,JASSM,3.0,112.0,76.0,2.0,2.0,1.0,225.0,9.0,2.0,0.0,1.0,26.0,0.0,0.0,0.0,0.0,-105422.28777467164,-4798764.183668432,4191623.557096959,2.29972,3.00219,-0.132306,-83.25,11.75,11.25,0.0,0.0,0.0,0.0,0.0,0.0,2.0,0.0,41.32035434747673,-91.25850750090746,11999.999170520256,-79.877077333228,-0.007048173541279,-0.0027267543095947,10000,12000,150.0,True,20.106617019019073,False,28.902281162448567,178.61182497856862,False,False
1,1970-07-23 09:33:35.821089988,2025-09-08,2025-09-11 19:59:42.108,HH,A,3262992606,HAWK11,1,1,73,2,1,1,225,2,1,0,0,12,1,225,2,1,-142307.80310233062,-4794260.510713424,4196062.793425083,2.34076,2.61036,-0.540537,-86.625,48.5,53.25,0.0,-7.1875,6.65625,0.0292969,0.00585938,0.00976562,4,0,41.37144723758036,-91.70020863368656,12877.674161140349,-48.77961189080572,1.761940418786327,-4.712384690730427,10000,12000,150,1.0,2025-09-08,2025-09-11 19:59:41.235,HH,A,2195918422.0,JASSM,3.0,112.0,76.0,2.0,2.0,1.0,225.0,9.0,2.0,0.0,1.0,26.0,0.0,0.0,0.0,0.0,-105422.28777467164,-4798764.183668432,4191623.557096959,2.29972,3.00219,-0.132306,-83.25,11.75,11.25,0.0,0.0,0.0,0.0,0.0,0.0,2.0,0.0,41.32035434747673,-91.25850750090746,11999.999170520256,-79.877077333228,-0.007048173541279,-0.0027267543095947,10000,12000,150.0,True,20.138532942517774,False,28.7203939176162,178.66348949747498,False,False
1,1970-07-23 09:33:35.824051690,2025-09-08,2025-09-11 19:59:42.405,HH,A,3263390272,HAWK11,1,1,73,2,1,1,225,2,1,0,0,12,1,225,2,1,-142335.87341483062,-4794244.827119674,4196079.938932896,2.35073,2.61084,-0.539386,-86.75,48.5,53.0,0.0625,-7.26562,6.78125,0.0351562,0.0,0.00585938,4,0,41.371651301019554,-91.70054936390332,12878.30669842791,-48.84099168915227,1.7281588790815507,-4.128825570567661,10000,12000,150,1.0,2025-09-08,2025-09-11 19:59:42.319,HH,A,2197171344.0,JASSM,3.0,112.0,76.0,2.0,2.0,1.0,225.0,9.0,2.0,0.0,1.0,26.0,0.0,0.0,0.0,0.0,-105509.89519654664,-4798751.894605932,4191635.3422532086,2.29972,3.00219,-0.132306,-83.25,11.75,11.25,0.0,0.0,0.0,0.0,0.0,0.0,2.0,0.0,41.32049556040898,-91.25955622631636,11999.998716500488,-79.87776977449703,-0.0062479918579612,-0.0027273407267019,10000,12000,150.0,True,20.107534546043226,False,28.60526370938204,178.6878061759065,False,False
1,1970-07-23 09:33:35.827192454,2025-09-08,2025-09-11 19:59:42.719,HH,A,3263827704,HAWK11,1,1,73,2,1,1,225,2,1,0,0,12,1,225,2,1,-142368.33825858062,-4794226.674775924,4196099.732878208,2.35965,2.61515,-0.539961,-86.75,48.25,53.0,0.0,-7.21875,6.71875,0.0253906,0.00390625,-0.00976562,4,0,41.37188714842387,-91.70094344432512,12878.928541653946,-48.97904081168651,1.893130729775257,-3.4952673282860536,10000,12000,150,1.0,2025-09-08,2025-09-11 19:59:42.319,HH,A,2197171344.0,JASSM,3.0,112.0,76.0,2.0,2.0,1.0,225.0,9.0,2.0,0.0,1.0,26.0,0.0,0.0,0.0,0.0,-105509.89519654664,-4798751.894605932,4191635.3422532086,2.29972,3.00219,-0.132306,-83.25,11.75,11.25,0.0,0.0,0.0,0.0,0.0,0.0,2.0,0.0,41.32049556040898,-91.25955622631636,11999.998716500488,-79.87776977449703,-0.0062479918579612,-0.0027273407267019,10000,12000,150.0,True,20.12724759833781,False,28.541731014922373,178.71936218873918,False,False
1,1970-07-23 09:33:35.834052202,2025-09-08,2025-09-11 19:59:43.405,HH,A,3264702570,HAWK11,1,1,73,2,1,1,225,2,1,0,0,12,1,225,2,1,-142432.01599295562,-4794191.148408736,4196138.435026646,2.36952,2.6162,-0.535839,-86.75,48.25,52.75,0.0,-7.04688,6.59375,0.0117188,0.0,0.0,4,0,41.37234845197912,-91.7017163885288,12880.07813661996,-49.17457699692658,1.750728035837488,-2.9046957134419307,10000,12000,150,1.0,2025-09-08,2025-09-11 19:59:43.344,HH,A,2198483466.0,JASSM,3.0,112.0,76.0,2.0,2.0,1.0,225.0,9.0,2.0,0.0,1.0,26.0,0.0,0.0,0.0,0.0,-105601.64324342164,-4798739.024488744,4191647.684050084,2.29972,3.00219,-0.132306,-83.25,11.75,11.25,0.0,0.0,0.0,0.0,0.0,0.0,2.0,0.0,41.32064343620166,-91.26065452297232,12000.001261018677,-79.87849494823215,-0.005409991033208,-0.0027279537327854,10000,12000,150.0,True,20.115606995758473,False,28.46686990958676,178.77788437252613,False,False
1,1970-07-23 09:33:35.834311052,2025-09-08,2025-09-11 19:59:43.431,HH,A,3264265138,HAWK11,1,1,73,2,1,1,225,2,1,0,0,12,1,225,2,1,-142399.61560233062,-4794209.249971236,4196118.692839146,2.3654,2.6162,-0.53814,-86.75,48.125,52.875,-0.09375,-7.25,6.64062,0.00390625,-0.00390625,-0.0078125,4,0,41.372113247284815,-91.70132309018894,12879.446480544468,-49.087205131624806,1.849344544825356,-3.1381762585934267,10000,12000,150,1.0,2025-09-08,2025-09-11 19:59:43.344,HH,A,2198483466.0,JASSM,3.0,112.0,76.0,2.0,2.0,1.0,225.0,9.0,2.0,0.0,1.0,26.0,0.0,0.0,0.0,0.0,-105601.64324342164,-4798739.024488744,4191647.684050084,2.29972,3.00219,-0.132306,-83.25,11.75,11.25,0.0,0.0,0.0,0.0,0.0,0.0,2.0,0.0,41.32064343620166,-91.26065452297232,12000.001261018677,-79.87849494823215,-0.005409991033208,-0.0027279537327854,10000,12000,150.0,True,20.09592306646119,False,28.472491564848387,178.74651872523094,False,False
1,1970-07-23 09:33:35.838131796,2025-09-08,2025-09-11 19:59:43.813,HH,A,3265140004,HAWK11,1,1,73,2,1,1,225,2,1,0,0,12,1,225,2,1,-142463.32653983062,-4794173.704072799,4196157.310026646,2.36971,2.61467,-0.535263,-86.875,48.25,52.625,-0.03125,-7.10938,6.53125,-0.0078125,-0.00195312,0.00195312,4,0,41.37257408477727,-91.70209644310584,12880.36792144328,-49.139793605411256,1.6764380923707187,-2.9374876827303664,10000,12000,150,1.0,2025-09-08,2025-09-11 19:59:43.344,HH,A,2198483466.0,JASSM,3.0,112.0,76.0,2.0,2.0,1.0,225.0,9.0,2.0,0.0,1.0,26.0,0.0,0.0,0.0,0.0,-105601.64324342164,-4798739.024488744,4191647.684050084,2.29972,3.00219,-0.132306,-83.25,11.75,11.25,0.0,0.0,0.0,0.0,0.0,0.0,2.0,0.0,41.32064343620166,-91.26065452297232,12000.001261018677,-79.87849494823215,-0.005409991033208,-0.0027279537327854,10000,12000,150.0,True,20.13461869578167,False,28.389006022038387,178.80786452678714,False,False
1,1970-07-23 09:33:35.842222936,2025-09-08,2025-09-11 19:59:44.222,HH,A,3265617204,HAWK11,1,1,73,2,1,1,225,2,1,0,0,12,1,225,2,1,-142498.71130545562,-4794154.023408736,4196178.602995396,2.36358,2.61016,-0.533825,-86.875,48.125,52.5,0.140625,-6.875,6.32812,-0.0078125,0.00585938,0.00976562,4,0,41.37282861912677,-91.70252594271248,12880.696444453111,-49.02723390227069,1.4684678560994546,-3.417466215774881,10000,12000,150,1.0,2025-09-08,2025-09-11 19:59:43.344,HH,A,2198483466.0,JASSM,3.0,112.0,76.0,2.0,2.0,1.0,225.0,9.0,2.0,0.0,1.0,26.0,0.0,0.0,0.0,0.0,-105601.64324342164,-4798739.024488744,4191647.684050084,2.29972,3.00219,-0.132306,-83.25,11.75,11.25,0.0,0.0,0.0,0.0,0.0,0.0,2.0,0.0,41.32064343620166,-91.26065452297232,12000.001261018677,-79.87849494823215,-0.005409991033208,-0.0027279537327854,10000,12000,150.0,True,20.15610646476119,False,28.319541141691367,178.841564787824,False,False
1,1970-07-23 09:33:35.845152846,2025-09-08,2025-09-11 19:59:44.515,HH,A,3265975102,HAWK11,1,1,73,2,1,1,225,2,1,0,0,12,1,225,2,1,-142524.06286795562,-4794139.792939986,4196193.872526646,2.36799,2.60806,-0.534401,-86.875,48.375,52.25,-0.0625,-6.82812,6.375,0.0253906,-0.00390625,0.0,4,0,41.37301184939519,-91.70283370775232,12880.64269139374,-48.92738393874971,1.4251735242229946,-3.223767417556331,10000,12000,150,1.0,2025-09-08,2025-09-11 19:59:44.447,HH,A,2199736168.0,JASSM,3.0,112.0,76.0,2.0,2.0,1.0,225.0,9.0,2.0,0.0,1.0,26.0,0.0,0.0,0.0,0.0,-105689.23699342164,-4798726.735426244,4191659.465300084,2.29972,3.00219,-0.132306,-83.25,11.75,11.25,0.0,0.0,0.0,0.0,0.0,0.0,2.0,0.0,41.3207846049537,-91.26170309448884,11999.999975060156,-79.87918729188084,-0.0046099343460818,-0.0027285373789697,10000,12000,150.0,True,20.123480762919492,False,28.309265313003504,178.8632434500407,False,False
1,1970-07-23 09:33:35.849049389,2025-09-08,2025-09-11 19:59:44.904,HH,A,3266452302,HAWK11,1,1,73,2,1,1,225,2,1,0,0,12,1,225,2,1,-142559.46716483062,-4794120.009736861,4196214.979948521,2.38429,2.60518,-0.533442,-87.0,48.375,52.125,0.046875,-6.73438,6.23438,0.0390625,-0.0078125,0.0,4,0,41.373265734176,-91.70326348272069,12880.31979123191,-48.85676135238902,1.2909825275057436,-2.372083605915794,10000,12000,150,1.0,2025-09-08,2025-09-11 19:59:44.447,HH,A,2199736168.0,JASSM,3.0,112.0,76.0,2.0,2.0,1.0,225.0,9.0,2.0,0.0,1.0,26.0,0.0,0.0,0.0,0.0,-105689.23699342164,-4798726.735426244,4191659.465300084,2.29972,3.00219,-0.132306,-83.25,11.75,11.25,0.0,0.0,0.0,0.0,0.0,0.0,2.0,0.0,41.3207846049537,-91.26170309448884,11999.999975060156,-79.87918729188084,-0.0046099343460818,-0.0027285373789697,10000,12000,150.0,True,20.1449865070266,False,28.23168536693458,178.89678585615275,False,False
1,1970-07-23 09:33:35.852190688,2025-09-08,2025-09-11 19:59:45.219,HH,A,3266889736,HAWK11,1,1,73,2,1,1,225,2,1,0,0,12,1,225,2,1,-142590.82263358062,-4794102.473604049,4196233.618620396,2.40087,2.6047,-0.531812,-87.0,48.5,52.0,0.078125,-6.76562,6.34375,0.0390625,0.0,-0.00976562,4,0,41.37349030377263,-91.70364411695896,12879.877910182971,-48.90044519154795,1.205348521659759,-1.4366492096575358,10000,12000,150,1.0,2025-09-08,2025-09-11 19:59:44.447,HH,A,2199736168.0,JASSM,3.0,112.0,76.0,2.0,2.0,1.0,225.0,9.0,2.0,0.0,1.0,26.0,0.0,0.0,0.0,0.0,-105689.23699342164,-4798726.735426244,4191659.465300084,2.29972,3.00219,-0.132306,-83.25,11.75,11.25,0.0,0.0,0.0,0.0,0.0,0.0,2.0,0.0,41.3207846049537,-91.26170309448884,11999.999975060156,-79.87918729188084,-0.0046099343460818,-0.0027285373789697,10000,12000,150.0,True,20.164036569832003,False,28.227060801618943,178.92636566064093,False,False
1,1970-07-23 09:33:35.855150333,2025-09-08,2025-09-11 19:59:45.515,HH,A,3266929502,HAWK11,1,1,73,2,1,1,225,2,1,0,0,12,1,225,2,1,-142593.72497733062,-4794100.861299361,4196235.354948521,2.40193,2.60508,-0.53162,-87.0,48.25,52.25,0.078125,-6.76562,6.34375,0.0390625,0.0,-0.00976562,4,0,41.373511100588,-91.7036793457213,12879.887875292065,-48.92197825914751,1.209522984223934,-1.3655369917871507,10000,12000,150,1.0,2025-09-08,2025-09-11 19:59:44.447,HH,A,2199736168.0,JASSM,3.0,112.0,76.0,2.0,2.0,1.0,225.0,9.0,2.0,0.0,1.0,26.0,0.0,0.0,0.0,0.0,-105689.23699342164,-4798726.735426244,4191659.465300084,2.29972,3.00219,-0.132306,-83.25,11.75,11.25,0.0,0.0,0.0,0.0,0.0,0.0,2.0,0.0,41.3207846049537,-91.26170309448884,11999.999975060156,-79.87918729188084,-0.0046099343460818,-0.0027285373789697,10000,12000,150.0,True,20.165800104790637,False,28.23657281612224,178.92909504111861,False,False
1,1970-07-23 09:33:35.858134787,2025-09-08,2025-09-11 19:59:45.813,HH,A,3267327168,HAWK11,1,1,73,2,1,1,225,2,1,0,0,12,1,225,2,1,-142623.16247733062,-4794084.186494674,4196252.942839146,2.44286,2.60451,-0.532195,-86.875,48.75,51.75,0.140625,-6.875,6.20312,0.228516,0.0117188,-0.00390625,4,0,41.37372379185589,-91.70403677481104,12879.147488264996,-48.87914061634983,1.2160970910355156,0.9642554607673184,10000,12000,150,1.0,2025-09-08,2025-09-11 19:59:45.549,HH,A,2201108170.0,JASSM,3.0,112.0,76.0,2.0,2.0,1.0,225.0,9.0,2.0,0.0,1.0,26.0,0.0,0.0,0.0,0.0,-105785.17058717164,-4798713.275465307,4191672.3676438336,2.29972,3.00219,-0.132306,-83.25,11.75,11.25,0.0,0.0,0.0,0.0,0.0,0.0,2.0,0.0,41.32093920445436,-91.26285150642784,11999.999850960196,-79.87994555971812,-0.0037337035581092,-0.002729177474029,10000,12000,150.0,True,20.13110083873791,False,28.25896312488968,178.95453725512218,False,False
1,1970-07-23 09:33:35.861091472,2025-09-08,2025-09-11 19:59:46.109,HH,A,3267844134,HAWK11,1,1,73,2,1,1,225,2,1,0,0,12,1,225,2,1,-142660.22497733062,-4794063.263643111,4196275.024870396,2.58725,2.60652,-0.539003,-86.625,48.875,52.0,-0.03125,-7.35938,6.73438,0.375,0.0234375,0.00976562,4,0,41.37399073525064,-91.7044867644598,12878.257959019114,-48.698193489012766,1.575867738975768,9.300280113252336,10000,12000,150,1.0,2025-09-08,2025-09-11 19:59:45.549,HH,A,2201108170.0,JASSM,3.0,112.0,76.0,2.0,2.0,1.0,225.0,9.0,2.0,0.0,1.0,26.0,0.0,0.0,0.0,0.0,-105785.17058717164,-4798713.275465307,4191672.3676438336,2.29972,3.00219,-0.132306,-83.25,11.75,11.25,0.0,0.0,0.0,0.0,0.0,0.0,2.0,0.0,41.32093920445436,-91.26285150642784,11999.999850960196,-79.87994555971812,-0.0037337035581092,-0.002729177474029,10000,12000,150.0,True,20.15364921230796,False,28.44638402482311,178.98964029190196,False,False
1,1970-07-23 09:33:35.872190925,2025-09-08,2025-09-11 19:59:47.219,HH,A,3269196200,HAWK11,1,1,73,2,1,1,225,2,1,0,0,12,1,225,2,1,-142757.33239920562,-4794006.306611861,4196335.241667271,2.84438,2.58092,-0.577736,-83.875,50.375,54.25,-0.171875,-8.0,7.32812,0.134766,0.0234375,0.078125,4,0,41.37471878428965,-91.70566655945912,12875.790984872756,-46.307110971046285,2.4476823334124918,23.339760008071256,10000,12000,150,1.0,2025-09-08,2025-09-11 19:59:46.441,HH,A,2202181912.0,JASSM,3.0,112.0,76.0,2.0,2.0,1.0,225.0,9.0,2.0,0.0,1.0,26.0,0.0,0.0,0.0,0.0,-105860.25066529664,-4798702.741285619,4191682.464323521,2.29982,3.00219,-0.132306,-83.25,11.75,11.25,0.0,0.0,0.0,0.0,0.0,0.0,2.0,0.0,41.32106018347466,-91.26375028671671,12000.000782157524,-79.88053900361676,-0.0030479441317017,0.0027618000939851,10000,12000,150.0,False,20.17189817105094,False,30.401395731623044,179.0838015746145,False,False
1,1970-07-23 09:33:35.872313442,2025-09-08,2025-09-11 19:59:47.231,HH,A,3268361100,HAWK11,1,1,73,2,1,1,225,2,1,0,0,12,1,225,2,1,-142697.88513358062,-4794041.526338424,4196298.067839146,2.7232,2.61016,-0.551274,-85.75,49.25,52.75,-0.234375,-7.73438,7.10938,0.238281,0.0195312,0.0136719,4,0,41.37426890195292,-91.70494418384423,12877.492962843324,-48.37035441220636,2.223363064545488,17.20871107793906,10000,12000,150,1.0,2025-09-08,2025-09-11 19:59:46.441,HH,A,2202181912.0,JASSM,3.0,112.0,76.0,2.0,2.0,1.0,225.0,9.0,2.0,0.0,1.0,26.0,0.0,0.0,0.0,0.0,-105860.25066529664,-4798702.741285619,4191682.464323521,2.29982,3.00219,-0.132306,-83.25,11.75,11.25,0.0,0.0,0.0,0.0,0.0,0.0,2.0,0.0,41.32106018347466,-91.26375028671671,12000.000782157524,-79.88053900361676,-0.0030479441317017,0.0027618000939851,10000,12000,150.0,False,20.13546750944262,False,29.050447887904195,179.0243965134611,False,False
1,1970-07-23 09:33:35.872320383,2025-09-08,2025-09-11 19:59:47.232,HH,A,3268798534,HAWK11,1,1,73,2,1,1,225,2,1,0,0,12,1,225,2,1,-142728.62732108062,-4794023.529268111,4196317.067839146,2.78954,2.60211,-0.562396,-84.875,49.875,53.375,-0.140625,-7.78125,7.14062,0.142578,0.0175781,0.046875,4,0,41.37449875478376,-91.70531767052404,12876.659139690428,-47.65604503583004,2.4467279188737585,20.795248482689637,10000,12000,150,1.0,2025-09-08,2025-09-11 19:59:46.441,HH,A,2202181912.0,JASSM,3.0,112.0,76.0,2.0,2.0,1.0,225.0,9.0,2.0,0.0,1.0,26.0,0.0,0.0,0.0,0.0,-105860.25066529664,-4798702.741285619,4191682.464323521,2.29982,3.00219,-0.132306,-83.25,11.75,11.25,0.0,0.0,0.0,0.0,0.0,0.0,2.0,0.0,41.32106018347466,-91.26375028671671,12000.000782157524,-79.88053900361676,-0.0030479441317017,0.0027618000939851,10000,12000,150.0,False,20.15427400816418,False,29.68405258766295,179.05471394593488,False,False
1,1970-07-23 09:33:35.876091503,2025-09-08,2025-09-11 19:59:47.609,HH,A,3269673398,HAWK11,1,1,73,2,1,1,225,2,1,0,0,12,1,225,2,1,-142790.33239920562,-4793986.134736861,4196356.798307896,2.90785,2.54967,-0.593363,-82.625,51.375,55.25,-0.1875,-8.29688,7.84375,0.121094,0.0390625,0.0761719,4,0,41.37497842833732,-91.7060677853485,12875.316697023814,-44.58676936332858,2.177321078535132,26.05591876251281,10000,12000,150,1.0,2025-09-08,2025-09-11 19:59:47.347,HH,A,2203255654.0,JASSM,3.0,112.0,76.0,2.0,2.0,1.0,225.0,9.0,2.0,0.0,1.0,26.0,0.0,0.0,0.0,0.0,-105935.32879029664,-4798692.206129369,4191692.5610032086,2.29982,3.00219,-0.132306,-83.25,11.75,11.25,0.0,0.0,0.0,0.0,0.0,0.0,2.0,0.0,41.32118116153169,-91.26464904727814,12000.00220487808,-79.88113243592055,-0.0023622006985013,0.0027612965916581,10000,12000,150.0,False,20.1510609123093,False,31.36680299513531,179.11642806842391,False,False
1,1970-07-23 09:33:35.880154488,2025-09-08,2025-09-11 19:59:48.015,HH,A,3270150598,HAWK11,1,1,73,2,1,1,225,2,1,0,0,12,1,225,2,1,-142823.62927420562,-4793965.059541549,4196379.515104771,2.97305,2.51803,-0.611771,-81.125,52.0,56.625,-0.203125,-8.5,7.875,0.121094,0.03125,0.0664062,4,0,41.3752512227648,-91.70647288080332,12875.158164778451,-42.7613892140292,2.058410202406464,28.831279872090477,10000,12000,150,1.0,2025-09-08,2025-09-11 19:59:47.347,HH,A,2203255654.0,JASSM,3.0,112.0,76.0,2.0,2.0,1.0,225.0,9.0,2.0,0.0,1.0,26.0,0.0,0.0,0.0,0.0,-105935.32879029664,-4798692.206129369,4191692.5610032086,2.29982,3.00219,-0.132306,-83.25,11.75,11.25,0.0,0.0,0.0,0.0,0.0,0.0,2.0,0.0,41.32118116153169,-91.26464904727814,12000.00220487808,-79.88113243592055,-0.0023622006985013,0.0027612965916581,10000,12000,150.0,False,20.171705440583896,False,32.43337275017036,179.1526368462444,False,False
1,1970-07-23 09:33:35.883136460,2025-09-08,2025-09-11 19:59:48.313,HH,A,3270588032,HAWK11,1,1,73,2,1,1,225,2,1,0,0,12,1,225,2,1,-142852.52380545562,-4793946.129854049,4196400.075651646,3.02741,2.49569,-0.623947,-79.5,52.875,57.625,-0.375,-8.35938,7.79688,0.115234,0.0273438,0.0449219,4,0,41.37549748013418,-91.70682464740852,12875.281542266022,-41.50947898164355,1.9631267449274763,31.24839318823608,10000,12000,150,1.0,2025-09-08,2025-09-11 19:59:47.347,HH,A,2203255654.0,JASSM,3.0,112.0,76.0,2.0,2.0,1.0,225.0,9.0,2.0,0.0,1.0,26.0,0.0,0.0,0.0,0.0,-105935.32879029664,-4798692.206129369,4191692.5610032086,2.29982,3.00219,-0.132306,-83.25,11.75,11.25,0.0,0.0,0.0,0.0,0.0,0.0,2.0,0.0,41.32118116153169,-91.26464904727814,12000.00220487808,-79.88113243592055,-0.0023622006985013,0.0027612965916581,10000,12000,150.0,False,20.189730034718032,False,33.50318940894235,179.18537556341357,False,False
1,1970-07-23 09:33:35.886089746,2025-09-08,2025-09-11 19:59:48.608,HH,A,3270627798,HAWK11,1,1,73,2,1,1,225,2,1,0,0,12,1,225,2,1,-142856.02380545562,-4793943.716768111,4196402.690886021,3.02885,2.50164,-0.614072,-79.5,53.125,58.0,0.03125,-8.28125,7.75,0.107422,0.0253906,0.0273438,4,0,41.3755288657039,-91.70686729988974,12875.271419281253,-42.07614148319131,1.6869133332398547,31.5103669467367,10000,12000,150,1.0,2025-09-08,2025-09-11 19:59:48.451,HH,A,2204508514.0,JASSM,3.0,112.0,76.0,2.0,2.0,1.0,225.0,9.0,2.0,0.0,1.0,26.0,0.0,0.0,0.0,0.0,-106022.93230592164,-4798679.912184057,4191704.340300084,2.29982,3.00219,-0.132306,-83.25,11.75,11.25,0.0,0.0,0.0,0.0,0.0,0.0,2.0,0.0,41.32132230840539,-91.265697753862,12000.000764218565,-79.88182487617324,-0.001562054418892,0.0027607143336114,10000,12000,150.0,False,20.143885006696255,False,33.666608839041885,179.1877846815016,False,False
1,1970-07-23 09:33:35.889048804,2025-09-08,2025-09-11 19:59:48.904,HH,A,3271065230,HAWK11,1,1,73,2,1,1,225,2,1,0,0,12,1,225,2,1,-142884.34021170562,-4793924.315400924,4196423.714323521,3.07439,2.48534,-0.623947,-77.875,54.125,59.0,-0.40625,-8.35938,7.75,0.0878906,0.015625,0.0273438,4,0,41.37578115420051,-91.7072123338779,12875.1964426936,-41.12819683675957,1.669605366554015,33.605564493076216,10000,12000,150,1.0,2025-09-08,2025-09-11 19:59:48.451,HH,A,2204508514.0,JASSM,3.0,112.0,76.0,2.0,2.0,1.0,225.0,9.0,2.0,0.0,1.0,26.0,0.0,0.0,0.0,0.0,-106022.93230592164,-4798679.912184057,4191704.340300084,2.29982,3.00219,-0.132306,-83.25,11.75,11.25,0.0,0.0,0.0,0.0,0.0,0.0,2.0,0.0,41.32132230840539,-91.265697753862,12000.000764218565,-79.88182487617324,-0.001562054418892,0.0027607143336114,10000,12000,150.0,False,20.161676501042194,False,34.767215173748966,179.22151359071532,False,False
1,1970-07-23 09:33:35.895150052,2025-09-08,2025-09-11 19:59:49.515,HH,A,3271820796,HAWK11,1,1,73,2,1,1,225,2,1,0,0,12,1,225,2,1,-142932.51599295562,-4793888.772432174,4196461.870573521,3.13153,2.46156,-0.639862,-74.625,56.5,60.875,-0.15625,-8.39062,7.8125,0.03125,0.0351562,0.0429688,4,0,41.37624157590719,-91.70780026191991,12874.012746516268,-39.7012208407809,1.73503363880628,36.11719281122348,10000,12000,150,1.0,2025-09-08,2025-09-11 19:59:48.451,HH,A,2204508514.0,JASSM,3.0,112.0,76.0,2.0,2.0,1.0,225.0,9.0,2.0,0.0,1.0,26.0,0.0,0.0,0.0,0.0,-106022.93230592164,-4798679.912184057,4191704.340300084,2.29982,3.00219,-0.132306,-83.25,11.75,11.25,0.0,0.0,0.0,0.0,0.0,0.0,2.0,0.0,41.32132230840539,-91.265697753862,12000.000764218565,-79.88182487617324,-0.001562054418892,0.0027607143336114,10000,12000,150.0,False,20.192309147538047,False,37.02719735074571,179.28346942363183,False,False
1,1970-07-23 09:33:35.895528872,2025-09-08,2025-09-11 19:59:49.552,HH,A,3271462896,HAWK11,1,1,73,2,1,1,225,2,1,0,0,12,1,225,2,1,-142910.50622733062,-4793905.611299361,4196443.882292271,3.10823,2.47172,-0.635643,-76.125,55.125,60.0,0.0,-8.23438,7.6875,0.0625,0.0332031,0.03125,4,0,41.37602390086303,-91.70753144411192,12874.825191247392,-40.22059266483195,1.821981418460984,35.11290716996435,10000,12000,150,1.0,2025-09-08,2025-09-11 19:59:49.537,HH,A,2205880798.0,JASSM,3.0,112.0,76.0,2.0,2.0,1.0,225.0,9.0,2.0,0.0,1.0,26.0,0.0,0.0,0.0,0.0,-106118.88738404664,-4798666.445387182,4191717.241667271,2.29982,3.00219,-0.132306,-83.25,11.75,11.25,0.0,0.0,0.0,0.0,0.0,0.0,2.0,0.0,41.32147689922199,-91.26684644287812,11999.99991178644,-79.8825833350878,-0.0006856273385608,0.0027600777547879,10000,12000,150.0,False,20.12560286181506,False,35.91715488438423,179.25225810966467,False,False
1,1970-07-23 09:33:35.901088252,2025-09-08,2025-09-11 19:59:50.108,HH,A,3272616130,HAWK11,1,1,73,2,1,1,225,2,1,0,0,12,1,225,2,1,-142981.03161795562,-4793850.206025924,4196502.985807896,-3.09672,2.40298,-0.662967,-71.0,58.375,62.875,-0.203125,-8.40625,7.85938,0.0292969,0.0449219,0.0761719,4,0,41.37673988990301,-91.70839333332648,12871.833592701416,-36.76107344088214,1.25211757415156,37.30599270053021,10000,12000,150,1.0,2025-09-08,2025-09-11 19:59:49.537,HH,A,2205880798.0,JASSM,3.0,112.0,76.0,2.0,2.0,1.0,225.0,9.0,2.0,0.0,1.0,26.0,0.0,0.0,0.0,0.0,-106118.88738404664,-4798666.445387182,4191717.241667271,2.29982,3.00219,-0.132306,-83.25,11.75,11.25,0.0,0.0,0.0,0.0,0.0,0.0,2.0,0.0,41.32147689922199,-91.26684644287812,11999.99991178644,-79.8825833350878,-0.0006856273385608,0.0027600777547879,10000,12000,150.0,False,20.170941768638134,False,39.357292418134755,179.34901673021713,False,False
