Subject_ac,Timestamp,SampleDate_ac,SampleTime_ac,Configuration_ac,Scenario_ac,DisTime_ac,MarkingTxt_ac,Aplication_ac,EntId_ac,Site_ac,ExersiseId_ac,ForceId_ac,Category_ac,Country_ac,Domain_ac,Kind_ac,Extra_ac,Specific_ac,Subcategory_ac,AltCategory_ac,AltCountry_ac,AltDomain_ac,AltKind_ac,EcefX_ac,EcefY_ac,EcefZ_ac,OriPhi_ac,OriPsi_ac,OriTheta_ac,LinVelX_ac,LinVelY_ac,LinVelZ_ac,LinAccX_ac,LinAccY_ac,LinAccZ_ac,AngVelX_ac,AngVelY_ac,AngVelZ_ac,DrAlg_ac,Apperance_ac,Latitude_ac,Longitude_ac,Altitude_ac,Heading_ac,Pitch_ac,Roll_ac,CM_Altitude_Lead_ac,CM_Altitude_Wing_ac,CM_Airspeed_ac,Subject_cm,SampleDate_cm,SampleTime_cm,Configuration_cm,Scenario_cm,DisTime_cm,MarkingTxt_cm,Aplication_cm,EntId_cm,Site_cm,ExersiseId_cm,ForceId_cm,Category_cm,Country_cm,Domain_cm,Kind_cm,Extra_cm,Specific_cm,Subcategory_cm,AltCategory_cm,AltCountry_cm,AltDomain_cm,AltKind_cm,EcefX_cm,EcefY_cm,EcefZ_cm,OriPhi_cm,OriPsi_cm,OriTheta_cm,LinVelX_cm,LinVelY_cm,LinVelZ_cm,LinAccX_cm,LinAccY_cm,LinAccZ_cm,AngVelX_cm,AngVelY_cm,AngVelZ_cm,DrAlg_cm,Apperance_cm,Latitude_cm,Longitude_cm,Altitude_cm,Heading_cm,Pitch_cm,Roll_cm,CM_Altitude_Lead_cm,CM_Altitude_Wing_cm,CM_Airspeed_cm,Bank_Angle_Condition,distance_nm,Distance_Condition,angle_between_vel,angle_between_pos,Cone_Condition,Intercept_Criteria
1,1970-07-23 09:33:42.680096599,2025-09-08,2025-09-11 20:11:08.009,HH,B,4081429514,HAWK11,1,1,73,2,1,1,225,2,1,0,0,12,1,225,2,1,-147164.76403983062,-4791879.784150924,4198732.460417271,2.36195,2.71122,-0.509857,-98.625,24.25,28.25,0.03125,-6.84375,6.75,0.0,-0.00390625,0.0,4,0,41.40275546480935,-91.75907385082316,13171.864028893357,-53.69649887860205,3.9004742114428006,-0.8366995501073144,10000,12000,150,1.0,2025-09-08,2025-09-11 20:11:07.718,HH,B,3014885168.0,JASSM,3.0,122.0,76.0,2.0,2.0,1.0,225.0,9.0,2.0,0.0,1.0,26.0,0.0,0.0,0.0,0.0,-155689.26208670562,-4777721.280244674,4213886.491667271,-2.71093,-1.01118,0.751842,37.25,-59.375,-65.5,0.0,0.0,0.0,0.0,0.0,0.0,2.0,0.0,41.58765543115849,-91.8664090422212,11999.997468494586,155.93880021534264,-0.0028290282626931,-0.0006587223125987,10000,12000,150.0,True,12.09456846818343,False,133.52017515823653,179.0574535607999,False,False
1,1970-07-23 09:33:42.684157078,2025-09-08,2025-09-11 20:11:08.415,HH,B,4081866948,HAWK11,1,1,73,2,1,1,225,2,1,0,0,12,1,225,2,1,-147201.76794608062,-4791870.684541549,4198742.927214146,2.36156,2.70767,-0.508515,-98.625,24.375,28.125,0.0,-6.82812,6.71875,-0.00390625,0.0,0.0,4,0,41.40287347584032,-91.759519223057,13174.98778650768,-53.62171839028483,3.722490438351404,-0.9526648980779155,10000,12000,150,1.0,2025-09-08,2025-09-11 20:11:07.718,HH,B,3014885168.0,JASSM,3.0,122.0,76.0,2.0,2.0,1.0,225.0,9.0,2.0,0.0,1.0,26.0,0.0,0.0,0.0,0.0,-155689.26208670562,-4777721.280244674,4213886.491667271,-2.71093,-1.01118,0.751842,37.25,-59.375,-65.5,0.0,0.0,0.0,0.0,0.0,0.0,2.0,0.0,41.58765543115849,-91.8664090422212,11999.997468494586,155.93880021534264,-0.0028290282626931,-0.0006587223125987,10000,12000,150.0,True,12.080123558478725,False,133.51656483103096,179.01466993341617,False,False
1,1970-07-23 09:33:42.688218033,2025-09-08,2025-09-11 20:11:08.821,HH,B,4082383914,HAWK11,1,1,73,2,1,1,225,2,1,0,0,12,1,225,2,1,-147243.92028983062,-4791860.221650924,4198754.847136021,2.35926,2.70508,-0.506789,-98.625,24.375,28.125,0.0625,-6.65625,6.54688,0.0,-0.00976562,0.00585938,4,0,41.40300846100543,-91.76002659843311,13178.301150544945,-53.5966187487273,3.5618466969406253,-1.154866378513118,10000,12000,150,1.0,2025-09-08,2025-09-11 20:11:07.718,HH,B,3014885168.0,JASSM,3.0,122.0,76.0,2.0,2.0,1.0,225.0,9.0,2.0,0.0,1.0,26.0,0.0,0.0,0.0,0.0,-155689.26208670562,-4777721.280244674,4213886.491667271,-2.71093,-1.01118,0.751842,37.25,-59.375,-65.5,0.0,0.0,0.0,0.0,0.0,0.0,2.0,0.0,41.58765543115849,-91.8664090422212,11999.997468494586,155.93880021534264,-0.0028290282626931,-0.0006587223125987,10000,12000,150.0,True,12.063661983680642,False,133.51656483103096,178.96167419240768,False,False
1,1970-07-23 09:33:42.692138357,2025-09-08,2025-09-11 20:11:09.213,HH,B,4082821346,HAWK11,1,1,73,2,1,1,225,2,1,0,0,12,1,225,2,1,-147280.78747733062,-4791850.993135299,4198765.212370396,2.35696,2.70201,-0.503433,-98.625,24.625,27.75,0.03125,-6.28125,6.34375,-0.00390625,-0.0175781,-0.00585938,4,0,41.40312657454454,-91.7604703879759,13180.87884489052,-53.61824308831029,3.316881212317308,-1.3729419225204844,10000,12000,150,1.0,2025-09-08,2025-09-11 20:11:08.822,HH,B,3016197520.0,JASSM,3.0,122.0,76.0,2.0,2.0,1.0,225.0,9.0,2.0,0.0,1.0,26.0,0.0,0.0,0.0,0.0,-155648.25525076812,-4777786.756807174,4213814.257292271,-2.71093,-1.01118,0.751842,37.25,-59.375,-65.5,0.0,0.0,0.0,0.0,0.0,0.0,2.0,0.0,41.58678636375785,-91.86589224504384,12000.00381301983,155.93914324438828,-0.0018778780702951,-0.0006600983549499,10000,12000,150.0,True,11.992243128206217,False,133.46194524053058,178.90704318836828,False,False
1,1970-07-23 09:33:42.700125429,2025-09-08,2025-09-11 20:11:10.012,HH,B,4083775746,HAWK11,1,1,73,2,1,1,225,2,1,0,0,12,1,225,2,1,-147359.98083670562,-4791830.712861861,4198787.212370396,2.35341,2.69453,-0.495188,-98.75,25.25,27.25,-0.078125,-6.39062,6.21875,-0.015625,0.0,-0.00976562,4,0,41.40338121155263,-91.76142385256,13184.719539128171,-53.6710449177503,2.715981929648645,-1.7838712804397483,10000,12000,150,1.0,2025-09-08,2025-09-11 20:11:09.827,HH,B,3017390566.0,JASSM,3.0,122.0,76.0,2.0,2.0,1.0,225.0,9.0,2.0,0.0,1.0,26.0,0.0,0.0,0.0,0.0,-155610.97693045562,-4777846.278291549,4213748.585417271,-2.71083,-1.01118,0.751842,37.25,-59.375,-65.5,0.0,0.0,0.0,0.0,0.0,0.0,2.0,0.0,41.58599628745205,-91.86542244993971,11999.998817240994,155.9394550702533,-0.0010131867577847,0.0048437720950281,10000,12000,150.0,True,11.909517310294481,False,133.46308456717628,178.78681170410678,False,False
1,1970-07-23 09:33:42.700357096,2025-09-08,2025-09-11 20:11:10.035,HH,B,4083298546,HAWK11,1,1,73,2,1,1,225,2,1,0,0,12,1,225,2,1,-147319.80114920562,-4791841.036104049,4198776.147917271,2.35725,2.6952,-0.496818,-98.625,25.125,27.5,0.03125,-6.17188,6.01562,-0.00585938,-0.00976562,0.00585938,4,0,41.40325247648509,-91.76094008772463,13183.065180223197,-53.63111716058268,2.8067111635197404,-1.5440464106877203,10000,12000,150,1.0,2025-09-08,2025-09-11 20:11:09.827,HH,B,3017390566.0,JASSM,3.0,122.0,76.0,2.0,2.0,1.0,225.0,9.0,2.0,0.0,1.0,26.0,0.0,0.0,0.0,0.0,-155610.97693045562,-4777846.278291549,4213748.585417271,-2.71083,-1.01118,0.751842,37.25,-59.375,-65.5,0.0,0.0,0.0,0.0,0.0,0.0,2.0,0.0,41.58599628745205,-91.86542244993971,11999.998817240994,155.9394550702533,-0.0010131867577847,0.0048437720950281,10000,12000,150.0,True,11.925143619424892,False,133.5388689560574,178.8467619705334,False,False
1,1970-07-23 09:33:42.704156995,2025-09-08,2025-09-11 20:11:10.415,HH,B,4084332478,HAWK11,1,1,73,2,1,1,225,2,1,0,0,12,1,225,2,1,-147406.39489920562,-4791818.738252486,4198799.872526646,2.34642,2.6953,-0.492216,-98.875,25.375,27.25,-0.109375,-6.57812,6.48438,-0.00390625,0.0,-0.0078125,4,0,41.403529396626034,-91.76198269999168,13186.247069317007,-53.81665499484605,2.619225839834271,-2.170677867558068,10000,12000,150,1.0,2025-09-08,2025-09-11 20:11:09.827,HH,B,3017390566.0,JASSM,3.0,122.0,76.0,2.0,2.0,1.0,225.0,9.0,2.0,0.0,1.0,26.0,0.0,0.0,0.0,0.0,-155610.97693045562,-4777846.278291549,4213748.585417271,-2.71083,-1.01118,0.751842,37.25,-59.375,-65.5,0.0,0.0,0.0,0.0,0.0,0.0,2.0,0.0,41.58599628745205,-91.86542244993971,11999.998817240994,155.9394550702533,-0.0010131867577847,0.0048437720950281,10000,12000,150.0,True,11.891525041515743,False,133.48162603169695,178.71447976324578,False,False
1,1970-07-23 09:33:42.708216693,2025-09-08,2025-09-11 20:11:10.821,HH,B,4084809678,HAWK11,1,1,73,2,1,1,225,2,1,0,0,12,1,225,2,1,-147445.33630545562,-4791808.625947799,4198810.452604771,2.34776,2.69194,-0.489052,-98.875,25.625,26.875,-0.0625,-6.57812,6.23438,0.00585938,-0.0214844,0.0117188,4,0,41.40365382996512,-91.7624515990918,13187.277584326775,-53.81806195873803,2.371358414634644,-2.184312723691061,10000,12000,150,1.0,2025-09-08,2025-09-11 20:11:09.827,HH,B,3017390566.0,JASSM,3.0,122.0,76.0,2.0,2.0,1.0,225.0,9.0,2.0,0.0,1.0,26.0,0.0,0.0,0.0,0.0,-155610.97693045562,-4777846.278291549,4213748.585417271,-2.71083,-1.01118,0.751842,37.25,-59.375,-65.5,0.0,0.0,0.0,0.0,0.0,0.0,2.0,0.0,41.58599628745205,-91.86542244993971,11999.998817240994,155.9394550702533,-0.0010131867577847,0.0048437720950281,10000,12000,150.0,True,11.876448174487024,False,133.42428949856537,178.65157735882497,False,False
1,1970-07-23 09:33:42.712135562,2025-09-08,2025-09-11 20:11:11.213,HH,B,4085286878,HAWK11,1,1,73,2,1,1,225,2,1,0,0,12,1,225,2,1,-147485.61950858062,-4791798.095674361,4198821.311979771,2.35159,2.68916,-0.486464,-99.0,25.75,26.75,0.046875,-6.28125,6.20312,0.0117188,-0.00976562,0.00390625,4,0,41.4037823870049,-91.76293668236076,13187.988521857547,-53.81753980608265,2.167273215438852,-2.03910013384762,10000,12000,150,1.0,2025-09-08,2025-09-11 20:11:10.920,HH,B,3018523960.0,JASSM,3.0,122.0,76.0,2.0,2.0,1.0,225.0,9.0,2.0,0.0,1.0,26.0,0.0,0.0,0.0,0.0,-155575.56286795562,-4777902.821260299,4213686.198698521,-2.71083,-1.01118,0.751842,37.25,-59.375,-65.5,0.0,0.0,0.0,0.0,0.0,0.0,2.0,0.0,41.58524573810663,-91.86497616024695,11999.995922832117,155.93975128992773,-0.0001917542892403,0.0048425799139167,10000,12000,150.0,True,11.81162930577777,False,133.39521665456547,178.57888743002172,False,False
1,1970-07-23 09:33:42.716196255,2025-09-08,2025-09-11 20:11:11.619,HH,B,4085764076,HAWK11,1,1,73,2,1,1,225,2,1,0,0,12,1,225,2,1,-147524.62146170562,-4791787.914033736,4198831.610807896,2.35533,2.68619,-0.485409,-99.0,26.125,26.375,0.0,-6.32812,6.3125,0.0078125,-0.00195312,0.00195312,4,0,41.40390531952383,-91.76340633379156,13188.244621830032,-53.74937158767239,2.0205298705515538,-1.901778958640573,10000,12000,150,1.0,2025-09-08,2025-09-11 20:11:10.920,HH,B,3018523960.0,JASSM,3.0,122.0,76.0,2.0,2.0,1.0,225.0,9.0,2.0,0.0,1.0,26.0,0.0,0.0,0.0,0.0,-155575.56286795562,-4777902.821260299,4213686.198698521,-2.71083,-1.01118,0.751842,37.25,-59.375,-65.5,0.0,0.0,0.0,0.0,0.0,0.0,2.0,0.0,41.58524573810663,-91.86497616024695,11999.995922832117,155.93975128992773,-0.0001917542892403,0.0048425799139167,10000,12000,150.0,True,11.796670351074395,False,133.37849922554,178.51218153712819,False,False
1,1970-07-23 09:33:42.724157327,2025-09-08,2025-09-11 20:11:12.415,HH,B,4086718476,HAWK11,1,1,73,2,1,1,225,2,1,0,0,12,1,225,2,1,-147604.00818045562,-4791766.667939986,4198852.520964146,2.36022,2.68197,-0.478698,-99.125,26.75,26.0,-0.15625,-6.125,5.84375,-0.00976562,-0.0214844,0.0,4,0,41.4041582858671,-91.76436248557438,13187.370905430598,-53.85633418918361,1.5941450739452985,-1.7368220890571044,10000,12000,150,1.0,2025-09-08,2025-09-11 20:11:11.876,HH,B,3019776858.0,JASSM,3.0,122.0,76.0,2.0,2.0,1.0,225.0,9.0,2.0,0.0,1.0,26.0,0.0,0.0,0.0,0.0,-155536.41443045562,-4777965.329072799,4213617.233854771,-2.71083,-1.01118,0.751842,37.25,-59.375,-65.5,0.0,0.0,0.0,0.0,0.0,0.0,2.0,0.0,41.58441603067416,-91.86448282085787,12000.0047898483,155.9400787331909,0.0007163081174337,0.0048412580321815,10000,12000,150.0,True,11.711693855585434,False,133.41978450196075,178.36523844617614,False,False
1,1970-07-23 09:33:42.724357860,2025-09-08,2025-09-11 20:11:12.435,HH,B,4086201510,HAWK11,1,1,73,2,1,1,225,2,1,0,0,12,1,225,2,1,-147561.65075858062,-4791778.076143111,4198841.395964146,2.35907,2.68677,-0.485313,-99.125,26.5,26.125,-0.0625,-6.4375,6.23438,0.0175781,-0.00195312,0.0,4,0,41.40402309978924,-91.76385229562032,13188.083122818014,-53.77469611706825,2.03679534236714,-1.6729550575347163,10000,12000,150,1.0,2025-09-08,2025-09-11 20:11:11.876,HH,B,3019776858.0,JASSM,3.0,122.0,76.0,2.0,2.0,1.0,225.0,9.0,2.0,0.0,1.0,26.0,0.0,0.0,0.0,0.0,-155536.41443045562,-4777965.329072799,4213617.233854771,-2.71083,-1.01118,0.751842,37.25,-59.375,-65.5,0.0,0.0,0.0,0.0,0.0,0.0,2.0,0.0,41.58441603067416,-91.86448282085787,12000.0047898483,155.9400787331909,0.0007163081174337,0.0048412580321815,10000,12000,150.0,True,11.727982648677887,False,133.3845357716956,178.44062584922966,False,False
1,1970-07-23 09:33:42.727138899,2025-09-08,2025-09-11 20:11:12.713,HH,B,4086877542,HAWK11,1,1,73,2,1,1,225,2,1,0,0,12,1,225,2,1,-147617.24841483062,-4791763.162080611,4198856.034636021,2.35965,2.67977,-0.476301,-99.25,25.875,26.75,-0.15625,-6.125,5.84375,-0.00976562,-0.0214844,0.0,4,0,41.40420042869965,-91.76452194087688,13187.37496524244,-53.86804409347023,1.4173018580462402,-1.8281024307874552,10000,12000,150,1.0,2025-09-08,2025-09-11 20:11:11.876,HH,B,3019776858.0,JASSM,3.0,122.0,76.0,2.0,2.0,1.0,225.0,9.0,2.0,0.0,1.0,26.0,0.0,0.0,0.0,0.0,-155536.41443045562,-4777965.329072799,4213617.233854771,-2.71083,-1.01118,0.751842,37.25,-59.375,-65.5,0.0,0.0,0.0,0.0,0.0,0.0,2.0,0.0,41.58441603067416,-91.86448282085787,12000.0047898483,155.9400787331909,0.0007163081174337,0.0048412580321815,10000,12000,150.0,True,11.70661463421191,False,133.38977042996913,178.34126125236835,False,False
1,1970-07-23 09:33:42.733217365,2025-09-08,2025-09-11 20:11:13.321,HH,B,4087672874,HAWK11,1,1,73,2,1,1,225,2,1,0,0,12,1,225,2,1,-147683.49255545562,-4791744.755830611,4198872.831511021,2.3583,2.67229,-0.470836,-99.375,27.625,25.25,0.140625,-6.07812,6.04688,0.00390625,0.00195312,0.0,4,0,41.4044111411604,-91.76532005664929,13183.569052047991,-53.802176967368126,0.9290087271100048,-2.098873945873984,10000,12000,150,1.0,2025-09-08,2025-09-11 20:11:12.921,HH,B,3021148636.0,JASSM,3.0,122.0,76.0,2.0,2.0,1.0,225.0,9.0,2.0,0.0,1.0,26.0,0.0,0.0,0.0,0.0,-155493.55114920562,-4778033.762666549,4213541.722136021,-2.71083,-1.01118,0.751938,37.25,-59.375,-65.5,0.0,0.0,0.0,0.0,0.0,0.0,2.0,0.0,41.58350760423464,-91.8639426845765,12000.000717808263,155.94272984156711,-0.0032794871524611,0.004839784124015,10000,12000,150.0,True,11.621638803035438,False,133.37234617183893,178.21175738253714,False,False
1,1970-07-23 09:33:42.733579436,2025-09-08,2025-09-11 20:11:13.357,HH,B,4087195676,HAWK11,1,1,73,2,1,1,225,2,1,0,0,12,1,225,2,1,-147644.39294608062,-4791755.623994674,4198862.921354771,2.3584,2.67555,-0.473041,-99.25,27.0,25.75,-0.109375,-5.9375,5.625,-0.00976562,-0.0078125,0.00195312,4,0,41.40428677390104,-91.76484897861135,13185.833899550647,-53.838006834995255,1.1343891217756643,-2.0092354477388183,10000,12000,150,1.0,2025-09-08,2025-09-11 20:11:12.921,HH,B,3021148636.0,JASSM,3.0,122.0,76.0,2.0,2.0,1.0,225.0,9.0,2.0,0.0,1.0,26.0,0.0,0.0,0.0,0.0,-155493.55114920562,-4778033.762666549,4213541.722136021,-2.71083,-1.01118,0.751938,37.25,-59.375,-65.5,0.0,0.0,0.0,0.0,0.0,0.0,2.0,0.0,41.58350760423464,-91.8639426845765,12000.000717808263,155.94272984156711,-0.0032794871524611,0.004839784124015,10000,12000,150.0,True,11.636602304371522,False,133.3829964695734,178.28367229419754,False,False
1,1970-07-23 09:33:42.740096680,2025-09-08,2025-09-11 20:11:14.009,HH,B,4088587506,HAWK11,1,1,73,2,1,1,225,2,1,0,0,12,1,225,2,1,-147759.95935233062,-4791723.221650924,4198891.821745396,2.35782,2.67028,-0.469398,-99.625,28.125,24.875,-0.046875,-6.48438,6.29688,0.0,0.0,0.00390625,4,0,41.40465338286963,-91.76624144865036,13177.60670723249,-53.78319972883099,0.7993889493640979,-2.1780946994024517,10000,12000,150,1.0,2025-09-08,2025-09-11 20:11:12.921,HH,B,3021148636.0,JASSM,3.0,122.0,76.0,2.0,2.0,1.0,225.0,9.0,2.0,0.0,1.0,26.0,0.0,0.0,0.0,0.0,-155493.55114920562,-4778033.762666549,4213541.722136021,-2.71083,-1.01118,0.751938,37.25,-59.375,-65.5,0.0,0.0,0.0,0.0,0.0,0.0,2.0,0.0,41.58350760423464,-91.8639426845765,12000.000717808263,155.94272984156711,-0.0032794871524611,0.004839784124015,10000,12000,150.0,True,11.592497020752756,False,133.34312308982433,178.0684947522328,False,False
1,1970-07-23 09:33:42.743217669,2025-09-08,2025-09-11 20:11:14.321,HH,B,4088945406,HAWK11,1,1,73,2,1,1,225,2,1,0,0,12,1,225,2,1,-147790.88318045562,-4791714.598604049,4198899.214323521,2.35696,2.66759,-0.466426,-99.875,28.5,24.5,-0.046875,-6.45312,6.1875,0.00195312,-0.0117188,0.0,4,0,41.40474889786389,-91.76661403804168,13174.783642083885,-53.79802328855799,0.5814306007765998,-2.296987802847491,10000,12000,150,1.0,2025-09-08,2025-09-11 20:11:14.024,HH,B,3022461014.0,JASSM,3.0,122.0,76.0,2.0,2.0,1.0,225.0,9.0,2.0,0.0,1.0,26.0,0.0,0.0,0.0,0.0,-155452.54333670562,-4778099.233369674,4213469.479948521,-2.71083,-1.01109,0.751938,37.25,-59.375,-65.5,0.0,0.0,0.0,0.0,0.0,0.0,2.0,0.0,41.58263850770512,-91.86342594413188,12000.003094141446,155.9394283244485,-0.0040028825871403,0.0010876656528853,10000,12000,150.0,True,11.52385546162465,False,133.272138314661,177.9997106145825,False,False
1,1970-07-23 09:33:42.755095921,2025-09-08,2025-09-11 20:11:15.509,HH,B,4090377006,HAWK11,1,1,73,2,1,1,225,2,1,0,0,12,1,225,2,1,-147910.75036795562,-4791680.425752486,4198927.739714146,2.35725,2.66146,-0.459619,-100.375,28.875,24.125,-0.015625,-6.60938,6.375,0.0,-0.00585938,0.00390625,4,0,41.40512269698302,-91.76805855912492,13161.72439305171,-53.83126141820748,0.0825185145203467,-2.4373774891846525,10000,12000,150,1.0,2025-09-08,2025-09-11 20:11:15.225,HH,B,3023833016.0,JASSM,3.0,122.0,76.0,2.0,2.0,1.0,225.0,9.0,2.0,0.0,1.0,26.0,0.0,0.0,0.0,0.0,-155409.67321951812,-4778167.676729049,4213393.952604771,-2.71083,-1.01109,0.751938,37.25,-59.375,-65.5,0.0,0.0,0.0,0.0,0.0,0.0,2.0,0.0,41.58172991388312,-91.86288575178688,12000.000722562656,155.93978684677165,-0.0030084932569911,0.0010861920552367,10000,12000,150.0,True,11.419153949973076,False,133.15394628541284,177.75399701562557,False,False
1,1970-07-23 09:33:42.755558295,2025-09-08,2025-09-11 20:11:15.555,HH,B,4088070540,HAWK11,1,1,73,2,1,1,225,2,1,0,0,12,1,225,2,1,-147717.43786795562,-4791735.257783736,4198881.261198521,2.35792,2.67152,-0.469782,-99.5,27.875,25.0,0.0625,-6.17188,6.125,0.00195312,0.0,0.00976562,4,0,41.40451830960792,-91.76572905951852,13181.071883949193,-53.81472259903146,0.8583610290440462,-2.140864698230004,10000,12000,150,1.0,2025-09-08,2025-09-11 20:11:15.225,HH,B,3023833016.0,JASSM,3.0,122.0,76.0,2.0,2.0,1.0,225.0,9.0,2.0,0.0,1.0,26.0,0.0,0.0,0.0,0.0,-155409.67321951812,-4778167.676729049,4213393.952604771,-2.71083,-1.01109,0.751938,37.25,-59.375,-65.5,0.0,0.0,0.0,0.0,0.0,0.0,2.0,0.0,41.58172991388312,-91.86288575178688,12000.000722562656,155.93978684677165,-0.0030084932569911,0.0010861920552367,10000,12000,150.0,True,11.492073238944077,False,133.3338014317175,178.13005340416893,False,False
1,1970-07-23 09:33:42.755563295,2025-09-08,2025-09-11 20:11:15.556,HH,B,4089462372,HAWK11,1,1,73,2,1,1,225,2,1,0,0,12,1,225,2,1,-147833.55896170562,-4791702.380830611,4198909.618620396,2.3585,2.66414,-0.464413,-100.0,28.625,24.375,0.0,-6.46875,6.35938,0.00195312,-0.00976562,0.0,4,0,41.40488396485238,-91.76712834128016,13170.546189588307,-53.746408636615,0.377272658548177,-2.297298154916445,10000,12000,150,1.0,2025-09-08,2025-09-11 20:11:15.225,HH,B,3023833016.0,JASSM,3.0,122.0,76.0,2.0,2.0,1.0,225.0,9.0,2.0,0.0,1.0,26.0,0.0,0.0,0.0,0.0,-155409.67321951812,-4778167.676729049,4213393.952604771,-2.71083,-1.01109,0.751938,37.25,-59.375,-65.5,0.0,0.0,0.0,0.0,0.0,0.0,2.0,0.0,41.58172991388312,-91.86288575178688,12000.000722562656,155.93978684677165,-0.0030084932569911,0.0010861920552367,10000,12000,150.0,True,11.448054284968475,False,133.24050891157256,177.9065777465298,False,False
1,1970-07-23 09:33:42.755572771,2025-09-08,2025-09-11 20:11:15.557,HH,B,4089899806,HAWK11,1,1,73,2,1,1,225,2,1,0,0,12,1,225,2,1,-147870.96325858062,-4791691.588838424,4198918.653776646,2.36099,2.66184,-0.462975,-100.125,29.0,24.125,0.1875,-6.5,6.34375,0.0078125,-0.00195312,0.00195312,4,0,41.40500227545479,-91.76757914838194,13166.445707423156,-53.71553833537843,0.2371803122954063,-2.213171584447438,10000,12000,150,1.0,2025-09-08,2025-09-11 20:11:15.225,HH,B,3023833016.0,JASSM,3.0,122.0,76.0,2.0,2.0,1.0,225.0,9.0,2.0,0.0,1.0,26.0,0.0,0.0,0.0,0.0,-155409.67321951812,-4778167.676729049,4213393.952604771,-2.71083,-1.01109,0.751938,37.25,-59.375,-65.5,0.0,0.0,0.0,0.0,0.0,0.0,2.0,0.0,41.58172991388312,-91.86288575178688,12000.000722562656,155.93978684677165,-0.0030084932569911,0.0010861920552367,10000,12000,150.0,True,11.433890790586304,False,133.24007472519423,177.83322618579757,False,False
1,1970-07-23 09:33:42.763236998,2025-09-08,2025-09-11 20:11:16.323,HH,B,4091331404,HAWK11,1,1,73,2,1,1,225,2,1,0,0,12,1,225,2,1,-147991.32263358062,-4791656.915010299,4198946.714323521,2.35706,2.6559,-0.455496,-100.75,29.5,23.75,0.15625,-6.29688,6.28125,0.00195312,-0.00585938,0.0,4,0,41.40537581506442,-91.76902974629635,13151.188589926443,-53.78030254276549,-0.2839432954887646,-2.5889901940939604,10000,12000,150,1.0,2025-09-08,2025-09-11 20:11:16.229,HH,B,3025085716.0,JASSM,3.0,122.0,76.0,2.0,2.0,1.0,225.0,9.0,2.0,0.0,1.0,26.0,0.0,0.0,0.0,0.0,-155370.53064139312,-4778230.168916549,4213324.991667271,-2.71083,-1.01109,0.751938,37.25,-59.375,-65.5,0.0,0.0,0.0,0.0,0.0,0.0,2.0,0.0,41.58090031539839,-91.86239254218984,12000.002485014296,155.94011418131683,-0.002100561721918,0.0010848448483393,10000,12000,150.0,True,11.334456089195756,False,133.1373649318729,177.58100904603006,False,False
1,1970-07-23 09:33:42.763555991,2025-09-08,2025-09-11 20:11:16.355,HH,B,4090814438,HAWK11,1,1,73,2,1,1,225,2,1,0,0,12,1,225,2,1,-147948.31286795562,-4791669.503877486,4198936.624479771,2.35792,2.65896,-0.457989,-100.625,29.25,23.75,-0.109375,-6.46875,6.32812,0.0,-0.00585938,-0.00195312,4,0,41.40524073256542,-91.76851130773431,13156.991819121364,-53.80015362113902,-0.0724886590348429,-2.4620865637441094,10000,12000,150,1.0,2025-09-08,2025-09-11 20:11:16.229,HH,B,3025085716.0,JASSM,3.0,122.0,76.0,2.0,2.0,1.0,225.0,9.0,2.0,0.0,1.0,26.0,0.0,0.0,0.0,0.0,-155370.53064139312,-4778230.168916549,4213324.991667271,-2.71083,-1.01109,0.751938,37.25,-59.375,-65.5,0.0,0.0,0.0,0.0,0.0,0.0,2.0,0.0,41.58090031539839,-91.86239254218984,12000.002485014296,155.94011418131683,-0.002100561721918,0.0010848448483393,10000,12000,150.0,True,11.350604108927055,False,133.08144999751994,177.66800994450722,False,False
1,1970-07-23 09:33:42.766197108,2025-09-08,2025-09-11 20:11:16.619,HH,B,4091609770,HAWK11,1,1,73,2,1,1,225,2,1,0,0,12,1,225,2,1,-148015.83630545562,-4791649.986299361,4198952.095182896,2.35246,2.6558,-0.453579,-101.0,29.5,23.5,0.296875,-6.46875,6.26562,0.00390625,-0.00195312,0.0078125,4,0,41.40544884290863,-91.76932514360756,13147.684851913416,-53.85087919136114,-0.3682260685690862,-2.8546014128049184,10000,12000,150,1.0,2025-09-08,2025-09-11 20:11:16.229,HH,B,3025085716.0,JASSM,3.0,122.0,76.0,2.0,2.0,1.0,225.0,9.0,2.0,0.0,1.0,26.0,0.0,0.0,0.0,0.0,-155370.53064139312,-4778230.168916549,4213324.991667271,-2.71083,-1.01109,0.751938,37.25,-59.375,-65.5,0.0,0.0,0.0,0.0,0.0,0.0,2.0,0.0,41.58090031539839,-91.86239254218984,12000.002485014296,155.94011418131683,-0.002100561721918,0.0010848448483393,10000,12000,150.0,True,11.32548862823659,False,132.99464130741998,177.53072460137136,False,False
1,1970-07-23 09:33:42.769156188,2025-09-08,2025-09-11 20:11:16.915,HH,B,4092086970,HAWK11,1,1,73,2,1,1,225,2,1,0,0,12,1,225,2,1,-148055.65075858062,-4791638.226533736,4198961.227995396,2.3515,2.65455,-0.4531,-101.25,29.875,23.25,0.046875,-6.57812,6.39062,0.0,-0.00585938,0.00195312,4,0,41.40557311806632,-91.76980510857308,13141.60308072816,-53.822253138467005,-0.4313998739700042,-2.940891948556151,10000,12000,150,1.0,2025-09-08,2025-09-11 20:11:16.229,HH,B,3025085716.0,JASSM,3.0,122.0,76.0,2.0,2.0,1.0,225.0,9.0,2.0,0.0,1.0,26.0,0.0,0.0,0.0,0.0,-155370.53064139312,-4778230.168916549,4213324.991667271,-2.71083,-1.01109,0.751938,37.25,-59.375,-65.5,0.0,0.0,0.0,0.0,0.0,0.0,2.0,0.0,41.58090031539839,-91.86239254218984,12000.002485014296,155.94011418131683,-0.002100561721918,0.0010848448483393,10000,12000,150.0,True,11.3106262452516,False,132.96954878004018,177.44917544704788,False,False
1,1970-07-23 09:33:42.773217095,2025-09-08,2025-09-11 20:11:17.321,HH,B,4092524402,HAWK11,1,1,73,2,1,1,225,2,1,0,0,12,1,225,2,1,-148093.48083670562,-4791627.228486861,4198969.612761021,2.35025,2.65714,-0.454346,-101.375,30.0,23.0,0.015625,-6.84375,6.65625,0.0175781,0.00585938,0.0,4,0,41.40568817631908,-91.7702610889282,13135.621723450571,-53.87294038107344,-0.2884682548735499,-2.9468625596565143,10000,12000,150,1.0,2025-09-08,2025-09-11 20:11:16.229,HH,B,3025085716.0,JASSM,3.0,122.0,76.0,2.0,2.0,1.0,225.0,9.0,2.0,0.0,1.0,26.0,0.0,0.0,0.0,0.0,-155370.53064139312,-4778230.168916549,4213324.991667271,-2.71083,-1.01109,0.751938,37.25,-59.375,-65.5,0.0,0.0,0.0,0.0,0.0,0.0,2.0,0.0,41.58090031539839,-91.86239254218984,12000.002485014296,155.94011418131683,-0.002100561721918,0.0010848448483393,10000,12000,150.0,True,11.29669893622404,False,132.8887197152693,177.37085317511188,False,False
1,1970-07-23 09:33:42.779155791,2025-09-08,2025-09-11 20:11:17.915,HH,B,4093279968,HAWK11,1,1,73,2,1,1,225,2,1,0,0,12,1,225,2,1,-148158.22107108062,-4791608.131807174,4198984.331511021,2.42551,2.66117,-0.460674,-101.625,30.0,23.25,0.0,-7.4375,7.03125,0.199219,0.00976562,0.00390625,4,0,41.4058892078261,-91.7710415336639,13125.512365414012,-53.781519239129615,0.1193471382308223,1.4672244509452,10000,12000,150,1.0,2025-09-08,2025-09-11 20:11:17.477,HH,B,3026398066.0,JASSM,3.0,122.0,76.0,2.0,2.0,1.0,225.0,9.0,2.0,0.0,1.0,26.0,0.0,0.0,0.0,0.0,-155329.52380545562,-4778295.633760299,4213252.745573521,-2.71083,-1.01109,0.751938,37.25,-59.375,-65.5,0.0,0.0,0.0,0.0,0.0,0.0,2.0,0.0,41.58003121999983,-91.86187585729438,11999.999343594096,155.9404570902528,-0.0011494036873186,0.0010834394374325,10000,12000,150.0,True,11.215699865776834,False,132.94067320982927,177.22204143430807,False,False
1,1970-07-23 09:33:42.779556595,2025-09-08,2025-09-11 20:11:17.955,HH,B,4092882302,HAWK11,1,1,73,2,1,1,225,2,1,0,0,12,1,225,2,1,-148123.93982108062,-4791618.524385299,4198976.808073521,2.35456,2.65935,-0.455209,-101.375,28.0,25.0,0.015625,-6.84375,6.65625,0.0175781,0.00585938,0.0,4,0,41.40578291487268,-91.77062816827367,13132.141915160755,-53.92362163332225,-0.1751274090017707,-2.643889725937971,10000,12000,150,1.0,2025-09-08,2025-09-11 20:11:17.477,HH,B,3026398066.0,JASSM,3.0,122.0,76.0,2.0,2.0,1.0,225.0,9.0,2.0,0.0,1.0,26.0,0.0,0.0,0.0,0.0,-155329.52380545562,-4778295.633760299,4213252.745573521,-2.71083,-1.01109,0.751938,37.25,-59.375,-65.5,0.0,0.0,0.0,0.0,0.0,0.0,2.0,0.0,41.58003121999983,-91.86187585729438,11999.999343594096,155.9404570902528,-0.0011494036873186,0.0010834394374325,10000,12000,150.0,True,11.228394865335904,False,133.02677141803562,177.2937555713124,False,False
1,1970-07-23 09:33:42.785094270,2025-09-08,2025-09-11 20:11:18.509,HH,B,4093995768,HAWK11,1,1,73,2,1,1,225,2,1,0,0,12,1,225,2,1,-148219.46325858062,-4791590.318330611,4198998.403776646,2.53299,2.66577,-0.465851,-101.625,30.125,23.875,-0.328125,-7.5,7.26562,0.175781,0.0117188,0.00585938,4,0,41.40607888146038,-91.77177972161007,13116.892639256768,-53.75515528801586,0.4979378392036522,7.743210001885354,10000,12000,150,1.0,2025-09-08,2025-09-11 20:11:18.426,HH,B,3027710418.0,JASSM,3.0,122.0,76.0,2.0,2.0,1.0,225.0,9.0,2.0,0.0,1.0,26.0,0.0,0.0,0.0,0.0,-155288.51696951812,-4778361.096650924,4213180.499479771,-2.71083,-1.01109,0.751938,37.25,-59.375,-65.5,0.0,0.0,0.0,0.0,0.0,0.0,2.0,0.0,41.579162133805504,-91.86135918701372,11999.997171928837,155.94079998360357,-0.0001982563853724,0.0010820382382484,10000,12000,150.0,True,11.136105951673489,False,133.220882251209,177.07738031102605,False,False
1,1970-07-23 09:33:42.785576184,2025-09-08,2025-09-11 20:11:18.557,HH,B,4093637868,HAWK11,1,1,73,2,1,1,225,2,1,0,0,12,1,225,2,1,-148188.76013358062,-4791599.203096236,4198991.419401646,2.48198,2.66366,-0.463742,-101.625,30.0,23.5,0.046875,-7.375,7.29688,0.1875,0.0136719,0.00390625,4,0,41.405984540334174,-91.771409655187,13121.25425536419,-53.75716057250703,0.3355841415019877,4.766575572425968,10000,12000,150,1.0,2025-09-08,2025-09-11 20:11:18.426,HH,B,3027710418.0,JASSM,3.0,122.0,76.0,2.0,2.0,1.0,225.0,9.0,2.0,0.0,1.0,26.0,0.0,0.0,0.0,0.0,-155288.51696951812,-4778361.096650924,4213180.499479771,-2.71083,-1.01109,0.751938,37.25,-59.375,-65.5,0.0,0.0,0.0,0.0,0.0,0.0,2.0,0.0,41.579162133805504,-91.86135918701372,11999.997171928837,155.94079998360357,-0.0001982563853724,0.0010820382382484,10000,12000,150.0,True,11.147389357086183,False,133.03738103491,177.14309033222872,False,False
1,1970-07-23 09:33:42.788057785,2025-09-08,2025-09-11 20:11:18.805,HH,B,4094234368,HAWK11,1,1,73,2,1,1,225,2,1,0,0,12,1,225,2,1,-148239.79724295562,-4791584.308564986,4199003.224089146,2.56779,2.6652,-0.468823,-101.5,30.25,24.125,-0.140625,-7.375,7.20312,0.177734,0.0078125,0.00585938,4,0,41.40614342206338,-91.77202485531028,13114.11797624251,-53.618371473754856,0.6035371960189619,9.72375233268261,10000,12000,150,1.0,2025-09-08,2025-09-11 20:11:18.426,HH,B,3027710418.0,JASSM,3.0,122.0,76.0,2.0,2.0,1.0,225.0,9.0,2.0,0.0,1.0,26.0,0.0,0.0,0.0,0.0,-155288.51696951812,-4778361.096650924,4213180.499479771,-2.71083,-1.01109,0.751938,37.25,-59.375,-65.5,0.0,0.0,0.0,0.0,0.0,0.0,2.0,0.0,41.579162133805504,-91.86135918701372,11999.997171928837,155.94079998360357,-0.0001982563853724,0.0010820382382484,10000,12000,150.0,True,11.128526045941708,False,133.37883645139593,177.03387251879604,False,False
1,1970-07-23 09:33:42.791197979,2025-09-08,2025-09-11 20:11:19.119,HH,B,4094671800,HAWK11,1,1,73,2,1,1,225,2,1,0,0,12,1,225,2,1,-148276.99060233062,-4791573.148408736,4199012.192839146,2.62963,2.65781,-0.477643,-101.125,30.5,24.875,-0.078125,-7.45312,7.29688,0.152344,0.0214844,0.03125,4,0,41.40626349473089,-91.7724732983748,13108.960694002615,-52.99961560592018,0.7220462612063904,13.08133398544753,10000,12000,150,1.0,2025-09-08,2025-09-11 20:11:18.426,HH,B,3027710418.0,JASSM,3.0,122.0,76.0,2.0,2.0,1.0,225.0,9.0,2.0,0.0,1.0,26.0,0.0,0.0,0.0,0.0,-155288.51696951812,-4778361.096650924,4213180.499479771,-2.71083,-1.01109,0.751938,37.25,-59.375,-65.5,0.0,0.0,0.0,0.0,0.0,0.0,2.0,0.0,41.579162133805504,-91.86135918701372,11999.997171928837,155.94079998360357,-0.0001982563853724,0.0010820382382484,10000,12000,150.0,False,11.114565618197247,False,133.81428066329966,176.95417369549858,False,False
1,1970-07-23 09:33:42.794155540,2025-09-08,2025-09-11 20:11:19.415,HH,B,4094950166,HAWK11,1,1,73,2,1,1,225,2,1,0,0,12,1,225,2,1,-148300.68005545562,-4791566.029268111,4199017.913542271,2.66452,2.65034,-0.47889,-101.0,30.75,25.25,-0.078125,-7.54688,7.32812,0.136719,0.0195312,0.0507812,4,0,41.40634009220155,-91.77275892886956,13105.667341212877,-52.67043673433126,0.5189666964485388,14.88727906731864,10000,12000,150,1.0,2025-09-08,2025-09-11 20:11:18.426,HH,B,3027710418.0,JASSM,3.0,122.0,76.0,2.0,2.0,1.0,225.0,9.0,2.0,0.0,1.0,26.0,0.0,0.0,0.0,0.0,-155288.51696951812,-4778361.096650924,4213180.499479771,-2.71083,-1.01109,0.751938,37.25,-59.375,-65.5,0.0,0.0,0.0,0.0,0.0,0.0,2.0,0.0,41.579162133805504,-91.86135918701372,11999.997171928837,155.94079998360357,-0.0001982563853724,0.0010820382382484,10000,12000,150.0,False,11.105679348473451,False,134.05910545943394,176.90320347568888,False,False
1,1970-07-23 09:33:42.797137228,2025-09-08,2025-09-11 20:11:19.713,HH,B,4095427366,HAWK11,1,1,73,2,1,1,225,2,1,0,0,12,1,225,2,1,-148340.36169608062,-4791553.724580611,4199027.981901646,2.72195,2.63222,-0.493942,-100.375,31.5,26.0,-0.078125,-7.48438,7.39062,0.105469,0.0214844,0.0566406,4,0,41.40647393361403,-91.77323752382075,13100.271887318131,-51.41159515392869,0.5464393892561488,17.704161630029358,10000,12000,150,1.0,2025-09-08,2025-09-11 20:11:19.523,HH,B,3029022768.0,JASSM,3.0,122.0,76.0,2.0,2.0,1.0,225.0,9.0,2.0,0.0,1.0,26.0,0.0,0.0,0.0,0.0,-155247.51111014312,-4778426.559541549,4213108.253386021,-2.71083,-1.01109,0.751938,37.25,-59.375,-65.5,0.0,0.0,0.0,0.0,0.0,0.0,2.0,0.0,41.57829304496849,-91.86084254228383,12000.000838541042,155.9411428541119,0.0007528876664533,0.0010806289503646,10000,12000,150.0,False,11.033536293924824,False,134.69837287922724,176.8017002440608,False,False
1,1970-07-23 09:33:42.800098773,2025-09-08,2025-09-11 20:11:20.009,HH,B,4095785266,HAWK11,1,1,73,2,1,1,225,2,1,0,0,12,1,225,2,1,-148371.43200858062,-4791543.876924361,4199036.179167271,2.75695,2.61659,-0.505159,-99.875,32.0,26.75,-0.046875,-7.73438,7.51562,0.0722656,0.0273438,0.0546875,4,0,41.40658211520258,-91.7736123391118,13096.204568469268,-50.39731307052141,0.506598704211162,19.289650374569984,10000,12000,150,1.0,2025-09-08,2025-09-11 20:11:19.523,HH,B,3029022768.0,JASSM,3.0,122.0,76.0,2.0,2.0,1.0,225.0,9.0,2.0,0.0,1.0,26.0,0.0,0.0,0.0,0.0,-155247.51111014312,-4778426.559541549,4213108.253386021,-2.71083,-1.01109,0.751938,37.25,-59.375,-65.5,0.0,0.0,0.0,0.0,0.0,0.0,2.0,0.0,41.57829304496849,-91.86084254228383,12000.000838541042,155.9411428541119,0.0007528876664533,0.0010806289503646,10000,12000,150.0,False,11.02148462279812,False,135.23781005744289,176.73459666033912,False,False
1,1970-07-23 09:33:42.803059135,2025-09-08,2025-09-11 20:11:20.305,HH,B,4096143166,HAWK11,1,1,73,2,1,1,225,2,1,0,0,12,1,225,2,1,-148401.95349295562,-4791534.037080611,4199044.433073521,2.77018,2.61342,-0.495092,-99.75,32.5,27.75,-0.203125,-7.82812,7.6875,0.0332031,0.015625,0.0410156,4,0,41.40669073252423,-91.77398059646218,13092.238143284489,-50.65858256739738,-0.0314960642817796,19.959787088276958,10000,12000,150,1.0,2025-09-08,2025-09-11 20:11:19.523,HH,B,3029022768.0,JASSM,3.0,122.0,76.0,2.0,2.0,1.0,225.0,9.0,2.0,0.0,1.0,26.0,0.0,0.0,0.0,0.0,-155247.51111014312,-4778426.559541549,4213108.253386021,-2.71083,-1.01109,0.751938,37.25,-59.375,-65.5,0.0,0.0,0.0,0.0,0.0,0.0,2.0,0.0,41.57829304496849,-91.86084254228383,12000.000838541042,155.9411428541119,0.0007528876664533,0.0010806289503646,10000,12000,150.0,False,11.009529067982577,False,135.79635330767323,176.66864310911424,False,False
1,1970-07-23 09:33:42.808055214,2025-09-08,2025-09-11 20:11:20.805,HH,B,4096660132,HAWK11,1,1,73,2,1,1,225,2,1,0,0,12,1,225,2,1,-148444.71521170562,-4791519.802705611,4199056.647917271,2.78782,2.59876,-0.511966,-98.75,33.25,29.0,-0.15625,-8.1875,7.89062,0.0214844,0.0332031,0.0410156,4,0,41.40684996721205,-91.77449670676266,13086.991379642095,-49.4689149378728,0.2147912721942773,20.567006087890224,10000,12000,150,1.0,2025-09-08,2025-09-11 20:11:20.626,HH,B,3030275468.0,JASSM,3.0,122.0,76.0,2.0,2.0,1.0,225.0,9.0,2.0,0.0,1.0,26.0,0.0,0.0,0.0,0.0,-155208.36755545562,-4778489.045869674,4213039.288542271,-2.71083,-1.01109,0.752034,37.25,-59.375,-65.5,0.0,0.0,0.0,0.0,0.0,0.0,2.0,0.0,41.577463446091855,-91.86034937556732,12000.001390459684,155.94376450229302,-0.0033321482902255,0.0010792582458412,10000,12000,150.0,False,10.93804066413167,False,136.7066562261214,176.559580788757,False,False
1,1970-07-23 09:33:42.811200008,2025-09-08,2025-09-11 20:11:21.120,HH,B,4097097564,HAWK11,1,1,73,2,1,1,225,2,1,0,0,12,1,225,2,1,-148481.45153983062,-4791507.226533736,4199067.706511021,2.7998,2.5885,-0.524046,-97.875,34.0,30.125,-0.046875,-8.14062,7.98438,0.0234375,0.0195312,0.0234375,4,0,41.40699264269232,-91.7749402247955,13082.855900014283,-48.63072396579165,0.4069544005931515,20.967259533054733,10000,12000,150,1.0,2025-09-08,2025-09-11 20:11:20.626,HH,B,3030275468.0,JASSM,3.0,122.0,76.0,2.0,2.0,1.0,225.0,9.0,2.0,0.0,1.0,26.0,0.0,0.0,0.0,0.0,-155208.36755545562,-4778489.045869674,4213039.288542271,-2.71083,-1.01109,0.752034,37.25,-59.375,-65.5,0.0,0.0,0.0,0.0,0.0,0.0,2.0,0.0,41.577463446091855,-91.86034937556732,12000.001390459684,155.94376450229302,-0.0033321482902255,0.0010792582458412,10000,12000,150.0,False,10.92302716955158,False,137.54809867980126,176.48009978133948,False,False
1,1970-07-23 09:33:42.817118048,2025-09-08,2025-09-11 20:11:21.711,HH,B,4097813364,HAWK11,1,1,73,2,1,1,225,2,1,0,0,12,1,225,2,1,-148541.71911795562,-4791485.926729049,4199086.931120396,2.80019,2.59607,-0.506022,-97.25,35.375,32.25,-0.203125,-8.10938,7.71875,0.0117188,0.00585938,0.0273438,4,0,41.40723798430458,-91.77566808781924,13076.779193690125,-49.5905478744716,-0.1298708567600477,21.200855363513558,10000,12000,150,1.0,2025-09-08,2025-09-11 20:11:21.629,HH,B,3031528168.0,JASSM,3.0,122.0,76.0,2.0,2.0,1.0,225.0,9.0,2.0,0.0,1.0,26.0,0.0,0.0,0.0,0.0,-155169.22497733062,-4778551.530244674,4212970.323698521,-2.71083,-1.01109,0.752034,37.25,-59.375,-65.5,0.0,0.0,0.0,0.0,0.0,0.0,2.0,0.0,41.57663385644819,-91.85985623392926,12000.002477980488,155.9440917642716,-0.002424235524587,0.0010779535081338,10000,12000,150.0,False,10.843455249214536,False,138.8950326732577,176.33179779547623,False,False
1,1970-07-23 09:33:42.817579513,2025-09-08,2025-09-11 20:11:21.757,HH,B,4097336164,HAWK11,1,1,73,2,1,1,225,2,1,0,0,12,1,225,2,1,-148502.14099295562,-4791500.065400924,4199074.120573521,2.79137,2.60643,-0.494229,-98.25,34.375,31.125,-0.0625,-8.09375,7.875,0.0273438,0.0136719,0.0273438,4,0,41.40707471665174,-91.77519003871004,13080.738029439,-50.42613647997722,-0.2999988557161394,20.983007690180944,10000,12000,150,1.0,2025-09-08,2025-09-11 20:11:21.629,HH,B,3031528168.0,JASSM,3.0,122.0,76.0,2.0,2.0,1.0,225.0,9.0,2.0,0.0,1.0,26.0,0.0,0.0,0.0,0.0,-155169.22497733062,-4778551.530244674,4212970.323698521,-2.71083,-1.01109,0.752034,37.25,-59.375,-65.5,0.0,0.0,0.0,0.0,0.0,0.0,2.0,0.0,41.57663385644819,-91.85985623392926,12000.002477980488,155.9440917642716,-0.002424235524587,0.0010779535081338,10000,12000,150.0,False,10.860127337156605,False,137.95110270840857,176.4176128228295,False,False
1,1970-07-23 09:33:42.821195554,2025-09-08,2025-09-11 20:11:22.119,HH,B,4098250796,HAWK11,1,1,73,2,1,1,225,2,1,0,0,12,1,225,2,1,-148576.62732108062,-4791473.064424361,4199098.757292271,2.81131,2.58552,-0.51628,-96.375,36.0,33.375,0.0625,-8.10938,7.85938,0.0214844,0.0175781,0.0371094,4,0,41.40738787514336,-91.77608987802738,13073.46838039514,-48.80815854951064,-0.0264117375204455,21.54149436275895,10000,12000,150,1.0,2025-09-08,2025-09-11 20:11:21.629,HH,B,3031528168.0,JASSM,3.0,122.0,76.0,2.0,2.0,1.0,225.0,9.0,2.0,0.0,1.0,26.0,0.0,0.0,0.0,0.0,-155169.22497733062,-4778551.530244674,4212970.323698521,-2.71083,-1.01109,0.752034,37.25,-59.375,-65.5,0.0,0.0,0.0,0.0,0.0,0.0,2.0,0.0,41.57663385644819,-91.85985623392926,12000.002477980488,155.9440917642716,-0.002424235524587,0.0010779535081338,10000,12000,150.0,False,10.8284381087884,False,139.70135608191362,176.2563404076188,False,False
1,1970-07-23 09:33:42.826379675,2025-09-08,2025-09-11 20:11:22.637,HH,B,4098529164,HAWK11,1,1,73,2,1,1,225,2,1,0,0,12,1,225,2,1,-148600.84411795562,-4791464.037080611,4199107.218229771,2.80508,2.59952,-0.492504,-96.75,36.5,34.5,-0.09375,-8.125,7.95312,0.0214844,0.0253906,0.0332031,4,0,41.40749421187891,-91.77638252559083,13071.472485538576,-50.2286554072625,-0.6020428445686609,21.57991027290208,10000,12000,150,1.0,2025-09-08,2025-09-11 20:11:21.629,HH,B,3031528168.0,JASSM,3.0,122.0,76.0,2.0,2.0,1.0,225.0,9.0,2.0,0.0,1.0,26.0,0.0,0.0,0.0,0.0,-155169.22497733062,-4778551.530244674,4212970.323698521,-2.71083,-1.01109,0.752034,37.25,-59.375,-65.5,0.0,0.0,0.0,0.0,0.0,0.0,2.0,0.0,41.57663385644819,-91.85985623392926,12000.002477980488,155.9440917642716,-0.002424235524587,0.0010779535081338,10000,12000,150.0,False,10.817898830179377,False,140.1695590687895,176.20400010743555,False,False
1,1970-07-23 09:33:42.827116485,2025-09-08,2025-09-11 20:11:22.711,HH,B,4099006362,HAWK11,1,1,73,2,1,1,225,2,1,0,0,12,1,225,2,1,-148639.81677420562,-4791449.036104049,4199121.450651646,2.82003,2.58409,-0.507844,-95.75,37.5,35.75,-0.140625,-8.1875,7.95312,0.0292969,0.0292969,0.0390625,4,0,41.40767231230113,-91.77685366758058,13068.43453202939,-49.067594736558725,-0.4402662600791313,22.002224515979183,10000,12000,150,1.0,2025-09-08,2025-09-11 20:11:21.629,HH,B,3031528168.0,JASSM,3.0,122.0,76.0,2.0,2.0,1.0,225.0,9.0,2.0,0.0,1.0,26.0,0.0,0.0,0.0,0.0,-155169.22497733062,-4778551.530244674,4212970.323698521,-2.71083,-1.01109,0.752034,37.25,-59.375,-65.5,0.0,0.0,0.0,0.0,0.0,0.0,2.0,0.0,41.57663385644819,-91.85985623392926,12000.002477980488,155.9440917642716,-0.002424235524587,0.0010779535081338,10000,12000,150.0,False,10.800562288658668,False,141.15947639747552,176.12013787631005,False,False
1,1970-07-23 09:33:42.831239176,2025-09-08,2025-09-11 20:11:23.123,HH,B,4099443796,HAWK11,1,1,73,2,1,1,225,2,1,0,0,12,1,225,2,1,-148674.13903983062,-4791435.437471236,4199134.577604771,2.83902,2.56865,-0.522033,-94.75,38.125,37.0,0.0,-8.25,8.0625,0.03125,0.0371094,0.0488281,4,0,41.407835466244585,-91.7772687367507,13066.092891970004,-47.95519012325511,-0.3158939217591535,22.647037519405306,10000,12000,150,1.0,2025-09-08,2025-09-11 20:11:22.832,HH,B,3032900168.0,JASSM,3.0,122.0,76.0,2.0,2.0,1.0,225.0,9.0,2.0,0.0,1.0,26.0,0.0,0.0,0.0,0.0,-155126.35486014312,-4778619.963838424,4212894.788542271,-2.71083,-1.01109,0.752034,37.25,-59.375,-65.5,0.0,0.0,0.0,0.0,0.0,0.0,2.0,0.0,41.57572525060562,-91.85931614545176,12000.000750807883,155.94445017527624,-0.0014298514589122,0.001076519301314,10000,12000,150.0,False,10.725448484545876,False,142.04200229169737,176.02476720586446,False,False
1,1970-07-23 09:33:42.834155582,2025-09-08,2025-09-11 20:11:23.415,HH,B,4099722162,HAWK11,1,1,73,2,1,1,225,2,1,0,0,12,1,225,2,1,-148697.89489920562,-4791425.742158736,4199144.067839146,2.84247,2.57814,-0.503625,-94.875,38.75,38.25,-0.171875,-8.28125,8.04688,0.0371094,0.0234375,0.0351562,4,0,41.40795280543207,-91.7775561295307,13064.65405536358,-48.99743696336459,-0.8167832407352478,23.121989078238173,10000,12000,150,1.0,2025-09-08,2025-09-11 20:11:22.832,HH,B,3032900168.0,JASSM,3.0,122.0,76.0,2.0,2.0,1.0,225.0,9.0,2.0,0.0,1.0,26.0,0.0,0.0,0.0,0.0,-155126.35486014312,-4778619.963838424,4212894.788542271,-2.71083,-1.01109,0.752034,37.25,-59.375,-65.5,0.0,0.0,0.0,0.0,0.0,0.0,2.0,0.0,41.57572525060562,-91.85931614545176,12000.000750807883,155.94445017527624,-0.0014298514589122,0.001076519301314,10000,12000,150.0,False,10.714411368365663,False,142.63277424751257,175.97378226525734,False,False
1,1970-07-23 09:33:42.841203038,2025-09-08,2025-09-11 20:11:24.120,HH,B,4100676560,HAWK11,1,1,73,2,1,1,225,2,1,0,0,12,1,225,2,1,-148773.29138358062,-4791393.824189986,4199175.876432896,2.89127,2.54718,-0.530949,-92.625,40.5,40.875,-0.171875,-8.125,7.96875,0.0390625,0.015625,0.0410156,4,0,41.40834343054331,-91.77846869095843,13060.933074305154,-46.81097618847002,-0.6007961118911337,25.013554964483685,10000,12000,150,1.0,2025-09-08,2025-09-11 20:11:23.919,HH,B,3034152868.0,JASSM,3.0,122.0,76.0,2.0,2.0,1.0,225.0,9.0,2.0,0.0,1.0,26.0,0.0,0.0,0.0,0.0,-155087.21130545562,-4778682.446260299,4212825.819792271,-2.71083,-1.01109,0.752034,37.25,-59.375,-65.5,0.0,0.0,0.0,0.0,0.0,0.0,2.0,0.0,41.5748956418301,-91.85882301931932,11999.999462117732,155.9447774157302,-0.0005219218887391,0.0010752161038955,10000,12000,150.0,False,10.62408626474866,False,144.65046902208476,175.79148632608891,False,False
1,1970-07-23 09:33:42.841557336,2025-09-08,2025-09-11 20:11:24.155,HH,B,4100239128,HAWK11,1,1,73,2,1,1,225,2,1,0,0,12,1,225,2,1,-148738.47693045562,-4791408.832979049,4199160.821745396,2.86989,2.5606,-0.51839,-93.75,39.625,39.75,0.0,-8.1875,7.92188,0.0507812,0.015625,0.0488281,4,0,41.40815897283362,-91.7780472124321,13062.519897022325,-47.78219569570605,-0.7321170372411098,24.18503961553571,10000,12000,150,1.0,2025-09-08,2025-09-11 20:11:23.919,HH,B,3034152868.0,JASSM,3.0,122.0,76.0,2.0,2.0,1.0,225.0,9.0,2.0,0.0,1.0,26.0,0.0,0.0,0.0,0.0,-155087.21130545562,-4778682.446260299,4212825.819792271,-2.71083,-1.01109,0.752034,37.25,-59.375,-65.5,0.0,0.0,0.0,0.0,0.0,0.0,2.0,0.0,41.5748956418301,-91.85882301931932,11999.999462117732,155.9447774157302,-0.0005219218887391,0.0010752161038955,10000,12000,150.0,False,10.64092817113026,False,143.70490535072253,175.8660251889447,False,False
1,1970-07-23 09:33:42.847116286,2025-09-08,2025-09-11 20:11:24.711,HH,B,4101392360,HAWK11,1,1,73,2,1,1,225,2,1,0,0,12,1,225,2,1,-148829.81872733062,-4791368.182588424,4199201.821745396,2.91322,2.53883,-0.529032,-91.5,42.375,43.25,-0.09375,-8.23438,7.92188,0.0253906,0.0253906,0.0332031,4,0,41.40866062758534,-91.77915351225629,13058.48751123186,-46.56150447941814,-0.946104317069046,26.026636604537288,10000,12000,150,1.0,2025-09-08,2025-09-11 20:11:23.919,HH,B,3034152868.0,JASSM,3.0,122.0,76.0,2.0,2.0,1.0,225.0,9.0,2.0,0.0,1.0,26.0,0.0,0.0,0.0,0.0,-155087.21130545562,-4778682.446260299,4212825.819792271,-2.71083,-1.01109,0.752034,37.25,-59.375,-65.5,0.0,0.0,0.0,0.0,0.0,0.0,2.0,0.0,41.5748956418301,-91.85882301931932,11999.999462117732,155.9447774157302,-0.0005219218887391,0.0010752161038955,10000,12000,150.0,False,10.595773234986149,False,146.3028286018353,175.67160114504458,False,False
1,1970-07-23 09:33:42.847557006,2025-09-08,2025-09-11 20:11:24.755,HH,B,4100915160,HAWK11,1,1,73,2,1,1,225,2,1,0,0,12,1,225,2,1,-148792.55310233062,-4791385.163057174,4199184.583464146,2.89385,2.55532,-0.515513,-92.75,41.125,42.0,-0.078125,-8.1875,7.875,0.0351562,0.0253906,0.0351562,4,0,41.40845015909229,-91.77870201507908,13059.996585506364,-47.68569649812264,-1.0260759502322645,25.407644341628608,10000,12000,150,1.0,2025-09-08,2025-09-11 20:11:23.919,HH,B,3034152868.0,JASSM,3.0,122.0,76.0,2.0,2.0,1.0,225.0,9.0,2.0,0.0,1.0,26.0,0.0,0.0,0.0,0.0,-155087.21130545562,-4778682.446260299,4212825.819792271,-2.71083,-1.01109,0.752034,37.25,-59.375,-65.5,0.0,0.0,0.0,0.0,0.0,0.0,2.0,0.0,41.5748956418301,-91.85882301931932,11999.999462117732,155.9447774157302,-0.0005219218887391,0.0010752161038955,10000,12000,150.0,False,10.614510255876445,False,145.17651321981344,175.75060126139277,False,False
1,1970-07-23 09:33:42.851199507,2025-09-08,2025-09-11 20:11:25.119,HH,B,4101829794,HAWK11,1,1,73,2,1,1,225,2,1,0,0,12,1,225,2,1,-148862.55505545562,-4791352.730439986,4199217.597136021,2.93019,2.52177,-0.541208,-90.25,43.25,44.5,-0.28125,-8.21875,7.92188,0.0175781,0.0273438,0.0332031,4,0,41.40885296681607,-91.77955033528885,13057.217678499608,-45.4689796400611,-0.9301283965793168,26.48247130350088,10000,12000,150,1.0,2025-09-08,2025-09-11 20:11:24.923,HH,B,3035465192.0,JASSM,3.0,122.0,76.0,2.0,2.0,1.0,225.0,9.0,2.0,0.0,1.0,26.0,0.0,0.0,0.0,0.0,-155046.20544608062,-4778747.901338424,4212753.569792271,-2.71083,-1.01099,0.752034,37.25,-59.375,-65.5,0.0,0.0,0.0,0.0,0.0,0.0,2.0,0.0,41.57402656128614,-91.85830644562472,12000.003738125972,155.94147163440255,-0.0012475340122565,-0.0026821545160412,10000,12000,150.0,False,10.52201789091354,False,147.32666003164658,175.57902124393965,False,False
1,1970-07-23 09:33:42.854156965,2025-09-08,2025-09-11 20:11:25.415,HH,B,4102108160,HAWK11,1,1,73,2,1,1,225,2,1,0,0,12,1,225,2,1,-148884.71716483062,-4791341.848604049,4199228.727995396,2.93479,2.52206,-0.533825,-90.0,43.875,45.625,-0.171875,-8.21875,7.9375,0.0195312,0.0332031,0.0449219,4,0,41.40898872586119,-91.779819137428,13056.302168307751,-45.744170575636346,-1.2516077146466922,26.75986572827972,10000,12000,150,1.0,2025-09-08,2025-09-11 20:11:24.923,HH,B,3035465192.0,JASSM,3.0,122.0,76.0,2.0,2.0,1.0,225.0,9.0,2.0,0.0,1.0,26.0,0.0,0.0,0.0,0.0,-155046.20544608062,-4778747.901338424,4212753.569792271,-2.71083,-1.01099,0.752034,37.25,-59.375,-65.5,0.0,0.0,0.0,0.0,0.0,0.0,2.0,0.0,41.57402656128614,-91.85830644562472,12000.003738125972,155.94147163440255,-0.0012475340122565,-0.0026821545160412,10000,12000,150.0,False,10.510295778161089,False,147.94254385653892,175.5324953744417,False,False
1,1970-07-23 09:33:42.861195064,2025-09-08,2025-09-11 20:11:26.119,HH,B,4103062558,HAWK11,1,1,73,2,1,1,225,2,1,0,0,12,1,225,2,1,-148956.06286795562,-4791305.417939986,4199266.479948521,2.96758,2.47997,-0.562012,-87.25,46.0,48.375,-0.171875,-8.20312,8.04688,0.0175781,0.0371094,0.0429688,4,0,41.40944703885949,-91.78068501016575,13054.080166023465,-43.12787783490518,-1.2435623984650914,27.32523679780532,10000,12000,150,1.0,2025-09-08,2025-09-11 20:11:26.025,HH,B,3036777550.0,JASSM,3.0,122.0,76.0,2.0,2.0,1.0,225.0,9.0,2.0,0.0,1.0,26.0,0.0,0.0,0.0,0.0,-155005.19861014312,-4778813.356416549,4212681.311979771,-2.71074,-1.01099,0.752034,37.25,-59.375,-65.5,0.0,0.0,0.0,0.0,0.0,0.0,2.0,0.0,41.57315742588633,-91.85778987408266,11999.996688120798,155.94181442172882,-0.0002963572186697,0.0028078785213459,10000,12000,150.0,False,10.414520912045854,False,150.24911517585792,175.35884367213364,False,False
1,1970-07-23 09:33:42.861555243,2025-09-08,2025-09-11 20:11:26.155,HH,B,4102585358,HAWK11,1,1,73,2,1,1,225,2,1,0,0,12,1,225,2,1,-148920.54333670562,-4791323.865205611,4199247.288542271,2.95023,2.50096,-0.548015,-88.75,44.875,47.0,0.078125,-8.20312,8.07812,0.0117188,0.0234375,0.0507812,4,0,41.40921434628189,-91.7802538178024,13055.088314951168,-44.42728113027429,-1.2549199117981054,26.993203413262545,10000,12000,150,1.0,2025-09-08,2025-09-11 20:11:26.025,HH,B,3036777550.0,JASSM,3.0,122.0,76.0,2.0,2.0,1.0,225.0,9.0,2.0,0.0,1.0,26.0,0.0,0.0,0.0,0.0,-155005.19861014312,-4778813.356416549,4212681.311979771,-2.71074,-1.01099,0.752034,37.25,-59.375,-65.5,0.0,0.0,0.0,0.0,0.0,0.0,2.0,0.0,41.57315742588633,-91.85778987408266,11999.996688120798,155.94181442172882,-0.0002963572186697,0.0028078785213459,10000,12000,150.0,False,10.434129857481663,False,149.039467562674,175.43297328570648,False,False
1,1970-07-23 09:33:42.864157539,2025-09-08,2025-09-11 20:11:26.415,HH,B,4103301158,HAWK11,1,1,73,2,1,1,225,2,1,0,0,12,1,225,2,1,-148973.98083670562,-4791295.445283736,4199276.708464146,2.97477,2.47805,-0.557123,-86.875,46.875,49.25,0.015625,-8.28125,7.96875,0.0195312,0.0390625,0.0527344,4,0,41.40957208192225,-91.7809027757602,13053.119635333302,-43.223600973229104,-1.5226876751535652,27.68124643847268,10000,12000,150,1.0,2025-09-08,2025-09-11 20:11:26.025,HH,B,3036777550.0,JASSM,3.0,122.0,76.0,2.0,2.0,1.0,225.0,9.0,2.0,0.0,1.0,26.0,0.0,0.0,0.0,0.0,-155005.19861014312,-4778813.356416549,4212681.311979771,-2.71074,-1.01099,0.752034,37.25,-59.375,-65.5,0.0,0.0,0.0,0.0,0.0,0.0,2.0,0.0,41.57315742588633,-91.85778987408266,11999.996688120798,155.94181442172882,-0.0002963572186697,0.0028078785213459,10000,12000,150.0,False,10.404198543978772,False,150.87637718309452,175.32216619160837,False,False
1,1970-07-23 09:33:42.867115765,2025-09-08,2025-09-11 20:11:26.711,HH,B,4103738592,HAWK11,1,1,73,2,1,1,225,2,1,0,0,12,1,225,2,1,-149005.04138358062,-4791278.326143111,4199294.614714146,2.99097,2.46166,-0.569299,-85.625,47.75,50.5,-0.34375,-8.28125,7.98438,0.0195312,0.0351562,0.046875,4,0,41.40978902282944,-91.78128020884536,13052.249509640837,-42.16938508887572,-1.4427240539785084,28.08083939208319,10000,12000,150,1.0,2025-09-08,2025-09-11 20:11:26.025,HH,B,3036777550.0,JASSM,3.0,122.0,76.0,2.0,2.0,1.0,225.0,9.0,2.0,0.0,1.0,26.0,0.0,0.0,0.0,0.0,-155005.19861014312,-4778813.356416549,4212681.311979771,-2.71074,-1.01099,0.752034,37.25,-59.375,-65.5,0.0,0.0,0.0,0.0,0.0,0.0,2.0,0.0,41.57315742588633,-91.85778987408266,11999.996688120798,155.94181442172882,-0.0002963572186697,0.0028078785213459,10000,12000,150.0,False,10.386305869980188,False,151.89823952676068,175.2582961396562,False,False
1,1970-07-23 09:33:42.873057968,2025-09-08,2025-09-11 20:11:27.305,HH,B,4104454390,HAWK11,1,1,73,2,1,1,225,2,1,0,0,12,1,225,2,1,-149056.49060233062,-4791247.958955611,4199326.145964146,3.00689,2.44037,-0.575914,-83.5,49.875,52.625,-0.234375,-8.14062,7.95312,-0.0371094,0.0253906,0.0546875,4,0,41.410172953867225,-91.78190614836154,13049.92503993448,-41.11931321106452,-1.744675086845506,28.302819217729,10000,12000,150,1.0,2025-09-08,2025-09-11 20:11:27.127,HH,B,3038030270.0,JASSM,3.0,122.0,76.0,2.0,2.0,1.0,225.0,9.0,2.0,0.0,1.0,26.0,0.0,0.0,0.0,0.0,-154966.05505545562,-4778875.836885299,4212612.343229771,-2.71074,-1.01099,0.75213,37.25,-59.375,-65.5,0.0,0.0,0.0,0.0,0.0,0.0,2.0,0.0,41.572327821851104,-91.85729678776792,12000.006854396182,155.94443488538073,-0.0043781472109754,0.0028064463010792,10000,12000,150.0,False,10.301021550101781,False,153.797228281955,175.12913602202266,False,False
1,1970-07-23 09:33:42.873556609,2025-09-08,2025-09-11 20:11:27.355,HH,B,4104136258,HAWK11,1,1,73,2,1,1,225,2,1,0,0,12,1,225,2,1,-149033.93982108062,-4791261.821260299,4199311.895964146,3.00411,2.44497,-0.580228,-84.375,48.625,51.625,-0.0625,-8.10938,7.9375,0.0136719,0.03125,0.046875,4,0,41.40999849040555,-91.78163158584933,13051.369206480613,-41.15196521659856,-1.4151026976865635,28.28845055995493,10000,12000,150,1.0,2025-09-08,2025-09-11 20:11:27.127,HH,B,3038030270.0,JASSM,3.0,122.0,76.0,2.0,2.0,1.0,225.0,9.0,2.0,0.0,1.0,26.0,0.0,0.0,0.0,0.0,-154966.05505545562,-4778875.836885299,4212612.343229771,-2.71074,-1.01099,0.75213,37.25,-59.375,-65.5,0.0,0.0,0.0,0.0,0.0,0.0,2.0,0.0,41.572327821851104,-91.85729678776792,12000.006854396182,155.94443488538073,-0.0043781472109754,0.0028064463010792,10000,12000,150.0,False,10.314960390068096,False,152.8824306316792,175.1742802651023,False,False
1,1970-07-23 09:33:42.879156404,2025-09-08,2025-09-11 20:11:27.915,HH,B,4104931590,HAWK11,1,1,73,2,1,1,225,2,1,0,0,12,1,225,2,1,-149089.37732108062,-4791227.894502486,4199347.208464146,2.99145,2.42005,-0.58809,-82.125,50.75,54.0,-0.171875,-8.34375,7.98438,-0.0664062,0.03125,0.0390625,4,0,41.410428375910655,-91.78230650038444,13048.802525192888,-39.92193086066075,-1.7450869503795003,26.741836756978568,10000,12000,150,1.0,2025-09-08,2025-09-11 20:11:27.127,HH,B,3038030270.0,JASSM,3.0,122.0,76.0,2.0,2.0,1.0,225.0,9.0,2.0,0.0,1.0,26.0,0.0,0.0,0.0,0.0,-154966.05505545562,-4778875.836885299,4212612.343229771,-2.71074,-1.01099,0.75213,37.25,-59.375,-65.5,0.0,0.0,0.0,0.0,0.0,0.0,2.0,0.0,41.572327821851104,-91.85729678776792,12000.006854396182,155.94443488538073,-0.0043781472109754,0.0028064463010792,10000,12000,150.0,False,10.280650071131817,False,154.89602686595308,175.06302115175788,False,False
1,1970-07-23 09:33:42.879553785,2025-09-08,2025-09-11 20:11:27.955,HH,B,4104852056,HAWK11,1,1,73,2,1,1,225,2,1,0,0,12,1,225,2,1,-149084.38122733062,-4791231.769502486,4199344.122526646,3.00545,2.41985,-0.586844,-83.625,47.25,55.25,-0.234375,-8.14062,7.95312,-0.0371094,0.0253906,0.0546875,4,0,41.4103854220552,-91.78224537201773,13051.253585315357,-39.95575639479638,-1.808687394360469,27.538792753478432,10000,12000,150,1.0,2025-09-08,2025-09-11 20:11:27.127,HH,B,3038030270.0,JASSM,3.0,122.0,76.0,2.0,2.0,1.0,225.0,9.0,2.0,0.0,1.0,26.0,0.0,0.0,0.0,0.0,-154966.05505545562,-4778875.836885299,4212612.343229771,-2.71074,-1.01099,0.75213,37.25,-59.375,-65.5,0.0,0.0,0.0,0.0,0.0,0.0,2.0,0.0,41.572327821851104,-91.85729678776792,12000.006854396182,155.94443488538073,-0.0043781472109754,0.0028064463010792,10000,12000,150.0,False,10.283983792675677,False,153.81726972443727,175.0723477154286,False,False
1,1970-07-23 09:33:42.885099036,2025-09-08,2025-09-11 20:11:28.509,HH,B,4105687156,HAWK11,1,1,73,2,1,1,225,2,1,0,0,12,1,225,2,1,-149141.56286795562,-4791194.146455611,4199382.755339146,2.97343,2.38831,-0.605155,-80.0,52.375,56.25,0.0625,-8.4375,8.28125,-0.0488281,0.03125,0.0605469,4,0,41.410859378293374,-91.7829425064928,13046.937838557293,-38.12842065649059,-1.8002216267748825,24.632051671003005,10000,12000,150,1.0,2025-09-08,2025-09-11 20:11:28.195,HH,B,3039342622.0,JASSM,3.0,122.0,76.0,2.0,2.0,1.0,225.0,9.0,2.0,0.0,1.0,26.0,0.0,0.0,0.0,0.0,-154925.04821951812,-4778941.288057174,4212540.085417271,-2.71074,-1.01099,0.75213,37.25,-59.375,-65.5,0.0,0.0,0.0,0.0,0.0,0.0,2.0,0.0,41.57145870497033,-91.8567802448099,12000.001481184194,155.9447776423575,-0.0034269918290304,0.0028050537407653,10000,12000,150.0,False,10.190045029855787,False,156.69252303159985,174.93211155892678,False,False
1,1970-07-23 09:33:42.885576886,2025-09-08,2025-09-11 20:11:28.557,HH,B,4105329256,HAWK11,1,1,73,2,1,1,225,2,1,0,0,12,1,225,2,1,-149117.11364920562,-4791210.402314986,4199365.667448521,2.97909,2.40097,-0.601896,-80.875,51.5,55.0,-0.03125,-8.32812,8.17188,-0.0664062,0.0292969,0.0527344,4,0,41.41065187727616,-91.7826443676802,13047.963059254718,-38.72633019326938,-1.6164848917849688,25.38545871619492,10000,12000,150,1.0,2025-09-08,2025-09-11 20:11:28.195,HH,B,3039342622.0,JASSM,3.0,122.0,76.0,2.0,2.0,1.0,225.0,9.0,2.0,0.0,1.0,26.0,0.0,0.0,0.0,0.0,-154925.04821951812,-4778941.288057174,4212540.085417271,-2.71074,-1.01099,0.75213,37.25,-59.375,-65.5,0.0,0.0,0.0,0.0,0.0,0.0,2.0,0.0,41.57145870497033,-91.8567802448099,12000.001481184194,155.9447776423575,-0.0034269918290304,0.0028050537407653,10000,12000,150.0,False,10.206174617361306,False,155.81030706599188,174.98014222804372,False,False
1,1970-07-23 09:33:42.888055924,2025-09-08,2025-09-11 20:11:28.805,HH,B,4106124588,HAWK11,1,1,73,2,1,1,225,2,1,0,0,12,1,225,2,1,-149170.15075858062,-4791175.143525924,4199403.222136021,2.97209,2.36914,-0.616277,-78.75,53.0,57.5,-0.015625,-8.45312,8.10938,-0.0273438,0.0136719,0.0410156,4,0,41.41110525768677,-91.78329111383304,13046.80669373837,-37.025665526420994,-1.7736601273040478,23.890765416600782,10000,12000,150,1.0,2025-09-08,2025-09-11 20:11:28.195,HH,B,3039342622.0,JASSM,3.0,122.0,76.0,2.0,2.0,1.0,225.0,9.0,2.0,0.0,1.0,26.0,0.0,0.0,0.0,0.0,-154925.04821951812,-4778941.288057174,4212540.085417271,-2.71074,-1.01099,0.75213,37.25,-59.375,-65.5,0.0,0.0,0.0,0.0,0.0,0.0,2.0,0.0,41.57145870497033,-91.8567802448099,12000.001481184194,155.9447776423575,-0.0034269918290304,0.0028050537407653,10000,12000,150.0,False,10.17100964413257,False,157.64403798672575,174.87592581744656,False,False
1,1970-07-23 09:33:42.891197539,2025-09-08,2025-09-11 20:11:29.119,HH,B,4106562022,HAWK11,1,1,73,2,1,1,225,2,1,0,0,12,1,225,2,1,-149199.32458670562,-4791155.191377486,4199424.876432896,2.96979,2.35466,-0.628069,-77.375,53.75,58.625,-0.078125,-8.40625,8.07812,-0.0332031,0.0214844,0.0351562,4,0,41.4113646884962,-91.78364707718812,13046.963811491694,-36.09102823390713,-1.5794150248601957,23.24820471091741,10000,12000,150,1.0,2025-09-08,2025-09-11 20:11:28.195,HH,B,3039342622.0,JASSM,3.0,122.0,76.0,2.0,2.0,1.0,225.0,9.0,2.0,0.0,1.0,26.0,0.0,0.0,0.0,0.0,-154925.04821951812,-4778941.288057174,4212540.085417271,-2.71074,-1.01099,0.75213,37.25,-59.375,-65.5,0.0,0.0,0.0,0.0,0.0,0.0,2.0,0.0,41.57145870497033,-91.8567802448099,12000.001481184194,155.9447776423575,-0.0034269918290304,0.0028050537407653,10000,12000,150.0,False,10.151107948509798,False,158.63549545258326,174.81917754336726,False,False
1,1970-07-23 09:33:42.894155777,2025-09-08,2025-09-11 20:11:29.415,HH,B,4106880154,HAWK11,1,1,73,2,1,1,225,2,1,0,0,12,1,225,2,1,-149219.90857108062,-4791140.030244674,4199441.009245396,2.96557,2.34977,-0.629603,-76.5,54.25,59.75,-0.015625,-8.28125,8.04688,-0.0566406,0.0234375,0.0234375,4,0,41.41155994495725,-91.78389863680152,13046.264200790158,-35.853231331889674,-1.6288534053695682,22.835104235185497,10000,12000,150,1.0,2025-09-08,2025-09-11 20:11:28.195,HH,B,3039342622.0,JASSM,3.0,122.0,76.0,2.0,2.0,1.0,225.0,9.0,2.0,0.0,1.0,26.0,0.0,0.0,0.0,0.0,-154925.04821951812,-4778941.288057174,4212540.085417271,-2.71074,-1.01099,0.75213,37.25,-59.375,-65.5,0.0,0.0,0.0,0.0,0.0,0.0,2.0,0.0,41.57145870497033,-91.8567802448099,12000.001481184194,155.9447776423575,-0.0034269918290304,0.0028050537407653,10000,12000,150.0,False,10.136372713837877,False,159.37997034055653,174.7803361262704,False,False
1,1970-07-23 09:33:42.897113978,2025-09-08,2025-09-11 20:11:29.711,HH,B,4107317588,HAWK11,1,1,73,2,1,1,225,2,1,0,0,12,1,225,2,1,-149247.27380545562,-4791120.301729049,4199462.644011021,2.94601,2.33875,-0.639574,-75.375,54.875,60.75,-0.28125,-8.42188,8.09375,-0.0898438,0.0234375,0.0253906,4,0,41.41181824679549,-91.78423291428992,13046.791893561647,-35.11638006408011,-1.4228933518868625,21.320401214669914,10000,12000,150,1.0,2025-09-08,2025-09-11 20:11:29.520,HH,B,3040654972.0,JASSM,3.0,122.0,76.0,2.0,2.0,1.0,225.0,9.0,2.0,0.0,1.0,26.0,0.0,0.0,0.0,0.0,-154884.04040701812,-4779006.739229049,4212467.827604771,-2.71074,-1.01099,0.75213,37.25,-59.375,-65.5,0.0,0.0,0.0,0.0,0.0,0.0,2.0,0.0,41.57058958582605,-91.85626370400286,12000.001790867293,155.94512039202155,-0.0024758329084986,0.0028036692260094,10000,12000,150.0,False,10.06004550403381,False,160.2113998791462,174.69851169601674,False,False
