Subject_cm,Timestamp,SampleDate_cm,SampleTime_cm,Configuration_cm,Scenario_cm,DisTime_cm,MarkingTxt_cm,Application_cm,EntId_cm,Site_cm,ExerciseId_cm,ForceId_cm,Category_cm,Country_cm,Domain_cm,Kind_cm,Extra_cm,Specific_cm,Subcategory_cm,AltCategory_cm,AltCountry_cm,AltDomain_cm,AltKind_cm,ECEF_X_cm,ECEF_Y_cm,ECEF_Z_cm,OriPhi_cm,OriPsi_cm,OriTheta_cm,LinVelX_cm,LinVelY_cm,LinVelZ_cm,LinAccX_cm,LinAccY_cm,LinAccZ_cm,AngVelX_cm,AngVelY_cm,AngVelZ_cm,DrAlg_cm,Appearance_cm,Latitude_cm,Longitude_cm,Altitude_cm,Heading_cm,Pitch_cm,Roll_cm,CalibratedAirspeed_cm,CM_Altitude_Lead_cm,CM_Altitude_Wing_cm,CM_Airspeed_cm,Subject_ac,SampleDate_ac,SampleTime_ac,Configuration_ac,Scenario_ac,DisTime_ac,MarkingTxt_ac,Application_ac,EntId_ac,Site_ac,ExerciseId_ac,ForceId_ac,Category_ac,Country_ac,Domain_ac,Kind_ac,Extra_ac,Specific_ac,Subcategory_ac,AltCategory_ac,AltCountry_ac,AltDomain_ac,AltKind_ac,ECEF_X_ac,ECEF_Y_ac,ECEF_Z_ac,OriPhi_ac,OriPsi_ac,OriTheta_ac,LinVelX_ac,LinVelY_ac,LinVelZ_ac,LinAccX_ac,LinAccY_ac,LinAccZ_ac,AngVelX_ac,AngVelY_ac,AngVelZ_ac,DrAlg_ac,Appearance_ac,Latitude_ac,Longitude_ac,Altitude_ac,Heading_ac,Pitch_ac,Roll_ac,CalibratedAirspeed_ac,CM_Altitude_Lead_ac,CM_Altitude_Wing_ac,CM_Airspeed_ac,Bank_Angle_Condition,distance_nm,Distance_Condition,angle_between_vel,angle_between_pos,Cone_Condition,angle_between_pos_nose,Nose_Cone_Condition,Intercept_Criteria
2,1970-07-23 09:44:53.358308703,2025-09-09,2025-09-26 14:48:55.830,HH,B,1812172934,JASSM,3,102,76,2,2,1,225,9,2,0,1,26,0,0,0,0,-170491.15295584625,-4793382.472627486,4194688.547331333,-2.29541,0.0348981,-0.0796711,94.75,3.25,7.625,0.0,0.0,0.0,0.0,0.0,0.0,2,0,41.36191946258005,-92.0370390626483,10000.0021390246,83.90928563657174,-0.0042245389717509,0.0057525547054558,,8714.375071090433,10952.218357409804,150,2,2025-09-09,2025-09-26 14:48:55.752,HH,B,3168169096,AMBUSH51,1,1,48,2,1,1,225,2,1,0,0,9,1,225,2,1,-150967.68522397126,-4792990.359354898,4195283.671866816,2.29292,3.13693,0.0409938,-115.663,-8.97772,-16.7331,-0.279388,-7.46177,6.45134,-0.0267471,4.26522e-05,0.000179971,4,0,41.3721619399577,-91.80408299841876,8714.375071090433,-92.77819252852711,-0.3996334689200058,-0.0192278123942649,200.622,8714.375071090433,10952.218357409804,150,True,10.508701266485156,False,175.6331995928053,177.03387917364014,False,7.243856476745577,True,False
2,1970-07-23 09:44:53.369069857,2025-09-09,2025-09-26 14:48:56.906,HH,B,1813246676,JASSM,3,102,76,2,2,1,225,9,2,0,1,26,0,0,0,0,-170405.8839128775,-4793379.494111861,4194695.368620396,-2.29541,0.0348981,-0.0796711,94.75,3.25,7.625,0.0,0.0,0.0,0.0,0.0,0.0,2,0,41.362001262298286,-92.0360223844794,9999.999474626127,83.90995747141717,-0.0034570994262956,0.0057529334567334,,8714.375071090433,10952.218357409804,150,2,2025-09-09,2025-09-26 14:48:56.951,HH,B,3169600696,AMBUSH51,1,1,48,2,1,1,225,2,1,0,0,9,1,225,2,1,-151107.44682971737,-4793001.41674144,4195263.122466424,2.27844,3.13476,0.041978,-115.704,-9.14936,-16.7681,-0.253628,-7.33817,6.39043,-0.00657572,-0.0147504,0.000286082,4,0,41.37193121596724,-91.80574789902748,8707.862892500172,-92.73928734812374,-0.5290543988446466,-0.8440002229831698,200.402,8714.375071090433,10952.218357409804,150,True,10.38704527536197,False,175.57557451028762,176.9676443335291,False,7.360167827300683,True,False
2,1970-07-23 09:44:53.378128978,2025-09-09,2025-09-26 14:48:57.812,HH,B,1814499294,JASSM,3,102,76,2,2,1,225,9,2,0,1,26,0,0,0,0,-170306.40612967435,-4793376.018525924,4194703.326628208,-2.29541,0.0348981,-0.0796711,94.75,3.25,7.625,0.0,0.0,0.0,0.0,0.0,0.0,2,0,41.36209668613553,-92.0348362900388,9999.999407031906,83.91074126023604,-0.002561777929931,0.0057533801153006,,8714.375071090433,10952.218357409804,150,2,2025-09-09,2025-09-26 14:48:57.751,HH,B,3170555094,AMBUSH51,1,1,48,2,1,1,225,2,1,0,0,9,1,225,2,1,-151200.1412880673,-4793008.667904716,4195249.509551026,2.27473,3.1324,0.0433177,-115.753,-9.17236,-16.8618,-0.175594,-7.51834,6.34958,-0.00489876,-0.000356822,-0.00174458,4,0,41.37177877804058,-91.806852140593,8703.381526751999,-92.7084492424783,-0.6801450611988853,-1.0511304300443456,200.512,8714.375071090433,10952.218357409804,150,True,10.283210269086405,False,175.53606299555776,176.91605227186935,False,7.4534325215531325,True,False
2,1970-07-23 09:44:53.388168993,2025-09-09,2025-09-26 14:48:58.816,HH,B,1815694530,JASSM,3,102,76,2,2,1,225,9,2,0,1,26,0,0,0,0,-170211.48718436187,-4793372.702119674,4194710.918425083,-2.29541,0.0348981,-0.0796711,94.75,3.25,7.625,0.0,0.0,0.0,0.0,0.0,0.0,2,0,41.3621877158796,-92.03370454838849,10000.000591305765,83.91148913331301,-0.0017074880251486,0.0057537966788379,,8714.375071090433,10952.218357409804,150,2,2025-09-09,2025-09-26 14:48:58.885,HH,B,3171907160,AMBUSH51,1,1,48,2,1,1,225,2,1,0,0,9,1,225,2,1,-151330.4874629013,-4793019.12826056,4195230.10884447,2.27527,3.13366,0.04224,-115.738,-9.50591,-16.8719,-0.15649,-7.54495,6.53084,0.0122079,0.00847114,0.000870729,4,0,41.3715610895365,-91.8084048084787,8697.176592203927,-92.71095275178348,-0.583898987115227,-1.0231607468101898,200.329,8714.375071090433,10952.218357409804,150,True,10.161462674133732,False,175.43741407602738,176.84822388017224,False,7.601928707503799,True,False
2,1970-07-23 09:44:53.398293224,2025-09-09,2025-09-26 14:48:59.829,HH,B,1816946862,JASSM,3,102,76,2,2,1,225,9,2,0,1,26,0,0,0,0,-170112.03381522125,-4793369.224580611,4194718.872526646,-2.29541,0.0349939,-0.0796711,94.75,3.25,7.625,0.0,0.0,0.0,0.0,0.0,0.0,2,0,41.36228309589843,-92.03251873946294,9999.99938471744,83.90864272288783,-0.0049120080121378,0.006191613013323,,8714.375071090433,10952.218357409804,150,2,2025-09-09,2025-09-26 14:49:00.018,HH,B,3173259224,AMBUSH51,1,1,48,2,1,1,225,2,1,0,0,9,1,225,2,1,-151462.29097755702,-4793029.76566018,4195210.444042315,2.28182,3.13357,0.0418065,-115.69,-9.59137,-16.9736,-0.0905419,-7.43993,6.47058,0.0163067,0.00977776,0.00328838,4,0,41.37134026973486,-91.80997480375042,8690.956964080127,-92.68976352334076,-0.5703651581659924,-0.6473307622270741,200.439,8714.375071090433,10952.218357409804,150,True,10.036493767298916,False,175.36970266199606,176.77714167071784,False,7.740107629875707,True,False
2,1970-07-23 09:44:53.410670180,2025-09-09,2025-09-26 14:49:01.067,HH,B,1818197940,JASSM,3,102,76,2,2,1,225,9,2,0,1,26,0,0,0,0,-170012.679811315,-4793365.750947799,4194726.816862583,-2.29541,0.0349939,-0.0796711,94.75,3.375,7.625,0.0,0.0,0.0,0.0,0.0,0.0,2,0,41.362378353569824,-92.03133411165528,10000.000408356482,83.90942554690008,-0.0040178025304922,0.0061919911011164,,8714.375071090433,10952.218357409804,150,2,2025-09-09,2025-09-26 14:49:01.184,HH,B,3174651056,AMBUSH51,1,1,48,2,1,1,225,2,1,0,0,9,1,225,2,1,-151596.61707356345,-4793040.60066715,4195190.664381666,2.29934,3.13311,0.0416479,-115.733,-9.6501,-16.8,-0.204642,-7.53409,6.35069,0.0072207,0.00177995,-0.00194015,4,0,41.37111700332167,-91.81157483938044,8685.180072407355,-92.66656310156016,-0.5829431734875253,0.3571575873887938,200.659,8714.375071090433,10952.218357409804,150,True,9.910234964439077,False,175.4680685548707,176.68162185055985,False,7.750422492622647,True,False
2,1970-07-23 09:44:53.421085574,2025-09-09,2025-09-26 14:49:02.108,HH,B,1819452134,JASSM,3,102,76,2,2,1,225,9,2,0,1,26,0,0,0,0,-169913.078248815,-4793362.266572799,4194734.780729771,-2.29541,0.0349939,-0.0796711,94.75,3.375,7.625,0.0,0.0,0.0,0.0,0.0,0.0,2,0,41.36247384697591,-92.03014652954758,10000.000853124136,83.91021032465757,-0.0031213685203,0.0061923807189384,,8714.375071090433,10952.218357409804,150,2,2025-09-09,2025-09-26 14:49:02.152,HH,B,3175804288,AMBUSH51,1,1,48,2,1,1,225,2,1,0,0,9,1,225,2,1,-151708.41309113405,-4793050.017908762,4195174.240758948,2.30331,3.13001,0.0401176,-115.723,-11.2514,-15.4149,-0.0836724,-7.36008,6.25955,0.00465117,-0.00548757,0.00563945,4,0,41.37092905176322,-91.81290634755112,8681.446029179682,-92.48418383978851,-0.6572902266046406,0.5903993804337622,200.549,8714.375071090433,10952.218357409804,150,True,9.796044434577977,False,175.42519772516198,176.61569140992768,False,7.668561457598719,True,False
2,1970-07-23 09:44:53.430130574,2025-09-09,2025-09-26 14:49:03.013,HH,B,1820703588,JASSM,3,102,76,2,2,1,225,9,2,0,1,26,0,0,0,0,-169813.6944597525,-4793358.788057174,4194742.726042271,-2.29541,0.0349939,-0.0796711,94.75,3.375,7.625,0.0,0.0,0.0,0.0,0.0,0.0,2,0,41.36256912211454,-92.02896154130768,9999.99960729682,83.91099338982242,-0.00222689479434,0.0061927722222631,,8714.375071090433,10952.218357409804,150,2,2025-09-09,2025-09-26 14:49:03.051,HH,B,3176877988,AMBUSH51,1,1,48,2,1,1,225,2,1,0,0,9,1,225,2,1,-151813.07256793138,-4793058.441202291,4195158.404144675,2.30785,3.12929,0.0365426,-115.611,-9.4211,-16.8713,-0.222962,-7.35286,6.34156,0.013063,0.00173626,0.00173001,4,0,41.37075230311145,-91.81415300045244,8675.989216292908,-92.3041352013572,-0.5517846030833082,0.8501890112916599,200.549,8714.375071090433,10952.218357409804,150,True,9.685834589949117,False,175.4951817751617,176.55037516681728,False,7.870256292705381,True,False
2,1970-07-23 09:44:53.442670168,2025-09-09,2025-09-26 14:49:04.267,HH,B,1822017280,JASSM,3,102,76,2,2,1,225,9,2,0,1,26,0,0,0,0,-169709.36804373687,-4793355.136689986,4194751.064909458,-2.29541,0.0349939,-0.0795753,94.75,3.375,7.625,0.0,0.0,0.0,0.0,0.0,0.0,2,0,41.36266911083612,-92.02771761659037,10000.000710773556,83.91592805591755,-0.0049295182121145,0.0061929484831084,,8714.375071090433,10952.218357409804,150,2,2025-09-09,2025-09-26 14:49:04.219,HH,B,3178269820,AMBUSH51,1,1,48,2,1,1,225,2,1,0,0,9,1,225,2,1,-151947.3334966208,-4793069.151802694,4195138.508952613,2.30438,3.1249,0.0363625,-115.659,-9.18349,-16.8599,-0.148167,-7.39402,6.23838,-0.00326965,-0.00617416,0.0045305,4,0,41.3705289498774,-91.81575227855588,8669.67545351466,-92.13125306980182,-0.7324141110938969,0.6587721840217203,200.402,8714.375071090433,10952.218357409804,150,True,9.55697304537806,False,175.56857943997045,176.47032035365024,False,7.88924526606401,True,False
2,1970-07-23 09:44:53.452309177,2025-09-09,2025-09-26 14:49:05.230,HH,B,1823327834,JASSM,3,102,76,2,2,1,225,9,2,0,1,26,0,0,0,0,-169605.29077322906,-4793351.492158736,4194759.383268833,-2.29541,0.0349939,-0.0795753,94.75,3.375,7.625,0.0,0.0,0.0,0.0,0.0,0.0,2,0,41.36276885456115,-92.02647665953454,10000.001498990863,83.91674810964656,-0.0039928033020752,0.0061934213301541,,8714.375071090433,10952.218357409804,150,2,2025-09-09,2025-09-26 14:49:05.118,HH,B,3179343518,AMBUSH51,1,1,48,2,1,1,225,2,1,0,0,9,1,225,2,1,-152051.57549511053,-4793077.200918384,4195123.135010521,2.29949,3.11842,0.0385894,-115.739,-8.87313,-16.9799,-0.129292,-7.05058,6.10756,-0.00303247,-0.00252064,-0.00680042,4,0,41.37035759864308,-91.81699407384566,8664.28170462777,-91.98271707828653,-1.0941297949876374,0.3899868643094021,200.439,8714.375071090433,10952.218357409804,150,True,9.44449370253616,False,175.60776636208402,176.40246431323155,False,7.936173181429729,True,False
2,1970-07-23 09:44:53.462350819,2025-09-09,2025-09-26 14:49:06.235,HH,B,1824580534,JASSM,3,102,76,2,2,1,225,9,2,0,1,26,0,0,0,0,-169505.8078630728,-4793348.006807174,4194767.333464146,-2.29541,0.0349939,-0.0795753,94.75,3.375,7.625,0.0,0.0,0.0,0.0,0.0,0.0,2,0,41.362864186352,-92.02529048014613,10000.00121574718,83.91753196652189,-0.00309743866178,0.0061938769302527,,8714.375071090433,10952.218357409804,150,2,2025-09-09,2025-09-26 14:49:06.317,HH,B,3180775118,AMBUSH51,1,1,48,2,1,1,225,2,1,0,0,9,1,225,2,1,-152191.02140646713,-4793087.328828749,4195102.335831206,2.30386,3.11214,0.0397192,-115.747,-8.41691,-17.0971,-0.196159,-7.21174,6.172,0.00868752,-0.00890183,0.00301582,4,0,41.37013058539383,-91.8186554732556,8654.995867595848,-91.79486705437483,-1.4054519023848302,0.6509096084626596,200.549,8714.375071090433,10952.218357409804,150,True,9.315472615124012,False,175.6710804812301,176.31745769761767,False,7.9790708150014265,True,False
2,1970-07-23 09:44:53.473111322,2025-09-09,2025-09-26 14:49:07.311,HH,B,1825833618,JASSM,3,102,76,2,2,1,225,9,2,0,1,26,0,0,0,0,-169406.29443533844,-4793344.519502486,4194775.284636021,-2.29541,0.0349939,-0.0795753,94.75,3.375,7.625,0.0,0.0,0.0,0.0,0.0,0.0,2,0,41.36295953053055,-92.02410393379247,10000.000709089962,83.91831606738614,-0.0022018001408579,0.0061943280560581,,8714.375071090433,10952.218357409804,150,2,2025-09-09,2025-09-26 14:49:07.184,HH,B,3181809050,AMBUSH51,1,1,48,2,1,1,225,2,1,0,0,9,1,225,2,1,-152291.3495971575,-4793094.294087013,4195087.33100211,2.30737,3.10885,0.0391226,-115.793,-8.87416,-16.5427,-0.0260734,-7.02256,5.88432,0.00153236,-0.000623138,0.00461788,4,0,41.36996887912884,-91.81985092845746,8647.442614209134,-91.64557408612404,-1.5233062071155443,0.8553600956047374,200.512,8714.375071090433,10952.218357409804,150,True,9.207593544513577,False,175.78915061283675,176.24897764454138,False,7.8962527168188394,True,False
2,1970-07-23 09:44:53.483536879,2025-09-09,2025-09-26 14:49:08.353,HH,B,1827028544,JASSM,3,102,76,2,2,1,225,9,2,0,1,26,0,0,0,0,-169311.3995378775,-4793341.193330611,4194782.865690708,-2.29541,0.0350898,-0.0795753,94.75,3.375,7.625,0.0,0.0,0.0,0.0,0.0,0.0,2,0,41.36305043515098,-92.02297245346796,10000.00086093099,83.91543370781082,-0.0054473544565279,0.0066316303643848,,8714.375071090433,10952.218357409804,150,2,2025-09-09,2025-09-26 14:49:08.284,HH,B,3183121348,AMBUSH51,1,1,48,2,1,1,225,2,1,0,0,9,1,225,2,1,-152418.0384679867,-4793102.646903269,4195067.871981462,2.31197,3.10579,0.0404054,-115.92,-7.58386,-17.4212,-0.0314046,-7.3753,6.20513,0.00661317,-0.00310737,0.00588496,4,0,41.369763841939054,-91.82136064375314,8635.713688299302,-91.58607276405556,-1.702161845261946,1.1246872329784428,200.17,8714.375071090433,10952.218357409804,150,True,9.087963171643517,False,175.72066524062794,176.16595323207235,False,8.107248293916886,True,False
2,1970-07-23 09:44:53.493308895,2025-09-09,2025-09-26 14:49:09.330,HH,B,1828220984,JASSM,3,102,76,2,2,1,225,9,2,0,1,26,0,0,0,0,-169216.70202811187,-4793337.873018111,4194790.430143833,-2.29541,0.0350898,-0.0795753,94.75,3.375,7.625,0.0,0.0,0.0,0.0,0.0,0.0,2,0,41.36314114026551,-92.02184332400518,10000.001244835734,83.91617986879955,-0.0045950608728833,0.0066320031961164,,8714.375071090433,10952.218357409804,150,2,2025-09-09,2025-09-26 14:49:09.317,HH,B,3184354114,AMBUSH51,1,1,48,2,1,1,225,2,1,0,0,9,1,225,2,1,-152538.61315675825,-4793110.279748382,4195049.158440578,2.31665,3.10167,0.0398618,-116.05,-7.17469,-17.5854,-0.0650755,-7.40255,6.02925,0.00569771,0.0106391,0.0155576,4,0,41.36956925741813,-91.82279761125706,8623.359057355423,-91.40767526900538,-1.8576954552620093,1.3969399380817622,200.916,8714.375071090433,10952.218357409804,150,True,8.971756454723867,False,175.7301055386217,176.08358098880296,False,8.185555096321382,True,False
2,1970-07-23 09:44:53.503351309,2025-09-09,2025-09-26 14:49:10.335,HH,B,1829472314,JASSM,3,102,76,2,2,1,225,9,2,0,1,26,0,0,0,0,-169117.32776053375,-4793334.386689986,4194798.367643833,-2.29541,0.0350898,-0.0795753,94.75,3.375,7.625,0.0,0.0,0.0,0.0,0.0,0.0,2,0,41.36323632156335,-92.02065842852448,10000.000465262494,83.9169628830131,-0.0037006754325461,0.0066324029247452,,8714.375071090433,10952.218357409804,150,2,2025-09-09,2025-09-26 14:49:10.518,HH,B,3185785712,AMBUSH51,1,1,48,2,1,1,225,2,1,0,0,9,1,225,2,1,-152677.25931444232,-4793118.288996525,4195027.930076805,2.31813,3.09605,0.0412086,-116.263,-6.53511,-17.6376,-0.245431,-7.25007,6.24937,-0.00198177,-0.00301998,-0.00282441,4,0,41.36935200842524,-91.82445023177262,8607.901898036267,-91.25388180850628,-2.149288444915624,1.489622325711832,201.246,8714.375071090433,10952.218357409804,150,True,8.843286176113718,False,175.81844254574554,175.99030720442894,False,8.189206605328312,True,False
2,1970-07-23 09:44:53.513131134,2025-09-09,2025-09-26 14:49:11.313,HH,B,1830605964,JASSM,3,102,76,2,2,1,225,9,2,0,1,26,0,0,0,0,-169027.2990740103,-4793331.228486861,4194805.557096958,-2.29541,0.0350898,-0.0795753,94.75,3.375,7.625,0.0,0.0,0.0,0.0,0.0,0.0,2,0,41.36332252894295,-92.01958496259284,10000.001394247623,83.91767226254427,-0.0028904030410791,0.0066327529527986,,8714.375071090433,10952.218357409804,150,2,2025-09-09,2025-09-26 14:49:11.318,HH,B,3186740110,AMBUSH51,1,1,48,2,1,1,225,2,1,0,0,9,1,225,2,1,-152770.28381158848,-4793123.290924421,4195013.714762316,2.31485,3.0919,0.041069,-116.434,-6.15904,-17.6367,-0.21966,-7.34109,6.30916,-0.0104581,0.00694607,0.0113507,4,0,41.369208630860406,-91.82555919255071,8596.681825882451,-91.09179511404383,-2.321359576269705,1.3052119295426232,201.429,8714.375071090433,10952.218357409804,150,True,8.744513745481369,False,175.87808197096882,175.9209025104744,False,8.193246763760039,True,False
2,1970-07-23 09:44:53.522295576,2025-09-09,2025-09-26 14:49:12.229,HH,B,1831740428,JASSM,3,102,76,2,2,1,225,9,2,0,1,26,0,0,0,0,-168937.20556815094,-4793328.066377486,4194812.751432896,-2.29541,0.0350898,-0.0795753,94.75,3.375,7.625,0.0,0.0,0.0,0.0,0.0,0.0,2,0,41.36340879608549,-92.01851072163228,10000.001868012168,83.91838215545668,-0.0020795469724956,0.0066331109258845,,8714.375071090433,10952.218357409804,150,2,2025-09-09,2025-09-26 14:49:12.218,HH,B,3187813810,AMBUSH51,1,1,48,2,1,1,225,2,1,0,0,9,1,225,2,1,-152875.1608330775,-4793128.55592542,4194997.7584741,2.3149,3.0854,0.0380657,-116.602,-6.47534,-17.0876,-0.0248189,-7.23725,6.02499,-3.43298e-05,-0.000918583,0.00920767,4,0,41.369049671556986,-91.82680958739812,8583.268972962156,-90.71732658614644,-2.4862519580606586,1.3072710981105644,201.466,8714.375071090433,10952.218357409804,150,True,8.639316701556565,False,176.1056682466328,175.84434498786132,False,8.048961269728371,True,False
2,1970-07-23 09:44:53.532326719,2025-09-09,2025-09-26 14:49:13.232,HH,B,1832932332,JASSM,3,102,76,2,2,1,225,9,2,0,1,26,0,0,0,0,-168842.55053885406,-4793324.742158736,4194820.309050083,-2.29541,0.0350898,-0.0794794,94.75,3.375,7.5,0.0,0.0,0.0,0.0,0.0,0.0,2,0,41.36349942556792,-92.0173820885764,9999.999831947844,83.92324061860648,-0.0048692487042406,0.0066332735580205,,8714.375071090433,10952.218357409804,150,2,2025-09-09,2025-09-26 14:49:13.251,HH,B,3189046576,AMBUSH51,1,1,48,2,1,1,225,2,1,0,0,9,1,225,2,1,-152996.3426619937,-4793134.590658926,4194979.02019117,2.31326,3.08355,0.0349785,-116.817,-5.64962,-17.5342,-0.131866,-7.68955,6.34737,0.00289723,0.00666935,-0.000641864,4,0,41.36886423705432,-91.82825438909924,8567.004607161532,-90.51549112324513,-2.4477103542703635,1.2085526424162487,201.905,8714.375071090433,10952.218357409804,150,True,8.52286647036449,False,175.93152993237473,175.82614304860246,False,8.218494831068845,True,False
2,1970-07-23 09:44:53.548669985,2025-09-09,2025-09-26 14:49:14.866,HH,B,1834124904,JASSM,3,102,76,2,2,1,225,9,2,0,1,26,0,0,0,0,-168747.84228690094,-4793321.415986861,4194827.869596958,-2.29541,0.0350898,-0.0794794,94.75,3.375,7.5,0.0,0.0,0.0,0.0,0.0,0.0,2,0,41.36359008651458,-92.0162528178134,9999.999365464608,83.92398687961084,-0.0040168602142808,0.0066337079941931,,8714.375071090433,10952.218357409804,150,2,2025-09-09,2025-09-26 14:49:14.817,HH,B,3190915606,AMBUSH51,1,1,48,2,1,1,225,2,1,0,0,9,1,225,2,1,-153178.53262215506,-4793143.092859572,4194952.019641038,2.31944,3.08078,0.0280889,-117.043,-5.4947,-17.0169,-0.256183,-7.60316,6.27414,0.000125876,0.0131088,0.0155639,4,0,41.36859671722353,-91.83042677251724,8543.702141311807,-90.11526108698294,-2.3046502940083373,1.5513423206447368,201.759,8714.375071090433,10952.218357409804,150,True,8.373484388297276,False,176.20470722735172,175.70533881736247,False,8.064620564578917,True,False
2,1970-07-23 09:44:53.553129974,2025-09-09,2025-09-26 14:49:15.312,HH,B,1835320238,JASSM,3,102,76,2,2,1,225,9,2,0,1,26,0,0,0,0,-168652.91485770172,-4793318.081025924,4194835.446745396,-2.29541,0.0350898,-0.0794794,94.75,3.375,7.5,0.0,0.0,0.0,0.0,0.0,0.0,2,0,41.36368094659111,-92.0151209309646,9999.998926976048,83.92473487076691,-0.0031624994054794,0.0066341438674687,,8714.375071090433,10952.218357409804,150,2,2025-09-09,2025-09-26 14:49:15.184,HH,B,3191353040,AMBUSH51,1,1,48,2,1,1,225,2,1,0,0,9,1,225,2,1,-153221.45239002275,-4793145.060499372,4194945.771341492,2.3167,3.08046,0.0258132,-117.09,-5.58263,-16.7966,-0.166756,-7.61384,6.41609,-0.012624,-0.00302831,0.00227929,4,0,41.36853465868853,-91.83093854771003,8538.372061277283,-90.00544132032356,-2.231984059395049,1.3902420219969445,201.979,8714.375071090433,10952.218357409804,150,True,8.299176685050265,False,176.30461713789416,175.65615750522713,False,8.019091823181016,True,False
2,1970-07-23 09:44:53.562290548,2025-09-09,2025-09-26 14:49:16.229,HH,B,1836512982,JASSM,3,102,76,2,2,1,225,9,2,0,1,26,0,0,0,0,-168558.19299490875,-4793314.752900924,4194843.007292271,-2.29541,0.0350898,-0.0794794,94.75,3.375,7.5,0.0,0.0,0.0,0.0,0.0,0.0,2,0,41.36377159980064,-92.01399149225308,10000.00176738777,83.92548124545583,-0.0023099887543903,0.0066345797512696,,8714.375071090433,10952.218357409804,150,2,2025-09-09,2025-09-26 14:49:16.217,HH,B,3192585804,AMBUSH51,1,1,48,2,1,1,225,2,1,0,0,9,1,225,2,1,-153342.0848617076,-4793150.731454485,4194928.291624602,2.31054,3.07769,0.0193791,-117.068,-5.46349,-16.5681,-0.032728,-7.53882,6.02289,0.00241661,-0.00976319,0.000679314,4,0,41.36835993986637,-91.8323769114356,8523.920221767314,-89.6246364659569,-2.1063648863352595,1.026774644226354,201.685,8714.375071090433,10952.218357409804,150,True,8.18305359237299,False,176.42078020333264,175.56439952461545,False,7.992243538697326,True,False
2,1970-07-23 09:44:53.572675028,2025-09-09,2025-09-26 14:49:17.267,HH,B,1837704044,JASSM,3,102,76,2,2,1,225,9,2,0,1,26,0,0,0,0,-168463.60455496734,-4793311.427705611,4194850.555143833,-2.29541,0.0351857,-0.0794794,94.75,3.375,7.5,0.0,0.0,0.0,0.0,0.0,0.0,2,0,41.36386211088835,-92.01286364205082,10000.000473445176,83.92259658082348,-0.00555814867412,0.0070713520253095,,8714.375071090433,10952.218357409804,150,2,2025-09-09,2025-09-26 14:49:17.250,HH,B,3193818570,AMBUSH51,1,1,48,2,1,1,225,2,1,0,0,9,1,225,2,1,-153464.0752916388,-4793156.463904968,4194910.8967354,2.29707,3.08055,0.021365,-117.26,-5.54378,-16.3402,-0.180171,-7.81954,6.49114,-0.0194109,-0.0101419,0.003511,4,0,41.36818515170155,-91.83383146188874,8509.918282015293,-89.81955652559834,-2.057292327783657,0.258750365421833,201.649,8714.375071090433,10952.218357409804,150,True,8.066291604904354,False,176.5346752177736,175.47031385466184,False,7.977401928106112,True,False
2,1970-07-23 09:44:53.582107830,2025-09-09,2025-09-26 14:49:18.210,HH,B,1838837440,JASSM,3,102,76,2,2,1,225,9,2,0,1,26,0,0,0,0,-168373.59588797516,-4793308.262666549,4194857.737761021,-2.29541,0.0351857,-0.0794794,94.75,3.375,7.5,0.0,0.0,0.0,0.0,0.0,0.0,2,0,41.36394823582764,-92.01179039743012,10000.00193590583,83.92330582288993,-0.0047480579190433,0.0070717181511565,,8714.375071090433,10952.218357409804,150,2,2025-09-09,2025-09-26 14:49:18.217,HH,B,3194971802,AMBUSH51,1,1,48,2,1,1,225,2,1,0,0,9,1,225,2,1,-153576.67261982828,-4793161.759239963,4194895.186103093,2.28305,3.07544,0.0154007,-117.343,-5.6694,-16.186,-0.117086,-7.89378,6.48322,-0.0029326,0.00573724,0.00816946,4,0,41.36802610953431,-91.835174007059,8497.759704960079,-89.3701610871383,-2.0502840248660354,-0.5551490365759367,201.832,8714.375071090433,10952.218357409804,150,True,7.957085133405778,False,176.60084640776077,175.38143056560895,False,8.00552792406204,True,False
2,1970-07-23 09:44:53.591167041,2025-09-09,2025-09-26 14:49:19.116,HH,B,1839970834,JASSM,3,102,76,2,2,1,225,9,2,0,1,26,0,0,0,0,-168283.5871599478,-4793305.095674361,4194864.918425083,-2.29541,0.0351857,-0.0794794,94.75,3.375,7.5,0.0,0.0,0.0,0.0,0.0,0.0,2,0,41.3640343491859,-92.01071715006972,9999.998543245469,83.92401506798288,-0.0039379674098121,0.0070720826840456,,8714.375071090433,10952.218357409804,150,2,2025-09-09,2025-09-26 14:49:19.084,HH,B,3196005734,AMBUSH51,1,1,48,2,1,1,225,2,1,0,0,9,1,225,2,1,-153679.52671693446,-4793166.53048197,4194881.19159632,2.28423,3.07644,0.0176628,-117.407,-5.82231,-15.9108,-0.209991,-7.59536,6.41096,-0.00440982,0.00983393,-0.00379605,4,0,41.36788361645848,-91.83640040046714,8487.270247020359,-89.50618625520772,-2.092027268244477,-0.4833159263367118,202.272,8714.375071090433,10952.218357409804,150,True,7.853152452652791,False,176.7171842822851,175.2969654978591,False,7.979588674561022,True,False
2,1970-07-23 09:44:53.602330167,2025-09-09,2025-09-26 14:49:20.233,HH,B,1841284912,JASSM,3,102,76,2,2,1,225,9,2,0,1,26,0,0,0,0,-168179.22924979156,-4793301.423799361,4194873.243620396,-2.29541,0.0351857,-0.0794794,94.75,3.375,7.5,0.0,0.0,0.0,0.0,0.0,0.0,2,0,41.36413417678824,-92.00947280218398,9999.999399047832,83.92483738471796,-0.0029987325196982,0.0070725038835399,,8714.375071090433,10952.218357409804,150,2,2025-09-09,2025-09-26 14:49:20.151,HH,B,3197278266,AMBUSH51,1,1,48,2,1,1,225,2,1,0,0,9,1,225,2,1,-153803.88411813718,-4793172.549193294,4194864.179824475,2.27325,3.08068,0.0182561,-117.449,-5.96547,-15.8713,-0.26906,-7.77659,6.41603,-0.0101835,0.00767843,0.0019027,4,0,41.367709211200726,-91.8378830898633,8475.011974810584,-89.69316855694032,-1.931218225849652,-1.109969619587486,202.125,8714.375071090433,10952.218357409804,150,True,7.729917727606619,False,176.72130813539454,175.19265532312735,False,8.08275770979116,True,False
2,1970-07-23 09:44:53.613346182,2025-09-09,2025-09-26 14:49:21.334,HH,B,1842597242,JASSM,3,102,76,2,2,1,225,9,2,0,1,26,0,0,0,0,-168075.01025565094,-4793297.755830611,4194881.556120396,-2.29541,0.0351857,-0.0794794,94.75,3.375,7.5,0.0,0.0,0.0,0.0,0.0,0.0,2,0,41.3642338530132,-92.0082301073274,9999.999963179387,83.92565861069363,-0.0020607487509526,0.0070729194699693,,8714.375071090433,10952.218357409804,150,2,2025-09-09,2025-09-26 14:49:21.317,HH,B,3198670098,AMBUSH51,1,1,48,2,1,1,225,2,1,0,0,9,1,225,2,1,-153941.21724557166,-4793179.514264193,4194845.182821345,2.26468,3.08281,0.0159307,-117.345,-6.08654,-16.093,0.138895,-7.76006,6.01188,0.00315522,0.00341946,-0.000179971,4,0,41.36751327326411,-91.83952035706832,8461.811777771587,-89.67481165132422,-1.7504357755761122,-1.603757673969347,202.345,8714.375071090433,10952.218357409804,150,True,7.599787991768453,False,176.59662496473652,175.0761939935948,False,8.324776591251563,True,False
2,1970-07-23 09:44:53.624127837,2025-09-09,2025-09-26 14:49:22.412,HH,B,1843850226,JASSM,3,102,76,2,2,1,225,9,2,0,1,26,0,0,0,0,-167975.50424368805,-4793294.251924361,4194889.492643833,-2.29541,0.0351857,-0.0794794,94.75,3.375,7.5,0.0,0.0,0.0,0.0,0.0,0.0,2,0,41.36432901945443,-92.00704360672675,10000.001140498882,83.92644270261884,-0.0011651818935616,0.0070733265072606,,8714.375071090433,10952.218357409804,150,2,2025-09-09,2025-09-26 14:49:22.284,HH,B,3199823330,AMBUSH51,1,1,48,2,1,1,225,2,1,0,0,9,1,225,2,1,-154053.6412338056,-4793185.344720604,4194829.671411838,2.26584,3.09289,0.0225261,-117.275,-6.33781,-16.0603,-0.203814,-7.76547,6.18313,-0.0221552,0.00748286,-0.00213781,4,0,41.3673523613828,-91.84086060567196,8451.416519740009,-90.34146145395871,-1.5653341675330628,-1.5290045426832977,202.162,8714.375071090433,10952.218357409804,150,True,7.485644565035566,False,176.57243972120708,174.97267936650712,False,8.454708800783601,True,False
2,1970-07-23 09:44:53.636667266,2025-09-09,2025-09-26 14:49:23.666,HH,B,1845161844,JASSM,3,102,76,2,2,1,225,9,2,0,1,26,0,0,0,0,-167871.3416612906,-4793290.582979049,4194897.798307896,-2.29541,0.0351857,-0.0793835,94.75,3.375,7.5,0.0,0.0,0.0,0.0,0.0,0.0,2,0,41.36442861733312,-92.00580157834848,10000.000325683268,83.93137608823433,-0.0038693503741651,0.0070735966403232,,8714.375071090433,10952.218357409804,150,2,2025-09-09,2025-09-26 14:49:23.783,HH,B,3201612828,AMBUSH51,1,1,48,2,1,1,225,2,1,0,0,9,1,225,2,1,-154229.2760767988,-4793195.194172092,4194805.058782158,2.23626,3.09451,0.0172008,-117.127,-7.05613,-16.3026,-0.264991,-7.90707,6.41199,0.00879155,-0.00253104,-0.012262,4,0,41.36709397453239,-91.84295411942962,8436.189179725261,-90.1750054336497,-1.2925952913763696,-3.2296231962407567,202.309,8714.375071090433,10952.218357409804,150,True,7.334974631986522,False,176.33563003510625,174.82168903850322,False,8.837711776881802,True,False
2,1970-07-23 09:44:53.645287382,2025-09-09,2025-09-26 14:49:24.528,HH,B,1846414858,JASSM,3,102,76,2,2,1,225,9,2,0,1,26,0,0,0,0,-167771.8331392569,-4793287.076143111,4194905.732878208,-2.29541,0.0351857,-0.0793835,94.75,3.375,7.5,0.0,0.0,0.0,0.0,0.0,0.0,2,0,41.364523763476456,-92.00461504193056,10000.000326743531,83.93216020683934,-0.002973761626899,0.007074070301237,,8714.375071090433,10952.218357409804,150,2,2025-09-09,2025-09-26 14:49:24.683,HH,B,3202686528,AMBUSH51,1,1,48,2,1,1,225,2,1,0,0,9,1,225,2,1,-154335.02860332638,-4793201.636404235,4194790.134379879,2.23544,3.10725,0.0265148,-116.888,-7.55807,-16.39,0.0207193,-7.64757,6.20416,0.010119,-0.00676921,-0.00308864,4,0,41.36693462737159,-91.84421445401416,8428.06057873049,-91.05852956306362,-1.0967554783311282,-3.2737751588800537,201.649,8714.375071090433,10952.218357409804,150,True,7.224483043134404,False,176.1826692243875,174.7121005674514,False,9.088557219352088,True,False
2,1970-07-23 09:44:53.657307190,2025-09-09,2025-09-26 14:49:25.730,HH,B,1847785342,JASSM,3,102,76,2,2,1,225,9,2,0,1,26,0,0,0,0,-167662.9956682486,-4793283.240205611,4194914.408659458,-2.29541,0.0352816,-0.0793835,94.75,3.375,7.5,0.0,0.0,0.0,0.0,0.0,0.0,2,0,41.36462779962849,-92.0033172636073,9999.999608467086,83.92938764987233,-0.0060938445890918,0.0075104386964211,,8714.375071090433,10952.218357409804,150,2,2025-09-09,2025-09-26 14:49:25.884,HH,B,3204118126,AMBUSH51,1,1,48,2,1,1,225,2,1,0,0,9,1,225,2,1,-154474.719113269,-4793211.104038671,4194769.79848474,2.24779,3.11203,0.0244175,-116.57,-8.28636,-16.6867,-0.212573,-7.88905,6.50584,0.0412135,0.00207539,-0.0018174,4,0,41.3667142248694,-91.84587887718332,8418.341325825164,-91.1504041292854,-0.8105471690943173,-2.571722942402466,201.319,8714.375071090433,10952.218357409804,150,True,7.090737011411748,False,175.87248205142578,174.5676205538894,False,9.520174727022642,True,False
2,1970-07-23 09:44:53.669060403,2025-09-09,2025-09-26 14:49:26.906,HH,B,1849097922,JASSM,3,102,76,2,2,1,225,9,2,0,1,26,0,0,0,0,-167558.75647147125,-4793279.564424361,4194922.718229771,-2.29541,0.0352816,-0.0793835,94.75,3.375,7.5,0.0,0.0,0.0,0.0,0.0,0.0,2,0,41.36472744022089,-92.00207431204052,10000.000689736296,83.93020905350538,-0.0051556800740763,0.0075108737178085,,8714.375071090433,10952.218357409804,150,2,2025-09-09,2025-09-26 14:49:27.050,HH,B,3205509958,AMBUSH51,1,1,48,2,1,1,225,2,1,0,0,9,1,225,2,1,-154609.50989528198,-4793220.753483747,4194750.380526345,2.26172,3.12684,0.0247602,-116.247,-9.00152,-16.4448,-0.0932583,-8.49875,6.61077,-0.0063531,0.0114693,0.0013451,4,0,41.36649985729258,-91.84748471259334,8410.68111529283,-91.72713828368217,-0.1853612113887786,-1.7891925246191,200.757,8714.375071090433,10952.218357409804,150,True,6.962149288360421,False,175.76704591585104,174.42341968631317,False,9.723180950099401,True,False
2,1970-07-23 09:44:53.680106348,2025-09-09,2025-09-26 14:49:28.010,HH,B,1850469640,JASSM,3,102,76,2,2,1,225,9,2,0,1,26,0,0,0,0,-167449.82092459625,-4793275.721650924,4194931.399870396,-2.29541,0.0352816,-0.0793835,94.75,3.375,7.5,0.0,0.0,0.0,0.0,0.0,0.0,2,0,41.364831548291534,-92.00077535756878,9999.99941896066,83.93106746835878,-0.0041752491041134,0.0075113210298998,,8714.375071090433,10952.218357409804,150,2,2025-09-09,2025-09-26 14:49:27.850,HH,B,3206464356,AMBUSH51,1,1,48,2,1,1,225,2,1,0,0,9,1,225,2,1,-154702.23471426265,-4793228.200358528,4194737.044438707,2.25121,3.13215,0.0167257,-115.972,-9.82122,-16.1354,-0.0186371,-8.31001,6.99388,-0.00255185,0.00706466,0.00477392,4,0,41.36634771604559,-91.84858907628488,8407.455053170674,-91.58316154336369,0.3476083220165993,-2.397130581536364,200.647,8714.375071090433,10952.218357409804,150,True,6.853705815920736,False,175.62899189772568,174.30334007046775,False,9.906404217056503,True,False
2,1970-07-23 09:44:53.691469618,2025-09-09,2025-09-26 14:49:29.146,HH,B,1851724114,JASSM,3,102,76,2,2,1,225,9,2,0,1,26,0,0,0,0,-167350.1962908072,-4793272.207002486,4194939.338346958,-2.29541,0.0352816,-0.0793835,94.75,3.375,7.5,0.0,0.0,0.0,0.0,0.0,0.0,2,0,41.36492673952321,-91.99958742353417,10000.000387004506,83.93185251684642,-0.0032786180153372,0.0075117244014073,,8714.375071090433,10952.218357409804,150,2,2025-09-09,2025-09-26 14:49:29.250,HH,B,3208134556,AMBUSH51,1,1,48,2,1,1,225,2,1,0,0,9,1,225,2,1,-154864.02301666193,-4793242.435380875,4194714.362446559,2.25469,3.13712,0.0130541,-115.41,-10.8662,-15.8283,-0.108421,-8.20733,6.65713,-0.00685452,0.0113757,0.00550421,4,0,41.36607881595253,-91.85051550383196,8406.16542354176,-91.6149808070438,0.7019319684738988,-2.2020382457834518,200.097,8714.375071090433,10952.218357409804,150,True,6.713205281692211,False,175.35309992618397,174.1282578618173,False,10.242241039978092,True,False
2,1970-07-23 09:44:53.700309445,2025-09-09,2025-09-26 14:49:30.030,HH,B,1852977344,JASSM,3,102,76,2,2,1,225,9,2,0,1,26,0,0,0,0,-167250.67035086578,-4793268.693330611,4194947.269011021,-2.29541,0.0352816,-0.0793835,94.75,3.375,7.5,0.0,0.0,0.0,0.0,0.0,0.0,2,0,41.36502183944819,-91.99840066392164,10000.000428174588,83.93263679069958,-0.0023828743635899,0.0075121425650632,,8714.375071090433,10952.218357409804,150,2,2025-09-09,2025-09-26 14:49:30.051,HH,B,3209088954,AMBUSH51,1,1,48,2,1,1,225,2,1,0,0,9,1,225,2,1,-154956.07164199493,-4793251.17673495,4194701.750484183,2.24161,-3.1392,0.0116206,-115.045,-11.6154,-15.4984,-0.292994,-8.29077,6.95571,-0.0436374,-0.0029971,-0.0102272,4,0,41.36592397119309,-91.8516112799477,8407.653767247302,-91.81416647920724,1.052146249389304,-2.959398322272223,199.388,8714.375071090433,10952.218357409804,150,True,6.610276605304824,False,175.16290728287416,174.00468011701636,False,10.449509200640087,True,False
2,1970-07-23 09:44:53.712310665,2025-09-09,2025-09-26 14:49:31.231,HH,B,1854347042,JASSM,3,102,76,2,2,1,225,9,2,0,1,26,0,0,0,0,-167141.89502127594,-4793264.852510299,4194955.934050083,-2.29541,0.0352816,-0.0793835,94.75,3.375,7.5,0.0,0.0,0.0,0.0,0.0,0.0,2,0,41.36512574909757,-91.99710360974431,9999.999078737632,83.93349395476417,-0.0014038869788966,0.0075125853005,,8714.375071090433,10952.218357409804,150,2,2025-09-09,2025-09-26 14:49:31.217,HH,B,3210480786,AMBUSH51,1,1,48,2,1,1,225,2,1,0,0,9,1,225,2,1,-155090.2869168468,-4793264.71288684,4194683.370365668,2.20032,-3.13401,0.0137971,-114.336,-12.1341,-15.8795,-0.232831,-7.93179,6.59386,-0.0434855,0.00126604,-0.00863135,4,0,41.3656935381461,-91.85320870628009,8411.797352693959,-92.10539166163744,1.1938620553305883,-5.334446646264872,198.349,8714.375071090433,10952.218357409804,150,True,6.479793195389842,False,174.79338921718315,173.83492713311384,False,10.97165086190456,True,False
2,1970-07-23 09:44:53.722348067,2025-09-09,2025-09-26 14:49:32.234,HH,B,1855600674,JASSM,3,102,76,2,2,1,225,9,2,0,1,26,0,0,0,0,-167042.3371599478,-4793261.335908736,4194963.864714146,-2.29541,0.0352816,-0.0793835,94.75,3.375,7.5,0.0,0.0,0.0,0.0,0.0,0.0,2,0,41.36522084743176,-91.99591646301369,9999.9998975682,83.93427848755405,-0.0005078573061066,0.007512997131073,,8714.375071090433,10952.218357409804,150,2,2025-09-09,2025-09-26 14:49:32.251,HH,B,3211713552,AMBUSH51,1,1,48,2,1,1,225,2,1,0,0,9,1,225,2,1,-155208.16932970512,-4793277.895964448,4194666.673626308,2.16327,-3.13216,0.0206063,-113.996,-14.7443,-14.6897,-0.0898243,-7.33235,6.14883,-0.0281744,-0.000608574,-0.00866672,4,0,41.3654796972936,-91.8546112291544,8417.429785952016,-92.46902301254816,1.016293095270839,-7.466023756598392,198.239,8714.375071090433,10952.218357409804,150,True,6.3630983825859975,False,174.0237064015263,173.67322757910648,False,11.459081411661156,True,False
2,1970-07-23 09:44:53.734109606,2025-09-09,2025-09-26 14:49:33.410,HH,B,1856914148,JASSM,3,102,76,2,2,1,225,9,2,0,1,26,0,0,0,0,-166938.02685721344,-4793257.650361861,4194972.172331333,-2.29541,0.0352816,-0.0792876,94.75,3.375,7.5,0.0,0.0,0.0,0.0,0.0,0.0,2,0,41.36532046765475,-91.99467264401544,10000.000087199904,83.93921304307926,-0.0032107313988642,0.0075133243316032,,8714.375071090433,10952.218357409804,150,2,2025-09-09,2025-09-26 14:49:33.484,HH,B,3213184916,AMBUSH51,1,1,48,2,1,1,225,2,1,0,0,9,1,225,2,1,-155346.55292881158,-4793293.794159712,4194645.209915776,2.15261,-3.11105,0.0363104,-112.895,-13.8876,-17.7277,-0.139689,-7.67034,6.22614,-0.00247071,0.00191311,-0.00835255,4,0,41.36521354817964,-91.85625749167195,8421.051017033737,-93.94544518892656,1.3286864787428447,-8.140796060506705,197.518,8714.375071090433,10952.218357409804,150,True,6.2329306743223345,False,173.42899188453038,173.4732593504606,False,12.69155243658238,True,False
2,1970-07-23 09:44:53.745147993,2025-09-09,2025-09-26 14:49:34.514,HH,B,1858285516,JASSM,3,102,76,2,2,1,225,9,2,0,1,26,0,0,0,0,-166829.11865408844,-4793253.800752486,4194980.845182896,-2.29541,0.0353774,-0.0792876,94.75,3.375,7.5,0.0,0.0,0.0,0.0,0.0,0.0,2,0,41.36542446778103,-91.99337399526112,10000.000260591518,83.93644101580038,-0.0063301839082129,0.0079491997562568,,8714.375071090433,10952.218357409804,150,2,2025-09-09,2025-09-26 14:49:34.617,HH,B,3214536982,AMBUSH51,1,1,48,2,1,1,225,2,1,0,0,9,1,225,2,1,-155474.7988964095,-4793310.110844428,4194624.151865403,2.1426,-3.10639,0.0451974,-112.241,-14.8285,-18.9457,-0.150222,-7.58254,6.12728,-0.000388031,-0.000179971,-0.00739964,4,0,41.36494958282183,-91.85778252752064,8425.78262814823,-94.50457416331191,1.192184001770117,-8.737525541193197,196.956,8714.375071090433,10952.218357409804,150,True,6.105831680260879,False,172.6245926561294,173.26465789576915,False,13.718403149363068,True,False
2,1970-07-23 09:44:53.755199314,2025-09-09,2025-09-26 14:49:35.519,HH,B,1859538424,JASSM,3,102,76,2,2,1,225,9,2,0,1,26,0,0,0,0,-166729.61804373687,-4793250.282197799,4194988.767057896,-2.29541,0.0353774,-0.0792876,94.75,3.375,7.5,0.0,0.0,0.0,0.0,0.0,0.0,2,0,41.3655194680444,-91.99218752200392,9999.998226158845,83.93722510812754,-0.0054346713039847,0.0079496139691366,,8714.375071090433,10952.218357409804,150,2,2025-09-09,2025-09-26 14:49:35.383,HH,B,3215451614,AMBUSH51,1,1,48,2,1,1,225,2,1,0,0,9,1,225,2,1,-155559.3465929205,-4793321.3915162,4194609.447005442,2.14273,-3.08967,0.0609774,-111.569,-15.363,-19.7525,-0.182329,-7.44355,6.14419,-0.000646025,-0.00706258,-0.0074246,4,0,41.364766883005785,-91.85878771568414,8428.413259652854,-95.81648865626512,1.3092746170407472,-8.809179302699427,196.541,8714.375071090433,10952.218357409804,150,True,6.007234310920234,False,172.0935563069243,173.10022303840717,False,14.428636282173612,True,False
2,1970-07-23 09:44:53.766306420,2025-09-09,2025-09-26 14:49:36.630,HH,B,1860849146,JASSM,3,102,76,2,2,1,225,9,2,0,1,26,0,0,0,0,-166625.52624686187,-4793246.600557174,4194997.054167271,-2.29541,0.0353774,-0.0792876,94.75,3.375,7.5,0.0,0.0,0.0,0.0,0.0,0.0,2,0,41.36561884107358,-91.99094629875763,9999.99913010704,83.93804538410133,-0.0044978376895397,0.0079500495851714,,8714.375071090433,10952.218357409804,150,2,2025-09-09,2025-09-26 14:49:36.583,HH,B,3216883212,AMBUSH51,1,1,48,2,1,1,225,2,1,0,0,9,1,225,2,1,-155692.30837372714,-4793340.122959518,4194584.955644091,2.11989,-3.07404,0.0759207,-110.662,-16.3355,-21.1147,-0.0967056,-7.65162,6.45853,-0.0106682,0.00716869,-0.00998373,4,0,41.36446442649089,-91.8603681029302,8432.035410400369,-97.05161090906972,1.4099648766186068,-10.208663840463068,195.6,8714.375071090433,10952.218357409804,150,False,5.880404936047816,False,171.18598295144838,172.8561939907769,False,15.597295704801178,True,False
2,1970-07-23 09:44:53.777404747,2025-09-09,2025-09-26 14:49:37.740,HH,B,1862103946,JASSM,3,102,76,2,2,1,225,9,2,0,1,26,0,0,0,0,-166525.8752458853,-4793243.075166549,4195004.986784458,-2.29541,0.0353774,-0.0792876,94.75,3.375,7.5,0.0,0.0,0.0,0.0,0.0,0.0,2,0,41.36571396055099,-91.989758025756,10000.001186893902,83.93883066884656,-0.0036009719852204,0.0079504650794838,,8714.375071090433,10952.218357409804,150,2,2025-09-09,2025-09-26 14:49:37.683,HH,B,3218195512,AMBUSH51,1,1,48,2,1,1,225,2,1,0,0,9,1,225,2,1,-155814.08432860672,-4793358.825085716,4194560.562085599,2.11289,-3.0583,0.0917802,-110.015,-17.6202,-22.4307,-0.121567,-7.48276,6.62688,-0.0211024,-0.000155004,-0.0131546,4,0,41.36416494494174,-91.86181492156076,8434.912132139458,-98.32909116209596,1.4768901597634372,-10.717086566275317,195.258,8714.375071090433,10952.218357409804,150,False,5.762078769048939,False,170.20853324159432,172.6073475316321,False,16.81360748881975,True,False
2,1970-07-23 09:44:53.788127437,2025-09-09,2025-09-26 14:49:38.812,HH,B,1863414496,JASSM,3,102,76,2,2,1,225,9,2,0,1,26,0,0,0,0,-166421.796998815,-4793239.390596236,4195013.270964146,-2.29541,0.0353774,-0.0792876,94.75,3.375,7.5,0.0,0.0,0.0,0.0,0.0,0.0,2,0,41.36581330220301,-91.98851695810566,10000.00065808416,83.93965084516812,-0.0026642605879016,0.0079509083686917,,8714.375071090433,10952.218357409804,150,2,2025-09-09,2025-09-26 14:49:38.850,HH,B,3219587344,AMBUSH51,1,1,48,2,1,1,225,2,1,0,0,9,1,225,2,1,-155940.94337050867,-4793379.783376666,4194533.303229917,2.09696,-3.04116,0.109687,-109.365,-18.8961,-24.0534,-0.110227,-7.45217,6.53007,-0.0034257,-0.00447016,-0.0173053,4,0,41.3638316947571,-91.86332154458384,8437.54421666623,-99.74684905814114,1.521677674842339,-11.765661793119175,195.184,8714.375071090433,10952.218357409804,150,False,5.6388445655290305,False,169.1253496879761,172.32424852822695,False,18.18887656173869,True,False
2,1970-07-23 09:44:53.799195948,2025-09-09,2025-09-26 14:49:39.919,HH,B,1864669280,JASSM,3,102,76,2,2,1,225,9,2,0,1,26,0,0,0,0,-166322.14734061187,-4793235.862275924,4195021.200651646,-2.29541,0.0353774,-0.0792876,94.75,3.375,7.5,0.0,0.0,0.0,0.0,0.0,0.0,2,0,41.36590839394232,-91.98732869527534,9999.99977032411,83.9404361262314,-0.0017674080650151,0.0079513224977948,,8714.375071090433,10952.218357409804,150,2,2025-09-09,2025-09-26 14:49:40.083,HH,B,3221058708,AMBUSH51,1,1,48,2,1,1,225,2,1,0,0,9,1,225,2,1,-156075.8952576493,-4793403.797963122,4194502.064266805,2.09112,-3.02471,0.130854,-108.83,-20.2693,-25.931,-0.290347,-7.22573,6.83288,-0.0019568,0.0143696,-0.0201391,4,0,41.36345180386439,-91.86492359538576,8439.726206028417,-101.27578194748264,1.4071118793694972,-12.251998002709636,195.441,8714.375071090433,10952.218357409804,150,False,5.513904551377781,False,167.9349711218589,172.0023590889646,False,19.716402593346643,True,False
2,1970-07-23 09:44:53.810187020,2025-09-09,2025-09-26 14:49:41.018,HH,B,1866038898,JASSM,3,102,76,2,2,1,225,9,2,0,1,26,0,0,0,0,-166213.3779314322,-4793232.009736861,4195029.854948521,-2.29541,0.0353774,-0.0792876,94.75,3.375,7.5,0.0,0.0,0.0,0.0,0.0,0.0,2,0,41.36601217466551,-91.98603168144044,9999.999045906066,83.941293278701,-0.0007884776546582,0.0079517748867401,,8714.375071090433,10952.218357409804,150,2,2025-09-09,2025-09-26 14:49:41.051,HH,B,3222211940,AMBUSH51,1,1,48,2,1,1,225,2,1,0,0,9,1,225,2,1,-156179.61539457395,-4793423.904884774,4194476.027623447,2.09439,-2.9974,0.14556,-108.262,-21.9574,-27.2362,-0.11188,-7.89782,7.44175,0.00324261,0.00711876,-0.0111926,4,0,41.36313631240966,-91.86615423072034,8441.075625685487,-102.94255904138244,1.990441346903623,-12.329728690917694,195.869,8714.375071090433,10952.218357409804,150,False,5.40086194499552,False,166.83350397857345,171.70390373552473,False,21.083782708351407,True,False
2,1970-07-23 09:44:53.820305132,2025-09-09,2025-09-26 14:49:42.030,HH,B,1867291954,JASSM,3,102,76,2,2,1,225,9,2,0,1,26,0,0,0,0,-166113.86535819,-4793228.484346236,4195037.772917271,-2.29541,0.0353774,-0.0792876,94.75,3.375,7.5,0.0,0.0,0.0,0.0,0.0,0.0,2,0,41.36610711593443,-91.98484504684012,10000.002393580002,83.9420774868279,0.0001071410996666,0.007952194343749,,8714.375071090433,10952.218357409804,150,2,2025-09-09,2025-09-26 14:49:42.183,HH,B,3223564006,AMBUSH51,1,1,48,2,1,1,225,2,1,0,0,9,1,225,2,1,-156302.14369613666,-4793450.0814572405,4194443.707411318,2.09308,-2.97201,0.163063,-107.49,-24.1953,-28.6297,-0.219771,-7.84371,7.36835,0.0146526,0.00940117,-0.0156117,4,0,41.362738634363815,-91.8676070650792,8445.255233116888,-104.65474742587476,2.374457386256106,-12.692989754189142,196.162,8714.375071090433,10952.218357409804,150,False,5.283108640202959,False,165.4825621208672,171.3462946846637,False,22.73791313672376,True,False
2,1970-07-23 09:44:53.833488067,2025-09-09,2025-09-26 14:49:43.348,HH,B,1868603948,JASSM,3,102,76,2,2,1,225,9,2,0,1,26,0,0,0,0,-166009.67224295562,-4793224.790986861,4195046.061003208,-2.29541,0.0354733,-0.0791918,94.75,3.375,7.5,0.0,0.0,0.0,0.0,0.0,0.0,2,0,41.36620650687183,-91.98360259645588,10000.001099078248,83.94338081519258,-0.0066964612689377,0.0083874295496513,,8714.375071090433,10952.218357409804,150,2,2025-09-09,2025-09-26 14:49:43.483,HH,B,3225114904,AMBUSH51,1,1,48,2,1,1,225,2,1,0,0,9,1,225,2,1,-156440.6977475197,-4793482.964160323,4194404.802366734,2.10346,-2.94236,0.181159,-106.414,-26.713,-30.1986,-0.102993,-7.73802,7.24528,0.00999414,0.0130651,-0.0120726,4,0,41.36225348266696,-91.86924861777324,8452.958945162804,-106.5557909564345,2.8992413941403767,-12.476718460828202,196.321,8714.375071090433,10952.218357409804,150,False,5.154825857535082,False,163.9220673425467,170.9089576983165,False,24.681102422525466,True,False
2,1970-07-23 09:44:53.843347758,2025-09-09,2025-09-26 14:49:44.334,HH,B,1869918162,JASSM,3,102,76,2,2,1,225,9,2,0,1,26,0,0,0,0,-165905.30261404935,-4793221.089814986,4195054.361784458,-2.29551,0.0354733,-0.0791918,94.75,3.375,7.5,0.0,0.0,0.0,0.0,0.0,0.0,2,0,41.36630605289631,-91.98235803808733,9999.998687276588,83.94420330640959,-0.0057571301963912,0.0028964027319489,,8714.375071090433,10952.218357409804,150,2,2025-09-09,2025-09-26 14:49:44.216,HH,B,3225989770,AMBUSH51,1,1,48,2,1,1,225,2,1,0,0,9,1,225,2,1,-156518.50929209244,-4793502.818844689,4194382.087202166,2.12081,-2.93049,0.186438,-105.852,-27.9732,-31.0979,-0.334263,-7.8939,7.51582,0.0183436,0.0119187,-0.0139493,4,0,41.361966911308095,-91.87016995659584,8458.827959307651,-107.23532025641174,3.182189170794194,-11.642758903436407,196.504,8714.375071090433,10952.218357409804,150,False,5.058532364166255,False,163.0986216933519,170.5995766742031,False,25.793675427927443,True,False
2,1970-07-23 09:44:53.854124411,2025-09-09,2025-09-26 14:49:45.412,HH,B,1871228638,JASSM,3,102,76,2,2,1,225,9,2,0,1,26,0,0,0,0,-165801.22986014312,-4793217.399385299,4195062.638151646,-2.29551,0.0354733,-0.0791918,94.75,3.375,7.5,0.0,0.0,0.0,0.0,0.0,0.0,2,0,41.366405295665885,-91.98111701594668,10000.000680093071,83.94502346226345,-0.0048204716679898,0.0028968400229371,,8714.375071090433,10952.218357409804,150,2,2025-09-09,2025-09-26 14:49:45.283,HH,B,3227262302,AMBUSH51,1,1,48,2,1,1,225,2,1,0,0,9,1,225,2,1,-156630.0301582967,-4793533.418778297,4194347.783627556,2.14871,-2.91724,0.197667,-104.969,-29.6995,-32.2994,-0.0911109,-7.42238,7.02104,0.0387521,0.0107868,-0.0183769,4,0,41.36153162880012,-91.8714895841031,8468.732834530703,-108.2169076735012,3.2851260444858155,-10.244699721546311,196.687,8714.375071090433,10952.218357409804,150,False,4.9451679896890495,False,161.958206983218,170.16804585616063,False,27.34063441504186,True,False
2,1970-07-23 09:44:53.864167329,2025-09-09,2025-09-26 14:49:46.416,HH,B,1872541176,JASSM,3,102,76,2,2,1,225,9,2,0,1,26,0,0,0,0,-165696.99353201812,-4793213.700166549,4195070.927214146,-2.29551,0.0354733,-0.0791918,94.75,3.375,7.5,0.0,0.0,0.0,0.0,0.0,0.0,2,0,41.366504696653934,-91.97987404070888,10000.000259250144,83.94584491048617,-0.0038823402522009,0.0028972936124631,,8714.375071090433,10952.218357409804,150,2,2025-09-09,2025-09-26 14:49:46.283,HH,B,3228455300,AMBUSH51,1,1,48,2,1,1,225,2,1,0,0,9,1,225,2,1,-156735.28624089513,-4793563.731885342,4194314.264480713,2.20295,-2.90809,0.206368,-104.294,-31.0225,-33.0735,-0.168999,-7.39244,6.93788,0.063041,-0.000115473,-0.0116087,4,0,41.36110455327058,-91.87273450397726,8479.135733777031,-108.93391847956556,3.3162810701662613,-7.283030306600065,196.541,8714.375071090433,10952.218357409804,150,True,4.835345424298869,False,161.12849415185832,169.72434531189214,False,28.58992039863848,True,False
2,1970-07-23 09:44:53.875285205,2025-09-09,2025-09-26 14:49:47.528,HH,B,1873794828,JASSM,3,102,76,2,2,1,225,9,2,0,1,26,0,0,0,0,-165597.43322928375,-4793210.166963424,4195078.842253208,-2.29551,0.0354733,-0.0791918,94.75,3.375,7.5,0.0,0.0,0.0,0.0,0.0,0.0,2,0,41.36659961087405,-91.97868682158528,10000.000554709795,83.94662951254189,-0.0029862948534704,0.0028977117700899,,8714.375071090433,10952.218357409804,150,2,2025-09-09,2025-09-26 14:49:47.483,HH,B,3229886898,AMBUSH51,1,1,48,2,1,1,225,2,1,0,0,9,1,225,2,1,-156860.19234388066,-4793600.848314788,4194273.635147551,2.28052,-2.90631,0.215158,-103.818,-31.6768,-33.6188,-0.16942,-7.17934,6.71556,0.0473013,-0.00520877,0.00170505,4,0,41.36058516991535,-91.8742113653512,8492.457279178363,-109.36956746858748,3.04312971876607,-2.8840636541954208,196.321,8714.375071090433,10952.218357409804,150,True,4.7183276599987005,False,160.63916314994754,169.1916546424302,False,29.61473404328796,True,False
2,1970-07-23 09:44:53.885327538,2025-09-09,2025-09-26 14:49:48.532,HH,B,1875048404,JASSM,3,102,76,2,2,1,225,9,2,0,1,26,0,0,0,0,-165497.87927420562,-4793206.631807174,4195086.756315708,-2.29551,0.0354733,-0.0791918,94.75,3.375,7.5,0.0,0.0,0.0,0.0,0.0,0.0,2,0,41.36669451655588,-91.9774996756034,9999.999593510314,83.94741406774212,-0.0020903062398479,0.0028981396323735,,8714.375071090433,10952.218357409804,150,2,2025-09-09,2025-09-26 14:49:48.550,HH,B,3231159430,AMBUSH51,1,1,48,2,1,1,225,2,1,0,0,9,1,225,2,1,-156971.21734394575,-4793634.30322157,4194237.080564093,2.33853,-2.90555,0.218507,-103.635,-31.7103,-33.7384,-0.152149,-6.92409,6.59781,0.0462152,0.0055812,0.0140118,4,0,41.360117761775285,-91.875523897286,8504.491754089633,-109.5387611435535,2.942542834500948,0.4219806828724863,196.272,8714.375071090433,10952.218357409804,150,True,4.6088647698770435,False,160.55364056167898,168.6761328768583,False,30.227987931422508,False,False
2,1970-07-23 09:44:53.897345952,2025-09-09,2025-09-26 14:49:49.734,HH,B,1876359044,JASSM,3,102,76,2,2,1,225,9,2,0,1,26,0,0,0,0,-165393.79333670562,-4793202.935518111,4195095.029753208,-2.29551,0.0354733,-0.0791918,94.75,3.375,7.5,0.0,0.0,0.0,0.0,0.0,0.0,2,0,41.36679372467224,-91.97625848371588,10000.001630573792,83.94823434212,-0.0011535302363864,0.0028985821076405,,8714.375071090433,10952.218357409804,150,2,2025-09-09,2025-09-26 14:49:49.717,HH,B,3232551262,AMBUSH51,1,1,48,2,1,1,225,2,1,0,0,9,1,225,2,1,-157092.2433040656,-4793670.669366626,4194197.441468226,2.36277,-2.91192,0.220542,-103.649,-31.2792,-33.6128,-0.168469,-6.9395,6.36429,-0.0113652,-0.00682331,0.0102168,4,0,41.35961024895364,-91.87695467698916,8517.818578721259,-109.37880614221508,2.605174739661165,1.8979167973614035,196.235,8714.375071090433,10952.218357409804,150,True,4.492339862102842,False,160.74385411808032,168.09257380669442,False,30.64642042034752,False,False
2,1970-07-23 09:44:53.908667823,2025-09-09,2025-09-26 14:49:50.866,HH,B,1877612838,JASSM,3,102,76,2,2,1,225,9,2,0,1,26,0,0,0,0,-165294.2218035025,-4793199.397432174,4195102.942839146,-2.29551,0.0354733,-0.0791918,94.75,3.375,7.5,0.0,0.0,0.0,0.0,0.0,0.0,2,0,41.36688861972295,-91.97507112201328,10000.000338333122,83.94901904291731,-0.0002573844040775,0.002899007708418,,8714.375071090433,10952.218357409804,150,2,2025-09-09,2025-09-26 14:49:51.049,HH,B,3234141928,AMBUSH51,1,1,48,2,1,1,225,2,1,0,0,9,1,225,2,1,-157230.86998951272,-4793711.672249112,4194151.986185279,2.31645,-2.91001,0.229829,-103.808,-31.1053,-33.502,-0.126448,-7.14155,6.67088,-0.0207903,0.00609094,0.00613671,4,0,41.35903243517439,-91.87859375980162,8531.378296617713,-109.83968905836876,2.31761616946302,-0.8000693097760802,196.321,8714.375071090433,10952.218357409804,150,True,4.369833417146402,False,160.87031192076728,167.41690049474323,False,31.20830154427582,False,False
2,1970-07-23 09:44:53.918145795,2025-09-09,2025-09-26 14:49:51.814,HH,B,1878924004,JASSM,3,102,76,2,2,1,225,9,2,0,1,26,0,0,0,0,-165190.093873815,-4793195.696260299,4195111.217253208,-2.29551,0.0355692,-0.0791918,94.75,3.375,7.5,0.0,0.0,0.0,0.0,0.0,0.0,2,0,41.36698784586615,-91.97382942339831,9999.99988177727,83.94620931479335,-0.0034198417646816,0.0033341013841392,,8714.375071090433,10952.218357409804,150,2,2025-09-09,2025-09-26 14:49:51.749,HH,B,3234977026,AMBUSH51,1,1,48,2,1,1,225,2,1,0,0,9,1,225,2,1,-157303.51371972583,-4793733.234422199,4194127.991867865,2.30268,-2.90852,0.234337,-103.763,-31.0836,-33.6873,-0.112277,-7.00268,6.65864,-0.0260043,0.00121195,-0.00445976,4,0,41.35872800808639,-91.87945263669788,8538.296247336499,-110.08504573843734,2.200776802841509,-1.618316702622678,196.541,8714.375071090433,10952.218357409804,150,True,4.278540691485833,False,160.81133972288714,166.96157844507593,False,31.735775645108422,False,False
2,1970-07-23 09:44:53.929169857,2025-09-09,2025-09-26 14:49:52.916,HH,B,1880236148,JASSM,3,102,76,2,2,1,225,9,2,0,1,26,0,0,0,0,-165085.88855154935,-4793191.992158736,4195119.496550083,-2.29551,0.0355692,-0.0790959,94.75,3.375,7.5,0.0,0.0,0.0,0.0,0.0,0.0,2,0,41.36708712484907,-91.97258679819376,10000.001852652063,83.95114302672316,-0.0061237622972115,0.0033341728018097,,8714.375071090433,10952.218357409804,150,2,2025-09-09,2025-09-26 14:49:52.983,HH,B,3236448392,AMBUSH51,1,1,48,2,1,1,225,2,1,0,0,9,1,225,2,1,-157431.90174988314,-4793771.211476097,4194085.381776576,2.28509,-2.90643,0.248367,-103.813,-31.0559,-34.2982,-0.014584,-6.87898,6.39401,0.00672136,-0.00242701,-0.00249775,4,0,41.35818936485545,-91.88097061666036,8549.76698201155,-110.7489067422814,1.7320860568947176,-2.677112705470432,196.687,8714.375071090433,10952.218357409804,150,True,4.1598262143393585,False,160.64071063911837,166.248584812033,False,32.65845143958843,False,False
2,1970-07-23 09:44:53.939308359,2025-09-09,2025-09-26 14:49:53.930,HH,B,1881489554,JASSM,3,102,76,2,2,1,225,9,2,0,1,26,0,0,0,0,-164986.347780065,-4793188.451143111,4195127.403776646,-2.29551,0.0355692,-0.0790959,94.75,3.375,7.5,0.0,0.0,0.0,0.0,0.0,0.0,2,0,41.36718195355729,-91.97139979430705,9999.99911188086,83.95192749557151,-0.0052278945160376,0.0033346066405018,,8714.375071090433,10952.218357409804,150,2,2025-09-09,2025-09-26 14:49:53.983,HH,B,3237641390,AMBUSH51,1,1,48,2,1,1,225,2,1,0,0,9,1,225,2,1,-157535.7505189944,-4793802.059524907,4194050.347076106,2.28967,-2.90511,0.256633,-103.78,-31.0807,-34.8017,-0.125298,-6.91281,6.46461,-0.00876451,-0.00581214,-0.0127551,4,0,41.35774904652912,-91.8821983893023,8558.1387484692,-111.14311171808669,1.4592752751397455,-2.444933953243974,196.993,8714.375071090433,10952.218357409804,150,True,4.056362906230502,False,160.46740047453937,165.6078601140957,False,33.50015331595271,False,False
2,1970-07-23 09:44:53.950686117,2025-09-09,2025-09-26 14:49:55.068,HH,B,1882742332,JASSM,3,102,76,2,2,1,225,9,2,0,1,26,0,0,0,0,-164886.85681326812,-4793184.912080611,4195135.307096958,-2.29551,0.0355692,-0.0790959,94.75,3.375,7.5,0.0,0.0,0.0,0.0,0.0,0.0,2,0,41.36727672184289,-91.9702133808126,10000.002049219802,83.95271157572058,-0.004332475014595,0.0033350394738764,,8714.375071090433,10952.218357409804,150,2,2025-09-09,2025-09-26 14:49:54.983,HH,B,3238834390,AMBUSH51,1,1,48,2,1,1,225,2,1,0,0,9,1,225,2,1,-157639.69513887388,-4793832.964403044,4194014.7891351096,2.28522,-2.90347,0.260772,-103.81,-31.1702,-35.2961,-0.165545,-7.01736,6.71557,0.00405404,-0.00104342,-0.00584127,4,0,41.35730482404033,-91.88342726647114,8565.530509425485,-111.378406462843,1.362454947831078,-2.729147969009545,197.103,8714.375071090433,10952.218357409804,150,True,3.9534560777103245,False,160.28754977206196,164.9294633087672,False,34.38113275394308,False,False
2,1970-07-23 09:44:53.964269658,2025-09-09,2025-09-26 14:49:56.426,HH,B,1884055462,JASSM,3,102,76,2,2,1,225,9,2,0,1,26,0,0,0,0,-164782.57287772125,-4793181.200166549,4195143.589323521,-2.29551,0.0355692,-0.0790959,94.75,3.375,7.5,0.0,0.0,0.0,0.0,0.0,0.0,2,0,41.36737604406797,-91.96896980922313,10000.00084327925,83.95353343225358,-0.0033939193241638,0.0033354947928812,,8714.375071090433,10952.218357409804,150,2,2025-09-09,2025-09-26 14:49:56.383,HH,B,3240504588,AMBUSH51,1,1,48,2,1,1,225,2,1,0,0,9,1,225,2,1,-157784.28907797002,-4793876.782004692,4193964.377473967,2.28738,-2.90097,0.261656,-103.535,-31.5473,-35.8335,-0.0804081,-6.96339,6.69145,0.00508809,-0.000273598,-0.00752447,4,0,41.35667553917229,-91.88513636290358,8575.80371697893,-111.5118968120035,1.429040869122233,-2.6458211252194777,197.213,8714.375071090433,10952.218357409804,150,True,3.8291650138010302,False,159.93558475403856,163.9909614089799,False,35.683941510475314,False,False
2,1970-07-23 09:44:53.972126136,2025-09-09,2025-09-26 14:49:57.212,HH,B,1885308238,JASSM,3,102,76,2,2,1,225,9,2,0,1,26,0,0,0,0,-164683.08191092435,-4793177.658174361,4195151.489714146,-2.29551,0.0355692,-0.0790959,94.75,3.375,7.5,0.0,0.0,0.0,0.0,0.0,0.0,2,0,41.3674707849261,-91.96778338988078,10000.000706651655,83.95431751929742,-0.0024985010008348,0.0033359252664877,,8714.375071090433,10952.218357409804,150,2,2025-09-09,2025-09-26 14:49:57.217,HH,B,3241498754,AMBUSH51,1,1,48,2,1,1,225,2,1,0,0,9,1,225,2,1,-157869.5103319471,-4793902.575031739,4193934.53778908,2.29062,-2.90178,0.261816,-103.503,-31.5849,-36.2072,-0.242368,-7.12596,6.67143,0.000165407,0.00322596,-0.00322388,4,0,41.35630396571605,-91.88614367231864,8581.507843154688,-111.48820988493392,1.3911627426701132,-2.4472452184173314,197.335,8714.375071090433,10952.218357409804,150,True,3.736728147271565,False,159.79784912226665,163.31787866997306,False,36.51231484617291,False,False
2,1970-07-23 09:44:53.982163981,2025-09-09,2025-09-26 14:49:58.216,HH,B,1886619100,JASSM,3,102,76,2,2,1,225,9,2,0,1,26,0,0,0,0,-164578.97815115875,-4793173.951143111,4195159.755339146,-2.29551,0.0355692,-0.0790959,94.75,3.375,7.5,0.0,0.0,0.0,0.0,0.0,0.0,2,0,41.36756990295976,-91.966541960117,10000.001736138964,83.95513796350085,-0.0015615680655769,0.0033363734009606,,8714.375071090433,10952.218357409804,150,2,2025-09-09,2025-09-26 14:49:58.349,HH,B,3242850818,AMBUSH51,1,1,48,2,1,1,225,2,1,0,0,9,1,225,2,1,-157987.0701108187,-4793938.506019723,4193892.921581988,2.28855,-2.89937,0.264965,-103.455,-31.9988,-36.4329,-0.196563,-7.12765,6.78126,0.0225089,0.000431723,-0.00940533,4,0,41.355786233098286,-91.88753306332735,8589.263522283884,-111.7114683648848,1.363717130168513,-2.6072355316894917,197.702,8714.375071090433,10952.218357409804,150,True,3.6272733771513557,False,159.58108839201697,162.4136621683295,False,37.62694914076984,False,False
2,1970-07-23 09:44:53.995066158,2025-09-09,2025-09-26 14:49:59.506,HH,B,1887932556,JASSM,3,102,76,2,2,1,225,9,2,0,1,26,0,0,0,0,-164474.668092565,-4793170.234346236,4195168.036589146,-2.29551,0.0356651,-0.0790959,94.75,3.375,7.5,0.0,0.0,0.0,0.0,0.0,0.0,2,0,41.36766921326396,-91.9652980674674,10000.000800318634,83.95232963757212,-0.0047223923592236,0.0037710360361148,,8714.375071090433,10952.218357409804,150,2,2025-09-09,2025-09-26 14:49:59.483,HH,B,3244202884,AMBUSH51,1,1,48,2,1,1,225,2,1,0,0,9,1,225,2,1,-158104.88742452697,-4793974.792387468,4193850.996223088,2.28475,-2.897,0.267503,-103.381,-32.2568,-36.7276,-0.0824824,-7.06737,6.76956,-0.0176133,-0.00417471,-0.00876034,4,0,41.35526423274119,-91.88892536597814,8597.253312296658,-111.90838027655174,1.3593111899524588,-2.865260192448309,198.117,8714.375071090433,10952.218357409804,150,True,3.518612319743442,False,159.38818893844297,161.4481286368347,False,38.78990833495491,False,False
