Subject_cm,Timestamp,SampleDate_cm,SampleTime_cm,Configuration_cm,Scenario_cm,DisTime_cm,MarkingTxt_cm,Application_cm,EntId_cm,Site_cm,ExerciseId_cm,ForceId_cm,Category_cm,Country_cm,Domain_cm,Kind_cm,Extra_cm,Specific_cm,Subcategory_cm,AltCategory_cm,AltCountry_cm,AltDomain_cm,AltKind_cm,ECEF_X_cm,ECEF_Y_cm,ECEF_Z_cm,OriPhi_cm,OriPsi_cm,OriTheta_cm,LinVelX_cm,LinVelY_cm,LinVelZ_cm,LinAccX_cm,LinAccY_cm,LinAccZ_cm,AngVelX_cm,AngVelY_cm,AngVelZ_cm,DrAlg_cm,Appearance_cm,Latitude_cm,Longitude_cm,Altitude_cm,Heading_cm,Pitch_cm,Roll_cm,CalibratedAirspeed_cm,CM_Altitude_Lead_cm,CM_Altitude_Wing_cm,CM_Airspeed_cm,Subject_ac,SampleDate_ac,SampleTime_ac,Configuration_ac,Scenario_ac,DisTime_ac,MarkingTxt_ac,Application_ac,EntId_ac,Site_ac,ExerciseId_ac,ForceId_ac,Category_ac,Country_ac,Domain_ac,Kind_ac,Extra_ac,Specific_ac,Subcategory_ac,AltCategory_ac,AltCountry_ac,AltDomain_ac,AltKind_ac,ECEF_X_ac,ECEF_Y_ac,ECEF_Z_ac,OriPhi_ac,OriPsi_ac,OriTheta_ac,LinVelX_ac,LinVelY_ac,LinVelZ_ac,LinAccX_ac,LinAccY_ac,LinAccZ_ac,AngVelX_ac,AngVelY_ac,AngVelZ_ac,DrAlg_ac,Appearance_ac,Latitude_ac,Longitude_ac,Altitude_ac,Heading_ac,Pitch_ac,Roll_ac,CalibratedAirspeed_ac,CM_Altitude_Lead_ac,CM_Altitude_Wing_ac,CM_Airspeed_ac,Bank_Angle_Condition,distance_nm,Distance_Condition,angle_between_vel,angle_between_pos,Cone_Condition,angle_between_pos_nose,Nose_Cone_Condition,Intercept_Criteria
2,1970-07-23 11:42:53.606205441,2025-09-17,2025-09-26 19:29:20.620,HH,C,1282518004,JASSM,3,104,76,2,2,1,225,9,2,0,1,26,0,0,0,0,-180588.30993826807,-4777977.241182174,4211692.440886021,-2.36693,-0.400848,0.381002,76.0,-32.125,-33.0,0.0,0.0,0.0,0.0,0.0,0.0,2,0,41.56612825774344,-92.16451956351172,9999.999457078276,119.7985884505414,-0.0031155102120004,0.0045533704314992,,9031.630405181751,11029.86252269048,150,2,2025-09-17,2025-09-26 19:29:20.742,HH,C,1781187820,AMBUSH51,1,1,48,2,1,1,225,2,1,0,0,9,1,225,2,1,-146013.78874066702,-4792726.415112175,4195903.591624996,2.30301,2.978,-0.140276,-117.28,20.1368,18.9224,-0.167894,-7.11897,6.28371,5.20149e-06,-0.00697311,0.00500903,4,0,41.37883079137705,-91.74501656117631,9031.563731270951,-78.94216703070778,-0.3552394765596242,0.0026924270276413,200.219,9031.630405181751,11029.86252269048,150,True,21.930270997929355,False,162.02078572692213,178.99916214959418,False,18.79008555103329,True,False
2,1970-07-23 11:42:53.616248530,2025-09-17,2025-09-26 19:29:21.624,HH,C,1283770738,JASSM,3,104,76,2,2,1,225,9,2,0,1,26,0,0,0,0,-180508.48376639312,-4778011.081025924,4211657.706511021,-2.36693,-0.400848,0.381002,76.0,-32.125,-33.0,0.0,0.0,0.0,0.0,0.0,0.0,2,0,41.56571046620876,-92.16354837307452,9999.998810313224,119.79923281729376,-0.0022773275760204,0.0045519294827961,,9031.630405181751,11029.86252269048,150,2,2025-09-17,2025-09-26 19:29:21.542,HH,C,1782142218,AMBUSH51,1,1,48,2,1,1,225,2,1,0,0,9,1,225,2,1,-146106.08154556726,-4792710.206582634,4195918.442857648,2.30583,2.97389,-0.141743,-117.167,20.5018,18.7691,-0.118576,-6.95272,6.10357,0.00320932,-0.00893511,0.00973406,4,0,41.3790107468914,-91.74612477510176,9030.809834447018,-78.72441804876772,-0.4716404190063112,0.1295750632873798,200.256,9031.630405181751,11029.86252269048,150,True,21.831843399881475,False,162.09372749584307,178.961318182883,False,18.767577667829276,True,False
2,1970-07-23 11:42:53.627265505,2025-09-17,2025-09-26 19:29:22.726,HH,C,1285081978,JASSM,3,104,76,2,2,1,225,9,2,0,1,26,0,0,0,0,-180424.9300554556,-4778046.502900924,4211621.347136021,-2.36693,-0.400848,0.381098,76.0,-32.125,-33.0,0.0,0.0,0.0,0.0,0.0,0.0,2,0,41.56527312514873,-92.16253184478263,10000.000840055676,119.80374927998386,-0.0053260429115502,0.0045501685573923,,9031.630405181751,11029.86252269048,150,2,2025-09-17,2025-09-26 19:29:22.643,HH,C,1783454516,AMBUSH51,1,1,48,2,1,1,225,2,1,0,0,9,1,225,2,1,-146234.83111079238,-4792687.176624761,4195938.901433762,2.30771,2.96958,-0.141564,-117.169,20.992,18.5833,-0.0907954,-6.94387,6.07668,0.00328838,0.000714684,0.00178827,4,0,41.37926251045811,-91.7476709097494,9028.173321377371,-78.56927024388287,-0.6591696323979148,0.2012631988144832,200.476,9031.630405181751,11029.86252269048,150,True,21.712005438395153,False,162.17921333182696,178.90763241462895,False,18.751750356297297,True,False
2,1970-07-23 11:42:53.638288089,2025-09-17,2025-09-26 19:29:23.828,HH,C,1286335420,JASSM,3,104,76,2,2,1,225,9,2,0,1,26,0,0,0,0,-180345.0589617056,-4778080.360322799,4211586.591276646,-2.36693,-0.400848,0.381098,76.0,-32.125,-33.0,0.0,0.0,0.0,0.0,0.0,0.0,2,0,41.56485507733556,-92.16156013410249,10000.001562619018,119.8043939811064,-0.0044873866618679,0.0045487789790313,,9031.630405181751,11029.86252269048,150,2,2025-09-17,2025-09-26 19:29:23.742,HH,C,1784766816,AMBUSH51,1,1,48,2,1,1,225,2,1,0,0,9,1,225,2,1,-146363.95508770217,-4792663.523927511,4195959.173926503,2.30852,2.96403,-0.139417,-117.19,21.634,18.2698,-0.165454,-7.0602,6.03508,0.00663606,-0.00611799,0.00668807,4,0,41.37951663189842,-91.74922175573604,9023.638042243618,-78.45095475310532,-0.9740300303397073,0.2012496440902843,200.732,9031.630405181751,11029.86252269048,150,True,21.594253711528935,False,162.25972592155037,178.85219301937926,False,18.744348588369927,True,False
2,1970-07-23 11:42:53.649305873,2025-09-17,2025-09-26 19:29:24.930,HH,C,1287647978,JASSM,3,104,76,2,2,1,225,9,2,0,1,26,0,0,0,0,-180261.42126639312,-4778115.813447799,4211550.194792271,-2.36693,-0.400848,0.381098,76.0,-32.125,-33.0,0.0,0.0,0.0,0.0,0.0,0.0,2,0,41.564417301209495,-92.16054261285882,10000.001306804745,119.8050690704674,-0.0036091783828663,0.0045473193594805,,9031.630405181751,11029.86252269048,150,2,2025-09-17,2025-09-26 19:29:24.910,HH,C,1786158648,AMBUSH51,1,1,48,2,1,1,225,2,1,0,0,9,1,225,2,1,-146501.4640828736,-4792637.729366018,4195980.495957142,2.30896,2.95919,-0.137994,-117.297,21.9769,18.2452,0.0319411,-7.02141,5.94214,0.00261219,-0.0045617,0.00472607,4,0,41.37978903322927,-91.7508735453734,9016.748424524822,-78.3285031074179,-1.2311871480107308,0.1857271372874763,201.062,9031.630405181751,11029.86252269048,150,True,21.469711319083064,False,162.34060273822624,178.79148291676418,False,18.73491750785748,True,False
2,1970-07-23 11:42:53.660185371,2025-09-17,2025-09-26 19:29:26.018,HH,C,1288960416,JASSM,3,104,76,2,2,1,225,9,2,0,1,26,0,0,0,0,-180177.79138358065,-4778151.262666549,4211513.800261021,-2.36693,-0.400848,0.381098,76.0,-32.125,-33.0,0.0,0.0,0.0,0.0,0.0,0.0,2,0,41.563979550746446,-92.15952520066344,10000.001364052972,119.80574408164046,-0.0027310491653554,0.004545854363456,,9031.630405181751,11029.86252269048,150,2,2025-09-17,2025-09-26 19:29:26.109,HH,C,1787590246,AMBUSH51,1,1,48,2,1,1,225,2,1,0,0,9,1,225,2,1,-146641.35424390493,-4792610.923022116,4196001.84939533,2.30154,2.95715,-0.135126,-117.425,22.5693,17.9144,-0.0845844,-7.18278,6.04032,-0.00774918,0.0032322,0.0121351,4,0,41.38006720669951,-91.7525541599,9007.62688807792,-78.37375366821512,-1.4260491390316237,-0.2543472638134274,201.282,9031.630405181751,11029.86252269048,150,True,21.34391551687969,False,162.38033403481197,178.7280167633101,False,18.773982323030427,True,False
2,1970-07-23 11:42:53.671186234,2025-09-17,2025-09-26 19:29:27.118,HH,C,1290271422,JASSM,3,104,76,2,2,1,225,9,2,0,1,26,0,0,0,0,-180094.25232108062,-4778186.670869674,4211477.444792271,-2.36693,-0.400848,0.381098,76.0,-32.125,-33.0,0.0,0.0,0.0,0.0,0.0,0.0,2,0,41.563542278571695,-92.15850890820468,9999.999151639293,119.80641834408505,-0.0018538801747192,0.0045444008405993,,9031.630405181751,11029.86252269048,150,2,2025-09-17,2025-09-26 19:29:27.276,HH,C,1788982078,AMBUSH51,1,1,48,2,1,1,225,2,1,0,0,9,1,225,2,1,-146779.1828038705,-4792583.853091603,4196022.777316454,2.30188,2.95123,-0.134221,-117.65,23.1366,17.683,-0.0499416,-7.12124,6.18714,0.00874994,-0.00190062,0.00624283,4,0,41.38034442524776,-91.75421026309758,8996.789194554902,-78.1876749124436,-1.7087938069157167,-0.2857139527746625,201.576,9031.630405181751,11029.86252269048,150,True,21.219178130403485,False,162.43306828826286,178.66412714948268,False,18.798028605186598,True,False
2,1970-07-23 11:42:53.681224984,2025-09-17,2025-09-26 19:29:28.122,HH,C,1291524844,JASSM,3,104,76,2,2,1,225,9,2,0,1,26,0,0,0,0,-180014.38220389312,-4778220.524385299,4211442.685026646,-2.36693,-0.400752,0.381098,76.0,-32.125,-33.0,0.0,0.0,0.0,0.0,0.0,0.0,2,0,41.56312419342171,-92.15753726284412,10000.000460263662,119.80341865819685,-0.0045816776930907,0.0025000466874879,,9031.630405181751,11029.86252269048,150,2,2025-09-17,2025-09-26 19:29:27.975,HH,C,1789817176,AMBUSH51,1,1,48,2,1,1,225,2,1,0,0,9,1,225,2,1,-146861.4249129271,-4792567.572056631,4196035.193241205,2.30529,2.95073,-0.133563,-117.765,23.3222,17.6684,-0.188145,-7.27404,6.52757,-0.00957386,0.0020421,-0.0150937,4,0,41.38051010933928,-91.75519851208756,8989.85565547264,-78.19708378992003,-1.7545262437360112,-0.0938429839085562,201.795,9031.630405181751,11029.86252269048,150,True,21.12587906658377,False,162.46712055602836,178.62417273522266,False,18.80850188790404,True,False
2,1970-07-23 11:42:53.692245783,2025-09-17,2025-09-26 19:29:29.224,HH,C,1292836800,JASSM,3,104,76,2,2,1,225,9,2,0,1,26,0,0,0,0,-179930.78259451812,-4778255.957979049,4211406.300261021,-2.36693,-0.400752,0.381098,76.0,-32.125,-33.0,0.0,0.0,0.0,0.0,0.0,0.0,2,0,41.56268656845086,-92.15652026075608,10000.0007751442,119.80409338013703,-0.0037038639401607,0.0024985203440378,,9031.630405181751,11029.86252269048,150,2,2025-09-17,2025-09-26 19:29:29.109,HH,C,1791169242,AMBUSH51,1,1,48,2,1,1,225,2,1,0,0,9,1,225,2,1,-146994.03260947968,-4792541.225269049,4196055.28290412,2.29024,2.95742,-0.142479,-117.96,23.0005,18.1007,-0.130578,-8.10944,7.09137,-0.0128612,0.0222218,0.00247071,4,0,41.38077828128325,-91.7567920178023,8978.601767083668,-78.07425716394722,-1.12889385281661,-0.9063126803637496,202.382,9031.630405181751,11029.86252269048,150,True,21.003833411721093,False,162.51153046952692,178.5606806707175,False,18.824152500820098,True,False
2,1970-07-23 11:42:53.703283769,2025-09-17,2025-09-26 19:29:30.328,HH,C,1294150040,JASSM,3,104,76,2,2,1,225,9,2,0,1,26,0,0,0,0,-179847.10095389312,-4778291.422822799,4211369.880339146,-2.36693,-0.400752,0.381098,76.0,-32.125,-33.0,0.0,0.0,0.0,0.0,0.0,0.0,2,0,41.562248529694365,-92.15550227607508,9999.998570546542,119.80476874812555,-0.0028252020667994,0.0024970132812335,,9031.630405181751,11029.86252269048,150,2,2025-09-17,2025-09-26 19:29:30.343,HH,C,1792640608,AMBUSH51,1,1,48,2,1,1,225,2,1,0,0,9,1,225,2,1,-147139.45229132377,-4792513.226604539,4196078.255967935,2.28126,2.96879,-0.148831,-118.059,22.0047,18.9693,-0.141485,-8.3974,7.29157,-0.0206135,0.0145964,-0.00531904,4,0,41.38107338772101,-91.75853917050122,8970.514408686835,-78.23748623477688,-0.4050263445597377,-1.324285174240863,202.309,9031.630405181751,11029.86252269048,150,True,20.875034390599524,False,162.5194808231766,178.49109690516502,False,18.87076719936968,True,False
2,1970-07-23 11:42:53.714184819,2025-09-17,2025-09-26 19:29:31.418,HH,C,1295461176,JASSM,3,104,76,2,2,1,225,9,2,0,1,26,0,0,0,0,-179763.55310233062,-4778326.831025924,4211333.517057896,-2.36693,-0.400752,0.381098,76.0,-32.125,-33.0,0.0,0.0,0.0,0.0,0.0,0.0,2,0,41.56181117119916,-92.15448593262356,9999.997976978102,119.80544302143086,-0.0019479394113801,0.0024954990147846,,9031.630405181751,11029.86252269048,150,2,2025-09-17,2025-09-26 19:29:31.476,HH,C,1793992672,AMBUSH51,1,1,48,2,1,1,225,2,1,0,0,9,1,225,2,1,-147274.0192420061,-4792488.677173909,4196100.213899734,2.27366,2.97459,-0.152201,-118.068,21.03,19.532,-0.276152,-7.966,6.94932,-0.0213105,0.00398746,-0.00586624,4,0,41.38134308369496,-91.76015544867984,8967.903240770489,-78.31470736699113,-0.0306784273687942,-1.709524074128938,202.333,9031.630405181751,11029.86252269048,150,True,20.752160666569683,False,162.41857036109363,178.4257579871313,False,19.023997346091228,True,False
2,1970-07-23 11:42:53.725184852,2025-09-17,2025-09-26 19:29:32.518,HH,C,1296715246,JASSM,3,104,76,2,2,1,225,9,2,0,1,26,0,0,0,0,-179683.64196951812,-4778360.698213424,4211298.735807896,-2.36693,-0.400752,0.381194,76.0,-32.125,-33.0,0.0,0.0,0.0,0.0,0.0,0.0,2,0,41.56139283489228,-92.15351384186232,10000.000860264889,119.80993009241178,-0.0050347750865974,0.0024938386319003,,9031.630405181751,11029.86252269048,150,2,2025-09-17,2025-09-26 19:29:32.343,HH,C,1795026604,AMBUSH51,1,1,48,2,1,1,225,2,1,0,0,9,1,225,2,1,-147375.2977823165,-4792470.74093658,4196117.200076722,2.27125,2.98254,-0.15315,-117.908,20.4763,19.7967,-0.191584,-7.8498,6.9875,0.0152352,0.0111093,-0.00881652,4,0,41.38154594267633,-91.761371711738,8968.271757525978,-78.57593243941992,0.3413360032497521,-1.779057335100631,201.783,9031.630405181751,11029.86252269048,150,True,20.64900864099784,False,162.3543972880021,178.37540643973358,False,19.13224963578493,True,False
2,1970-07-23 11:42:53.735225875,2025-09-17,2025-09-26 19:29:33.522,HH,C,1297968326,JASSM,3,104,76,2,2,1,225,9,2,0,1,26,0,0,0,0,-179603.79431326812,-4778394.536104049,4211263.979948521,-2.36693,-0.400752,0.381194,76.0,-32.125,-33.0,0.0,0.0,0.0,0.0,0.0,0.0,2,0,41.5609748218692,-92.15254253687309,9999.997483413788,119.81057447514576,-0.0041963614940573,0.0024924405055796,,9031.630405181751,11029.86252269048,150,2,2025-09-17,2025-09-26 19:29:33.475,HH,C,1796378670,AMBUSH51,1,1,48,2,1,1,225,2,1,0,0,9,1,225,2,1,-147509.58271461935,-4792447.433993056,4196139.874747677,2.29935,2.9823,-0.149362,-117.735,20.354,19.7738,-0.257769,-7.26654,6.35153,0.0239986,0.00515675,-0.00314066,4,0,41.38181310168322,-91.76298418859903,8970.268183566424,-78.72950069217683,0.1875852686054264,-0.1721119733432149,201.38,9031.630405181751,11029.86252269048,150,True,20.52873869381027,False,162.32754716045503,178.30885919750142,False,19.229228974011054,True,False
2,1970-07-23 11:42:53.746254743,2025-09-17,2025-09-26 19:29:34.625,HH,C,1299278924,JASSM,3,104,76,2,2,1,225,9,2,0,1,26,0,0,0,0,-179520.28064139312,-4778429.926729049,4211227.630339146,-2.36693,-0.400752,0.381194,76.0,-32.125,-33.0,0.0,0.0,0.0,0.0,0.0,0.0,2,0,41.5605376263949,-92.1515266504978,10000.000975861334,119.81124842834754,-0.0033194634797359,0.002490994002733,,9031.630405181751,11029.86252269048,150,2,2025-09-17,2025-09-26 19:29:34.611,HH,C,1797730736,AMBUSH51,1,1,48,2,1,1,225,2,1,0,0,9,1,225,2,1,-147642.0636358775,-4792424.259182617,4196162.124895138,2.32839,2.9761,-0.145817,-117.515,20.6056,19.7686,-0.0827945,-6.89896,5.97398,0.0246332,-0.00320308,0.00143041,4,0,41.38207691595314,-91.7645750823441,8971.54203416128,-78.64701285512054,-0.2080246289965025,1.4395656214237154,201.013,9031.630405181751,11029.86252269048,150,True,20.40712635879926,False,162.42903863407648,178.24171917847372,False,19.202526617640086,True,False
2,1970-07-23 11:42:53.757264895,2025-09-17,2025-09-26 19:29:35.726,HH,C,1300532200,JASSM,3,104,76,2,2,1,225,9,2,0,1,26,0,0,0,0,-179440.41931326812,-4778463.768525924,4211192.866667271,-2.36693,-0.400752,0.381194,76.0,-32.125,-33.0,0.0,0.0,0.0,0.0,0.0,0.0,2,0,41.56011952367342,-92.15055520566364,9999.998094719524,119.81189289296532,-0.0024809061235418,0.0024895941437665,,9031.630405181751,11029.86252269048,150,2,2025-09-17,2025-09-26 19:29:35.676,HH,C,1799003268,AMBUSH51,1,1,48,2,1,1,225,2,1,0,0,9,1,225,2,1,-147767.88561906654,-4792401.455791252,4196183.419006422,2.35794,2.97527,-0.149142,-117.216,21.3024,19.8862,-0.146631,-7.3604,6.31092,0.0256028,-0.00865007,0.0169121,4,0,41.38233326434656,-91.76608631633404,8971.16055444318,-78.4745966572661,-0.1148505053502033,3.1253526411777464,200.793,9031.630405181751,11029.86252269048,150,True,20.29111753678727,False,162.71906583246127,178.1773735342809,False,18.988061086144228,True,False
2,1970-07-23 11:42:53.767304167,2025-09-17,2025-09-26 19:29:36.730,HH,C,1301784926,JASSM,3,104,76,2,2,1,225,9,2,0,1,26,0,0,0,0,-179360.59411795562,-4778497.594697799,4211158.118620396,-2.36693,-0.400752,0.381194,76.0,-32.125,-33.0,0.0,0.0,0.0,0.0,0.0,0.0,2,0,41.55970160306078,-92.14958421300943,9999.99870414306,119.812537052282,-0.0016427287810916,0.0024881958472996,,9031.630405181751,11029.86252269048,150,2,2025-09-17,2025-09-26 19:29:36.809,HH,C,1800355332,AMBUSH51,1,1,48,2,1,1,225,2,1,0,0,9,1,225,2,1,-147899.71371614357,-4792377.115845026,4196205.868055496,2.37719,2.96804,-0.156403,-116.896,21.8004,20.3387,-0.184936,-7.39775,6.25543,0.0101211,0.00265796,0.00216278,4,0,41.38260542775206,-91.76766986704057,8969.968054911433,-77.89256353803769,-0.1393867833377886,4.163973853058442,200.427,9031.630405181751,11029.86252269048,150,True,20.171899491613054,False,163.06424418291076,178.1094591054177,False,18.715583360587114,True,False
2,1970-07-23 11:42:53.778343447,2025-09-17,2025-09-26 19:29:37.834,HH,C,1303096894,JASSM,3,104,76,2,2,1,225,9,2,0,1,26,0,0,0,0,-179276.99255545562,-4778533.018525924,4211121.727995396,-2.36693,-0.400657,0.381194,76.0,-32.125,-33.0,0.0,0.0,0.0,0.0,0.0,0.0,2,0,41.559263926738176,-92.1485672992504,10000.000580431166,119.80956761648363,-0.0043313522991734,0.0004432904003618,,9031.630405181751,11029.86252269048,150,2,2025-09-17,2025-09-26 19:29:37.943,HH,C,1801707398,AMBUSH51,1,1,48,2,1,1,225,2,1,0,0,9,1,225,2,1,-148032.7388541733,-4792351.860203654,4196229.09994188,2.40093,2.96412,-0.166856,-116.513,22.3436,21.0439,-0.192119,-7.73169,6.7026,0.0187347,-0.0092909,0.00256225,4,0,41.38288808161089,-91.76926806676002,8968.320894451861,-77.30059788010519,0.0986439328233125,5.487816357763632,200.133,9031.630405181751,11029.86252269048,150,True,20.049448405520998,False,163.5181672976625,178.0406891595031,False,18.332642106974664,True,False
2,1970-07-23 11:42:53.789184376,2025-09-17,2025-09-26 19:29:38.918,HH,C,1304351006,JASSM,3,104,76,2,2,1,225,9,2,0,1,26,0,0,0,0,-179197.07849295562,-4778566.879854049,4211086.938932896,-2.36693,-0.400657,0.381194,76.0,-32.125,-33.0,0.0,0.0,0.0,0.0,0.0,0.0,2,0,41.55884552321748,-92.1475952523904,9999.999169434645,119.81021246434771,-0.0034922421460252,0.0004418360139462,,9031.630405181751,11029.86252269048,150,2,2025-09-17,2025-09-26 19:29:38.742,HH,C,1802661796,AMBUSH51,1,1,48,2,1,1,225,2,1,0,0,9,1,225,2,1,-148125.91697054036,-4792333.752991802,4196246.14850316,2.41071,2.95904,-0.174699,-116.227,22.6562,21.8714,-0.141625,-7.68271,6.73257,0.00485923,-0.00150115,0.015102,4,0,41.38309377130678,-91.7703876959226,8967.829830494515,-76.77546616460616,0.1878016335563521,5.999759534761601,199.804,9031.630405181751,11029.86252269048,150,True,19.950023306130397,False,163.93125123948968,177.9917297858544,False,17.964860302907404,True,False
2,1970-07-23 11:42:53.800203183,2025-09-17,2025-09-26 19:29:40.020,HH,C,1305722498,JASSM,3,104,76,2,2,1,225,9,2,0,1,26,0,0,0,0,-179109.68493826812,-4778603.909150924,4211048.894011021,-2.36693,-0.400657,0.381194,76.0,-32.125,-33.0,0.0,0.0,0.0,0.0,0.0,0.0,2,0,41.55838795891444,-92.14653224250662,10000.000114999028,119.81091765022587,-0.0025746008252213,0.0004402528896338,,9031.630405181751,11029.86252269048,150,2,2025-09-17,2025-09-26 19:29:40.075,HH,C,1804252462,AMBUSH51,1,1,48,2,1,1,225,2,1,0,0,9,1,225,2,1,-148280.73040232743,-4792302.629649565,4196276.063436509,2.38443,2.95257,-0.178989,-115.763,23.6514,22.8927,-0.116867,-7.43648,6.45498,-0.0408639,-0.00135759,0.0214561,4,0,41.38345240395887,-91.77224833519853,8967.91579057786,-76.34954532607848,0.0836479487327859,4.4297680378219,199.351,9031.630405181751,11029.86252269048,150,True,19.812832293248093,False,164.64396804416225,177.91446364372217,False,17.334092602357398,True,False
2,1970-07-23 11:42:53.811227694,2025-09-17,2025-09-26 19:29:41.122,HH,C,1307035312,JASSM,3,104,76,2,2,1,225,9,2,0,1,26,0,0,0,0,-179026.02966483062,-4778639.352510299,4211012.476042271,-2.36684,-0.400657,0.38129,76.0,-32.125,-33.0,0.0,0.0,0.0,0.0,0.0,0.0,2,0,41.55794996684996,-92.1455147180822,10000.000215284264,119.81543495825878,-0.0056219949652362,0.0059299716724185,,9031.630405181751,11029.86252269048,150,2,2025-09-17,2025-09-26 19:29:41.209,HH,C,1805604528,AMBUSH51,1,1,48,2,1,1,225,2,1,0,0,9,1,225,2,1,-148411.0595844867,-4792275.856047542,4196301.924174867,2.36944,2.94471,-0.180625,-115.454,24.0133,23.4503,0.0128925,-7.29793,6.09451,0.031262,-0.00572684,0.00429747,4,0,41.38376227050602,-91.77381493591344,8968.058076208994,-75.9833379685389,-0.1802961710458047,3.490220450788104,198.985,9031.630405181751,11029.86252269048,150,True,19.690769837749137,False,164.98466587678186,177.84883073085038,False,17.05966803309443,True,False
2,1970-07-23 11:42:53.822242859,2025-09-17,2025-09-26 19:29:42.224,HH,C,1308348238,JASSM,3,104,76,2,2,1,225,9,2,0,1,26,0,0,0,0,-178942.36755545562,-4778674.797822799,4210976.052214146,-2.36684,-0.400657,0.38129,76.0,-32.125,-33.0,0.0,0.0,0.0,0.0,0.0,0.0,2,0,41.55751191616534,-92.14449712467471,9999.996649935058,119.8161100037621,-0.0047435324693167,0.0059285103699358,,9031.630405181751,11029.86252269048,150,2,2025-09-17,2025-09-26 19:29:42.342,HH,C,1806956592,AMBUSH51,1,1,48,2,1,1,225,2,1,0,0,9,1,225,2,1,-148542.6092905653,-4792247.879350526,4196328.827181492,2.37026,2.94056,-0.183695,-115.162,24.6929,23.8732,-0.091372,-7.34523,6.33973,-0.00459707,0.00727896,0.0124222,4,0,41.38408608394752,-91.7753965753965,8967.603417722532,-75.69718692588194,-0.2333517811237062,3.4930617425184622,198.569,9031.630405181751,11029.86252269048,150,True,19.567712775416314,False,165.376388881354,177.78310507663113,False,16.74067011980041,True,False
2,1970-07-23 11:42:53.834242882,2025-09-17,2025-09-26 19:29:43.424,HH,C,1309718080,JASSM,3,104,76,2,2,1,225,9,2,0,1,26,0,0,0,0,-178855.07849295562,-4778711.780244674,4210938.050261021,-2.36684,-0.400657,0.38129,76.0,-32.125,-33.0,0.0,0.0,0.0,0.0,0.0,0.0,2,0,41.55705486879249,-92.14343543059016,10000.001367722653,119.81681429829962,-0.0038269880461359,0.0059269887850136,,9031.630405181751,11029.86252269048,150,2,2025-09-17,2025-09-26 19:29:43.543,HH,C,1808388190,AMBUSH51,1,1,48,2,1,1,225,2,1,0,0,9,1,225,2,1,-148680.0083907128,-4792217.698718099,4196357.591805869,2.37255,2.93042,-0.184918,-114.931,25.5869,24.2011,-0.219396,-7.26132,6.42839,0.00148867,-0.00483842,-0.00663606,4,0,41.38443447468559,-91.77704891548154,8966.220188017733,-75.26139137116286,-0.6070889500858375,3.5144186561462685,198.239,9031.630405181751,11029.86252269048,150,True,19.43893140341601,False,165.79175425189212,177.7147286806265,False,16.405111108878774,True,False
2,1970-07-23 11:42:53.844283620,2025-09-17,2025-09-26 19:29:44.428,HH,C,1310970780,JASSM,3,104,76,2,2,1,225,9,2,0,1,26,0,0,0,0,-178775.25427420562,-4778745.596650924,4210903.296354771,-2.36684,-0.400657,0.38129,76.0,-32.125,-33.0,0.0,0.0,0.0,0.0,0.0,0.0,2,0,41.55663690642413,-92.14246454574888,9999.998227344386,119.81745834726576,-0.0029888299272906,0.0059256032716772,,9031.630405181751,11029.86252269048,150,2,2025-09-17,2025-09-26 19:29:44.509,HH,C,1809541422,AMBUSH51,1,1,48,2,1,1,225,2,1,0,0,9,1,225,2,1,-148790.97755798438,-4792192.472430322,4196381.242569004,2.36759,2.92445,-0.183914,-114.754,26.1374,24.5918,-0.286573,-7.22416,6.38477,-0.0123972,-0.00211701,0.00365665,4,0,41.384723725387175,-91.77838374202771,8963.925957708572,-75.07776273635186,-0.8929139457638735,3.165051121922241,198.056,9031.630405181751,11029.86252269048,150,True,19.32881847623629,False,166.11565075162633,177.6590019786854,False,16.14173587352361,True,False
2,1970-07-23 11:42:53.855303481,2025-09-17,2025-09-26 19:29:45.530,HH,C,1312224018,JASSM,3,104,76,2,2,1,225,9,2,0,1,26,0,0,0,0,-178695.39587576812,-4778779.428682174,4210868.526823521,-2.36684,-0.400657,0.38129,76.0,-32.125,-33.0,0.0,0.0,0.0,0.0,0.0,0.0,2,0,41.55621874501527,-92.1414932571924,10000.000761962689,119.81810265871847,-0.0021503066378494,0.0059242070465121,,9031.630405181751,11029.86252269048,150,2,2025-09-17,2025-09-26 19:29:45.342,HH,C,1810535588,AMBUSH51,1,1,48,2,1,1,225,2,1,0,0,9,1,225,2,1,-148887.35512714117,-4792169.7775452025,4196402.270421879,2.36283,2.91626,-0.189377,-114.665,26.7115,24.9935,-0.0294181,-7.50915,6.09854,-0.0212023,-0.00520877,0.0083796,4,0,41.3849828903078,-91.77954335047514,8961.06228363723,-74.53614604860012,-1.0200694795645926,2.796490053035978,198.276,9031.630405181751,11029.86252269048,150,True,19.22631601525874,False,166.4370847653157,177.61023643856447,False,15.873704932550577,True,False
2,1970-07-23 11:42:53.865181499,2025-09-17,2025-09-26 19:29:46.518,HH,C,1313477374,JASSM,3,104,76,2,2,1,225,9,2,0,1,26,0,0,0,0,-178615.52966483062,-4778813.260713424,4210833.753386021,-2.36684,-0.400561,0.38129,76.0,-32.125,-33.0,0.0,0.0,0.0,0.0,0.0,0.0,2,0,41.55580055080789,-92.14052188761956,9999.998565342992,119.81510323297807,-0.0048781446725507,0.0038789087743258,,9031.630405181751,11029.86252269048,150,2,2025-09-17,2025-09-26 19:29:46.408,HH,C,1811808120,AMBUSH51,1,1,48,2,1,1,225,2,1,0,0,9,1,225,2,1,-149008.66973973138,-4792140.985968197,4196428.884443024,2.33992,2.91226,-0.187528,-114.533,27.2138,25.2729,-0.0706856,-7.122,6.08392,-0.0215851,-0.00421216,-0.00225224,4,0,41.38531141282594,-91.78100309669536,8957.227949862414,-74.46276495958395,-1.256241333357762,1.4392908161584228,198.276,9031.630405181751,11029.86252269048,150,True,19.110212395324098,False,166.70040171676683,177.54997045915252,False,15.676098129936513,True,False
2,1970-07-23 11:42:53.876206312,2025-09-17,2025-09-26 19:29:47.620,HH,C,1314730210,JASSM,3,104,76,2,2,1,225,9,2,0,1,26,0,0,0,0,-178535.69568045562,-4778847.079072799,4210798.993620396,-2.36684,-0.400561,0.38129,76.0,-32.125,-33.0,0.0,0.0,0.0,0.0,0.0,0.0,2,0,41.55538251481496,-92.13955092252525,10000.000021802602,119.81574731930384,-0.0040398856503489,0.0038774712217129,,9031.630405181751,11029.86252269048,150,2,2025-09-17,2025-09-26 19:29:47.643,HH,C,1813279486,AMBUSH51,1,1,48,2,1,1,225,2,1,0,0,9,1,225,2,1,-149150.48105438869,-4792106.712699511,4196460.069417747,2.31795,2.91167,-0.188033,-114.484,27.6613,25.3085,-0.0246432,-7.11849,6.27288,-0.0113985,-0.00167384,-0.00305951,4,0,41.38569959056372,-91.78270972300342,8951.39915325259,-74.42015539075986,-1.2597233769948124,0.1733725000629684,198.459,9031.630405181751,11029.86252269048,150,True,18.982874550683412,False,166.84995367556783,177.48002312409804,False,15.604105075962648,True,False
2,1970-07-23 11:42:53.887222985,2025-09-17,2025-09-26 19:29:48.722,HH,C,1316042118,JASSM,3,104,76,2,2,1,225,9,2,0,1,26,0,0,0,0,-178452.09900076812,-4778882.491182174,4210762.593229771,-2.36684,-0.400561,0.38129,76.0,-32.125,-33.0,0.0,0.0,0.0,0.0,0.0,0.0,2,0,41.55494475250029,-92.13853420787396,10000.000856317154,119.8164217477357,-0.0031621108271757,0.0038759529754606,,9031.630405181751,11029.86252269048,150,2,2025-09-17,2025-09-26 19:29:48.842,HH,C,1814711084,AMBUSH51,1,1,48,2,1,1,225,2,1,0,0,9,1,225,2,1,-149287.09107087154,-4792073.240863368,4196490.172233323,2.29946,2.90888,-0.185752,-114.582,28.0664,25.1557,-0.251425,-7.31603,6.53704,-0.012986,-0.00597235,0.00930338,4,0,41.38607663308935,-91.78435394399924,8944.807636288815,-74.41079854957304,-1.462628078800453,-0.916280302188336,198.313,9031.630405181751,11029.86252269048,150,True,18.855922505908875,False,166.89765383844295,177.41143544055686,False,15.63364353259998,True,False
2,1970-07-23 11:42:53.898264979,2025-09-17,2025-09-26 19:29:49.826,HH,C,1317354184,JASSM,3,104,76,2,2,1,225,9,2,0,1,26,0,0,0,0,-178368.49060233062,-4778917.905244674,4210726.186979771,-2.36684,-0.400561,0.38129,76.0,-32.125,-33.0,0.0,0.0,0.0,0.0,0.0,0.0,2,0,41.55450693266087,-92.13751736576646,9999.997574242188,119.8170962548766,-0.0022842201600899,0.0038744451395701,,9031.630405181751,11029.86252269048,150,2,2025-09-17,2025-09-26 19:29:49.808,HH,C,1815864316,AMBUSH51,1,1,48,2,1,1,225,2,1,0,0,9,1,225,2,1,-149397.90799337908,-4792046.046088977,4196514.238675771,2.28795,2.90832,-0.182057,-114.745,28.054,25.0399,-0.321755,-7.46653,6.44325,-0.0170328,-0.00172793,-0.0114048,4,0,41.386380341998034,-91.7856877531702,8938.598347440906,-74.54585738636193,-1.6284781699783375,-1.5782637407947464,198.459,9031.630405181751,11029.86252269048,150,True,18.74310458072531,False,166.82947677849904,177.35327044355805,False,15.76169913413504,True,False
2,1970-07-23 11:42:53.909261471,2025-09-17,2025-09-26 19:29:50.926,HH,C,1318667478,JASSM,3,104,76,2,2,1,225,9,2,0,1,26,0,0,0,0,-178284.80505545562,-4778953.352510299,4210689.747526646,-2.36684,-0.400561,0.381386,76.0,-32.125,-33.0,0.0,0.0,0.0,0.0,0.0,0.0,2,0,41.55406869928623,-92.1364995988904,10000.001351632282,119.8216138131056,-0.0053311591057578,0.0038727096298094,,9031.630405181751,11029.86252269048,150,2,2025-09-17,2025-09-26 19:29:51.042,HH,C,1817335682,AMBUSH51,1,1,48,2,1,1,225,2,1,0,0,9,1,225,2,1,-149539.17261678417,-4792011.302608779,4196544.6548281945,2.2703,2.91358,-0.174901,-114.874,28.176,24.5861,-0.27541,-7.39103,6.41083,-0.0199435,-0.0013451,-0.00401659,4,0,41.386766157382375,-91.78738808320878,8929.934454723852,-75.04980758820432,-1.686480259239446,-2.5211143161549154,198.679,9031.630405181751,11029.86252269048,150,True,18.61374105458979,False,166.68380257826513,177.27981063408006,False,15.988129549082352,True,False
2,1970-07-23 11:42:53.920295978,2025-09-17,2025-09-26 19:29:52.029,HH,C,1319979558,JASSM,3,104,76,2,2,1,225,9,2,0,1,26,0,0,0,0,-178201.19665701812,-4778988.766572799,4210653.339323521,-2.36684,-0.400561,0.381386,76.0,-32.125,-33.0,0.0,0.0,0.0,0.0,0.0,0.0,2,0,41.553630848235386,-92.13548278424278,10000.00365890459,119.82228829044986,-0.0044532616643357,0.0038712491783616,,9031.630405181751,11029.86252269048,150,2,2025-09-17,2025-09-26 19:29:52.108,HH,C,1818608214,AMBUSH51,1,1,48,2,1,1,225,2,1,0,0,9,1,225,2,1,-149662.7919310003,-4791981.158481321,4196570.571264135,2.25306,2.9199,-0.167618,-115.085,27.8858,24.2253,-0.221531,-7.34922,6.48212,-0.017788,-0.00407276,-0.00830261,4,0,41.38709748687143,-91.7888759464965,8921.481314023918,-75.59976789176356,-1.7047113056488317,-3.43109089823282,199.058,9031.630405181751,11029.86252269048,150,True,18.49424938624676,False,166.44431271622457,177.21263181553144,False,16.29516783706756,True,False
2,1970-07-23 11:42:53.930185123,2025-09-17,2025-09-26 19:29:53.018,HH,C,1321232262,JASSM,3,104,76,2,2,1,225,9,2,0,1,26,0,0,0,0,-178121.37243826812,-4779022.575166549,4210618.577604771,-2.36684,-0.400561,0.381386,76.0,-32.125,-33.0,0.0,0.0,0.0,0.0,0.0,0.0,2,0,41.55321281246886,-92.1345120053665,10000.001068162492,119.8229322257247,-0.0036151023202164,0.0038698597677319,,9031.630405181751,11029.86252269048,150,2,2025-09-17,2025-09-26 19:29:53.142,HH,C,1819840978,AMBUSH51,1,1,48,2,1,1,225,2,1,0,0,9,1,225,2,1,-149780.8302091664,-4791952.4624067405,4196594.994932959,2.2383,2.93118,-0.15721,-115.154,27.6456,23.7176,-0.0559994,-7.19784,6.19631,0.0102209,-0.00700224,-0.00204002,4,0,41.38741114272542,-91.7902966199664,8912.932251847064,-76.471682855191,-1.635468283333399,-4.147026673226667,199.205,9031.630405181751,11029.86252269048,150,True,18.3802705893286,False,166.18627457168026,177.14716938565007,False,16.62120633983598,True,False
2,1970-07-23 11:42:53.940202970,2025-09-17,2025-09-26 19:29:54.020,HH,C,1322424024,JASSM,3,104,76,2,2,1,225,9,2,0,1,26,0,0,0,0,-178045.43005545562,-4779054.739229049,4210585.507292271,-2.36684,-0.400561,0.381386,76.0,-32.0,-33.0,0.0,0.0,0.0,0.0,0.0,0.0,2,0,41.55281510700775,-92.13358844707606,10000.00378808588,119.82354483378728,-0.0028177070138749,0.0038685455799859,,9031.630405181751,11029.86252269048,150,2,2025-09-17,2025-09-26 19:29:54.042,HH,C,1820914678,AMBUSH51,1,1,48,2,1,1,225,2,1,0,0,9,1,225,2,1,-149884.46784419203,-4791927.421850309,4196615.970719099,2.26558,2.93533,-0.152788,-115.356,27.5104,23.3479,-0.10741,-7.55774,6.40946,0.015903,0.00212949,-0.00164887,4,0,41.3876824373702,-91.79154392604453,8904.797447877085,-76.81817169743968,-1.6316534393608042,-2.537625114676973,199.498,9031.630405181751,11029.86252269048,150,True,18.276672775890408,False,166.0287449669974,177.05846072063034,False,16.881218849726256,True,False
2,1970-07-23 11:42:53.950241274,2025-09-17,2025-09-26 19:29:55.024,HH,C,1323557418,JASSM,3,104,76,2,2,1,225,9,2,0,1,26,0,0,0,0,-177973.20739920562,-4779085.325166549,4210554.054167271,-2.36684,-0.400561,0.381386,76.0,-32.0,-33.0,0.0,0.0,0.0,0.0,0.0,0.0,2,0,41.552436873032434,-92.13271013721332,9999.997798554046,119.82412742351974,-0.002059368795072,0.0038672939132994,,9031.630405181751,11029.86252269048,150,2,2025-09-17,2025-09-26 19:29:55.009,HH,C,1822067910,AMBUSH51,1,1,48,2,1,1,225,2,1,0,0,9,1,225,2,1,-149995.05444513165,-4791900.848664306,4196638.128524931,2.28251,2.94239,-0.149933,-115.464,26.9913,23.5408,-0.13476,-7.45147,6.44439,0.00691694,0.00897257,-0.00640719,4,0,41.38796952196441,-91.7928748225276,8895.997155765808,-77.20920568620656,-1.4451938094781536,-1.496046000151866,199.718,9031.630405181751,11029.86252269048,150,True,18.171764262008395,False,165.93922618865136,176.99458834765858,False,17.02737513123542,True,False
2,1970-07-23 11:42:53.959280315,2025-09-17,2025-09-26 19:29:55.928,HH,C,1324631162,JASSM,3,104,76,2,2,1,225,9,2,0,1,26,0,0,0,0,-177904.78552420562,-4779114.303682174,4210524.257292271,-2.36684,-0.400465,0.381386,76.0,-32.0,-33.0,0.0,0.0,0.0,0.0,0.0,0.0,2,0,41.55207853142335,-92.13187805765423,10000.003062082022,119.82103582681373,-0.0049073630094717,0.0018217004858311,,9031.630405181751,11029.86252269048,150,2,2025-09-17,2025-09-26 19:29:55.942,HH,C,1823181376,AMBUSH51,1,1,48,2,1,1,225,2,1,0,0,9,1,225,2,1,-150102.77893765832,-4791875.228459948,4196659.644723011,2.31242,2.9478,-0.155239,-115.567,27.0723,23.4494,-0.16203,-7.81898,7.12436,0.0262873,-0.00111,-0.0140783,4,0,41.38824712427008,-91.794171186966,8887.935994242463,-77.19088163664745,-1.0131095614238257,0.2642957790517788,199.95,9031.630405181751,11029.86252269048,150,True,18.07087513325813,False,165.91505154575998,176.93159010951334,False,17.116579165136745,True,False
2,1970-07-23 11:42:53.968161172,2025-09-17,2025-09-26 19:29:56.816,HH,C,1325705634,JASSM,3,104,76,2,2,1,225,9,2,0,1,26,0,0,0,0,-177836.31775076812,-4779143.299775924,4210494.438932896,-2.36684,-0.400465,0.381386,76.0,-32.0,-33.0,0.0,0.0,0.0,0.0,0.0,0.0,2,0,41.55171994440955,-92.1310454299529,10000.003803656811,119.82158810735902,-0.0041884483320989,0.0018204635814462,,9031.630405181751,11029.86252269048,150,2,2025-09-17,2025-09-26 19:29:56.808,HH,C,1824215308,AMBUSH51,1,1,48,2,1,1,225,2,1,0,0,9,1,225,2,1,-150202.9752695589,-4791851.825679034,4196680.037189286,2.35948,2.94955,-0.158713,-115.603,26.616,24.1897,-0.272631,-7.96642,6.96923,0.0808321,0.0137267,0.00244158,4,0,41.38850533939373,-91.79537680788262,8882.318593117901,-77.1110266760392,-0.8048679516921732,2.975068790401078,199.914,9031.630405181751,11029.86252269048,150,True,17.97402885068389,False,166.0419324650025,176.8720644483182,False,17.036616358938087,True,False
2,1970-07-23 11:42:53.977222091,2025-09-17,2025-09-26 19:29:57.722,HH,C,1326780900,JASSM,3,104,76,2,2,1,225,9,2,0,1,26,0,0,0,0,-177767.79919608062,-4779172.315400924,4210464.597136021,-2.36684,-0.400465,0.381386,76.0,-32.0,-33.0,0.0,0.0,0.0,0.0,0.0,0.0,2,0,41.55136108825748,-92.13021219479988,10000.000126087512,119.82214078690627,-0.003469002406029,0.0018192279019677,,9031.630405181751,11029.86252269048,150,2,2025-09-17,2025-09-26 19:29:57.708,HH,C,1825289006,AMBUSH51,1,1,48,2,1,1,225,2,1,0,0,9,1,225,2,1,-150307.9479860493,-4791827.418951204,4196702.345426676,2.42187,2.95496,-0.172473,-115.385,26.3982,25.4665,-0.252904,-8.46141,7.49167,0.0620839,0.0234847,0.0143343,4,0,41.38878155797811,-91.7966398701385,8878.761157775136,-76.73311700918157,-0.0477829625388798,6.5978115201159415,199.901,9031.630405181751,11029.86252269048,150,True,17.874418949662495,False,166.44666862749665,176.81050250866306,False,16.67543773526837,True,False
2,1970-07-23 11:42:53.987239705,2025-09-17,2025-09-26 19:29:58.723,HH,C,1327972664,JASSM,3,104,76,2,2,1,225,9,2,0,1,26,0,0,0,0,-177691.85778983062,-4779204.473604049,4210431.522917271,-2.36684,-0.400465,0.381386,76.0,-32.0,-33.0,0.0,0.0,0.0,0.0,0.0,0.0,2,0,41.55096335656362,-92.1292887035234,9999.998947631366,119.82275332818138,-0.0026716204048115,0.0018178648457458,,9031.630405181751,11029.86252269048,150,2,2025-09-17,2025-09-26 19:29:58.708,HH,C,1826482006,AMBUSH51,1,1,48,2,1,1,225,2,1,0,0,9,1,225,2,1,-150422.7569210122,-4791800.722728545,4196728.617893511,2.4843,2.94977,-0.197465,-114.769,26.3268,27.6177,-0.352314,-8.43356,7.42854,0.0661806,0.0160986,0.0105975,4,0,41.38909631120547,-91.79802129831258,8878.936123336185,-75.47668880739283,0.6983200082701719,10.12714970047974,199.388,9031.630405181751,11029.86252269048,150,False,17.76445376694101,False,167.22109012275112,176.74469569845115,False,15.93233356378391,True,False
2,1970-07-23 11:42:53.996288260,2025-09-17,2025-09-26 19:29:59.628,HH,C,1329105570,JASSM,3,104,76,2,2,1,225,9,2,0,1,26,0,0,0,0,-177619.66540701812,-4779235.043916549,4210400.079557896,-2.36684,-0.400465,0.381386,76.0,-32.0,-33.0,0.0,0.0,0.0,0.0,0.0,0.0,2,0,41.55058524188984,-92.12841081317475,9999.996596665116,119.82333561841368,-0.0019135975734387,0.0018165594314646,,9031.630405181751,11029.86252269048,150,2,2025-09-17,2025-09-26 19:29:59.643,HH,C,1827595470,AMBUSH51,1,1,48,2,1,1,225,2,1,0,0,9,1,225,2,1,-150527.99514599075,-4791775.808054482,4196754.792412452,2.52637,2.93921,-0.222693,-113.851,27.0335,29.5316,-0.340543,-8.36038,7.30392,0.0133605,0.0145153,0.0186307,4,0,41.38940157850939,-91.79928774603889,8882.549359902505,-74.0094104352823,1.2333434949928723,12.43617313499929,198.948,9031.630405181751,11029.86252269048,150,False,17.661497359711976,False,168.18775416078557,176.68635806064572,False,15.000625598837948,True,False
2,1970-07-23 11:42:54.005179629,2025-09-17,2025-09-26 19:30:00.517,HH,C,1330180466,JASSM,3,104,76,2,2,1,225,9,2,0,1,26,0,0,0,0,-177551.17126639312,-4779264.049775924,4210370.247526646,-2.36684,-0.400465,0.381482,76.0,-32.0,-33.0,0.0,0.0,0.0,0.0,0.0,0.0,2,0,41.55022648519001,-92.12757790378868,10000.002877568317,119.82773065396611,-0.0051199052342979,0.0018151044337079,,9031.630405181751,11029.86252269048,150,2,2025-09-17,2025-09-26 19:30:00.508,HH,C,1828629402,AMBUSH51,1,1,48,2,1,1,225,2,1,0,0,9,1,225,2,1,-150627.46168467682,-4791751.641294956,4196781.317615381,2.54893,2.92918,-0.237885,-113.012,27.5991,31.6065,-0.194136,-7.90389,6.79462,0.0230582,9.05059e-05,0.0185246,4,0,41.389705830348255,-91.8004849794311,8888.32329957595,-72.99011137906861,1.4077759961339509,13.621455401340564,198.496,9031.630405181751,11029.86252269048,150,False,17.563513607809014,False,169.12780646979286,176.6332769031169,False,14.07472885723191,True,False
2,1970-07-23 11:42:54.015199727,2025-09-17,2025-09-26 19:30:01.519,HH,C,1331313034,JASSM,3,104,76,2,2,1,225,9,2,0,1,26,0,0,0,0,-177479.00134451812,-4779294.608369674,4210338.813932896,-2.36684,-0.400465,0.381482,76.0,-32.0,-33.0,0.0,0.0,0.0,0.0,0.0,0.0,2,0,41.54984848810564,-92.1267003074866,10000.002215632609,119.82831274076688,-0.004362125189974,0.0018138611478003,,9031.630405181751,11029.86252269048,150,2,2025-09-17,2025-09-26 19:30:01.508,HH,C,1829822402,AMBUSH51,1,1,48,2,1,1,225,2,1,0,0,9,1,225,2,1,-150739.77519437822,-4791722.738441624,4196813.728045179,2.56424,2.91664,-0.252472,-111.874,28.9824,33.6051,-0.232288,-7.85794,6.90478,-0.000329774,0.00825476,0.00999206,4,0,41.39007557337479,-91.80183746537872,8896.212088434488,-71.90347357261606,1.4594257828570003,14.35103811190903,198.007,9031.630405181751,11029.86252269048,150,False,17.45525369529192,False,170.3578595022199,176.57750262499263,False,12.87658226552991,True,False
2,1970-07-23 11:42:54.024242011,2025-09-17,2025-09-26 19:30:02.424,HH,C,1332386776,JASSM,3,104,76,2,2,1,225,9,2,0,1,26,0,0,0,0,-177410.57946951812,-4779323.579072799,4210309.011198521,-2.36684,-0.400465,0.381482,76.0,-32.0,-33.0,0.0,0.0,0.0,0.0,0.0,0.0,2,0,41.54949010999052,-92.12586829778544,9999.999347889254,119.82886458714486,-0.0036436968488364,0.0018126774113426,,9031.630405181751,11029.86252269048,150,2,2025-09-17,2025-09-26 19:30:02.442,HH,C,1830935868,AMBUSH51,1,1,48,2,1,1,225,2,1,0,0,9,1,225,2,1,-150842.47071188514,-4791694.86505502,4196845.204343449,2.56998,2.89846,-0.26263,-110.773,30.5851,35.0879,6.07669e-05,-7.37314,6.166,0.0060202,-0.011255,0.0336984,4,0,41.39043467061809,-91.80307468703694,8903.86969923844,-70.79320615564949,1.1145711501008986,14.439818031225382,197.408,9031.630405181751,11029.86252269048,150,False,17.354037518378764,False,171.5148574299422,176.52895732060003,False,11.76525072166883,True,False
2,1970-07-23 11:42:54.034280406,2025-09-17,2025-09-26 19:30:03.428,HH,C,1333638662,JASSM,3,104,76,2,2,1,225,9,2,0,1,26,0,0,0,0,-177330.80603201812,-4779357.356416549,4210274.263151646,-2.36684,-0.400465,0.381482,76.0,-32.0,-33.0,0.0,0.0,0.0,0.0,0.0,0.0,2,0,41.54907226001122,-92.12489826462912,9999.998851892746,119.82950797528854,-0.0028060735419623,0.0018112909175355,,9031.630405181751,11029.86252269048,150,2,2025-09-17,2025-09-26 19:30:03.442,HH,C,1832128866,AMBUSH51,1,1,48,2,1,1,225,2,1,0,0,9,1,225,2,1,-150952.66680899225,-4791663.022082176,4196880.727583759,2.56145,2.8822,-0.276717,-109.679,32.3638,36.4375,-0.101027,-7.5354,6.3492,-0.0290004,-0.00611175,0.0192861,4,0,41.39084328485917,-91.80440301360764,8911.12814616718,-69.59121202964944,1.0075992605577797,13.724934536785142,196.736,9031.630405181751,11029.86252269048,150,False,17.24065551158704,False,172.69938673527676,176.47902458247452,False,10.639703054599538,True,False
2,1970-07-23 11:42:54.045301289,2025-09-17,2025-09-26 19:30:04.530,HH,C,1334891790,JASSM,3,104,76,2,2,1,225,9,2,0,1,26,0,0,0,0,-177250.95349295562,-4779391.166963424,4210239.479948521,-2.36684,-0.400369,0.381482,76.0,-32.0,-33.0,0.0,0.0,0.0,0.0,0.0,0.0,2,0,41.54865398448382,-92.12392728224914,10000.000602904518,119.82650873829336,-0.005534039864117,-0.0002349510842583,,9031.630405181751,11029.86252269048,150,2,2025-09-17,2025-09-26 19:30:04.508,HH,C,1833401398,AMBUSH51,1,1,48,2,1,1,225,2,1,0,0,9,1,225,2,1,-151069.94475613546,-4791626.515226394,4196920.35750689,2.54541,2.8576,-0.280124,-108.572,34.4979,37.3593,-0.15998,-6.5297,5.75734,-0.0254946,0.00105174,0.0253073,4,0,41.39130602443719,-91.8058177093162,8916.378197378366,-68.52186321073746,0.1550002760981937,12.429343504539,196.284,9031.630405181751,11029.86252269048,150,False,17.122210462489843,False,173.89427988624854,176.4299834861875,False,9.540606224926316,True,False
2,1970-07-23 11:42:54.056318723,2025-09-17,2025-09-26 19:30:05.631,HH,C,1336204596,JASSM,3,104,76,2,2,1,225,9,2,0,1,26,0,0,0,0,-177167.29821951812,-4779426.584932174,4210203.040495396,-2.36674,-0.400369,0.381482,76.0,-32.0,-33.0,0.0,0.0,0.0,0.0,0.0,0.0,2,0,41.54821579845924,-92.12291007441064,10000.001039975316,119.82718340451594,-0.0046556651133515,0.0052550230220727,,9031.630405181751,11029.86252269048,150,2,2025-09-17,2025-09-26 19:30:05.508,HH,C,1834594396,AMBUSH51,1,1,48,2,1,1,225,2,1,0,0,9,1,225,2,1,-151177.92414120783,-4791590.4558109455,4196957.803561967,2.53167,2.84421,-0.287934,-107.667,36.3854,38.145,-0.255175,-7.06988,6.24717,-0.0265473,0.00515259,0.0103562,4,0,41.39175308458231,-91.80712117810027,8917.278318637504,-67.69120736012755,-0.0697756036358832,11.427402476886703,196.174,9031.630405181751,11029.86252269048,150,False,17.00607444809687,False,174.91522713234514,176.38585229216812,False,8.611094914278754,True,False
2,1970-07-23 11:42:54.067200822,2025-09-17,2025-09-26 19:30:06.720,HH,C,1337517506,JASSM,3,104,76,2,2,1,225,9,2,0,1,26,0,0,0,0,-177083.63611014312,-4779462.004854049,4210166.595182896,-2.36674,-0.400369,0.381482,76.0,-32.0,-33.0,0.0,0.0,0.0,0.0,0.0,0.0,2,0,41.547777553800096,-92.12189279760666,9999.997821048788,119.82785811063508,-0.0037772119279193,0.0052535127507319,,9031.630405181751,11029.86252269048,150,2,2025-09-17,2025-09-26 19:30:06.575,HH,C,1835866928,AMBUSH51,1,1,48,2,1,1,225,2,1,0,0,9,1,225,2,1,-151291.60320057214,-4791550.624193332,4196998.458522692,2.50327,2.83131,-0.298215,-106.877,37.8906,39.17,-0.204592,-7.41921,6.59926,-0.0161673,0.00752447,0.00543763,4,0,41.392243163025206,-91.80849417433426,8916.309837920318,-66.77703690089722,-0.1729299632605936,9.585008963584588,196.321,9031.630405181751,11029.86252269048,150,True,16.885914532489114,False,175.85034920772415,176.3422735006519,False,7.744580066658224,True,False
2,1970-07-23 11:42:54.077218015,2025-09-17,2025-09-26 19:30:07.721,HH,C,1338711412,JASSM,3,104,76,2,2,1,225,9,2,0,1,26,0,0,0,0,-177007.55700858062,-4779494.213838424,4210133.454557896,-2.36674,-0.400369,0.381482,76.0,-32.0,-33.0,0.0,0.0,0.0,0.0,0.0,0.0,2,0,41.54737903531158,-92.12096773740508,10000.000784512427,119.82847164926324,-0.0029783865684372,0.0052521498090679,,9031.630405181751,11029.86252269048,150,2,2025-09-17,2025-09-26 19:30:07.842,HH,C,1837378060,AMBUSH51,1,1,48,2,1,1,225,2,1,0,0,9,1,225,2,1,-151426.35303503403,-4791501.269334864,4197049.137605367,2.4818,2.82015,-0.312711,-105.976,39.2457,40.8108,-0.219479,-7.6036,6.70733,-0.0216912,0.00681707,0.00457211,4,0,41.3928535914216,-91.81012249468898,8915.30596164589,-65.75692335724051,-0.0343323495768805,8.16021043998399,196.663,9031.630405181751,11029.86252269048,150,True,16.75697850647265,False,176.9448018267657,176.29780871328396,False,6.690714570246735,True,False
2,1970-07-23 11:42:54.088242652,2025-09-17,2025-09-26 19:30:08.824,HH,C,1340022078,JASSM,3,104,76,2,2,1,225,9,2,0,1,26,0,0,0,0,-176924.03747733062,-4779529.571260299,4210097.069792271,-2.36674,-0.400369,0.381482,76.0,-32.0,-33.0,0.0,0.0,0.0,0.0,0.0,0.0,2,0,41.54694152251973,-92.11995222138236,9999.998306451807,119.82914517641017,-0.0021014320433198,0.0052506436047961,,9031.630405181751,11029.86252269048,150,2,2025-09-17,2025-09-26 19:30:08.942,HH,C,1838690360,AMBUSH51,1,1,48,2,1,1,225,2,1,0,0,9,1,225,2,1,-151543.13132766425,-4791457.148729149,4197095.118376082,2.4452,2.81057,-0.3294,-105.293,39.7519,42.2959,-0.154726,-7.8797,6.89794,-0.0398049,0.00524622,0.00406444,4,0,41.39340452153975,-91.8115341806296,8915.59955288675,-64.70882985868657,0.2586683409414071,5.891970244002192,196.736,9031.630405181751,11029.86252269048,150,True,16.633457174070625,False,177.6564128671812,176.26006334661582,False,5.950767978159902,True,False
2,1970-07-23 11:42:54.098279457,2025-09-17,2025-09-26 19:30:09.827,HH,C,1341275256,JASSM,3,104,76,2,2,1,225,9,2,0,1,26,0,0,0,0,-176844.18200858062,-4779563.377900924,4210062.280729771,-2.36674,-0.400369,0.381482,76.0,-32.0,-33.0,0.0,0.0,0.0,0.0,0.0,0.0,2,0,41.546523189557966,-92.11898126942371,10000.000307111815,119.82978914160088,-0.001262947116554,0.0052491985104756,,9031.630405181751,11029.86252269048,150,2,2025-09-17,2025-09-26 19:30:09.708,HH,C,1839604992,AMBUSH51,1,1,48,2,1,1,225,2,1,0,0,9,1,225,2,1,-151623.66374737956,-4791426.367252899,4197127.860918963,2.41502,2.8098,-0.334895,-104.926,39.7974,43.2602,-0.306123,-7.87979,7.07733,-0.0401087,0.00870833,-0.000564881,4,0,41.393793532139625,-91.81250785285708,8917.175538110156,-64.45489151819935,0.4492917204894272,4.150445332981556,196.773,9031.630405181751,11029.86252269048,150,True,16.533997816622353,False,177.94662262470106,176.23227223354223,False,5.575557208810793,True,False
2,1970-07-23 11:42:54.108297136,2025-09-17,2025-09-26 19:30:10.829,HH,C,1342469196,JASSM,3,104,76,2,2,1,225,9,2,0,1,26,0,0,0,0,-176768.10095389312,-4779595.584932174,4210029.136198521,-2.36674,-0.400369,0.381578,76.0,-32.0,-33.0,0.0,0.0,0.0,0.0,0.0,0.0,2,0,41.5461246333325,-92.118056222466,10000.00261667271,119.83424538176408,-0.0043894639519206,0.005247668745471,,9031.630405181751,11029.86252269048,150,2,2025-09-17,2025-09-26 19:30:10.774,HH,C,1840877524,AMBUSH51,1,1,48,2,1,1,225,2,1,0,0,9,1,225,2,1,-151734.5349205518,-4791383.706652341,4197174.006831348,2.38839,2.80508,-0.341067,-104.512,39.8714,44.1008,-0.18827,-7.56792,6.52743,0.0102334,0.00457211,0.0124846,4,0,41.39433797607464,-91.81384845968265,8920.97417309178,-64.02435250490092,0.5144651442602742,2.5384160495539168,196.59,9031.630405181751,11029.86252269048,150,True,16.418028191333203,False,178.16251411868973,176.19994666903088,False,5.23688525085969,True,False
2,1970-07-23 11:42:54.119177001,2025-09-17,2025-09-26 19:30:11.917,HH,C,1343721646,JASSM,3,104,76,2,2,1,225,9,2,0,1,26,0,0,0,0,-176688.29138358062,-4779629.368135299,4209994.364714146,-2.36674,-0.400369,0.381578,76.0,-32.0,-33.0,0.0,0.0,0.0,0.0,0.0,0.0,2,0,41.54570653237317,-92.11708585477945,9999.998278472409,119.83488894914812,-0.0035514656855813,0.0052462865599567,,9031.630405181751,11029.86252269048,150,2,2025-09-17,2025-09-26 19:30:12.042,HH,C,1842388656,AMBUSH51,1,1,48,2,1,1,225,2,1,0,0,9,1,225,2,1,-151866.41558569527,-4791332.674611459,4197229.767596575,2.39412,2.80491,-0.344231,-104.027,40.424,44.3876,-0.321932,-7.29772,6.48115,-0.000575284,-0.00809039,-0.000452529,4,0,41.3949931555816,-91.81544324165849,8926.6846886356,-63.8892236048517,0.6358425654480088,2.864724183097481,196.284,9031.630405181751,11029.86252269048,150,True,16.286540524583124,False,178.51081892013883,176.16385671250774,False,4.913519443435337,True,False
2,1970-07-23 11:42:54.129201485,2025-09-17,2025-09-26 19:30:12.920,HH,C,1344914770,JASSM,3,104,76,2,2,1,225,9,2,0,1,26,0,0,0,0,-176612.26208670562,-4779661.551729049,4209961.241667271,-2.36674,-0.400369,0.381578,76.0,-32.0,-33.0,0.0,0.0,0.0,0.0,0.0,0.0,2,0,41.54530823393778,-92.11616146106604,10000.002860946284,119.83550202071956,-0.0027531631122488,0.005244975393618,,9031.630405181751,11029.86252269048,150,2,2025-09-17,2025-09-26 19:30:12.875,HH,C,1843382820,AMBUSH51,1,1,48,2,1,1,225,2,1,0,0,9,1,225,2,1,-151952.87222907587,-4791298.85955891,4197266.689270373,2.39437,2.8007,-0.347374,-103.748,40.4873,44.7958,-0.185594,-7.41531,6.63393,0.00921391,0.00538146,0.0174843,4,0,41.39542727579674,-91.81648888181957,8930.344526320903,-63.602706129957326,0.6005703480403723,2.800260750405811,196.211,9031.630405181751,11029.86252269048,150,True,16.18530366567533,False,178.58975788202125,176.1371837331671,False,4.7350569555555975,True,False
2,1970-07-23 11:42:54.140240843,2025-09-17,2025-09-26 19:30:14.024,HH,C,1346225302,JASSM,3,104,76,2,2,1,225,9,2,0,1,26,0,0,0,0,-176528.75134451812,-4779696.899385299,4209924.856901646,-2.36674,-0.400273,0.381578,76.0,-32.0,-33.0,0.0,0.0,0.0,0.0,0.0,0.0,2,0,41.54487073485731,-92.11514611938148,10000.000441618877,119.83253242359773,-0.0054427226492763,0.0031981898192175,,9031.630405181751,11029.86252269048,150,2,2025-09-17,2025-09-26 19:30:13.841,HH,C,1844536052,AMBUSH51,1,1,48,2,1,1,225,2,1,0,0,9,1,225,2,1,-152053.4830373172,-4791258.59321117,4197310.202870365,2.42361,2.79042,-0.344946,-103.35,41.4738,44.8096,-0.205392,-6.7221,6.03104,-0.00472607,-0.0133647,0.0104144,4,0,41.39594159529845,-91.81770607200744,8933.545864162332,-63.31448280612975,0.1087730757830672,4.277492853911848,196.211,9031.630405181751,11029.86252269048,150,True,16.07029522577329,False,179.09481183822152,176.10789975491605,False,4.387506244901005,True,False
2,1970-07-23 11:42:54.149261243,2025-09-17,2025-09-26 19:30:14.926,HH,C,1347299044,JASSM,3,104,76,2,2,1,225,9,2,0,1,26,0,0,0,0,-176460.32946951812,-4779725.860322799,4209895.044401646,-2.36674,-0.400273,0.381578,76.0,-32.0,-33.0,0.0,0.0,0.0,0.0,0.0,0.0,2,0,41.54451226531545,-92.11431424163185,9999.998100864175,119.83308412839372,-0.0047242928227741,0.0031969544017485,,9031.630405181751,11029.86252269048,150,2,2025-09-17,2025-09-26 19:30:14.874,HH,C,1845768818,AMBUSH51,1,1,48,2,1,1,225,2,1,0,0,9,1,225,2,1,-152159.33173408953,-4791215.062933117,4197356.222338188,2.41541,2.77881,-0.346945,-103.017,42.356,45.0556,-0.123509,-6.77044,6.11796,-0.0160757,-0.0149418,-0.00652579,4,0,41.396491246058105,-91.81898709350897,8934.570987104495,-62.79381729030519,-0.2542604508318825,3.5811679862611583,196.211,9031.630405181751,11029.86252269048,150,True,15.961199086390089,False,179.5035149787763,176.08076960051517,False,4.029753077365249,True,False
2,1970-07-23 11:42:54.158322198,2025-09-17,2025-09-26 19:30:15.832,HH,C,1348432438,JASSM,3,104,76,2,2,1,225,9,2,0,1,26,0,0,0,0,-176388.10681326812,-4779756.428682174,4209863.577604771,-2.36674,-0.400273,0.381578,76.0,-32.0,-33.0,0.0,0.0,0.0,0.0,0.0,0.0,2,0,41.54413389636665,-92.1134361642874,9999.999764344457,119.83366646870986,-0.0039659649929472,0.0031956673260415,,9031.630405181751,11029.86252269048,150,2,2025-09-17,2025-09-26 19:30:15.842,HH,C,1846922050,AMBUSH51,1,1,48,2,1,1,225,2,1,0,0,9,1,225,2,1,-152259.33398630773,-4791173.208235795,4197399.684321959,2.39309,2.77326,-0.347264,-102.763,43.2599,44.9212,-0.169467,-6.77467,6.1262,-0.0246041,-0.000679314,-0.0056124,4,0,41.39701475371767,-91.8201976554887,8933.720052600665,-62.57073600677733,-0.4522401410466575,2.1930746606314093,196.394,9031.630405181751,11029.86252269048,150,True,15.853222464224329,False,179.86639949654014,176.0541543504615,False,3.839281088725921,True,False
2,1970-07-23 11:42:54.167200266,2025-09-17,2025-09-26 19:30:16.720,HH,C,1349506746,JASSM,3,104,76,2,2,1,225,9,2,0,1,26,0,0,0,0,-176319.64782889312,-4779785.405244674,4209833.747526646,-2.36674,-0.400273,0.381578,76.0,-32.0,-33.0,0.0,0.0,0.0,0.0,0.0,0.0,2,0,41.54377521098136,-92.11260385429708,10000.000928952984,119.83421845212602,-0.0032471409720833,0.0031944233643523,,9031.630405181751,11029.86252269048,150,2,2025-09-17,2025-09-26 19:30:16.541,HH,C,1847757150,AMBUSH51,1,1,48,2,1,1,225,2,1,0,0,9,1,225,2,1,-152331.1332094332,-4791142.441726899,4197431.152239423,2.37552,2.77342,-0.349505,-102.666,43.7079,45.0233,-0.275277,-7.40291,6.66601,-0.0237614,0.00379188,-0.00379396,4,0,41.39739664739043,-91.82106709395202,8931.923711596888,-62.48650455456429,-0.3547153033005274,1.1885894981875136,196.431,9031.630405181751,11029.86252269048,150,True,15.765064606490375,False,179.73323157657885,176.03317746847168,False,3.712997092360334,True,False
2,1970-07-23 11:42:54.176239626,2025-09-17,2025-09-26 19:30:17.623,HH,C,1350581214,JASSM,3,104,76,2,2,1,225,9,2,0,1,26,0,0,0,0,-176251.17907889312,-4779814.381807174,4209803.915495396,-2.36674,-0.400273,0.381578,76.0,-32.0,-33.0,0.0,0.0,0.0,0.0,0.0,0.0,2,0,41.54341650854185,-92.11177143660424,10000.000257309888,119.83477050305216,-0.0025282355307456,0.003193213356648,,9031.630405181751,11029.86252269048,150,2,2025-09-17,2025-09-26 19:30:17.708,HH,C,1849148982,AMBUSH51,1,1,48,2,1,1,225,2,1,0,0,9,1,225,2,1,-152450.04321444235,-4791091.544217349,4197483.347922524,2.35994,2.76945,-0.348286,-102.613,43.9007,45.2054,-0.0939263,-7.12693,6.21308,0.000323532,-0.000802069,-0.00170089,4,0,41.398029311244784,-91.82250701239576,8929.269302940347,-62.38571281683961,-0.5541828008225723,0.2173050616601394,196.553,9031.630405181751,11029.86252269048,150,True,15.647247072465845,False,179.61240119865303,176.00502631941353,False,3.626141883046546,True,False
2,1970-07-23 11:42:54.186281586,2025-09-17,2025-09-26 19:30:18.628,HH,C,1351714680,JASSM,3,104,76,2,2,1,225,9,2,0,1,26,0,0,0,0,-176178.95153983062,-4779844.952119674,4209772.442839146,-2.36674,-0.400273,0.381578,76.0,-32.0,-33.0,0.0,0.0,0.0,0.0,0.0,0.0,2,0,41.543038070063,-92.11089332959614,10000.004149285052,119.83535285042332,-0.0017698441513588,0.0031919048724596,,9031.630405181751,11029.86252269048,150,2,2025-09-17,2025-09-26 19:30:18.707,HH,C,1850341980,AMBUSH51,1,1,48,2,1,1,225,2,1,0,0,9,1,225,2,1,-152553.1552418549,-4791046.942338942,4197528.682895673,2.3665,2.76993,-0.347261,-102.58,44.171,45.2704,-0.231813,-7.22802,6.46313,0.00385014,0.00388135,0.00762434,4,0,41.39858118018991,-91.82375582852414,8925.988479980984,-62.446358953972165,-0.5763613168058737,0.603208710842057,196.81,9031.630405181751,11029.86252269048,150,True,15.53689873700195,False,179.50095114974198,175.97869563269887,False,3.573164841081441,True,False
2,1970-07-23 11:42:54.195180014,2025-09-17,2025-09-26 19:30:19.518,HH,C,1352848640,JASSM,3,104,76,2,2,1,225,9,2,0,1,26,0,0,0,0,-176106.69177420562,-4779875.532197799,4209740.954557896,-2.36674,-0.400273,0.381578,76.0,-32.0,-33.0,0.0,0.0,0.0,0.0,0.0,0.0,2,0,41.54265946844532,-92.11001484274888,9999.998765122078,119.83593544533672,-0.0010111216447072,0.0031906059367513,,9031.630405181751,11029.86252269048,150,2,2025-09-17,2025-09-26 19:30:19.442,HH,C,1851216846,AMBUSH51,1,1,48,2,1,1,225,2,1,0,0,9,1,225,2,1,-152628.23830841057,-4791014.285497025,4197561.666134679,2.36736,2.76924,-0.348596,-102.545,44.4476,45.2366,-0.112687,-7.3416,6.6326,-0.00762018,0.000231986,0.00681291,4,0,41.39898390027848,-91.82466526044476,8923.102237329078,-62.36659273017722,-0.547775749876503,0.6381188765308162,196.81,9031.630405181751,11029.86252269048,150,True,15.44417378605629,False,179.3991594880048,175.95622327964915,False,3.5553883962637918,True,False
2,1970-07-23 11:42:54.205219238,2025-09-17,2025-09-26 19:30:20.521,HH,C,1353981068,JASSM,3,104,76,2,2,1,225,9,2,0,1,26,0,0,0,0,-176034.53064139312,-4779906.071260299,4209709.509245396,-2.36674,-0.400273,0.381674,76.0,-32.0,-33.0,0.0,0.0,0.0,0.0,0.0,0.0,2,0,41.542281372480055,-92.10913756492184,9999.998808055196,119.84036010066193,-0.0041786583268553,0.0031891564092691,,9031.630405181751,11029.86252269048,150,2,2025-09-17,2025-09-26 19:30:20.542,HH,C,1852529144,AMBUSH51,1,1,48,2,1,1,225,2,1,0,0,9,1,225,2,1,-152740.2664776913,-4790965.326607251,4197611.181878699,2.36608,2.7645,-0.349286,-102.589,44.8141,45.3631,-0.156701,-7.23793,6.46257,0.00358799,0.00166968,0.00487379,4,0,41.39958819934098,-91.82602229425376,8918.887187352644,-62.15883587722601,-0.6990146023103893,0.4696665414330355,197.042,9031.630405181751,11029.86252269048,150,True,15.328083524412472,False,179.24963920630557,175.92863208237762,False,3.49058710045202,True,False
2,1970-07-23 11:42:54.215256957,2025-09-17,2025-09-26 19:30:21.525,HH,C,1355173150,JASSM,3,104,76,2,2,1,225,9,2,0,1,26,0,0,0,0,-175958.56726248687,-4779938.217744674,4209676.407682896,-2.36674,-0.400273,0.381674,76.0,-32.0,-33.0,0.0,0.0,0.0,0.0,0.0,0.0,2,0,41.541883361490434,-92.10821407419968,9999.999991363507,119.8409725320526,-0.0033810531242105,0.0031878527358288,,9031.630405181751,11029.86252269048,150,2,2025-09-17,2025-09-26 19:30:21.707,HH,C,1853920976,AMBUSH51,1,1,48,2,1,1,225,2,1,0,0,9,1,225,2,1,-152860.59948842897,-4790912.725097684,4197664.456487915,2.35758,2.76834,-0.353023,-102.694,44.5501,45.9018,-0.116841,-7.5762,6.89045,-0.00823187,0.00256225,0.00210244,4,0,41.40023795240605,-91.82747996096948,8914.52844440601,-62.154848207512806,-0.4001953284953823,0.0584132527121836,197.408,9031.630405181751,11029.86252269048,150,True,15.204338287694203,False,179.24880148426323,175.89891975324048,False,3.380497531397567,True,False
2,1970-07-23 11:42:54.224276279,2025-09-17,2025-09-26 19:30:22.427,HH,C,1356306546,JASSM,3,104,76,2,2,1,225,9,2,0,1,26,0,0,0,0,-175886.34362967435,-4779968.782197799,4209644.933073521,-2.36674,-0.400177,0.381674,76.0,-32.0,-33.0,0.0,0.0,0.0,0.0,0.0,0.0,2,0,41.54150491668098,-92.10733605801612,10000.000475727653,119.83791208865578,-0.0061891128347663,0.0011408073876402,,9031.630405181751,11029.86252269048,150,2,2025-09-17,2025-09-26 19:30:22.375,HH,C,1854716308,AMBUSH51,1,1,48,2,1,1,225,2,1,0,0,9,1,225,2,1,-152928.99049874756,-4790882.770467018,4197695.049439257,2.3522,2.76784,-0.355724,-102.746,44.671,46.0108,-0.186252,-7.64645,7.04382,0.00428707,0.00846698,-0.000710523,4,0,41.40060970189607,-91.82830845832984,8912.593675872764,-62.0270172329561,-0.3089885721280918,-0.2609333417246661,197.641,9031.630405181751,11029.86252269048,150,True,15.11569378587379,False,179.196497019449,175.8774783358213,False,3.3536447430057583,True,False
2,1970-07-23 11:42:54.233179638,2025-09-17,2025-09-26 19:30:23.317,HH,C,1357381504,JASSM,3,104,76,2,2,1,225,9,2,0,1,26,0,0,0,0,-175817.84411795562,-4779997.768525924,4209615.081511021,-2.36674,-0.400177,0.381674,76.0,-32.0,-33.0,0.0,0.0,0.0,0.0,0.0,0.0,2,0,41.5411459929154,-92.10650332602437,9999.999367915134,119.83846432338798,-0.0054698741602696,0.0011395796713744,,9031.630405181751,11029.86252269048,150,2,2025-09-17,2025-09-26 19:30:23.141,HH,C,1855630942,AMBUSH51,1,1,48,2,1,1,225,2,1,0,0,9,1,225,2,1,-153007.79969318057,-4790848.591614424,4197730.442779777,2.35146,2.77114,-0.357661,-102.85,44.3003,46.4863,-0.209763,-7.75344,6.97726,-0.00358174,-0.00155733,-0.00922016,4,0,41.40103700353824,-91.82926304549936,8911.505728996839,-62.074254829387286,-0.1045129983299137,-0.2368736797874051,197.751,9031.630405181751,11029.86252269048,150,True,15.02283016020358,False,179.1475302058599,175.85489692142315,False,3.2954477475450203,True,False
