Subject_cm,Timestamp,SampleDate_cm,SampleTime_cm,Configuration_cm,Scenario_cm,DisTime_cm,MarkingTxt_cm,Application_cm,EntId_cm,Site_cm,ExerciseId_cm,ForceId_cm,Category_cm,Country_cm,Domain_cm,Kind_cm,Extra_cm,Specific_cm,Subcategory_cm,AltCategory_cm,AltCountry_cm,AltDomain_cm,AltKind_cm,ECEF_X_cm,ECEF_Y_cm,ECEF_Z_cm,OriPhi_cm,OriPsi_cm,OriTheta_cm,LinVelX_cm,LinVelY_cm,LinVelZ_cm,LinAccX_cm,LinAccY_cm,LinAccZ_cm,AngVelX_cm,AngVelY_cm,AngVelZ_cm,DrAlg_cm,Appearance_cm,Latitude_cm,Longitude_cm,Altitude_cm,Heading_cm,Pitch_cm,Roll_cm,CalibratedAirspeed_cm,CM_Altitude_Lead_cm,CM_Altitude_Wing_cm,CM_Airspeed_cm,Subject_ac,SampleDate_ac,SampleTime_ac,Configuration_ac,Scenario_ac,DisTime_ac,MarkingTxt_ac,Application_ac,EntId_ac,Site_ac,ExerciseId_ac,ForceId_ac,Category_ac,Country_ac,Domain_ac,Kind_ac,Extra_ac,Specific_ac,Subcategory_ac,AltCategory_ac,AltCountry_ac,AltDomain_ac,AltKind_ac,ECEF_X_ac,ECEF_Y_ac,ECEF_Z_ac,OriPhi_ac,OriPsi_ac,OriTheta_ac,LinVelX_ac,LinVelY_ac,LinVelZ_ac,LinAccX_ac,LinAccY_ac,LinAccZ_ac,AngVelX_ac,AngVelY_ac,AngVelZ_ac,DrAlg_ac,Appearance_ac,Latitude_ac,Longitude_ac,Altitude_ac,Heading_ac,Pitch_ac,Roll_ac,CalibratedAirspeed_ac,CM_Altitude_Lead_ac,CM_Altitude_Wing_ac,CM_Airspeed_ac,Bank_Angle_Condition,distance_nm,Distance_Condition,angle_between_vel,angle_between_pos,Cone_Condition,angle_between_pos_nose,Nose_Cone_Condition,Intercept_Criteria
2,1970-07-23 10:13:45.695315428,2025-09-11,2025-09-26 14:56:09.531,HA,C,2107693334,JASSM,3,113,76,2,2,1,225,9,2,0,1,26,0,0,0,0,-155723.84802420562,-4777186.639619674,4213568.944792271,-2.71093,-1.01118,0.751842,37.5,-59.75,-65.875,0.0,0.0,0.0,0.0,0.0,0.0,2,0,41.58870326097364,-91.86703214484211,9999.996399348778,155.93838661721986,-0.003975822961332,-0.000657051445746,,8907.031340764672,11074.134321271986,150,2,2025-09-11,2025-09-26 14:56:09.534,HA,C,3011110834,HAWK11,1,1,73,2,1,1,225,2,1,0,0,12,1,225,2,1,-138152.74646170562,-4794269.433564986,4195360.484831333,2.37134,2.63404,-0.565943,-61.5,42.625,53.5,-0.046875,-7.35938,6.35938,0.00585938,0.00390625,0.00195312,4,0,41.36737376801685,-91.65059130235667,11077.680879747551,-48.64716690053867,3.586372822508236,-2.263887287977169,205.596,8907.031340764672,11074.134321271986,150,True,16.45276681794206,False,160.66144930291898,167.6976582378735,False,7.71886845279116,True,False
2,1970-07-23 10:13:45.707767292,2025-09-11,2025-09-26 14:56:10.776,HA,C,2109005684,JASSM,3,113,76,2,2,1,225,9,2,0,1,26,0,0,0,0,-155682.62243826812,-4777252.467744674,4213496.323698521,-2.71093,-1.01118,0.751842,37.5,-59.75,-65.875,0.0,0.0,0.0,0.0,0.0,0.0,2,0,41.5878294539268,-91.86651252360691,9999.998382488431,155.93873152788046,-0.0030194863368307,-0.0006584438070895,,8907.031340764672,11074.134321271986,150,2,2025-09-11,2025-09-26 14:56:10.907,HA,C,3013099166,HAWK11,1,1,73,2,1,1,225,2,1,0,0,12,1,225,2,1,-138254.74060233062,-4794191.753877486,4195443.680143833,2.48505,2.62589,-0.568723,-60.375,46.75,49.5,-0.078125,-7.28125,6.54688,0.0390625,0.0,0.00976562,4,0,41.36837998452024,-91.65183596012284,11074.12352682134,-48.247411425391626,3.4443506764255027,4.024522980675875,206.134,8907.031340764672,11074.134321271986,150,True,16.315056709028315,False,161.27328532277068,167.68835286495758,False,6.4206952235473915,True,False
2,1970-07-23 10:13:45.717358144,2025-09-11,2025-09-26 14:56:11.735,HA,C,2110258384,JASSM,3,113,76,2,2,1,225,9,2,0,1,26,0,0,0,0,-155643.27087576812,-4777315.301729049,4213427.003386021,-2.71093,-1.01118,0.751842,37.5,-59.75,-65.875,0.0,0.0,0.0,0.0,0.0,0.0,2,0,41.586995373507165,-91.8660165369485,10000.000541161618,155.93906074499117,-0.0021066296748338,-0.0006597702536179,,8907.031340764672,11074.134321271986,150,2,2025-09-11,2025-09-26 14:56:11.907,HA,C,3014292164,HAWK11,1,1,73,2,1,1,225,2,1,0,0,12,1,225,2,1,-138315.33044608062,-4794145.537080611,4195493.985807896,2.50116,2.6094,-0.573229,-59.5,47.0,49.625,-0.03125,-7.14062,6.32812,-0.00585938,0.00390625,0.0175781,4,0,41.36898411107397,-91.65257539463084,11073.756496717057,-47.47965913476989,3.11299421277031,4.4805914868807655,206.415,8907.031340764672,11074.134321271986,150,True,16.21275169006644,False,161.79275241427425,167.6662779730318,False,5.876714526983499,True,False
2,1970-07-23 10:13:45.728395250,2025-09-11,2025-09-26 14:56:12.839,HA,C,2111570736,JASSM,3,113,76,2,2,1,225,9,2,0,1,26,0,0,0,0,-155602.04528983062,-4777381.125947799,4213354.382292271,-2.71083,-1.01118,0.751842,37.5,-59.75,-65.875,0.0,0.0,0.0,0.0,0.0,0.0,2,0,41.586121584932165,-91.86549694462572,10000.004324824697,155.9394056248306,-0.0011503145259937,0.0048439782803393,,8907.031340764672,11074.134321271986,150,2,2025-09-11,2025-09-26 14:56:12.910,HA,C,3015564696,HAWK11,1,1,73,2,1,1,225,2,1,0,0,12,1,225,2,1,-138378.80896170562,-4794096.050752486,4195547.526823521,2.49722,2.59981,-0.579365,-58.75,47.0,49.875,0.015625,-7.28125,6.4375,-0.00195312,0.00390625,0.00585938,4,0,41.36962902571281,-91.6533504644706,11072.567636273388,-46.9011014837576,3.0765985326302348,3.987209256559536,206.989,8907.031340764672,11074.134321271986,150,True,16.104984629702894,False,162.23334441888537,167.64140549594592,False,5.414431063968729,True,False
2,1970-07-23 10:13:45.738420111,2025-09-11,2025-09-26 14:56:13.842,HA,C,2112823434,JASSM,3,113,76,2,2,1,225,9,2,0,1,26,0,0,0,0,-155562.69372733062,-4777443.957979049,4213285.058073521,-2.71083,-1.01118,0.751842,37.5,-59.75,-65.875,0.0,0.0,0.0,0.0,0.0,0.0,2,0,41.58528748525048,-91.86500098487068,10000.004050408414,155.9397348129832,-0.0002374444631816,0.0048426453065475,,8907.031340764672,11074.134321271986,150,2,2025-09-11,2025-09-26 14:56:13.910,HA,C,3016717928,HAWK11,1,1,73,2,1,1,225,2,1,0,0,12,1,225,2,1,-138435.34997733062,-4794050.630830611,4195596.344206333,2.50442,2.59655,-0.578503,-57.875,47.25,50.125,-0.21875,-7.21875,6.35938,0.0,0.00195312,-0.00585938,4,0,41.37021904870228,-91.65404130343455,11070.65571774024,-46.81554621038735,2.9377202389530237,4.301457620917353,207.698,8907.031340764672,11074.134321271986,150,True,16.004655282257257,False,162.80151160628984,167.61424405441795,False,4.818088992450725,True,False
2,1970-07-23 10:13:45.749279859,2025-09-11,2025-09-26 14:56:14.927,HA,C,2114135784,JASSM,3,113,76,2,2,1,225,9,2,0,1,26,0,0,0,0,-155521.46716483062,-4777509.780244674,4213212.433073521,-2.71083,-1.01118,0.751842,37.5,-59.75,-65.875,0.0,0.0,0.0,0.0,0.0,0.0,2,0,41.58441367738255,-91.86448140899503,10000.005840356684,155.94007967027642,0.0007188874942862,0.0048412629082258,,8907.031340764672,11074.134321271986,150,2,2025-09-11,2025-09-26 14:56:14.815,HA,C,3017672328,HAWK11,1,1,73,2,1,1,225,2,1,0,0,12,1,225,2,1,-138481.72302420562,-4794013.069307174,4195636.595182896,2.48323,2.59195,-0.582529,-57.25,47.375,50.125,-0.046875,-7.23438,6.375,-0.0664062,0.0078125,0.0117188,4,0,41.37070623933542,-91.65460802262608,11068.7895398946,-46.49787780650468,2.96925352797144,2.9591716201296285,207.955,8907.031340764672,11074.134321271986,150,True,15.910054853511399,False,163.13838026110625,167.58164902540747,False,4.446116834476583,True,False
2,1970-07-23 10:13:45.760299535,2025-09-11,2025-09-26 14:56:16.029,HA,C,2115388484,JASSM,3,113,76,2,2,1,225,9,2,0,1,26,0,0,0,0,-155482.11560233062,-4777572.608369674,4213143.104948521,-2.71083,-1.01118,0.751938,37.5,-59.75,-65.875,0.0,0.0,0.0,0.0,0.0,0.0,2,0,41.58357957009768,-91.863985476902,9999.998342855277,155.94270143980637,-0.0033582500690767,0.0048398930990892,,8907.031340764672,11074.134321271986,150,2,2025-09-11,2025-09-26 14:56:15.613,HA,C,3018746026,HAWK11,1,1,73,2,1,1,225,2,1,0,0,12,1,225,2,1,-138533.44372733062,-4793970.948213424,4195681.868620396,2.43865,2.58361,-0.589624,-56.875,47.25,50.125,0.0,-7.1875,6.48438,-0.0195312,0.00195312,-0.00585938,4,0,41.37125353614884,-91.65524018364188,11066.975791148308,-45.930716235087885,3.0198647847093536,0.1701107307607636,208.333,8907.031340764672,11074.134321271986,150,True,15.81335780433962,False,163.29168973716924,167.55155774283648,False,4.264669139938418,True,False
2,1970-07-23 10:13:45.771313644,2025-09-11,2025-09-26 14:56:17.131,HA,C,2116700834,JASSM,3,113,76,2,2,1,225,9,2,0,1,26,0,0,0,0,-155440.89001639312,-4777638.428682174,4213070.476042271,-2.71083,-1.01109,0.751938,37.5,-59.75,-65.875,0.0,0.0,0.0,0.0,0.0,0.0,2,0,41.5827057425561,-91.86346594086896,9999.9982954611,155.93940177860642,-0.0040764731708194,0.001087759337407,,8907.031340764672,11074.134321271986,150,2,2025-09-11,2025-09-26 14:56:17.007,HA,C,3020416224,HAWK11,1,1,73,2,1,1,225,2,1,0,0,12,1,225,2,1,-138613.59411795562,-4793904.701143111,4195752.525846958,2.40643,2.59118,-0.581283,-56.375,47.125,49.75,-0.203125,-7.35938,6.5,-0.015625,0.00976562,-0.015625,4,0,41.37211081088724,-91.65622018621906,11062.857086978072,-46.51766900284167,2.893006501426417,-1.4661466801174945,209.042,8907.031340764672,11074.134321271986,150,True,15.689887810596849,False,163.38604173724235,167.52486654521408,False,4.140161518241049,True,False
2,1970-07-23 10:13:45.781360135,2025-09-11,2025-09-26 14:56:18.136,HA,C,2117953534,JASSM,3,113,76,2,2,1,225,9,2,0,1,26,0,0,0,0,-155401.53747733062,-4777701.254854049,4213001.147917271,-2.71083,-1.01109,0.751938,37.5,-59.75,-65.875,0.0,0.0,0.0,0.0,0.0,0.0,2,0,41.58187164249177,-91.86297002397366,9999.99679340396,155.9397309162657,-0.0031636078282055,0.0010864147918376,,8907.031340764672,11074.134321271986,150,2,2025-09-11,2025-09-26 14:56:18.111,HA,C,3021688756,HAWK11,1,1,73,2,1,1,225,2,1,0,0,12,1,225,2,1,-138673.62146170562,-4793855.142549361,4195805.479948521,2.42014,2.59061,-0.583488,-56.25,46.75,49.5,-0.34375,-7.45312,6.59375,0.0390625,-0.00195312,0.00390625,4,0,41.37275276078123,-91.65695414109088,11059.994964692463,-46.41483285519823,2.971774841140177,-0.6935504996503433,209.36,8907.031340764672,11074.134321271986,150,True,15.585916181412134,False,163.27223709229406,167.4951957146095,False,4.226409502591888,True,False
2,1970-07-23 10:13:45.792917137,2025-09-11,2025-09-26 14:56:19.291,HA,C,2119265884,JASSM,3,113,76,2,2,1,225,9,2,0,1,26,0,0,0,0,-155360.31189139312,-4777767.071260299,4212928.519011021,-2.71083,-1.01109,0.751938,37.5,-59.75,-65.875,0.0,0.0,0.0,0.0,0.0,0.0,2,0,41.58099783342088,-91.86245051684158,9999.998545891547,155.94007570483708,-0.0022072873547199,0.0010850036566515,,8907.031340764672,11074.134321271986,150,2,2025-09-11,2025-09-26 14:56:19.408,HA,C,3023080588,HAWK11,1,1,73,2,1,1,225,2,1,0,0,12,1,225,2,1,-138739.25232108062,-4793801.038057174,4195863.613737583,2.43913,2.5815,-0.583104,-56.0,45.375,50.5,-0.234375,-7.29688,6.40625,-0.0390625,0.0,0.0117188,4,0,41.37345575006302,-91.65775659916648,11057.58141710785,-46.09808079645615,2.6730735916324373,0.1221936901522382,209.751,8907.031340764672,11074.134321271986,150,True,15.474633197843088,False,163.34356242391127,167.46414945973723,False,4.271407670167875,True,False
2,1970-07-23 10:13:45.803296836,2025-09-11,2025-09-26 14:56:20.329,HA,C,2120520796,JASSM,3,113,76,2,2,1,225,9,2,0,1,26,0,0,0,0,-155320.89001639312,-4777830.006807174,4212859.065886021,-2.71083,-1.01109,0.751938,37.5,-59.75,-65.875,0.0,0.0,0.0,0.0,0.0,0.0,2,0,41.58016224779762,-91.86195375288588,9999.9984874975,155.94040539356118,-0.0012928031797731,0.0010836517411279,,8907.031340764672,11074.134321271986,150,2,2025-09-11,2025-09-26 14:56:20.412,HA,C,3024512186,HAWK11,1,1,73,2,1,1,225,2,1,0,0,12,1,225,2,1,-138807.28747733062,-4793745.107393111,4195923.051237583,2.41343,2.57623,-0.584063,-55.875,46.5,48.875,-0.09375,-7.28125,6.45312,0.00585938,-0.00585938,-0.00585938,4,0,41.374177982086856,-91.65858841873192,11053.67771548299,-45.87057744970414,2.552883013019947,-1.5061303919182056,210.142,8907.031340764672,11074.134321271986,150,True,15.364090350674974,False,163.18952797385214,167.43613353596655,False,4.246785433909515,True,False
2,1970-07-23 10:13:45.814294386,2025-09-11,2025-09-26 14:56:21.429,HA,C,2121890588,JASSM,3,113,76,2,2,1,225,9,2,0,1,26,0,0,0,0,-155277.85974295562,-4777898.702119674,4212783.253386021,-2.71083,-1.01109,0.751938,37.5,-59.625,-65.875,0.0,0.0,0.0,0.0,0.0,0.0,2,0,41.579250167094976,-91.86141153365828,9999.99763985032,155.94076524350228,-0.0002946054316108,0.0010821721812132,,8907.031340764672,11074.134321271986,150,2,2025-09-11,2025-09-26 14:56:21.336,HA,C,3025068920,HAWK11,1,1,73,2,1,1,225,2,1,0,0,12,1,225,2,1,-138833.00427420562,-4793723.825166549,4195945.602018833,2.41631,2.57718,-0.580995,-55.75,46.5,48.75,-0.046875,-7.07812,6.3125,0.0292969,0.0,-0.00585938,4,0,41.3744523826152,-91.65890289409462,11052.038863249096,-46.019468591245854,2.4486594175304623,-1.3176339334444638,210.423,8907.031340764672,11074.134321271986,150,True,15.28406373341061,False,163.22586694260198,167.40879791469433,False,4.182934360974623,True,False
2,1970-07-23 10:13:45.826315995,2025-09-11,2025-09-26 14:56:22.631,HA,C,2123262590,JASSM,3,113,76,2,2,1,225,9,2,0,1,26,0,0,0,0,-155234.76013358062,-4777967.506807174,4212707.319792271,-2.71083,-1.01109,0.751938,37.5,-59.625,-65.875,0.0,0.0,0.0,0.0,0.0,0.0,2,0,41.5783366290464,-91.86086845654395,10000.002241687029,155.94112565629175,0.0007051870251011,0.0010806959888109,,8907.031340764672,11074.134321271986,150,2,2025-09-11,2025-09-26 14:56:22.612,HA,C,3027136784,HAWK11,1,1,73,2,1,1,225,2,1,0,0,12,1,225,2,1,-138929.34216483062,-4793643.232393111,4196029.615690708,2.49253,2.57623,-0.574763,-55.125,46.875,48.25,-0.015625,-6.98438,6.375,0.0429688,0.0,0.00976562,4,0,41.37548233257606,-91.66008127677628,11042.76653803068,-46.21583517482582,2.14765890016749,3.011448046010228,210.814,8907.031340764672,11074.134321271986,150,True,15.144444969182556,False,163.45962345666686,167.38165684983957,False,3.939475639895488,True,False
2,1970-07-23 10:13:45.836377017,2025-09-11,2025-09-26 14:56:23.637,HA,C,2124515290,JASSM,3,113,76,2,2,1,225,9,2,0,1,26,0,0,0,0,-155195.40759451812,-4778030.327119674,4212637.987761021,-2.71083,-1.01109,0.752034,37.5,-59.625,-65.875,0.0,0.0,0.0,0.0,0.0,0.0,2,0,41.57750252582565,-91.86037260877656,10000.00565285162,155.9437490839819,-0.0033749183709793,0.001079318143314,,8907.031340764672,11074.134321271986,150,2,2025-09-11,2025-09-26 14:56:23.501,HA,C,3028170716,HAWK11,1,1,73,2,1,1,225,2,1,0,0,12,1,225,2,1,-138977.49450858062,-4793602.300752486,4196071.624479771,2.53021,2.55983,-0.576489,-54.625,47.375,48.125,-0.078125,-6.79688,6.14062,0.0175781,-0.00195312,0.0078125,4,0,41.37600109658191,-91.66067050413552,11036.574553841196,-45.54834319800779,1.7180957586012031,4.681379673309055,211.022,8907.031340764672,11074.134321271986,150,True,15.050300071635572,False,163.78362145059506,167.3467181471662,False,3.6245056256996806,True,False
2,1970-07-23 10:13:45.847355230,2025-09-11,2025-09-26 14:56:24.735,HA,C,2125767988,JASSM,3,113,76,2,2,1,225,9,2,0,1,26,0,0,0,0,-155156.05505545562,-4778093.145479049,4212568.651823521,-2.71083,-1.01109,0.752034,37.5,-59.625,-65.875,0.0,0.0,0.0,0.0,0.0,0.0,2,0,41.57666840570653,-91.8598767745285,10000.001073656318,155.94407813308777,-0.0024620476344293,0.0010780055225754,,8907.031340764672,11074.134321271986,150,2,2025-09-11,2025-09-26 14:56:24.611,HA,C,3029204648,HAWK11,1,1,73,2,1,1,225,2,1,0,0,12,1,225,2,1,-139024.81091483062,-4793561.190400924,4196113.215300083,2.52445,2.54948,-0.582146,-54.0,47.75,48.25,-0.15625,-7.03125,6.32812,-0.0625,0.00585938,0.0175781,4,0,41.37651824211362,-91.661249819831,11028.979660816123,-44.95930910358709,1.6524702086379055,4.0442857412642,211.266,8907.031340764672,11074.134321271986,150,True,14.956502883115787,False,164.2289887663466,167.3102228120105,False,3.1891478044030612,True,False
2,1970-07-23 10:13:45.859316092,2025-09-11,2025-09-26 14:56:25.931,HA,C,2127139992,JASSM,3,113,76,2,2,1,225,9,2,0,1,26,0,0,0,0,-155112.95446951812,-4778161.946260299,4212492.712370396,-2.71083,-1.01109,0.752034,37.5,-59.625,-65.875,0.0,0.0,0.0,0.0,0.0,0.0,2,0,41.57575484405869,-91.85933373049076,10000.001244255183,155.94443850567563,-0.001462237010741,0.0010765697537972,,8907.031340764672,11074.134321271986,150,2,2025-09-11,2025-09-26 14:56:25.815,HA,C,3030835080,HAWK11,1,1,73,2,1,1,225,2,1,0,0,12,1,225,2,1,-139098.88122733062,-4793495.262666549,4196179.436979771,2.45111,2.54622,-0.583009,-53.75,48.25,48.125,-0.125,-7.04688,6.8125,0.0,-0.0117188,-0.0136719,4,0,41.37734466531982,-91.6621572596837,11015.643197417205,-44.80791002364855,1.592867493151255,-0.2565385134404017,211.303,8907.031340764672,11074.134321271986,150,True,14.833949203004998,False,164.41596508947768,167.2719796665219,False,3.067232492094934,True,False
2,1970-07-23 10:13:45.869396180,2025-09-11,2025-09-26 14:56:26.939,HA,C,2128392692,JASSM,3,113,76,2,2,1,225,9,2,0,1,26,0,0,0,0,-155073.60290701812,-4778224.762666549,4212423.374479771,-2.71083,-1.01109,0.752034,37.5,-59.625,-65.875,0.0,0.0,0.0,0.0,0.0,0.0,2,0,41.57492071752522,-91.85883793543186,9999.998815959829,155.94476751741755,-0.0005493682601044,0.0010752478968426,,8907.031340764672,11074.134321271986,150,2,2025-09-11,2025-09-26 14:56:27.208,HA,C,3032545046,HAWK11,1,1,73,2,1,1,225,2,1,0,0,12,1,225,2,1,-139175.91833670562,-4793426.221650924,4196248.503386021,2.45284,2.55724,-0.57553,-54.125,48.5,48.625,-0.09375,-6.76562,7.3125,0.0,0.0078125,0.0,4,0,41.378208292202,-91.66310123542704,11001.034320666871,-45.48926379045609,1.5992594417711856,0.1690733644914091,211.303,8907.031340764672,11074.134321271986,150,True,14.713714565246578,False,164.45776735129144,167.2375766234206,False,2.9624594586494823,True,False
2,1970-07-23 10:13:45.880254484,2025-09-11,2025-09-26 14:56:28.025,HA,C,2129705040,JASSM,3,113,76,2,2,1,225,9,2,0,1,26,0,0,0,0,-155032.37634451812,-4778290.569307174,4212350.735807896,-2.71083,-1.01099,0.752034,37.5,-59.625,-65.875,0.0,0.0,0.0,0.0,0.0,0.0,2,0,41.5740468814679,-91.85831853179634,10000.00159146313,155.94146361417214,-0.0012697749761809,-0.0026821267920165,,8907.031340764672,11074.134321271986,150,2,2025-09-11,2025-09-26 14:56:28.111,HA,C,3033618744,HAWK11,1,1,73,2,1,1,225,2,1,0,0,12,1,225,2,1,-139224.85974295562,-4793382.334932174,4196292.604948521,2.43472,2.55667,-0.587802,-54.5,48.625,49.375,-0.09375,-7.10938,7.82812,-0.0742188,0.00585938,0.00976562,4,0,41.37875860977756,-91.66370096231527,10992.181080873332,-45.019725818158,2.123932187385368,-0.8720473900243978,211.242,8907.031340764672,11074.134321271986,150,True,14.61525090078549,False,164.56007917040614,167.19551677712204,False,2.747578106736787,True,False
2,1970-07-23 10:13:45.890301899,2025-09-11,2025-09-26 14:56:29.030,HA,C,2130957740,JASSM,3,113,76,2,2,1,225,9,2,0,1,26,0,0,0,0,-154993.02380545562,-4778353.383760299,4212281.395964146,-2.71074,-1.01099,0.752034,37.5,-59.625,-65.875,0.0,0.0,0.0,0.0,0.0,0.0,2,0,41.57321274900621,-91.85782275192044,10000.000905892972,155.9417926047788,-0.0003569015144249,0.0028079722130025,,8907.031340764672,11074.134321271986,150,2,2025-09-11,2025-09-26 14:56:28.907,HA,C,3034612910,HAWK11,1,1,73,2,1,1,225,2,1,0,0,12,1,225,2,1,-139270.74841483062,-4793341.704072799,4196334.210417271,2.37872,2.55513,-0.590583,-55.25,48.625,49.875,-0.1875,-6.84375,7.53125,-0.0683594,0.00195312,-0.00195312,4,0,41.37927323624472,-91.66426311081663,10985.711171068357,-44.86213277210411,2.200739141525277,-4.1230091632492805,210.961,8907.031340764672,11074.134321271986,150,True,14.522059677572633,False,164.35547640186257,167.15482251653677,False,2.8530032513574004,True,False
2,1970-07-23 10:13:45.902114319,2025-09-11,2025-09-26 14:56:30.211,HA,C,2132270092,JASSM,3,113,76,2,2,1,225,9,2,0,1,26,0,0,0,0,-154951.79724295562,-4778419.186494674,4212208.753386021,-2.71074,-1.01099,0.75213,37.5,-59.625,-65.875,0.0,0.0,0.0,0.0,0.0,0.0,2,0,41.57233890511928,-91.85730337716666,9999.996975690194,155.94443051288482,-0.0043902773401868,0.0028064625756175,,8907.031340764672,11074.134321271986,150,2,2025-09-11,2025-09-26 14:56:30.111,HA,C,3036084274,HAWK11,1,1,73,2,1,1,225,2,1,0,0,12,1,225,2,1,-139340.32653983062,-4793281.503877486,4196396.284636021,2.30634,2.58073,-0.572175,-56.625,48.25,50.0,-0.125,-6.96875,7.60938,-0.0253906,0.0078125,-0.0273438,4,0,41.38003835062107,-91.66511499092974,10977.176471930205,-46.48071708048106,2.180529793210909,-7.526765820850474,210.643,8907.031340764672,11074.134321271986,150,True,14.406511462244042,False,163.63023053688528,167.11707209693793,False,3.4980766561563117,True,False
2,1970-07-23 10:13:45.913363686,2025-09-11,2025-09-26 14:56:31.336,HA,C,2133642090,JASSM,3,113,76,2,2,1,225,9,2,0,1,26,0,0,0,0,-154908.69665701812,-4778487.979463424,4212132.810026646,-2.71074,-1.01099,0.75213,37.5,-59.625,-65.875,0.0,0.0,0.0,0.0,0.0,0.0,2,0,41.57142535096124,-91.85676040868424,9999.999638096466,155.94479080468886,-0.0033904854881058,0.0028050092576247,,8907.031340764672,11074.134321271986,150,2,2025-09-11,2025-09-26 14:56:31.313,HA,C,3037515874,HAWK11,1,1,73,2,1,1,225,2,1,0,0,12,1,225,2,1,-139409.42419608062,-4793222.477510299,4196456.251432896,2.43213,2.55197,-0.536989,-58.125,49.25,49.5,-0.15625,-5.17188,5.70312,0.224609,-0.03125,0.0,4,0,41.38078233174031,-91.66596074552206,10966.931490769646,-46.69927548929043,-0.2636807241675487,-1.1914597989020168,210.191,8907.031340764672,11074.134321271986,150,True,14.289609718075129,False,162.9527416580627,167.07856990300476,False,4.206451627598153,True,False
2,1970-07-23 10:13:45.923313869,2025-09-11,2025-09-26 14:56:32.331,HA,C,2134775484,JASSM,3,113,76,2,2,1,225,9,2,0,1,26,0,0,0,0,-154873.09314139312,-4778544.807588424,4212070.071745396,-2.71074,-1.01099,0.75213,37.5,-59.625,-65.875,0.0,0.0,0.0,0.0,0.0,0.0,2,0,41.57067066197711,-91.85631189713808,9999.999297925386,155.94508841380804,-0.0025645645233542,0.0028037928807056,,8907.031340764672,11074.134321271986,150,2,2025-09-11,2025-09-26 14:56:32.313,HA,C,3038669106,HAWK11,1,1,73,2,1,1,225,2,1,0,0,12,1,225,2,1,-139466.07263358062,-4793172.495088424,4196503.565886021,2.6488,2.54967,-0.539194,-58.25,51.25,49.375,-0.265625,-5.90625,6.51562,0.134766,0.00585938,0.0078125,4,0,41.38138924640968,-91.6666546896165,10950.614076060428,-46.53204839176325,-0.237179599403843,11.15470973412697,209.348,8907.031340764672,11074.134321271986,150,False,14.193538851022344,False,163.24664895305472,167.04691849560274,False,4.163951950581141,True,False
2,1970-07-23 10:13:45.931402242,2025-09-11,2025-09-26 14:56:33.140,HA,C,2135849230,JASSM,3,113,76,2,2,1,225,9,2,0,1,26,0,0,0,0,-154839.36169608062,-4778598.645479049,4212010.634245396,-2.71074,-1.01099,0.75213,37.5,-59.625,-65.875,0.0,0.0,0.0,0.0,0.0,0.0,2,0,41.56995567950844,-91.85588697926704,10000.001918767415,155.94537036328816,-0.0017820951389579,0.002802650425522,,8907.031340764672,11074.134321271986,150,2,2025-09-11,2025-09-26 14:56:33.003,HA,C,3039504204,HAWK11,1,1,73,2,1,1,225,2,1,0,0,12,1,225,2,1,-139506.19958670562,-4793135.666963424,4196537.845182896,2.73144,2.52858,-0.552712,-57.625,52.875,50.0,-0.125,-6.28125,6.82812,0.101562,0.00195312,0.0507812,4,0,41.381832774539,-91.66714674845836,10937.213672069498,-45.24236118456865,-0.2863224330851603,15.256344609640934,209.213,8907.031340764672,11074.134321271986,150,False,14.11329033466174,False,164.0472704579063,167.0115275032408,False,3.704750292815304,True,False
2,1970-07-23 10:13:45.940340053,2025-09-11,2025-09-26 14:56:34.034,HA,C,2136922974,JASSM,3,113,76,2,2,1,225,9,2,0,1,26,0,0,0,0,-154805.63025076812,-4778652.481416549,4211951.194792271,-2.71074,-1.01099,0.75213,37.5,-59.625,-65.875,0.0,0.0,0.0,0.0,0.0,0.0,2,0,41.569240693887046,-91.8554620715242,9999.99939434844,155.94565230206533,-0.0009996245244869,0.0028015068291591,,8907.031340764672,11074.134321271986,150,2,2025-09-11,2025-09-26 14:56:33.705,HA,C,3040339304,HAWK11,1,1,73,2,1,1,225,2,1,0,0,12,1,225,2,1,-139546.37341483062,-4793097.503877486,4196572.866667271,2.83921,2.48773,-0.572271,-56.75,54.5,51.0,-0.25,-6.46875,7.125,0.140625,0.0117188,0.0429688,4,0,41.38228924316741,-91.66763983868024,10922.143641905584,-42.99363760693993,-0.6264283076329231,20.1645453933788,208.896,8907.031340764672,11074.134321271986,150,False,14.032398504164318,False,165.0652631154949,166.97401735605433,False,3.2668492814465697,True,False
2,1970-07-23 10:13:45.950313783,2025-09-11,2025-09-26 14:56:35.031,HA,C,2138056368,JASSM,3,113,76,2,2,1,225,9,2,0,1,26,0,0,0,0,-154770.02575858062,-4778709.307588424,4211888.454557896,-2.71074,-1.01099,0.75213,37.5,-59.625,-65.875,0.0,0.0,0.0,0.0,0.0,0.0,2,0,41.56848599824684,-91.85501357925982,10000.002505418155,155.94594988554542,-0.0001736987182155,0.0028002973464853,,8907.031340764672,11074.134321271986,150,2,2025-09-11,2025-09-26 14:56:35.007,HA,C,3041731136,HAWK11,1,1,73,2,1,1,225,2,1,0,0,12,1,225,2,1,-139611.01599295562,-4793031.602510299,4196633.485807896,2.99184,2.44047,-0.610812,-53.875,57.5,53.625,-0.0625,-7.0,7.6875,0.0546875,0.0214844,0.0429688,4,0,41.38307926959159,-91.66843483579947,10896.096002311604,-39.87206566493246,-0.1999549265927946,27.37643900476693,208.37,8907.031340764672,11074.134321271986,150,False,13.924835039238637,False,167.70806424027774,166.92906723140888,False,3.4524606307764096,True,False
2,1970-07-23 10:13:45.959402361,2025-09-11,2025-09-26 14:56:35.940,HA,C,2139130110,JASSM,3,113,76,2,2,1,225,9,2,0,1,26,0,0,0,0,-154736.29431326812,-4778763.139619674,4211829.015104771,-2.71074,-1.01099,0.75213,37.5,-59.625,-65.875,0.0,0.0,0.0,0.0,0.0,0.0,2,0,41.567771032527695,-91.85458869229132,9999.998410327278,155.94623180235223,0.0006087503463095,0.0027991621871966,,8907.031340764672,11074.134321271986,150,2,2025-09-11,2025-09-26 14:56:36.001,HA,C,3043083200,HAWK11,1,1,73,2,1,1,225,2,1,0,0,12,1,225,2,1,-139669.98278983062,-4792963.604463424,4196695.765104771,3.07132,2.35092,-0.661529,-49.625,60.625,56.5,0.0,-7.60938,8.1875,-0.0371094,0.0351562,0.0625,4,0,41.38389395454096,-91.6691627923887,10868.089448032544,-34.8268954584917,-0.1368201442281097,28.86486425528097,208.003,8907.031340764672,11074.134321271986,150,False,13.820449137037398,False,170.87305757357012,166.87223304986838,False,5.991709441875423,True,False
2,1970-07-23 10:13:45.969401237,2025-09-11,2025-09-26 14:56:36.940,HA,C,2140323154,JASSM,3,113,76,2,2,1,225,9,2,0,1,26,0,0,0,0,-154698.81579764312,-4778822.954072799,4211762.970182896,-2.71074,-1.01099,0.752226,37.5,-59.625,-65.875,0.0,0.0,0.0,0.0,0.0,0.0,2,0,41.56697661027767,-91.85411661662329,9999.998800868612,155.94883971775798,-0.0035146637096574,0.002797847599475,,8907.031340764672,11074.134321271986,150,2,2025-09-11,2025-09-26 14:56:37.111,HA,C,3044395500,HAWK11,1,1,73,2,1,1,225,2,1,0,0,12,1,225,2,1,-139722.03943045562,-4792895.667939986,4196759.458464146,3.11734,2.26981,-0.711575,-44.875,62.875,59.875,-0.125,-8.25,8.95312,-0.0175781,0.0449219,0.0371094,4,0,41.38471901700051,-91.6698082116392,10842.811835036682,-30.26620292415244,0.4357928394520891,28.56582780193853,207.478,8907.031340764672,11074.134321271986,150,False,13.712741250343656,False,174.11712546027428,166.79549868772406,False,9.146616524576942,True,False
2,1970-07-23 10:13:45.980614450,2025-09-11,2025-09-26 14:56:38.061,HA,C,2141456548,JASSM,3,113,76,2,2,1,225,9,2,0,1,26,0,0,0,0,-154663.21130545562,-4778879.776338424,4211700.226042271,-2.71074,-1.01099,0.752226,37.5,-59.625,-65.875,0.0,0.0,0.0,0.0,0.0,0.0,2,0,41.566221906103145,-91.85366815718868,9999.996854535755,155.94913726624776,-0.0026887352621552,0.002796668893218,,8907.031340764672,11074.134321271986,150,2,2025-09-11,2025-09-26 14:56:38.001,HA,C,3045230598,HAWK11,1,1,73,2,1,1,225,2,1,0,0,12,1,225,2,1,-139752.40661795562,-4792851.182588424,4196802.249479771,3.10439,2.23923,-0.742063,-41.625,63.875,62.375,-0.109375,-8.67188,9.29688,-0.0976562,0.0390625,0.0332031,4,0,41.385267238331735,-91.6701864153082,10828.347617836804,-28.268094401612256,1.3157621922351583,26.69017474050458,206.696,8907.031340764672,11074.134321271986,150,False,13.628077790382616,False,176.14149727789038,166.72172106573467,False,11.342710264003237,True,False
2,1970-07-23 10:13:45.987373767,2025-09-11,2025-09-26 14:56:38.737,HA,C,2142530292,JASSM,3,113,76,2,2,1,225,9,2,0,1,26,0,0,0,0,-154629.47986014312,-4778933.608369674,4211640.784636021,-2.71074,-1.01089,0.752226,37.5,-59.625,-65.875,0.0,0.0,0.0,0.0,0.0,0.0,2,0,41.56550692197952,-91.8532432998858,10000.000851413044,155.94577587110317,-0.0035808675585313,-0.0009564005063522,,8907.031340764672,11074.134321271986,150,2,2025-09-11,2025-09-26 14:56:38.651,HA,C,3045668032,HAWK11,1,1,73,2,1,1,225,2,1,0,0,12,1,225,2,1,-139767.10974295562,-4792828.064424361,4196824.915495396,3.08685,2.22053,-0.754623,-40.0,64.25,63.75,-0.1875,-8.64062,9.26562,-0.0664062,0.0390625,0.0449219,4,0,41.38555521729048,-91.67037008579445,10821.683588614487,-27.234826154201823,1.574451228890886,24.98209748213492,206.403,8907.031340764672,11074.134321271986,150,False,13.563687272488552,False,177.01849292777155,166.65987469153922,False,12.478369806139694,True,False
2,1970-07-23 10:13:45.996432448,2025-09-11,2025-09-26 14:56:39.643,HA,C,2143604048,JASSM,3,113,76,2,2,1,225,9,2,0,1,26,0,0,0,0,-154595.74841483062,-4778987.438447799,4211581.341276646,-2.71074,-1.01089,0.752226,37.5,-59.625,-65.875,0.0,0.0,0.0,0.0,0.0,0.0,2,0,41.56479193470179,-91.85281845270718,9999.999702971274,155.94605774505055,-0.0027984049710718,-0.0009575606302506,,8907.031340764672,11074.134321271986,150,2,2025-09-11,2025-09-26 14:56:39.531,HA,C,3046861030,HAWK11,1,1,73,2,1,1,225,2,1,0,0,12,1,225,2,1,-139805.19177420562,-4792763.166963424,4196890.645964146,3.06997,2.16579,-0.796999,-35.75,64.375,67.25,-0.296875,-8.98438,9.59375,-0.0136719,0.0488281,0.0292969,4,0,41.38637838140691,-91.67084756119588,10807.31060595858,-24.13446791212275,2.7175459372181,21.934087210670636,205.792,8907.031340764672,11074.134321271986,150,False,13.465780822116374,False,177.60924699721215,166.55956859594244,False,15.295251584166225,True,False
2,1970-07-23 10:13:46.009734193,2025-09-11,2025-09-26 14:56:40.973,HA,C,2144797080,JASSM,3,113,76,2,2,1,225,9,2,0,1,26,0,0,0,0,-154558.26989920562,-4779047.248994674,4211515.292448521,-2.71074,-1.01089,0.752226,37.5,-59.625,-65.875,0.0,0.0,0.0,0.0,0.0,0.0,2,0,41.56399750178157,-91.8523464219208,10000.000053127796,155.94637091930133,-0.0019290046208392,-0.0009588572208821,,8907.031340764672,11074.134321271986,150,2,2025-09-11,2025-09-26 14:56:41.001,HA,C,3048889128,HAWK11,1,1,73,2,1,1,225,2,1,0,0,12,1,225,2,1,-139859.59607108062,-4792654.229463424,4197008.894011021,2.94975,2.1028,-0.858262,-29.25,63.25,72.25,-0.125,-8.5,9.07812,-0.130859,0.03125,0.0273438,4,0,41.38781522477807,-91.67153536381494,10799.67465003683,-20.4372811419704,4.878601408651004,12.631589980737711,205.107,8907.031340764672,11074.134321271986,150,False,13.327886847671042,False,173.9925529418119,166.3884227868042,False,19.601555249136208,True,False
2,1970-07-23 10:13:46.016291918,2025-09-11,2025-09-26 14:56:41.629,HA,C,2145930474,JASSM,3,113,76,2,2,1,225,9,2,0,1,26,0,0,0,0,-154522.66443045562,-4779104.067354049,4211452.546354771,-2.71074,-1.01089,0.752226,37.5,-59.625,-65.875,0.0,0.0,0.0,0.0,0.0,0.0,2,0,41.56324280066016,-91.85189799350124,10000.001337961883,155.94666842973623,-0.0011030821657488,-0.0009600773348468,,8907.031340764672,11074.134321271986,150,2,2025-09-11,2025-09-26 14:56:41.709,HA,C,3049843526,HAWK11,1,1,73,2,1,1,225,2,1,0,0,12,1,225,2,1,-139881.94763358062,-4792604.458955611,4197066.366667271,2.89539,2.0935,-0.879834,-27.375,62.375,73.75,-0.03125,-8.25,8.75,-0.0664062,0.0175781,-0.00195312,4,0,41.388495394821845,-91.6718196990471,10803.491283166946,-19.626360104069438,5.876200885429209,9.185994212618253,204.753,8907.031340764672,11074.134321271986,150,True,13.2396524099608,False,172.71154252256176,166.27405995322067,False,20.92145288831816,True,False
2,1970-07-23 10:13:46.028135455,2025-09-11,2025-09-26 14:56:42.813,HA,C,2147004216,JASSM,3,113,76,2,2,1,225,9,2,0,1,26,0,0,0,0,-154488.93396170562,-4779157.895479049,4211393.101042271,-2.71074,-1.01089,0.752226,37.5,-59.625,-65.875,0.0,0.0,0.0,0.0,0.0,0.0,2,0,41.5625278064456,-91.85147318843498,10000.003567364256,155.94695026313315,-0.0003206215288416,-0.0009612466994506,,8907.031340764672,11074.134321271986,150,2,2025-09-11,2025-09-26 14:56:42.708,HA,C,3051076292,HAWK11,1,1,73,2,1,1,225,2,1,0,0,12,1,225,2,1,-139909.59216483062,-4792539.650361861,4197143.224089146,2.84045,2.09829,-0.888367,-25.75,61.25,75.25,-0.203125,-7.625,8.14062,-0.0234375,0.0078125,0.0117188,4,0,41.38939496411008,-91.67217250850096,10812.741726951605,-19.59204226617887,6.394972579337248,6.254457047937463,204.606,8907.031340764672,11074.134321271986,150,True,13.141711257563179,False,171.49283740132057,166.1362488652936,False,22.14985972383562,True,False
2,1970-07-23 10:13:46.035415596,2025-09-11,2025-09-26 14:56:43.541,HA,C,2148197262,JASSM,3,113,76,2,2,1,225,9,2,0,1,26,0,0,0,0,-154451.45544608062,-4779217.700166549,4211327.050261021,-2.71074,-1.01089,0.752226,37.5,-59.625,-65.875,0.0,0.0,0.0,0.0,0.0,0.0,2,0,41.56173338950381,-91.85100119287095,9999.999005084315,155.9472634000037,0.0005487585527654,-0.0009625360004859,,8907.031340764672,11074.134321271986,150,2,2025-09-11,2025-09-26 14:56:43.407,HA,C,3051792092,HAWK11,1,1,73,2,1,1,225,2,1,0,0,12,1,225,2,1,-139924.83239920562,-4792502.312471236,4197188.323698521,2.86433,2.08526,-0.892777,-25.0,61.0,75.75,-0.046875,-7.375,7.85938,0.0683594,0.00976562,0.0195312,4,0,41.389918884135554,-91.6723675751604,10819.80331153155,-19.057355801888104,6.442213029044446,7.101207925284549,204.606,8907.031340764672,11074.134321271986,150,True,13.060926847715688,False,170.97425008945976,166.02704081187986,False,22.745763030622804,True,False
2,1970-07-23 10:13:46.044411599,2025-09-11,2025-09-26 14:56:44.441,HA,C,2149271004,JASSM,3,113,76,2,2,1,225,9,2,0,1,26,0,0,0,0,-154417.72302420562,-4779271.526338424,4211267.602995396,-2.71064,-1.01089,0.752322,37.5,-59.625,-65.875,0.0,0.0,0.0,0.0,0.0,0.0,2,0,41.561018390667925,-91.850576384941,10000.000265370352,155.94983882140124,-0.0036583307737528,0.004527735127972,,8907.031340764672,11074.134321271986,150,2,2025-09-11,2025-09-26 14:56:44.618,HA,C,3053223690,HAWK11,1,1,73,2,1,1,225,2,1,0,0,12,1,225,2,1,-139954.12146170562,-4792428.268525924,4197278.546354771,2.87094,2.061,-0.903131,-23.375,60.5,76.625,-0.015625,-7.3125,7.73438,-0.0332031,-0.00390625,0.0234375,4,0,41.39096332914616,-91.6727432653736,10835.451870329378,-18.02365352392976,6.659866555744969,6.5112228055856365,204.753,8907.031340764672,11074.134321271986,150,True,12.955643193345153,False,169.89687571913223,165.86521513342475,False,23.933565842197105,True,False
2,1970-07-23 10:13:46.053390350,2025-09-11,2025-09-26 14:56:45.339,HA,C,2150344746,JASSM,3,113,76,2,2,1,225,9,2,0,1,26,0,0,0,0,-154383.99157889312,-4779325.352510299,4211208.153776646,-2.71064,-1.01089,0.752322,37.5,-59.625,-65.875,0.0,0.0,0.0,0.0,0.0,0.0,2,0,41.56030337683335,-91.85015159807124,10000.001250100397,155.95012063043634,-0.0028758532463001,0.0045265986219289,,8907.031340764672,11074.134321271986,150,2,2025-09-11,2025-09-26 14:56:45.203,HA,C,3053939490,HAWK11,1,1,73,2,1,1,225,2,1,0,0,12,1,225,2,1,-139967.94568045562,-4792391.241182174,4197323.956511021,2.86749,2.04748,-0.908021,-22.625,60.375,77.0,-0.109375,-7.10938,7.51562,-0.0214844,0.0117188,0.0078125,4,0,41.3914877424865,-91.6729213177068,10843.855030272596,-17.472163505275358,6.743498045868368,5.768414551783756,205.107,8907.031340764672,11074.134321271986,150,True,12.880475493569813,False,169.41400683048832,165.75565846269305,False,24.513571111395024,True,False
2,1970-07-23 10:13:46.062332489,2025-09-11,2025-09-26 14:56:46.233,HA,C,2151418488,JASSM,3,113,76,2,2,1,225,9,2,0,1,26,0,0,0,0,-154350.26111014312,-4779379.174775924,4211148.706511021,-2.71064,-1.01089,0.752322,37.5,-59.625,-65.875,0.0,0.0,0.0,0.0,0.0,0.0,2,0,41.55958839761374,-91.84972683377178,10000.000876758586,155.950402420516,-0.0020934127727822,0.0045254678599579,,8907.031340764672,11074.134321271986,150,2,2025-09-11,2025-09-26 14:56:46.111,HA,C,3055052954,HAWK11,1,1,73,2,1,1,225,2,1,0,0,12,1,225,2,1,-139988.87536795562,-4792333.743135299,4197394.851042271,2.84199,2.03981,-0.907062,-21.875,60.25,77.375,-0.03125,-7.0,7.46875,-0.0351562,0.0,-0.00585938,4,0,41.39230473166198,-91.67319139397031,10857.691604532696,-17.238673577490147,6.594820084446599,3.9880322239990265,205.608,8907.031340764672,11074.134321271986,150,True,12.789017366054452,False,168.93152353929113,165.61054912889537,False,25.129257077258856,True,False
2,1970-07-23 10:13:46.071397393,2025-09-11,2025-09-26 14:56:47.139,HA,C,2152551882,JASSM,3,113,76,2,2,1,225,9,2,0,1,26,0,0,0,0,-154314.65564139312,-4779435.987275924,4211085.954557896,-2.71064,-1.01089,0.752322,37.5,-59.625,-65.875,0.0,0.0,0.0,0.0,0.0,0.0,2,0,41.55883368120599,-91.84927846857757,10000.000404515691,155.9506998631897,-0.0012674862247226,0.0045242773335796,,8907.031340764672,11074.134321271986,150,2,2025-09-11,2025-09-26 14:56:47.001,HA,C,3056166420,HAWK11,1,1,73,2,1,1,225,2,1,0,0,12,1,225,2,1,-140008.91052420562,-4792276.841768111,4197466.001432896,2.83604,2.03914,-0.906774,-21.125,60.125,77.5,-0.140625,-6.78125,7.3125,0.0195312,0.00195312,0.0,4,0,41.39312005275227,-91.673450582631,10873.491398565504,-17.222596144738123,6.57174203485106,3.6189832093902896,206.048,8907.031340764672,11074.134321271986,150,True,12.695500839986643,False,168.50251057252225,165.45887742845363,False,25.712693820429088,True,False
2,1970-07-23 10:13:46.081254187,2025-09-11,2025-09-26 14:56:48.125,HA,C,2153685276,JASSM,3,113,76,2,2,1,225,9,2,0,1,26,0,0,0,0,-154279.05017264312,-4779492.799775924,4211023.200651646,-2.71064,-1.01089,0.752322,37.5,-59.625,-65.875,0.0,0.0,0.0,0.0,0.0,0.0,2,0,41.55807894979818,-91.84883011381596,10000.000024515904,155.95099729450612,-0.0004415475571269,0.0045230814309883,,8907.031340764672,11074.134321271986,150,2,2025-09-11,2025-09-26 14:56:47.651,HA,C,3056524320,HAWK11,1,1,73,2,1,1,225,2,1,0,0,12,1,225,2,1,-140015.31482108062,-4792258.168916549,4197489.140104771,2.85014,2.0377,-0.907829,-20.875,60.25,77.5,-0.203125,-6.75,7.1875,0.0625,0.0,0.00390625,4,0,41.39338622028735,-91.67353360331651,10878.209082816824,-17.15309680911719,6.610124368087455,4.3695219441834965,206.183,8907.031340764672,11074.134321271986,150,True,12.632766153708848,False,168.38246410230218,165.370373794227,False,25.937402500958928,True,False
2,1970-07-23 10:13:46.090313055,2025-09-11,2025-09-26 14:56:49.031,HA,C,2154818670,JASSM,3,113,76,2,2,1,225,9,2,0,1,26,0,0,0,0,-154243.44470389312,-4779549.610322799,4210960.446745396,-2.71064,-1.01089,0.752322,37.5,-59.625,-65.875,0.0,0.0,0.0,0.0,0.0,0.0,2,0,41.55732422819701,-91.84838177024145,9999.999195269069,155.95129471396476,0.0003843803464702,0.0045218897454996,,8907.031340764672,11074.134321271986,150,2,2025-09-11,2025-09-26 14:56:49.203,HA,C,3058671718,HAWK11,1,1,73,2,1,1,225,2,1,0,0,12,1,225,2,1,-140051.45153983062,-4792147.279268111,4197627.130339146,3.03431,1.99667,-0.897283,-18.375,61.375,77.5,-0.0625,-6.09375,6.64062,0.0566406,-0.00195312,0.03125,4,0,41.3949711110551,-91.6740039951674,10907.357272538313,-15.988552007910863,5.541582359887037,13.199562189460828,206.757,8907.031340764672,11074.134321271986,150,False,12.497442168091778,False,167.13225096710227,165.11634172345066,False,27.56750257482648,True,False
2,1970-07-23 10:13:46.099352574,2025-09-11,2025-09-26 14:56:49.935,HA,C,2155892412,JASSM,3,113,76,2,2,1,225,9,2,0,1,26,0,0,0,0,-154209.71325858062,-4779603.430635299,4210900.995573521,-2.71064,-1.0108,0.752322,37.5,-59.625,-65.875,0.0,0.0,0.0,0.0,0.0,0.0,2,0,41.55660922760593,-91.84795703401466,10000.001691794198,155.9479336259367,-0.0005078452364852,0.0007682206372171,,8907.031340764672,11074.134321271986,150,2,2025-09-11,2025-09-26 14:56:49.813,HA,C,3059427284,HAWK11,1,1,73,2,1,1,225,2,1,0,0,12,1,225,2,1,-140062.90661795562,-4792107.618135299,4197675.567839146,3.08273,1.96963,-0.896899,-17.0,62.25,77.375,-0.078125,-6.20312,6.71875,0.0195312,0.0,0.0292969,4,0,41.39553203451009,-91.67415468514594,10915.69255875344,-15.076768929968996,5.210159243960949,14.848362621913884,206.867,8907.031340764672,11074.134321271986,150,False,12.42167136879172,False,166.45126990660972,164.9874573578909,False,28.44262789000274,True,False
2,1970-07-23 10:13:46.109372604,2025-09-11,2025-09-26 14:56:50.937,HA,C,2157085458,JASSM,3,113,76,2,2,1,225,9,2,0,1,26,0,0,0,0,-154172.23376639312,-4779663.229463424,4210834.936979771,-2.71064,-1.0108,0.752418,37.5,-59.625,-65.875,0.0,0.0,0.0,0.0,0.0,0.0,2,0,41.555814777953785,-91.84748511514144,10000.00152287892,155.9505420240419,-0.0046309558675725,0.0007668245370159,,8907.031340764672,11074.134321271986,150,2,2025-09-11,2025-09-26 14:56:51.001,HA,C,3060938416,HAWK11,1,1,73,2,1,1,225,2,1,0,0,12,1,225,2,1,-140083.27966483062,-4792026.997041549,4197772.151823521,3.0346,1.93224,-0.887791,-14.5,63.625,77.125,0.03125,-5.95312,6.375,-0.0917969,-0.00390625,0.0078125,4,0,41.39666008186276,-91.67442621710268,10928.360355273791,-13.946694254688015,4.310660292575798,10.516515298155005,207.649,8907.031340764672,11074.134321271986,150,False,12.311102735870262,False,165.1537182505876,164.77041782838003,False,30.028286860449878,False,False
2,1970-07-23 10:13:46.118297788,2025-09-11,2025-09-26 14:56:51.829,HA,C,2158159200,JASSM,3,113,76,2,2,1,225,9,2,0,1,26,0,0,0,0,-154138.50232108062,-4779717.047822799,4210775.481901646,-2.71064,-1.0108,0.752418,37.5,-59.625,-65.875,0.0,0.0,0.0,0.0,0.0,0.0,2,0,41.55509975921037,-91.84706039943296,9999.998954597952,155.95082375702492,-0.0038484851149062,0.000765670376037,,8907.031340764672,11074.134321271986,150,2,2025-09-11,2025-09-26 14:56:51.907,HA,C,3062091648,HAWK11,1,1,73,2,1,1,225,2,1,0,0,12,1,225,2,1,-140096.97302420562,-4791964.090791549,4197845.999479771,3.01437,1.91422,-0.882614,-13.25,64.75,76.875,-0.0625,-6.10938,6.57812,-0.0175781,-0.0078125,0.015625,4,0,41.3975304250148,-91.6746117722596,10934.807391545057,-13.40085868861087,3.8436425457362073,8.596827542154763,208.04,8907.031340764672,11074.134321271986,150,True,12.2201424519801,False,164.50271681623843,164.58810611360087,False,30.89212594751033,False,False
2,1970-07-23 10:13:46.128111269,2025-09-11,2025-09-26 14:56:52.811,HA,C,2159232942,JASSM,3,113,76,2,2,1,225,9,2,0,1,26,0,0,0,0,-154104.77087576812,-4779770.864229049,4210716.028776646,-2.71064,-1.0108,0.752418,37.5,-59.625,-65.875,0.0,0.0,0.0,0.0,0.0,0.0,2,0,41.55438476361584,-91.84663569383974,9999.999742280545,155.95110547931563,-0.0030660371480157,0.0007645257942895,,8907.031340764672,11074.134321271986,150,2,2025-09-11,2025-09-26 14:56:52.703,HA,C,3062966514,HAWK11,1,1,73,2,1,1,225,2,1,0,0,12,1,225,2,1,-140106.58630545562,-4791915.863252486,4197902.077604771,3.02664,1.90913,-0.876958,-12.25,65.375,76.875,-0.234375,-6.25,6.65625,0.0234375,-0.0078125,0.0234375,4,0,41.39819420324222,-91.67474346205798,10938.523129464991,-13.310327272652945,3.481976866022344,9.081321090935354,208.223,8907.031340764672,11074.134321271986,150,True,12.14041161508315,False,163.9483111372206,164.43152291655886,False,31.612283715884278,False,False
2,1970-07-23 10:13:46.137385309,2025-09-11,2025-09-26 14:56:53.738,HA,C,2160306684,JASSM,3,113,76,2,2,1,225,9,2,0,1,26,0,0,0,0,-154071.03943045562,-4779824.680635299,4210656.573698521,-2.71064,-1.0108,0.752418,37.5,-59.625,-65.875,0.0,0.0,0.0,0.0,0.0,0.0,2,0,41.55366975321024,-91.84621099760714,10000.00017734692,155.9513871914157,-0.002283577071964,0.0007633758377254,,8907.031340764672,11074.134321271986,150,2,2025-09-11,2025-09-26 14:56:53.703,HA,C,3064199278,HAWK11,1,1,73,2,1,1,225,2,1,0,0,12,1,225,2,1,-140118.52575858062,-4791847.449189986,4197980.474089146,3.08263,1.88306,-0.883956,-10.625,66.25,76.75,-0.25,-6.51562,6.95312,0.0195312,0.00976562,0.0234375,4,0,41.399128321257706,-91.67490999629555,10941.17284378506,-12.285362381004989,3.6217721170301007,11.200701673371665,207.93,8907.031340764672,11074.134321271986,150,False,12.047285018659364,False,163.05031578752423,164.22945942090644,False,32.71948238183631,False,False
2,1970-07-23 10:13:46.147397625,2025-09-11,2025-09-26 14:56:54.739,HA,C,2161619034,JASSM,3,113,76,2,2,1,225,9,2,0,1,26,0,0,0,0,-154029.81189139312,-4779890.456025924,4210583.903776646,-2.71064,-1.0108,0.752418,37.5,-59.625,-65.875,0.0,0.0,0.0,0.0,0.0,0.0,2,0,41.55279583315074,-91.84569193463058,9999.999785751432,155.9517314940338,-0.0013272212843185,0.0007619654317427,,8907.031340764672,11074.134321271986,150,2,2025-09-11,2025-09-26 14:56:54.732,HA,C,3064954844,HAWK11,1,1,73,2,1,1,225,2,1,0,0,12,1,225,2,1,-140124.95153983062,-4791805.877900924,4198028.720182896,3.10698,1.86235,-0.886641,-10.0,64.75,78.75,-0.125,-6.70312,7.17188,0.0078125,0.0,0.0253906,4,0,41.39970018641952,-91.67500128632553,10944.047485778106,-11.51796236169758,3.587940171761784,11.725653859769052,207.014,8907.031340764672,11074.134321271986,150,False,11.963137222277888,False,162.521446725224,164.06473505761852,False,33.37841832285659,False,False
2,1970-07-23 10:13:46.158589256,2025-09-11,2025-09-26 14:56:55.858,HA,C,2162871734,JASSM,3,113,76,2,2,1,225,9,2,0,1,26,0,0,0,0,-153990.45837576812,-4779953.239229049,4210514.538542271,-2.71064,-1.0108,0.752418,37.5,-59.625,-65.875,0.0,0.0,0.0,0.0,0.0,0.0,2,0,41.551961658877616,-91.84519647992528,10000.002249762769,155.9520601313663,-0.0004143588568506,0.0007606280858325,,8907.031340764672,11074.134321271986,150,2,2025-09-11,2025-09-26 14:56:56.001,HA,C,3066943176,HAWK11,1,1,73,2,1,1,225,2,1,0,0,12,1,225,2,1,-140138.48864920562,-4791693.761689986,4198156.165495396,3.10957,1.82831,-0.894407,-6.5,67.5,77.375,-0.015625,-6.84375,7.23438,0.0351562,0.0117188,0.015625,4,0,41.40122510292655,-91.6752021848619,10945.73916658091,-10.220253496189216,3.7472201197587593,10.440803300382033,205.975,8907.031340764672,11074.134321271986,150,False,11.834673844004486,False,160.71326722981823,163.74162204289777,False,35.54449623142763,False,False
2,1970-07-23 10:13:46.169411285,2025-09-11,2025-09-26 14:56:56.941,HA,C,2164184084,JASSM,3,113,76,2,2,1,225,9,2,0,1,26,0,0,0,0,-153949.23083670562,-4780019.010713424,4210441.866667271,-2.71064,-1.0108,0.752418,37.5,-59.625,-65.875,0.0,0.0,0.0,0.0,0.0,0.0,2,0,41.55108774413044,-91.84467744578342,9999.999403417223,155.9524044032324,0.0005419874853549,0.0007592207442197,,8907.031340764672,11074.134321271986,150,2,2025-09-11,2025-09-26 14:56:56.813,HA,C,3067937342,HAWK11,1,1,73,2,1,1,225,2,1,0,0,12,1,225,2,1,-140143.32068045562,-4791637.586885299,4198220.593229771,-3.09557,1.81249,-0.899967,-4.875,67.375,78.0,-0.28125,-6.9375,7.34375,0.0625,0.00390625,0.015625,4,0,41.40199335145498,-91.67527954232249,10947.694060323423,-9.59982717215835,3.942695544641768,14.245348633826186,205.083,8907.031340764672,11074.134321271986,150,False,11.74225052305402,False,159.78465274718934,163.53094869212705,False,36.68439830365322,False,False
2,1970-07-23 10:13:46.180278065,2025-09-11,2025-09-26 14:56:58.027,HA,C,2165496434,JASSM,3,113,76,2,2,1,225,9,2,0,1,26,0,0,0,0,-153908.00329764312,-4780084.780244674,4210369.194792271,-2.71064,-1.0108,0.752513,37.5,-59.625,-65.875,0.0,0.0,0.0,0.0,0.0,0.0,2,0,41.55021383855984,-91.84415842637496,9999.997587060096,155.95504258218511,-0.0034910840671367,0.0007577777228237,,8907.031340764672,11074.134321271986,150,2,2025-09-11,2025-09-26 14:56:57.610,HA,C,3068772440,HAWK11,1,1,73,2,1,1,225,2,1,0,0,12,1,225,2,1,-140146.08239920562,-4791590.119111861,4198274.954557896,-3.05368,1.79179,-0.899392,-3.0,67.75,78.375,-0.15625,-6.84375,7.20312,0.015625,0.00976562,0.0273438,4,0,41.40264221078339,-91.67532912420444,10949.07985216454,-8.880747136805354,3.76809316077779,15.764943721906542,204.032,8907.031340764672,11074.134321271986,150,False,11.656240710591048,False,158.73855674151937,163.33519555032586,False,37.92617596133058,False,False
2,1970-07-23 10:13:46.191291086,2025-09-11,2025-09-26 14:56:59.129,HA,C,2166808788,JASSM,3,113,76,2,2,1,225,9,2,0,1,26,0,0,0,0,-153866.77575858062,-4780150.549775924,4210296.522917271,-2.71064,-1.0108,0.752513,37.5,-59.625,-65.875,0.0,0.0,0.0,0.0,0.0,0.0,2,0,41.54933993051359,-91.843639420946,10000.001593583662,155.955386823231,-0.0025347482488028,0.0007564128595321,,8907.031340764672,11074.134321271986,150,2,2025-09-11,2025-09-26 14:56:59.407,HA,C,3070959604,HAWK11,1,1,73,2,1,1,225,2,1,0,0,12,1,225,2,1,-140147.60193045562,-4791465.113252486,4198418.727995396,-3.09433,1.72199,-0.907541,0.625,66.25,81.0,-0.359375,-7.0625,7.45312,-0.0566406,0.0117188,0.00585938,4,0,41.40435611599692,-91.67539096226508,10953.65937992938,-6.357773339581119,3.833049416164421,10.461262395279832,201.588,8907.031340764672,11074.134321271986,150,False,11.521686058500537,False,156.60834161296094,162.93112432540718,False,40.44214803842847,False,False
2,1970-07-23 10:13:46.202374495,2025-09-11,2025-09-26 14:57:00.237,HA,C,2168121138,JASSM,3,113,76,2,2,1,225,9,2,0,1,26,0,0,0,0,-153825.54724295562,-4780216.317354049,4210223.847136021,-2.71064,-1.0108,0.752513,37.5,-59.625,-65.875,0.0,0.0,0.0,0.0,0.0,0.0,2,0,41.548466005522656,-91.84312041855564,9999.998052608342,155.9557310563143,-0.0015783957351204,0.0007550495561956,,8907.031340764672,11074.134321271986,150,2,2025-09-11,2025-09-26 14:57:00.418,HA,C,3072152604,HAWK11,1,1,73,2,1,1,225,2,1,0,0,12,1,225,2,1,-140145.42224295562,-4791396.045869674,4198497.819792271,3.13632,1.71422,-0.908596,2.75,68.25,79.5,0.015625,-6.85938,7.1875,0.00195312,0.0,0.00390625,4,0,41.4053012678595,-91.67538905651114,10955.23198958195,-6.077806032654824,3.8577406363789377,7.118929979857314,199.755,8907.031340764672,11074.134321271986,150,True,11.424250251507102,False,155.57039556597178,162.65970427062777,False,41.76985168657751,False,False
2,1970-07-23 10:13:46.213338226,2025-09-11,2025-09-26 14:57:01.333,HA,C,2169433488,JASSM,3,113,76,2,2,1,225,9,2,0,1,26,0,0,0,0,-153784.31970389312,-4780282.084932174,4210151.171354771,-2.71054,-1.0107,0.752513,37.5,-59.625,-65.875,0.0,0.0,0.0,0.0,0.0,0.0,2,0,41.547592077868686,-91.84260144183654,10000.000411812276,155.952433187464,-0.0022966683816701,0.0024919553879321,,8907.031340764672,11074.134321271986,150,2,2025-09-11,2025-09-26 14:57:01.611,HA,C,3073544436,HAWK11,1,1,73,2,1,1,225,2,1,0,0,12,1,225,2,1,-140141.30505545562,-4791316.367158736,4198589.852995396,-3.13766,1.70349,-0.903898,4.125,68.625,79.625,-0.0625,-6.48438,6.82812,-0.0175781,0.0,0.0253906,4,0,41.40639724086847,-91.67536770975434,10958.65211985287,-5.734338030078339,3.5442931584229784,7.18399306005027,198.19,8907.031340764672,11074.134321271986,150,True,11.320880733842296,False,154.83387999945234,162.34991861105436,False,42.8157385463137,False,False
2,1970-07-23 10:13:46.223367882,2025-09-11,2025-09-26 14:57:02.336,HA,C,2170686188,JASSM,3,113,76,2,2,1,225,9,2,0,1,26,0,0,0,0,-153744.96618826812,-4780344.860322799,4210081.798307896,-2.71054,-1.0107,0.752513,37.5,-59.625,-65.875,0.0,0.0,0.0,0.0,0.0,0.0,2,0,41.54675788351639,-91.8421060695986,9999.999799718216,155.95276173644854,-0.0013838005894751,0.0024905919320474,,8907.031340764672,11074.134321271986,150,2,2025-09-11,2025-09-26 14:57:01.907,HA,C,3073981868,HAWK11,1,1,73,2,1,1,225,2,1,0,0,12,1,225,2,1,-140139.64489920562,-4791290.576143111,4198619.487761021,-3.13699,1.69476,-0.906295,4.625,68.875,79.625,-0.296875,-6.82812,7.125,-0.0195312,0.0136719,0.00976562,4,0,41.40675100279586,-91.67535688723572,10959.40037476541,-5.410926163482436,3.644609725471618,6.849530129424455,197.97,8907.031340764672,11074.134321271986,150,True,11.253216075081419,False,154.57126009619932,162.19166327495657,False,43.23601137655184,False,False
2,1970-07-23 10:13:46.234912148,2025-09-11,2025-09-26 14:57:03.491,HA,C,2171998538,JASSM,3,113,76,2,2,1,225,9,2,0,1,26,0,0,0,0,-153703.73767264312,-4780410.623994674,4210009.120573521,-2.71054,-1.0107,0.752513,37.5,-59.625,-65.875,0.0,0.0,0.0,0.0,0.0,0.0,2,0,41.545883961360495,-91.84158711000988,9999.99962666271,155.95310592361386,-0.00042745746036,0.002489170879722,,8907.031340764672,11074.134321271986,150,2,2025-09-11,2025-09-26 14:57:03.609,HA,C,3075970200,HAWK11,1,1,73,2,1,1,225,2,1,0,0,12,1,225,2,1,-140130.69177420562,-4791175.079072799,4198752.698698521,2.93681,1.68124,-0.89527,5.625,69.25,80.25,-0.125,-6.54688,6.875,-0.181641,0.0,-0.00390625,4,0,41.40833885998137,-91.67529027533514,10963.738523410124,-5.001382425930195,2.9655592176353363,-5.7312257742935335,196.247,8907.031340764672,11074.134321271986,150,True,11.12981662362297,False,154.046319217316,161.7633683995022,False,44.18949721668143,False,False
2,1970-07-23 10:13:46.245433822,2025-09-11,2025-09-26 14:57:04.543,HA,C,2173251238,JASSM,3,113,76,2,2,1,225,9,2,0,1,26,0,0,0,0,-153664.38415701812,-4780473.397432174,4209939.745573521,-2.71054,-1.0107,0.752513,37.5,-59.625,-65.875,0.0,0.0,0.0,0.0,0.0,0.0,2,0,41.54504976088688,-91.84109176459926,10000.000835221845,155.9534344437089,0.000485411747417,0.0024878062564937,,8907.031340764672,11074.134321271986,150,2,2025-09-11,2025-09-26 14:57:04.501,HA,C,3077083666,HAWK11,1,1,73,2,1,1,225,2,1,0,0,12,1,225,2,1,-140125.89294608062,-4791110.569307174,4198826.966276646,2.84074,1.70924,-0.891626,4.375,69.875,80.125,-0.265625,-6.92188,7.17188,-0.00390625,0.0,-0.0371094,4,0,41.4092247879749,-91.67525548035356,10965.88772890276,-6.0252832710488,2.8746558961699376,-10.037711867368502,195.636,8907.031340764672,11074.134321271986,150,False,11.039608810424708,False,154.7402014582437,161.48317721062975,False,43.77372307713009,False,False
2,1970-07-23 10:13:46.256275055,2025-09-11,2025-09-26 14:57:05.627,HA,C,2174563582,JASSM,3,113,76,2,2,1,225,9,2,0,1,26,0,0,0,0,-153623.15661795562,-4780539.157197799,4209867.065886021,-2.71054,-1.0107,0.752609,37.5,-59.625,-65.875,0.0,0.0,0.0,0.0,0.0,0.0,2,0,41.54417584385358,-91.8405728455219,9999.99828376457,155.95607426963616,-0.0035506172352946,0.0024863379526458,,8907.031340764672,11074.134321271986,150,2,2025-09-11,2025-09-26 14:57:05.703,HA,C,3078435730,HAWK11,1,1,73,2,1,1,225,2,1,0,0,12,1,225,2,1,-140121.78552420562,-4791031.282197799,4198917.847136021,2.82463,1.76091,-0.877245,2.75,70.0,80.25,-0.0625,-6.57812,6.90625,0.0546875,0.0117188,0.0,4,0,41.41031064967828,-91.67523410993785,10967.798394354788,-8.002804656980674,2.3314221429522286,-8.759913662846273,194.732,8907.031340764672,11074.134321271986,150,True,10.937982199495938,False,155.61696667763653,161.15372329355822,False,43.22676780552742,False,False
2,1970-07-23 10:13:46.267290100,2025-09-11,2025-09-26 14:57:06.729,HA,C,2175875940,JASSM,3,113,76,2,2,1,225,9,2,0,1,26,0,0,0,0,-153581.92810233062,-4780604.918916549,4209794.384245396,-2.71054,-1.0107,0.752609,37.5,-59.625,-65.875,0.0,0.0,0.0,0.0,0.0,0.0,2,0,41.54330189972616,-91.84005392797522,10000.002022034836,155.9564184114679,-0.0025942604614321,0.0024849486671693,,8907.031340764672,11074.134321271986,150,2,2025-09-11,2025-09-26 14:57:06.860,HA,C,3078833396,HAWK11,1,1,73,2,1,1,225,2,1,0,0,12,1,225,2,1,-140120.94568045562,-4791007.191377486,4198945.388151646,2.85157,1.76571,-0.878683,2.25,70.25,80.25,-0.140625,-6.8125,7.15625,0.144531,0.00976562,0.00195312,4,0,41.41064002066052,-91.67523249365756,10968.252487973314,-8.162365326560424,2.4419763615146186,-7.011687583821867,194.427,8907.031340764672,11074.134321271986,150,True,10.869311677879745,False,155.89146192747177,160.98488275530275,False,43.12013014748119,False,False
2,1970-07-23 10:13:46.278330803,2025-09-11,2025-09-26 14:57:07.833,HA,C,2177188290,JASSM,3,113,76,2,2,1,225,9,2,0,1,26,0,0,0,0,-153540.70056326812,-4780670.676729049,4209721.702604771,-2.71054,-1.0107,0.752609,37.5,-59.625,-65.875,0.0,0.0,0.0,0.0,0.0,0.0,2,0,41.54242797623882,-91.83953503759676,10000.00207319036,155.95676252933492,-0.0016379286746442,0.0024835597587868,,8907.031340764672,11074.134321271986,150,2,2025-09-11,2025-09-26 14:57:07.816,HA,C,3080742194,HAWK11,1,1,73,2,1,1,225,2,1,0,0,12,1,225,2,1,-140117.93786795562,-4790894.311494674,4199074.460417271,3.0298,1.76398,-0.875424,1.875,70.75,80.875,-0.203125,-6.73438,7.07812,0.0214844,-0.00585938,0.015625,4,0,41.41218333516095,-91.67523600127323,10970.512854145923,-8.131046624018238,2.24882539851409,3.1251551321436413,194.121,8907.031340764672,11074.134321271986,150,True,10.747504432589004,False,156.09946613320142,160.5497024638237,False,43.347657058161026,False,False
2,1970-07-23 10:13:46.289351172,2025-09-11,2025-09-26 14:57:08.935,HA,C,2178500642,JASSM,3,113,76,2,2,1,225,9,2,0,1,26,0,0,0,0,-153499.47204764312,-4780736.434541549,4209649.019011021,-2.71054,-1.0107,0.752609,37.5,-59.625,-65.875,0.0,0.0,0.0,0.0,0.0,0.0,2,0,41.54155403730828,-91.83901614949906,10000.00362074114,155.95710663974236,-0.0006815813332342,0.0024821735365384,,8907.031340764672,11074.134321271986,150,2,2025-09-11,2025-09-26 14:57:08.812,HA,C,3082253326,HAWK11,1,1,73,2,1,1,225,2,1,0,0,12,1,225,2,1,-140115.20544608062,-4790804.888643111,4199176.399870396,3.04447,1.74663,-0.874944,2.625,71.125,81.25,-0.234375,-6.8125,7.07812,-0.0625,-0.0078125,-0.0078125,4,0,41.41340390272629,-91.67523460204612,10971.614344994712,-7.505921040463757,2.1214829171079024,3.226012642406637,194.084,8907.031340764672,11074.134321271986,150,True,10.640468264331162,False,155.70757782229424,160.1758830097896,False,44.11296299293383,False,False
2,1970-07-23 10:13:46.300350534,2025-09-11,2025-09-26 14:57:10.035,HA,C,2179812994,JASSM,3,113,76,2,2,1,225,9,2,0,1,26,0,0,0,0,-153458.24353201812,-4780802.190400924,4209576.333464146,-2.71054,-1.0107,0.752609,37.5,-59.625,-65.875,0.0,0.0,0.0,0.0,0.0,0.0,2,0,41.540680094397736,-91.83849727612434,10000.001948161522,155.95745073443908,0.0002747672999334,0.0024807861658923,,8907.031340764672,11074.134321271986,150,2,2025-09-11,2025-09-26 14:57:09.906,HA,C,3083247492,HAWK11,1,1,73,2,1,1,225,2,1,0,0,12,1,225,2,1,-140113.04528983062,-4790745.370088424,4199244.233854771,2.94294,1.75123,-0.871205,2.75,71.5,81.5,0.0,-6.85938,7.15625,-0.128906,-0.00390625,0.0,4,0,41.414216249835405,-91.67522959002164,10972.294665355976,-7.706515940238898,1.9367979753933915,-2.396418465069603,193.962,8907.031340764672,11074.134321271986,150,True,10.551607097675506,False,155.649414277787,159.8863661423806,False,44.45982537179474,False,False
2,1970-07-23 10:13:46.311111796,2025-09-11,2025-09-26 14:57:11.111,HA,C,2181125342,JASSM,3,113,76,2,2,1,225,9,2,0,1,26,0,0,0,0,-153417.01599295562,-4780867.944307174,4209503.647917271,-2.71054,-1.0107,0.752609,37.5,-59.625,-65.875,0.0,0.0,0.0,0.0,0.0,0.0,2,0,41.53980616047614,-91.83797842916294,10000.00138171388,155.95779480567288,0.0012311018160091,0.0024793949388911,,8907.031340764672,11074.134321271986,150,2,2025-09-11,2025-09-26 14:57:11.215,HA,C,3085036990,HAWK11,1,1,73,2,1,1,225,2,1,0,0,12,1,225,2,1,-140110.12927420562,-4790637.514619674,4199367.462370396,2.82224,1.78728,-0.861043,1.25,71.75,82.0,-0.296875,-6.84375,6.9375,-0.0664062,-0.0078125,-0.0136719,4,0,41.41569020999145,-91.67523243872722,10974.270643634203,-9.124381022421806,1.5910379737597666,-7.7825879172542844,194.048,8907.031340764672,11074.134321271986,150,True,10.434406015906905,False,156.44184560645925,159.44117599623218,False,44.11396586113326,False,False
2,1970-07-23 10:13:46.321131683,2025-09-11,2025-09-26 14:57:12.113,HA,C,2182378042,JASSM,3,113,76,2,2,1,225,9,2,0,1,26,0,0,0,0,-153377.66150076812,-4780930.707979049,4209434.265104771,-2.71054,-1.01061,0.752705,37.5,-59.625,-65.875,0.0,0.0,0.0,0.0,0.0,0.0,2,0,41.538971949392646,-91.83748316857216,10000.000202090525,155.95677163750696,-0.0045219306175151,-0.0012804305396442,,8907.031340764672,11074.134321271986,150,2,2025-09-11,2025-09-26 14:57:12.000,HA,C,3085991390,HAWK11,1,1,73,2,1,1,225,2,1,0,0,12,1,225,2,1,-140109.49646170562,-4790580.004854049,4199432.960417271,2.75752,1.80636,-0.853469,0.125,72.125,81.875,0.015625,-6.54688,6.76562,-0.0273438,0.00195312,-0.0078125,4,0,41.41647457245979,-91.67524497600414,10974.943050090802,-9.909358230634766,1.301240179466283,-10.683908944559144,194.121,8907.031340764672,11074.134321271986,150,False,10.349317727090478,False,157.03987477976585,159.15443687547815,False,43.800435733516935,False,False
