Subject_cm,Timestamp,SampleDate_cm,SampleTime_cm,Configuration_cm,Scenario_cm,DisTime_cm,MarkingTxt_cm,Application_cm,EntId_cm,Site_cm,ExerciseId_cm,ForceId_cm,Category_cm,Country_cm,Domain_cm,Kind_cm,Extra_cm,Specific_cm,Subcategory_cm,AltCategory_cm,AltCountry_cm,AltDomain_cm,AltKind_cm,ECEF_X_cm,ECEF_Y_cm,ECEF_Z_cm,OriPhi_cm,OriPsi_cm,OriTheta_cm,LinVelX_cm,LinVelY_cm,LinVelZ_cm,LinAccX_cm,LinAccY_cm,LinAccZ_cm,AngVelX_cm,AngVelY_cm,AngVelZ_cm,DrAlg_cm,Appearance_cm,Latitude_cm,Longitude_cm,Altitude_cm,Heading_cm,Pitch_cm,Roll_cm,CalibratedAirspeed_cm,CM_Altitude_Lead_cm,CM_Altitude_Wing_cm,CM_Airspeed_cm,Subject_ac,SampleDate_ac,SampleTime_ac,Configuration_ac,Scenario_ac,DisTime_ac,MarkingTxt_ac,Application_ac,EntId_ac,Site_ac,ExerciseId_ac,ForceId_ac,Category_ac,Country_ac,Domain_ac,Kind_ac,Extra_ac,Specific_ac,Subcategory_ac,AltCategory_ac,AltCountry_ac,AltDomain_ac,AltKind_ac,ECEF_X_ac,ECEF_Y_ac,ECEF_Z_ac,OriPhi_ac,OriPsi_ac,OriTheta_ac,LinVelX_ac,LinVelY_ac,LinVelZ_ac,LinAccX_ac,LinAccY_ac,LinAccZ_ac,AngVelX_ac,AngVelY_ac,AngVelZ_ac,DrAlg_ac,Appearance_ac,Latitude_ac,Longitude_ac,Altitude_ac,Heading_ac,Pitch_ac,Roll_ac,CalibratedAirspeed_ac,CM_Altitude_Lead_ac,CM_Altitude_Wing_ac,CM_Airspeed_ac,Bank_Angle_Condition,distance_nm,Distance_Condition,angle_between_vel,angle_between_pos,Cone_Condition,angle_between_pos_nose,Nose_Cone_Condition,Intercept_Criteria
2,1970-07-23 11:43:09.137370969,2025-09-17,2025-09-26 19:55:13.737,AA,D,3135393784,JASSM,3,128,76,2,2,1,225,9,2,0,1,26,0,0,0,0,-171330.01013358062,-4794094.945283736,4195226.004362583,-2.29541,0.0350898,-0.0800546,95.625,3.375,7.625,0.0,0.0,0.0,0.0,0.0,0.0,2,0,41.36113772422706,-92.04674931172336,12992.12611333108,83.87915846696026,-0.0051871875666513,0.006628859650881,,12143.848679953908,13948.384352032976,150,2,2025-09-17,2025-09-26 19:55:13.809,AA,D,3634034176,AMBUSH51,1,1,48,2,1,1,225,2,1,0,0,9,1,225,2,1,-152909.8158655591,-4786276.251686171,4204304.059412505,2.40903,2.65354,-0.474894,-94.3499,57.473,63.0111,-0.192954,-7.23042,6.63032,-0.00669431,0.00675465,0.000962275,4,0,41.47262428404798,-91.82983760276566,11936.320396449031,-52.98322255192826,0.5334191862702397,0.3031009144364768,196.528,12143.848679953908,13948.384352032976,150,True,11.839136419591801,False,133.14096969070235,151.69557765006104,False,75.14334859287457,False,False
2,1970-07-23 11:43:09.147407533,2025-09-17,2025-09-26 19:55:14.740,AA,D,3136690668,JASSM,3,128,76,2,2,1,225,9,2,0,1,26,0,0,0,0,-171226.04846365875,-4794091.324189986,4195234.330534458,-2.29541,0.0348022,-0.079767,95.625,3.375,7.625,0.0,0.0,0.0,0.0,0.0,0.0,2,0,41.36123754782793,-92.04550995977692,12992.125734486275,83.9032052673837,-0.002877705350658,0.005311999460212,,12143.848679953908,13948.384352032976,150,2,2025-09-17,2025-09-26 19:55:14.809,AA,D,3635227176,AMBUSH51,1,1,48,2,1,1,225,2,1,0,0,9,1,225,2,1,-153004.3671328842,-4786218.442012532,4204366.742330349,2.37975,2.65286,-0.473484,-94.4424,57.5813,63.0035,-0.100994,-7.14654,6.51153,-0.0372104,-0.00874786,-0.00877283,4,0,41.4733732687474,-91.83099040677708,11937.904569525892,-53.01246590115265,0.4512411310013984,-1.3923205262957106,196.761,12143.848679953908,13948.384352032976,150,True,11.772614137600524,False,133.1478253927719,151.2433360899531,False,75.58961868260344,False,False
2,1970-07-23 11:43:09.158446579,2025-09-17,2025-09-26 19:55:15.844,AA,D,3137944004,JASSM,3,128,76,2,2,1,225,9,2,0,1,26,0,0,0,0,-171125.57776053375,-4794087.824189986,4195242.376432896,-2.29541,0.0348022,-0.079767,95.625,3.375,7.625,0.0,0.0,0.0,0.0,0.0,0.0,2,0,41.36133400507276,-92.04431222109564,12992.127962336446,83.90399673892027,-0.0019735734283984,0.0053124389540157,,12143.848679953908,13948.384352032976,150,2,2025-09-17,2025-09-26 19:55:15.843,AA,D,3636459940,AMBUSH51,1,1,48,2,1,1,225,2,1,0,0,9,1,225,2,1,-153103.1736059341,-4786158.028004669,4204431.892875629,2.33726,2.65422,-0.470031,-94.7561,57.7407,62.5635,-0.09039,-7.19838,6.71587,-0.057388,0.00615128,-0.00939909,4,0,41.47415358162875,-91.83219512101758,11938.794606669531,-53.19774965267305,0.3527450057188431,-3.793011848160902,196.944,12143.848679953908,13948.384352032976,150,True,11.707660808173442,False,133.32160529590016,150.77636422238038,False,75.88657347978541,False,False
2,1970-07-23 11:43:09.168465691,2025-09-17,2025-09-26 19:55:16.846,AA,D,3139196900,JASSM,3,128,76,2,2,1,225,9,2,0,1,26,0,0,0,0,-171025.14221365875,-4794084.323213424,4195250.417448521,-2.29541,0.0348022,-0.079767,95.625,3.375,7.625,0.0,0.0,0.0,0.0,0.0,0.0,2,0,41.361430415223055,-92.04311489892446,12992.125508762769,83.90478793674446,-0.0010697586846558,0.0053128774441889,,12143.848679953908,13948.384352032976,150,2,2025-09-17,2025-09-26 19:55:16.709,AA,D,3637493874,AMBUSH51,1,1,48,2,1,1,225,2,1,0,0,9,1,225,2,1,-153185.03898974255,-4786108.305225052,4204485.446375686,2.3009,2.65566,-0.466843,-95.2775,57.4337,62.2831,-0.138057,-7.1651,6.59843,-0.0323564,0.000764619,-0.00083952,4,0,41.47479523640505,-91.83319317265494,11939.429840912137,-53.376034469372605,0.2684514406486811,-5.840022420521536,197.249,12143.848679953908,13948.384352032976,150,True,11.646201599918633,False,133.61584788847338,150.36408597377846,False,76.00417173117638,False,False
2,1970-07-23 11:43:09.179506860,2025-09-17,2025-09-26 19:55:17.950,AA,D,3140507954,JASSM,3,128,76,2,2,1,225,9,2,0,1,26,0,0,0,0,-170920.04455740875,-4794080.659150924,4195258.831511021,-2.29541,0.0348981,-0.079767,95.625,3.375,7.625,0.0,0.0,0.0,0.0,0.0,0.0,2,0,41.36153128929504,-92.04186199481474,12992.126662646418,83.90198591093481,-0.0042236075472756,0.0057511859333152,,12143.848679953908,13948.384352032976,150,2,2025-09-17,2025-09-26 19:55:18.076,AA,D,3639124304,AMBUSH51,1,1,48,2,1,1,225,2,1,0,0,9,1,225,2,1,-153315.88202289992,-4786029.722298104,4204569.774000534,2.26801,2.66689,-0.454693,-96.2282,56.8722,61.568,-0.056562,-7.29313,6.78829,-0.0120851,0.000358903,-0.00938452,4,0,41.47580693800042,-91.83478802994348,11939.888993897932,-54.271965265195846,0.1453482915235246,-7.441743046617113,197.995,12143.848679953908,13948.384352032976,150,True,11.574623416719703,False,134.204405898339,149.77428735449658,False,76.00579742803167,False,False
2,1970-07-23 11:43:09.191528227,2025-09-17,2025-09-26 19:55:19.152,AA,D,3141881748,JASSM,3,128,76,2,2,1,225,9,2,0,1,26,0,0,0,0,-170809.91736014312,-4794076.818330611,4195267.646940708,-2.29541,0.0348981,-0.079767,95.625,3.375,7.625,0.0,0.0,0.0,0.0,0.0,0.0,2,0,41.3616369757845,-92.04054912832316,12992.127721778385,83.90285346461177,-0.003232578560373,0.0057516056381017,,12143.848679953908,13948.384352032976,150,2,2025-09-17,2025-09-26 19:55:19.011,AA,D,3640237770,AMBUSH51,1,1,48,2,1,1,225,2,1,0,0,9,1,225,2,1,-153406.75611740362,-4785976.2009079885,4204627.268020994,2.28648,2.67244,-0.450286,-96.9963,56.2381,61.1701,-0.124932,-7.39924,6.81953,0.0764546,-0.00191311,-0.0112945,4,0,41.47649604536809,-91.8358953264128,11940.479632747612,-54.65415295615675,0.1547141615312934,-6.24544045381162,198.398,12143.848679953908,13948.384352032976,150,True,11.507914307865535,False,134.67124392841103,149.31267695475634,False,75.99851105027007,False,False
2,1970-07-23 11:43:09.202389212,2025-09-17,2025-09-26 19:55:20.238,AA,D,3143193744,JASSM,3,128,76,2,2,1,225,9,2,0,1,26,0,0,0,0,-170704.74402029935,-4794073.148408736,4195276.063932896,-2.29541,0.0348981,-0.0796711,95.625,3.375,7.625,0.0,0.0,0.0,0.0,0.0,0.0,2,0,41.36173789254028,-92.0392953154042,12992.125876292976,83.90779467778833,-0.0059276787626875,0.0057517100405823,,12143.848679953908,13948.384352032976,150,2,2025-09-17,2025-09-26 19:55:20.309,AA,D,3641788668,AMBUSH51,1,1,48,2,1,1,225,2,1,0,0,9,1,225,2,1,-153533.42276482392,-4785903.354690181,4204705.923773674,2.33087,2.68643,-0.445865,-97.6993,55.4183,60.8769,-0.133512,-7.45056,6.82659,0.00290139,-0.00639471,0.00910364,4,0,41.47743609372135,-91.83743811887648,11942.405049704978,-55.35666498150678,0.4626611410597244,-3.358929794962493,198.63,12143.848679953908,13948.384352032976,150,True,11.437779352751596,False,135.13101446661008,148.73338931614728,False,76.1136772481506,False,False
2,1970-07-23 11:43:09.213426712,2025-09-17,2025-09-26 19:55:21.342,AA,D,3144505070,JASSM,3,128,76,2,2,1,225,9,2,0,1,26,0,0,0,0,-170599.62439139312,-4794069.479463424,4195284.476042271,-2.29541,0.0348981,-0.0796711,95.625,3.375,7.625,0.0,0.0,0.0,0.0,0.0,0.0,2,0,41.36183874549536,-92.0380421393052,12992.126273095071,83.90862279086447,-0.0049817135975274,0.0057521782915745,,12143.848679953908,13948.384352032976,150,2,2025-09-17,2025-09-26 19:55:21.276,AA,D,3642941900,AMBUSH51,1,1,48,2,1,1,225,2,1,0,0,9,1,225,2,1,-153627.41234807912,-4785850.0419995785,4204763.975077611,2.30529,2.68608,-0.45025,-98.0896,54.9322,60.7395,-0.0617774,-7.35299,6.69436,-0.023156,0.00183196,0.00807791,4,0,41.47812709342147,-91.83858265078226,11944.982758429833,-55.17286355389484,0.6351727762744022,-4.831415676634941,198.85,12143.848679953908,13948.384352032976,150,True,11.373829607240175,False,135.38581764095463,148.2617814749245,False,76.32736045897508,False,False
2,1970-07-23 11:43:09.224445633,2025-09-17,2025-09-26 19:55:22.444,AA,D,3145816598,JASSM,3,128,76,2,2,1,225,9,2,0,1,26,0,0,0,0,-170494.488405065,-4794065.808564986,4195292.888151646,-2.29541,0.0348981,-0.0796711,95.625,3.375,7.625,0.0,0.0,0.0,0.0,0.0,0.0,2,0,41.36193959986612,-92.0367887649193,12992.126147635408,83.90945103663452,-0.0040356017542354,0.0057526459869849,,12143.848679953908,13948.384352032976,150,2,2025-09-17,2025-09-26 19:55:22.609,AA,D,3644532566,AMBUSH51,1,1,48,2,1,1,225,2,1,0,0,9,1,225,2,1,-153758.79153684902,-4785776.541570463,4204844.060341025,2.23308,2.69532,-0.435899,-98.9393,54.6254,59.7205,-0.198125,-7.15379,6.46985,-0.0592855,0.0056561,-0.0130776,4,0,41.47907973795748,-91.84018213237212,11948.803936227872,-56.08549468586501,0.3646482548013528,-8.7497647577027,198.924,12143.848679953908,13948.384352032976,150,True,11.304339869038218,False,135.9679588367807,147.65826443699729,False,76.35356303990112,False,False
2,1970-07-23 11:43:09.234485422,2025-09-17,2025-09-26 19:55:23.448,AA,D,3147009646,JASSM,3,128,76,2,2,1,225,9,2,0,1,26,0,0,0,0,-170398.85193045562,-4794062.467744674,4195300.539518833,-2.29541,0.0348981,-0.0796711,95.625,3.375,7.625,0.0,0.0,0.0,0.0,0.0,0.0,2,0,41.36203133473815,-92.0356486358956,12992.125599099229,83.91020444987032,-0.0031749753850133,0.0057530764120873,,12143.848679953908,13948.384352032976,150,2,2025-09-17,2025-09-26 19:55:23.543,AA,D,3645646032,AMBUSH51,1,1,48,2,1,1,225,2,1,0,0,9,1,225,2,1,-153852.35817795538,-4785725.38006884,4204899.344995308,2.17616,2.70332,-0.430408,-99.9182,53.8634,58.685,0.0985364,-7.26272,6.55197,-0.0324458,0.00204418,-0.0167373,4,0,41.47973932342061,-91.841320836214,11950.639403982572,-56.604744673582175,0.4230206996502001,-11.822359089391671,199.449,12143.848679953908,13948.384352032976,150,False,11.245501631605642,False,136.69140535265004,147.19746563921555,False,76.09192985423505,False,False
2,1970-07-23 11:43:09.244526906,2025-09-17,2025-09-26 19:55:24.452,AA,D,3148204018,JASSM,3,128,76,2,2,1,225,9,2,0,1,26,0,0,0,0,-170303.10608084625,-4794059.123018111,4195308.198698521,-2.29541,0.0348981,-0.0796711,95.625,3.375,7.625,0.0,0.0,0.0,0.0,0.0,0.0,2,0,41.36212315738012,-92.0345071997882,12992.127544937088,83.91095872822447,-0.0023133654164176,0.005753501495186,,12143.848679953908,13948.384352032976,150,2,2025-09-17,2025-09-26 19:55:24.576,AA,D,3646878796,AMBUSH51,1,1,48,2,1,1,225,2,1,0,0,9,1,225,2,1,-153955.74637429672,-4785670.412661421,4204958.489725735,2.14398,2.71708,-0.412576,-101.147,52.8951,57.2943,-0.185439,-7.23444,6.44567,-0.0451645,0.0108742,-0.0244647,4,0,41.480445711744565,-91.84257849284953,11952.296973237231,-57.83100927695244,0.1811563267188408,-13.349864679576203,199.669,12143.848679953908,13948.384352032976,150,False,11.184992302634619,False,137.6274989368201,146.70318144528676,False,75.65190116414178,False,False
2,1970-07-23 11:43:09.254408288,2025-09-17,2025-09-26 19:55:25.440,AA,D,3149397190,JASSM,3,128,76,2,2,1,225,9,2,0,1,26,0,0,0,0,-170207.45764334625,-4794055.780244674,4195315.848112583,-2.29541,0.0348981,-0.0796711,95.625,3.375,7.625,0.0,0.0,0.0,0.0,0.0,0.0,2,0,41.362214870585625,-92.03336692239226,12992.126377676368,83.91171224226171,-0.0014526330246056,0.0057539214677205,,12143.848679953908,13948.384352032976,150,2,2025-09-17,2025-09-26 19:55:25.509,AA,D,3647992262,AMBUSH51,1,1,48,2,1,1,225,2,1,0,0,9,1,225,2,1,-154051.54245576588,-4785621.035012903,4205011.133043661,2.11008,2.72765,-0.404484,-102.392,51.767,55.7347,-0.145252,-7.48415,6.77917,0.00275575,0.0107348,-0.00827557,4,0,41.481076411500176,-91.84374322203612,11952.96657031092,-58.5539067713703,0.2340878225379571,-15.054570011398026,199.486,12143.848679953908,13948.384352032976,150,False,11.12566920521304,False,138.65223588589234,146.2353812672623,False,75.09659950429894,False,False
2,1970-07-23 11:43:09.265427191,2025-09-17,2025-09-26 19:55:26.542,AA,D,3150708448,JASSM,3,128,76,2,2,1,225,9,2,0,1,26,0,0,0,0,-170102.34314139312,-4794052.104463424,4195324.254362583,-2.29541,0.0349939,-0.0796711,95.625,3.375,7.625,0.0,0.0,0.0,0.0,0.0,0.0,2,0,41.36231565894584,-92.03211379209068,12992.124735541953,83.90891031945019,-0.0046063369733672,0.0061917414947514,,12143.848679953908,13948.384352032976,150,2,2025-09-17,2025-09-26 19:55:26.476,AA,D,3649145494,AMBUSH51,1,1,48,2,1,1,225,2,1,0,0,9,1,225,2,1,-154150.49336723518,-4785571.766138817,4205063.607084388,2.12891,2.74491,-0.389172,-103.63,50.4167,54.2881,-0.134881,-7.59365,6.71444,0.0632553,0.00897465,-0.0252366,4,0,41.48170470473215,-91.84494566422497,11953.7925565216,-59.82019727931556,0.2428988151447169,-13.59878926835922,199.412,12143.848679953908,13948.384352032976,150,False,11.061482398998207,False,139.69772102452004,145.74254473967295,False,74.54317425246836,False,False
2,1970-07-23 11:43:09.275465564,2025-09-17,2025-09-26 19:55:27.546,AA,D,3151902286,JASSM,3,128,76,2,2,1,225,9,2,0,1,26,0,0,0,0,-170006.64148123687,-4794048.757783736,4195331.906706333,-2.29541,0.0349939,-0.0796711,95.625,3.375,7.625,0.0,0.0,0.0,0.0,0.0,0.0,2,0,41.36240740264971,-92.03097287434028,12992.125595178994,83.90966425950833,-0.0037451259466522,0.0061921102982351,,12143.848679953908,13948.384352032976,150,2,2025-09-17,2025-09-26 19:55:27.443,AA,D,3650298726,AMBUSH51,1,1,48,2,1,1,225,2,1,0,0,9,1,225,2,1,-154251.98403144453,-4785522.989926801,4205115.373520859,2.19372,2.75717,-0.374462,-104.674,49.5283,52.8441,-0.28585,-7.50297,6.68235,0.0633718,0.00778454,-0.00814449,4,0,41.48232479219949,-91.84617831583772,11954.499855923726,-60.87685802882406,0.1008055409865871,-9.62684346935485,199.412,12143.848679953908,13948.384352032976,150,True,11.000951485974424,False,140.58543535522435,145.2563993978089,False,74.14431115422836,False,False
2,1970-07-23 11:43:09.285506256,2025-09-17,2025-09-26 19:55:28.550,AA,D,3153154972,JASSM,3,128,76,2,2,1,225,9,2,0,1,26,0,0,0,0,-169906.22229178375,-4794045.244111861,4195339.936003208,-2.29541,0.0349939,-0.0796711,95.625,3.375,7.625,0.0,0.0,0.0,0.0,0.0,0.0,2,0,41.36250366685143,-92.02977571346104,12992.12604932404,83.91045536757085,-0.0028414618459243,0.0061925074805888,,12143.848679953908,13948.384352032976,150,2,2025-09-17,2025-09-26 19:55:28.476,AA,D,3651531492,AMBUSH51,1,1,48,2,1,1,225,2,1,0,0,9,1,225,2,1,-154359.90031525696,-4785472.514414487,4205168.978150424,2.24309,2.76695,-0.373412,-105.418,48.4012,52.2449,-0.231794,-7.52123,6.69929,0.0430153,0.00432036,-0.0137371,4,0,41.48296614740659,-91.84748849949,11955.54454000471,-61.29049632336555,0.4268081580538816,-6.595096118637195,199.559,12143.848679953908,13948.384352032976,150,True,10.93736341990288,False,141.2139356191158,144.74011120989053,False,74.02731273660294,False,False
2,1970-07-23 11:43:09.296387303,2025-09-17,2025-09-26 19:55:29.638,AA,D,3154407700,JASSM,3,128,76,2,2,1,225,9,2,0,1,26,0,0,0,0,-169805.7998064322,-4794041.729463424,4195347.963346958,-2.29541,0.0349939,-0.0795753,95.625,3.375,7.625,0.0,0.0,0.0,0.0,0.0,0.0,2,0,41.36259991190436,-92.02857851012531,12992.124794473772,83.91535915809547,-0.0055793499598366,0.0061926250736222,,12143.848679953908,13948.384352032976,150,2,2025-09-17,2025-09-26 19:55:29.543,AA,D,3652804024,AMBUSH51,1,1,48,2,1,1,225,2,1,0,0,9,1,225,2,1,-154473.21150534248,-4785420.884311476,4205224.058741409,2.28206,2.77538,-0.369733,-105.833,47.7537,51.4975,-0.110326,-7.34288,6.71118,0.0370876,-0.00628652,-0.00122235,4,0,41.483623278735735,-91.8488636805097,11957.397113124578,-61.75859307031644,0.5968402772832707,-4.191654487103042,199.412,12143.848679953908,13948.384352032976,150,True,10.873127370910552,False,141.68834543032915,144.20382170559012,False,74.08921769651613,False,False
2,1970-07-23 11:43:09.306465089,2025-09-17,2025-09-26 19:55:30.646,AA,D,3155660204,JASSM,3,128,76,2,2,1,225,9,2,0,1,26,0,0,0,0,-169705.39514334625,-4794038.214814986,4195355.988737583,-2.29541,0.0349939,-0.0795753,95.625,3.375,7.625,0.0,0.0,0.0,0.0,0.0,0.0,2,0,41.3626961275613,-92.02738151599765,12992.126073972922,83.91615015896566,-0.0046758181402062,0.0061930773501058,,12143.848679953908,13948.384352032976,150,2,2025-09-17,2025-09-26 19:55:30.810,AA,D,3654315156,AMBUSH51,1,1,48,2,1,1,225,2,1,0,0,9,1,225,2,1,-154607.38989468658,-4785360.506191403,4205288.752389101,2.28788,2.77642,-0.369166,-106.171,47.0473,51.2644,-0.106604,-7.44245,6.74448,0.00565194,0.00668599,-0.00725607,4,0,41.484393300074096,-91.85049185446086,11960.317450595654,-61.82198361241266,0.6147332596409399,-3.837386734227656,199.596,12143.848679953908,13948.384352032976,150,True,10.806035520264011,False,142.00954517300923,143.59405376392348,False,74.3731937080945,False,False
2,1970-07-23 11:43:09.317485214,2025-09-17,2025-09-26 19:55:31.748,AA,D,3156913756,JASSM,3,128,76,2,2,1,225,9,2,0,1,26,0,0,0,0,-169604.906373815,-4794034.695283736,4195364.019987583,-2.29541,0.0349939,-0.0795753,95.625,3.375,7.625,0.0,0.0,0.0,0.0,0.0,0.0,2,0,41.36279241703897,-92.026183516467,12992.125933037049,83.91694182574616,-0.0037715294783202,0.0061935356816758,,12143.848679953908,13948.384352032976,150,2,2025-09-17,2025-09-26 19:55:31.609,AA,D,3655269554,AMBUSH51,1,1,48,2,1,1,225,2,1,0,0,9,1,225,2,1,-154691.8075210484,-4785322.904444177,4205329.1535001,2.29177,2.77906,-0.362992,-106.444,46.9425,50.9844,-0.18998,-7.2457,6.57089,-0.0010559,0.00133678,-0.014767,4,0,41.48487342410141,-91.85151608225112,11962.453699035055,-62.17299780376761,0.4659684883066105,-3.5634891428057247,199.303,12143.848679953908,13948.384352032976,150,True,10.748152335486532,False,142.18370108268346,143.14309919426796,False,74.65128122903431,False,False
2,1970-07-23 11:43:09.327527489,2025-09-17,2025-09-26 19:55:32.752,AA,D,3158166562,JASSM,3,128,76,2,2,1,225,9,2,0,1,26,0,0,0,0,-169504.47741873687,-4794031.176729049,4195372.045378208,-2.29541,0.0349939,-0.0795753,95.625,3.375,7.625,0.0,0.0,0.0,0.0,0.0,0.0,2,0,41.3628886361001,-92.0249862269716,12992.125919384982,83.9177330248353,-0.0028677795163449,0.0061939930939341,,12143.848679953908,13948.384352032976,150,2,2025-09-17,2025-09-26 19:55:32.643,AA,D,3656502320,AMBUSH51,1,1,48,2,1,1,225,2,1,0,0,9,1,225,2,1,-154802.74295430546,-4785274.016941047,4205381.533110202,2.28666,2.77861,-0.358502,-106.786,46.8559,50.39,-0.026429,-6.98017,6.37661,0.0032863,0.00073341,0.00101013,4,0,41.48549641669772,-91.8528618662221,11965.012297603673,-62.33920638449011,0.2685799027450167,-3.866848317437365,199.046,12143.848679953908,13948.384352032976,150,True,10.686354324834433,False,142.46177562156387,142.6007509876219,False,74.91945192643882,False,False
2,1970-07-23 11:43:09.338387485,2025-09-17,2025-09-26 19:55:33.838,AA,D,3159418676,JASSM,3,128,76,2,2,1,225,9,2,0,1,26,0,0,0,0,-169404.10388358062,-4794027.659150924,4195380.064909458,-2.29541,0.0349939,-0.0795753,95.625,3.375,7.625,0.0,0.0,0.0,0.0,0.0,0.0,2,0,41.36298478568975,-92.02378959506224,12992.125641555682,83.91852379089006,-0.001964529007843,0.0061944463336383,,12143.848679953908,13948.384352032976,150,2,2025-09-17,2025-09-26 19:55:33.944,AA,D,3658053218,AMBUSH51,1,1,48,2,1,1,225,2,1,0,0,9,1,225,2,1,-154941.9416883945,-4785213.052826188,4205445.99364542,2.29009,2.7817,-0.351714,-107.247,46.7394,49.6736,-0.161198,-7.02138,6.55246,-0.00967165,-0.00601188,-0.00897673,4,0,41.48626733208053,-91.854550408364,11966.418351452758,-62.73285910110996,0.1132369173189504,-3.610070010060058,198.63,12143.848679953908,13948.384352032976,150,True,10.62064147997487,False,142.81097073642135,141.95999391466233,False,75.21515317195261,False,False
2,1970-07-23 11:43:09.349406153,2025-09-17,2025-09-26 19:55:34.940,AA,D,3160729680,JASSM,3,128,76,2,2,1,225,9,2,0,1,26,0,0,0,0,-169299.00964529935,-4794023.975557174,4195388.460417271,-2.29541,0.0350898,-0.0795753,95.625,3.375,7.625,0.0,0.0,0.0,0.0,0.0,0.0,2,0,41.36308543937472,-92.02253668040508,12992.126923832298,83.91572167893398,-0.0051184227567399,0.0066317706824989,,12143.848679953908,13948.384352032976,150,2,2025-09-17,2025-09-26 19:55:34.976,AA,D,3659285984,AMBUSH51,1,1,48,2,1,1,225,2,1,0,0,9,1,225,2,1,-155052.31816057925,-4785165.09168059,4205496.140290962,2.29302,2.78001,-0.344764,-107.625,46.67,49.0713,-0.0781221,-6.84181,6.17812,0.0199602,-0.0070605,0.00988387,4,0,41.48686982493176,-91.85588920481416,11966.37504165169,-62.952222274080384,-0.2306197357174105,-3.4748893401449013,198.863,12143.848679953908,13948.384352032976,150,True,10.558355529547757,False,143.09444316730418,141.4016220721155,False,75.49332820095918,False,False
2,1970-07-23 11:43:09.359445722,2025-09-17,2025-09-26 19:55:35.944,AA,D,3161983284,JASSM,3,128,76,2,2,1,225,9,2,0,1,26,0,0,0,0,-169198.51648123687,-4794020.451143111,4195396.487761021,-2.29541,0.0350898,-0.0795753,95.625,3.375,7.625,0.0,0.0,0.0,0.0,0.0,0.0,2,0,41.36318168196937,-92.02133861619907,12992.127039214858,83.91651339456413,-0.0042140961411066,0.0066321710583489,,12143.848679953908,13948.384352032976,150,2,2025-09-17,2025-09-26 19:55:35.977,AA,D,3660478982,AMBUSH51,1,1,48,2,1,1,225,2,1,0,0,9,1,225,2,1,-155160.9036100569,-4785117.843803157,4205544.855600766,2.30017,2.78179,-0.33975,-108.012,46.9216,48.3771,-0.0419186,-7.04955,6.30675,0.00614088,-0.00188398,-0.00329878,4,0,41.48745874986993,-91.85720632670652,11964.83899044463,-63.22453574589012,-0.3639282410483619,-3.0295284907561038,199.229,12143.848679953908,13948.384352032976,150,True,10.499120329332134,False,143.32603389029973,140.85210500496382,False,75.81625726780533,False,False
2,1970-07-23 11:43:09.368904204,2025-09-17,2025-09-26 19:55:36.890,AA,D,3163057760,JASSM,3,128,76,2,2,1,225,9,2,0,1,26,0,0,0,0,-169112.3828142447,-4794017.429658736,4195403.366667271,-2.29541,0.0350898,-0.0795753,95.625,3.375,7.625,0.0,0.0,0.0,0.0,0.0,0.0,2,0,41.36326415700543,-92.02031174120629,12992.126581971515,83.9171919845967,-0.0034389898222819,0.0066325087412138,,12143.848679953908,13948.384352032976,150,2,2025-09-17,2025-09-26 19:55:36.942,AA,D,3661632214,AMBUSH51,1,1,48,2,1,1,225,2,1,0,0,9,1,225,2,1,-155265.55684964953,-4785072.683360029,4205591.238043128,2.28698,2.78768,-0.338653,-108.39,46.4975,48.2221,-0.148533,-7.49876,6.82254,-0.0228626,0.00158853,-0.00576221,4,0,41.488020257071845,-91.85847562825464,11963.055107827056,-63.493805961362206,-0.181471189453087,-3.672095732110673,200.158,12143.848679953908,13948.384352032976,150,True,10.447153392169092,False,143.56622126070047,140.33833731075495,False,76.08830331224539,False,False
2,1970-07-23 11:43:09.377407771,2025-09-17,2025-09-26 19:55:37.740,AA,D,3164131676,JASSM,3,128,76,2,2,1,225,9,2,0,1,26,0,0,0,0,-169026.2941911978,-4794014.408174361,4195410.241667271,-2.29541,0.0350898,-0.0795753,95.625,3.375,7.625,0.0,0.0,0.0,0.0,0.0,0.0,2,0,41.36334658705819,-92.01928540129606,12992.125401309282,83.9178702221432,-0.0026642885820474,0.0066328535284238,,12143.848679953908,13948.384352032976,150,2,2025-09-17,2025-09-26 19:55:37.643,AA,D,3662467314,AMBUSH51,1,1,48,2,1,1,225,2,1,0,0,9,1,225,2,1,-155341.58733824323,-4785040.145419292,4205624.827798864,2.27582,2.79144,-0.338332,-108.625,46.0726,48.1257,-0.16134,-7.70375,6.83964,-0.0132107,0.00451593,0.00305951,4,0,41.48842584604295,-91.8593976833548,11962.197205783492,-63.650425848386526,-0.049021851130638,-4.239681430987021,200.195,12143.848679953908,13948.384352032976,150,True,10.40011353150628,False,143.75531288416005,139.91733984093258,False,76.31815448346345,False,False
2,1970-07-23 11:43:09.388505597,2025-09-17,2025-09-26 19:55:38.850,AA,D,3165323720,JASSM,3,128,76,2,2,1,225,9,2,0,1,26,0,0,0,0,-168930.73584158844,-4794011.053682174,4195417.872526646,-2.29541,0.0350898,-0.0795753,95.625,3.375,7.625,0.0,0.0,0.0,0.0,0.0,0.0,2,0,41.36343807488422,-92.01814616149596,12992.126148814838,83.91862306877489,-0.0018043704907568,0.006633237424778,,12143.848679953908,13948.384352032976,150,2,2025-09-17,2025-09-26 19:55:38.709,AA,D,3663739846,AMBUSH51,1,1,48,2,1,1,225,2,1,0,0,9,1,225,2,1,-155456.8719993203,-4784991.43931564,4205675.825949537,2.27442,2.79981,-0.335124,-108.824,45.2113,48.1045,-0.122081,-7.91358,6.6643,0.0109512,0.00571643,-0.0133272,4,0,41.489037510765655,-91.86079556789652,11962.597980559589,-64.10007789471229,0.1459936460329465,-4.161687828964904,199.412,12143.848679953908,13948.384352032976,150,True,10.344054374186802,False,144.0215756678862,139.34093805050753,False,76.62208886104055,False,False
2,1970-07-23 11:43:09.396505583,2025-09-17,2025-09-26 19:55:39.650,AA,D,3166397986,JASSM,3,128,76,2,2,1,225,9,2,0,1,26,0,0,0,0,-168844.61902029935,-4794008.030244674,4195424.747526646,-2.29541,0.0350898,-0.0794794,95.625,3.375,7.625,0.0,0.0,0.0,0.0,0.0,0.0,2,0,41.36352050313051,-92.01711948034738,12992.125806388784,83.9234141590469,-0.0046710290042997,0.0066333682683539,,12143.848679953908,13948.384352032976,150,2,2025-09-17,2025-09-26 19:55:39.642,AA,D,3664853312,AMBUSH51,1,1,48,2,1,1,225,2,1,0,0,9,1,225,2,1,-155559.29009501458,-4784949.257548377,4205720.576368798,2.27461,2.80297,-0.331283,-108.98,44.6149,47.7101,-0.174545,-7.42349,6.49652,0.00870001,0.00103302,0.000452529,4,0,41.48957066234871,-91.862037037623,11964.426897226702,-64.37775781038503,0.1150187595774393,-4.092406707686311,198.789,12143.848679953908,13948.384352032976,150,True,10.294203140064424,False,144.32224921514288,138.8236135856975,False,76.83657812827647,False,False
2,1970-07-23 11:43:09.407364519,2025-09-17,2025-09-26 19:55:40.736,AA,D,3167591540,JASSM,3,128,76,2,2,1,225,9,2,0,1,26,0,0,0,0,-168748.93963797516,-4794004.669893111,4195432.386198521,-2.29541,0.0350898,-0.0794794,95.625,3.375,7.625,0.0,0.0,0.0,0.0,0.0,0.0,2,0,41.36361208241527,-92.01597879220536,12992.127568715146,83.92416796537144,-0.0038100226269442,0.0066338115014141,,12143.848679953908,13948.384352032976,150,2,2025-09-17,2025-09-26 19:55:40.808,AA,D,3666245142,AMBUSH51,1,1,48,2,1,1,225,2,1,0,0,9,1,225,2,1,-155685.82532336042,-4784897.727148342,4205775.400136624,2.29141,2.806,-0.326928,-109.267,44.1758,47.3355,-0.105375,-7.22995,6.51387,0.0165418,0.000254873,-0.0028577,4,0,41.49022272923671,-91.86357064567856,11967.122303287895,-64.67201451402751,0.0591649590697875,-3.074166970637086,198.826,12143.848679953908,13948.384352032976,150,True,10.237808872161853,False,144.6089226257191,138.20072532277928,False,77.1717676535367,False,False
2,1970-07-23 11:43:09.416425383,2025-09-17,2025-09-26 19:55:41.642,AA,D,3168723364,JASSM,3,128,76,2,2,1,225,9,2,0,1,26,0,0,0,0,-168658.2086809439,-4794001.481416549,4195439.628386021,-2.29541,0.0350898,-0.0794794,95.625,3.375,7.625,0.0,0.0,0.0,0.0,0.0,0.0,2,0,41.36369891668379,-92.0148970969661,12992.125811665666,83.92488278840793,-0.0029935469118172,0.0066342336276001,,12143.848679953908,13948.384352032976,150,2,2025-09-17,2025-09-26 19:55:41.509,AA,D,3667080242,AMBUSH51,1,1,48,2,1,1,225,2,1,0,0,9,1,225,2,1,-155763.13173975018,-4784866.49191826,4205808.559267638,2.29461,2.80638,-0.321596,-109.488,44.035,47.1438,-0.165442,-6.95059,6.42377,0.00416015,-0.00179867,0.00287226,4,0,41.490617364901055,-91.86450751881112,11968.652755898616,-64.9053137185801,-0.1390741442754158,-2.884276818837175,198.753,12143.848679953908,13948.384352032976,150,True,10.190881742701084,False,144.75178628130473,137.7516939798299,False,77.47815087381568,False,False
2,1970-07-23 11:43:09.425464394,2025-09-17,2025-09-26 19:55:42.546,AA,D,3169799116,JASSM,3,128,76,2,2,1,225,9,2,0,1,26,0,0,0,0,-168571.97247488922,-4793998.451143111,4195446.511198521,-2.29541,0.0350898,-0.0794794,95.625,3.375,7.625,0.0,0.0,0.0,0.0,0.0,0.0,2,0,41.36378143427607,-92.01386898541632,12992.127394162437,83.92556220256544,-0.002217519377889,0.0066346292895763,,12143.848679953908,13948.384352032976,150,2,2025-09-17,2025-09-26 19:55:42.576,AA,D,3668352774,AMBUSH51,1,1,48,2,1,1,225,2,1,0,0,9,1,225,2,1,-155880.5622294877,-4784819.280112319,4205858.308684446,2.292,2.81015,-0.319985,-109.873,43.8356,46.8032,-0.0223667,-7.34598,6.70342,0.00487795,0.00793227,-0.0060951,4,0,41.4912112295485,-91.86593058364714,11970.215498096528,-65.11568925583211,-0.0554765319773329,-2.965278481819462,198.643,12143.848679953908,13948.384352032976,150,True,10.140970927631216,False,144.9908412035899,137.17037824560447,False,77.82127843219581,False,False
2,1970-07-23 11:43:09.434527222,2025-09-17,2025-09-26 19:55:43.452,AA,D,3170930226,JASSM,3,128,76,2,2,1,225,9,2,0,1,26,0,0,0,0,-168481.29870779935,-4793995.263643111,4195453.746550083,-2.29541,0.0351857,-0.0794794,95.625,3.375,7.625,0.0,0.0,0.0,0.0,0.0,0.0,2,0,41.36386818479621,-92.01278796682554,12992.126470359468,83.92264658993535,-0.0055010284514375,0.0070713786806101,,12143.848679953908,13948.384352032976,150,2,2025-09-17,2025-09-26 19:55:43.476,AA,D,3669426472,AMBUSH51,1,1,48,2,1,1,225,2,1,0,0,9,1,225,2,1,-155978.4353681786,-4784780.15920466,4205899.520012724,2.28559,2.80858,-0.313715,-110.176,43.7437,46.4865,-0.115437,-6.95009,6.28217,-0.052095,-0.00380853,-0.00975695,4,0,41.49170311435552,-91.86711657625123,11971.536289813395,-65.31372098323337,-0.3667299663871641,-3.3596246116607604,198.606,12143.848679953908,13948.384352032976,150,True,10.092655759871779,False,145.17689795325302,136.64256545999334,False,78.16466488114153,False,False
2,1970-07-23 11:43:09.444403409,2025-09-17,2025-09-26 19:55:44.440,AA,D,3172063638,JASSM,3,128,76,2,2,1,225,9,2,0,1,26,0,0,0,0,-168390.44037039703,-4793992.068330611,4195460.996550083,-2.29541,0.0351857,-0.0794794,95.625,3.375,7.625,0.0,0.0,0.0,0.0,0.0,0.0,2,0,41.36395510904721,-92.01170474545074,12992.12637942107,83.92336242512383,-0.0046834074071378,0.0070717476909735,,12143.848679953908,13948.384352032976,150,2,2025-09-17,2025-09-26 19:55:44.375,AA,D,3670500172,AMBUSH51,1,1,48,2,1,1,225,2,1,0,0,9,1,225,2,1,-156078.8728626058,-4784740.252297279,4205941.1168946605,2.19777,2.80762,-0.309957,-110.662,43.5603,45.8118,-0.074474,-7.06861,6.50129,-0.161185,-0.0017425,-0.00851899,4,0,41.49220177068236,-91.8683335680656,11971.976598167672,-65.4320092676913,-0.5535379096566156,-8.40747036969406,198.863,12143.848679953908,13948.384352032976,150,True,10.044547050189353,False,145.53326563284773,136.10170177296092,False,78.35250650346906,False,False
2,1970-07-23 11:43:09.455721506,2025-09-17,2025-09-26 19:55:45.572,AA,D,3173138276,JASSM,3,128,76,2,2,1,225,9,2,0,1,26,0,0,0,0,-168304.29358084625,-4793989.038057174,4195467.869596958,-2.29541,0.0351857,-0.0794794,95.625,3.375,7.625,0.0,0.0,0.0,0.0,0.0,0.0,2,0,41.36403751350773,-92.0106776931916,12992.126457786,83.92404114270079,-0.0039081854175785,0.0070720947370658,,12143.848679953908,13948.384352032976,150,2,2025-09-17,2025-09-26 19:55:45.576,AA,D,3671931770,AMBUSH51,1,1,48,2,1,1,225,2,1,0,0,9,1,225,2,1,-156212.4673197514,-4784688.393009029,4205994.531164905,2.00913,2.81942,-0.297206,-111.977,42.5163,43.8261,0.0310495,-7.14522,6.446,-0.144361,0.00360879,-0.0360702,4,0,41.49284483865616,-91.86995187136684,11971.412046067471,-66.40665703846301,-0.5993750735408381,-19.00426050691435,199.681,12143.848679953908,13948.384352032976,150,False,9.994381206391353,False,146.68036690324288,135.4543831299231,False,77.85760623533146,False,False
2,1970-07-23 11:43:09.462502906,2025-09-17,2025-09-26 19:55:46.250,AA,D,3174213252,JASSM,3,128,76,2,2,1,225,9,2,0,1,26,0,0,0,0,-168218.11944754547,-4793986.005830611,4195474.744596958,-2.29541,0.0351857,-0.0794794,95.625,3.375,7.625,0.0,0.0,0.0,0.0,0.0,0.0,2,0,41.36411993930113,-92.0096503127599,12992.127441907996,83.92472007826096,-0.003132717226677,0.0070724462153479,,12143.848679953908,13948.384352032976,150,2,2025-09-17,2025-09-26 19:55:46.208,AA,D,3672687336,AMBUSH51,1,1,48,2,1,1,225,2,1,0,0,9,1,225,2,1,-156283.7068938374,-4784661.623867406,4206021.612076449,1.92728,2.83014,-0.278692,-112.935,41.8224,41.9591,0.0751151,-7.06394,6.27488,-0.104747,0.00601812,-0.0399963,4,0,41.49317302120217,-91.87081450294596,11970.241192572192,-67.5795698282281,-0.9121811307992422,-23.503426164549705,199.571,12143.848679953908,13948.384352032976,150,False,9.952096847381709,False,147.62264406819097,135.02130001757308,False,77.35325263779961,False,False
2,1970-07-23 11:43:09.472387283,2025-09-17,2025-09-26 19:55:47.238,AA,D,3175404152,JASSM,3,128,76,2,2,1,225,9,2,0,1,26,0,0,0,0,-168122.65268118805,-4793982.645479049,4195482.358854771,-2.29541,0.0351857,-0.0794794,95.625,3.375,7.625,0.0,0.0,0.0,0.0,0.0,0.0,2,0,41.36421123534799,-92.0085121416699,12992.125625615032,83.92547223017984,-0.0022736271753757,0.0070728281692505,,12143.848679953908,13948.384352032976,150,2,2025-09-17,2025-09-26 19:55:47.175,AA,D,3673840568,AMBUSH51,1,1,48,2,1,1,225,2,1,0,0,9,1,225,2,1,-156393.83085139285,-4784621.908072564,4206060.304510251,1.84002,2.84598,-0.24993,-114.579,40.3952,38.6721,-0.137887,-7.04313,6.3204,-0.0739371,0.00448472,-0.0332968,4,0,41.49364903604145,-91.87214734737036,11965.635989294247,-69.37672777882261,-1.4190743982975773,-28.229458187261848,199.718,12143.848679953908,13948.384352032976,150,False,9.900664282863005,False,149.32146381203967,134.4359457897921,False,76.24258143025894,False,False
2,1970-07-23 11:43:09.481445147,2025-09-17,2025-09-26 19:55:48.144,AA,D,3176477892,JASSM,3,128,76,2,2,1,225,9,2,0,1,26,0,0,0,0,-168036.57916434234,-4793979.615205611,4195489.224089146,-2.29541,0.0351857,-0.0794794,95.625,3.375,7.625,0.0,0.0,0.0,0.0,0.0,0.0,2,0,41.3642935432871,-92.00748595601009,12992.127018006491,83.92615037852973,-0.0014990651807114,0.0070731769221289,,12143.848679953908,13948.384352032976,150,2,2025-09-17,2025-09-26 19:55:48.009,AA,D,3674834734,AMBUSH51,1,1,48,2,1,1,225,2,1,0,0,9,1,225,2,1,-156490.0509201055,-4784588.681840945,4206091.093440696,1.77731,2.86417,-0.222513,-116.201,38.9418,35.2024,-0.0382794,-7.45433,6.77381,-0.0584616,0.0152039,-0.0416816,4,0,41.49403580370584,-91.87331135052806,11958.68090684711,-71.21485852138846,-1.764860573673966,-31.52812129126744,200.598,12143.848679953908,13948.384352032976,150,False,9.854216419032413,False,151.0695127175162,133.91979399378488,False,75.00607283730864,False,False
2,1970-07-23 11:43:09.490956055,2025-09-17,2025-09-26 19:55:49.095,AA,D,3177552722,JASSM,3,128,76,2,2,1,225,9,2,0,1,26,0,0,0,0,-167950.4151781363,-4793976.581025924,4195496.095182896,-2.29541,0.0351857,-0.0793835,95.625,3.375,7.625,0.0,0.0,0.0,0.0,0.0,0.0,2,0,41.36437592369685,-92.00645868946825,12992.127534169436,83.9309418391979,-0.0043653335741517,0.0070733385423458,,12143.848679953908,13948.384352032976,150,2,2025-09-17,2025-09-26 19:55:48.975,AA,D,3675987966,AMBUSH51,1,1,48,2,1,1,225,2,1,0,0,9,1,225,2,1,-156602.59271343928,-4784552.556991591,4206122.550375619,1.70308,2.89024,-0.183039,-118.042,36.4688,30.7167,-0.120508,-8.05747,6.7546,-0.0506178,0.0174094,-0.0410054,4,0,41.49444115161764,-91.87467174921252,11947.37642527431,-73.86813088312904,-2.2434637791661505,-35.387513065531586,201.441,12143.848679953908,13948.384352032976,150,False,9.804072705851818,False,153.44041873996787,133.3534624220647,False,73.1876168017808,False,False
2,1970-07-23 11:43:09.501705262,2025-09-17,2025-09-26 19:55:50.170,AA,D,3178685860,JASSM,3,128,76,2,2,1,225,9,2,0,1,26,0,0,0,0,-167859.5786684317,-4793973.380830611,4195503.338346958,-2.29541,0.0351857,-0.0793835,95.625,3.375,7.625,0.0,0.0,0.0,0.0,0.0,0.0,2,0,41.364462766674805,-92.005375713856,12992.12743631945,83.9316575191824,-0.0035479109080247,0.0070737652795342,,12143.848679953908,13948.384352032976,150,2,2025-09-17,2025-09-26 19:55:50.142,AA,D,3677379798,AMBUSH51,1,1,48,2,1,1,225,2,1,0,0,9,1,225,2,1,-156742.36209935727,-4784512.304123581,4206155.19269569,1.63813,2.92148,-0.134595,-119.813,31.2544,27.465,-0.292146,-8.63598,7.18351,-0.0518141,0.025376,-0.0384067,4,0,41.49487375730434,-91.8763594917882,11930.708176799502,-77.11024844118218,-2.828453084270101,-38.68212298523782,201.563,12143.848679953908,13948.384352032976,150,False,9.745699090506747,False,156.23737406788916,132.69514292827893,False,71.0652317644024,False,False
2,1970-07-23 11:43:09.508422666,2025-09-17,2025-09-26 19:55:50.842,AA,D,3179759874,JASSM,3,128,76,2,2,1,225,9,2,0,1,26,0,0,0,0,-167773.4817026419,-4793970.346650924,4195510.202604771,-2.29541,0.0351857,-0.0793835,95.625,3.375,7.625,0.0,0.0,0.0,0.0,0.0,0.0,2,0,41.36454506813955,-92.00434924201598,12992.126791586325,83.9323358600239,-0.0027731390195873,0.0070741688225558,,12143.848679953908,13948.384352032976,150,2,2025-09-17,2025-09-26 19:55:50.775,AA,D,3678135364,AMBUSH51,1,1,48,2,1,1,225,2,1,0,0,9,1,225,2,1,-156818.19709219396,-4784492.723204598,4206169.059592647,1.6252,2.93993,-0.105753,-121.236,30.009,20.9823,-0.0643022,-9.02053,7.40138,-0.0364198,0.0323106,-0.0574691,4,0,41.49506909614579,-91.877274338839,11918.862219143442,-79.04131079934444,-3.1679761229014995,-39.19547651222774,202.113,12143.848679953908,13948.384352032976,150,False,9.699309976447894,False,158.7769772544739,132.25603187651035,False,68.89590949984928,False,False
2,1970-07-23 11:43:09.518954449,2025-09-17,2025-09-26 19:55:51.895,AA,D,3180892210,JASSM,3,128,76,2,2,1,225,9,2,0,1,26,0,0,0,0,-167682.70922263092,-4793967.146455611,4195517.438932896,-2.29541,0.0352816,-0.0793835,95.625,3.375,7.625,0.0,0.0,0.0,0.0,0.0,0.0,2,0,41.36463183178757,-92.00326702512056,12992.125696903377,83.9294208499074,-0.0060559246618753,0.0075104608045057,,12143.848679953908,13948.384352032976,150,2,2025-09-17,2025-09-26 19:55:51.875,AA,D,3679447662,AMBUSH51,1,1,48,2,1,1,225,2,1,0,0,9,1,225,2,1,-156952.53118327417,-4784462.676659862,4206188.014333426,1.58599,2.98581,-0.0577435,-122.89,24.6909,14.2905,-0.126204,-9.70007,7.92613,-0.0199394,0.0412759,-0.0386002,4,0,41.49534965177632,-91.87889309425042,11897.087380883371,-82.84524995546748,-3.066521704158217,-41.02051646293717,202.443,12143.848679953908,13948.384352032976,150,False,9.637509334763042,False,162.65649708130158,131.63066775921732,False,65.59564595479843,False,False
2,1970-07-23 11:43:09.527535290,2025-09-17,2025-09-26 19:55:52.753,AA,D,3182027588,JASSM,3,128,76,2,2,1,225,9,2,0,1,26,0,0,0,0,-167591.69302542633,-4793963.937471236,4195524.693815708,-2.29541,0.0352816,-0.0793835,95.625,3.375,7.625,0.0,0.0,0.0,0.0,0.0,0.0,2,0,41.364718813435005,-92.00218189975094,12992.126498464144,83.9301379541815,-0.0052368861137388,0.0075108334663095,,12143.848679953908,13948.384352032976,150,2,2025-09-17,2025-09-26 19:55:52.642,AA,D,3680362294,AMBUSH51,1,1,48,2,1,1,225,2,1,0,0,9,1,225,2,1,-157047.25733540722,-4784445.431832014,4206196.91721547,1.57396,3.02079,-0.0213215,-123.8,20.4917,9.73905,-0.122759,-10.196,8.60466,-0.0104893,0.0526775,-0.0598556,4,0,41.495493897266094,-91.88003302756444,11881.720202959848,-85.74007811422027,-2.962522872399989,-41.4779365346335,202.406,12143.848679953908,13948.384352032976,150,False,9.582437327360484,False,165.4727752858288,131.13046861145673,False,63.25339019424474,False,False
2,1970-07-23 11:43:09.538585822,2025-09-17,2025-09-26 19:55:53.858,AA,D,3183115644,JASSM,3,128,76,2,2,1,225,9,2,0,1,26,0,0,0,0,-167504.47024710602,-4793960.861299361,4195531.644987583,-2.29541,0.0352816,-0.0793835,95.625,3.375,7.625,0.0,0.0,0.0,0.0,0.0,0.0,2,0,41.36480215672312,-92.00114199846044,12992.126089308578,83.9308251733227,-0.0044519845380734,0.0075111871178333,,12143.848679953908,13948.384352032976,150,2,2025-09-17,2025-09-26 19:55:53.875,AA,D,3681833660,AMBUSH51,1,1,48,2,1,1,225,2,1,0,0,9,1,225,2,1,-157200.4007591313,-4784424.611725252,4206203.369003222,1.53755,3.07753,0.045978,-124.494,13.4779,1.38584,0.00350842,-10.1198,8.35057,-0.0141262,0.0505137,-0.0473637,4,0,41.495631480561016,-91.88187319305568,11856.961922104569,-90.78983927420902,-3.084515851671945,-43.33792942056193,201.783,12143.848679953908,13948.384352032976,150,False,9.511266294176991,False,170.30166325538858,130.47870134745966,False,58.93801547830779,False,False
2,1970-07-23 11:43:09.546462219,2025-09-17,2025-09-26 19:55:54.646,AA,D,3184293448,JASSM,3,128,76,2,2,1,225,9,2,0,1,26,0,0,0,0,-167410.05288870758,-4793957.530244674,4195539.169401646,-2.29541,0.0352816,-0.0793835,95.625,3.375,7.625,0.0,0.0,0.0,0.0,0.0,0.0,2,0,41.36489236994944,-92.00001631828844,12992.126992327898,83.93156908075316,-0.0036023400129983,0.0075115758554323,,12143.848679953908,13948.384352032976,150,2,2025-09-17,2025-09-26 19:55:54.708,AA,D,3682827826,AMBUSH51,1,1,48,2,1,1,225,2,1,0,0,9,1,225,2,1,-157304.89558866335,-4784415.65721529,4206202.027934532,1.52349,3.12073,0.0939099,-124.415,8.24364,-4.355,-0.112482,-10.4811,8.91683,-0.0216351,0.0525381,-0.0722372,4,0,41.49565533546436,-91.8831267402959,11840.489373304174,-94.48880714191104,-3.048365537755056,-44.11871621418541,202.003,12143.848679953908,13948.384352032976,150,False,9.447870253173324,False,173.65982989449626,129.95533493423446,False,55.9090333945826,False,False
2,1970-07-23 11:43:09.556484817,2025-09-17,2025-09-26 19:55:55.648,AA,D,3185426984,JASSM,3,128,76,2,2,1,225,9,2,0,1,26,0,0,0,0,-167319.18408377594,-4793954.323213424,4195546.410612583,-2.29541,0.0352816,-0.0793835,95.625,3.375,7.625,0.0,0.0,0.0,0.0,0.0,0.0,2,0,41.364979186428585,-91.9989329428914,12992.1284525458,83.93228503227095,-0.0027846282038175,0.007511954157096,,12143.848679953908,13948.384352032976,150,2,2025-09-17,2025-09-26 19:55:55.642,AA,D,3683941292,AMBUSH51,1,1,48,2,1,1,225,2,1,0,0,9,1,225,2,1,-157419.8068486677,-4784411.101018727,4206194.81081851,1.50671,-3.11181,0.148036,-123.744,1.97558,-10.6679,-0.215472,-10.8644,9.17209,-0.0113965,0.0612683,-0.0519431,4,0,41.49561131952522,-91.88450316657575,11822.893482030891,-98.72675678050996,-2.9419009086997314,-45.20959761596525,201.6,12143.848679953908,13948.384352032976,150,False,9.380045539651153,False,177.05068351715656,129.4194231566469,False,52.345901296811746,False,False
2,1970-07-23 11:43:09.566182217,2025-09-17,2025-09-26 19:55:56.618,AA,D,3186560464,JASSM,3,128,76,2,2,1,225,9,2,0,1,26,0,0,0,0,-167228.3198869986,-4793951.115205611,4195553.649870396,-2.29541,0.0352816,-0.0793835,95.625,3.375,7.625,0.0,0.0,0.0,0.0,0.0,0.0,2,0,41.36506598436574,-91.99784962002978,12992.127941412242,83.93300095030796,-0.0019669586456803,0.0075123285204505,,12143.848679953908,13948.384352032976,150,2,2025-09-17,2025-09-26 19:55:56.642,AA,D,3685134290,AMBUSH51,1,1,48,2,1,1,225,2,1,0,0,9,1,225,2,1,-157542.8234771095,-4784412.855899403,4206179.710719007,1.50685,-3.04792,0.204604,-122.209,-5.32603,-18.0116,-0.180728,-11.4548,9.72162,-0.00720614,0.0693327,-0.0727428,4,0,41.495474956412025,-91.88597406823652,11804.324459339834,-103.55021739328208,-2.408555785453246,-45.61889400102818,201.673,12143.848679953908,13948.384352032976,150,False,9.306091706882391,False,176.1510274330349,128.87220283676132,False,48.059348840072104,False,False
2,1970-07-23 11:43:09.575422995,2025-09-17,2025-09-26 19:55:57.542,AA,D,3187692530,JASSM,3,128,76,2,2,1,225,9,2,0,1,26,0,0,0,0,-167137.56897147125,-4793947.910127486,4195560.879362583,-2.29541,0.0352816,-0.0793835,95.625,3.375,7.625,0.0,0.0,0.0,0.0,0.0,0.0,2,0,41.36515266526871,-91.9967676453287,12992.127455660897,83.93371597864257,-0.0011503086851523,0.0075127037637079,,12143.848679953908,13948.384352032976,150,2,2025-09-17,2025-09-26 19:55:57.643,AA,D,3686327288,AMBUSH51,1,1,48,2,1,1,225,2,1,0,0,9,1,225,2,1,-157663.5552877019,-4784422.355789656,4206157.195555341,1.49883,-2.97825,0.261207,-119.526,-13.2883,-25.4601,-0.197944,-11.8672,10.2758,-0.0276709,0.0831062,-0.0465044,4,0,41.49524289170074,-91.88741458102956,11788.482025389074,-108.56661410343304,-1.7180084916108556,-46.8197344848442,201.527,12143.848679953908,13948.384352032976,150,False,9.228909235147286,False,171.45670597962118,128.3428061688785,False,43.38051714795229,False,False
2,1970-07-23 11:43:09.584482781,2025-09-17,2025-09-26 19:55:58.448,AA,D,3188766398,JASSM,3,128,76,2,2,1,225,9,2,0,1,26,0,0,0,0,-167051.48346121734,-4793944.869111861,4195567.735807896,-2.29541,0.0352816,-0.0792876,95.625,3.375,7.625,0.0,0.0,0.0,0.0,0.0,0.0,2,0,41.36523487543653,-91.99574129140343,12992.126185542193,83.93850681982578,-0.0040173178872308,0.0075128969117577,,12143.848679953908,13948.384352032976,150,2,2025-09-17,2025-09-26 19:55:58.575,AA,D,3687440754,AMBUSH51,1,1,48,2,1,1,225,2,1,0,0,9,1,225,2,1,-157773.51909709672,-4784438.501535691,4206129.610896604,1.5182,-2.91445,0.310161,-116.022,-20.7033,-32.635,-0.0885341,-11.7874,9.93977,0.0183498,0.0650425,-0.0702711,4,0,41.49493915285822,-91.88872365236908,11777.078096293306,-113.01322447448142,-1.0759342296513985,-46.63218174793294,201.087,12143.848679953908,13948.384352032976,150,False,9.153528029354057,False,166.48580106476325,127.86275096556935,False,38.77556030312261,False,False
2,1970-07-23 11:43:09.593542908,2025-09-17,2025-09-26 19:55:59.354,AA,D,3189840140,JASSM,3,128,76,2,2,1,225,9,2,0,1,26,0,0,0,0,-166965.40796072906,-4793941.828096236,4195574.591276646,-2.29541,0.0352816,-0.0792876,95.625,3.375,7.625,0.0,0.0,0.0,0.0,0.0,0.0,2,0,41.36531706778268,-91.99471505438358,12992.127489063843,83.93918501586202,-0.0032427419139847,0.0075133041374736,,12143.848679953908,13948.384352032976,150,2,2025-09-17,2025-09-26 19:55:59.308,AA,D,3688315620,AMBUSH51,1,1,48,2,1,1,225,2,1,0,0,9,1,225,2,1,-157857.88887792034,-4784456.067338024,4206103.0842097495,1.53335,-2.85906,0.357924,-112.565,-26.4642,-37.9106,-0.417517,-12.0892,10.4958,-0.0173698,0.0862625,-0.0624709,4,0,41.4946391001742,-91.88972598692632,11769.394198832457,-117.06589324795624,-0.8260476015088644,-46.73795085799627,200.39,12143.848679953908,13948.384352032976,150,False,9.086170491750215,False,162.53712721977374,127.44852736742652,False,35.18740549037492,False,False
2,1970-07-23 11:43:09.603705158,2025-09-17,2025-09-26 19:56:00.370,AA,D,3191092712,JASSM,3,128,76,2,2,1,225,9,2,0,1,26,0,0,0,0,-166864.9966448111,-4793938.278291549,4195582.587370396,-2.29541,0.0353774,-0.0792876,95.625,3.375,7.625,0.0,0.0,0.0,0.0,0.0,0.0,2,0,41.36541294361317,-91.99351789599014,12992.125677555823,83.93634591771283,-0.006438795952944,0.0079491482578053,,12143.848679953908,13948.384352032976,150,2,2025-09-17,2025-09-26 19:56:00.274,AA,D,3689468852,AMBUSH51,1,1,48,2,1,1,225,2,1,0,0,9,1,225,2,1,-157963.85274647677,-4784485.614744886,4206062.780483666,1.56504,-2.77768,0.41178,-107.131,-34.3423,-44.2281,-0.00824904,-12.5985,10.8334,0.07675,0.0833226,-0.0585781,4,0,41.49417053250264,-91.89098189624872,11762.94603474419,-122.31022316992036,0.0098609526526245,-46.63666852322879,199.865,12143.848679953908,13948.384352032976,150,False,9.00009642530517,False,157.21194731002572,126.95949158987332,False,30.286391409878103,False,False
2,1970-07-23 11:43:09.617001863,2025-09-17,2025-09-26 19:56:01.700,AA,D,3192347350,JASSM,3,128,76,2,2,1,225,9,2,0,1,26,0,0,0,0,-166764.41980154935,-4793934.722627486,4195590.596159458,-2.29541,0.0353774,-0.0792876,95.625,3.375,7.625,0.0,0.0,0.0,0.0,0.0,0.0,2,0,41.36550896176974,-91.99231876056972,12992.128018240246,83.93713837777896,-0.0055337257681716,0.0079495694571097,,12143.848679953908,13948.384352032976,150,2,2025-09-17,2025-09-26 19:56:01.575,AA,D,3691019750,AMBUSH51,1,1,48,2,1,1,225,2,1,0,0,9,1,225,2,1,-158096.77039141677,-4784536.825043514,4206000.078565543,1.8389,-2.65274,0.468574,-98.6769,-44.8984,-50.8484,-0.243254,-12.9721,11.2485,0.263203,0.0752104,-0.050676,4,0,41.49341658784776,-91.89255165185423,11763.212279869244,-129.2953965504412,1.9451724367075356,-34.11986272749167,198.386,12143.848679953908,13948.384352032976,150,False,8.892719318885517,False,150.21185699512958,126.43798240432754,False,23.780091253084052,True,False
2,1970-07-23 11:43:09.627635415,2025-09-17,2025-09-26 19:56:02.763,AA,D,3193659424,JASSM,3,128,76,2,2,1,225,9,2,0,1,26,0,0,0,0,-166659.238405065,-4793931.001924361,4195598.969206333,-2.29541,0.0353774,-0.0792876,95.625,3.375,7.625,0.0,0.0,0.0,0.0,0.0,0.0,2,0,41.36560935963217,-91.99106472416244,12992.125317190808,83.93796712130585,-0.0045872211709576,0.0079500072019076,,12143.848679953908,13948.384352032976,150,2,2025-09-17,2025-09-26 19:56:02.574,AA,D,3692212750,AMBUSH51,1,1,48,2,1,1,225,2,1,0,0,9,1,225,2,1,-158192.20665633545,-4784585.287646092,4205947.76720145,2.14496,-2.57157,0.46438,-93.2134,-52.4445,-51.5324,-0.691572,-12.2545,11.1367,0.255001,0.0548226,-0.0138453,4,0,41.49275641643894,-91.89367410578502,11776.28344046253,-132.3592370261079,4.768048858849297,-18.85622277777612,196.81,12143.848679953908,13948.384352032976,150,False,8.799542965899407,False,146.32426999793265,125.98638049130757,False,20.62130659984903,True,False
2,1970-07-23 11:43:09.636480674,2025-09-17,2025-09-26 19:56:03.648,AA,D,3194971486,JASSM,3,128,76,2,2,1,225,9,2,0,1,26,0,0,0,0,-166554.05798514312,-4793927.280244674,4195607.342253208,-2.29541,0.0353774,-0.0792876,95.625,3.375,7.625,0.0,0.0,0.0,0.0,0.0,0.0,2,0,41.36570974943009,-91.98981069596272,12992.126018735224,83.93879586106452,-0.0036407250011933,0.0079504514215953,,12143.848679953908,13948.384352032976,150,2,2025-09-17,2025-09-26 19:56:03.542,AA,D,3693365982,AMBUSH51,1,1,48,2,1,1,225,2,1,0,0,9,1,225,2,1,-158280.19852866256,-4784638.2295878455,4205897.763403378,2.33616,-2.53097,0.435514,-89.8202,-57.9544,-49.4643,-0.508755,-11.2058,10.3955,0.102909,0.0318882,-0.00279944,4,0,41.492086565931,-91.89470571418671,11804.774729164075,-133.00930111387032,7.358474716967931,-8.98181933260672,195.38,12143.848679953908,13948.384352032976,150,True,8.70843016351583,False,144.13122341437943,125.55072768124433,False,19.675666633100555,True,False
2,1970-07-23 11:43:09.646381390,2025-09-17,2025-09-26 19:56:04.638,AA,D,3196224404,JASSM,3,128,76,2,2,1,225,9,2,0,1,26,0,0,0,0,-166453.61889822906,-4793923.725557174,4195615.336393833,-2.29541,0.0353774,-0.0792876,95.625,3.375,7.625,0.0,0.0,0.0,0.0,0.0,0.0,2,0,41.36580559579564,-91.98861319368918,12992.126947986188,83.93958724652494,-0.0027368958903242,0.0079508703281581,,12143.848679953908,13948.384352032976,150,2,2025-09-17,2025-09-26 19:56:04.642,AA,D,3694678280,AMBUSH51,1,1,48,2,1,1,225,2,1,0,0,9,1,225,2,1,-158377.05098438505,-4784703.047866879,4205843.629384968,2.40769,-2.50627,0.415017,-87.1315,-61.4234,-46.8399,-0.166759,-9.56474,8.94107,0.0444093,0.0166687,-0.0129215,4,0,41.49131635543364,-91.89583858390662,11854.1861787072,-133.3408985106025,9.07259124127118,-5.514474044367662,193.437,12143.848679953908,13948.384352032976,150,True,8.611827064755074,False,142.74566167070122,125.11313090871293,False,19.788341676965352,True,False
2,1970-07-23 11:43:09.658865038,2025-09-17,2025-09-26 19:56:05.886,AA,D,3197536658,JASSM,3,128,76,2,2,1,225,9,2,0,1,26,0,0,0,0,-166348.4229753775,-4793920.000947799,4195623.707487583,-2.29541,0.0353774,-0.0792876,95.625,3.375,7.625,0.0,0.0,0.0,0.0,0.0,0.0,2,0,41.36590596629494,-91.98735897410472,12992.126067919937,83.94041611600093,-0.0017902617606927,0.0079513072578519,,12143.848679953908,13948.384352032976,150,2,2025-09-17,2025-09-26 19:56:06.008,AA,D,3696308712,AMBUSH51,1,1,48,2,1,1,225,2,1,0,0,9,1,225,2,1,-158494.67736197196,-4784787.287748258,4205779.415839339,2.40249,-2.48463,0.408073,-84.44,-63.2844,-44.6317,-0.169344,-8.35399,7.86287,-0.0324063,0.00526078,-0.0056769,4,0,41.49035837429759,-91.8972122134157,11931.091540132848,-134.0330612116169,10.066651832208024,-6.423383530775466,190.186,12143.848679953908,13948.384352032976,150,True,8.499201656125013,False,141.68143057145235,124.6239436423644,False,20.17243861706707,True,False
2,1970-07-23 11:43:09.668441523,2025-09-17,2025-09-26 19:56:06.844,AA,D,3198787944,JASSM,3,128,76,2,2,1,225,9,2,0,1,26,0,0,0,0,-166248.11462576812,-4793916.448213424,4195631.688932896,-2.29541,0.0353774,-0.0792876,95.625,3.375,7.625,0.0,0.0,0.0,0.0,0.0,0.0,2,0,41.366001662855965,-91.98616302449408,12992.126117199368,83.94120647844936,-0.0008876099384157,0.0079517260358696,,12143.848679953908,13948.384352032976,150,2,2025-09-17,2025-09-26 19:56:06.774,AA,D,3697223344,AMBUSH51,1,1,48,2,1,1,225,2,1,0,0,9,1,225,2,1,-158557.95310241528,-4784834.355414578,4205744.630985111,2.37901,-2.47891,0.409845,-82.8549,-63.5223,-44.2478,-0.0141171,-7.28583,6.78157,-0.0276584,-0.00311569,-0.0190822,4,0,41.48983096713197,-91.8979504261474,11976.244119953511,-134.34156360475396,10.161176787641963,-7.953578468682333,188.695,12143.848679953908,13948.384352032976,150,True,8.424958580711422,False,141.1346572396814,124.22501664854677,False,20.236281242834245,True,False
2,1970-07-23 11:43:09.682099406,2025-09-17,2025-09-26 19:56:08.209,AA,D,3199982048,JASSM,3,128,76,2,2,1,225,9,2,0,1,26,0,0,0,0,-166152.39001639312,-4793913.056611861,4195639.305143833,-2.29541,0.0353774,-0.0792876,95.625,3.375,7.625,0.0,0.0,0.0,0.0,0.0,0.0,2,0,41.3660929786015,-91.98502172282674,12992.12692166899,83.94196072733348,-2.62061338801094e-05,0.0079521294250362,,12143.848679953908,13948.384352032976,150,2,2025-09-17,2025-09-26 19:56:08.174,AA,D,3698893542,AMBUSH51,1,1,48,2,1,1,225,2,1,0,0,9,1,225,2,1,-158671.87743557844,-4784920.909830775,4205680.112882007,2.2846,-2.48468,0.443216,-80.2388,-62.307,-45.8622,0.0288533,-5.46744,5.14289,-0.024912,-0.0235409,0.00425586,4,0,41.48885785982235,-91.89927877890428,12057.890578854647,-135.22628107392254,8.434564962181183,-13.368285843995814,185.726,12143.848679953908,13948.384352032976,150,False,8.316479231298924,False,140.3085306800681,123.75750163792867,False,19.367817230390575,True,False
2,1970-07-23 11:43:09.690142230,2025-09-17,2025-09-26 19:56:09.014,AA,D,3201293498,JASSM,3,128,76,2,2,1,225,9,2,0,1,26,0,0,0,0,-166047.25854666656,-4793909.330049361,4195647.668425083,-2.29541,0.0354733,-0.0791918,95.625,3.375,7.625,0.0,0.0,0.0,0.0,0.0,0.0,2,0,41.36619325553339,-91.98376826242216,12992.126180030034,83.94327133165791,-0.0068214979076509,0.0083873707664029,,12143.848679953908,13948.384352032976,150,2,2025-09-17,2025-09-26 19:56:09.008,AA,D,3699887708,AMBUSH51,1,1,48,2,1,1,225,2,1,0,0,9,1,225,2,1,-158738.44079893234,-4784972.02249898,4205639.6386261815,2.26856,-2.49276,0.468542,-78.8092,-60.8829,-47.9999,-0.0628761,-4.88496,4.6229,-0.00320516,-0.0212189,-0.025428,4,0,41.488267344458194,-91.90005466699714,12100.89165789412,-135.74316269704678,7.015397687896622,-14.1532232972678,184.601,12143.848679953908,13948.384352032976,150,False,8.237572560098673,False,139.8210591471319,123.3282356483271,False,18.607155821396628,True,False
2,1970-07-23 11:43:09.704741982,2025-09-17,2025-09-26 19:56:10.474,AA,D,3202486544,JASSM,3,128,76,2,2,1,225,9,2,0,1,26,0,0,0,0,-165951.61877615875,-4793905.939424361,4195655.275846958,-2.29551,0.0354733,-0.0791918,95.625,3.375,7.625,0.0,0.0,0.0,0.0,0.0,0.0,2,0,41.36628446491218,-91.98262796641986,12992.127502948128,83.94402491874955,-0.0059608583876243,0.0028963072258455,,12143.848679953908,13948.384352032976,150,2,2025-09-17,2025-09-26 19:56:10.308,AA,D,3701438606,AMBUSH51,1,1,48,2,1,1,225,2,1,0,0,9,1,225,2,1,-158839.6562584166,-4785048.11450461,4205573.536907709,2.19711,-2.50735,0.521669,-77.0121,-57.8962,-52.1607,0.158876,-4.19301,4.01679,-0.0633052,-0.0361493,-0.0176903,4,0,41.48734839704972,-91.90123508700728,12152.380529370168,-136.94389973744515,4.121719813556325,-17.966080772778568,182.817,12143.848679953908,13948.384352032976,150,False,8.136118858670578,False,139.17050313614357,122.86929121800668,False,17.24998495571018,True,False
2,1970-07-23 11:43:09.709461499,2025-09-17,2025-09-26 19:56:10.946,AA,D,3203739006,JASSM,3,128,76,2,2,1,225,9,2,0,1,26,0,0,0,0,-165851.2159441275,-4793902.378877486,4195663.260221958,-2.29551,0.0354733,-0.0791918,95.625,3.375,7.625,0.0,0.0,0.0,0.0,0.0,0.0,2,0,41.3663801979454,-91.98143087829312,12992.127223068574,83.94481603950902,-0.005057358250283,0.002896729544088,,12143.848679953908,13948.384352032976,150,2,2025-09-17,2025-09-26 19:56:11.008,AA,D,3702273706,AMBUSH51,1,1,48,2,1,1,225,2,1,0,0,9,1,225,2,1,-158893.20620115864,-4785087.696912277,4205535.811668652,2.15433,-2.52269,0.544808,-76.0621,-56.121,-54.7681,0.131912,-3.98424,3.81127,-0.0335631,-0.0397633,-0.0223425,4,0,41.48684767502054,-91.90185986286323,12171.983541732356,-137.1213041074491,2.6061645870158934,-19.981112470686785,182.084,12143.848679953908,13948.384352032976,150,False,8.067411892175981,False,138.72089287226586,122.46304752297263,False,16.69675535182516,True,False
2,1970-07-23 11:43:09.722463977,2025-09-17,2025-09-26 19:56:12.246,AA,D,3204993596,JASSM,3,128,76,2,2,1,225,9,2,0,1,26,0,0,0,0,-165750.64221365875,-4793898.810518111,4195671.258268833,-2.29551,0.0354733,-0.0791918,95.625,3.375,7.625,0.0,0.0,0.0,0.0,0.0,0.0,2,0,41.366476092405584,-91.98023174977492,12992.128035403104,83.94560851021465,-0.0041523196390941,0.0028971634924623,,12143.848679953908,13948.384352032976,150,2,2025-09-17,2025-09-26 19:56:12.412,AA,D,3703943904,AMBUSH51,1,1,48,2,1,1,225,2,1,0,0,9,1,225,2,1,-158998.4229418416,-4785163.184306812,4205454.755568381,2.12836,-2.5358,0.610096,-74.2938,-52.5202,-60.4446,-0.0205849,-4.19483,3.9868,-0.00684204,-0.0213396,-0.0349842,4,0,41.48583071754966,-91.9030883204681,12189.82874586381,-138.85745231708495,-0.7657455644850439,-21.08655723731584,182.084,12143.848679953908,13948.384352032976,150,False,7.959327591322691,False,137.59894971764066,121.97099822276533,False,15.628226147728938,True,False
2,1970-07-23 11:43:09.731524894,2025-09-17,2025-09-26 19:56:13.152,AA,D,3206304294,JASSM,3,128,76,2,2,1,225,9,2,0,1,26,0,0,0,0,-165645.57092459625,-4793895.081025924,4195679.611784458,-2.29551,0.0354733,-0.0791918,95.625,3.375,7.625,0.0,0.0,0.0,0.0,0.0,0.0,2,0,41.36657625626162,-91.97897899428834,12992.125873469677,83.94643642310935,-0.0032068096719753,0.0028976113143517,,12143.848679953908,13948.384352032976,150,2,2025-09-17,2025-09-26 19:56:13.179,AA,D,3704858536,AMBUSH51,1,1,48,2,1,1,225,2,1,0,0,9,1,225,2,1,-159054.9741934858,-4785202.714901317,4205407.100002686,2.13287,-2.54112,0.63583,-73.293,-51.1143,-63.3279,0.014257,-4.70096,4.48036,0.0177256,-0.0192923,-0.0294914,4,0,41.485262760720346,-91.90374898183627,12187.97674480152,-139.54902712682647,-2.0909369020626487,-20.63305920948124,182.732,12143.848679953908,13948.384352032976,150,False,7.8858819963666225,False,136.80457526138105,121.53393113590673,False,15.384378242640473,True,False
2,1970-07-23 11:43:09.743863391,2025-09-17,2025-09-26 19:56:14.386,AA,D,3207557976,JASSM,3,128,76,2,2,1,225,9,2,0,1,26,0,0,0,0,-165545.07019217435,-4793891.513643111,4195687.601042271,-2.29551,0.0354733,-0.0791918,95.625,3.375,7.625,0.0,0.0,0.0,0.0,0.0,0.0,2,0,41.36667204502928,-91.97778072959082,12992.126933047748,83.94722832603085,-0.0023024295942333,0.0028980343997438,,12143.848679953908,13948.384352032976,150,2,2025-09-17,2025-09-26 19:56:14.379,AA,D,3706290134,AMBUSH51,1,1,48,2,1,1,225,2,1,0,0,9,1,225,2,1,-159141.21320905696,-4785262.936310901,4205328.321335669,2.20101,-2.53333,0.67626,-71.6188,-49.8332,-67.6782,-0.0299997,-5.44456,5.17587,0.0732109,-0.0149002,-0.0365779,4,0,41.48435584529162,-91.90475647373738,12171.739589989364,-141.2305180759455,-3.7248670081995896,-16.91605858571134,184.271,12143.848679953908,13948.384352032976,150,False,7.789145679713873,False,135.2916922117248,121.0632182634284,False,14.813406955297094,True,False
