Subject_cm,Timestamp,SampleDate_cm,SampleTime_cm,Configuration_cm,Scenario_cm,DisTime_cm,MarkingTxt_cm,Application_cm,EntId_cm,Site_cm,ExerciseId_cm,ForceId_cm,Category_cm,Country_cm,Domain_cm,Kind_cm,Extra_cm,Specific_cm,Subcategory_cm,AltCategory_cm,AltCountry_cm,AltDomain_cm,AltKind_cm,ECEF_X_cm,ECEF_Y_cm,ECEF_Z_cm,OriPhi_cm,OriPsi_cm,OriTheta_cm,LinVelX_cm,LinVelY_cm,LinVelZ_cm,LinAccX_cm,LinAccY_cm,LinAccZ_cm,AngVelX_cm,AngVelY_cm,AngVelZ_cm,DrAlg_cm,Appearance_cm,Latitude_cm,Longitude_cm,Altitude_cm,Heading_cm,Pitch_cm,Roll_cm,CalibratedAirspeed_cm,CM_Altitude_Lead_cm,CM_Altitude_Wing_cm,CM_Airspeed_cm,Subject_ac,SampleDate_ac,SampleTime_ac,Configuration_ac,Scenario_ac,DisTime_ac,MarkingTxt_ac,Application_ac,EntId_ac,Site_ac,ExerciseId_ac,ForceId_ac,Category_ac,Country_ac,Domain_ac,Kind_ac,Extra_ac,Specific_ac,Subcategory_ac,AltCategory_ac,AltCountry_ac,AltDomain_ac,AltKind_ac,ECEF_X_ac,ECEF_Y_ac,ECEF_Z_ac,OriPhi_ac,OriPsi_ac,OriTheta_ac,LinVelX_ac,LinVelY_ac,LinVelZ_ac,LinAccX_ac,LinAccY_ac,LinAccZ_ac,AngVelX_ac,AngVelY_ac,AngVelZ_ac,DrAlg_ac,Appearance_ac,Latitude_ac,Longitude_ac,Altitude_ac,Heading_ac,Pitch_ac,Roll_ac,CalibratedAirspeed_ac,CM_Altitude_Lead_ac,CM_Altitude_Wing_ac,CM_Airspeed_ac,Bank_Angle_Condition,distance_nm,Distance_Condition,angle_between_vel,angle_between_pos,Cone_Condition,angle_between_pos_nose,Nose_Cone_Condition,Intercept_Criteria
2,1970-07-23 09:45:01.894427510,2025-09-09,2025-09-26 15:03:09.442,HH,C,2830558484,JASSM,3,115,76,2,2,1,225,9,2,0,1,26,0,0,0,0,-121390.63152467164,-4791467.540113744,4198556.798307896,2.29618,-3.09845,0.0772743,-83.0,-3.5,-6.375,0.0,0.0,0.0,0.0,0.0,0.0,2,0,41.408319541560445,-91.4512637966588,10000.001663108971,-95.91298315787526,0.0058554214464419,0.0009496391549422,,9260.064158607724,11112.292394974402,150,2,2025-09-09,2025-09-26 15:03:09.706,HH,C,3512952242,HAWK11,1,1,73,2,1,1,225,2,1,0,0,12,1,225,2,1,-138148.65857108062,-4791581.241182174,4198425.997526646,2.15524,-3.14131,-0.0684539,-90.5,6.375,5.875,-0.0625,-6.98438,7.73438,-0.00390625,0.0,-0.00976562,4,0,41.40405966416745,-91.6514679703727,11112.292394974402,-88.15636983415645,3.842761106775468,-7.79875455225364,152.144,9260.064158607724,11112.292394974402,150,True,9.012993253218728,False,10.34200056700722,175.5697453788941,False,173.93889798959566,False,False
2,1970-07-23 09:45:01.905445966,2025-09-09,2025-09-26 15:03:10.544,HH,C,2831871298,JASSM,3,115,76,2,2,1,225,9,2,0,1,26,0,0,0,0,-121482.10027467164,-4791471.478590307,4198549.704557896,2.29618,-3.09845,0.0772743,-83.0,-3.5,-6.375,0.0,0.0,0.0,0.0,0.0,0.0,2,0,41.408234428004526,-91.452355673314,9999.99889413837,-95.9137053471408,0.006678757028795,0.0009499307717249,,9260.064158607724,11112.292394974402,150,2,2025-09-09,2025-09-26 15:03:10.500,HH,C,3513906640,HAWK11,1,1,73,2,1,1,225,2,1,0,0,12,1,225,2,1,-138221.05505545562,-4791576.431611861,4198430.063932896,2.15649,-3.12836,-0.063852,-90.875,5.375,5.375,-0.140625,-7.0,7.71875,0.00195312,0.00585938,-0.0253906,4,0,41.40410330465614,-91.65233459631588,11114.420886080114,-88.8450059384292,4.225482483730672,-7.726761974861053,152.889,9260.064158607724,11112.292394974402,150,True,9.002656625062633,False,9.690802845811419,175.5227417416029,False,174.67482684423973,False,False
2,1970-07-23 09:45:01.916206759,2025-09-09,2025-09-26 15:03:11.620,HH,C,2833124248,JASSM,3,115,76,2,2,1,225,9,2,0,1,26,0,0,0,0,-121569.39714967164,-4791475.236402807,4198542.935026646,2.29618,-3.09845,0.0773702,-83.0,-3.5,-6.375,0.0,0.0,0.0,0.0,0.0,0.0,2,0,41.40815319748278,-91.45339774730472,9999.999215918277,-95.91850490774505,0.0038203180888022,0.0009497936950206,,9260.064158607724,11112.292394974402,150,2,2025-09-09,2025-09-26 15:03:11.798,HH,C,3515417772,HAWK11,1,1,73,2,1,1,225,2,1,0,0,12,1,225,2,1,-138337.09021170562,-4791570.152314986,4198436.017057896,2.15572,-3.1113,-0.0540728,-91.375,4.0,4.625,-0.078125,-7.03125,7.79688,-0.00195312,0.00195312,-0.0117188,4,0,41.40416092348128,-91.653723110297,11120.12930974442,-89.91420965662093,4.590102756876827,-7.795237999187132,153.891,9260.064158607724,11112.292394974402,150,True,9.01802699243365,False,8.78773671261483,175.46747227197045,False,175.68300595421613,False,False
2,1970-07-23 09:45:01.927205761,2025-09-09,2025-09-26 15:03:12.720,HH,C,2834377314,JASSM,3,115,76,2,2,1,225,9,2,0,1,26,0,0,0,0,-121656.70183717164,-4791478.994215307,4198536.163542271,2.29618,-3.09845,0.0773702,-83.0,-3.5,-6.375,0.0,0.0,0.0,0.0,0.0,0.0,2,0,41.408071943158426,-91.45443991205968,9999.999730694011,-95.91919421432746,0.0046061717693977,0.0009500121288097,,9260.064158607724,11112.292394974402,150,2,2025-09-09,2025-09-26 15:03:12.594,HH,C,3516451704,HAWK11,1,1,73,2,1,1,225,2,1,0,0,12,1,225,2,1,-138416.33044608062,-4791566.918916549,4198439.628386021,2.14355,-3.09922,-0.0487998,-91.625,2.75,4.25,0.140625,-7.07812,7.82812,-0.0175781,0.00585938,-0.00976562,4,0,41.40419092194362,-91.6546709613642,11125.640777108794,-90.60048799710142,4.910479076430367,-8.51408868699652,154.136,9260.064158607724,11112.292394974402,150,True,9.013620624884446,False,8.164770671953761,175.42518787880326,False,176.39662504984648,False,False
2,1970-07-23 09:45:01.938260757,2025-09-09,2025-09-26 15:03:13.826,HH,C,2835748834,JASSM,3,115,76,2,2,1,225,9,2,0,1,26,0,0,0,0,-121752.26043092164,-4791483.105543432,4198528.751432896,2.29618,-3.09855,0.0773702,-83.0,-3.5,-6.375,0.0,0.0,0.0,0.0,0.0,0.0,2,0,41.407983003582274,-91.45558060207124,9999.99954884166,-95.91631651113823,0.0013695645490373,0.001374912765503,,9260.064158607724,11112.292394974402,150,2,2025-09-09,2025-09-26 15:03:13.798,HH,C,3517883302,HAWK11,1,1,73,2,1,1,225,2,1,0,0,12,1,225,2,1,-138525.99646170562,-4791564.055635299,4198443.880339146,2.13041,-3.08474,-0.038733,-91.875,1.375,3.375,0.1875,-6.84375,7.625,0.00195312,0.00390625,-0.00976562,4,0,41.40421780229339,-91.6559822016471,11135.619410044928,-91.58561421586911,5.1523992319275385,-9.316730292445582,154.576,9260.064158607724,11112.292394974402,150,True,9.021128651503718,False,7.268703036100469,175.37848747160928,False,177.35161644288058,False,False
2,1970-07-23 09:45:01.949263864,2025-09-09,2025-09-26 15:03:14.926,HH,C,2837061112,JASSM,3,115,76,2,2,1,225,9,2,0,1,26,0,0,0,0,-121843.69011842164,-4791487.038160619,4198521.659636021,2.29618,-3.09855,0.0773702,-83.0,-3.5,-6.375,0.0,0.0,0.0,0.0,0.0,0.0,2,0,41.40789790301886,-91.4566720024348,10000.00127725786,-95.91703838059053,0.0021925477019226,0.0013751799478053,,9260.064158607724,11112.292394974402,150,2,2025-09-09,2025-09-26 15:03:15.002,HH,C,3519314902,HAWK11,1,1,73,2,1,1,225,2,1,0,0,12,1,225,2,1,-138637.01989920562,-4791563.110322799,4198447.038542271,2.21373,-3.07103,-0.0272282,-92.125,0.0,2.625,0.109375,-6.625,7.32812,0.191406,-0.0136719,-0.00585938,4,0,41.40422564070915,-91.6573089967332,11148.045399822026,-92.60441757925264,5.306151727045551,-4.610097864931484,155.016,9260.064158607724,11112.292394974402,150,True,9.031592424158264,False,6.485873976995696,175.3393353929129,False,178.0955086410007,False,False
2,1970-07-23 09:45:01.960404594,2025-09-09,2025-09-26 15:03:16.040,HH,C,2838432776,JASSM,3,115,76,2,2,1,225,9,2,0,1,26,0,0,0,0,-121939.25652467164,-4791491.147535619,4198514.243620396,2.29618,-3.09855,0.0773702,-83.0,-3.5,-6.375,0.0,0.0,0.0,0.0,0.0,0.0,2,0,41.40780892538408,-91.45781278031087,9999.997549413029,-95.91779290780552,0.0030527684623025,0.0013754747956924,,9260.064158607724,11112.292394974402,150,2,2025-09-09,2025-09-26 15:03:16.000,HH,C,3520269300,HAWK11,1,1,73,2,1,1,225,2,1,0,0,12,1,225,2,1,-138710.81482108062,-4791562.835908736,4198448.665495396,2.50576,-3.08436,-0.0272282,-92.25,0.375,2.625,-0.15625,-6.20312,6.79688,0.369141,0.00390625,0.0175781,4,0,41.4042255491475,-91.65819076615595,11156.154073183588,-92.0979501371248,4.734588829132726,12.145634235359903,154.967,9260.064158607724,11112.292394974402,150,False,9.019823852710362,False,6.573967845263431,175.3054671384863,False,178.08548907606567,False,False
2,1970-07-23 09:45:01.971424317,2025-09-09,2025-09-26 15:03:17.142,HH,C,2839745952,JASSM,3,115,76,2,2,1,225,9,2,0,1,26,0,0,0,0,-122030.75261842164,-4791495.081129369,4198507.144011021,2.29618,-3.09855,0.0773702,-83.0,-3.5,-6.375,0.0,0.0,0.0,0.0,0.0,0.0,2,0,41.407723735036285,-91.45890496810853,9999.997734174234,-95.91851529558146,0.0038763505060527,0.0013757489526936,,9260.064158607724,11112.292394974402,150,2,2025-09-09,2025-09-26 15:03:17.022,HH,C,3521144166,HAWK11,1,1,73,2,1,1,225,2,1,0,0,12,1,225,2,1,-138778.52380545562,-4791561.438447799,4198450.386198521,2.67066,-3.10756,-0.0658653,-92.375,2.25,3.875,-0.109375,-7.28125,7.89062,0.144531,0.0527344,0.0625,4,0,41.40423381363856,-91.65900021106285,11161.272896037925,-89.54977038926918,5.200574657945242,21.752740416862803,156.091,9260.064158607724,11112.292394974402,150,False,9.006983387935145,False,7.78413242607839,175.27072465240585,False,176.9394093034112,False,False
2,1970-07-23 09:45:01.983445837,2025-09-09,2025-09-26 15:03:18.344,HH,C,2841056458,JASSM,3,115,76,2,2,1,225,9,2,0,1,26,0,0,0,0,-122122.05730592164,-4791499.005934057,4198500.058073521,2.29618,-3.09855,0.0773702,-83.0,-3.5,-6.375,0.0,0.0,0.0,0.0,0.0,0.0,2,0,41.40763870793408,-91.4599948684178,9999.998297850518,-95.91923616916311,0.0046982102654851,0.0013760271708765,,9260.064158607724,11112.292394974402,150,2,2025-09-09,2025-09-26 15:03:18.298,HH,C,3523251798,HAWK11,1,1,73,2,1,1,225,2,1,0,0,12,1,225,2,1,-138941.28552420562,-4791553.217744674,4198464.296354771,2.74026,3.11676,-0.173627,-91.625,7.0,12.125,-0.09375,-8.0625,8.82812,-0.0429688,0.0234375,0.0292969,4,0,41.40434855176872,-91.66094767239008,11182.83698243365,-82.66031101517898,6.737883494279123,26.05465292914873,155.847,9260.064158607724,11112.292394974402,150,False,9.045306683089374,False,13.694579639335853,175.18700030444467,False,171.11385807809526,False,False
2,1970-07-23 09:45:01.993243902,2025-09-09,2025-09-26 15:03:19.324,HH,C,2842310958,JASSM,3,115,76,2,2,1,225,9,2,0,1,26,0,0,0,0,-122209.46355592164,-4791502.761793432,4198493.274870396,2.29618,-3.09855,0.0773702,-83.0,-3.5,-6.375,0.0,0.0,0.0,0.0,0.0,0.0,2,0,41.40755731095719,-91.46103823099264,9999.99991764908,-95.9199262609706,0.0054849784206927,0.0013762841694315,,9260.064158607724,11112.292394974402,150,2,2025-09-09,2025-09-26 15:03:19.406,HH,C,3524564096,HAWK11,1,1,73,2,1,1,225,2,1,0,0,12,1,225,2,1,-139041.04724295562,-4791543.495088424,4198480.091276646,2.68571,3.09557,-0.218976,-90.625,10.0,16.875,0.0,-7.89062,8.70312,-0.0429688,0.0292969,0.0488281,4,0,41.40449579279629,-91.6621429573031,11200.31211026897,-79.8961720839463,7.539910240265889,23.03587667708979,155.309,9260.064158607724,11112.292394974402,150,False,9.051864326960025,False,17.218690500997454,175.09749344392603,False,167.67727156046155,False,False
2,1970-07-23 09:45:02.005264227,2025-09-09,2025-09-26 15:03:20.526,HH,C,2843680828,JASSM,3,115,76,2,2,1,225,9,2,0,1,26,0,0,0,0,-122304.90496217164,-4791506.862379369,4198485.866667271,2.29618,-3.09855,0.0773702,-83.0,-3.5,-6.375,0.0,0.0,0.0,0.0,0.0,0.0,2,0,41.40746841404905,-91.46217750588276,10000.001761536449,-95.92067978899368,0.0063440740655143,0.0013765711813417,,9260.064158607724,11112.292394974402,150,2,2025-09-09,2025-09-26 15:03:20.600,HH,C,3525836628,HAWK11,1,1,73,2,1,1,225,2,1,0,0,12,1,225,2,1,-139137.24450858062,-4791531.679658736,4198500.534636021,2.73796,3.05943,-0.276404,-89.625,10.25,22.25,0.03125,-7.96875,8.75,0.119141,0.0371094,0.0585938,4,0,41.40468746391056,-91.66329638488882,11222.476595585827,-76.05870124185643,8.173140061642806,26.04653034047381,155.468,9260.064158607724,11112.292394974402,150,False,9.052187522165141,False,20.285545911750425,174.98837152092452,False,164.72229388224991,False,False
2,1970-07-23 09:45:02.015403844,2025-09-09,2025-09-26 15:03:21.540,HH,C,2844934346,JASSM,3,115,76,2,2,1,225,9,2,0,1,26,0,0,0,0,-122392.24480592164,-4791510.613355932,4198479.085417271,2.29618,-3.09855,0.0773702,-83.0,-3.5,-6.375,0.0,0.0,0.0,0.0,0.0,0.0,2,0,41.4073870496107,-91.46322007094524,9999.999705565411,-95.92136935098512,0.007130245946997,0.0013768374878047,,9260.064158607724,11112.292394974402,150,2,2025-09-09,2025-09-26 15:03:21.500,HH,C,3527029626,HAWK11,1,1,73,2,1,1,225,2,1,0,0,12,1,225,2,1,-139225.65271170562,-4791517.181611861,4198524.897917271,2.90833,3.01322,-0.348693,-87.125,16.0,26.75,-0.078125,-8.5625,9.45312,0.144531,0.0585938,0.0703125,4,0,41.40492288819727,-91.66435768705124,11245.996467416571,-71.22502438704653,8.978890402889219,35.71443200369114,154.478,9260.064158607724,11112.292394974402,150,False,9.052711532168935,False,24.690017411146908,174.86564332562338,False,160.43689168998645,False,False
2,1970-07-23 09:45:02.025467037,2025-09-09,2025-09-26 15:03:22.546,HH,C,2846187064,JASSM,3,115,76,2,2,1,225,9,2,0,1,26,0,0,0,0,-122479.52214967164,-4791514.361402807,4198472.308073521,2.29618,-3.09855,0.077466,-83.0,-3.5,-6.375,0.0,0.0,0.0,0.0,0.0,0.0,2,0,41.40730572903165,-91.46426188742922,9999.99893653066,-95.92616875686518,0.0042716649852515,0.0013766713745323,,9260.064158607724,11112.292394974402,150,2,2025-09-09,2025-09-26 15:03:22.704,HH,C,3528421458,HAWK11,1,1,73,2,1,1,225,2,1,0,0,12,1,225,2,1,-139325.37146170562,-4791495.457002486,4198560.644011021,3.07093,2.92914,-0.435651,-83.125,21.875,33.625,-0.078125,-8.75,9.67188,0.0917969,0.0625,0.0839844,4,0,41.40527617072008,-91.66555663996591,11277.25345670451,-64.46373790378702,8.922549824466056,44.24022200810252,153.5,9260.064158607724,11112.292394974402,150,False,9.059405281399915,False,30.756646494796776,174.6974023736214,False,154.52575121316116,False,False
2,1970-07-23 09:45:02.036203294,2025-09-09,2025-09-26 15:03:23.620,HH,C,2847441022,JASSM,3,115,76,2,2,1,225,9,2,0,1,26,0,0,0,0,-122566.88933717164,-4791518.111402807,4198465.524870396,2.29618,-3.09864,0.077466,-83.0,-3.5,-6.375,0.0,0.0,0.0,0.0,0.0,0.0,2,0,41.40722433417013,-91.46530477434446,9999.999852355664,-95.92321737710267,0.0009511382949007,0.0018030928137131,,9260.064158607724,11112.292394974402,150,2,2025-09-09,2025-09-26 15:03:23.704,HH,C,3529693990,HAWK11,1,1,73,2,1,1,225,2,1,0,0,12,1,225,2,1,-139410.94958670562,-4791468.844697799,4198599.936979771,3.13479,2.8278,-0.514075,-78.125,28.25,39.75,-0.03125,-8.65625,9.6875,-0.0371094,0.0605469,0.0859375,4,0,41.405684906837,-91.66658835279434,11303.178255699457,-57.58882437984794,8.15102399249191,46.26197946553793,152.596,9260.064158607724,11112.292394974402,150,False,9.05856623602827,False,36.95069811912473,174.51053619029412,False,148.49689341129655,False,False
2,1970-07-23 09:45:02.047224592,2025-09-09,2025-09-26 15:03:24.722,HH,C,2848693974,JASSM,3,115,76,2,2,1,225,9,2,0,1,26,0,0,0,0,-122654.18621217164,-4791521.858473119,4198458.745573521,2.29618,-3.09864,0.077466,-83.0,-3.5,-6.375,0.0,0.0,0.0,0.0,0.0,0.0,2,0,41.40714298436562,-91.46634681932424,10000.00155999738,-95.92390659180262,0.0017369236050689,0.0018033497012576,,9260.064158607724,11112.292394974402,150,2,2025-09-09,2025-09-26 15:03:24.406,HH,C,3530529090,HAWK11,1,1,73,2,1,1,225,2,1,0,0,12,1,225,2,1,-139464.32653983062,-4791447.731416549,4198629.075651646,-3.12002,2.75934,-0.532962,-74.75,32.5,42.875,0.078125,-7.17188,7.96875,0.00976562,-0.0078125,0.078125,4,0,41.40599795502551,-91.66723342997928,11318.294316761148,-54.42223612781761,6.466150116823342,46.32953835688747,150.946,9260.064158607724,11112.292394974402,150,False,9.040503477079179,False,40.70372510605594,174.3616755555381,False,144.87083586866714,False,False
2,1970-07-23 09:45:02.058666677,2025-09-09,2025-09-26 15:03:25.866,HH,C,2850003976,JASSM,3,115,76,2,2,1,225,9,2,0,1,26,0,0,0,0,-122745.45964967164,-4791525.774488744,4198451.655729771,2.29618,-3.09864,0.077466,-83.0,-3.5,-6.375,0.0,0.0,0.0,0.0,0.0,0.0,2,0,41.40705791746041,-91.46743632947178,9999.999512196806,-95.92462719905411,0.0025585036934454,0.0018036196277227,,9260.064158607724,11112.292394974402,150,2,2025-09-09,2025-09-26 15:03:26.002,HH,C,3532318588,HAWK11,1,1,73,2,1,1,225,2,1,0,0,12,1,225,2,1,-139571.94763358062,-4791389.914033736,4198695.183073521,-2.99634,2.62685,-0.573613,-68.25,42.125,46.25,-0.078125,-6.95312,7.65625,0.0136719,0.0742188,0.0664062,4,0,41.40676949637269,-91.668539387414,11327.237075372032,-48.10776776656438,3.719329253317864,49.9827430814684,150.849,9260.064158607724,11112.292394974402,150,False,9.050011323508024,False,47.38836440471433,174.042996585855,False,138.41536302907767,False,False
2,1970-07-23 09:45:02.068403805,2025-09-09,2025-09-26 15:03:26.840,HH,C,2851258720,JASSM,3,115,76,2,2,1,225,9,2,0,1,26,0,0,0,0,-122832.88152467164,-4791529.524488744,4198444.864714146,2.29618,-3.09864,0.077466,-83.0,-3.5,-6.375,0.0,0.0,0.0,0.0,0.0,0.0,2,0,41.40697643274677,-91.46847986196885,9999.998946464157,-95.92531739532537,0.0033454146503958,0.0018038759876577,,9260.064158607724,11112.292394974402,150,2,2025-09-09,2025-09-26 15:03:26.906,HH,C,3533272986,HAWK11,1,1,73,2,1,1,225,2,1,0,0,12,1,225,2,1,-139624.56482108062,-4791353.550752486,4198732.688932896,-2.94879,2.54344,-0.619728,-63.75,47.5,49.0,-0.078125,-8.23438,9.07812,-0.00585938,0.0917969,0.0917969,4,0,41.40722986967096,-91.66918071455513,11322.951763142804,-43.37835485811331,3.163408580815745,50.304344468597066,152.596,9260.064158607724,11112.292394974402,150,False,9.031918950545483,False,51.792021692437146,173.84250225351408,False,134.17239044956312,False,False
2,1970-07-23 09:45:02.080648230,2025-09-09,2025-09-26 15:03:28.064,HH,C,2852569150,JASSM,3,115,76,2,2,1,225,9,2,0,1,26,0,0,0,0,-122924.18230592164,-4791533.440504369,4198437.770964146,2.29618,-3.09864,0.077466,-83.0,-3.5,-6.375,0.0,0.0,0.0,0.0,0.0,0.0,2,0,41.40689131510021,-91.46956969330476,9999.99858762079,-95.92603821262804,0.0041672416815091,0.0018041510664201,,9260.064158607724,11112.292394974402,150,2,2025-09-09,2025-09-26 15:03:28.500,HH,C,3535340852,HAWK11,1,1,73,2,1,1,225,2,1,0,0,12,1,225,2,1,-139724.96716483062,-4791262.394502486,4198825.411589146,-2.83537,2.32235,-0.717136,-50.875,57.125,56.75,-0.109375,-9.03125,10.0156,-0.00585938,0.0800781,0.0742188,4,0,41.40838063457642,-91.67041208440884,11307.145671208937,-32.05455160988997,1.8981398617388452,49.42485784668822,154.674,9260.064158607724,11112.292394974402,150,False,9.038729207526915,False,62.528116265104494,173.38691625061796,False,123.87180518135852,False,False
2,1970-07-23 09:45:02.090428957,2025-09-09,2025-09-26 15:03:29.042,HH,C,2853826808,JASSM,3,115,76,2,2,1,225,9,2,0,1,26,0,0,0,0,-123011.80730592164,-4791537.197340307,4198430.962370396,2.29618,-3.09864,0.077466,-83.0,-3.375,-6.375,0.0,0.0,0.0,0.0,0.0,0.0,2,0,41.40680962067593,-91.47061564568124,9999.997606893476,-95.92673000712664,0.0049559815813117,0.0018044090202665,,9260.064158607724,11112.292394974402,150,2,2025-09-09,2025-09-26 15:03:29.204,HH,C,3536175950,HAWK11,1,1,73,2,1,1,225,2,1,0,0,12,1,225,2,1,-139758.49255545562,-4791221.424775924,4198866.345182896,-2.79712,2.23328,-0.752418,-44.875,60.25,59.625,-0.203125,-9.4375,10.4062,-0.0351562,0.0859375,0.0703125,4,0,41.40889485410498,-91.6708269323442,11297.60778699173,-27.764530563293256,1.7371844299729111,48.32973704871704,155.749,9260.064158607724,11112.292394974402,150,False,9.01076656051108,False,66.85207189689463,173.20686651093698,False,119.71143837844687,False,False
2,1970-07-23 09:45:02.101843718,2025-09-09,2025-09-26 15:03:30.184,HH,C,2855134074,JASSM,3,115,76,2,2,1,225,9,2,0,1,26,0,0,0,0,-123102.88933717164,-4791541.101637182,4198423.886198521,2.29618,-3.09864,0.077466,-83.0,-3.375,-6.375,0.0,0.0,0.0,0.0,0.0,0.0,2,0,41.40672470462458,-91.4717028610191,10000.001192580226,-95.9274490918226,0.0057758382920882,0.0018046657258523,,9260.064158607724,11112.292394974402,150,2,2025-09-09,2025-09-26 15:03:30.296,HH,C,3537488248,HAWK11,1,1,73,2,1,1,225,2,1,0,0,12,1,225,2,1,-139802.78161795562,-4791153.089814986,4198935.185026646,-2.72924,2.08027,-0.804189,-34.875,64.125,64.25,-0.03125,-9.75,10.8125,-0.00195312,0.0898438,0.0683594,4,0,41.409758371424864,-91.67137993689724,11282.096076599895,-20.855060299030978,1.7083329334631134,46.26362874375814,157.582,9260.064158607724,11112.292394974402,150,False,8.987712468223235,False,73.73871530694828,172.8521006671794,False,113.19703669400015,False,False
2,1970-07-23 09:45:02.111240494,2025-09-09,2025-09-26 15:03:31.124,HH,C,2856388716,JASSM,3,115,76,2,2,1,225,9,2,0,1,26,0,0,0,0,-123190.30339967164,-4791544.847730932,4198417.091276646,2.29618,-3.09864,0.077466,-83.0,-3.375,-6.375,0.0,0.0,0.0,0.0,0.0,0.0,2,0,41.40664317928392,-91.47274629069298,9999.998216258957,-95.9281392155192,0.0065626807407029,0.0018049312897564,,9260.064158607724,11112.292394974402,150,2,2025-09-09,2025-09-26 15:03:31.002,HH,C,3538402882,HAWK11,1,1,73,2,1,1,225,2,1,0,0,12,1,225,2,1,-139826.80700858062,-4791103.144502486,4198986.138151646,-2.65465,1.97433,-0.833623,-27.75,66.0,67.25,-0.265625,-9.78125,10.7812,0.00390625,0.0722656,0.0585938,4,0,41.41039526685911,-91.67168442052228,11271.549651046726,-16.38073565226289,1.836066495278144,46.23986780468107,158.596,9260.064158607724,11112.292394974402,150,False,8.955456398077123,False,78.35540632340579,172.57854028121344,False,108.87240699188617,False,False
2,1970-07-23 09:45:02.122409705,2025-09-09,2025-09-26 15:03:32.240,HH,C,2857758940,JASSM,3,115,76,2,2,1,225,9,2,0,1,26,0,0,0,0,-123285.77214967164,-4791548.938551244,4198409.671354771,2.29618,-3.09864,0.077466,-83.0,-3.375,-6.375,0.0,0.0,0.0,0.0,0.0,0.0,2,0,41.40655414125959,-91.47388586338307,10000.000779186654,-95.92889292686802,0.0074220251178909,0.0018052112041003,,9260.064158607724,11112.292394974402,150,2,2025-09-09,2025-09-26 15:03:32.006,HH,C,3539556114,HAWK11,1,1,73,2,1,1,225,2,1,0,0,12,1,225,2,1,-139848.54528983062,-4791038.613252486,4199052.194792271,-2.52436,1.82122,-0.861426,-18.0,68.125,70.0,-0.1875,-9.875,10.7656,0.0214844,0.0742188,0.0839844,4,0,41.411221282400426,-91.6719666696134,11257.744144455944,-10.361142249796446,1.854569897782652,47.31652868121234,159.305,9260.064158607724,11112.292394974402,150,False,8.918454556820313,False,84.32803741202765,172.22762244538723,False,103.26291930305541,False,False
2,1970-07-23 09:45:02.133448396,2025-09-09,2025-09-26 15:03:33.344,HH,C,2859073282,JASSM,3,115,76,2,2,1,225,9,2,0,1,26,0,0,0,0,-123377.34636842164,-4791552.860426244,4198402.552214146,2.29618,-3.09874,0.0775619,-83.0,-3.375,-6.375,0.0,0.0,0.0,0.0,0.0,0.0,2,0,41.40646872425422,-91.47497894630594,9999.99845403344,-95.93009419641622,0.0005054045466475,0.0022306834016616,,9260.064158607724,11112.292394974402,150,2,2025-09-09,2025-09-26 15:03:33.299,HH,C,3541107012,HAWK11,1,1,73,2,1,1,225,2,1,0,0,12,1,225,2,1,-139862.16443045562,-4790947.598604049,4199145.042448521,-2.32571,1.59764,-0.869863,-3.75,70.5,72.0,-0.046875,-9.64062,10.4844,0.0175781,0.0859375,0.0917969,4,0,41.41238710356912,-91.67216114929812,11236.366217498702,-2.0702849673913297,1.2953661563735497,49.15446754199915,160.674,9260.064158607724,11112.292394974402,150,False,8.880732174377982,False,92.63132461656444,171.74606227179757,False,95.44315236830136,False,False
2,1970-07-23 09:45:02.144471976,2025-09-09,2025-09-26 15:03:34.447,HH,C,2860383480,JASSM,3,115,76,2,2,1,225,9,2,0,1,26,0,0,0,0,-123468.63152467164,-4791556.769605932,4198395.456511021,2.29618,-3.09874,0.0775619,-83.0,-3.375,-6.375,0.0,0.0,0.0,0.0,0.0,0.0,2,0,41.40638357493259,-91.47606857605876,10000.001773324646,-95.93081487316316,0.0013270908382395,0.002230936432168,,9260.064158607724,11112.292394974402,150,2,2025-09-09,2025-09-26 15:03:34.347,HH,C,3541902344,HAWK11,1,1,73,2,1,1,225,2,1,0,0,12,1,225,2,1,-139862.25818045562,-4790900.243135299,4199193.343229771,-2.21929,1.47559,-0.864878,3.5,71.125,72.375,-0.234375,-9.92188,10.8125,0.0117188,0.0976562,0.09375,4,0,41.41299484593162,-91.67217878855566,11224.726308714218,2.4532154072278853,1.0275631399810703,50.00793485911249,162.507,9260.064158607724,11112.292394974402,150,False,8.834309689970933,False,96.73416476970668,171.4690677235053,False,91.61707066046571,False,False
2,1970-07-23 09:45:02.155228820,2025-09-09,2025-09-26 15:03:35.522,HH,C,2861636482,JASSM,3,115,76,2,2,1,225,9,2,0,1,26,0,0,0,0,-123555.93230592164,-4791560.506910619,4198388.667448521,2.29618,-3.09874,0.0775619,-83.0,-3.375,-6.375,0.0,0.0,0.0,0.0,0.0,0.0,2,0,41.406302119228805,-91.47711064384616,9999.999248752896,-95.93150409147688,0.0021129141934732,0.0022311916430877,,9260.064158607724,11112.292394974402,150,2,2025-09-09,2025-09-26 15:03:35.502,HH,C,3543652076,HAWK11,1,1,73,2,1,1,225,2,1,0,0,12,1,225,2,1,-139844.67224295562,-4790796.174775924,4199300.800261021,-2.05208,1.20533,-0.843018,20.75,70.25,72.875,-0.234375,-10.9688,11.9375,-0.015625,0.101562,0.0605469,4,0,41.4143423624942,-91.67200495106763,11200.723112357524,12.683706269778025,1.3169247381403828,48.09250679107813,164.401,9260.064158607724,11112.292394974402,150,False,8.783949103344476,False,106.35423966866124,170.90490643764196,False,82.58367474577058,False,False
2,1970-07-23 09:45:02.166268919,2025-09-09,2025-09-26 15:03:36.626,HH,C,2862889986,JASSM,3,115,76,2,2,1,225,9,2,0,1,26,0,0,0,0,-123643.26824342164,-4791564.245191869,4198381.876432896,2.29618,-3.09874,0.0775619,-83.0,-3.375,-6.375,0.0,0.0,0.0,0.0,0.0,0.0,2,0,41.406220629693614,-91.47815312883536,10000.001063701431,-95.93219358461072,0.0028990532648491,0.002231438609721,,9260.064158607724,11112.292394974402,150,2,2025-09-09,2025-09-26 15:03:36.707,HH,C,3545083674,HAWK11,1,1,73,2,1,1,225,2,1,0,0,12,1,225,2,1,-139810.82849295562,-4790714.052705611,4199388.015104771,-1.94557,0.999389,-0.821447,35.125,66.875,72.0,-0.234375,-11.0156,11.9844,-0.0488281,0.0878906,0.0683594,4,0,41.415425502911646,-91.67162917765587,11185.60625605388,20.603486746176028,2.680276290964371,45.7327684590551,165.281,9260.064158607724,11112.292394974402,150,False,8.724376870325623,False,114.46145955005446,170.43068303203412,False,74.98359767647644,False,False
2,1970-07-23 09:45:02.176270082,2025-09-09,2025-09-26 15:03:37.627,HH,C,2864143816,JASSM,3,115,76,2,2,1,225,9,2,0,1,26,0,0,0,0,-123730.62371217164,-4791567.983473119,4198375.081511021,2.29618,-3.09874,0.0775619,-83.0,-3.375,-6.375,0.0,0.0,0.0,0.0,0.0,0.0,2,0,41.40613910134355,-91.47919584461076,9999.999589978132,-95.93288322926853,0.0036853694983165,0.0022316967295429,,9260.064158607724,11112.292394974402,150,2,2025-09-09,2025-09-26 15:03:37.596,HH,C,3546038074,HAWK11,1,1,73,2,1,1,225,2,1,0,0,12,1,225,2,1,-139778.63318045562,-4790661.373018111,4199444.899870396,-1.87702,0.876287,-0.790479,44.125,64.0,70.625,-0.328125,-11.0,11.9375,-0.0253906,0.0878906,0.0683594,4,0,41.416128468119545,-91.6712628242358,11177.197020260382,25.78230992880223,3.1580831663694493,44.83174033498894,165.965,9260.064158607724,11112.292394974402,150,False,8.66423320118027,False,119.64913552251666,170.0974017310823,False,70.14874970186617,False,False
2,1970-07-23 09:45:02.185448471,2025-09-09,2025-09-26 15:03:38.544,HH,C,2865217558,JASSM,3,115,76,2,2,1,225,9,2,0,1,26,0,0,0,0,-123805.43621217164,-4791571.183668432,4198369.263151646,2.29618,-3.09874,0.0775619,-83.0,-3.375,-6.375,0.0,0.0,0.0,0.0,0.0,0.0,2,0,41.40606928578482,-91.48008883997468,10000.000188200129,-95.93347384904467,0.0043587810754086,0.0022319038350509,,9260.064158607724,11112.292394974402,150,2,2025-09-09,2025-09-26 15:03:38.502,HH,C,3547191306,HAWK11,1,1,73,2,1,1,225,2,1,0,0,12,1,225,2,1,-139731.22107108062,-4790601.909150924,4199511.847136021,-1.78095,0.736119,-0.752897,54.125,59.5,68.5,-0.296875,-10.9844,12.0156,0.0078125,0.0878906,0.0644531,4,0,41.41694235265162,-91.67071698876296,11172.854904969696,31.848655954201988,4.200455289514955,45.119468920843296,166.369,9260.064158607724,11112.292394974402,150,False,8.603505837929877,False,125.64809321291925,169.7190702407058,False,64.55700207839945,False,False
2,1970-07-23 09:45:02.195473454,2025-09-09,2025-09-26 15:03:39.547,HH,C,2866469844,JASSM,3,115,76,2,2,1,225,9,2,0,1,26,0,0,0,0,-123892.68621217164,-4791574.916090307,4198362.476042271,2.29618,-3.09874,0.0775619,-83.0,-3.375,-6.375,0.0,0.0,0.0,0.0,0.0,0.0,2,0,41.40598784371844,-91.481130292409,10000.00187525375,-95.93416265606898,0.0051441477246806,0.00223215633909,,9260.064158607724,11112.292394974402,150,2,2025-09-09,2025-09-26 15:03:39.408,HH,C,3548265004,HAWK11,1,1,73,2,1,1,225,2,1,0,0,12,1,225,2,1,-139677.83630545562,-4790550.048799361,4199572.356901646,-1.67127,0.617331,-0.70496,63.0,54.625,65.5,-0.046875,-10.5938,11.6562,0.0546875,0.0722656,0.0839844,4,0,41.41766858036191,-91.67009711676944,11172.816884161311,37.59924404152124,4.854643482646674,47.32040647095142,166.234,9260.064158607724,11112.292394974402,150,False,8.532813454584057,False,131.30421547188885,169.3591434151365,False,59.283815788529324,False,False
2,1970-07-23 09:45:02.206233160,2025-09-09,2025-09-26 15:03:40.623,HH,C,2867722446,JASSM,3,115,76,2,2,1,225,9,2,0,1,26,0,0,0,0,-123979.95574342164,-4791578.647535619,4198355.685026646,2.29608,-3.09874,0.0775619,-83.0,-3.375,-6.375,0.0,0.0,0.0,0.0,0.0,0.0,2,0,41.405906368660645,-91.48217197593443,9999.9978661391,-95.93485161482006,0.0059296911612427,-0.0032590578995541,,9260.064158607724,11112.292394974402,150,2,2025-09-09,2025-09-26 15:03:40.596,HH,C,3549815902,HAWK11,1,1,73,2,1,1,225,2,1,0,0,12,1,225,2,1,-139587.89099295562,-4790482.386689986,4199651.597136021,-1.50896,0.481574,-0.603717,75.125,48.375,58.375,-0.1875,-10.1562,11.0,0.0625,0.0859375,0.0800781,4,0,41.41862158151535,-91.6690458293661,11171.956511289543,46.06702066617435,4.2334146079953525,52.54761054149719,166.185,9260.064158607724,11112.292394974402,150,False,8.4443380495931,False,139.5912705361578,168.89045384079023,False,51.467966758693365,False,False
2,1970-07-23 09:45:02.217269040,2025-09-09,2025-09-26 15:03:41.726,HH,C,2868973414,JASSM,3,115,76,2,2,1,225,9,2,0,1,26,0,0,0,0,-124067.11589967164,-4791582.374098119,4198348.903776646,2.29608,-3.09874,0.0775619,-83.0,-3.375,-6.375,0.0,0.0,0.0,0.0,0.0,0.0,2,0,41.40582499599624,-91.483212351383,10000.000010396345,-95.93553970731114,0.0067142491317277,-0.0032588099804485,,9260.064158607724,11112.292394974402,150,2,2025-09-09,2025-09-26 15:03:41.804,HH,C,3551167968,HAWK11,1,1,73,2,1,1,225,2,1,0,0,12,1,225,2,1,-139496.50818045562,-4790428.967744674,4199711.913542271,-1.41155,0.385892,-0.495284,84.5,43.0,50.0,-0.0625,-9.54688,10.4219,0.0273438,0.0820312,0.0859375,4,0,41.41936235606228,-91.66797237596244,11164.955875754684,53.71605239425176,2.7749114731250466,55.72797932599652,166.283,9260.064158607724,11112.292394974402,150,False,8.35426578041222,False,146.8581621032858,168.4979011514942,False,44.57070224028803,False,False
2,1970-07-23 09:45:02.227411234,2025-09-09,2025-09-26 15:03:42.741,HH,C,2870226112,JASSM,3,115,76,2,2,1,225,9,2,0,1,26,0,0,0,0,-124154.39324342164,-4791586.104566869,4198342.112761021,2.29608,-3.09883,0.0775619,-83.0,-3.375,-6.375,0.0,0.0,0.0,0.0,0.0,0.0,2,0,41.40574350669336,-91.4842541233644,10000.001973892058,-95.93259669326268,0.0034030853748513,-0.0028327162030647,,9260.064158607724,11112.292394974402,150,2,2025-09-09,2025-09-26 15:03:42.706,HH,C,3552360966,HAWK11,1,1,73,2,1,1,225,2,1,0,0,12,1,225,2,1,-139407.54724295562,-4790386.438447799,4199755.741667271,-1.34358,0.31763,-0.398643,92.0,38.625,41.375,-0.0625,-9.45312,10.2344,0.03125,0.0859375,0.0898438,4,0,41.41992662840353,-91.66692405284871,11149.127854607888,60.10669443688425,1.258297622348517,58.15477128254428,166.821,9260.064158607724,11112.292394974402,150,False,8.26456660948505,False,153.16507729383366,168.17079145186975,False,38.52537888370517,False,False
2,1970-07-23 09:45:02.237429385,2025-09-09,2025-09-26 15:03:43.742,HH,C,2871478814,JASSM,3,115,76,2,2,1,225,9,2,0,1,26,0,0,0,0,-124241.67449342164,-4791589.834059057,4198335.319792271,2.29608,-3.09883,0.0775619,-83.0,-3.375,-6.375,0.0,0.0,0.0,0.0,0.0,0.0,2,0,41.40566199998148,-91.48529593972256,10000.001487807658,-95.93328573654044,0.0041887340953473,-0.0028324159971803,,9260.064158607724,11112.292394974402,150,2,2025-09-09,2025-09-26 15:03:43.908,HH,C,3553673266,HAWK11,1,1,73,2,1,1,225,2,1,0,0,12,1,225,2,1,-139301.86364920562,-4790345.322236861,4199794.132292271,-1.33082,0.240164,-0.293086,99.125,33.125,31.0,-0.09375,-9.95312,10.5781,-0.0800781,0.0859375,0.0703125,4,0,41.42044868300719,-91.66567537357383,11123.782594337716,67.34897575182043,0.0102488021937527,57.45823581161834,167.823,9260.064158607724,11112.292394974402,150,False,8.165908195378265,False,160.0418182128204,167.84809292840293,False,31.81310519553609,False,False
2,1970-07-23 09:45:02.248494139,2025-09-09,2025-09-26 15:03:44.849,HH,C,2872733264,JASSM,3,115,76,2,2,1,225,9,2,0,1,26,0,0,0,0,-124329.07683717164,-4791593.567457494,4198328.517057896,2.29608,-3.09883,0.0776578,-83.0,-3.375,-6.375,0.0,0.0,0.0,0.0,0.0,0.0,2,0,41.40558037597655,-91.48633919927728,10000.001091836664,-95.93808615487347,0.0013313737425913,-0.0028323468119024,,9260.064158607724,11112.292394974402,150,2,2025-09-09,2025-09-26 15:03:45.024,HH,C,3554707198,HAWK11,1,1,73,2,1,1,225,2,1,0,0,12,1,225,2,1,-139213.59216483062,-4790317.885713424,4199816.114714146,-1.40024,0.176504,-0.215812,103.75,27.875,23.25,-0.15625,-10.2344,10.7969,-0.113281,0.0957031,0.0703125,4,0,41.42077557696283,-91.6646300069706,11097.714695831011,72.9928027537057,-0.4489496736157109,52.54052031022544,169.692,9260.064158607724,11112.292394974402,150,False,8.075217796631334,False,165.19759671381993,167.60655022592795,False,26.70733660972016,True,False
2,1970-07-23 09:45:02.259226866,2025-09-09,2025-09-26 15:03:45.922,HH,C,2874043942,JASSM,3,115,76,2,2,1,225,9,2,0,1,26,0,0,0,0,-124420.39324342164,-4791597.467848119,4198321.407682896,2.29608,-3.09883,0.0776578,-83.0,-3.375,-6.375,0.0,0.0,0.0,0.0,0.0,0.0,2,0,41.40549507424575,-91.4874291754812,10000.000075952534,-95.93880704808136,0.0021533454046263,-0.0028320848460705,,9260.064158607724,11112.292394974402,150,2,2025-09-09,2025-09-26 15:03:46.005,HH,C,3556218330,HAWK11,1,1,73,2,1,1,225,2,1,0,0,12,1,225,2,1,-139079.31677420562,-4790287.148408736,4199837.366667271,-1.53983,0.0898338,-0.122239,108.5,19.125,13.125,-0.03125,-10.0938,10.7188,-0.140625,0.0683594,0.0664062,4,0,41.421125126836166,-91.66303599192908,11058.66358942002,80.25256950490486,-0.434574702916541,43.64971075231825,170.988,9260.064158607724,11112.292394974402,150,False,7.958257365665711,False,171.99887512159964,167.3269745127305,False,19.69391476246333,True,False
2,1970-07-23 09:45:02.270274732,2025-09-09,2025-09-26 15:03:47.027,HH,C,2875296752,JASSM,3,115,76,2,2,1,225,9,2,0,1,26,0,0,0,0,-124507.67839967164,-4791601.194410619,4198314.612761021,2.29608,-3.09883,0.0776578,-83.0,-3.375,-6.375,0.0,0.0,0.0,0.0,0.0,0.0,2,0,41.40541354242711,-91.4884710314887,10000.00040830454,-95.93949611420358,0.002939029301967,-0.0028318482120148,,9260.064158607724,11112.292394974402,150,2,2025-09-09,2025-09-26 15:03:46.908,HH,C,3557172728,HAWK11,1,1,73,2,1,1,225,2,1,0,0,12,1,225,2,1,-138991.13708670562,-4790273.192354049,4199844.913542271,-1.65018,0.0427597,-0.0842731,110.625,13.75,8.125,-0.140625,-9.9375,10.3906,-0.140625,0.0585938,0.0390625,4,0,41.42127434256951,-91.66198701732117,11034.430606504931,83.66219658889071,0.1208822444017648,37.03967996445415,172.21,9260.064158607724,11112.292394974402,150,False,7.866500015520702,False,175.251518609244,167.1489217987139,False,15.967917000531974,True,False
2,1970-07-23 09:45:02.279427382,2025-09-09,2025-09-26 15:03:47.942,HH,C,2876491332,JASSM,3,115,76,2,2,1,225,9,2,0,1,26,0,0,0,0,-124590.90886842164,-4791604.748121557,4198308.132292271,2.29608,-3.09883,0.0776578,-83.0,-3.375,-6.375,0.0,0.0,0.0,0.0,0.0,0.0,2,0,41.40533577964335,-91.48946448729228,10000.002445795788,-95.94015316820176,0.0036882164978383,-0.0028316129789923,,9260.064158607724,11112.292394974402,150,2,2025-09-09,2025-09-26 15:03:48.096,HH,C,3558524794,HAWK11,1,1,73,2,1,1,225,2,1,0,0,12,1,225,2,1,-138864.96130545562,-4790261.373994674,4199850.079557896,-1.84634,-0.0306796,-0.0552233,112.125,5.875,3.25,-0.359375,-10.2188,10.6406,-0.210938,0.0527344,0.0195312,4,0,41.42140131656094,-91.66048320937516,11007.581740079766,87.69060902549388,2.165642765349273,25.5877009948392,173.517,9260.064158607724,11112.292394974402,150,False,7.75647935617507,False,177.18854720759856,166.96146586916214,False,11.433469308076166,True,False
2,1970-07-23 09:45:02.289472909,2025-09-09,2025-09-26 15:03:48.947,HH,C,2877684734,JASSM,3,115,76,2,2,1,225,9,2,0,1,26,0,0,0,0,-124674.05730592164,-4791608.296949682,4198301.657682896,2.29608,-3.09883,0.0776578,-83.0,-3.375,-6.375,0.0,0.0,0.0,0.0,0.0,0.0,2,0,41.40525808958698,-91.49045696201745,10000.003519994523,-95.94080957231952,0.0044366651497775,-0.0028313826044967,,9260.064158607724,11112.292394974402,150,2,2025-09-09,2025-09-26 15:03:49.002,HH,C,3559638258,HAWK11,1,1,73,2,1,1,225,2,1,0,0,12,1,225,2,1,-138758.95544608062,-4790257.593721236,4199851.802214146,-2.14508,-0.063852,-0.0642354,112.625,0.625,2.5,-0.046875,-9.45312,9.85938,-0.289062,0.0351562,-0.00976562,4,0,41.42145372050489,-91.65921765763308,10994.47053778443,88.55821954676807,3.9321045530800234,8.40366948821185,174.165,9260.064158607724,11112.292394974402,150,True,7.656655370397794,False,176.29236655408096,166.81029686117355,False,9.491265088274522,True,False
2,1970-07-23 09:45:02.301488508,2025-09-09,2025-09-26 15:03:50.148,HH,C,2878995004,JASSM,3,115,76,2,2,1,225,9,2,0,1,26,0,0,0,0,-124765.34636842164,-4791612.191480932,4198294.546354771,2.29608,-3.09883,0.0776578,-83.0,-3.375,-6.375,0.0,0.0,0.0,0.0,0.0,0.0,2,0,41.40517277476179,-91.49154660252796,9999.99840194293,-95.94153023889358,0.0052583917772622,-0.0028311210413753,,9260.064158607724,11112.292394974402,150,2,2025-09-09,2025-09-26 15:03:50.205,HH,C,3561149390,HAWK11,1,1,73,2,1,1,225,2,1,0,0,12,1,225,2,1,-138616.09216483062,-4790257.165986861,4199853.827604771,-2.29445,-0.0657694,-0.0815886,112.625,-2.5,3.75,-0.078125,-7.6875,7.92188,-0.0371094,-0.00390625,0.0136719,4,0,41.42149454962029,-91.65751046363224,10987.643464792058,87.88253225745919,4.671671538787201,-0.2134537283420488,172.479,9260.064158607724,11112.292394974402,150,True,7.532814042550063,False,175.6319568644524,166.63222750298132,False,9.351295432762084,True,False
2,1970-07-23 09:45:02.311247924,2025-09-09,2025-09-26 15:03:51.124,HH,C,2880188050,JASSM,3,115,76,2,2,1,225,9,2,0,1,26,0,0,0,0,-124848.47136842164,-4791615.737379369,4198288.071745396,2.29608,-3.09883,0.0776578,-83.0,-3.375,-6.375,0.0,0.0,0.0,0.0,0.0,0.0,2,0,41.405095087809975,-91.49253879314,9999.99827229109,-95.94218645298068,0.006006630015872,-0.0028308898754495,,9260.064158607724,11112.292394974402,150,2,2025-09-09,2025-09-26 15:03:51.096,HH,C,3562223090,HAWK11,1,1,73,2,1,1,225,2,1,0,0,12,1,225,2,1,-138514.09607108062,-4790257.398408736,4199855.804167271,-2.30787,-0.0851359,-0.0848483,112.75,-3.25,4.625,-0.15625,-8.92188,9.15625,-0.015625,0.078125,-0.00195312,4,0,41.42152406338529,-91.65629143833344,10985.249876563064,88.4740481319343,5.627316636753605,-1.021721282783139,174.471,9260.064158607724,11112.292394974402,150,True,7.435017058853331,False,175.53406914383578,166.48343048142286,False,9.729317018390457,True,False
2,1970-07-23 09:45:02.322300417,2025-09-09,2025-09-26 15:03:52.230,HH,C,2881500400,JASSM,3,115,76,2,2,1,225,9,2,0,1,26,0,0,0,0,-124939.90496217164,-4791619.636793432,4198280.950651646,2.29608,-3.09883,0.0776578,-83.0,-3.375,-6.375,0.0,0.0,0.0,0.0,0.0,0.0,2,0,41.405009635869945,-91.49363015374044,10000.001485326577,-95.94290825485308,0.0068296561102832,-0.0028306454733791,,9260.064158607724,11112.292394974402,150,2,2025-09-09,2025-09-26 15:03:52.204,HH,C,3563614922,HAWK11,1,1,73,2,1,1,225,2,1,0,0,12,1,225,2,1,-138382.87341483062,-4790262.834932174,4199861.894011021,-2.32714,-0.0872452,-0.10201,112.25,-5.75,6.875,0.171875,-7.1875,7.59375,-0.015625,-0.03125,0.0117188,4,0,41.42155537527537,-91.65472133061606,11002.511028507848,87.81048367163275,6.366356720863956,-2.206566042878541,172.173,9260.064158607724,11112.292394974402,150,True,7.317273857729071,False,174.6769652495608,166.30245552328594,False,10.559267862843516,True,False
2,1970-07-23 09:45:02.332428459,2025-09-09,2025-09-26 15:03:53.242,HH,C,2882753100,JASSM,3,115,76,2,2,1,225,9,2,0,1,26,0,0,0,0,-125027.18230592164,-4791623.358473119,4198274.149870396,2.29608,-3.09893,0.0776578,-83.0,-3.375,-6.375,0.0,0.0,0.0,0.0,0.0,0.0,2,0,41.40492803861197,-91.49467190240316,10000.000055046665,-95.9399652719732,0.0035184992990429,-0.0024040123438967,,9260.064158607724,11112.292394974402,150,2,2025-09-09,2025-09-26 15:03:53.096,HH,C,3564728386,HAWK11,1,1,73,2,1,1,225,2,1,0,0,12,1,225,2,1,-138277.76599295562,-4790266.247041549,4199866.417448521,-2.32532,-0.0868617,-0.0892585,112.125,-5.25,6.75,-0.015625,-6.3125,6.70312,0.0195312,0.00390625,-0.00390625,4,0,41.42158365729135,-91.65346402328612,11013.25634250092,88.35004049995057,5.869991735131652,-2.0426742239179254,171.684,9260.064158607724,11112.292394974402,150,True,7.215698292490994,False,174.91348601375,166.13755417182287,False,10.734236986605264,True,False
2,1970-07-23 09:45:02.342486563,2025-09-09,2025-09-26 15:03:54.248,HH,C,2884006230,JASSM,3,115,76,2,2,1,225,9,2,0,1,26,0,0,0,0,-125114.49089967164,-4791627.080152807,4198267.347136021,2.29608,-3.09893,0.0776578,-83.0,-3.375,-6.375,0.0,0.0,0.0,0.0,0.0,0.0,2,0,41.40484641388198,-91.49571402187576,10000.000335696208,-95.94065450460114,0.0043043961520606,-0.0024037203382605,,9260.064158607724,11112.292394974402,150,2,2025-09-09,2025-09-26 15:03:54.300,HH,C,3566120218,HAWK11,1,1,73,2,1,1,225,2,1,0,0,12,1,225,2,1,-138146.79138358062,-4790269.747041549,4199872.145964146,-2.33999,-0.0540728,-0.0867658,112.25,-4.0,6.0,0.015625,-5.3125,5.6875,-0.0175781,-0.0410156,0.0,4,0,41.42162397458534,-91.65189754902096,11025.00453928125,87.22084452867175,4.369394961440812,-2.818857618492754,171.513,9260.064158607724,11112.292394974402,150,True,7.1004953573343546,False,175.44138842721716,165.94614850591432,False,10.770462140646757,True,False
2,1970-07-23 09:45:02.354227038,2025-09-09,2025-09-26 15:03:55.422,HH,C,2885318144,JASSM,3,115,76,2,2,1,225,9,2,0,1,26,0,0,0,0,-125205.89714967164,-4791630.975660619,4198260.224089146,2.29608,-3.09893,0.0776578,-83.0,-3.375,-6.375,0.0,0.0,0.0,0.0,0.0,0.0,2,0,41.40476094613193,-91.49680504863323,10000.000530027302,-95.94137608212736,0.0051271779361702,-0.0024034126104312,,9260.064158607724,11112.292394974402,150,2,2025-09-09,2025-09-26 15:03:55.504,HH,C,3567472284,HAWK11,1,1,73,2,1,1,225,2,1,0,0,12,1,225,2,1,-138018.07068045562,-4790271.979463424,4199877.351042271,-2.33865,-0.0535935,-0.0710425,112.75,-2.375,5.375,-0.109375,-6.3125,6.6875,0.0195312,-0.0136719,0.0,4,0,41.42166789561586,-91.65035844733552,11032.667918403473,87.88248990235633,3.755652800838977,-2.6930004497387934,172.564,9260.064158607724,11112.292394974402,150,True,6.984478910590608,False,176.10081295859618,165.7441425171763,False,11.003562033730317,True,False
2,1970-07-23 09:45:02.365266904,2025-09-09,2025-09-26 15:03:56.526,HH,C,2886630502,JASSM,3,115,76,2,2,1,225,9,2,0,1,26,0,0,0,0,-125297.33074342164,-4791634.871168432,4198253.097136021,2.29608,-3.09893,0.0777537,-83.0,-3.375,-6.375,0.0,0.0,0.0,0.0,0.0,0.0,2,0,41.40467543741291,-91.49789639926937,9999.998330709584,-95.94620832158314,0.0023061385915329,-0.0024033959145563,,9260.064158607724,11112.292394974402,150,2,2025-09-09,2025-09-26 15:03:56.410,HH,C,3568665282,HAWK11,1,1,73,2,1,1,225,2,1,0,0,12,1,225,2,1,-137905.75036795562,-4790273.187471236,4199882.067839146,-2.32484,-0.0408422,-0.0741104,113.125,-1.5,5.0,0.015625,-6.42188,6.78125,-0.00390625,0.0,-0.00976562,4,0,41.42171178795216,-91.6490156974395,11037.921777275791,87.26915911452018,3.325348139914203,-1.8869345319480704,173.395,9260.064158607724,11112.292394974402,150,True,6.877274669466915,False,176.40092288882863,165.54656780607309,False,11.22975719650409,True,False
2,1970-07-23 09:45:02.375305413,2025-09-09,2025-09-26 15:03:57.530,HH,C,2887884156,JASSM,3,115,76,2,2,1,225,9,2,0,1,26,0,0,0,0,-125384.67839967164,-4791638.591871557,4198246.290495396,2.29608,-3.09893,0.0777537,-83.0,-3.375,-6.375,0.0,0.0,0.0,0.0,0.0,0.0,2,0,41.40459375683603,-91.49893897774233,10000.00245250571,-95.94689785434416,0.0030923867042072,-0.0024031699794601,,9260.064158607724,11112.292394974402,150,2,2025-09-09,2025-09-26 15:03:57.502,HH,C,3569858282,HAWK11,1,1,73,2,1,1,225,2,1,0,0,12,1,225,2,1,-137791.86364920562,-4790273.720674361,4199887.210417271,-2.32273,-0.0322136,-0.0641396,113.375,-0.875,4.875,0.265625,-5.9375,6.23438,0.0234375,-0.03125,0.0136719,4,0,41.42176282201255,-91.6476544583164,11042.336069246385,87.37338886639868,2.5787266448351187,-1.7266085588511484,173.737,9260.064158607724,11112.292394974402,150,True,6.771530455655037,False,176.629573284323,165.34298167339517,False,11.529571850273877,True,False
2,1970-07-23 09:45:02.386406273,2025-09-09,2025-09-26 15:03:58.640,HH,C,2889197888,JASSM,3,115,76,2,2,1,225,9,2,0,1,26,0,0,0,0,-125476.20935233062,-4791642.489229049,4198239.153776646,2.29608,-3.09893,0.0777537,-83.0,-3.375,-6.375,0.0,0.0,0.0,0.0,0.0,0.0,2,0,41.40450813577856,-91.5000314855693,9999.998343826932,-95.94762040780743,0.0039162924770461,-0.0024029148646956,,9260.064158607724,11112.292394974402,150,2,2025-09-09,2025-09-26 15:03:58.798,HH,C,3571528480,HAWK11,1,1,73,2,1,1,225,2,1,0,0,12,1,225,2,1,-137632.90857108062,-4790273.349580611,4199893.108854771,-2.25179,-0.0354733,-0.0527306,114.0,0.0,3.75,0.0625,-6.5,6.92188,0.0390625,0.0,-0.0078125,4,0,41.421832030110224,-91.64575491677608,11042.989033839454,87.9890222721004,2.2881044537889323,2.3535270581063568,175.289,9260.064158607724,11112.292394974402,150,True,6.639933120674287,False,176.58281924831937,165.08654021871178,False,11.529715534703616,True,False
2,1970-07-23 09:45:02.397307082,2025-09-09,2025-09-26 15:03:59.730,HH,C,2890509880,JASSM,3,115,76,2,2,1,225,9,2,0,1,26,0,0,0,0,-125567.61950858062,-4791646.380830611,4198232.026823521,2.29608,-3.09893,0.0777537,-83.0,-3.375,-6.375,0.0,0.0,0.0,0.0,0.0,0.0,2,0,41.40442262335109,-91.501122548907,9999.997813681928,-95.94834200470144,0.0047391104494122,-0.0024026660169305,,9260.064158607724,11112.292394974402,150,2,2025-09-09,2025-09-26 15:03:59.602,HH,C,3572482878,HAWK11,1,1,73,2,1,1,225,2,1,0,0,12,1,225,2,1,-137542.30310233062,-4790273.477510299,4199895.878386021,-2.25217,-0.0291456,-0.0591541,114.375,0.0,3.125,-0.015625,-6.59375,6.90625,-0.0292969,0.0,0.00585938,4,0,41.4218654458509,-91.64467204702652,11042.91547816349,87.47389194314691,2.2605222165214447,2.331349271873741,175.974,9260.064158607724,11112.292394974402,150,True,6.544468259590817,False,176.34240694699741,164.89034477428723,False,11.46192571359937,True,False
2,1970-07-23 09:45:02.408446028,2025-09-09,2025-09-26 15:04:00.844,HH,C,2891879906,JASSM,3,115,76,2,2,1,225,9,2,0,1,26,0,0,0,0,-125663.07263358062,-4791650.444307174,4198224.585417271,2.29608,-3.09893,0.0777537,-83.0,-3.375,-6.375,0.0,0.0,0.0,0.0,0.0,0.0,2,0,41.404333324383465,-91.50226186577648,10000.00292722052,-95.94909551374168,0.0055983201225474,-0.0024024127134894,,9260.064158607724,11112.292394974402,150,2,2025-09-09,2025-09-26 15:04:00.750,HH,C,3573437278,HAWK11,1,1,73,2,1,1,225,2,1,0,0,12,1,225,2,1,-137450.67614920562,-4790273.597627486,4199898.558073521,-2.2631,-0.0368155,-0.0495668,114.75,-0.25,2.875,-0.109375,-6.95312,7.1875,0.0117188,0.00195312,0.0117188,4,0,41.42189846605531,-91.64357697106072,11042.559835516078,88.17740496061508,2.227558780962335,1.7087732055602396,176.964,9260.064158607724,11112.292394974402,150,True,6.446431108733684,False,176.16282714733973,164.68262755096137,False,11.491931791315194,True,False
2,1970-07-23 09:45:02.419468689,2025-09-09,2025-09-26 15:04:01.946,HH,C,2893134238,JASSM,3,115,76,2,2,1,225,9,2,0,1,26,0,0,0,0,-125750.46325858062,-4791654.163057174,4198217.769011021,2.29608,-3.09893,0.0777537,-83.0,-3.375,-6.375,0.0,0.0,0.0,0.0,0.0,0.0,2,0,41.40425154323776,-91.50330494736323,10000.000359685098,-95.94978537456096,0.0063849580989941,-0.0024021659145033,,9260.064158607724,11112.292394974402,150,2,2025-09-09,2025-09-26 15:04:01.804,HH,C,3575147242,HAWK11,1,1,73,2,1,1,225,2,1,0,0,12,1,225,2,1,-137285.07263358062,-4790274.980439986,4199903.218229771,-2.24239,-0.0413216,-0.0554151,115.125,-1.0,2.5,0.0625,-6.82812,7.09375,-0.0117188,0.00390625,0.0,4,0,41.42194994650078,-91.64159736491338,11044.397410427891,88.0975512621453,2.643986938554021,2.878307891150845,177.892,9260.064158607724,11112.292394974402,150,True,6.313616132721429,False,175.77459007313,164.40846106016028,False,11.399400319526311,True,False
2,1970-07-23 09:45:02.431468695,2025-09-09,2025-09-26 15:04:03.146,HH,C,2894506610,JASSM,3,115,76,2,2,1,225,9,2,0,1,26,0,0,0,0,-125846.08044608062,-4791658.230439986,4198210.311979771,2.29608,-3.09902,0.0777537,-83.0,-3.375,-6.375,0.0,0.0,0.0,0.0,0.0,0.0,2,0,41.4041620683042,-91.50444621743766,10000.0008098763,-95.94690825923178,0.0031488755718001,-0.0019750299711843,,9260.064158607724,11112.292394974402,150,2,2025-09-09,2025-09-26 15:04:03.002,HH,C,3576578842,HAWK11,1,1,73,2,1,1,225,2,1,0,0,12,1,225,2,1,-137146.85388358062,-4790277.544893111,4199906.472136021,-2.24824,-0.0613592,-0.0599211,115.375,-2.25,2.625,-0.03125,-7.92188,8.29688,0.0195312,0.03125,0.0175781,4,0,41.42198020520944,-91.63994462855187,11048.030367203422,88.66273751579793,3.6763026973384,2.5081395007412937,178.442,9260.064158607724,11112.292394974402,150,True,6.190947669766408,False,175.3782585873257,164.1460538777143,False,11.383138870223641,True,False
2,1970-07-23 09:45:02.442228314,2025-09-09,2025-09-26 15:04:04.222,HH,C,2895818792,JASSM,3,115,76,2,2,1,225,9,2,0,1,26,0,0,0,0,-125937.50232108062,-4791662.118135299,4198203.181120396,2.29608,-3.09902,0.0777537,-83.0,-3.375,-6.375,0.0,0.0,0.0,0.0,0.0,0.0,2,0,41.40407650905171,-91.50553741045036,10000.000447552697,-95.94762993694556,0.0039717994689647,-0.001974734853431,,9260.064158607724,11112.292394974402,150,2,2025-09-09,2025-09-26 15:04:04.204,HH,C,3577970672,HAWK11,1,1,73,2,1,1,225,2,1,0,0,12,1,225,2,1,-137013.16052420562,-4790281.881807174,4199910.802214146,-2.24632,-0.0643313,-0.0525388,115.625,-3.75,3.0,0.0,-6.71875,7.04688,0.0,0.00390625,-0.00195312,4,0,41.42200638328196,-91.63834536858788,11058.686138271089,89.09454042911808,3.5258307506007416,2.6354971427037395,178.271,9260.064158607724,11112.292394974402,150,True,6.072913899759463,False,174.9106792030061,163.884239004766,False,11.44774198462685,True,False
2,1970-07-23 09:45:02.453285184,2025-09-09,2025-09-26 15:04:05.328,HH,C,2897129310,JASSM,3,115,76,2,2,1,225,9,2,0,1,26,0,0,0,0,-126028.81091483062,-4791666.000947799,4198196.058073521,2.29608,-3.09902,0.0777537,-83.0,-3.375,-6.375,0.0,0.0,0.0,0.0,0.0,0.0,2,0,41.40399103896778,-91.50662724852386,10000.002020742351,-95.94835071732416,0.0047937043804625,-0.0019744335806968,,9260.064158607724,11112.292394974402,150,2,2025-09-09,2025-09-26 15:04:05.704,HH,C,3579720404,HAWK11,1,1,73,2,1,1,225,2,1,0,0,12,1,225,2,1,-136842.35974295562,-4790288.482393111,4199915.966276646,-2.25083,-0.072193,-0.0563738,115.75,-4.875,3.0,0.046875,-7.03125,7.39062,-0.00195312,0.0136719,0.0,4,0,41.42203100438767,-91.6363018627274,11074.120929894869,89.22822977140456,4.010205705190117,2.3614977405572657,179.457,9260.064158607724,11112.292394974402,150,True,5.935392726058075,False,174.44612312499535,163.57710669523294,False,11.512002512358741,True,False
2,1970-07-23 09:45:02.463426836,2025-09-09,2025-09-26 15:04:06.342,HH,C,2898382222,JASSM,3,115,76,2,2,1,225,9,2,0,1,26,0,0,0,0,-126116.10388358062,-4791669.711885299,4198189.247526646,2.29608,-3.09902,0.0777537,-83.0,-3.375,-6.375,0.0,0.0,0.0,0.0,0.0,0.0,2,0,41.40390931957504,-91.50766915471358,10000.003164619176,-95.949039796105,0.0055794631750651,-0.001974147028493,,9260.064158607724,11112.292394974402,150,2,2025-09-09,2025-09-26 15:04:06.298,HH,C,3580197604,HAWK11,1,1,73,2,1,1,225,2,1,0,0,12,1,225,2,1,-136796.06286795562,-4790290.665010299,4199917.253386021,-2.25054,-0.0750692,-0.05321,115.75,-5.25,3.0,-0.046875,-7.07812,7.28125,0.0,0.0,0.0117188,4,0,41.422034569939015,-91.63574782059656,11079.030338142513,89.47398636000358,4.01447646674077,2.386116389730013,179.457,9260.064158607724,11112.292394974402,150,True,5.865741537109974,False,174.28752001588597,163.39864565496597,False,11.612361781556196,True,False
2,1970-07-23 09:45:02.473468967,2025-09-09,2025-09-26 15:04:07.346,HH,C,2899636118,JASSM,3,115,76,2,2,1,225,9,2,0,1,26,0,0,0,0,-126203.46325858062,-4791673.424775924,4198182.429167271,2.29608,-3.09902,0.0778495,-83.0,-3.375,-6.375,0.0,0.0,0.0,0.0,0.0,0.0,2,0,41.40382751598179,-91.50871185117067,10000.000407106774,-95.9538398726713,0.0027217839661142,-0.0019741737021302,,9260.064158607724,11112.292394974402,150,2,2025-09-09,2025-09-26 15:04:07.204,HH,C,3581549670,HAWK11,1,1,73,2,1,1,225,2,1,0,0,12,1,225,2,1,-136665.97497733062,-4790296.964814986,4199920.962370396,-2.25265,-0.0715219,-0.0416092,115.875,-5.375,2.375,-0.0625,-6.1875,6.42188,0.00390625,-0.015625,-0.00195312,4,0,41.42204420418464,-91.63419098208055,11093.442085806288,89.84062657783407,3.424121210353368,2.298628717391864,178.992,9260.064158607724,11112.292394974402,150,True,5.75186832333646,False,174.07391038148148,163.12561551106853,False,11.579059524288427,True,False
2,1970-07-23 09:45:02.487886549,2025-09-09,2025-09-26 15:04:08.788,HH,C,2900829574,JASSM,3,115,76,2,2,1,225,9,2,0,1,26,0,0,0,0,-126286.61560233062,-4791676.957002486,4198175.940886021,2.29608,-3.09902,0.0778495,-83.0,-3.375,-6.375,0.0,0.0,0.0,0.0,0.0,0.0,2,0,41.403749665771215,-91.50970433186488,10000.000611041369,-95.95449626114473,0.0034702709047438,-0.0019739650822238,,9260.064158607724,11112.292394974402,150,2,2025-09-09,2025-09-26 15:04:08.468,HH,C,3582822202,HAWK11,1,1,73,2,1,1,225,2,1,0,0,12,1,225,2,1,-136541.21716483062,-4790302.901338424,4199923.569792271,-2.27365,-0.0681663,-0.0344187,116.0,-5.375,1.75,-0.125,-6.45312,6.5625,-0.0429688,-0.015625,0.0078125,4,0,41.42204764178197,-91.63269796915512,11104.951719223222,90.02406803735151,3.00875552122818,1.1131600219839315,179.75,9260.064158607724,11112.292394974402,150,True,5.643042676613547,False,173.902325770458,162.85824556420258,False,11.567130610439355,True,False
2,1970-07-23 09:45:02.515622547,2025-09-09,2025-09-26 15:04:11.562,HH,C,2903335438,JASSM,3,115,76,2,2,1,225,9,2,0,1,26,0,0,0,0,-126461.20544608062,-4791684.372041549,4198162.313932896,2.29608,-3.09902,0.0778495,-83.0,-3.375,-6.375,0.0,0.0,0.0,0.0,0.0,0.0,2,0,41.40358616232511,-91.5117881750371,10000.000855916882,-95.95587443138947,0.0050418249821574,-0.0019735087780334,,9260.064158607724,11112.292394974402,150,2,2025-09-09,2025-09-26 15:04:11.892,HH,C,3587116996,HAWK11,1,1,73,2,1,1,225,2,1,0,0,12,1,225,2,1,-136121.75622733062,-4790317.046846236,4199926.858854771,-2.39847,-0.0373908,-0.0159151,117.125,-2.125,0.25,-0.078125,-6.42188,6.34375,-0.015625,-0.00976562,-0.00195312,4,0,41.42205669758316,-91.62768014388848,11117.520105549898,89.65665525741703,0.9891767610918664,-6.007493545068007,181.204,9260.064158607724,11112.292394974402,150,True,5.332063642418279,False,174.56670720971428,162.0755399936438,False,12.502860870367837,True,False
2,1970-07-23 09:45:02.522346311,2025-09-09,2025-09-26 15:04:12.234,HH,C,2904647474,JASSM,3,115,76,2,2,1,225,9,2,0,1,26,0,0,0,0,-126552.61950858062,-4791688.253877486,4198155.177214146,2.29608,-3.09902,0.0778495,-83.0,-3.375,-6.375,0.0,0.0,0.0,0.0,0.0,0.0,2,0,41.40350052997643,-91.51287925727226,10000.001958198904,-95.95659602760716,0.0058646810733432,-0.0019732618673678,,9260.064158607724,11112.292394974402,150,2,2025-09-09,2025-09-26 15:04:12.298,HH,C,3587633962,HAWK11,1,1,73,2,1,1,225,2,1,0,0,12,1,225,2,1,-136071.73864920562,-4790317.910127486,4199927.253386021,-2.4072,-0.0349939,-0.0173532,117.375,-1.375,0.25,-0.03125,-6.51562,6.48438,-0.0195312,-0.00195312,0.0,4,0,41.422062679393655,-91.62708208562952,11117.00485724366,89.50440473780743,0.9411573888324002,-6.507652086905081,181.693,9260.064158607724,11112.292394974402,150,True,5.258897071779072,False,174.78629481500377,161.844077866562,False,12.942217712954465,True,False
2,1970-07-23 09:45:02.526483671,2025-09-09,2025-09-26 15:04:12.648,HH,C,2905898536,JASSM,3,115,76,2,2,1,225,9,2,0,1,26,0,0,0,0,-126639.78357108062,-4791691.953096236,4198148.370573521,2.29608,-3.09912,0.0778495,-83.0,-3.375,-6.375,0.0,0.0,0.0,0.0,0.0,0.0,2,0,41.403418870330846,-91.51391961119027,9999.998029707218,-95.95365221733046,0.0025525151393756,-0.0015456591188077,,9260.064158607724,11112.292394974402,150,2,2025-09-09,2025-09-26 15:04:12.704,HH,C,3588111162,HAWK11,1,1,73,2,1,1,225,2,1,0,0,12,1,225,2,1,-136023.85193045562,-4790318.740205611,4199927.495573521,-2.4119,-0.0306796,-0.0233932,117.5,-1.25,0.5,-0.09375,-6.95312,6.9375,-0.00585938,0.00976562,-0.0136719,4,0,41.42206746757078,-91.6265095046308,11116.227358999948,89.08170649853643,0.9851637589662962,-6.778892671909591,181.827,9260.064158607724,11112.292394974402,150,True,5.189099626833963,False,174.92135696378733,161.61769296923288,False,13.303705372122522,True,False
2,1970-07-23 09:45:02.531784884,2025-09-09,2025-09-26 15:04:13.178,HH,C,2902082786,JASSM,3,115,76,2,2,1,225,9,2,0,1,26,0,0,0,0,-126373.93200858062,-4791680.665986861,4198169.126432896,2.29608,-3.09902,0.0778495,-83.0,-3.375,-6.375,0.0,0.0,0.0,0.0,0.0,0.0,2,0,41.40366790008679,-91.51074651101275,10000.001640278124,-95.95518551716737,0.0042562410480913,-0.0019737383113715,,9260.064158607724,11112.292394974402,150,2,2025-09-09,2025-09-26 15:04:13.204,HH,C,3588747428,HAWK11,1,1,73,2,1,1,225,2,1,0,0,12,1,225,2,1,-135961.90466483062,-4790319.669893111,4199928.181120396,-2.41717,-0.0294333,-0.0324053,117.75,-1.125,1.125,-0.03125,-7.39062,7.39062,-0.0078125,0.0136719,-0.0117188,4,0,41.42207702711471,-91.62576885051722,11115.676909030624,88.64762727125134,1.2737191944507569,-7.087594572969381,182.402,9260.064158607724,11112.292394974402,150,True,5.293011125833005,False,175.20347541342983,162.02661538942593,False,13.179714564899694,True,False
2,1970-07-23 09:45:02.536385456,2025-09-09,2025-09-26 15:04:13.638,HH,C,2907093420,JASSM,3,115,76,2,2,1,225,9,2,0,1,26,0,0,0,0,-126723.03357108062,-4791695.486299361,4198141.870573521,2.29608,-3.09912,0.0778495,-83.0,-3.375,-6.375,0.0,0.0,0.0,0.0,0.0,0.0,2,0,41.40334087491254,-91.51491324602742,10000.00033611787,-95.9543093637907,0.0033018828171532,-0.0015453939114188,,9260.064158607724,11112.292394974402,150,2,2025-09-09,2025-09-26 15:04:13.704,HH,C,3589304162,HAWK11,1,1,73,2,1,1,225,2,1,0,0,12,1,225,2,1,-135906.16833670562,-4790320.279268111,4199929.169401646,-2.41995,-0.0317342,-0.0412257,117.875,-0.875,1.875,-0.171875,-7.625,7.64062,-0.00390625,0.00585938,0.0,4,0,41.42208948241377,-91.6251025324193,11115.43116610188,88.35601033428503,1.7072516760042806,-7.2593518487551645,182.561,9260.064158607724,11112.292394974402,150,True,5.084986810849539,False,175.56649425628368,161.2882087399702,False,14.28757847704088,True,False
2,1970-07-23 09:45:02.560010918,2025-09-09,2025-09-26 15:04:16.001,HH,C,2908346014,JASSM,3,115,76,2,2,1,225,9,2,0,1,26,0,0,0,0,-126810.30310233062,-4791699.188447799,4198135.056120396,2.29608,-3.09912,0.0778495,-83.0,-3.375,-6.375,0.0,0.0,0.0,0.0,0.0,0.0,2,0,41.40325911009811,-91.5159548541644,10000.001215909124,-95.9549982365928,0.0040874317717267,-0.0015451215172065,,9260.064158607724,11112.292394974402,150,2,2025-09-09,2025-09-26 15:04:15.904,HH,C,3591531092,HAWK11,1,1,73,2,1,1,225,2,1,0,0,12,1,225,2,1,-135685.56091483062,-4790322.378877486,4199935.583464146,-2.43289,-0.0209005,-0.056949,118.375,0.0,4.125,0.0,-7.1875,7.14062,-0.0078125,0.0,0.00195312,4,0,41.42215748848327,-91.62246531218253,11119.137799643648,87.27145966885334,1.839780773044868,-8.004088247950333,183.135,9260.064158607724,11112.292394974402,150,True,4.925728625415009,False,176.66390982671592,160.7579199949337,False,15.956786253882877,True,False
