Subject_cm,Timestamp,SampleDate_cm,SampleTime_cm,Configuration_cm,Scenario_cm,DisTime_cm,MarkingTxt_cm,Application_cm,EntId_cm,Site_cm,ExerciseId_cm,ForceId_cm,Category_cm,Country_cm,Domain_cm,Kind_cm,Extra_cm,Specific_cm,Subcategory_cm,AltCategory_cm,AltCountry_cm,AltDomain_cm,AltKind_cm,ECEF_X_cm,ECEF_Y_cm,ECEF_Z_cm,OriPhi_cm,OriPsi_cm,OriTheta_cm,LinVelX_cm,LinVelY_cm,LinVelZ_cm,LinAccX_cm,LinAccY_cm,LinAccZ_cm,AngVelX_cm,AngVelY_cm,AngVelZ_cm,DrAlg_cm,Appearance_cm,Latitude_cm,Longitude_cm,Altitude_cm,Heading_cm,Pitch_cm,Roll_cm,CalibratedAirspeed_cm,CM_Altitude_Lead_cm,CM_Altitude_Wing_cm,CM_Airspeed_cm,Subject_ac,SampleDate_ac,SampleTime_ac,Configuration_ac,Scenario_ac,DisTime_ac,MarkingTxt_ac,Application_ac,EntId_ac,Site_ac,ExerciseId_ac,ForceId_ac,Category_ac,Country_ac,Domain_ac,Kind_ac,Extra_ac,Specific_ac,Subcategory_ac,AltCategory_ac,AltCountry_ac,AltDomain_ac,AltKind_ac,ECEF_X_ac,ECEF_Y_ac,ECEF_Z_ac,OriPhi_ac,OriPsi_ac,OriTheta_ac,LinVelX_ac,LinVelY_ac,LinVelZ_ac,LinAccX_ac,LinAccY_ac,LinAccZ_ac,AngVelX_ac,AngVelY_ac,AngVelZ_ac,DrAlg_ac,Appearance_ac,Latitude_ac,Longitude_ac,Altitude_ac,Heading_ac,Pitch_ac,Roll_ac,CalibratedAirspeed_ac,CM_Altitude_Lead_ac,CM_Altitude_Wing_ac,CM_Airspeed_ac,Bank_Angle_Condition,distance_nm,Distance_Condition,angle_between_vel,angle_between_pos,Cone_Condition,angle_between_pos_nose,Nose_Cone_Condition,Intercept_Criteria
2,1970-07-23 10:13:38.504276162,2025-09-11,2025-09-26 14:44:10.427,HH,C,1249773618,JASSM,3,104,76,2,2,1,225,9,2,0,1,26,0,0,0,0,-180582.61169608065,-4777979.657197799,4211689.962370396,-2.36693,-0.400848,0.381002,81.5,-34.5,-35.375,0.0,0.0,0.0,0.0,0.0,0.0,2,0,41.566098438513706,-92.16445023629076,10000.002327079656,119.79863444803638,-0.0030556798595672,0.0045532709120398,,9163.148997757502,11279.40419535643,150,2,2025-09-11,2025-09-26 14:44:10.610,HH,C,2832175464,AMBUSH51,1,1,48,2,1,1,225,2,1,0,0,9,1,225,2,1,-133795.41655591512,-4796370.628821878,4192228.588491853,2.28429,2.87258,-0.240682,-112.278,22.852,19.4852,-0.179608,-7.43691,6.4408,-0.0035006,-0.00329254,0.00418512,4,0,41.334461018294895,-91.5978592620781,9157.819808153552,-70.59786422306648,-0.9574078065239122,-2.296831649608136,198.056,9163.148997757502,11279.40419535643,150,True,28.984564626426415,False,163.63113770163585,178.4835638203225,False,14.973531748974334,True,False
2,1970-07-23 10:13:38.516543966,2025-09-11,2025-09-26 14:44:11.654,HH,C,1251026316,JASSM,3,104,76,2,2,1,225,9,2,0,1,26,0,0,0,0,-180496.97986014312,-4778015.957979049,4211652.700651646,-2.36693,-0.400848,0.381002,81.5,-34.375,-35.375,0.0,0.0,0.0,0.0,0.0,0.0,2,0,41.56565025393439,-92.16340841384408,9999.999163268603,119.79932567719592,-0.002156533949845,0.0045517193974651,,9163.148997757502,11279.40419535643,150,2,2025-09-11,2025-09-26 14:44:11.477,HH,C,2833209398,AMBUSH51,1,1,48,2,1,1,225,2,1,0,0,9,1,225,2,1,-133892.67377042762,-4796350.87093597,4192245.3133113673,2.28298,2.87347,-0.238326,-112.402,22.6949,19.3249,-0.0953929,-7.37026,6.35119,-0.00197552,0.00741836,-0.0126323,4,0,41.33467531611665,-91.59902674254197,9152.089140576052,-70.73105554676769,-1.0126579440070913,-2.357179138692945,198.166,9163.148997757502,11279.40419535643,150,True,28.878628493578432,False,163.54916837640664,178.5646113621236,False,15.120341292053887,True,False
2,1970-07-23 10:13:38.525194677,2025-09-11,2025-09-26 14:44:12.519,HH,C,1252279016,JASSM,3,104,76,2,2,1,225,9,2,0,1,26,0,0,0,0,-180411.34704764312,-4778052.260713424,4211615.436979771,-2.36693,-0.400848,0.381098,81.5,-34.375,-35.375,0.0,0.0,0.0,0.0,0.0,0.0,2,0,41.5652020352961,-92.16236659321964,10000.001607189894,119.80385891985432,-0.0051834214009354,0.0045499352381756,,9163.148997757502,11279.40419535643,150,2,2025-09-11,2025-09-26 14:44:12.310,HH,C,2834203562,AMBUSH51,1,1,48,2,1,1,225,2,1,0,0,9,1,225,2,1,-133986.27730149185,-4796331.957826433,4192261.0713796606,2.28436,2.8735,-0.237928,-112.531,22.7347,18.9347,-0.132301,-7.39709,6.17765,0.00529199,-0.00270373,-0.00542515,4,0,41.33487865589361,-91.60015033764878,9146.09777701318,-70.74987978227986,-1.0258906739954303,-2.277308292194353,198.349,9163.148997757502,11279.40419535643,150,True,28.774739574596808,False,163.40079993421224,178.58671412199985,False,15.297969152261158,True,False
2,1970-07-23 10:13:38.536215269,2025-09-11,2025-09-26 14:44:13.621,HH,C,1253531714,JASSM,3,104,76,2,2,1,225,9,2,0,1,26,0,0,0,0,-180325.7152117056,-4778088.559541549,4211578.173307896,-2.36693,-0.400848,0.381098,81.5,-34.375,-35.375,0.0,0.0,0.0,0.0,0.0,0.0,2,0,41.56475383027087,-92.16132480045458,9999.999718398598,119.80455011717834,-0.004284275077552,0.0045484423067661,,9163.148997757502,11279.40419535643,150,2,2025-09-11,2025-09-26 14:44:13.477,HH,C,2835595394,AMBUSH51,1,1,48,2,1,1,225,2,1,0,0,9,1,225,2,1,-134117.66511480595,-4796305.558930293,4192282.848720438,2.28458,2.87614,-0.235834,-112.766,22.4877,18.7126,-0.0797468,-7.27155,6.21937,0.00676297,-0.00646337,-0.00108503,4,0,41.335160865311245,-91.60172744975544,9137.321924383692,-70.93867803958591,-0.9997848124278697,-2.2255560941755617,198.349,9163.148997757502,11279.40419535643,150,True,28.65072871724696,False,163.21575152330354,178.61925953657425,False,15.518153012715928,True,False
2,1970-07-23 10:13:38.546256379,2025-09-11,2025-09-26 14:44:14.625,HH,C,1254784416,JASSM,3,104,76,2,2,1,225,9,2,0,1,26,0,0,0,0,-180240.08337576807,-4778124.858369674,4211540.909636021,-2.36693,-0.400848,0.381098,81.5,-34.375,-35.375,0.0,0.0,0.0,0.0,0.0,0.0,2,0,41.564305615772,-92.1602830220885,10000.002988275928,119.80524129882814,-0.0033851286839236,0.0045469493343951,,9163.148997757502,11279.40419535643,150,2,2025-09-11,2025-09-26 14:44:14.744,HH,C,2837106526,AMBUSH51,1,1,48,2,1,1,225,2,1,0,0,9,1,225,2,1,-134259.66846674102,-4796277.353098005,4192305.920779053,2.28444,2.88006,-0.235455,-112.943,22.2269,18.4154,-0.160131,-7.37426,6.65308,-0.000311049,0.00562489,-0.0099983,4,0,41.33546077399333,-91.60343189323056,9127.643214939637,-71.10492411596113,-0.8537709123840831,-2.1783717713201805,198.618,9163.148997757502,11279.40419535643,150,True,28.521206517252505,False,163.0061065812243,178.65522480565258,False,15.767635932239122,True,False
2,1970-07-23 10:13:38.557274668,2025-09-11,2025-09-26 14:44:15.727,HH,C,1256037110,JASSM,3,104,76,2,2,1,225,9,2,0,1,26,0,0,0,0,-180154.45056326807,-4778161.155244674,4211503.642057896,-2.36693,-0.400848,0.381098,81.5,-34.375,-35.375,0.0,0.0,0.0,0.0,0.0,0.0,2,0,41.5638573773701,-92.15924124731008,9999.998032738296,119.80593247197685,-0.0024859680285531,0.0045454478210322,,9163.148997757502,11279.40419535643,150,2,2025-09-11,2025-09-26 14:44:15.644,HH,C,2838180226,AMBUSH51,1,1,48,2,1,1,225,2,1,0,0,9,1,225,2,1,-134361.27886719594,-4796257.449038943,4192322.450503434,2.28336,2.87968,-0.234183,-113.076,20.9043,19.3074,-0.109879,-7.48416,6.48106,-0.00843577,-0.00523166,0.000985162,4,0,41.33567384136983,-91.6046514239827,9121.454930038091,-71.14450275546274,-0.9181360626599356,-2.2448839963582765,198.838,9163.148997757502,11279.40419535643,150,True,28.4132815617466,False,162.9062533099987,178.68047384415283,False,15.870681162020592,True,False
2,1970-07-23 10:13:38.570514661,2025-09-11,2025-09-26 14:44:17.051,HH,C,1257289810,JASSM,3,104,76,2,2,1,225,9,2,0,1,26,0,0,0,0,-180068.81872733062,-4778197.452119674,4211466.376432896,-2.36693,-0.400848,0.381098,81.5,-34.375,-35.375,0.0,0.0,0.0,0.0,0.0,0.0,2,0,41.56340914242673,-92.15819949862416,10000.002577620104,119.80662362169272,-0.0015868213226327,0.004543953138784,,9163.148997757502,11279.40419535643,150,2,2025-09-11,2025-09-26 14:44:17.078,HH,C,2839890190,AMBUSH51,1,1,48,2,1,1,225,2,1,0,0,9,1,225,2,1,-134523.44737209613,-4796225.762626568,4192348.837903314,2.28338,2.88648,-0.237794,-113.318,21.5137,18.488,-0.0682644,-7.87134,6.88377,-0.0178359,0.00588288,-0.00279528,4,0,41.33601343280404,-91.60659776585562,9111.801059294838,-71.25305953725675,-0.4984750524170468,-2.1511357333020973,198.911,9163.148997757502,11279.40419535643,150,True,28.273120269357253,False,162.7720557315112,178.72251788199495,False,16.067465884451188,True,False
2,1970-07-23 10:13:38.577745719,2025-09-11,2025-09-26 14:44:17.774,HH,C,1258482856,JASSM,3,104,76,2,2,1,225,9,2,0,1,26,0,0,0,0,-179987.26403983062,-4778232.018525924,4211430.882292271,-2.36693,-0.400752,0.381098,81.5,-34.375,-35.375,0.0,0.0,0.0,0.0,0.0,0.0,2,0,41.5629822348644,-92.15720736464652,9999.999950685366,119.8036375271697,-0.0042969300936229,0.0024995497616152,,9163.148997757502,11279.40419535643,150,2,2025-09-11,2025-09-26 14:44:17.944,HH,C,2840924122,AMBUSH51,1,1,48,2,1,1,225,2,1,0,0,9,1,225,2,1,-134621.47709574577,-4796207.191672965,4192365.172968545,2.28229,2.89045,-0.240987,-113.381,20.8586,18.8876,-0.135016,-7.92823,6.89737,-0.00464285,0.00798844,0.0039937,4,0,41.33621782728427,-91.60777413112136,9108.240817074686,-71.2706346380323,-0.2110320919600796,-2.159497081452949,198.948,9163.148997757502,11279.40419535643,150,True,28.169721785861967,False,162.70582775951453,178.74742551846478,False,16.149940195724195,True,False
2,1970-07-23 10:13:38.588960513,2025-09-11,2025-09-26 14:44:18.896,HH,C,1259795208,JASSM,3,104,76,2,2,1,225,9,2,0,1,26,0,0,0,0,-179897.55407889312,-4778270.040010299,4211391.839323521,-2.36693,-0.400752,0.381098,81.5,-34.375,-35.375,0.0,0.0,0.0,0.0,0.0,0.0,2,0,41.56251263984615,-92.15611603539868,9999.99992593565,119.80436155861128,-0.0033549667139054,0.0024979286499796,,9163.148997757502,11279.40419535643,150,2,2025-09-11,2025-09-26 14:44:18.777,HH,C,2841918288,AMBUSH51,1,1,48,2,1,1,225,2,1,0,0,9,1,225,2,1,-134715.78913971258,-4796189.7969972,4192381.06258737,2.28675,2.89593,-0.242348,-113.399,20.4378,19.0687,-0.223661,-8.12453,7.14869,0.00366497,0.0102064,-0.000797908,4,0,41.3364128305432,-91.60890573297476,9106.359938222293,-71.42154838920752,0.0660365163923108,-1.8285082761222125,198.691,9163.148997757502,11279.40419535643,150,True,28.063238204306582,False,162.6350953906848,178.77145771965564,False,16.241187344551328,True,False
2,1970-07-23 10:13:38.601322422,2025-09-11,2025-09-26 14:44:20.132,HH,C,1261107558,JASSM,3,104,76,2,2,1,225,9,2,0,1,26,0,0,0,0,-179807.84411795562,-4778308.061494674,4211352.794401646,-2.36693,-0.400752,0.381098,81.5,-34.375,-35.375,0.0,0.0,0.0,0.0,0.0,0.0,2,0,41.56204302128029,-92.15502472195328,10000.001311675242,119.8050855728502,-0.0024129967201613,0.0024962960812713,,9163.148997757502,11279.40419535643,150,2,2025-09-11,2025-09-26 14:44:19.977,HH,C,2843349886,AMBUSH51,1,1,48,2,1,1,225,2,1,0,0,9,1,225,2,1,-134851.5304480447,-4796165.631223415,4192404.436257247,2.28922,2.90379,-0.247895,-113.3,19.5592,19.6078,-0.0663719,-8.02429,7.04059,-0.0102084,0.0181501,0.00633437,4,0,41.33669171181155,-91.61053414353869,9106.89599042998,-71.48632517238235,0.6039184042856475,-1.5780137330564543,198.508,9163.148997757502,11279.40419535643,150,True,27.934805772861218,False,162.55078093500856,178.8078995577892,False,16.351571372515068,True,False
2,1970-07-23 10:13:38.610521360,2025-09-11,2025-09-26 14:44:21.052,HH,C,1262240952,JASSM,3,104,76,2,2,1,225,9,2,0,1,26,0,0,0,0,-179730.36657889312,-4778340.897432174,4211319.071745396,-2.36693,-0.400752,0.381194,81.5,-34.375,-35.375,0.0,0.0,0.0,0.0,0.0,0.0,2,0,41.56163742443072,-92.15408222801932,10000.000590670215,119.80955301144706,-0.0055253830982241,0.0024946427882165,,9163.148997757502,11279.40419535643,150,2,2025-09-11,2025-09-26 14:44:21.177,HH,C,2844781486,AMBUSH51,1,1,48,2,1,1,225,2,1,0,0,9,1,225,2,1,-134987.9529805656,-4796142.349593252,4192428.51262266,2.28672,2.91003,-0.251967,-113.132,18.6519,20.1511,-0.0260089,-7.94486,6.78529,-0.00822979,0.00714788,0.00955097,4,0,41.33696995096658,-91.61217040248668,9111.18912200163,-71.55096609590532,1.0180848133138043,-1.633165676629965,198.239,9163.148997757502,11279.40419535643,150,True,27.813780865006983,False,162.45230991632755,178.8456786290863,False,16.47794512035775,True,False
2,1970-07-23 10:13:38.618234625,2025-09-11,2025-09-26 14:44:21.823,HH,C,1263374348,JASSM,3,104,76,2,2,1,225,9,2,0,1,26,0,0,0,0,-179652.89001639312,-4778373.731416549,4211285.351042271,-2.36693,-0.400752,0.381194,81.5,-34.375,-35.375,0.0,0.0,0.0,0.0,0.0,0.0,2,0,41.56123184441314,-92.15313975844468,10000.003642594223,119.81017826730044,-0.004711873716966,0.0024932995618228,,9163.148997757502,11279.40419535643,150,2,2025-09-11,2025-09-26 14:44:21.844,HH,C,2845576818,AMBUSH51,1,1,48,2,1,1,225,2,1,0,0,9,1,225,2,1,-135063.36994649327,-4796129.942571133,4192441.936159818,2.28478,2.9139,-0.254198,-112.927,18.2165,20.2645,0.011426,-7.77964,6.75348,-0.00902042,0.00516092,-0.0062241,4,0,41.33712177070665,-91.61307480737908,9114.954436906548,-71.60295476317654,1.263366964016205,-1.690193043870359,197.909,9163.148997757502,11279.40419535643,150,True,27.72518144402145,False,162.365187532088,178.8660156334787,False,16.582597082386364,True,False
2,1970-07-23 10:13:38.628273337,2025-09-11,2025-09-26 14:44:22.827,HH,C,1264567392,JASSM,3,104,76,2,2,1,225,9,2,0,1,26,0,0,0,0,-179571.33532889312,-4778408.291963424,4211249.852995396,-2.36693,-0.400752,0.381194,81.5,-34.375,-35.375,0.0,0.0,0.0,0.0,0.0,0.0,2,0,41.56080490168926,-92.1521476937118,10000.002003105888,119.81083642030198,-0.0038555412608427,0.0024918802231218,,9163.148997757502,11279.40419535643,150,2,2025-09-11,2025-09-26 14:44:22.845,HH,C,2846769816,AMBUSH51,1,1,48,2,1,1,225,2,1,0,0,9,1,225,2,1,-135175.91721340502,-4796111.835976006,4192462.142359621,2.27491,2.91605,-0.256491,-112.667,17.6999,20.3069,-0.0695959,-7.56473,6.48572,-0.018458,0.00153236,0.00171753,4,0,41.337347068301405,-91.61442435078976,9121.962595230303,-71.58761636729092,1.4409396019548593,-2.2242178803567327,197.237,9163.148997757502,11279.40419535643,150,True,27.61441143614193,False,162.23014603348696,178.89771440972515,False,16.747553720768565,True,False
2,1970-07-23 10:13:38.637170463,2025-09-11,2025-09-26 14:44:23.717,HH,C,1265641134,JASSM,3,104,76,2,2,1,225,9,2,0,1,26,0,0,0,0,-179497.93591483062,-4778439.395479049,4211217.903776646,-2.36693,-0.400752,0.381194,81.5,-34.375,-35.375,0.0,0.0,0.0,0.0,0.0,0.0,2,0,41.560420645186696,-92.15125484471864,9999.999988986314,119.8114287471084,-0.0030848404117211,0.0024906028804981,,9163.148997757502,11279.40419535643,150,2,2025-09-11,2025-09-26 14:44:23.745,HH,C,2847843516,AMBUSH51,1,1,48,2,1,1,225,2,1,0,0,9,1,225,2,1,-135276.78934834443,-4796095.633834345,4192480.498377987,2.27707,2.92108,-0.255478,-112.347,17.4787,20.2668,-0.302138,-7.7051,6.71312,0.00662357,-0.00732681,0.000708443,4,0,41.3375504873473,-91.61563389714924,9128.84691409931,-71.81966030815516,1.6079853852593595,-2.033521362069406,196.663,9163.148997757502,11279.40419535643,150,True,27.514905076600733,False,162.17604006086998,178.92611895957901,False,16.831309372974587,True,False
2,1970-07-23 10:13:38.647212937,2025-09-11,2025-09-26 14:44:24.721,HH,C,1266774530,JASSM,3,104,76,2,2,1,225,9,2,0,1,26,0,0,0,0,-179420.45837576812,-4778472.227510299,4211184.179167271,-2.36693,-0.400752,0.381194,81.5,-34.375,-35.375,0.0,0.0,0.0,0.0,0.0,0.0,2,0,41.56001502747728,-92.15031239968832,10000.002326034668,119.81205397164555,-0.0022713166621857,0.0024892510534911,,9163.148997757502,11279.40419535643,150,2,2025-09-11,2025-09-26 14:44:24.744,HH,C,2849036514,AMBUSH51,1,1,48,2,1,1,225,2,1,0,0,9,1,225,2,1,-135388.82581647483,-4796078.142866137,4192500.5969314654,2.27363,2.92352,-0.253556,-112.074,17.1326,20.0994,-0.240726,-7.63691,6.60772,-0.00592449,-0.00799052,0.00467822,4,0,41.33777145469181,-91.61697715169124,9137.115247648517,-71.99326703775334,1.634479285915299,-2.2000920382809843,196.174,9163.148997757502,11279.40419535643,150,True,27.407087051566954,False,162.02971070098602,178.95839083797455,False,17.011726758504047,True,False
2,1970-07-23 10:13:38.657234640,2025-09-11,2025-09-26 14:44:25.723,HH,C,1267967576,JASSM,3,104,76,2,2,1,225,9,2,0,1,26,0,0,0,0,-179338.90368826812,-4778506.786104049,4211148.677214146,-2.36693,-0.400657,0.381194,81.5,-34.375,-35.375,0.0,0.0,0.0,0.0,0.0,0.0,2,0,41.55958804561857,-92.14932037305304,10000.000728608626,119.809068029874,-0.0049814178977468,0.0004443984881797,,9163.148997757502,11279.40419535643,150,2,2025-09-11,2025-09-26 14:44:25.677,HH,C,2850149980,AMBUSH51,1,1,48,2,1,1,225,2,1,0,0,9,1,225,2,1,-135493.3156318928,-4796062.014631629,4192519.208251973,2.2831,2.92126,-0.25245,-111.898,16.7577,20.0765,-0.245866,-7.36336,6.34388,0.00733722,-0.00457627,-0.000831198,4,0,41.33797552534874,-91.61822987107948,9144.99811349084,-71.95601539083324,1.500012680418908,-1.688679957100263,195.722,9163.148997757502,11279.40419535643,150,True,27.300760596690214,False,161.908850255583,178.98849417770478,False,17.163139474983254,True,False
2,1970-07-23 10:13:38.666293557,2025-09-11,2025-09-26 14:44:26.629,HH,C,1269100970,JASSM,3,104,76,2,2,1,225,9,2,0,1,26,0,0,0,0,-179261.42614920562,-4778539.614229049,4211114.950651646,-2.36693,-0.400657,0.381194,81.5,-34.375,-35.375,0.0,0.0,0.0,0.0,0.0,0.0,2,0,41.55918242214828,-92.14837795397068,9999.9978999576,119.80969322699794,-0.0041679003044553,0.0004430030078271,,9163.148997757502,11279.40419535643,150,2,2025-09-11,2025-09-26 14:44:26.843,HH,C,2851541812,AMBUSH51,1,1,48,2,1,1,225,2,1,0,0,9,1,225,2,1,-135623.02449566984,-4796042.109158613,4192541.9086601776,2.29038,2.92312,-0.25021,-111.657,17.0673,19.4538,-0.0702666,-7.21129,6.51798,0.000916502,0.00382101,-0.00928465,4,0,41.33822542236079,-91.61978491008604,9154.20293254499,-72.12156859147292,1.490768553749398,-1.2490729441534507,195.086,9163.148997757502,11279.40419535643,150,True,27.183814062755857,False,161.83815349744177,179.02669400204985,False,17.2843881706413,True,False
2,1970-07-23 10:13:38.675153882,2025-09-11,2025-09-26 14:44:27.515,HH,C,1270174712,JASSM,3,104,76,2,2,1,225,9,2,0,1,26,0,0,0,0,-179188.02673514312,-4778570.715791549,4211082.999479771,-2.36693,-0.400657,0.381194,81.5,-34.375,-35.375,0.0,0.0,0.0,0.0,0.0,0.0,2,0,41.55879813476746,-92.14748515051814,10000.002846035344,119.81028550468464,-0.0033971991446298,0.0004416748929843,,9163.148997757502,11279.40419535643,150,2,2025-09-11,2025-09-26 14:44:27.311,HH,C,2852098544,AMBUSH51,1,1,48,2,1,1,225,2,1,0,0,9,1,225,2,1,-135675.58315739414,-4796033.958198065,4192551.181095148,2.29428,2.9219,-0.248219,-111.599,17.0844,19.4457,-0.263467,-7.51579,6.6529,-0.00342362,0.00893303,0.00784696,4,0,41.33832768273926,-91.62041505120064,9157.886270356514,-72.16022331652242,1.3641418545817898,-1.0440650255502737,194.891,9163.148997757502,11279.40419535643,150,True,27.11000890691911,False,161.8479660995097,179.04102430661663,False,17.291187736407263,True,False
2,1970-07-23 10:13:38.685192957,2025-09-11,2025-09-26 14:44:28.519,HH,C,1271308106,JASSM,3,104,76,2,2,1,225,9,2,0,1,26,0,0,0,0,-179110.54919608062,-4778603.543916549,4211049.270964146,-2.36693,-0.400657,0.381194,81.5,-34.375,-35.375,0.0,0.0,0.0,0.0,0.0,0.0,2,0,41.55839248304826,-92.14654275438714,10000.003990034387,119.81091067682272,-0.0025836749009539,0.0004402679352127,,9163.148997757502,11279.40419535643,150,2,2025-09-11,2025-09-26 14:44:28.544,HH,C,2853569910,AMBUSH51,1,1,48,2,1,1,225,2,1,0,0,9,1,225,2,1,-135813.5491516537,-4796012.9126523305,4192574.879826159,2.29966,2.9204,-0.244892,-111.395,16.9829,19.229,-0.263149,-7.24056,6.439,-0.00753903,0.00337368,0.00233755,4,0,41.33858968128189,-91.62206905551288,9167.035769116845,-72.24559716721919,1.1752276316686754,-0.7586333803929477,194.17,9163.148997757502,11279.40419535643,150,True,26.988849795640046,False,161.76193037298876,179.08190862446182,False,17.424814773111823,True,False
2,1970-07-23 10:13:38.694233997,2025-09-11,2025-09-26 14:44:29.423,HH,C,1272441500,JASSM,3,104,76,2,2,1,225,9,2,0,1,26,0,0,0,0,-179033.07165701812,-4778636.370088424,4211015.540495396,-2.36684,-0.400657,0.381194,81.5,-34.375,-35.375,0.0,0.0,0.0,0.0,0.0,0.0,2,0,41.55798682207658,-92.14560037091842,10000.000314582565,119.81153583554833,-0.001770150422783,0.0059303314086488,,9163.148997757502,11279.40419535643,150,2,2025-09-11,2025-09-26 14:44:29.344,HH,C,2854524308,AMBUSH51,1,1,48,2,1,1,225,2,1,0,0,9,1,225,2,1,-135902.6459489045,-4795999.089480678,4192590.2354386025,2.30264,2.91696,-0.244082,-111.259,17.0995,19.1334,-0.0582719,-7.04389,6.18849,-0.00825268,-0.00157189,0.00853148,4,0,41.33876059026432,-91.6231372766373,9172.48916851683,-72.15125142924025,1.0038482258209505,-0.6334653691275951,193.828,9163.148997757502,11279.40419535643,150,True,26.893318896392493,False,161.78570426645246,179.10732706948627,False,17.432436440172786,True,False
2,1970-07-23 10:13:38.703133390,2025-09-11,2025-09-26 14:44:30.313,HH,C,1273515242,JASSM,3,104,76,2,2,1,225,9,2,0,1,26,0,0,0,0,-178959.67321951812,-4778667.467744674,4210983.587370396,-2.36684,-0.400657,0.38129,81.5,-34.375,-35.375,0.0,0.0,0.0,0.0,0.0,0.0,2,0,41.55760252298426,-92.14470761382016,10000.003307822246,119.8159703711133,-0.0049252408007293,0.0059288081594649,,9163.148997757502,11279.40419535643,150,2,2025-09-11,2025-09-26 14:44:30.177,HH,C,2855518474,AMBUSH51,1,1,48,2,1,1,225,2,1,0,0,9,1,225,2,1,-135995.30101493222,-4795984.7062422205,4192606.035113288,2.31118,2.91691,-0.244718,-111.109,17.2805,18.9287,-0.125347,-7.3477,6.47217,0.0127988,-0.00129517,-0.00547717,4,0,41.33893721849793,-91.6242481674738,9177.77853955116,-72.12334433481114,1.0273778384535008,-0.1444245514941614,193.596,9163.148997757502,11279.40419535643,150,True,26.79851929462668,False,161.79589837776038,179.13385621551924,False,17.456862401765225,True,False
2,1970-07-23 10:13:38.714518847,2025-09-11,2025-09-26 14:44:31.451,HH,C,1274648636,JASSM,3,104,76,2,2,1,225,9,2,0,1,26,0,0,0,0,-178882.19470389312,-4778700.291963424,4210949.854948521,-2.36684,-0.400657,0.38129,81.5,-34.375,-35.375,0.0,0.0,0.0,0.0,0.0,0.0,2,0,41.5571968456346,-92.1437652424854,9999.998723845054,119.81659551212002,-0.0041117084573194,0.0059274569422108,,9163.148997757502,11279.40419535643,150,2,2025-09-11,2025-09-26 14:44:31.410,HH,C,2856989838,AMBUSH51,1,1,48,2,1,1,225,2,1,0,0,9,1,225,2,1,-136131.31088512923,-4795963.491731588,4192629.291097679,2.31651,2.91792,-0.248175,-110.815,17.1158,19.1422,-0.0584327,-7.51217,6.66017,-0.0059349,0.00255809,-0.0100378,4,0,41.33919750357656,-91.62587890622184,9185.439667479037,-72.01644072754918,1.2038747088690167,0.1777834738265282,193.095,9163.148997757502,11279.40419535643,150,True,26.678359018416653,False,161.8445950693961,179.17307641414354,False,17.4515046733106,True,False
2,1970-07-23 10:13:38.723211183,2025-09-11,2025-09-26 14:44:32.321,HH,C,1275841684,JASSM,3,104,76,2,2,1,225,9,2,0,1,26,0,0,0,0,-178800.63903983062,-4778734.842744674,4210914.349089146,-2.36684,-0.400657,0.38129,81.5,-34.375,-35.375,0.0,0.0,0.0,0.0,0.0,0.0,2,0,41.5567698276074,-92.1427732938522,10000.000251073572,119.81725353581088,-0.0032553735678827,0.0059260480269464,,9163.148997757502,11279.40419535643,150,2,2025-09-11,2025-09-26 14:44:32.245,HH,C,2857984004,AMBUSH51,1,1,48,2,1,1,225,2,1,0,0,9,1,225,2,1,-136223.5813435398,-4795949.222956047,4192645.261154036,2.314,2.91652,-0.251881,-110.634,17.0073,19.2807,-0.20912,-7.64594,6.85006,0.004337,-0.00720406,0.0141803,4,0,41.339374641188485,-91.62698518061129,9191.364663092583,-71.8079511677447,1.2909152603125271,0.0181803594773267,192.63,9163.148997757502,11279.40419535643,150,True,26.57861807542349,False,161.87408221379624,179.1989121931158,False,17.45116993120069,True,False
2,1970-07-23 10:13:38.733230487,2025-09-11,2025-09-26 14:44:33.323,HH,C,1277094380,JASSM,3,104,76,2,2,1,225,9,2,0,1,26,0,0,0,0,-178715.00622733062,-4778771.120088424,4210877.065886021,-2.36684,-0.400657,0.38129,81.5,-34.375,-35.375,0.0,0.0,0.0,0.0,0.0,0.0,2,0,41.55632144130913,-92.1417317698789,10000.000089696265,119.81794444005548,-0.0023562230429131,0.005924558584786,,9163.148997757502,11279.40419535643,150,2,2025-09-11,2025-09-26 14:44:33.477,HH,C,2859455370,AMBUSH51,1,1,48,2,1,1,225,2,1,0,0,9,1,225,2,1,-136360.26699973212,-4795927.97345574,4192669.60048232,2.3157,2.91774,-0.255123,-110.247,16.8934,19.6032,-0.196141,-7.51744,6.68916,-0.0104435,-0.000431723,-0.000935227,4,0,41.33964230143557,-91.628624017912,9201.351416773778,-71.71802125102407,1.4676798476117687,0.1355643819896799,192.288,9163.148997757502,11279.40419535643,150,True,26.452827730998454,False,161.9872320819686,179.2372890070353,False,17.381006009339412,True,False
2,1970-07-23 10:13:38.743272882,2025-09-11,2025-09-26 14:44:34.327,HH,C,1278287428,JASSM,3,104,76,2,2,1,225,9,2,0,1,26,0,0,0,0,-178633.45056326812,-4778805.668916549,4210841.556120396,-2.36684,-0.400561,0.38129,81.5,-34.375,-35.375,0.0,0.0,0.0,0.0,0.0,0.0,2,0,41.55589439102152,-92.14073984889008,9999.99791601436,119.81495864839408,-0.0050663156113604,0.0038792330156046,,9163.148997757502,11279.40419535643,150,2,2025-09-11,2025-09-26 14:44:34.344,HH,C,2860489302,AMBUSH51,1,1,48,2,1,1,225,2,1,0,0,9,1,225,2,1,-136455.46831720753,-4795913.356466855,4192686.604013948,2.31061,2.91657,-0.258732,-109.943,16.6917,19.7782,-0.0701413,-7.44477,6.42694,-0.0117294,0.00668391,0.00130557,4,0,41.33982796962788,-91.62976540995564,9208.875392665546,-71.5224311003901,1.5605352432363395,-0.1679117875828872,191.86,9163.148997757502,11279.40419535643,150,True,26.35148000475931,False,162.00867071583085,179.26340507684506,False,17.38886343445648,True,False
2,1970-07-23 10:13:38.753713291,2025-09-11,2025-09-26 14:44:35.371,HH,C,1279480474,JASSM,3,104,76,2,2,1,225,9,2,0,1,26,0,0,0,0,-178551.89587576812,-4778840.217744674,4210806.046354771,-2.36684,-0.400561,0.38129,81.5,-34.375,-35.375,0.0,0.0,0.0,0.0,0.0,0.0,2,0,41.55546733192813,-92.13974795265187,10000.000511043354,119.81561662048432,-0.0042099813838091,0.0038777519482893,,9163.148997757502,11279.40419535643,150,2,2025-09-11,2025-09-26 14:44:35.444,HH,C,2861801600,AMBUSH51,1,1,48,2,1,1,225,2,1,0,0,9,1,225,2,1,-136575.3051556484,-4795894.746478862,4192708.1560747935,2.31122,2.91641,-0.258448,-109.586,16.9573,19.6296,-0.16018,-7.36751,6.44269,-0.000562801,-0.000883212,-0.00476976,4,0,41.340063921714886,-91.63120224294332,9218.156756687613,-71.52942619445636,1.5441406659212942,-0.1352315130260556,191.469,9163.148997757502,11279.40419535643,150,True,26.23711005096843,False,162.09569756935875,179.29594082334302,False,17.346936682387224,True,False
2,1970-07-23 10:13:38.763193580,2025-09-11,2025-09-26 14:44:36.319,HH,C,1280673520,JASSM,3,104,76,2,2,1,225,9,2,0,1,26,0,0,0,0,-178470.34021170562,-4778874.764619674,4210770.536589146,-2.36684,-0.400561,0.38129,81.5,-34.375,-35.375,0.0,0.0,0.0,0.0,0.0,0.0,2,0,41.5550402761163,-92.13875605865356,10000.002903897734,119.81627458553328,-0.0033536459701945,0.0038762851670855,,9163.148997757502,11279.40419535643,150,2,2025-09-11,2025-09-26 14:44:36.245,HH,C,2862756000,AMBUSH51,1,1,48,2,1,1,225,2,1,0,0,9,1,225,2,1,-136662.8956666896,-4795881.117791303,4192723.7934889686,2.30885,2.91586,-0.256632,-109.4,17.0041,19.567,-0.160744,-7.31063,6.61257,-0.00867504,0.00353389,-0.0010351,4,0,41.340235748659005,-91.63225246007298,9224.6307549866,-71.58627794128468,1.4522243848691492,-0.2802323293958073,191.127,9163.148997757502,11279.40419535643,150,True,26.139751395391446,False,162.11294309998775,179.3188438987663,False,17.360975513511953,True,False
2,1970-07-23 10:13:38.775317150,2025-09-11,2025-09-26 14:44:37.531,HH,C,1281866566,JASSM,3,104,76,2,2,1,225,9,2,0,1,26,0,0,0,0,-178388.78454764312,-4778909.309541549,4210735.024870396,-2.36684,-0.400561,0.38129,81.5,-34.375,-35.375,0.0,0.0,0.0,0.0,0.0,0.0,2,0,41.554613210215095,-92.13776417858644,10000.000933469044,119.81693253578688,-0.0024973103130719,0.0038748167207693,,9163.148997757502,11279.40419535643,150,2,2025-09-11,2025-09-26 14:44:37.376,HH,C,2864108064,AMBUSH51,1,1,48,2,1,1,225,2,1,0,0,9,1,225,2,1,-136787.47317096335,-4795861.25589561,4192746.224939127,2.30967,2.91073,-0.255069,-109.188,17.2934,19.4648,-0.0171278,-7.15686,6.36004,0.000444207,0.0041227,0.0037898,4,0,41.340484247512414,-91.6337463253718,9233.081738959714,-71.46083935373258,1.1836465917708925,-0.3043747474085327,190.773,9163.148997757502,11279.40419535643,150,True,26.022804855105182,False,162.20661640568636,179.3507341923486,False,17.314353866354946,True,False
2,1970-07-23 10:13:38.785353549,2025-09-11,2025-09-26 14:44:38.535,HH,C,1283059614,JASSM,3,104,76,2,2,1,225,9,2,0,1,26,0,0,0,0,-178307.22888358062,-4778943.854463424,4210699.511198521,-2.36684,-0.400561,0.38129,81.5,-34.375,-35.375,0.0,0.0,0.0,0.0,0.0,0.0,2,0,41.55418612257313,-92.1367723115772,9999.999391629028,119.8175904718246,-0.0016409680517865,0.0038733368252027,,9163.148997757502,11279.40419535643,150,2,2025-09-11,2025-09-26 14:44:38.544,HH,C,2865499896,AMBUSH51,1,1,48,2,1,1,225,2,1,0,0,9,1,225,2,1,-136913.81831140773,-4795841.144993367,4192768.72310948,2.30455,2.9123,-0.255314,-108.927,17.3173,19.3871,-0.0683854,-7.1879,6.5209,-0.0140138,-0.00147202,0.00388967,4,0,41.340734357449605,-91.63526138638277,9241.1968790215,-71.5101343153856,1.2579763431815332,-0.576360837943079,190.345,9163.148997757502,11279.40419535643,150,True,25.904996902252282,False,162.21921102745043,179.38192584342838,False,17.347445713412267,True,False
2,1970-07-23 10:13:38.793732602,2025-09-11,2025-09-26 14:44:39.373,HH,C,1284252660,JASSM,3,104,76,2,2,1,225,9,2,0,1,26,0,0,0,0,-178225.67321951812,-4778978.399385299,4210663.997526646,-2.36684,-0.400561,0.381386,81.5,-34.375,-35.375,0.0,0.0,0.0,0.0,0.0,0.0,2,0,41.5537590263441,-92.13578045762608,10000.002528985386,119.82209083721816,-0.0047102658005212,0.0038716726397284,,9163.148997757502,11279.40419535643,150,2,2025-09-11,2025-09-26 14:44:39.310,HH,C,2866414530,AMBUSH51,1,1,48,2,1,1,225,2,1,0,0,9,1,225,2,1,-136997.04953243467,-4795827.817503126,4192783.468305899,2.29906,2.9119,-0.256092,-108.719,17.2238,19.3654,-0.00981119,-7.35925,6.34779,-0.0100878,-0.00730601,-0.00228553,4,0,41.34089906817397,-91.6362594818348,9246.18841278444,-71.4631132073113,1.2728054864514102,-0.895542946357504,190.113,9163.148997757502,11279.40419535643,150,True,25.809909038954487,False,162.20283320705667,179.40111854906127,False,17.392523831887868,True,False
2,1970-07-23 10:13:38.803207400,2025-09-11,2025-09-26 14:44:40.320,HH,C,1285386054,JASSM,3,104,76,2,2,1,225,9,2,0,1,26,0,0,0,0,-178148.19568045562,-4779011.213838424,4210630.259245396,-2.36684,-0.400561,0.381386,81.5,-34.375,-35.375,0.0,0.0,0.0,0.0,0.0,0.0,2,0,41.55335329414838,-92.1348382139984,10000.001330567526,119.8227158462026,-0.0038967525726978,0.0038703340693633,,9163.148997757502,11279.40419535643,150,2,2025-09-11,2025-09-26 14:44:40.476,HH,C,2867806360,AMBUSH51,1,1,48,2,1,1,225,2,1,0,0,9,1,225,2,1,-137124.5350771955,-4795807.359186277,4192805.813337412,2.29309,2.91065,-0.254313,-108.568,17.4138,18.9808,0.0371529,-7.1556,6.18027,-0.00644256,-0.0153517,-0.00069804,4,0,41.341149980652766,-91.63778829207556,9253.210924381456,-71.49223351591445,1.154030964546216,-1.2558775987748676,189.685,9163.148997757502,11279.40419535643,150,True,25.69412871125752,False,162.1545954387691,179.42972442693576,False,17.492201912182,True,False
2,1970-07-23 10:13:38.812912570,2025-09-11,2025-09-26 14:44:41.291,HH,C,1286459796,JASSM,3,104,76,2,2,1,225,9,2,0,1,26,0,0,0,0,-178074.79724295562,-4779042.301729049,4210598.294401646,-2.36684,-0.400561,0.381386,81.5,-34.375,-35.375,0.0,0.0,0.0,0.0,0.0,0.0,2,0,41.55296889053682,-92.13394558878078,10000.00055220427,119.82330793768428,-0.0031260567687657,0.0038690439188514,,9163.148997757502,11279.40419535643,150,2,2025-09-11,2025-09-26 14:44:41.276,HH,C,2868760760,AMBUSH51,1,1,48,2,1,1,225,2,1,0,0,9,1,225,2,1,-137211.40707429207,-4795793.410241341,4192820.8206023,2.26955,2.91134,-0.2525,-108.532,17.3571,18.7437,-0.197842,-7.27423,6.53293,-0.041769,0.013088,0.00159894,4,0,41.34131951411506,-91.63883007241589,9257.506234377175,-71.5952922712444,1.112592379673318,-2.596979559716956,189.526,9163.148997757502,11279.40419535643,150,True,25.60233607456606,False,162.05530151801239,179.4476106529286,False,17.624775860881968,True,False
2,1970-07-23 10:13:38.821252157,2025-09-11,2025-09-26 14:44:42.125,HH,C,1287593190,JASSM,3,104,76,2,2,1,225,9,2,0,1,26,0,0,0,0,-177997.31775076812,-4779075.114229049,4210564.554167271,-2.36684,-0.400561,0.381386,81.5,-34.375,-35.375,0.0,0.0,0.0,0.0,0.0,0.0,2,0,41.55256314218183,-92.13300334558924,9999.9983563454,119.82393293661804,-0.0023125282816838,0.0038677127345551,,9163.148997757502,11279.40419535643,150,2,2025-09-11,2025-09-26 14:44:42.144,HH,C,2869794692,AMBUSH51,1,1,48,2,1,1,225,2,1,0,0,9,1,225,2,1,-137305.43932354386,-4795778.459976086,4192836.878032567,2.24583,2.91158,-0.251725,-108.55,17.0174,18.5244,-0.10748,-7.21374,6.49356,-0.0261,0.00131181,-0.0100357,4,0,41.34150086639573,-91.63995767432728,9262.12078498077,-71.63756866325092,1.0930089091096116,-3.9531663854947054,189.685,9163.148997757502,11279.40419535643,150,True,25.50428995336925,False,161.85514609432255,179.46580116117877,False,17.858515349160125,True,False
2,1970-07-23 10:13:38.831290925,2025-09-11,2025-09-26 14:44:43.129,HH,C,1288786236,JASSM,3,104,76,2,2,1,225,9,2,0,1,26,0,0,0,0,-177915.76208670562,-4779109.655244674,4210529.036589146,-2.36684,-0.400465,0.381386,81.5,-34.375,-35.375,0.0,0.0,0.0,0.0,0.0,0.0,2,0,41.55213601031912,-92.13201154300096,10000.00118972637,119.82094728584563,-0.0050226132788466,0.0018218916787981,,9163.148997757502,11279.40419535643,150,2,2025-09-11,2025-09-26 14:44:43.310,HH,C,2871186524,AMBUSH51,1,1,48,2,1,1,225,2,1,0,0,9,1,225,2,1,-137431.38756523156,-4795758.768146643,4192857.863950571,2.20609,2.9163,-0.244192,-108.703,16.5109,17.906,-0.145246,-7.23358,6.44746,-0.0261063,-0.00475728,-0.0117585,4,0,41.34173825252246,-91.64146789686144,9267.99796685847,-72.13399689141909,0.9952372834401334,-6.172458460647828,189.404,9163.148997757502,11279.40419535643,150,True,25.387111982478928,False,161.43899785439936,179.48812312903706,False,18.323381760435364,True,False
2,1970-07-23 10:13:38.841175129,2025-09-11,2025-09-26 14:44:44.117,HH,C,1289979282,JASSM,3,104,76,2,2,1,225,9,2,0,1,26,0,0,0,0,-177834.20642264312,-4779144.192354049,4210493.519011021,-2.36684,-0.400465,0.381386,81.5,-34.375,-35.375,0.0,0.0,0.0,0.0,0.0,0.0,2,0,41.551708893172176,-92.13101975521104,9999.9991181569,119.82160513730922,-0.0041662829982859,0.0018204308531181,,9163.148997757502,11279.40419535643,150,2,2025-09-11,2025-09-26 14:44:44.110,HH,C,2872140924,AMBUSH51,1,1,48,2,1,1,225,2,1,0,0,9,1,225,2,1,-137518.43693619414,-4795745.660196937,4192871.806995316,2.17045,2.91754,-0.239688,-108.915,15.9559,17.2574,-0.057169,-7.32667,6.3964,-0.0473679,-0.00331959,-0.00661733,4,0,41.34189553346017,-91.64251152413271,9272.084579607288,-72.37145077507628,0.87226167166734,-8.201418604403573,189.294,9163.148997757502,11279.40419535643,150,True,25.290513934523908,False,160.98818132868686,179.50149687183622,False,18.80882024334885,True,False
2,1970-07-23 10:13:38.851192750,2025-09-11,2025-09-26 14:44:45.119,HH,C,1291172330,JASSM,3,104,76,2,2,1,225,9,2,0,1,26,0,0,0,0,-177752.65075858062,-4779178.731416549,4210457.999479771,-2.36684,-0.400465,0.381386,81.5,-34.375,-35.375,0.0,0.0,0.0,0.0,0.0,0.0,2,0,41.55128174263492,-92.13002797960829,10000.00226747562,119.8222629751356,-0.0033099397536605,0.0018189487941023,,9163.148997757502,11279.40419535643,150,2,2025-09-11,2025-09-26 14:44:44.943,HH,C,2873135088,AMBUSH51,1,1,48,2,1,1,225,2,1,0,0,9,1,225,2,1,-137608.9822544609,-4795732.590883154,4192885.428257715,2.13988,2.92774,-0.225546,-109.08,15.5701,16.0269,0.147111,-7.13065,6.25131,-0.024369,0.00750783,-0.0157511,4,0,41.3420498048471,-91.64359687535516,9275.82002712156,-73.35368246563819,0.7447382649316641,-9.831669175150598,189.331,9163.148997757502,11279.40419535643,150,True,25.192388900686204,False,160.39341387561686,179.51354029527118,False,19.447403177099744,True,False
2,1970-07-23 10:13:38.860252594,2025-09-11,2025-09-26 14:44:46.025,HH,C,1292246072,JASSM,3,104,76,2,2,1,225,9,2,0,1,26,0,0,0,0,-177679.25036795562,-4779209.813447799,4210426.030729771,-2.36684,-0.400465,0.381386,81.5,-34.375,-35.375,0.0,0.0,0.0,0.0,0.0,0.0,2,0,41.55089731062444,-92.12913539061388,9999.998858272673,119.82285501842745,-0.0025392347828828,0.0018176250782947,,9163.148997757502,11279.40419535643,150,2,2025-09-11,2025-09-26 14:44:46.176,HH,C,2874606454,AMBUSH51,1,1,48,2,1,1,225,2,1,0,0,9,1,225,2,1,-137744.50727036284,-4795713.748997715,4192904.197446203,2.10979,2.93884,-0.20868,-109.684,14.6602,14.3082,-0.186521,-7.26973,6.60592,-0.0145361,0.0179108,-0.0156762,4,0,41.34226547884138,-91.645221152559,9279.68371635292,-74.48729360082991,0.5535308956304145,-11.431771264757296,189.294,9163.148997757502,11279.40419535643,150,False,25.076590437765574,False,159.39026846513357,179.52720754987473,False,20.514090096386358,True,False
2,1970-07-23 10:13:38.870273248,2025-09-11,2025-09-26 14:44:47.027,HH,C,1293379464,JASSM,3,104,76,2,2,1,225,9,2,0,1,26,0,0,0,0,-177601.77185233062,-4779242.622041549,4210392.286589146,-2.36684,-0.400465,0.381386,81.5,-34.375,-35.375,0.0,0.0,0.0,0.0,0.0,0.0,2,0,41.55049151948709,-92.12819322101518,10000.000226082471,119.82347994304192,-0.0017257132058961,0.0018162341942798,,9163.148997757502,11279.40419535643,150,2,2025-09-11,2025-09-26 14:44:47.209,HH,C,2875839220,AMBUSH51,1,1,48,2,1,1,225,2,1,0,0,9,1,225,2,1,-137857.1602350269,-4795699.132091774,4192917.884165284,2.11358,2.95203,-0.190965,-110.223,13.7218,12.8626,-0.134518,-7.18016,6.58418,0.0157199,-0.000109231,-0.0173262,4,0,41.34242558732912,-91.64657095562865,9281.326146763093,-75.73766808232024,0.4205643001532641,-11.07481859609758,189.636,9163.148997757502,11279.40419535643,150,False,24.970593726802132,False,158.48522184592858,179.53287032499554,False,21.47273558625195,True,False
2,1970-07-23 10:13:38.879173961,2025-09-11,2025-09-26 14:44:47.917,HH,C,1294512860,JASSM,3,104,76,2,2,1,225,9,2,0,1,26,0,0,0,0,-177524.29431326812,-4779275.430635299,4210358.540495396,-2.36684,-0.400465,0.381482,81.5,-34.375,-35.375,0.0,0.0,0.0,0.0,0.0,0.0,2,0,41.550085707231176,-92.12725107489186,10000.001655632112,119.82794743158136,-0.0048376946322709,0.0018146345152145,,9163.148997757502,11279.40419535643,150,2,2025-09-11,2025-09-26 14:44:47.944,HH,C,2876714084,AMBUSH51,1,1,48,2,1,1,225,2,1,0,0,9,1,225,2,1,-137938.0552647274,-4795689.01600084,4192926.951094863,2.12236,2.96021,-0.181826,-110.674,13.191,11.8337,-0.121781,-7.1422,6.82267,0.0168268,0.00501527,-0.0221594,4,0,41.34253314608419,-91.64754010987518,9281.795704092086,-76.43552036297143,0.4114956914774656,-10.489918751482447,189.758,9163.148997757502,11279.40419535643,150,False,24.880990116600216,False,157.884399108444,179.53307210863332,False,22.114067074102717,True,False
2,1970-07-23 10:13:38.889712543,2025-09-11,2025-09-26 14:44:48.971,HH,C,1295705906,JASSM,3,104,76,2,2,1,225,9,2,0,1,26,0,0,0,0,-177442.73767264312,-4779309.963838424,4210323.019011021,-2.36684,-0.400465,0.381482,81.5,-34.375,-35.375,0.0,0.0,0.0,0.0,0.0,0.0,2,0,41.54965854608452,-92.12625933982238,10000.003870001328,119.8286052215074,-0.0039813560999353,0.0018132322253675,,9163.148997757502,11279.40419535643,150,2,2025-09-11,2025-09-26 14:44:48.809,HH,C,2877748018,AMBUSH51,1,1,48,2,1,1,225,2,1,0,0,9,1,225,2,1,-138033.87033650282,-4795677.698883812,4192936.772166221,2.16781,2.9678,-0.172506,-111.058,12.3661,11.0478,-0.0312998,-7.25084,6.59958,0.0720229,0.002943,0.00184861,4,0,41.34265037781248,-91.6486877877507,9282.003280965228,-77.11977368075723,0.3727634316221718,-7.813903943201867,189.917,9163.148997757502,11279.40419535643,150,True,24.781605619226568,False,157.28064133976488,179.5293023189436,False,22.76249747247027,True,False
2,1970-07-23 10:13:38.900512601,2025-09-11,2025-09-26 14:44:50.051,HH,C,1296779648,JASSM,3,104,76,2,2,1,225,9,2,0,1,26,0,0,0,0,-177369.33728201812,-4779341.041963424,4210291.046354771,-2.36684,-0.400465,0.381482,81.5,-34.375,-35.375,0.0,0.0,0.0,0.0,0.0,0.0,2,0,41.54927408170575,-92.1253667972192,9999.998378720977,119.82919721511756,-0.0032106504552932,0.0018119568144891,,9163.148997757502,11279.40419535643,150,2,2025-09-11,2025-09-26 14:44:50.210,HH,C,2879418216,AMBUSH51,1,1,48,2,1,1,225,2,1,0,0,9,1,225,2,1,-138189.51756758342,-4795660.380589658,4192951.402418124,2.25289,2.97613,-0.16662,-111.562,11.704,10.3255,-0.133529,-7.30937,6.74747,0.0499291,0.00152404,-0.00464493,4,0,41.34282551325117,-91.6505517804073,9282.106458832444,-77.68630453555507,0.4982510442580504,-2.862831719243511,190.186,9163.148997757502,11279.40419535643,150,True,24.65780138432959,False,156.7499936410627,179.51394404081404,False,23.36971999520982,True,False
2,1970-07-23 10:13:38.909250730,2025-09-11,2025-09-26 14:44:50.925,HH,C,1298091998,JASSM,3,104,76,2,2,1,225,9,2,0,1,26,0,0,0,0,-177279.62536795562,-4779379.026338424,4210251.970182896,-2.36684,-0.400465,0.381482,81.5,-34.375,-35.375,0.0,0.0,0.0,0.0,0.0,0.0,2,0,41.54880418165877,-92.1242759222803,10000.000090221814,119.82992074981162,-0.002268679414188,0.0018104083270273,,9163.148997757502,11279.40419535643,150,2,2025-09-11,2025-09-26 14:44:51.044,HH,C,2880412380,AMBUSH51,1,1,48,2,1,1,225,2,1,0,0,9,1,225,2,1,-138282.07937708247,-4795650.437080158,4192959.58831042,2.28578,2.97905,-0.166282,-111.606,11.7035,10.04,-0.117543,-6.97743,6.6,0.0303403,0.00338201,-0.0026434,4,0,41.342924060610784,-91.65166016004984,9281.933958364383,-77.81171692984381,0.6088334740671287,-0.951615105161606,190.54,9163.148997757502,11279.40419535643,150,True,24.55542085766964,False,156.64093907616282,179.498415780179,False,23.527528306484918,True,False
2,1970-07-23 10:13:38.922116959,2025-09-11,2025-09-26 14:44:52.211,HH,C,1299344708,JASSM,3,104,76,2,2,1,225,9,2,0,1,26,0,0,0,0,-177193.99157889312,-4779415.284150924,4210214.667448521,-2.36674,-0.400369,0.381482,81.5,-34.375,-35.375,0.0,0.0,0.0,0.0,0.0,0.0,2,0,41.54835561241095,-92.12323465102358,10000.001045062758,119.82696812871612,-0.0049359400548007,0.0052554952664989,,9163.148997757502,11279.40419535643,150,2,2025-09-11,2025-09-26 14:44:52.144,HH,C,2881724680,AMBUSH51,1,1,48,2,1,1,225,2,1,0,0,9,1,225,2,1,-138405.83988385162,-4795637.036332689,4192970.528973004,2.2967,2.97605,-0.166182,-111.892,11.633,10.2775,-0.293652,-7.40854,7.02926,-0.0111447,0.00454506,-0.00211492,4,0,41.34305640620835,-91.65314216956976,9281.440650374836,-77.70336326082203,0.4797421195406978,-0.3536622215345261,191.005,9163.148997757502,11279.40419535643,150,True,24.440104789435907,False,156.68500009767837,179.47195418244425,False,23.54409331116043,True,False
2,1970-07-23 10:13:38.932532250,2025-09-11,2025-09-26 14:44:53.253,HH,C,1300657050,JASSM,3,104,76,2,2,1,225,9,2,0,1,26,0,0,0,0,-177104.27966483062,-4779453.264619674,4210175.589323521,-2.36674,-0.400369,0.381482,81.5,-34.375,-35.375,0.0,0.0,0.0,0.0,0.0,0.0,2,0,41.54788570220853,-92.12214380869716,9999.999987984103,119.82769162874338,-0.0039939751353562,0.0052538949504296,,9163.148997757502,11279.40419535643,150,2,2025-09-11,2025-09-26 14:44:53.210,HH,C,2882997212,AMBUSH51,1,1,48,2,1,1,225,2,1,0,0,9,1,225,2,1,-138524.27145733562,-4795624.269729566,4192981.299670929,2.2906,2.97412,-0.170467,-112.011,11.5765,10.5054,-0.103377,-7.32424,6.84383,-0.00679418,0.00280152,-0.0041976,4,0,41.34318473052551,-91.65456035206856,9281.769348689037,-77.44920199382828,0.5642263780403689,-0.7189395189610162,191.237,9163.148997757502,11279.40419535643,150,True,24.32485083993701,False,156.7412466537941,179.44109919399006,False,23.54634627168486,True,False
2,1970-07-23 10:13:38.942170248,2025-09-11,2025-09-26 14:44:54.217,HH,C,1301969402,JASSM,3,104,76,2,2,1,225,9,2,0,1,26,0,0,0,0,-177014.56775076812,-4779491.245088424,4210136.509245396,-2.36674,-0.400369,0.381482,81.5,-34.375,-35.375,0.0,0.0,0.0,0.0,0.0,0.0,2,0,41.54741576846526,-92.1210529821685,10000.000342616962,119.82841511157154,-0.0030520035955963,0.0052522831773523,,9163.148997757502,11279.40419535643,150,2,2025-09-11,2025-09-26 14:44:54.276,HH,C,2884269744,AMBUSH51,1,1,48,2,1,1,225,2,1,0,0,9,1,225,2,1,-138644.52592575163,-4795611.599440313,4192992.121869416,2.27517,2.97598,-0.169132,-112.237,11.4752,10.4557,-0.00829716,-7.23326,6.69335,-0.0129236,0.000521189,-0.00449304,4,0,41.343312499797605,-91.6560002677793,9282.583895676218,-77.57722786245012,0.5922979138723786,-1.5862072135293757,191.555,9163.148997757502,11279.40419535643,150,True,24.208797800185792,False,156.67268303733064,179.40468768987824,False,23.6768469216436,True,False
2,1970-07-23 10:13:38.953193344,2025-09-11,2025-09-26 14:44:55.319,HH,C,1303281752,JASSM,3,104,76,2,2,1,225,9,2,0,1,26,0,0,0,0,-176924.85583670562,-4779529.225557174,4210097.427214146,-2.36674,-0.400369,0.381482,81.5,-34.375,-35.375,0.0,0.0,0.0,0.0,0.0,0.0,2,0,41.54694581118143,-92.11996217143802,10000.002109083556,119.82913857719969,-0.0021100254354844,0.0052506599472594,,9163.148997757502,11279.40419535643,150,2,2025-09-11,2025-09-26 14:44:55.309,HH,C,2885502508,AMBUSH51,1,1,48,2,1,1,225,2,1,0,0,9,1,225,2,1,-138759.81101705303,-4795599.665530495,4193002.5917821783,2.27226,2.97678,-0.169143,-112.448,11.1151,10.5797,-0.0912539,-7.35827,6.89471,0.0051942,0.00985682,-0.00347771,4,0,41.34343434908144,-91.65738061231264,9284.101542286411,-77.60760353593086,0.6270177269925933,-1.7452549134365702,191.86,9163.148997757502,11279.40419535643,150,True,24.095258266148342,False,156.57984795515992,179.36569098411084,False,23.826423253897428,True,False
2,1970-07-23 10:13:38.963232496,2025-09-11,2025-09-26 14:44:56.323,HH,C,1304534450,JASSM,3,104,76,2,2,1,225,9,2,0,1,26,0,0,0,0,-176839.22204764312,-4779565.477510299,4210060.120573521,-2.36674,-0.400369,0.381482,81.5,-34.375,-35.375,0.0,0.0,0.0,0.0,0.0,0.0,2,0,41.54649721136905,-92.11892096241476,10000.001558824062,119.82982913888752,-0.0012108701388932,0.0052491134629062,,9163.148997757502,11279.40419535643,150,2,2025-09-11,2025-09-26 14:44:56.176,HH,C,2886536442,AMBUSH51,1,1,48,2,1,1,225,2,1,0,0,9,1,225,2,1,-138858.10193727832,-4795589.700060564,4193011.49685616,2.2648,2.9784,-0.167166,-112.644,11.0195,10.4418,-0.157399,-7.22677,6.73499,-0.00846698,-0.00443895,-0.0112217,4,0,41.34353683481988,-91.65855741188165,9285.869660444763,-77.75375877674342,0.6202327844626409,-2.158797399214236,191.787,9163.148997757502,11279.40419535643,150,True,23.99277287687948,False,156.4836673372053,179.32945938204278,False,23.975121718071197,True,False
2,1970-07-23 10:13:38.974250464,2025-09-11,2025-09-26 14:44:57.425,HH,C,1305846800,JASSM,3,104,76,2,2,1,225,9,2,0,1,26,0,0,0,0,-176749.51013358062,-4779603.454072799,4210021.036589146,-2.36674,-0.400369,0.381578,81.5,-34.375,-35.375,0.0,0.0,0.0,0.0,0.0,0.0,2,0,41.546027243931086,-92.1178301842926,10000.000556656163,119.83439529530617,-0.0041942620411601,0.0052473486329481,,9163.148997757502,11279.40419535643,150,2,2025-09-11,2025-09-26 14:44:57.310,HH,C,2887888506,AMBUSH51,1,1,48,2,1,1,225,2,1,0,0,9,1,225,2,1,-138986.5341864433,-4795577.005656121,4193022.9208359113,2.26215,2.98027,-0.162599,-113.012,10.6788,10.3771,-0.136872,-7.22914,6.82468,0.0131754,-0.00291179,-0.00431411,4,0,41.34366735508766,-91.66009497416547,9288.533565108575,-78.02040037523966,0.5256186392550022,-2.295794763866631,192.166,9163.148997757502,11279.40419535643,150,True,23.872938779996932,False,156.31867143385554,179.27878688869063,False,24.207043447999524,True,False
2,1970-07-23 10:13:38.985269150,2025-09-11,2025-09-26 14:44:58.526,HH,C,1307159154,JASSM,3,104,76,2,2,1,225,9,2,0,1,26,0,0,0,0,-176659.79821951812,-4779641.428682174,4209981.952604771,-2.36674,-0.400369,0.381578,81.5,-34.375,-35.375,0.0,0.0,0.0,0.0,0.0,0.0,2,0,41.54555727775784,-92.11673942283235,10000.000423676862,119.83511870849996,-0.0032522960732694,0.0052458063861673,,9163.148997757502,11279.40419535643,150,2,2025-09-11,2025-09-26 14:44:58.643,HH,C,2889479172,AMBUSH51,1,1,48,2,1,1,225,2,1,0,0,9,1,225,2,1,-139137.23766020068,-4795562.189979261,4193036.170389563,2.29535,2.98326,-0.159027,-113.24,10.7088,10.2473,-0.0952135,-7.1719,6.78555,0.0144029,0.00402907,0.000240309,4,0,41.3438189564544,-91.66189914219676,9291.530600708584,-78.28682881953672,0.5161135777637776,-0.3680270899764551,192.398,9163.148997757502,11279.40419535643,150,True,23.742194185127232,False,156.26729765418594,179.21511492356825,False,24.341576092731696,True,False
2,1970-07-23 10:13:38.996150075,2025-09-11,2025-09-26 14:44:59.615,HH,C,1308471504,JASSM,3,104,76,2,2,1,225,9,2,0,1,26,0,0,0,0,-176570.08630545562,-4779679.403291549,4209942.866667271,-2.36674,-0.400273,0.381578,81.5,-34.375,-35.375,0.0,0.0,0.0,0.0,0.0,0.0,2,0,41.54508728804491,-92.1156486771694,10000.001702622962,119.8321991232803,-0.0058767387855076,0.0031989342159132,,9163.148997757502,11279.40419535643,150,2,2025-09-11,2025-09-26 14:44:59.743,HH,C,2890791470,AMBUSH51,1,1,48,2,1,1,225,2,1,0,0,9,1,225,2,1,-139261.4007133584,-4795550.23098655,4193047.021955757,2.31884,2.9815,-0.169369,-113.198,10.6819,10.3756,-0.211562,-7.18151,6.83575,0.0318466,-0.000373467,0.0015927,4,0,41.34394193066895,-91.66338549791703,9294.478069312108,-77.78013658692437,0.8387287121347037,0.967022551642132,192.63,9163.148997757502,11279.40419535643,150,True,23.62464254431595,False,156.30701229801792,179.15929052653783,False,24.369440498695337,True,False
2,1970-07-23 10:13:39.008194672,2025-09-11,2025-09-26 14:45:00.819,HH,C,1309843508,JASSM,3,104,76,2,2,1,225,9,2,0,1,26,0,0,0,0,-176476.29626639312,-4779719.102510299,4209902.001432896,-2.36674,-0.400273,0.381578,81.5,-34.375,-35.375,0.0,0.0,0.0,0.0,0.0,0.0,2,0,41.54459591519144,-92.1145083659966,9999.999566688955,119.83295538465468,-0.0048919428888353,0.0031972406695295,,9163.148997757502,11279.40419535643,150,2,2025-09-11,2025-09-26 14:45:00.809,HH,C,2892064002,AMBUSH51,1,1,48,2,1,1,225,2,1,0,0,9,1,225,2,1,-139382.0128731898,-4795538.871455118,4193058.420001053,2.32218,2.98187,-0.169665,-113.212,8.52386,12.7488,-0.0749145,-7.21421,6.74729,-0.0140284,0.00134927,-0.00350892,4,0,41.34406562902442,-91.66482926152594,9299.83975779111,-77.78245935442322,0.8667107648917437,1.1621171964470396,192.74,9163.148997757502,11279.40419535643,150,True,23.50618149161314,False,156.36695536343936,179.10362312320663,False,24.340273469543813,True,False
2,1970-07-23 10:13:39.018190205,2025-09-11,2025-09-26 14:45:01.819,HH,C,1311096206,JASSM,3,104,76,2,2,1,225,9,2,0,1,26,0,0,0,0,-176390.66150076812,-4779755.348604049,4209864.690886021,-2.36674,-0.400273,0.381578,81.5,-34.375,-35.375,0.0,0.0,0.0,0.0,0.0,0.0,2,0,41.54414727466991,-92.11346722327232,10000.003072617455,119.8336458704862,-0.0039927857157534,0.0031957081725272,,9163.148997757502,11279.40419535643,150,2,2025-09-11,2025-09-26 14:45:01.810,HH,C,2893257000,AMBUSH51,1,1,48,2,1,1,225,2,1,0,0,9,1,225,2,1,-139495.09517858954,-4795527.192361888,4193068.396205701,2.32496,2.97639,-0.176701,-113.21,10.8103,11.1021,-0.132244,-7.33553,6.79055,0.00192351,0.0182437,0.00522333,4,0,41.34418290280579,-91.6661832520478,9300.801478875335,-77.27655273623458,0.9067059865819516,1.2755320186214496,193.058,9163.148997757502,11279.40419535643,150,True,23.396536570565853,False,156.61066514721958,179.0489267912867,False,24.19159393583058,True,False
2,1970-07-23 10:13:39.030232902,2025-09-11,2025-09-26 14:45:03.023,HH,C,1312468208,JASSM,3,104,76,2,2,1,225,9,2,0,1,26,0,0,0,0,-176296.87146170562,-4779795.043916549,4209823.823698521,-2.36674,-0.400273,0.381578,81.5,-34.375,-35.375,0.0,0.0,0.0,0.0,0.0,0.0,2,0,41.54365589024777,-92.11232694685576,9999.998939952842,119.83440209475216,-0.003007995823941,0.0031940226882253,,9163.148997757502,11279.40419535643,150,2,2025-09-11,2025-09-26 14:45:02.909,HH,C,2894569300,AMBUSH51,1,1,48,2,1,1,225,2,1,0,0,9,1,225,2,1,-139618.69227689508,-4795514.751446837,4193080.2899111705,2.3186,2.97405,-0.180348,-113.188,11.1257,11.2824,-0.122732,-7.1631,6.652,-0.0072207,-0.00241661,0.000727168,4,0,41.344315825033846,-91.66766303415562,9304.803656520464,-77.03393936185478,0.9494061295069678,0.8912594511208016,193.095,9163.148997757502,11279.40419535643,150,True,23.2764648125643,False,156.78548805493645,178.988487254368,False,24.087133928851927,True,False
2,1970-07-23 10:13:39.042109945,2025-09-11,2025-09-26 14:45:04.210,HH,C,1313720908,JASSM,3,104,76,2,2,1,225,9,2,0,1,26,0,0,0,0,-176211.23669608062,-4779831.288057174,4209786.509245396,-2.36674,-0.400273,0.381578,81.5,-34.375,-35.375,0.0,0.0,0.0,0.0,0.0,0.0,2,0,41.54320721524132,-92.11128583515212,9999.99996274856,119.83509254717646,-0.002108831769425,0.0031924770653704,,9163.148997757502,11279.40419535643,150,2,2025-09-11,2025-09-26 14:45:04.042,HH,C,2895921364,AMBUSH51,1,1,48,2,1,1,225,2,1,0,0,9,1,225,2,1,-139747.69318735832,-4795501.607076364,4193093.042136393,2.31179,2.97063,-0.183099,-113.223,11.2752,11.5366,-0.113145,-7.20727,6.6561,-0.00544596,-0.000521189,-0.00160726,4,0,41.34445777371986,-91.66920757540798,9309.330234155572,-76.78890878397989,0.9127891561603672,0.4699312621133659,193.363,9163.148997757502,11279.40419535643,150,True,23.15877966644315,False,156.92525699774313,178.9243453135484,False,24.01892123452858,True,False
2,1970-07-23 10:13:39.051250384,2025-09-11,2025-09-26 14:45:05.125,HH,C,1315033258,JASSM,3,104,76,2,2,1,225,9,2,0,1,26,0,0,0,0,-176121.52478201812,-4779869.254854049,4209747.417448521,-2.36674,-0.400273,0.381578,81.5,-34.375,-35.375,0.0,0.0,0.0,0.0,0.0,0.0,2,0,41.54273718074062,-92.11019517192504,9999.997630702092,119.8358158549883,-0.0011668646818862,0.0031908681448088,,9163.148997757502,11279.40419535643,150,2,2025-09-11,2025-09-26 14:45:05.143,HH,C,2897233664,AMBUSH51,1,1,48,2,1,1,225,2,1,0,0,9,1,225,2,1,-139871.71326175646,-4795488.779229539,4193105.4340605694,2.30663,2.97059,-0.181835,-113.361,11.5069,11.6202,-0.16177,-7.3782,6.80959,-0.0198832,0.00499863,-0.00452633,4,0,41.34459624946217,-91.67069255279137,9313.506263245696,-76.84229719707696,0.8638167331575152,0.1730348283564722,193.4,9163.148997757502,11279.40419535643,150,True,23.040967288891647,False,157.02506928629336,178.86111038777932,False,23.99049551912675,True,False
2,1970-07-23 10:13:39.062928402,2025-09-11,2025-09-26 14:45:06.292,HH,C,1316285958,JASSM,3,104,76,2,2,1,225,9,2,0,1,26,0,0,0,0,-176035.89001639312,-4779905.495088424,4209710.102995396,-2.36674,-0.400273,0.381674,81.5,-34.375,-35.375,0.0,0.0,0.0,0.0,0.0,0.0,2,0,41.5422885096608,-92.10915409141658,9999.99963110238,119.84034914074071,-0.0041929391974723,0.0031891924167081,,9163.148997757502,11279.40419535643,150,2,2025-09-11,2025-09-26 14:45:06.243,HH,C,2898545962,AMBUSH51,1,1,48,2,1,1,225,2,1,0,0,9,1,225,2,1,-139997.26637047235,-4795475.882691022,4193118.203103805,2.29043,2.96658,-0.182177,-113.479,11.412,11.8198,-0.167741,-7.1289,6.56017,-0.0180044,0.00284729,0.000194536,4,0,41.3447373963563,-91.67219586072916,9318.448741897366,-76.67736125950536,0.7099912214152999,-0.7944955731005848,193.473,9163.148997757502,11279.40419535643,150,True,22.924963952171574,False,157.05484687674678,178.79602516374268,False,24.029853786224077,True,False
2,1970-07-23 10:13:39.074110959,2025-09-11,2025-09-26 14:45:07.411,HH,C,1317598308,JASSM,3,104,76,2,2,1,225,9,2,0,1,26,0,0,0,0,-175946.17761404935,-4779943.461885299,4209671.009245396,-2.36674,-0.400273,0.381674,81.5,-34.375,-35.375,0.0,0.0,0.0,0.0,0.0,0.0,2,0,41.5418184418187,-92.10806345321949,10000.004071512893,119.84107241891896,-0.0032509615659705,0.0031876374448969,,9163.148997757502,11279.40419535643,150,2,2025-09-11,2025-09-26 14:45:07.309,HH,C,2899818494,AMBUSH51,1,1,48,2,1,1,225,2,1,0,0,9,1,225,2,1,-140117.4056768208,-4795463.477455411,4193130.324344408,2.27951,2.965,-0.181871,-113.531,11.5919,11.5716,-0.0342257,-6.94622,6.35267,-0.016471,-0.0114526,0.00732681,4,0,41.34487216683941,-91.67363437461314,9322.81564612359,-76.6317796563067,0.6333472773005691,-1.4356598013701,193.632,9163.148997757502,11279.40419535643,150,True,22.809119079497705,False,157.02480323831074,178.73212829089564,False,24.13266109240086,True,False
2,1970-07-23 10:13:39.082168235,2025-09-11,2025-09-26 14:45:08.216,HH,C,1318731702,JASSM,3,104,76,2,2,1,225,9,2,0,1,26,0,0,0,0,-175868.70007498687,-4779976.247041549,4209637.245573521,-2.36674,-0.400177,0.381674,81.5,-34.375,-35.375,0.0,0.0,0.0,0.0,0.0,0.0,2,0,41.54141248544962,-92.10712156924804,9999.999978319493,119.83805432944804,-0.0060038658664996,0.001140505618829,,9163.148997757502,11279.40419535643,150,2,2025-09-11,2025-09-26 14:45:08.409,HH,C,2901130792,AMBUSH51,1,1,48,2,1,1,225,2,1,0,0,9,1,225,2,1,-140243.0570784455,-4795450.157710191,4193142.5171764498,2.27048,2.95857,-0.17745,-113.686,11.975,11.0663,-0.154951,-6.44485,5.99007,0.00311985,-0.006299,0.000294404,4,0,41.34501187981385,-91.67513901502988,9325.490604266735,-76.57767660503063,0.1954103147503452,-2.018295980649387,193.706,9163.148997757502,11279.40419535643,150,True,22.698304575173932,False,156.96305205241208,178.6641410398464,False,24.274267133321423,True,False
2,1970-07-23 10:13:39.093210336,2025-09-11,2025-09-26 14:45:09.321,HH,C,1320044054,JASSM,3,104,76,2,2,1,225,9,2,0,1,26,0,0,0,0,-175778.98620779935,-4780014.211885299,4209598.147917271,-2.36674,-0.400177,0.381674,81.5,-34.375,-35.375,0.0,0.0,0.0,0.0,0.0,0.0,2,0,41.54094238391764,-92.10603094381564,10000.001546195595,119.83877758673552,-0.0050618702303245,0.0011388844436578,,9163.148997757502,11279.40419535643,150,2,2025-09-11,2025-09-26 14:45:09.142,HH,C,2902005658,AMBUSH51,1,1,48,2,1,1,225,2,1,0,0,9,1,225,2,1,-140326.48567095728,-4795440.8866520375,4193150.1327923634,2.26602,2.95562,-0.173499,-113.854,12.5762,10.371,-0.0831348,-6.5241,6.07868,-0.0103686,-0.00605349,-0.0129257,4,0,41.34510392900575,-91.67613820166956,9325.179179756316,-76.6346753436101,-0.0790347205539406,-2.303317436625772,194.011,9163.148997757502,11279.40419535643,150,True,22.600710540385073,False,156.89950366680281,178.6165811648105,False,24.3977105858947,True,False
2,1970-07-23 10:13:39.104231486,2025-09-11,2025-09-26 14:45:10.423,HH,C,1321356406,JASSM,3,104,76,2,2,1,225,9,2,0,1,26,0,0,0,0,-175689.27331717435,-4780052.172822799,4209559.050261021,-2.36674,-0.400177,0.381674,81.5,-34.375,-35.375,0.0,0.0,0.0,0.0,0.0,0.0,2,0,41.5404722950868,-92.10494034758896,9999.99927822339,119.83950081792968,-0.0041198947080351,0.0011372782523668,,9163.148997757502,11279.40419535643,150,2,2025-09-11,2025-09-26 14:45:10.543,HH,C,2903675856,AMBUSH51,1,1,48,2,1,1,225,2,1,0,0,9,1,225,2,1,-140486.16738397264,-4795422.480959543,4193163.6295341793,2.25821,2.95053,-0.164754,-114.297,13.2611,9.39662,-0.0198337,-6.65254,6.06991,0.000148763,-0.00497366,1.97657e-05,4,0,41.34527672042037,-91.67805087663952,9320.626420873652,-76.81458053227979,-0.626826656342792,-2.7986694692988925,194.549,9163.148997757502,11279.40419535643,150,True,22.465593842556313,False,156.73204494870438,178.52610722951357,False,24.67142678230353,True,False
2,1970-07-23 10:13:39.115270895,2025-09-11,2025-09-26 14:45:11.527,HH,C,1322668756,JASSM,3,104,76,2,2,1,225,9,2,0,1,26,0,0,0,0,-175599.56091483062,-4780090.131807174,4209519.952604771,-2.36674,-0.400177,0.381674,81.5,-34.375,-35.375,0.0,0.0,0.0,0.0,0.0,0.0,2,0,41.54000220741612,-92.1038497738619,9999.997923042058,119.84022402747904,-0.0031779292037093,0.0011356795305222,,9163.148997757502,11279.40419535643,150,2,2025-09-11,2025-09-26 14:45:11.709,HH,C,2905067688,AMBUSH51,1,1,48,2,1,1,225,2,1,0,0,9,1,225,2,1,-140618.81734659304,-4795406.802623667,4193173.857312626,2.2652,2.95386,-0.160248,-114.664,13.4971,8.77267,-0.164954,-6.94834,6.4083,0.00128061,-0.00701264,-0.0116253,4,0,41.3454158954943,-91.67963990835084,9313.765165026458,-77.1333021266955,-0.6594506309587506,-2.363502025725827,195.27,9163.148997757502,11279.40419535643,150,True,22.34398417954513,False,156.54927747353113,178.44813689733408,False,24.940409972768155,True,False
