Subject_cm,Timestamp,SampleDate_cm,SampleTime_cm,Configuration_cm,Scenario_cm,DisTime_cm,MarkingTxt_cm,Application_cm,EntId_cm,Site_cm,ExerciseId_cm,ForceId_cm,Category_cm,Country_cm,Domain_cm,Kind_cm,Extra_cm,Specific_cm,Subcategory_cm,AltCategory_cm,AltCountry_cm,AltDomain_cm,AltKind_cm,ECEF_X_cm,ECEF_Y_cm,ECEF_Z_cm,OriPhi_cm,OriPsi_cm,OriTheta_cm,LinVelX_cm,LinVelY_cm,LinVelZ_cm,LinAccX_cm,LinAccY_cm,LinAccZ_cm,AngVelX_cm,AngVelY_cm,AngVelZ_cm,DrAlg_cm,Appearance_cm,Latitude_cm,Longitude_cm,Altitude_cm,Heading_cm,Pitch_cm,Roll_cm,CalibratedAirspeed_cm,CM_Altitude_Lead_cm,CM_Altitude_Wing_cm,CM_Airspeed_cm,Subject_ac,SampleDate_ac,SampleTime_ac,Configuration_ac,Scenario_ac,DisTime_ac,MarkingTxt_ac,Application_ac,EntId_ac,Site_ac,ExerciseId_ac,ForceId_ac,Category_ac,Country_ac,Domain_ac,Kind_ac,Extra_ac,Specific_ac,Subcategory_ac,AltCategory_ac,AltCountry_ac,AltDomain_ac,AltKind_ac,ECEF_X_ac,ECEF_Y_ac,ECEF_Z_ac,OriPhi_ac,OriPsi_ac,OriTheta_ac,LinVelX_ac,LinVelY_ac,LinVelZ_ac,LinAccX_ac,LinAccY_ac,LinAccZ_ac,AngVelX_ac,AngVelY_ac,AngVelZ_ac,DrAlg_ac,Appearance_ac,Latitude_ac,Longitude_ac,Altitude_ac,Heading_ac,Pitch_ac,Roll_ac,CalibratedAirspeed_ac,CM_Altitude_Lead_ac,CM_Altitude_Wing_ac,CM_Airspeed_ac,Bank_Angle_Condition,distance_nm,Distance_Condition,angle_between_vel,angle_between_pos,Cone_Condition,angle_between_pos_nose,Nose_Cone_Condition,Intercept_Criteria
2,1970-07-23 09:44:55.075112861,2025-09-09,2025-09-26 14:51:47.511,HH,B,2016707120,JASSM,3,108,76,2,2,1,225,9,2,0,1,26,0,0,0,0,-118680.71355592164,-4815144.711988744,4171641.1581711774,2.50662,2.45207,-0.615702,-56.625,46.875,52.125,0.0,0.0,0.0,0.0,0.0,0.0,2,0,41.08613772537844,-91.41190513243838,9999.999787862796,-39.97651279209037,-0.0045361195343284,0.0011922819620557,,8714.375071090433,10952.218357409804,150,2,2025-09-09,2025-09-26 14:51:47.646,HH,B,3373245582,AMBUSH51,1,1,48,2,1,1,225,2,1,0,0,9,1,225,2,1,-158251.82084798312,-4792608.6364621,4195642.633068508,-2.29083,-0.115952,0.0430217,128.468,-9.86844,-1.57358,-0.160957,-7.88144,7.20678,-0.0191904,0.00908492,0.00910156,4,0,41.37545883268752,-91.8912181049998,9131.696400029934,94.99303282557828,1.930313617271282,0.3072778276860942,197.983,8714.375071090433,10952.218357409804,150,True,27.770469933958694,False,132.32799546375318,168.6566690063995,False,36.32878292054609,False,False
2,1970-07-23 09:44:55.084170224,2025-09-09,2025-09-26 14:51:48.417,HH,B,2018033870,JASSM,3,108,76,2,2,1,225,9,2,0,1,26,0,0,0,0,-118744.04558717164,-4815092.686598119,4171699.0160813336,2.50557,2.45389,-0.614551,-56.75,46.75,52.0,0.0,0.0,0.0,0.0,0.0,0.0,2,0,41.08682860968045,-91.41267352450294,9999.999720894955,-40.08474066027835,-0.0060879758754077,0.0009930688803239,,8714.375071090433,10952.218357409804,150,2,2025-09-09,2025-09-26 14:51:48.279,HH,B,3374001148,AMBUSH51,1,1,48,2,1,1,225,2,1,0,0,9,1,225,2,1,-158170.33068177165,-4792614.787320087,4195641.362707631,-2.30345,-0.115627,0.0447206,128.432,-10.0519,-1.49917,-0.154937,-7.49559,6.8605,-0.0286508,-0.00584543,0.00180284,4,0,41.375429676402,-91.89024252394488,9137.45695404925,95.05419515576592,1.8525397539257955,-0.4145779814763661,198.105,8714.375071090433,10952.218357409804,150,True,27.681731045414562,False,132.486786775666,168.82066880874586,False,36.33394848208195,False,False
2,1970-07-23 09:44:55.095152367,2025-09-09,2025-09-26 14:51:49.515,HH,B,2019345982,JASSM,3,108,76,2,2,1,225,9,2,0,1,26,0,0,0,0,-118806.67839967164,-4815041.233961401,4171756.2348313336,2.50557,2.45389,-0.614551,-56.75,46.75,52.0,0.0,0.0,0.0,0.0,0.0,0.0,2,0,41.08751186822895,-91.41343344942727,9999.999893589911,-40.08524008769834,-0.0051964058272076,0.0009913184874396,,8714.375071090433,10952.218357409804,150,2,2025-09-09,2025-09-26 14:51:49.646,HH,B,3375631580,AMBUSH51,1,1,48,2,1,1,225,2,1,0,0,9,1,225,2,1,-157995.1343796239,-4792628.129974068,4195639.254488993,-2.33039,-0.121088,0.0389909,128.175,-10.3644,-0.848549,-0.139787,-7.49191,6.80432,-0.0141054,-0.00447432,0.00449096,4,0,41.37537046541951,-91.88814507309216,9151.496639194218,95.01737326648076,2.305817802124683,-1.9464702904538291,198.142,8714.375071090433,10952.218357409804,150,True,27.55291362071375,False,132.35695468428483,168.9162033023255,False,36.559349943429886,False,False
2,1970-07-23 09:44:55.105190969,2025-09-09,2025-09-26 14:51:50.519,HH,B,2020600160,JASSM,3,108,76,2,2,1,225,9,2,0,1,26,0,0,0,0,-118866.54558717164,-4814992.052320776,4171810.926237584,2.50557,2.45389,-0.614551,-56.75,46.75,52.0,0.0,0.0,0.0,0.0,0.0,0.0,2,0,41.08816495227408,-91.41415983397548,10000.00074387095,-40.08571747858314,-0.0043442038015029,0.0009896453579517,,8714.375071090433,10952.218357409804,150,2,2025-09-09,2025-09-26 14:51:50.546,HH,B,3376705278,AMBUSH51,1,1,48,2,1,1,225,2,1,0,0,9,1,225,2,1,-157880.7134168273,-4792636.979328811,4195638.28897118,-2.33879,-0.121599,0.0375963,128.042,-10.2066,-0.577012,-0.0131876,-7.31481,6.73716,0.0030179,-0.000369306,-0.0147982,4,0,41.375333748092295,-91.88677517521812,9161.899401397402,94.9778905116788,2.3817637487476544,-2.428462503117144,198.325,8714.375071090433,10952.218357409804,150,True,27.452955911072554,False,132.22208238824865,168.9728778326883,False,36.75092916968467,False,False
2,1970-07-23 09:44:55.118269575,2025-09-09,2025-09-26 14:51:51.826,HH,B,2021910988,JASSM,3,108,76,2,2,1,225,9,2,0,1,26,0,0,0,0,-118929.11589967164,-4814940.647535619,4171868.086882115,2.50557,2.45389,-0.614551,-56.75,46.75,52.0,0.0,0.0,0.0,0.0,0.0,0.0,2,0,41.08884753287476,-91.41491903236587,10000.000005281405,-40.08621644191573,-0.003453512576008,0.0009878884679179,,8714.375071090433,10952.218357409804,150,2,2025-09-09,2025-09-26 14:51:51.746,HH,B,3378136876,AMBUSH51,1,1,48,2,1,1,225,2,1,0,0,9,1,225,2,1,-157727.10337628718,-4792648.749174913,4195637.488323131,-2.354,-0.120341,0.0332578,127.879,-10.0915,-0.0250023,-0.171314,-7.45379,6.79405,-0.0316323,0.00165095,0.00042132,4,0,41.37528843278907,-91.88493613649594,9176.678730815216,94.74511853415105,2.494176656267181,-3.31241592286546,198.178,8714.375071090433,10952.218357409804,150,True,27.33392876006107,False,132.00229869671156,169.05602903132916,False,37.05408480670827,False,False
2,1970-07-23 09:44:55.128350220,2025-09-09,2025-09-26 14:51:52.835,HH,B,2023282546,JASSM,3,108,76,2,2,1,225,9,2,0,1,26,0,0,0,0,-118994.58855592164,-4814886.859937963,4171927.894987584,2.50557,2.45379,-0.614551,-56.75,46.75,52.0,0.0,0.0,0.0,0.0,0.0,0.0,2,0,41.08956173338262,-91.41571346276334,10000.000111292682,-40.08312915103283,-0.0051866201155651,-0.0021805072450243,,8714.375071090433,10952.218357409804,150,2,2025-09-09,2025-09-26 14:51:52.745,HH,B,3379329876,AMBUSH51,1,1,48,2,1,1,225,2,1,0,0,9,1,225,2,1,-157599.10986179102,-4792658.575923913,4195637.464357994,-2.37898,-0.120434,0.031283,127.817,-10.6774,1.21476,-0.0925505,-7.43622,6.82029,-0.0158427,0.00777414,-0.00558744,4,0,41.37525487869208,-91.88340377824711,9190.445900992912,94.66493987372148,2.5743892094554632,-4.746779121328451,197.983,8714.375071090433,10952.218357409804,150,True,27.223738936795137,False,131.73535985141163,169.1218187467978,False,37.38918527466238,False,False
2,1970-07-23 09:44:55.139130634,2025-09-09,2025-09-26 14:51:53.913,HH,B,2024596970,JASSM,3,108,76,2,2,1,225,9,2,0,1,26,0,0,0,0,-119057.33074342164,-4814835.312086401,4171985.210417271,2.50557,2.45379,-0.614551,-56.75,46.75,52.0,0.0,0.0,0.0,0.0,0.0,0.0,2,0,41.090246174417054,-91.41647477941711,10000.000339579774,-40.08362952051533,-0.0042934852328498,-0.0021822096702364,,8714.375071090433,10952.218357409804,150,2,2025-09-09,2025-09-26 14:51:53.856,HH,B,3380642174,AMBUSH51,1,1,48,2,1,1,225,2,1,0,0,9,1,225,2,1,-157457.708268127,-4792668.768498646,4195638.236605208,-2.4083,-0.111093,0.0241786,127.698,-9.40195,1.45649,-0.163767,-7.18684,6.65349,-0.0264662,0.00564153,-0.0152747,4,0,41.37522712570777,-91.88171116091384,9205.764376039446,94.00596864768762,2.445097697563784,-6.470696629396211,197.726,8714.375071090433,10952.218357409804,150,True,27.110478245264893,False,131.2974125743929,169.19924702560837,False,37.90272376022793,False,False
2,1970-07-23 09:44:55.151151768,2025-09-09,2025-09-26 14:51:55.115,HH,B,2025967154,JASSM,3,108,76,2,2,1,225,9,2,0,1,26,0,0,0,0,-119122.73699342164,-4814781.576246557,4172044.95602274,2.50557,2.45379,-0.614551,-56.75,46.75,52.0,0.0,0.0,0.0,0.0,0.0,0.0,2,0,41.09095964371767,-91.41726843852958,10000.000391771118,-40.08415115415512,-0.003362449053767,-0.0021839664632576,,8714.375071090433,10952.218357409804,150,2,2025-09-09,2025-09-26 14:51:55.079,HH,B,3382113540,AMBUSH51,1,1,48,2,1,1,225,2,1,0,0,9,1,225,2,1,-157300.04352501352,-4792678.996683555,4195640.528224758,-2.42226,-0.104517,0.0193693,127.67,-8.22209,2.39463,-0.150457,-7.06697,6.58057,0.000820795,0.00167384,-0.0134271,4,0,41.37521257123976,-91.8798243191837,9223.162212531835,93.55082677653984,2.3469655617774183,-7.297525787782991,197.421,8714.375071090433,10952.218357409804,150,True,26.988721415908994,False,130.63968199648932,169.2894736598896,False,38.65024361262483,False,False
2,1970-07-23 09:44:55.161289922,2025-09-09,2025-09-26 14:51:56.128,HH,B,2027220252,JASSM,3,108,76,2,2,1,225,9,2,0,1,26,0,0,0,0,-119182.54949342164,-4814732.430738744,4172099.5956711774,2.50557,2.45379,-0.614455,-56.75,46.75,52.0,0.0,0.0,0.0,0.0,0.0,0.0,2,0,41.09161214644135,-91.41799423799678,10000.00003429968,-40.087889980422425,-0.0069288004176389,-0.0021853397237221,,8714.375071090433,10952.218357409804,150,2,2025-09-09,2025-09-26 14:51:56.146,HH,B,3383386072,AMBUSH51,1,1,48,2,1,1,225,2,1,0,0,9,1,225,2,1,-157164.77863104822,-4792686.714059241,4195643.231957558,-2.42864,-0.0954468,0.0127427,127.594,-7.16708,3.10799,-0.133947,-7.08035,6.55342,0.00282649,0.00115161,-0.00377732,4,0,41.37521133059069,-91.8782059634322,9237.095747420772,92.92281951829968,2.210284510468976,-7.696215166750071,197.237,8714.375071090433,10952.218357409804,150,True,26.881644603840794,False,130.09451139454495,169.36736894073857,False,39.272996284502376,False,False
2,1970-07-23 09:44:55.172370449,2025-09-09,2025-09-26 14:51:57.237,HH,B,2028531826,JASSM,3,108,76,2,2,1,225,9,2,0,1,26,0,0,0,0,-119245.15886842164,-4814680.991285619,4172156.7836594586,2.50557,2.45379,-0.614455,-56.75,46.75,52.0,0.0,0.0,0.0,0.0,0.0,0.0,2,0,41.0922950861343,-91.41875399053018,10000.00048866778,-40.08838934232808,-0.0060375849265566,-0.0021870650892869,,8714.375071090433,10952.218357409804,150,2,2025-09-09,2025-09-26 14:51:57.412,HH,B,3384897204,AMBUSH51,1,1,48,2,1,1,225,2,1,0,0,9,1,225,2,1,-157001.90145955948,-4792694.305171238,4195648.101599798,-2.42086,-0.0852153,0.00535305,127.55,-5.92709,4.22971,-0.219757,-7.0988,6.55303,0.00874162,4.26522e-05,-0.0143072,4,0,41.3752308242616,-91.87625791351611,9253.199076827384,92.21825992733558,2.0524989342734807,-7.282057106300082,196.858,8714.375071090433,10952.218357409804,150,True,26.761529570627488,False,129.353592678494,169.46716260545475,False,40.113598726723986,False,False
2,1970-07-23 09:44:55.182351397,2025-09-09,2025-09-26 14:51:58.235,HH,B,2029784782,JASSM,3,108,76,2,2,1,225,9,2,0,1,26,0,0,0,0,-119304.96746217164,-4814631.849684057,4172211.415007115,2.50557,2.45379,-0.614455,-56.75,46.75,52.0,0.0,0.0,0.0,0.0,0.0,0.0,2,0,41.09294750051599,-91.41947977178393,10000.001102665428,-40.08886638235679,-0.005186213779605,-0.0021887321487949,,8714.375071090433,10952.218357409804,150,2,2025-09-09,2025-09-26 14:51:58.312,HH,B,3385970902,AMBUSH51,1,1,48,2,1,1,225,2,1,0,0,9,1,225,2,1,-156887.25508727506,-4792698.8728399575,4195652.09723847,-2.41171,-0.0814585,-0.00408179,127.45,-5.28789,5.06908,-0.102348,-7.21702,6.76621,0.00757649,0.00275575,-0.00420592,4,0,41.37525297306299,-91.874887019777,9263.865431896736,91.67098898287736,2.2496804641089376,-6.778263566683036,196.822,8714.375071090433,10952.218357409804,150,True,26.664108647108414,False,128.88052786013787,169.5335465734014,False,40.65305888148497,False,False
2,1970-07-23 09:44:55.194254019,2025-09-09,2025-09-26 14:51:59.425,HH,B,2031099128,JASSM,3,108,76,2,2,1,225,9,2,0,1,26,0,0,0,0,-119367.70574342164,-4814580.298902807,4172268.722136021,2.50566,2.45379,-0.614455,-56.75,46.75,52.0,0.0,0.0,0.0,0.0,0.0,0.0,2,0,41.09363187785397,-91.42024112101464,10000.00109516718,-40.089366807152935,-0.0042931310336877,0.003300985265859,,8714.375071090433,10952.218357409804,150,2,2025-09-09,2025-09-26 14:51:59.412,HH,B,3387283200,AMBUSH51,1,1,48,2,1,1,225,2,1,0,0,9,1,225,2,1,-156746.9850214669,-4792703.810475504,4195657.863301921,-2.3948,-0.075943,-0.00646417,127.436,-4.49272,5.82599,-0.267738,-7.19149,6.65701,0.0176216,-3.12089e-06,-0.0060306,4,0,41.3752898456577,-91.87320998340545,9277.225990408077,91.36051015370164,2.104147739626809,-5.819828380808017,196.602,8714.375071090433,10952.218357409804,150,True,26.554139582272203,False,128.39149373001607,169.61983965221182,False,41.228354194842666,False,False
2,1970-07-23 09:44:55.205135108,2025-09-09,2025-09-26 14:52:00.513,HH,B,2032470006,JASSM,3,108,76,2,2,1,225,9,2,0,1,26,0,0,0,0,-119433.14324342164,-4814526.529371557,4172328.4926438336,2.50566,2.45379,-0.614455,-56.75,46.75,52.0,0.0,0.0,0.0,0.0,0.0,0.0,2,0,41.09434568436157,-91.42103524322287,9999.99970023353,-40.089888780526366,-0.0033616321576554,0.0032991615025485,,8714.375071090433,10952.218357409804,150,2,2025-09-09,2025-09-26 14:52:00.546,HH,B,3388635266,AMBUSH51,1,1,48,2,1,1,225,2,1,0,0,9,1,225,2,1,-156603.4889733832,-4792707.818742965,4195664.673354406,-2.38364,-0.070487,-0.0121443,127.374,-3.46623,6.35056,-0.114797,-7.10766,6.5218,0.0130797,0.0032759,-0.0018174,4,0,41.37533989698604,-91.87149478515155,9290.314471465996,90.91050732663275,2.086061030390421,-5.193867591501147,196.26,8714.375071090433,10952.218357409804,150,True,26.441133918358677,False,127.91629012978825,169.7096518771132,False,41.79343339056065,False,False
2,1970-07-23 09:44:55.215290471,2025-09-09,2025-09-26 14:52:01.529,HH,B,2033723716,JASSM,3,108,76,2,2,1,225,9,2,0,1,26,0,0,0,0,-119492.98699342164,-4814477.354566869,4172383.154264928,2.50566,2.45379,-0.614455,-56.75,46.75,52.0,0.0,0.0,0.0,0.0,0.0,0.0,2,0,41.094998480681326,-91.4217614975421,10000.0002043455,-40.09036615115878,-0.0025097502639173,0.0032974858766844,,8714.375071090433,10952.218357409804,150,2,2025-09-09,2025-09-26 14:52:01.645,HH,B,3389947564,AMBUSH51,1,1,48,2,1,1,225,2,1,0,0,9,1,225,2,1,-156462.69379151546,-4792711.433199038,4195671.696425813,-2.37121,-0.064612,-0.0161957,127.292,-3.01229,6.94569,-0.105045,-7.13993,6.67647,0.0116378,-0.00182156,-0.000456691,4,0,41.37539317858942,-91.86981199380912,9303.123439351708,90.514709537682,1.9881799294429616,-4.49059898806288,196.223,8714.375071090433,10952.218357409804,150,True,26.334161405866382,False,127.57952792153476,169.80035990698434,False,42.220892406351965,False,False
2,1970-07-23 09:44:55.227309862,2025-09-09,2025-09-26 14:52:02.730,HH,B,2035093582,JASSM,3,108,76,2,2,1,225,9,2,0,1,26,0,0,0,0,-119558.37761842164,-4814423.622633276,4172442.878386021,2.50566,2.4537,-0.614455,-56.75,46.75,52.0,0.0,0.0,0.0,0.0,0.0,0.0,2,0,41.09571174644119,-91.42255508405138,9999.999413240725,-40.08727797776461,-0.004243998507112,0.0001295846318464,,8714.375071090433,10952.218357409804,150,2,2025-09-09,2025-09-26 14:52:02.746,HH,B,3391259864,AMBUSH51,1,1,48,2,1,1,225,2,1,0,0,9,1,225,2,1,-156323.7008938676,-4792714.285137398,4195679.372932485,-2.35784,-0.0602582,-0.0189603,127.201,-3.1066,7.99079,-0.220407,-7.20842,6.73253,0.0140451,-0.00605765,-0.0047656,4,0,41.37545503277818,-91.8681510217749,9315.628034806872,90.2319348682766,1.9069239704519172,-3.729922587947107,196.272,8714.375071090433,10952.218357409804,150,True,26.22366922626624,False,127.24277736619338,169.88949827444597,False,42.646818016780045,False,False
2,1970-07-23 09:44:55.237350192,2025-09-09,2025-09-26 14:52:03.735,HH,B,2036346282,JASSM,3,108,76,2,2,1,225,9,2,0,1,26,0,0,0,0,-119618.17449342164,-4814374.485426244,4172497.493620396,2.50566,2.4537,-0.614455,-56.75,46.75,52.0,0.0,0.0,0.0,0.0,0.0,0.0,2,0,41.09636400293058,-91.4232807998367,9999.99960898958,-40.08775500743162,-0.0033927982153712,0.0001279762521617,,8714.375071090433,10952.218357409804,150,2,2025-09-09,2025-09-26 14:52:03.712,HH,B,3392413096,AMBUSH51,1,1,48,2,1,1,225,2,1,0,0,9,1,225,2,1,-156199.98104293767,-4792716.157031813,4195686.617796633,-2.35599,-0.0582799,-0.0208439,127.17,-2.09891,7.96661,-0.141516,-7.10648,6.57439,0.0151228,-0.00536273,-0.00249983,4,0,41.37551681546074,-91.86667282189724,9326.019751899796,90.07693983766532,1.8942972131030476,-3.627016456674747,196.003,8714.375071090433,10952.218357409804,150,True,26.12429890422071,False,126.96283281989878,169.9696121228226,False,43.006864889738274,False,False
2,1970-07-23 09:44:55.247128198,2025-09-09,2025-09-26 14:52:04.712,HH,B,2037479676,JASSM,3,108,76,2,2,1,225,9,2,0,1,26,0,0,0,0,-119672.27605592164,-4814330.027906713,4172546.905729771,2.50566,2.4537,-0.614359,-56.75,46.75,52.0,0.0,0.0,0.0,0.0,0.0,0.0,2,0,41.09695412472679,-91.42393740779322,10000.000016287388,-40.091450186431125,-0.0070434099907158,0.0001268009218344,,8714.375071090433,10952.218357409804,150,2,2025-09-09,2025-09-26 14:52:04.612,HH,B,3393486794,AMBUSH51,1,1,48,2,1,1,225,2,1,0,0,9,1,225,2,1,-156086.20200092238,-4792717.541595361,4195693.549231825,-2.34273,-0.0505583,-0.0183052,127.265,-1.42831,7.99196,-0.145171,-6.75107,6.38812,0.0127447,-0.000941469,0.000321452,4,0,41.37557743503736,-91.86531352427345,9335.337101552028,89.89462672221578,1.4672067845141996,-2.8635384548122675,196.003,8714.375071090433,10952.218357409804,150,True,26.033862280352427,False,126.76332120979049,170.04449075086828,False,43.28162542509115,False,False
2,1970-07-23 09:44:55.256183202,2025-09-09,2025-09-26 14:52:05.618,HH,B,2038613070,JASSM,3,108,76,2,2,1,225,9,2,0,1,26,0,0,0,0,-119726.37761842164,-4814285.567945776,4172596.3188157086,2.50566,2.4537,-0.614359,-56.75,46.75,52.0,0.0,0.0,0.0,0.0,0.0,0.0,2,0,41.09754426378331,-91.42459402822466,10000.000274741633,-40.09188180851706,-0.0062732707514703,0.0001252933087539,,8714.375071090433,10952.218357409804,150,2,2025-09-09,2025-09-26 14:52:05.612,HH,B,3394679792,AMBUSH51,1,1,48,2,1,1,225,2,1,0,0,9,1,225,2,1,-155958.06895827845,-4792718.361389105,4195701.408287089,-2.3353,-0.0433641,-0.0178758,127.337,-0.831966,8.03965,-0.240537,-6.75731,6.3328,0.00279736,-0.000514947,-0.00285562,4,0,41.375650438575256,-91.8637830277774,9344.13371027018,89.64167848028424,1.1427925418111164,-2.43650898438686,195.893,8714.375071090433,10952.218357409804,150,True,25.938022007097224,False,126.57667973788995,170.13206444722454,False,43.55639180637009,False,False
2,1970-07-23 09:44:55.266307073,2025-09-09,2025-09-26 14:52:06.630,HH,B,2039748754,JASSM,3,108,76,2,2,1,225,9,2,0,1,26,0,0,0,0,-119780.58855592164,-4814241.017652807,4172645.8305344586,2.50566,2.4537,-0.614359,-56.75,46.75,52.0,0.0,0.0,0.0,0.0,0.0,0.0,2,0,41.09813558617178,-91.42525198804196,10000.00048943777,-40.09231431616614,-0.0055015790918437,0.0001237865559701,,8714.375071090433,10952.218357409804,150,2,2025-09-09,2025-09-26 14:52:06.678,HH,B,3395952324,AMBUSH51,1,1,48,2,1,1,225,2,1,0,0,9,1,225,2,1,-155823.3599657497,-4792718.417134408,4195709.492694985,-2.32772,-0.0402682,-0.0136014,127.353,0.019136,7.75372,-0.0473558,-6.58718,6.00059,0.0077679,-0.00511306,0.00652787,4,0,41.3757307577579,-91.86217429495184,9351.021360356088,89.70933265865148,0.8490351240007895,-1.998236671108373,196.003,8714.375071090433,10952.218357409804,150,True,25.839730645431874,False,126.42919563979208,170.22598862987584,False,43.799455484559566,False,False
2,1970-07-23 09:44:55.278652537,2025-09-09,2025-09-26 14:52:07.865,HH,B,2041001214,JASSM,3,108,76,2,2,1,225,9,2,0,1,26,0,0,0,0,-119840.37371217164,-4814191.885816869,4172700.431608677,2.50566,2.4537,-0.614359,-56.75,46.75,52.0,0.0,0.0,0.0,0.0,0.0,0.0,2,0,41.09878769931691,-91.42597761620812,9999.99985766616,-40.09279131133184,-0.0046505441240765,0.0001221297228385,,8714.375071090433,10952.218357409804,150,2,2025-09-09,2025-09-26 14:52:07.778,HH,B,3397264624,AMBUSH51,1,1,48,2,1,1,225,2,1,0,0,9,1,225,2,1,-155682.3193480668,-4792717.882313958,4195717.29754592,-2.31908,-0.0291226,-0.00767095,127.525,0.0738308,7.8558,-0.136357,-6.36496,5.85026,-9.46671e-05,-0.0166832,-0.000375547,4,0,41.375813900714064,-91.8604901750711,9355.352866158995,89.54335827207478,0.1465277768687681,-1.4977008572589596,196.272,8714.375071090433,10952.218357409804,150,True,25.734313006758487,False,126.38205077579133,170.32397630774062,False,43.94461683262236,False,False
2,1970-07-23 09:44:55.287106728,2025-09-09,2025-09-26 14:52:08.710,HH,B,2042192526,JASSM,3,108,76,2,2,1,225,9,2,0,1,26,0,0,0,0,-119897.23699342164,-4814145.151930151,4172752.366667271,2.50566,2.4537,-0.614359,-56.75,46.75,52.0,0.0,0.0,0.0,0.0,0.0,0.0,2,0,41.09940797374689,-91.42666779509511,10000.000852525254,-40.09324500953959,-0.0038410735948091,0.0001205310907711,,8714.375071090433,10952.218357409804,150,2,2025-09-09,2025-09-26 14:52:08.678,HH,B,3398338322,AMBUSH51,1,1,48,2,1,1,225,2,1,0,0,9,1,225,2,1,-155568.01937467803,-4792716.391809259,4195723.080357954,-2.31655,-0.0226788,-0.00257048,127.908,1.64567,6.64025,-0.114645,-6.48075,5.96603,-0.00108295,-0.00845866,-0.00660485,4,0,41.37588388503361,-91.85912576360369,9355.09358996088,89.51950080887177,-0.3226574677888574,-1.3505963951141722,196.687,8714.375071090433,10952.218357409804,150,True,25.641949428882626,False,126.34596535811771,170.4014911638892,False,44.06519875032466,False,False
2,1970-07-23 09:44:55.296176697,2025-09-09,2025-09-26 14:52:09.617,HH,B,2043327388,JASSM,3,108,76,2,2,1,225,9,2,0,1,26,0,0,0,0,-119951.40886842164,-4814100.631422338,4172801.839323521,2.50566,2.4537,-0.614359,-56.75,46.75,52.0,0.0,0.0,0.0,0.0,0.0,0.0,2,0,41.09999884875874,-91.42732531866146,9999.999989750191,-40.09367724660032,-0.0030699449950846,0.0001190318572966,,8714.375071090433,10952.218357409804,150,2,2025-09-09,2025-09-26 14:52:09.646,HH,B,3399491554,AMBUSH51,1,1,48,2,1,1,225,2,1,0,0,9,1,225,2,1,-155443.4633231404,-4792713.978018488,4195729.189978525,-2.32353,-0.0168723,0.000557709,128.219,2.58347,6.13478,-0.0367778,-6.64736,6.06932,0.000452529,-0.00466365,0.00217526,4,0,41.37596352789125,-91.8576392266352,9352.45939709756,89.43505270818224,-0.6896515448791678,-1.7491947421499645,197.286,8714.375071090433,10952.218357409804,150,True,25.548079460914696,False,126.24780129225601,170.48933451816433,False,44.256650943011564,False,False
2,1970-07-23 09:44:55.306306222,2025-09-09,2025-09-26 14:52:10.630,HH,B,2044578566,JASSM,3,108,76,2,2,1,225,9,2,0,1,26,0,0,0,0,-120011.13543092164,-4814051.546949682,4172856.382292271,2.50566,2.4537,-0.614359,-56.75,46.75,52.0,0.0,0.0,0.0,0.0,0.0,0.0,2,0,41.100650283054,-91.4280502768596,10000.000674260084,-40.09415381919308,-0.0022197645207115,0.0001173939133708,,8714.375071090433,10952.218357409804,150,2,2025-09-09,2025-09-26 14:52:10.712,HH,B,3400764086,AMBUSH51,1,1,48,2,1,1,225,2,1,0,0,9,1,225,2,1,-155307.31516199902,-4792710.75168872,4195735.488853212,-2.33106,-0.0110462,0.00155487,128.648,3.1922,5.94988,-0.0820765,-6.8312,6.28109,-0.0119291,-0.003201,0.00118906,4,0,41.37605149454448,-91.85601456444788,9347.319931492975,89.25830958701223,-0.9766702866739848,-2.17850097680387,197.922,8714.375071090433,10952.218357409804,150,True,25.445155368701116,False,126.1402473415526,170.5859713576583,False,44.46454333566566,False,False
2,1970-07-23 09:44:55.316351664,2025-09-09,2025-09-26 14:52:11.635,HH,B,2045773470,JASSM,3,108,76,2,2,1,225,9,2,0,1,26,0,0,0,0,-120068.17058717164,-4814004.669019994,4172908.4711594586,2.50566,2.4536,-0.614359,-56.75,46.75,52.0,0.0,0.0,0.0,0.0,0.0,0.0,2,0,41.10127241463537,-91.4287425818428,10000.000533678647,-40.09099873092864,-0.0040728963687786,-0.0030498557694189,,8714.375071090433,10952.218357409804,150,2,2025-09-09,2025-09-26 14:52:11.645,HH,B,3401877552,AMBUSH51,1,1,48,2,1,1,225,2,1,0,0,9,1,225,2,1,-155186.415970054,-4792707.377058561,4195741.035026341,-2.33205,-0.0104794,0.000957666,128.96,3.63487,5.97022,-0.19981,-7.03618,6.54395,0.00991299,0.00459083,0.00489044,4,0,41.37613230103567,-91.85457206164382,9341.407647375769,89.21211117544141,-0.977335397990564,-2.234607901228785,198.447,8714.375071090433,10952.218357409804,150,True,25.350553368491653,False,126.01063058568212,170.67143163726075,False,44.68193699983174,False,False
2,1970-07-23 09:44:55.327109073,2025-09-09,2025-09-26 14:52:12.710,HH,B,2046964818,JASSM,3,108,76,2,2,1,225,9,2,0,1,26,0,0,0,0,-120125.03777467164,-4813957.929762182,4172960.404264928,2.50566,2.4536,-0.614359,-56.75,46.75,52.0,0.0,0.0,0.0,0.0,0.0,0.0,2,0,41.1018926901793,-91.4294328608106,10000.001008860952,-40.09145251750402,-0.0032633890410284,-0.0030513871521395,,8714.375071090433,10952.218357409804,150,2,2025-09-09,2025-09-26 14:52:12.778,HH,B,3403229618,AMBUSH51,1,1,48,2,1,1,225,2,1,0,0,9,1,225,2,1,-155041.04819357285,-4792703.087708354,4195747.840434911,-2.32473,-0.008665,-0.00231108,129.349,3.63005,6.37845,-0.122845,-7.09292,6.57785,-0.0123306,-0.00889142,-0.000487899,4,0,41.37623173937701,-91.85283769683986,9334.035113165211,89.00398120538689,-0.9302163563866346,-1.8115875519526885,199.449,8714.375071090433,10952.218357409804,150,True,25.246874398564795,False,125.88617772601904,170.77886625195507,False,44.91249801741036,False,False
2,1970-07-23 09:44:55.337148281,2025-09-09,2025-09-26 14:52:13.714,HH,B,2048159768,JASSM,3,108,76,2,2,1,225,9,2,0,1,26,0,0,0,0,-120182.07683717164,-4813911.047926244,4173012.493132115,2.50566,2.4536,-0.614263,-56.75,46.75,52.0,0.0,0.0,0.0,0.0,0.0,0.0,2,0,41.10251483584661,-91.43012523951096,9999.999844053817,-40.09516898673435,-0.0068696034385682,-0.0030526573959489,,8714.375071090433,10952.218357409804,150,2,2025-09-09,2025-09-26 14:52:13.746,HH,B,3404382850,AMBUSH51,1,1,48,2,1,1,225,2,1,0,0,9,1,225,2,1,-154915.00187712754,-4792699.242673222,4195753.844154039,-2.33138,-0.00787392,-0.00163622,129.74,3.96332,6.38546,-0.0479178,-7.24653,6.58181,-0.00939076,-0.000870729,-0.0119083,4,0,41.37631938241258,-91.8513338972632,9327.564792563851,89.00401865550963,-0.9886569105685948,-2.192333722526494,199.926,8714.375071090433,10952.218357409804,150,True,25.150572094325533,False,125.79622280973025,170.87050895521097,False,45.095998227169844,False,False
2,1970-07-23 09:44:55.347464508,2025-09-09,2025-09-26 14:52:14.746,HH,B,2049352156,JASSM,3,108,76,2,2,1,225,9,2,0,1,26,0,0,0,0,-120238.99480592164,-4813864.266187963,4173064.469694615,2.50566,2.4536,-0.614263,-56.75,46.75,52.0,0.0,0.0,0.0,0.0,0.0,0.0,2,0,41.10313564146209,-91.43081616115158,10000.0005621561,-40.09562320701338,-0.0060593851705016,-0.0030542261730776,,8714.375071090433,10952.218357409804,150,2,2025-09-09,2025-09-26 14:52:14.911,HH,B,3405774682,AMBUSH51,1,1,48,2,1,1,225,2,1,0,0,9,1,225,2,1,-154764.48830201855,-4792694.257404077,4195761.255361098,-2.3413,-0.00374092,-0.00393576,130.123,4.37744,6.55852,-0.240998,-7.03958,6.56807,-0.0120435,0.00342778,-0.00761394,4,0,41.37642798925328,-91.84953833566642,9319.40507639559,88.7497500394146,-1.0778560507002586,-2.7552296710635265,200.586,8714.375071090433,10952.218357409804,150,True,25.0452906776799,False,125.62843361682333,170.984648943273,False,45.37963127202662,False,False
2,1970-07-23 09:44:55.356346650,2025-09-09,2025-09-26 14:52:15.634,HH,B,2050485550,JASSM,3,108,76,2,2,1,225,9,2,0,1,26,0,0,0,0,-120293.09636842164,-4813819.798414526,4173113.873014928,2.50576,2.4536,-0.614263,-56.75,46.75,52.0,0.0,0.0,0.0,0.0,0.0,0.0,2,0,41.10372572065545,-91.431472907038,10000.000039869894,-40.09605496498666,-0.0052892609445161,0.0024357574609323,,8714.375071090433,10952.218357409804,150,2,2025-09-09,2025-09-26 14:52:15.611,HH,B,3406609780,AMBUSH51,1,1,48,2,1,1,225,2,1,0,0,9,1,225,2,1,-154673.31505615858,-4792690.892647824,4195765.936569911,-2.34976,-0.00132449,-0.00360245,130.428,4.71292,6.74196,-0.0909669,-7.04208,6.50246,0.000261115,-0.00612631,0.00380645,4,0,41.37649711091926,-91.8484508077922,9314.035395778375,88.67323401958403,-1.1935312636686302,-3.238097022898213,200.964,8714.375071090433,10952.218357409804,150,True,24.965104276437597,False,125.4789163529235,171.04865225031472,False,45.594306419143734,False,False
2,1970-07-23 09:44:55.367106708,2025-09-09,2025-09-26 14:52:16.710,HH,B,2051798016,JASSM,3,108,76,2,2,1,225,9,2,0,1,26,0,0,0,0,-120355.74480592164,-4813768.302320776,4173171.082975865,2.50576,2.4536,-0.614263,-56.75,46.75,52.0,0.0,0.0,0.0,0.0,0.0,0.0,2,0,41.10440904826153,-91.43223342024288,10000.000099461708,-40.09655494807651,-0.004397447807671,0.0024340129298581,,8714.375071090433,10952.218357409804,150,2,2025-09-09,2025-09-26 14:52:16.644,HH,B,3407842546,AMBUSH51,1,1,48,2,1,1,225,2,1,0,0,9,1,225,2,1,-154537.42954888067,-4792685.735092817,4195772.967738165,-2.35663,0.00290925,-0.00434514,130.88,5.09166,7.02369,-0.234198,-7.1623,6.70225,-0.00977567,0.00186941,-0.0120082,4,0,41.37660132631429,-91.84682999513323,9305.806865395913,88.48193084308646,-1.3461420421057049,-3.626365042583324,201.624,8714.375071090433,10952.218357409804,150,True,24.86091783293328,False,125.28974490260529,171.15031775970988,False,45.8862420844157,False,False
2,1970-07-23 09:44:55.379150011,2025-09-09,2025-09-26 14:52:17.915,HH,B,2053170342,JASSM,3,108,76,2,2,1,225,9,2,0,1,26,0,0,0,0,-120421.25261842164,-4813714.457105932,4173230.900358677,2.50576,2.4536,-0.614263,-56.75,46.75,52.0,0.0,0.0,0.0,0.0,0.0,0.0,2,0,41.10512352591312,-91.4330286609809,10000.00060370201,-40.097077769377854,-0.0034649561714465,0.0024322096331498,,8714.375071090433,10952.218357409804,150,2,2025-09-09,2025-09-26 14:52:17.812,HH,B,3409234378,AMBUSH51,1,1,48,2,1,1,225,2,1,0,0,9,1,225,2,1,-154385.54199452983,-4792679.150441378,4195781.712614241,-2.36345,0.00553629,-0.00793975,131.252,4.90687,8.23813,-0.127932,-7.19675,6.6172,-0.00113288,-0.0012598,0.00225016,4,0,41.37672864306021,-91.84501862127512,9296.524352953467,88.2290308139245,-1.3214717682224264,-4.009755564439082,202.321,8714.375071090433,10952.218357409804,150,True,24.748822235653623,False,124.95867214843507,171.26741527588382,False,46.32901013896551,False,False
2,1970-07-23 09:44:55.390167728,2025-09-09,2025-09-26 14:52:19.016,HH,B,2054482630,JASSM,3,108,76,2,2,1,225,9,2,0,1,26,0,0,0,0,-120483.89324342164,-4813662.966383276,4173288.0995774274,2.50576,2.4536,-0.614263,-56.75,46.75,52.0,0.0,0.0,0.0,0.0,0.0,0.0,2,0,41.105806739619,-91.43378911190794,10000.000650353692,-40.09757772555931,-0.0025732682749297,0.0024304773171759,,8714.375071090433,10952.218357409804,150,2,2025-09-09,2025-09-26 14:52:18.978,HH,B,3410626210,AMBUSH51,1,1,48,2,1,1,225,2,1,0,0,9,1,225,2,1,-154232.47287653177,-4792671.978658663,4195790.954823188,-2.35335,0.00785862,-0.0127315,131.63,5.95992,8.30853,-0.170355,-7.26156,6.63774,0.00362544,-0.01123,-0.0134791,4,0,41.3768630072998,-91.84319335356996,9286.79403579199,87.93624413714087,-1.238290261749908,-3.4230851849600263,202.859,8714.375071090433,10952.218357409804,150,True,24.63906810560482,False,124.64553847242625,171.38809571653368,False,46.76794359064341,False,False
2,1970-07-23 09:44:55.402646161,2025-09-09,2025-09-26 14:52:20.264,HH,B,2055854322,JASSM,3,108,76,2,2,1,225,9,2,0,1,26,0,0,0,0,-120549.36980592164,-4813609.143629369,4173347.8866868014,2.50576,2.4536,-0.614263,-56.75,46.75,52.0,0.0,0.0,0.0,0.0,0.0,0.0,2,0,41.10652087282261,-91.43458400794673,10000.000267276995,-40.09810033490889,-0.0016412156585172,0.0024286708005604,,8714.375071090433,10952.218357409804,150,2,2025-09-09,2025-09-26 14:52:20.344,HH,B,3412256642,AMBUSH51,1,1,48,2,1,1,225,2,1,0,0,9,1,225,2,1,-154051.57441186177,-4792663.136291704,4195802.677026045,-2.32919,0.00673622,-0.0174829,132.063,6.27573,8.8992,-0.238028,-7.41696,6.74461,0.033043,0.00138256,-0.00922432,4,0,41.37702934391377,-91.84103636462248,9276.142216001028,87.77601496906412,-1.0083604370904544,-2.0364937575815474,203.739,8714.375071090433,10952.218357409804,150,True,24.517053488323423,False,124.37914739377685,171.53538626366972,False,47.18128635892568,False,False
2,1970-07-23 09:44:55.412349963,2025-09-09,2025-09-26 14:52:21.234,HH,B,2057224702,JASSM,3,108,76,2,2,1,225,9,2,0,1,26,0,0,0,0,-120614.77996217164,-4813555.371168432,4173407.6156907086,2.50576,2.45351,-0.614263,-56.75,46.75,52.0,0.0,0.0,0.0,0.0,0.0,0.0,2,0,41.107234318750365,-91.43537811628052,10000.000258840704,-40.09501184073558,-0.0033751004134427,-0.0007383364839729,,8714.375071090433,10952.218357409804,150,2,2025-09-09,2025-09-26 14:52:21.278,HH,B,3413370106,AMBUSH51,1,1,48,2,1,1,225,2,1,0,0,9,1,225,2,1,-153929.209720421,-4792657.134800468,4195811.0596181685,-2.30202,0.00619303,-0.023888,132.265,6.06851,9.32605,-0.132181,-7.42925,6.72142,0.0221115,-0.00911821,-0.00236668,4,0,41.37714501808104,-91.83957731834047,9269.879956453622,87.5223268809833,-0.7411485527578093,-0.4768112207172263,204.093,8714.375071090433,10952.218357409804,150,True,24.416848423315535,False,124.30784173952486,171.6300905758173,False,47.34506607517389,False,False
2,1970-07-23 09:44:55.423105798,2025-09-09,2025-09-26 14:52:22.310,HH,B,2058479670,JASSM,3,108,76,2,2,1,225,9,2,0,1,26,0,0,0,0,-120674.68621217164,-4813506.126051244,4173462.313444615,2.50576,2.45351,-0.614168,-56.75,46.75,52.0,0.0,0.0,0.0,0.0,0.0,0.0,2,0,41.10788767485013,-91.43610541902994,10000.000127013334,-40.09875310333484,-0.0069434476753575,-0.0007396571258656,,8714.375071090433,10952.218357409804,150,2,2025-09-09,2025-09-26 14:52:22.244,HH,B,3414523338,AMBUSH51,1,1,48,2,1,1,225,2,1,0,0,9,1,225,2,1,-153800.3612284769,-4792651.110005753,4195820.012380225,-2.28492,0.00154534,-0.0221899,132.465,5.91783,9.37731,-0.225801,-7.5444,6.82245,0.0198458,0.000985162,0.00423089,4,0,41.37726590020184,-91.8380408413536,9264.292626596249,87.77243365686525,-0.604703861093364,0.4940884473613633,204.35,8714.375071090433,10952.218357409804,150,True,24.318970525052944,False,124.34130689541907,171.73315950680242,False,47.41426216161585,False,False
2,1970-07-23 09:44:55.434147054,2025-09-09,2025-09-26 14:52:23.414,HH,B,2059791562,JASSM,3,108,76,2,2,1,225,9,2,0,1,26,0,0,0,0,-120737.30730592164,-4813454.646070776,4173519.491667271,2.50576,2.45351,-0.614168,-56.75,46.75,52.0,0.0,0.0,0.0,0.0,0.0,0.0,2,0,41.10857066488797,-91.4368656981923,10000.00071744681,-40.09925297412059,-0.0060520298167303,-0.0007413888940576,,8714.375071090433,10952.218357409804,150,2,2025-09-09,2025-09-26 14:52:23.311,HH,B,3415795870,AMBUSH51,1,1,48,2,1,1,225,2,1,0,0,9,1,225,2,1,-153658.9197083253,-4792644.645671597,4195830.167862791,-2.27859,0.000670124,-0.0232157,132.686,5.41096,9.65818,-0.230383,-7.54621,6.98847,-0.00206707,0.00648209,-0.0117522,4,0,41.37739989870772,-91.83635413188247,9259.24717643804,87.76262599846294,-0.5269571981251985,0.855962184754723,204.716,8714.375071090433,10952.218357409804,150,True,24.214330585672137,False,124.40220825516394,171.84830703412865,False,47.46579447267142,False,False
2,1970-07-23 09:44:55.446167818,2025-09-09,2025-09-26 14:52:24.616,HH,B,2061162608,JASSM,3,108,76,2,2,1,225,9,2,0,1,26,0,0,0,0,-120802.75261842164,-4813400.843824682,4173579.246550084,2.50576,2.45351,-0.614168,-56.75,46.75,52.0,0.0,0.0,0.0,0.0,0.0,0.0,2,0,41.10928444130499,-91.43766028302636,10000.000983096805,-40.0997754076366,-0.005120417440032,-0.0007431914927922,,8714.375071090433,10952.218357409804,150,2,2025-09-09,2025-09-26 14:52:24.611,HH,B,3417346770,AMBUSH51,1,1,48,2,1,1,225,2,1,0,0,9,1,225,2,1,-153487.314238026,-4792637.6498096,4195842.544723892,-2.2708,-0.00623673,-0.0201713,132.831,4.94513,9.67554,-0.0860861,-7.63152,6.7023,0.0257089,-0.00772213,0.00966748,4,0,41.377557779552056,-91.83430737881856,9255.344487116245,88.15648494888343,-0.3440198454918821,1.2907003458004438,204.887,8714.375071090433,10952.218357409804,150,True,24.096240277933035,False,124.53311493064729,171.9918724121186,False,47.477049778672146,False,False
2,1970-07-23 09:44:55.458650669,2025-09-09,2025-09-26 14:52:25.865,HH,B,2062476250,JASSM,3,108,76,2,2,1,225,9,2,0,1,26,0,0,0,0,-120865.45574342164,-4813349.293043432,4173636.4985032086,2.50576,2.45351,-0.614168,-56.75,46.75,52.0,0.0,0.0,0.0,0.0,0.0,0.0,2,0,41.10996832755066,-91.43842159140677,10000.00110817453,-40.10027596915874,-0.0042278224389462,-0.0007449325935612,,8714.375071090433,10952.218357409804,150,2,2025-09-09,2025-09-26 14:52:26.011,HH,B,3419016968,AMBUSH51,1,1,48,2,1,1,225,2,1,0,0,9,1,225,2,1,-153301.60396553949,-4792631.184154315,4195855.84558744,-2.26362,-0.0143906,-0.0225205,132.78,4.07794,9.70017,-0.162898,-7.75359,6.77423,0.00832758,0.00553958,0.00994628,4,0,41.37772139431778,-91.8320919623617,9253.655332073786,88.36581422429343,0.0970399032755682,1.6916530973065085,204.924,8714.375071090433,10952.218357409804,150,True,23.975201491057565,False,124.76751432041672,172.15037943957512,False,47.3983124965893,False,False
2,1970-07-23 09:44:55.469063518,2025-09-09,2025-09-26 14:52:26.906,HH,B,2063846002,JASSM,3,108,76,2,2,1,225,9,2,0,1,26,0,0,0,0,-120930.83855592164,-4813295.538648901,4173696.194792271,2.50576,2.45351,-0.614168,-56.75,46.75,52.0,0.0,0.0,0.0,0.0,0.0,0.0,2,0,41.11068142193963,-91.43921545213006,10000.000172183092,-40.10079794122159,-0.0032970914186542,-0.0007467395734984,,8714.375071090433,10952.218357409804,150,2,2025-09-09,2025-09-26 14:52:26.911,HH,B,3420090666,AMBUSH51,1,1,48,2,1,1,225,2,1,0,0,9,1,225,2,1,-153180.82052072257,-4792627.513743014,4195864.670711766,-2.25845,-0.01859,-0.0211579,132.687,3.56994,9.70227,-0.228547,-7.87519,6.68364,0.00927633,-0.00257057,-0.00252688,4,0,41.37782578239776,-91.83065087524196,9254.260390507628,88.58437763125681,0.2269929162722243,1.9836701413596851,204.887,8714.375071090433,10952.218357409804,150,True,23.875623091150615,False,124.90650830173382,172.24744114259292,False,47.354883234645186,False,False
2,1970-07-23 09:44:55.478643820,2025-09-09,2025-09-26 14:52:27.864,HH,B,2065099230,JASSM,3,108,76,2,2,1,225,9,2,0,1,26,0,0,0,0,-120990.66277467164,-4813246.356519994,4173750.811979771,2.50576,2.45351,-0.614168,-56.75,46.75,52.0,0.0,0.0,0.0,0.0,0.0,0.0,2,0,41.11133384666178,-91.43994183625615,10000.001243839635,-40.10127555323633,-0.0024455187837632,-0.0007483673543103,,8714.375071090433,10952.218357409804,150,2,2025-09-09,2025-09-26 14:52:27.878,HH,B,3421243898,AMBUSH51,1,1,48,2,1,1,225,2,1,0,0,9,1,225,2,1,-153053.96075014237,-4792624.174400023,4195873.873832085,-2.25814,-0.0224569,-0.0198911,132.536,2.969,9.74074,-0.311544,-7.48965,6.67408,-0.00244158,0.00508393,-0.00221063,4,0,41.37793189043512,-91.82913708891658,9256.029885782891,88.78627073898829,0.3463522515953937,1.997598014124288,204.57,8714.375071090433,10952.218357409804,150,True,23.778471691169656,False,125.05780194400212,172.352325701529,False,47.306654411290566,False,False
2,1970-07-23 09:44:55.493844323,2025-09-09,2025-09-26 14:52:29.384,HH,B,2066470950,JASSM,3,108,76,2,2,1,225,9,2,0,1,26,0,0,0,0,-121056.13933717164,-4813192.522535619,4173810.591764928,2.50576,2.45351,-0.614168,-56.75,46.75,52.0,0.0,0.0,0.0,0.0,0.0,0.0,2,0,41.11204795349402,-91.44073686897588,10000.000154827736,-40.10179831023721,-0.0015134525995571,-0.0007501768338353,,8714.375071090433,10952.218357409804,150,2,2025-09-09,2025-09-26 14:52:29.311,HH,B,3422953864,AMBUSH51,1,1,48,2,1,1,225,2,1,0,0,9,1,225,2,1,-152862.8068669085,-4792619.90475597,4195887.609994751,-2.26923,-0.0288593,-0.0171893,132.255,2.47254,9.4481,-0.158497,-7.64887,6.52209,-0.0298701,0.00634061,0.00476352,4,0,41.378086319832114,-91.82685579769992,9260.302566597911,89.14639005146417,0.5209559275567939,1.3585639064680557,204.276,8714.375071090433,10952.218357409804,150,True,23.652943308577058,False,125.28431409285365,172.51803986447715,False,47.24543392214742,False,False
2,1970-07-23 09:44:55.501126759,2025-09-09,2025-09-26 14:52:30.112,HH,B,2067783050,JASSM,3,108,76,2,2,1,225,9,2,0,1,26,0,0,0,0,-121118.76824342164,-4813141.027418432,4173867.77242899,2.50576,2.45341,-0.614072,-56.75,46.75,52.0,0.0,0.0,0.0,0.0,0.0,0.0,2,0,41.11273101741171,-91.44149734159664,9999.999938817724,-40.1019481713579,-0.0077054427971203,-0.0039163470673917,,8714.375071090433,10952.218357409804,150,2,2025-09-09,2025-09-26 14:52:30.111,HH,B,3423908262,AMBUSH51,1,1,48,2,1,1,225,2,1,0,0,9,1,225,2,1,-152757.07976820265,-4792617.962220854,4195895.071134448,-2.27865,-0.0304602,-0.0155831,132.065,2.20015,9.39556,0.0203433,-7.44858,6.3398,-0.00305327,-0.00441606,0.00934707,4,0,41.378168303058736,-91.82559385315732,9263.40922431034,89.27690806169305,0.5298935923232547,0.8184200129608518,203.873,8714.375071090433,10952.218357409804,150,True,23.561031082081254,False,125.37256399291985,172.60312962078712,False,47.241764348604555,False,False
2,1970-07-23 09:44:55.512303279,2025-09-09,2025-09-26 14:52:31.230,HH,B,2069095408,JASSM,3,108,76,2,2,1,225,9,2,0,1,26,0,0,0,0,-121181.41277467164,-4813089.521070776,4173924.963346959,2.50585,2.45341,-0.614072,-56.75,46.75,52.0,0.0,0.0,0.0,0.0,0.0,0.0,2,0,41.11341420987221,-91.44225801923044,10000.000130105522,-40.10244835255983,-0.0068137040412082,0.0015870708417863,,8714.375071090433,10952.218357409804,150,2,2025-09-09,2025-09-26 14:52:31.411,HH,B,3425459160,AMBUSH51,1,1,48,2,1,1,225,2,1,0,0,9,1,225,2,1,-152585.5359855753,-4792615.099880341,4195907.619721055,-2.2856,-0.034686,-0.0153244,131.76,1.78105,9.60561,-0.0917555,-7.5217,6.53436,0.00405404,0.00442022,-0.00568731,4,0,41.3783025616056,-91.8235462134528,9270.134574110683,89.44941328280062,0.7032960585846085,0.4185467923003839,203.225,8714.375071090433,10952.218357409804,150,True,23.44516187974173,False,125.41250390160003,172.75296225631814,False,47.35017444469823,False,False
2,1970-07-23 09:44:55.522363495,2025-09-09,2025-09-26 14:52:32.236,HH,B,2070349828,JASSM,3,108,76,2,2,1,225,9,2,0,1,26,0,0,0,0,-121241.29168092164,-4813040.287672338,4173979.628386021,2.50585,2.45341,-0.614072,-56.75,46.75,52.0,0.0,0.0,0.0,0.0,0.0,0.0,2,0,41.11406723474122,-91.44298512956529,10000.00050693368,-40.10292646810212,-0.0059613346437632,0.0015854330052216,,8714.375071090433,10952.218357409804,150,2,2025-09-09,2025-09-26 14:52:32.278,HH,B,3426493092,AMBUSH51,1,1,48,2,1,1,225,2,1,0,0,9,1,225,2,1,-152472.76419446326,-4792613.654808907,4195915.840947361,-2.28694,-0.0381118,-0.015656,131.522,1.35479,9.82213,-0.230483,-7.63929,6.68938,0.0013992,0.00445351,-0.00233339,4,0,41.37838801619729,-91.8221999383768,9275.577351641925,89.56577982011335,0.8641444608586076,0.3404459742842551,202.712,8714.375071090433,10952.218357409804,150,True,23.353079288676817,False,125.4538270651195,172.84718501045325,False,47.401591312468085,False,False
2,1970-07-23 09:44:55.542645236,2025-09-09,2025-09-26 14:52:34.264,HH,B,2071720110,JASSM,3,108,76,2,2,1,225,9,2,0,1,26,0,0,0,0,-121306.69793092164,-4812986.505445776,4174039.341276646,2.50585,2.45341,-0.614072,-56.75,46.75,52.0,0.0,0.0,0.0,0.0,0.0,0.0,2,0,41.11478057090993,-91.44377937622096,9999.999804781211,-40.10344873667525,-0.0050302555319491,0.0015836210555556,,8714.375071090433,10952.218357409804,150,2,2025-09-09,2025-09-26 14:52:34.445,HH,B,3429077924,AMBUSH51,1,1,48,2,1,1,225,2,1,0,0,9,1,225,2,1,-152187.61870850826,-4792610.255646998,4195937.690618015,-2.31069,-0.0437161,-0.0190089,130.749,1.41655,10.0327,-0.0110758,-7.54571,6.28334,-0.00545636,-0.00131598,0.00743084,4,0,41.37860967749133,-91.818795748625,9292.299098220426,89.63607037281727,1.2346078357797967,-1.024488945183493,201.722,8714.375071090433,10952.218357409804,150,True,23.193847750967187,False,125.34486719068774,173.11103874251123,False,47.77439415406714,False,False
2,1970-07-23 09:44:55.545144765,2025-09-09,2025-09-26 14:52:34.514,HH,B,2072972910,JASSM,3,108,76,2,2,1,225,9,2,0,1,26,0,0,0,0,-121366.49871217164,-4812937.333082494,4174093.934050084,2.50585,2.45341,-0.614072,-56.75,46.75,52.0,0.0,0.0,0.0,0.0,0.0,0.0,2,0,41.115432746564565,-91.44450556894684,9999.99990925251,-40.10392626193207,-0.0041789883807919,0.0015819778885768,,8714.375071090433,10952.218357409804,150,2,2025-09-09,2025-09-26 14:52:34.445,HH,B,3429077924,AMBUSH51,1,1,48,2,1,1,225,2,1,0,0,9,1,225,2,1,-152187.61870850826,-4792610.255646998,4195937.690618015,-2.31069,-0.0437161,-0.0190089,130.749,1.41655,10.0327,-0.0110758,-7.54571,6.28334,-0.00545636,-0.00131598,0.00743084,4,0,41.37860967749133,-91.818795748625,9292.299098220426,89.63607037281727,1.2346078357797967,-1.024488945183493,201.722,8714.375071090433,10952.218357409804,150,True,23.143026671810233,False,125.34486719068774,173.09604712923024,False,47.75941857706814,False,False
2,1970-07-23 09:44:55.555349016,2025-09-09,2025-09-26 14:52:35.534,HH,B,2074226012,JASSM,3,108,76,2,2,1,225,9,2,0,1,26,0,0,0,0,-121426.31511842164,-4812888.148023901,4174148.539030552,2.50585,2.45341,-0.614072,-56.75,46.75,52.0,0.0,0.0,0.0,0.0,0.0,0.0,2,0,41.11608507311706,-91.44523196574984,10000.00057223015,-40.10440392763959,-0.0033275102859545,0.0015803438605333,,8714.375071090433,10952.218357409804,150,2,2025-09-09,2025-09-26 14:52:35.678,HH,B,3430549288,AMBUSH51,1,1,48,2,1,1,225,2,1,0,0,9,1,225,2,1,-152026.85403539834,-4792608.67553279,4195950.401749454,-2.31696,-0.0455946,-0.018268,130.265,1.12588,10.523,-0.131427,-7.46693,6.53954,-0.00108711,-0.00193807,0.00276199,4,0,41.37873525476588,-91.81687633543405,9303.42369351831,89.74034222646881,1.2887526891250876,-1.383500040629836,201.319,8714.375071090433,10952.218357409804,150,True,23.033980047677442,False,125.24886253242678,173.24114197176036,False,47.998976145506155,False,False
2,1970-07-23 09:44:55.566643404,2025-09-09,2025-09-26 14:52:36.664,HH,B,2075479894,JASSM,3,108,76,2,2,1,225,9,2,0,1,26,0,0,0,0,-121486.16668092164,-4812838.931227026,4174203.176725865,2.50585,2.45341,-0.614072,-56.75,46.875,52.0,0.0,0.0,0.0,0.0,0.0,0.0,2,0,41.11673779936789,-91.44595880472716,10000.000206890749,-40.10488189037312,-0.0024755153990742,0.0015786958864553,,8714.375071090433,10952.218357409804,150,2,2025-09-09,2025-09-26 14:52:36.777,HH,B,3431861588,AMBUSH51,1,1,48,2,1,1,225,2,1,0,0,9,1,225,2,1,-151884.7988693148,-4792607.330988826,4195961.880146695,-2.27898,-0.0437304,-0.0222563,129.85,1.11744,10.5929,-0.261994,-7.72824,6.56386,0.104878,0.00848779,-0.0052587,4,0,41.37884754862518,-91.81518027613149,9313.926633611603,89.49933215877508,1.3609010615779584,0.7894454557449292,200.696,8714.375071090433,10952.218357409804,150,True,22.931854710160845,False,125.18550376133327,173.3413552809599,False,48.16014483675088,False,False
2,1970-07-23 09:44:55.576103528,2025-09-09,2025-09-26 14:52:37.610,HH,B,2076732904,JASSM,3,108,76,2,2,1,225,9,2,0,1,26,0,0,0,0,-121545.97527467164,-4812789.747633276,4174257.775846959,2.50585,2.45341,-0.614072,-56.75,46.875,52.0,0.0,0.0,0.0,0.0,0.0,0.0,2,0,41.11739006938061,-91.44668513691572,10000.000603158129,-40.10535952610265,-0.0016241189438214,0.0015770385254078,,8714.375071090433,10952.218357409804,150,2,2025-09-09,2025-09-26 14:52:37.544,HH,B,3432776220,AMBUSH51,1,1,48,2,1,1,225,2,1,0,0,9,1,225,2,1,-151785.26882718818,-4792606.651550484,4195969.920745371,-2.1883,-0.0460639,-0.0233741,129.686,0.53299,10.4839,-0.0520597,-7.68352,6.62294,0.113934,0.00793851,0.00373987,4,0,41.37892463882102,-91.81399184125276,9321.934208518938,89.54039168018363,1.5044336731449928,5.983005624601012,200.182,8714.375071090433,10952.218357409804,150,True,22.845101233770738,False,125.38241870700514,173.42717009383955,False,48.04826405113442,False,False
2,1970-07-23 09:44:55.588103255,2025-09-09,2025-09-26 14:52:38.810,HH,B,2078102908,JASSM,3,108,76,2,2,1,225,9,2,0,1,26,0,0,0,0,-121611.36980592164,-4812735.970777807,4174317.47164774,2.50585,2.45341,-0.613976,-56.75,46.875,52.0,0.0,0.0,0.0,0.0,0.0,0.0,2,0,41.1181032337242,-91.44747932263948,10000.00130218174,-40.10914462281865,-0.0051144989186998,0.0015754048172876,,8714.375071090433,10952.218357409804,150,2,2025-09-09,2025-09-26 14:52:38.944,HH,B,3434446418,AMBUSH51,1,1,48,2,1,1,225,2,1,0,0,9,1,225,2,1,-151604.06834348096,-4792606.857918618,4195983.09119342,-2.03476,-0.0628617,-0.00579912,129.322,-1.20241,8.63194,-0.242484,-7.17198,6.52662,0.109757,-0.00245822,0.02228,4,0,41.37904645863255,-91.81182767325726,9336.893379506351,90.93404312879429,1.5626364716726215,14.803516104295497,199.51,8714.375071090433,10952.218357409804,150,False,22.723511564771,False,126.48992222461116,173.59339839593463,False,47.10678155256221,False,False
2,1970-07-23 09:44:55.598144145,2025-09-09,2025-09-26 14:52:39.814,HH,B,2079357674,JASSM,3,108,76,2,2,1,225,9,2,0,1,26,0,0,0,0,-121671.26433717164,-4812686.715894994,4174372.144987584,2.50585,2.45331,-0.613976,-56.75,46.875,52.0,0.0,0.0,0.0,0.0,0.0,0.0,2,0,41.11875640616399,-91.44820672882048,10000.000724275898,-40.10601135653841,-0.0069270634429354,-0.0015903960611331,,8714.375071090433,10952.218357409804,150,2,2025-09-09,2025-09-26 14:52:39.977,HH,B,3435679184,AMBUSH51,1,1,48,2,1,1,225,2,1,0,0,9,1,225,2,1,-151469.7976371026,-4792608.440605512,4195990.681202849,-1.91241,-0.0741141,0.0169777,129.046,-2.61473,5.94839,-0.111266,-6.90284,6.30151,0.129791,-0.000635622,0.0230145,4,0,41.37911354939399,-91.81022346816567,9346.802306340229,92.34072642853872,1.18428664932759,21.850929099752456,199.144,8714.375071090433,10952.218357409804,150,False,22.62283051222758,False,127.79754844644542,173.71252632767067,False,45.919849254339766,False,False
2,1970-07-23 09:44:55.610744409,2025-09-09,2025-09-26 14:52:41.074,HH,B,2080669584,JASSM,3,108,76,2,2,1,225,9,2,0,1,26,0,0,0,0,-121733.88543092164,-4812635.216871557,4174429.30758524,2.50585,2.45331,-0.613976,-56.75,46.875,52.0,0.0,0.0,0.0,0.0,0.0,0.0,2,0,41.11943932175297,-91.44896726451682,10000.001135692548,-40.10651150468623,-0.0060356393468113,-0.0015921175154714,,8714.375071090433,10952.218357409804,150,2,2025-09-09,2025-09-26 14:52:40.977,HH,B,3436872182,AMBUSH51,1,1,48,2,1,1,225,2,1,0,0,9,1,225,2,1,-151341.54539264913,-4792611.487927674,4195994.844114357,-1.79225,-0.0865688,0.0447513,128.823,-4.42247,2.23347,-0.164283,-7.27285,6.50875,0.123307,0.0114131,0.0374434,4,0,41.379147634558336,-91.80869058811864,9353.359392900087,94.0068642301105,0.6666879340579477,28.78470362945875,198.911,8714.375071090433,10952.218357409804,150,False,22.520886312652706,False,129.57509205033816,173.82271768611972,False,44.25564439049763,False,False
2,1970-07-23 09:44:55.620322540,2025-09-09,2025-09-26 14:52:42.032,HH,B,2081980504,JASSM,3,108,76,2,2,1,225,9,2,0,1,26,0,0,0,0,-121796.45964967164,-4812583.755445776,4174486.4257493024,2.50585,2.45331,-0.613976,-56.75,46.875,52.0,0.0,0.0,0.0,0.0,0.0,0.0,2,0,41.12012171553173,-91.44972724694946,10000.000704552514,-40.10701129584189,-0.0051448867131204,-0.0015938339315851,,8714.375071090433,10952.218357409804,150,2,2025-09-09,2025-09-26 14:52:41.910,HH,B,3437985648,AMBUSH51,1,1,48,2,1,1,225,2,1,0,0,9,1,225,2,1,-151220.23546117957,-4792616.500973389,4195994.798793569,-1.67835,-0.0988626,0.0754766,128.602,-6.6226,-2.25081,-0.416101,-7.43109,6.83013,0.121891,0.0279975,0.0413175,4,0,41.37914028888385,-91.80723987958538,9356.174026071389,95.79222872708246,0.0278743445832276,35.363847074441715,198.948,8714.375071090433,10952.218357409804,150,False,22.420021887637038,False,131.72897294335226,173.92269333303707,False,42.20681420307194,False,False
2,1970-07-23 09:44:55.631880554,2025-09-09,2025-09-26 14:52:43.188,HH,B,2083234344,JASSM,3,108,76,2,2,1,225,9,2,0,1,26,0,0,0,0,-121856.31121217164,-4812534.533766088,4174541.056120396,2.50585,2.45331,-0.613976,-56.75,46.875,52.0,0.0,0.0,0.0,0.0,0.0,0.0,2,0,41.12077439219243,-91.45045417645966,10000.001078884314,-40.10748935664041,-0.0042929075882103,-0.0015954623243748,,8714.375071090433,10952.218357409804,150,2,2025-09-09,2025-09-26 14:52:43.178,HH,B,3439496780,AMBUSH51,1,1,48,2,1,1,225,2,1,0,0,9,1,225,2,1,-151058.30962285804,-4792627.013387356,4195987.601963682,-1.58451,-0.126996,0.132568,127.871,-10.5769,-9.43341,-0.370102,-7.80231,7.19868,0.0779172,0.0240548,0.0628142,4,0,41.37905954152172,-91.805302020572,9353.867501219138,99.30418237207546,-0.9433242439426176,40.88002657851956,199.18,8714.375071090433,10952.218357409804,150,False,22.302648735090937,False,135.3117956902361,174.05488960020892,False,38.765954381621974,False,False
2,1970-07-23 09:44:55.641142122,2025-09-09,2025-09-26 14:52:44.114,HH,B,2084487734,JASSM,3,108,76,2,2,1,225,9,2,0,1,26,0,0,0,0,-121916.13933717164,-4812485.328687963,4174595.665983677,2.50585,2.45331,-0.613976,-56.75,46.875,52.0,0.0,0.0,0.0,0.0,0.0,0.0,2,0,41.12142683043009,-91.451180836509,10000.001380522228,-40.10796724648751,-0.0034412451107705,-0.0015971036446434,,8714.375071090433,10952.218357409804,150,2,2025-09-09,2025-09-26 14:52:44.110,HH,B,3440610244,AMBUSH51,1,1,48,2,1,1,225,2,1,0,0,9,1,225,2,1,-150938.54520605257,-4792638.140733908,4195976.128256457,-1.54117,-0.152101,0.184147,126.857,-13.5774,-15.4272,-0.343538,-7.98773,7.35026,0.0463213,0.0264142,0.0613266,4,0,41.378938327644406,-91.80386747334585,9347.07886124318,102.45677801066576,-1.8498663621317752,43.51313413160632,199.657,8714.375071090433,10952.218357409804,150,False,22.200056677570583,False,138.22985335906301,174.1432256138359,False,35.94961569178903,False,False
2,1970-07-23 09:44:55.661463569,2025-09-09,2025-09-26 14:52:46.146,HH,B,2085798056,JASSM,3,108,76,2,2,1,225,9,2,0,1,26,0,0,0,0,-121978.68230592164,-4812433.887281713,4174652.754850865,2.50585,2.45331,-0.613976,-56.75,46.875,52.0,0.0,0.0,0.0,0.0,0.0,0.0,2,0,41.12210889696759,-91.4519404869416,9999.999967050731,-40.10846683923443,-0.0025509150958284,-0.0015988364141726,,8714.375071090433,10952.218357409804,150,2,2025-09-09,2025-09-26 14:52:46.244,HH,B,3443155308,AMBUSH51,1,1,48,2,1,1,225,2,1,0,0,9,1,225,2,1,-150671.54014711315,-4792674.279669875,4195927.674861105,-1.59181,-0.207373,0.297079,123.774,-20.664,-29.4146,-0.201997,-8.2701,7.5138,-0.0577563,0.0382486,0.0489221,4,0,41.37844617413795,-91.80066502787372,9310.246061534885,109.33273774964884,-3.894144814755105,41.02333704118385,201.502,8714.375071090433,10952.218357409804,150,False,22.0224368839542,False,145.06399493647433,174.33311106809106,False,29.360385008631823,True,False
2,1970-07-23 09:44:55.662321089,2025-09-09,2025-09-26 14:52:46.232,HH,B,2087052978,JASSM,3,108,76,2,2,1,225,9,2,0,1,26,0,0,0,0,-122038.58464967164,-4812384.619703588,4174707.429655552,2.50585,2.45331,-0.613976,-56.75,46.875,52.0,0.0,0.0,0.0,0.0,0.0,0.0,2,0,41.12276212466076,-91.45266807836146,10000.0000816358,-40.10894535441994,-0.0016982040223417,-0.0016004727776362,,8714.375071090433,10952.218357409804,150,2,2025-09-09,2025-09-26 14:52:46.244,HH,B,3443155308,AMBUSH51,1,1,48,2,1,1,225,2,1,0,0,9,1,225,2,1,-150671.54014711315,-4792674.279669875,4195927.674861105,-1.59181,-0.207373,0.297079,123.774,-20.664,-29.4146,-0.201997,-8.2701,7.5138,-0.0577563,0.0382486,0.0489221,4,0,41.37844617413795,-91.80066502787372,9310.246061534885,109.33273774964884,-3.894144814755105,41.02333704118385,201.502,8714.375071090433,10952.218357409804,150,False,21.971415784581232,False,145.06399493647433,174.3201895350904,False,29.347716562330987,True,False
2,1970-07-23 09:44:55.672341605,2025-09-09,2025-09-26 14:52:47.234,HH,B,2088245862,JASSM,3,108,76,2,2,1,225,9,2,0,1,26,0,0,0,0,-122095.52605592164,-4812337.787184057,4174759.400358677,2.50595,2.45331,-0.61388,-56.75,46.875,52.0,0.0,0.0,0.0,0.0,0.0,0.0,2,0,41.12338305003612,-91.4533597188068,10000.00060816918,-40.11266079201899,-0.0053063606267642,0.0038896261510573,,8714.375071090433,10952.218357409804,150,2,2025-09-09,2025-09-26 14:52:47.344,HH,B,3444467608,AMBUSH51,1,1,48,2,1,1,225,2,1,0,0,9,1,225,2,1,-150536.47462230988,-4792699.451631586,4195891.078545166,-1.6812,-0.243774,0.347979,121.666,-25.1252,-35.9363,-0.11436,-8.62709,7.55392,-0.0696136,0.0251742,0.0429029,4,0,41.37807458575981,-91.79904248778836,9282.373498056684,112.82997785678432,-4.400337956903282,36.31023583810505,202.602,8714.375071090433,10952.218357409804,150,False,21.854873001797202,False,148.62646255209447,174.39822533048638,False,25.893539830579336,True,False
2,1970-07-23 09:44:55.683142420,2025-09-09,2025-09-26 14:52:48.314,HH,B,2089436846,JASSM,3,108,76,2,2,1,225,9,2,0,1,26,0,0,0,0,-122152.37371217164,-4812291.027906713,4174811.2875657086,2.50595,2.45331,-0.61388,-56.75,46.875,52.0,0.0,0.0,0.0,0.0,0.0,0.0,2,0,41.12400298579282,-91.45405023468818,10000.000229645208,-40.11311493506389,-0.0044971116646515,0.003888010166726,,8714.375071090433,10952.218357409804,150,2,2025-09-09,2025-09-26 14:52:48.210,HH,B,3445501540,AMBUSH51,1,1,48,2,1,1,225,2,1,0,0,9,1,225,2,1,-150431.04238397288,-4792722.841256772,4195857.465455889,-1.75305,-0.276159,0.383436,119.873,-28.426,-40.5133,-0.309577,-8.60267,7.79444,-0.065107,0.0266327,0.0409575,4,0,41.37772818839515,-91.79777453964516,9258.883773013367,115.50664406990704,-4.511025137617772,32.649181730757775,203.372,8714.375071090433,10952.218357409804,150,False,21.750955036282644,False,151.20022917149228,174.4507299487716,False,23.398912872907715,True,False
2,1970-07-23 09:44:55.692281463,2025-09-09,2025-09-26 14:52:49.228,HH,B,2090570242,JASSM,3,108,76,2,2,1,225,9,2,0,1,26,0,0,0,0,-122206.47527467164,-4812246.528883276,4174860.665495396,2.50595,2.45322,-0.61388,-56.75,46.875,52.0,0.0,0.0,0.0,0.0,0.0,0.0,2,0,41.12459294307352,-91.45470740599684,10000.001379000578,-40.1099351400067,-0.0063921206564487,0.0007228449600428,,8714.375071090433,10952.218357409804,150,2,2025-09-09,2025-09-26 14:52:49.144,HH,B,3446615006,AMBUSH51,1,1,48,2,1,1,225,2,1,0,0,9,1,225,2,1,-150320.85471225972,-4792750.900073081,4195817.862950545,-1.81945,-0.310333,0.414987,118.021,-32.1182,-44.2923,-0.35534,-8.85438,7.96784,-0.0520679,0.0260959,0.0373623,4,0,41.37731445004184,-91.7964480592814,9233.533629786394,118.06816675235297,-4.439815482760502,29.40629473351053,204.313,8714.375071090433,10952.218357409804,150,False,21.644680046787855,False,153.66116391850176,174.5014528363622,False,21.00116841291279,True,False
2,1970-07-23 09:44:55.702661749,2025-09-09,2025-09-26 14:52:50.266,HH,B,2091644156,JASSM,3,108,76,2,2,1,225,9,2,0,1,26,0,0,0,0,-122257.73699342164,-4812204.364332494,4174907.450651646,2.50595,2.45322,-0.61388,-56.75,46.875,52.0,0.0,0.0,0.0,0.0,0.0,0.0,2,0,41.12515193129328,-91.45533009300378,10000.000788890988,-40.110344682542895,-0.0056624085336674,0.0007214495711499,,8714.375071090433,10952.218357409804,150,2,2025-09-09,2025-09-26 14:52:50.278,HH,B,3447967070,AMBUSH51,1,1,48,2,1,1,225,2,1,0,0,9,1,225,2,1,-150188.73269447824,-4792789.938702242,4195764.484878308,-1.89147,-0.358078,0.444064,115.492,-36.8438,-48.5789,-0.212119,-9.24976,8.34296,-0.0754788,0.0300719,0.0252844,4,0,41.376746461726185,-91.79485552419492,9203.642526091948,121.00401172131764,-3.812319412512733,26.20807480680551,205.535,8714.375071090433,10952.218357409804,150,False,21.525781187217017,False,156.66994810728627,174.5577614842245,False,18.05675275831466,True,False
2,1970-07-23 09:44:55.711142444,2025-09-09,2025-09-26 14:52:51.114,HH,B,2092777486,JASSM,3,108,76,2,2,1,225,9,2,0,1,26,0,0,0,0,-122311.83464967164,-4812159.865797338,4174956.823698521,2.50595,2.45322,-0.61388,-56.75,46.875,52.0,0.0,0.0,0.0,0.0,0.0,0.0,2,0,41.1257418457498,-91.4559872406097,9999.999723516594,-40.11077689486856,-0.004892322660265,0.0007199738886233,,8714.375071090433,10952.218357409804,150,2,2025-09-09,2025-09-26 14:52:51.177,HH,B,3449040770,AMBUSH51,1,1,48,2,1,1,225,2,1,0,0,9,1,225,2,1,-150084.95945359976,-4792825.176239299,4195719.225717588,-1.96288,-0.395971,0.464094,113.524,-40.9158,-50.8113,-0.140445,-9.24688,8.45929,-0.0370814,0.0201849,0.0258004,4,0,41.37625060484992,-91.79360299678076,9184.200473564655,123.19993393757876,-3.2425689543752214,22.93422834239416,206.647,8714.375071090433,10952.218357409804,150,False,21.418472764832785,False,158.8173150431485,174.59410759428587,False,15.919104195368176,True,False
