Subject_cm,Timestamp,SampleDate_cm,SampleTime_cm,Configuration_cm,Scenario_cm,DisTime_cm,MarkingTxt_cm,Application_cm,EntId_cm,Site_cm,ExerciseId_cm,ForceId_cm,Category_cm,Country_cm,Domain_cm,Kind_cm,Extra_cm,Specific_cm,Subcategory_cm,AltCategory_cm,AltCountry_cm,AltDomain_cm,AltKind_cm,ECEF_X_cm,ECEF_Y_cm,ECEF_Z_cm,OriPhi_cm,OriPsi_cm,OriTheta_cm,LinVelX_cm,LinVelY_cm,LinVelZ_cm,LinAccX_cm,LinAccY_cm,LinAccZ_cm,AngVelX_cm,AngVelY_cm,AngVelZ_cm,DrAlg_cm,Appearance_cm,Latitude_cm,Longitude_cm,Altitude_cm,Heading_cm,Pitch_cm,Roll_cm,CalibratedAirspeed_cm,CM_Altitude_Lead_cm,CM_Altitude_Wing_cm,CM_Airspeed_cm,Subject_ac,SampleDate_ac,SampleTime_ac,Configuration_ac,Scenario_ac,DisTime_ac,MarkingTxt_ac,Application_ac,EntId_ac,Site_ac,ExerciseId_ac,ForceId_ac,Category_ac,Country_ac,Domain_ac,Kind_ac,Extra_ac,Specific_ac,Subcategory_ac,AltCategory_ac,AltCountry_ac,AltDomain_ac,AltKind_ac,ECEF_X_ac,ECEF_Y_ac,ECEF_Z_ac,OriPhi_ac,OriPsi_ac,OriTheta_ac,LinVelX_ac,LinVelY_ac,LinVelZ_ac,LinAccX_ac,LinAccY_ac,LinAccZ_ac,AngVelX_ac,AngVelY_ac,AngVelZ_ac,DrAlg_ac,Appearance_ac,Latitude_ac,Longitude_ac,Altitude_ac,Heading_ac,Pitch_ac,Roll_ac,CalibratedAirspeed_ac,CM_Altitude_Lead_ac,CM_Altitude_Wing_ac,CM_Airspeed_ac,Bank_Angle_Condition,distance_nm,Distance_Condition,angle_between_vel,angle_between_pos,Cone_Condition,angle_between_pos_nose,Nose_Cone_Condition,Intercept_Criteria
2,1970-07-23 09:45:01.898266778,2025-09-09,2025-09-26 15:03:09.826,HH,C,2830976680,JASSM,3,118,76,2,2,1,225,9,2,0,1,26,0,0,0,0,-111457.53777467164,-4806704.9335463615,4181495.435026646,2.36166,2.75493,-0.3857,-75.0,30.625,32.875,0.0,0.0,0.0,0.0,0.0,0.0,2,0,41.203911935854734,-91.32833248904154,10000.00022743301,-59.997295258110775,-0.0006636032363204,-0.0013502774178583,,9260.064158607724,11112.292394974402,150,2,2025-09-09,2025-09-26 15:03:09.706,HH,C,3512952242,HAWK11,1,1,73,2,1,1,225,2,1,0,0,12,1,225,2,1,-138148.65857108062,-4791581.241182174,4198425.997526646,2.15524,-3.14131,-0.0684539,-90.5,6.375,5.875,-0.0625,-6.98438,7.73438,-0.00390625,0.0,-0.00976562,4,0,41.40405966416745,-91.6514679703727,11112.292394974402,-88.15636983415645,3.842761106775468,-7.79875455225364,152.144,9260.064158607724,11112.292394974402,150,True,18.894303282656498,False,25.47123217675065,170.51645170123152,False,145.0603492545839,False,False
2,1970-07-23 09:45:01.907404646,2025-09-09,2025-09-26 15:03:10.740,HH,C,2832108278,JASSM,3,118,76,2,2,1,225,9,2,0,1,26,0,0,0,0,-111528.79363404664,-4806675.918043432,4181526.678312779,2.36166,2.75484,-0.385604,-75.0,30.625,32.875,0.0,0.0,0.0,0.0,0.0,0.0,2,0,41.204285675323945,-91.32918942075274,10000.000330440713,-59.99810495773681,-0.007401970126467,-0.0034172265672858,,9260.064158607724,11112.292394974402,150,2,2025-09-09,2025-09-26 15:03:10.906,HH,C,3514383840,HAWK11,1,1,73,2,1,1,225,2,1,0,0,12,1,225,2,1,-138257.79528983062,-4791574.242158736,4198432.038542271,2.15764,-3.12414,-0.0620303,-91.0,5.0,5.0,0.03125,-6.85938,7.67188,0.00976562,0.0,-0.00195312,4,0,41.40412335282927,-91.65277431096284,11115.927154809437,-89.08355539169159,4.33821330709728,-7.663436838563714,153.439,9260.064158607724,11112.292394974402,150,True,18.89809719561093,False,26.484138029800278,170.59811010482645,False,144.13485145638177,False,False
2,1970-07-23 09:45:01.917183580,2025-09-09,2025-09-26 15:03:11.718,HH,C,2833243500,JASSM,3,118,76,2,2,1,225,9,2,0,1,26,0,0,0,0,-111600.27605592164,-4806646.808790502,4181558.020964146,2.36166,2.75484,-0.385604,-75.0,30.625,32.875,0.0,0.0,0.0,0.0,0.0,0.0,2,0,41.204660605712384,-91.33004908734306,10000.000363464776,-59.9986712613978,-0.0066543754701594,-0.0034185139017733,,9260.064158607724,11112.292394974402,150,2,2025-09-09,2025-09-26 15:03:11.798,HH,C,3515417772,HAWK11,1,1,73,2,1,1,225,2,1,0,0,12,1,225,2,1,-138337.09021170562,-4791570.152314986,4198436.017057896,2.15572,-3.1113,-0.0540728,-91.375,4.0,4.625,-0.078125,-7.03125,7.79688,-0.00195312,0.00195312,-0.0117188,4,0,41.40416092348128,-91.653723110297,11120.12930974442,-89.91420965662093,4.590102756876827,-7.795237999187132,153.891,9260.064158607724,11112.292394974402,150,True,18.88830859523368,False,27.098548447277956,170.652460736567,False,143.58191773048836,False,False
2,1970-07-23 09:45:01.927206631,2025-09-09,2025-09-26 15:03:12.720,HH,C,2834377314,JASSM,3,118,76,2,2,1,225,9,2,0,1,26,0,0,0,0,-111671.67058717164,-4806617.734815893,4181589.324064732,2.36176,2.75484,-0.385604,-75.0,30.625,32.875,0.0,0.0,0.0,0.0,0.0,0.0,2,0,41.20503506485359,-91.33090770687464,10000.000499875428,-59.99923687955266,-0.0059077018815682,0.0020716758332112,,9260.064158607724,11112.292394974402,150,2,2025-09-09,2025-09-26 15:03:12.594,HH,C,3516451704,HAWK11,1,1,73,2,1,1,225,2,1,0,0,12,1,225,2,1,-138416.33044608062,-4791566.918916549,4198439.628386021,2.14355,-3.09922,-0.0487998,-91.625,2.75,4.25,0.140625,-7.07812,7.82812,-0.0175781,0.00585938,-0.00976562,4,0,41.40419092194362,-91.6546709613642,11125.640777108794,-90.60048799710142,4.910479076430367,-8.51408868699652,154.136,9260.064158607724,11112.292394974402,150,True,18.878271259243174,False,27.815465653828188,170.70784444155234,False,142.93135985938943,False,False
2,1970-07-23 09:45:01.936267156,2025-09-09,2025-09-26 15:03:13.626,HH,C,2835510192,JASSM,3,118,76,2,2,1,225,9,2,0,1,26,0,0,0,0,-111743.00652467164,-4806588.683973608,4181620.60055399,2.36176,2.75484,-0.385604,-75.0,30.625,32.875,0.0,0.0,0.0,0.0,0.0,0.0,2,0,41.20540920834179,-91.3317656317132,10000.000400638237,-59.99980204430996,-0.0051616419653903,0.0020703962903691,,9260.064158607724,11112.292394974402,150,2,2025-09-09,2025-09-26 15:03:13.798,HH,C,3517883302,HAWK11,1,1,73,2,1,1,225,2,1,0,0,12,1,225,2,1,-138525.99646170562,-4791564.055635299,4198443.880339146,2.13041,-3.08474,-0.038733,-91.875,1.375,3.375,0.1875,-6.84375,7.625,0.00195312,0.00390625,-0.00976562,4,0,41.40421780229339,-91.6559822016471,11135.619410044928,-91.58561421586911,5.1523992319275385,-9.316730292445582,154.576,9260.064158607724,11112.292394974402,150,True,18.880882624530596,False,28.810883725676653,170.7949537809232,False,142.03053750002044,False,False
2,1970-07-23 09:45:01.945425906,2025-09-09,2025-09-26 15:03:14.542,HH,C,2836583934,JASSM,3,118,76,2,2,1,225,9,2,0,1,26,0,0,0,0,-111810.61785279664,-4806561.148878393,4181650.2437424655,2.36176,2.75484,-0.385604,-75.0,30.625,32.875,0.0,0.0,0.0,0.0,0.0,0.0,2,0,41.20576381540488,-91.3325787716864,10000.000346427196,-60.00033771058949,-0.0044545331807683,0.002069179909331,,9260.064158607724,11112.292394974402,150,2,2025-09-09,2025-09-26 15:03:14.594,HH,C,3518797936,HAWK11,1,1,73,2,1,1,225,2,1,0,0,12,1,225,2,1,-138596.46521170562,-4791563.246064986,4198445.970182896,2.15074,-3.074,-0.0324053,-92.0,0.25,2.875,0.0,-6.89062,7.5625,0.0820312,0.00390625,-0.0117188,4,0,41.40422460157962,-91.65682441703864,11143.175237130048,-92.26760482255052,5.374473843519533,-8.192844060141697,154.967,9260.064158607724,11112.292394974402,150,True,18.868661914517897,False,29.52702652922333,170.8457075172266,False,141.3743400733885,False,False
2,1970-07-23 09:45:01.955205061,2025-09-09,2025-09-26 15:03:15.520,HH,C,2837775248,JASSM,3,118,76,2,2,1,225,9,2,0,1,26,0,0,0,0,-111885.63347779664,-4806530.597914037,4181683.1320481305,2.36176,2.75484,-0.385604,-75.0,30.625,32.875,0.0,0.0,0.0,0.0,0.0,0.0,2,0,41.20615724418179,-91.3334809711798,10000.00039859715,-60.00093205040727,-0.0036699897544935,0.0020678351624254,,9260.064158607724,11112.292394974402,150,2,2025-09-09,2025-09-26 15:03:15.406,HH,C,3519792100,HAWK11,1,1,73,2,1,1,225,2,1,0,0,12,1,225,2,1,-138673.27575858062,-4791563.043916549,4198447.776823521,2.33194,-3.07534,-0.0233932,-92.125,0.0,2.375,0.0625,-6.375,6.90625,0.414062,-0.015625,0.0214844,4,0,41.40422477746468,-91.6577421914297,11152.06470613372,-92.60582396123758,4.975811109050264,2.1566073005621766,154.869,9260.064158607724,11112.292394974402,150,True,18.854257832785468,False,29.85885499250898,170.90168405433622,False,141.09563900587028,False,False
2,1970-07-23 09:45:01.965244584,2025-09-09,2025-09-26 15:03:16.524,HH,C,2838968294,JASSM,3,118,76,2,2,1,225,9,2,0,1,26,0,0,0,0,-111960.75652467164,-4806500.001600561,4181716.067472935,2.36176,2.75484,-0.385604,-75.0,30.625,32.875,0.0,0.0,0.0,0.0,0.0,0.0,2,0,41.206551238879534,-91.3343844738919,10000.000487873343,-60.00152725343224,-0.0028843178103057,0.002066480336307,,9260.064158607724,11112.292394974402,150,2,2025-09-09,2025-09-26 15:03:16.298,HH,C,3520706734,HAWK11,1,1,73,2,1,1,225,2,1,0,0,12,1,225,2,1,-138744.08435233062,-4791562.237275924,4198449.448698521,2.60729,-3.09414,-0.0404587,-92.375,1.25,3.125,-0.15625,-6.64062,7.1875,0.224609,0.0273438,0.0449219,4,0,41.40422866661778,-91.65858846511092,11158.750346593186,-91.15598402127266,4.816042360265815,18.022376069988677,154.869,9260.064158607724,11112.292394974402,150,False,18.83743779215957,False,28.987083460059992,170.95108765374593,False,142.00991415987,False,False
2,1970-07-23 09:45:01.974363657,2025-09-09,2025-09-26 15:03:17.436,HH,C,2840103770,JASSM,3,118,76,2,2,1,225,9,2,0,1,26,0,0,0,0,-112032.25652467164,-4806470.8808119865,4181747.412687779,2.36176,2.75484,-0.385604,-75.0,30.625,32.875,0.0,0.0,0.0,0.0,0.0,0.0,2,0,41.206926213643165,-91.33524441241352,10000.00015644105,-60.00209376191197,-0.0021365432610706,0.0020652010061235,,9260.064158607724,11112.292394974402,150,2,2025-09-09,2025-09-26 15:03:17.406,HH,C,3522217864,HAWK11,1,1,73,2,1,1,225,2,1,0,0,12,1,225,2,1,-138861.26208670562,-4791558.394502486,4198455.435026646,2.75618,3.13383,-0.137483,-92.125,4.5,7.875,0.0,-8.07812,8.95312,0.03125,0.03125,0.0742188,4,0,41.40427174139256,-91.65998979008998,11170.636873624384,-84.87023392471505,6.107582878142703,26.870723390006106,156.433,9260.064158607724,11112.292394974402,150,False,18.843845258718932,False,25.479718942336696,171.04365382656337,False,145.63032000677697,False,False
2,1970-07-23 09:45:01.989425558,2025-09-09,2025-09-26 15:03:18.942,HH,C,2841354388,JASSM,3,118,76,2,2,1,225,9,2,0,1,26,0,0,0,0,-112111.00457154664,-4806438.806227026,4181781.935759068,2.36176,2.75484,-0.385604,-75.0,30.625,32.875,0.0,0.0,0.0,0.0,0.0,0.0,2,0,41.20733920558127,-91.33619153586596,10000.000276523,-60.00271771081473,-0.0013129590989746,0.0020637809838768,,9260.064158607724,11112.292394974402,150,2,2025-09-09,2025-09-26 15:03:19.094,HH,C,3524126662,HAWK11,1,1,73,2,1,1,225,2,1,0,0,12,1,225,2,1,-139008.35974295562,-4791547.063447799,4198474.259245396,2.7022,3.10622,-0.202869,-91.0,9.125,15.25,-0.109375,-8.0625,8.82812,-0.046875,0.0234375,0.0332031,4,0,41.40444084027577,-91.66175118232204,11194.101990081192,-80.99324472733824,7.386961866584365,23.965821216519863,155.456,9260.064158607724,11112.292394974402,150,False,18.863202791245424,False,20.237977345612336,171.14663216706748,False,151.04124845654027,False,False
2,1970-07-23 09:45:01.995202985,2025-09-09,2025-09-26 15:03:19.520,HH,C,2842489860,JASSM,3,118,76,2,2,1,225,9,2,0,1,26,0,0,0,0,-112182.50457154664,-4806409.683912572,4181813.279509068,2.36176,2.75484,-0.385604,-75.0,30.625,32.875,0.0,0.0,0.0,0.0,0.0,0.0,2,0,41.20771416592586,-91.33705149544436,10000.000511055578,-60.00328424209886,-0.0005651848130658,0.0020625026293316,,9260.064158607724,11112.292394974402,150,2,2025-09-09,2025-09-26 15:03:19.406,HH,C,3524564096,HAWK11,1,1,73,2,1,1,225,2,1,0,0,12,1,225,2,1,-139041.04724295562,-4791543.495088424,4198480.091276646,2.68571,3.09557,-0.218976,-90.625,10.0,16.875,0.0,-7.89062,8.70312,-0.0429688,0.0292969,0.0488281,4,0,41.40449579279629,-91.6621429573031,11200.31211026897,-79.8961720839463,7.539910240265889,23.03587667708979,155.309,9260.064158607724,11112.292394974402,150,False,18.834635169244628,False,19.153175506474742,171.1511272543681,False,152.15776714138875,False,False
2,1970-07-23 09:45:02.005264760,2025-09-09,2025-09-26 15:03:20.526,HH,C,2843680828,JASSM,3,118,76,2,2,1,225,9,2,0,1,26,0,0,0,0,-112257.49675904664,-4806379.137281713,4181846.154264928,2.36176,2.75474,-0.385509,-75.0,30.625,32.875,0.0,0.0,0.0,0.0,0.0,0.0,2,0,41.20810744534085,-91.33795346806896,10000.000088480168,-60.0041232449941,-0.0072646169488029,-4.038025109337523e-06,,9260.064158607724,11112.292394974402,150,2,2025-09-09,2025-09-26 15:03:20.600,HH,C,3525836628,HAWK11,1,1,73,2,1,1,225,2,1,0,0,12,1,225,2,1,-139137.24450858062,-4791531.679658736,4198500.534636021,2.73796,3.05943,-0.276404,-89.625,10.25,22.25,0.03125,-7.96875,8.75,0.119141,0.0371094,0.0585938,4,0,41.40468746391056,-91.66329638488882,11222.476595585827,-76.05870124185643,8.173140061642806,26.04653034047381,155.468,9260.064158607724,11112.292394974402,150,False,18.835834142742335,False,17.02353535568419,171.19997276093696,False,154.59364489976835,False,False
2,1970-07-23 09:45:02.014422535,2025-09-09,2025-09-26 15:03:21.442,HH,C,2844816298,JASSM,3,118,76,2,2,1,225,9,2,0,1,26,0,0,0,0,-112328.99675904664,-4806350.013258276,4181877.496550084,2.36176,2.75474,-0.385509,-75.0,30.625,32.875,0.0,0.0,0.0,0.0,0.0,0.0,2,0,41.20848239268992,-91.33881344824012,10000.000249729144,-60.00468979838622,-0.0065168423528259,-5.3195211092003486e-06,,9260.064158607724,11112.292394974402,150,2,2025-09-09,2025-09-26 15:03:21.500,HH,C,3527029626,HAWK11,1,1,73,2,1,1,225,2,1,0,0,12,1,225,2,1,-139225.65271170562,-4791517.181611861,4198524.897917271,2.90833,3.01322,-0.348693,-87.125,16.0,26.75,-0.078125,-8.5625,9.45312,0.144531,0.0585938,0.0703125,4,0,41.40492288819727,-91.66435768705124,11245.996467416571,-71.22502438704653,8.978890402889219,35.71443200369114,154.478,9260.064158607724,11112.292394974402,150,False,18.837615628436566,False,12.315973820462576,171.23567462997858,False,159.39601671016723,False,False
2,1970-07-23 09:45:02.025467717,2025-09-09,2025-09-26 15:03:22.546,HH,C,2846067726,JASSM,3,118,76,2,2,1,225,9,2,0,1,26,0,0,0,0,-112407.79558717164,-4806317.914137182,4181912.038786412,2.36176,2.75474,-0.385509,-75.0,30.625,32.875,0.0,0.0,0.0,0.0,0.0,0.0,2,0,41.20889562332633,-91.33976122843885,10000.000488811387,-60.00531419920108,-0.0056927256957546,-6.745062105714475e-06,,9260.064158607724,11112.292394974402,150,2,2025-09-09,2025-09-26 15:03:22.704,HH,C,3528421458,HAWK11,1,1,73,2,1,1,225,2,1,0,0,12,1,225,2,1,-139325.37146170562,-4791495.457002486,4198560.644011021,3.07093,2.92914,-0.435651,-83.125,21.875,33.625,-0.078125,-8.75,9.67188,0.0917969,0.0625,0.0839844,4,0,41.40527617072008,-91.66555663996591,11277.25345670451,-64.46373790378702,8.922549824466056,44.24022200810252,153.5,9260.064158607724,11112.292394974402,150,False,18.844139478491915,False,6.9745255383908304,171.26399455645162,False,165.40045857263914,False,False
2,1970-07-23 09:45:02.034242083,2025-09-09,2025-09-26 15:03:23.424,HH,C,2847202334,JASSM,3,118,76,2,2,1,225,9,2,0,1,26,0,0,0,0,-112479.24089967164,-4806288.810499487,4181943.355680943,2.36176,2.75474,-0.385509,-75.0,30.625,32.875,0.0,0.0,0.0,0.0,0.0,0.0,2,0,41.20927027195622,-91.34062057199294,10000.00041360892,-60.00588034211779,-0.0049455220016872,-8.026707541776588e-06,,9260.064158607724,11112.292394974402,150,2,2025-09-09,2025-09-26 15:03:23.406,HH,C,3529256558,HAWK11,1,1,73,2,1,1,225,2,1,0,0,12,1,225,2,1,-139382.46325858062,-4791478.584932174,4198585.876432896,3.13498,2.86346,-0.486464,-80.0,26.125,37.75,-0.0625,-8.71875,9.67188,-0.03125,0.0703125,0.0898438,4,0,41.40553698366871,-91.66624461966413,11294.588245724324,-59.99347213446393,8.382038028177014,46.90747816398134,152.449,9260.064158607724,11112.292394974402,150,False,18.833766536029874,False,4.323399613221605,171.26435084138834,False,169.45758537362124,False,False
2,1970-07-23 09:45:02.045263186,2025-09-09,2025-09-26 15:03:24.526,HH,C,2848454290,JASSM,3,118,76,2,2,1,225,9,2,0,1,26,0,0,0,0,-112558.07293092164,-4806256.695997533,4181977.910612584,2.36176,2.75474,-0.385509,-75.0,30.625,32.875,0.0,0.0,0.0,0.0,0.0,0.0,2,0,41.20968366018364,-91.34156877482287,10000.000322034975,-60.00650503121302,-0.0041210586625746,-9.451209704363503e-06,,9260.064158607724,11112.292394974402,150,2,2025-09-09,2025-09-26 15:03:24.406,HH,C,3530529090,HAWK11,1,1,73,2,1,1,225,2,1,0,0,12,1,225,2,1,-139464.32653983062,-4791447.731416549,4198629.075651646,-3.12002,2.75934,-0.532962,-74.75,32.5,42.875,0.078125,-7.17188,7.96875,0.00976562,-0.0078125,0.078125,4,0,41.40599795502551,-91.66723342997928,11318.294316761148,-54.42223612781761,6.466150116823342,46.32953835688747,150.946,9260.064158607724,11112.292394974402,150,False,18.836909668579686,False,5.776248703300031,171.2595835990641,False,175.24458204628777,False,False
2,1970-07-23 09:45:02.054402280,2025-09-09,2025-09-26 15:03:25.440,HH,C,2849647692,JASSM,3,118,76,2,2,1,225,9,2,0,1,26,0,0,0,0,-112633.21941529664,-4806226.082350072,4182010.8488450055,2.36176,2.75474,-0.385509,-75.0,30.625,32.875,0.0,0.0,0.0,0.0,0.0,0.0,2,0,41.21007770968589,-91.34247265864198,10000.00031864946,-60.00710052714372,-0.0033351428733554,-1.0804912512316792e-05,,9260.064158607724,11112.292394974402,150,2,2025-09-09,2025-09-26 15:03:25.408,HH,C,3531602788,HAWK11,1,1,73,2,1,1,225,2,1,0,0,12,1,225,2,1,-139530.17224295562,-4791414.644502486,4198668.269011021,-3.04294,2.68063,-0.547248,-71.0,38.125,44.875,-0.03125,-6.20312,6.875,0.046875,0.0371094,0.0683594,4,0,41.406447941366345,-91.66803165316308,11326.671904367016,-51.06090779893541,4.362595079771579,48.74335619007688,149.737,9260.064158607724,11112.292394974402,150,False,18.8352182274354,False,8.874677398743437,171.2416309978474,False,179.17501358224789,False,False
2,1970-07-23 09:45:02.065424148,2025-09-09,2025-09-26 15:03:26.542,HH,C,2850899674,JASSM,3,118,76,2,2,1,225,9,2,0,1,26,0,0,0,0,-112712.05535279664,-4806193.965162572,4182045.402800084,2.36176,2.75474,-0.385509,-75.0,30.625,32.875,0.0,0.0,0.0,0.0,0.0,0.0,2,0,41.21049109136976,-91.34342093207884,10000.000187194864,-60.00772527284968,-0.0025106444559706,-1.2219153752742188e-05,,9260.064158607724,11112.292394974402,150,2,2025-09-09,2025-09-26 15:03:26.298,HH,C,3532676488,HAWK11,1,1,73,2,1,1,225,2,1,0,0,12,1,225,2,1,-139591.73083670562,-4791376.932588424,4198708.657682896,-2.97889,2.59876,-0.590487,-66.625,44.25,47.125,0.015625,-7.48438,8.28125,0.0,0.078125,0.0703125,4,0,41.40693424926899,-91.6687802744756,11325.963563237166,-46.45641929640584,3.559321587188605,50.20246002829596,151.35,9260.064158607724,11112.292394974402,150,False,18.830854147882604,False,13.21193255832852,171.21346620753928,False,175.42324289707219,False,False
2,1970-07-23 09:45:02.076246277,2025-09-09,2025-09-26 15:03:27.624,HH,C,2852092930,JASSM,3,118,76,2,2,1,225,9,2,0,1,26,0,0,0,0,-112787.19207154664,-4806163.353590307,4182078.335417271,2.36176,2.75474,-0.385509,-75.0,30.625,32.875,0.0,0.0,0.0,0.0,0.0,0.0,2,0,41.21088507731746,-91.34432472118796,10000.000676906166,-60.00832071600288,-0.0017248294422221,-1.3574360696455084e-05,,9260.064158607724,11112.292394974402,150,2,2025-09-09,2025-09-26 15:03:27.501,HH,C,3534108086,HAWK11,1,1,73,2,1,1,225,2,1,0,0,12,1,225,2,1,-139667.70935233062,-4791318.711885299,4198768.311979771,-2.90066,2.45216,-0.659995,-59.0,51.625,52.0,-0.125,-8.9375,9.8125,-0.0214844,0.0664062,0.0898438,4,0,41.40767010468941,-91.66970833984227,11317.65392719877,-38.6458676132606,2.4132092959567237,50.16781109085952,153.684,9260.064158607724,11112.292394974402,150,False,18.844484971845496,False,20.26863007526743,171.16651104400367,False,168.3515452292458,False,False
2,1970-07-23 09:45:02.085224903,2025-09-09,2025-09-26 15:03:28.522,HH,C,2853285902,JASSM,3,118,76,2,2,1,225,9,2,0,1,26,0,0,0,0,-112862.31121217164,-4806132.748365697,4182111.259245396,2.36176,2.75474,-0.385509,-75.0,30.625,32.875,0.0,0.0,0.0,0.0,0.0,0.0,2,0,41.211278961456856,-91.34522830992468,10000.000752716682,-60.00891603183708,-0.0009391994332512,-1.4926952688140828e-05,,9260.064158607724,11112.292394974402,150,2,2025-09-09,2025-09-26 15:03:28.500,HH,C,3535340852,HAWK11,1,1,73,2,1,1,225,2,1,0,0,12,1,225,2,1,-139724.96716483062,-4791262.394502486,4198825.411589146,-2.83537,2.32235,-0.717136,-50.875,57.125,56.75,-0.109375,-9.03125,10.0156,-0.00585938,0.0800781,0.0742188,4,0,41.40838063457642,-91.67041208440884,11307.145671208937,-32.05455160988997,1.8981398617388452,49.42485784668822,154.674,9260.064158607724,11112.292394974402,150,False,18.849300686057152,False,26.83199356657862,171.10406916561533,False,161.8832410871773,False,False
2,1970-07-23 09:45:02.094382213,2025-09-09,2025-09-26 15:03:29.438,HH,C,2854420350,JASSM,3,118,76,2,2,1,225,9,2,0,1,26,0,0,0,0,-112933.74480592164,-4806103.643629369,4182142.567106724,2.36176,2.75465,-0.385509,-75.0,30.625,32.875,0.0,0.0,0.0,0.0,0.0,0.0,2,0,41.21165351611814,-91.34608757652846,10000.000424303244,-60.005864064545975,-0.0037700531693203,-0.002081300590847,,9260.064158607724,11112.292394974402,150,2,2025-09-09,2025-09-26 15:03:29.594,HH,C,3536653150,HAWK11,1,1,73,2,1,1,225,2,1,0,0,12,1,225,2,1,-139776.04528983062,-4791196.982393111,4198890.901823521,-2.78063,2.17959,-0.770921,-41.5,61.875,61.375,-0.203125,-9.6875,10.6875,-0.0390625,0.0839844,0.0742188,4,0,41.40920297665611,-91.6710451780847,11292.03765632844,-25.299757821354262,1.6468354038432105,47.22404368997652,156.763,9260.064158607724,11112.292394974402,150,False,18.85816221315815,False,33.65034804980802,171.02098289561667,False,155.18177591529937,False,False
2,1970-07-23 09:45:02.105456850,2025-09-09,2025-09-26 15:03:30.545,HH,C,2855612972,JASSM,3,118,76,2,2,1,225,9,2,0,1,26,0,0,0,0,-113008.84246217164,-4806073.045606908,4182175.479704381,2.36176,2.75465,-0.385413,-75.0,30.625,32.875,0.0,0.0,0.0,0.0,0.0,0.0,2,0,41.21204727063734,-91.34699092840796,10000.000431981764,-60.01032169707849,-0.0068905929393812,-0.0020822674426968,,9260.064158607724,11112.292394974402,150,2,2025-09-09,2025-09-26 15:03:30.594,HH,C,3537925682,HAWK11,1,1,73,2,1,1,225,2,1,0,0,12,1,225,2,1,-139814.80310233062,-4791129.713838424,4198958.936979771,-2.69329,2.03137,-0.817037,-31.5,65.25,65.75,-0.171875,-9.75,10.7031,0.0,0.0761719,0.0722656,4,0,41.41005567767332,-91.67153172621,11277.0077108058,-18.78862600683905,1.6803739543070149,46.35415838337719,158.071,9260.064158607724,11112.292394974402,150,False,18.860798196397567,False,40.31646595442064,170.9199606399402,False,148.656437979157,False,False
2,1970-07-23 09:45:02.115229502,2025-09-09,2025-09-26 15:03:31.522,HH,C,2856806072,JASSM,3,118,76,2,2,1,225,9,2,0,1,26,0,0,0,0,-113083.96941529664,-4806042.434400854,4182208.4047532086,2.36176,2.75465,-0.385413,-75.0,30.625,32.875,0.0,0.0,0.0,0.0,0.0,0.0,2,0,41.21244117640951,-91.347894643889,10000.000461580592,-60.01091711008405,-0.0061048800428898,-0.0020836245870064,,9260.064158607724,11112.292394974402,150,2,2025-09-09,2025-09-26 15:03:31.707,HH,C,3539158448,HAWK11,1,1,73,2,1,1,225,2,1,0,0,12,1,225,2,1,-139842.16052420562,-4791060.783174361,4199029.466276646,-2.57229,1.87635,-0.853469,-21.25,67.625,69.0,-0.15625,-9.64062,10.5781,0.0273438,0.0742188,0.0703125,4,0,41.410937080737696,-91.67188264750132,11262.489374250772,-12.478456038105044,1.879207858322796,46.88967811558007,158.829,9260.064158607724,11112.292394974402,150,False,18.859814751515056,False,46.68396441510406,170.80318385869052,False,142.42855870753047,False,False
2,1970-07-23 09:45:02.125269652,2025-09-09,2025-09-26 15:03:32.526,HH,C,2858058378,JASSM,3,118,76,2,2,1,225,9,2,0,1,26,0,0,0,0,-113162.82488404664,-4806010.303175268,4182242.962858677,2.36176,2.75465,-0.385413,-75.0,30.625,32.875,0.0,0.0,0.0,0.0,0.0,0.0,2,0,41.21285462186606,-91.34884322223378,10000.00059903623,-60.011542086038176,-0.0052801735024014,-0.0020850472203833,,9260.064158607724,11112.292394974402,150,2,2025-09-09,2025-09-26 15:03:32.707,HH,C,3540351446,HAWK11,1,1,73,2,1,1,225,2,1,0,0,12,1,225,2,1,-139858.02575858062,-4790992.140596236,4199099.946745396,-2.42331,1.70531,-0.869288,-10.75,69.5,71.25,-0.28125,-9.90625,10.7656,0.00976562,0.0742188,0.0761719,4,0,41.41181843634625,-91.6720961594966,11247.753862443176,-6.039439443153868,1.589172971016671,48.17769610554869,160.112,9260.064158607724,11112.292394974402,150,False,18.851794702690672,False,52.92127573939065,170.6733508754172,False,136.33167857380644,False,False
2,1970-07-23 09:45:02.134437995,2025-09-09,2025-09-26 15:03:33.443,HH,C,2859192518,JASSM,3,118,76,2,2,1,225,9,2,0,1,26,0,0,0,0,-113234.23894654664,-4805981.202955541,4182274.259245396,2.36176,2.75465,-0.385413,-75.0,30.625,32.875,0.0,0.0,0.0,0.0,0.0,0.0,2,0,41.21322904771661,-91.3497022960851,10000.000457238695,-60.01210809593523,-0.0045332909115329,-0.0020863380887816,,9260.064158607724,11112.292394974402,150,2,2025-09-09,2025-09-26 15:03:33.299,HH,C,3541107012,HAWK11,1,1,73,2,1,1,225,2,1,0,0,12,1,225,2,1,-139862.16443045562,-4790947.598604049,4199145.042448521,-2.32571,1.59764,-0.869863,-3.75,70.5,72.0,-0.046875,-9.64062,10.4844,0.0175781,0.0859375,0.0917969,4,0,41.41238710356912,-91.67216114929812,11236.366217498702,-2.0702849673913297,1.2953661563735497,49.15446754199915,160.674,9260.064158607724,11112.292394974402,150,False,18.831397413092834,False,56.95553330498049,170.5768109252988,False,132.39465999044586,False,False
2,1970-07-23 09:45:02.144472758,2025-09-09,2025-09-26 15:03:34.447,HH,C,2860383480,JASSM,3,118,76,2,2,1,225,9,2,0,1,26,0,0,0,0,-113309.23113404664,-4805950.64387351,4182307.1227707863,2.36176,2.75465,-0.385413,-75.0,30.625,32.875,0.0,0.0,0.0,0.0,0.0,0.0,2,0,41.21362222543267,-91.3506044236876,10000.000081797743,-60.01270247681596,-0.0037489871782419,-0.0020876922910388,,9260.064158607724,11112.292394974402,150,2,2025-09-09,2025-09-26 15:03:34.347,HH,C,3541902344,HAWK11,1,1,73,2,1,1,225,2,1,0,0,12,1,225,2,1,-139862.25818045562,-4790900.243135299,4199193.343229771,-2.21929,1.47559,-0.864878,3.5,71.125,72.375,-0.234375,-9.92188,10.8125,0.0117188,0.0976562,0.09375,4,0,41.41299484593162,-91.67217878855566,11224.726308714218,2.4532154072278853,1.0275631399810703,50.00793485911249,162.507,9260.064158607724,11112.292394974402,150,False,18.808677320379676,False,61.06332293457233,170.46929089846347,False,128.39521085590133,False,False
2,1970-07-23 09:45:02.154248305,2025-09-09,2025-09-26 15:03:35.424,HH,C,2861517216,JASSM,3,118,76,2,2,1,225,9,2,0,1,26,0,0,0,0,-113380.61980592164,-4805921.552320776,4182338.4067063336,2.36176,2.75465,-0.385413,-75.0,30.625,32.875,0.0,0.0,0.0,0.0,0.0,0.0,2,0,41.21399650596809,-91.35146321264986,10000.000228193836,-60.0132683076995,-0.0030023694318251,-0.0020889833239296,,9260.064158607724,11112.292394974402,150,2,2025-09-09,2025-09-26 15:03:35.502,HH,C,3543652076,HAWK11,1,1,73,2,1,1,225,2,1,0,0,12,1,225,2,1,-139844.67224295562,-4790796.174775924,4199300.800261021,-2.05208,1.20533,-0.843018,20.75,70.25,72.875,-0.234375,-10.9688,11.9375,-0.015625,0.101562,0.0605469,4,0,41.4143423624942,-91.67200495106763,11200.723112357524,12.683706269778025,1.3169247381403828,48.09250679107813,164.401,9260.064158607724,11112.292394974402,150,False,18.80993391753514,False,70.66522832763438,170.2421433332163,False,119.03866950859717,False,False
2,1970-07-23 09:45:02.164288726,2025-09-09,2025-09-26 15:03:36.428,HH,C,2862709910,JASSM,3,118,76,2,2,1,225,9,2,0,1,26,0,0,0,0,-113455.72136842164,-4805890.947096166,4182371.316618443,2.36176,2.75465,-0.385413,-75.0,30.625,32.875,0.0,0.0,0.0,0.0,0.0,0.0,2,0,41.21439024212319,-91.35236667755966,10000.000309159012,-60.01386357882917,-0.0022169221861014,-0.0020903382935952,,9260.064158607724,11112.292394974402,150,2,2025-09-09,2025-09-26 15:03:36.408,HH,C,3544845074,HAWK11,1,1,73,2,1,1,225,2,1,0,0,12,1,225,2,1,-139817.64685233062,-4790727.447236861,4199373.571745396,-1.95956,1.03131,-0.827103,32.75,67.625,72.25,-0.265625,-11.1406,12.1719,-0.0410156,0.0957031,0.0664062,4,0,41.415247139288304,-91.67170598285492,11187.691035475102,19.329444650558862,2.511845859876806,46.215857012884186,165.0,9260.064158607724,11112.292394974402,150,False,18.78780939222566,False,77.3873966439603,170.06454498379665,False,112.51073674760927,False,False
2,1970-07-23 09:45:02.173410512,2025-09-09,2025-09-26 15:03:37.341,HH,C,2863845258,JASSM,3,118,76,2,2,1,225,9,2,0,1,26,0,0,0,0,-113527.21355592164,-4805861.812452612,4182402.64352274,2.36185,2.75465,-0.385413,-75.0,30.625,32.875,0.0,0.0,0.0,0.0,0.0,0.0,2,0,41.21476504133161,-91.35322673217055,10000.000354252385,-60.01443025232169,-0.0014692271684714,0.0034135108055794,,9260.064158607724,11112.292394974402,150,2,2025-09-09,2025-09-26 15:03:37.344,HH,C,3545560874,HAWK11,1,1,73,2,1,1,225,2,1,0,0,12,1,225,2,1,-139795.81872733062,-4790687.594697799,4199416.665495396,-1.91402,0.935153,-0.806395,39.5,65.375,71.375,-0.125,-11.0781,12.1562,-0.0234375,0.0917969,0.0664062,4,0,41.415778903632194,-91.67145904308416,11181.640097799362,23.26562357858194,2.924113853498107,44.99407510655377,165.819,9260.064158607724,11112.292394974402,150,False,18.755497791055923,False,81.27726073396036,169.94445889690306,False,108.75003582306257,False,False
2,1970-07-23 09:45:02.183450024,2025-09-09,2025-09-26 15:03:38.345,HH,C,2865038678,JASSM,3,118,76,2,2,1,225,9,2,0,1,26,0,0,0,0,-113602.36004029664,-4805831.18684226,4182435.5719895368,2.36185,2.75455,-0.385413,-75.0,30.625,32.875,0.0,0.0,0.0,0.0,0.0,0.0,2,0,41.21515900377461,-91.35413075923591,10000.00055091484,-60.01140754606456,-0.004261255394377,0.0013475223874695,,9260.064158607724,11112.292394974402,150,2,2025-09-09,2025-09-26 15:03:38.206,HH,C,3546833406,HAWK11,1,1,73,2,1,1,225,2,1,0,0,12,1,225,2,1,-139746.78943045562,-4790619.818330611,4199491.522917271,-1.81211,0.775811,-0.764881,50.875,60.75,69.375,-0.078125,-11.0781,11.9531,-0.00390625,0.0917969,0.0664062,4,0,41.416695917512826,-91.6708967856982,11173.904680772855,30.081562943147865,3.904271359059317,44.77432529877088,166.234,9260.064158607724,11112.292394974402,150,False,18.72504936286046,False,87.9738262338452,169.7407453571239,False,102.27063083144817,False,False
2,1970-07-23 09:45:02.194249040,2025-09-09,2025-09-26 15:03:39.424,HH,C,2866290910,JASSM,3,118,76,2,2,1,225,9,2,0,1,26,0,0,0,0,-113681.20964967164,-4805799.050978002,4182470.1222825055,2.36185,2.75455,-0.385413,-75.0,30.625,32.875,0.0,0.0,0.0,0.0,0.0,0.0,2,0,41.21557237309395,-91.35507934758932,10000.0005418705,-60.01203256251009,-0.0034366060776086,0.0013461475843482,,9260.064158607724,11112.292394974402,150,2,2025-09-09,2025-09-26 15:03:39.408,HH,C,3548265004,HAWK11,1,1,73,2,1,1,225,2,1,0,0,12,1,225,2,1,-139677.83630545562,-4790550.048799361,4199572.356901646,-1.67127,0.617331,-0.70496,63.0,54.625,65.5,-0.046875,-10.5938,11.6562,0.0546875,0.0722656,0.0839844,4,0,41.41766858036191,-91.67009711676944,11172.816884161311,37.59924404152124,4.854643482646674,47.32040647095142,166.234,9260.064158607724,11112.292394974402,150,False,18.686561436929615,False,95.56381336184228,169.50590357610614,False,94.9239348113685,False,False
2,1970-07-23 09:45:02.204248308,2025-09-09,2025-09-26 15:03:40.424,HH,C,2867483996,JASSM,3,118,76,2,2,1,225,9,2,0,1,26,0,0,0,0,-113756.33660279664,-4805768.432081518,4182503.0397629743,2.36185,2.75455,-0.385317,-75.0,30.625,32.875,0.0,0.0,0.0,0.0,0.0,0.0,2,0,41.21596620949763,-91.35598316226402,10000.000489501936,-60.016490404819685,-0.0065569788588897,0.0013451563971273,,9260.064158607724,11112.292394974402,150,2,2025-09-09,2025-09-26 15:03:40.344,HH,C,3548861504,HAWK11,1,1,73,2,1,1,225,2,1,0,0,12,1,225,2,1,-139644.74060233062,-4790522.795869674,4199603.983854771,-1.60694,0.564217,-0.670158,67.75,52.25,63.125,-0.265625,-10.5,11.4219,0.0644531,0.0742188,0.0703125,4,0,41.418049934657375,-91.66971111619958,11172.065579940288,40.69027326954884,4.719215560460781,49.33238438560085,166.014,9260.064158607724,11112.292394974402,150,False,18.641753947466665,False,98.69862075137641,169.39133357631638,False,91.90430499428022,False,False
2,1970-07-23 09:45:02.214388830,2025-09-09,2025-09-26 15:03:41.438,HH,C,2868735086,JASSM,3,118,76,2,2,1,225,9,2,0,1,26,0,0,0,0,-113835.11394654664,-4805736.32356101,4182537.556852818,2.36185,2.75455,-0.385317,-75.0,30.625,32.875,0.0,0.0,0.0,0.0,0.0,0.0,2,0,41.2163791867554,-91.35693090512754,10000.000416835552,-60.0171148741598,-0.0057330841108962,0.0013437257949905,,9260.064158607724,11112.292394974402,150,2,2025-09-09,2025-09-26 15:03:41.502,HH,C,3550889602,HAWK11,1,1,73,2,1,1,225,2,1,0,0,12,1,225,2,1,-139516.61755545562,-4790439.678682174,4199699.974089146,-1.42929,0.405163,-0.519061,82.625,44.125,51.875,-0.265625,-9.90625,10.6562,0.0351562,0.0761719,0.0800781,4,0,41.419214558346,-91.66820896187475,11166.822192935108,52.07781178005048,3.107906973252899,55.164007644140185,166.234,9260.064158607724,11112.292394974402,150,False,18.587334973353826,False,109.59930973868533,169.06434661549267,False,81.32492980573248,False,False
2,1970-07-23 09:45:02.225450592,2025-09-09,2025-09-26 15:03:42.545,HH,C,2869988642,JASSM,3,118,76,2,2,1,225,9,2,0,1,26,0,0,0,0,-113914.04754029664,-4805704.150709447,4182572.1410813336,2.36185,2.75455,-0.385317,-75.0,30.625,32.875,0.0,0.0,0.0,0.0,0.0,0.0,2,0,41.21679297014121,-91.35788053992012,10000.000232908504,-60.017740595270006,-0.0049075577248143,0.0013422969051772,,9260.064158607724,11112.292394974402,150,2,2025-09-09,2025-09-26 15:03:42.408,HH,C,3551883768,HAWK11,1,1,73,2,1,1,225,2,1,0,0,12,1,225,2,1,-139443.85778983062,-4790402.887666549,4199739.142057896,-1.36937,0.346967,-0.438047,89.25,40.375,44.875,-0.171875,-9.45312,10.125,0.0351562,0.0742188,0.0859375,4,0,41.41971042921051,-91.66735225818532,11156.149155965231,57.42703695416127,1.7888394786618846,57.28888343051825,166.784,9260.064158607724,11112.292394974402,150,False,18.528959949815665,False,115.00592196190917,168.8879110710987,False,76.08392563832508,False,False
2,1970-07-23 09:45:02.235471278,2025-09-09,2025-09-26 15:03:43.547,HH,C,2871242046,JASSM,3,118,76,2,2,1,225,9,2,0,1,26,0,0,0,0,-113992.97136842164,-4805671.980787572,4182606.720182896,2.36185,2.75455,-0.385317,-75.0,30.625,32.875,0.0,0.0,0.0,0.0,0.0,0.0,2,0,41.21720669496143,-91.35883006948808,9999.999970515692,-60.01836625222547,-0.0040821330952452,0.0013408679164353,,9260.064158607724,11112.292394974402,150,2,2025-09-09,2025-09-26 15:03:43.298,HH,C,3552917700,HAWK11,1,1,73,2,1,1,225,2,1,0,0,12,1,225,2,1,-139363.81872733062,-4790368.366182174,4199773.433073521,-1.31616,0.283403,-0.35109,95.0,36.25,37.375,-0.171875,-9.76562,10.3906,0.0253906,0.0917969,0.0839844,4,0,41.42016113716795,-91.66640776022231,11139.955173449622,63.32650675019111,0.6337337314391303,59.06070700815858,167.322,9260.064158607724,11112.292394974402,150,False,18.466003327929972,False,120.35330853583558,168.70870999785197,False,70.89977925695771,False,False
2,1970-07-23 09:45:02.246236140,2025-09-09,2025-09-26 15:03:44.623,HH,C,2872494770,JASSM,3,118,76,2,2,1,225,9,2,0,1,26,0,0,0,0,-114071.85418092164,-4805639.82746726,4182641.2797532086,2.36185,2.75455,-0.385317,-75.0,30.625,32.875,0.0,0.0,0.0,0.0,0.0,0.0,2,0,41.21762018704574,-91.35977911758845,10000.000389662808,-60.01899159711044,-0.0032571424005642,0.0013394482713698,,9260.064158607724,11112.292394974402,150,2,2025-09-09,2025-09-26 15:03:44.502,HH,C,3554428832,HAWK11,1,1,73,2,1,1,225,2,1,0,0,12,1,225,2,1,-139238.38708670562,-4790324.981416549,4199810.622526646,-1.37694,0.19424,-0.236617,102.5,29.375,25.375,-0.328125,-10.1875,10.7344,-0.109375,0.0898438,0.0683594,4,0,41.42069199774416,-91.66492385765495,11105.01535648456,71.44521204213808,-0.3635868198278114,54.11426740670094,168.935,9260.064158607724,11112.292394974402,150,False,18.38819863982525,False,128.41194605259506,168.4674034646531,False,63.04597368075744,False,False
2,1970-07-23 09:45:02.257291151,2025-09-09,2025-09-26 15:03:45.729,HH,C,2873745820,JASSM,3,118,76,2,2,1,225,9,2,0,1,26,0,0,0,0,-114150.62957154664,-4805607.716017065,4182675.792204381,2.36185,2.75455,-0.385317,-75.0,30.625,32.875,0.0,0.0,0.0,0.0,0.0,0.0,2,0,41.218033119183545,-91.36072688575535,10000.000293432253,-60.0196161037857,-0.0024332693906712,0.0013380212883016,,9260.064158607724,11112.292394974402,150,2,2025-09-09,2025-09-26 15:03:45.705,HH,C,3555900196,HAWK11,1,1,73,2,1,1,225,2,1,0,0,12,1,225,2,1,-139107.47107108062,-4790292.494111861,4199833.954557896,-1.50474,0.106995,-0.139401,107.75,21.0,15.0,-0.25,-10.3438,10.8594,-0.119141,0.0683594,0.0566406,4,0,41.4210654223601,-91.66337060163715,11066.413690055148,78.86934109164676,-0.5027158674290177,45.79978371401514,170.719,9260.064158607724,11112.292394974402,150,False,18.302168133185624,False,135.8036800627633,168.23967498676384,False,55.86400178074797,False,False
2,1970-07-23 09:45:02.267387919,2025-09-09,2025-09-26 15:03:46.738,HH,C,2874998298,JASSM,3,118,76,2,2,1,225,9,2,0,1,26,0,0,0,0,-114229.49480592164,-4805575.566847143,4182710.343229771,2.36185,2.75455,-0.385317,-75.0,30.625,32.875,0.0,0.0,0.0,0.0,0.0,0.0,2,0,41.21844651559896,-91.36167574710925,10000.000128033878,-60.02024133595485,-0.0016084560218456,0.0013365918155089,,9260.064158607724,11112.292394974402,150,2,2025-09-09,2025-09-26 15:03:46.598,HH,C,3556854596,HAWK11,1,1,73,2,1,1,225,2,1,0,0,12,1,225,2,1,-139019.87146170562,-4790277.332002486,4199843.036589146,-1.61614,0.0593459,-0.0951068,110.125,15.5,9.625,-0.109375,-9.9375,10.4062,-0.140625,0.0625,0.0429688,4,0,41.421232077956205,-91.6623289802082,11042.5870769192,82.5692367081658,-0.1744829840069978,39.07537639679173,171.953,9260.064158607724,11112.292394974402,150,False,18.225270764216315,False,139.92919794999398,168.08681300017147,False,51.894624823022745,False,False
2,1970-07-23 09:45:02.277448015,2025-09-09,2025-09-26 15:03:47.744,HH,C,2876192938,JASSM,3,118,76,2,2,1,225,9,2,0,1,26,0,0,0,0,-114304.71941529664,-4805544.901441869,4182743.298063756,2.36185,2.75445,-0.385317,-75.0,30.625,32.875,0.0,0.0,0.0,0.0,0.0,0.0,2,0,41.21884081487124,-91.36258081777338,10000.000563228588,-60.01721909064435,-0.0043996772661154,-0.0007289158286881,,9260.064158607724,11112.292394974402,150,2,2025-09-09,2025-09-26 15:03:47.502,HH,C,3557769228,HAWK11,1,1,73,2,1,1,225,2,1,0,0,12,1,225,2,1,-138935.54138358062,-4790266.832979049,4199847.796354771,-1.72803,0.0101626,-0.068358,111.5,10.25,5.625,-0.0625,-10.0938,10.4688,-0.173828,0.0566406,0.0410156,4,0,41.4213412411822,-91.66132480839586,11021.0831574959,85.57990478481098,0.911187768716914,32.45411007819259,172.955,9260.064158607724,11112.292394974402,150,False,18.14969004682288,False,143.34825543305806,167.94575853426846,False,48.63397490079407,False,False
2,1970-07-23 09:45:02.288245654,2025-09-09,2025-09-26 15:03:48.824,HH,C,2877444044,JASSM,3,118,76,2,2,1,225,9,2,0,1,26,0,0,0,0,-114383.49871217164,-4805512.785597143,4182777.809538365,2.36185,2.75445,-0.385317,-75.0,30.625,32.875,0.0,0.0,0.0,0.0,0.0,0.0,2,0,41.21925374275375,-91.36352866897435,10000.00054577851,-60.0178436671972,-0.0035757637635008,-0.0007302890754239,,9260.064158607724,11112.292394974402,150,2,2025-09-09,2025-09-26 15:03:48.704,HH,C,3559359892,HAWK11,1,1,73,2,1,1,225,2,1,0,0,12,1,225,2,1,-138786.00232108062,-4790258.344697799,4199851.673307896,-2.06503,-0.0581954,-0.0586748,112.625,1.625,2.375,0.046875,-9.79688,10.2656,-0.353516,0.0371094,-0.0117188,4,0,41.42144371820095,-91.65954063123372,10997.964345032418,88.58376694454225,3.478552603846217,13.012021574423803,173.737,9260.064158607724,11112.292394974402,150,False,18.045691578615244,False,147.62797613193712,167.7282286982432,False,44.62715951120177,False,False
2,1970-07-23 09:45:02.298249200,2025-09-09,2025-09-26 15:03:49.824,HH,C,2878696718,JASSM,3,118,76,2,2,1,225,9,2,0,1,26,0,0,0,0,-114462.37566529664,-4805480.628492651,4182812.3632493024,2.36185,2.75445,-0.385221,-75.0,30.625,32.875,0.0,0.0,0.0,0.0,0.0,0.0,2,0,41.21966717956268,-91.36447770750505,10000.000116762065,-60.022331211765234,-0.0066570501056602,-0.0007313509975768,,9260.064158607724,11112.292394974402,150,2,2025-09-09,2025-09-26 15:03:49.908,HH,C,3560871024,HAWK11,1,1,73,2,1,1,225,2,1,0,0,12,1,225,2,1,-138642.75427420562,-4790257.134736861,4199853.466276646,-2.28285,-0.0655777,-0.0836978,112.625,-2.125,3.5,0.03125,-8.04688,8.25,-0.0585938,0.0,0.0,4,0,41.42148770524268,-91.6578291103613,10988.679800103664,87.78390531450559,4.742874423605357,0.4440518780893573,172.87,9260.064158607724,11112.292394974402,150,True,17.94194952830069,False,148.4527894204703,167.5232086028446,False,44.02400067677415,False,False
2,1970-07-23 09:45:02.309287434,2025-09-09,2025-09-26 15:03:50.928,HH,C,2879949440,JASSM,3,118,76,2,2,1,225,9,2,0,1,26,0,0,0,0,-114541.25652467164,-4805448.469068822,4182846.9176926618,2.36185,2.75445,-0.385221,-75.0,30.625,32.875,0.0,0.0,0.0,0.0,0.0,0.0,2,0,41.220080626677714,-91.36542680519526,10000.000120978682,-60.0229566199183,-0.0058320729319863,-0.0007327835609864,,9260.064158607724,11112.292394974402,150,2,2025-09-09,2025-09-26 15:03:50.798,HH,C,3561865190,HAWK11,1,1,73,2,1,1,225,2,1,0,0,12,1,225,2,1,-138548.67614920562,-4790256.822236861,4199854.810026646,-2.30519,-0.0681663,-0.069892,112.75,-2.625,4.0,-0.078125,-7.84375,7.95312,-0.00976562,0.0566406,0.00976562,4,0,41.42151483217215,-91.6567049006484,10984.13435647284,88.47894725811021,4.33317840747437,-0.7923022093957428,172.784,9260.064158607724,11112.292394974402,150,True,17.857257820296205,False,148.41862676522607,167.3755231111466,False,44.20508888191245,False,False
2,1970-07-23 09:45:02.318449428,2025-09-09,2025-09-26 15:03:51.844,HH,C,2881084712,JASSM,3,118,76,2,2,1,225,9,2,0,1,26,0,0,0,0,-114612.74285279664,-4805419.324049291,4182878.2316575055,2.36185,2.75445,-0.385221,-75.0,30.625,32.875,0.0,0.0,0.0,0.0,0.0,0.0,2,0,41.22045530271132,-91.36628694200223,10000.000410944507,-60.02352341174386,-0.005084434869123,-0.0007340761278185,,9260.064158607724,11112.292394974402,150,2,2025-09-09,2025-09-26 15:03:51.908,HH,C,3563296788,HAWK11,1,1,73,2,1,1,225,2,1,0,0,12,1,225,2,1,-138412.45935233062,-4790261.885713424,4199860.612761021,-2.32235,-0.0937646,-0.107475,112.375,-5.625,6.75,0.046875,-8.10938,8.5625,-0.0175781,-0.0273438,-0.0117188,4,0,41.421547291196696,-91.65507523723376,10999.497730762409,87.81865019624821,6.85186005154598,-1.9699952350699583,173.395,9260.064158607724,11112.292394974402,150,True,17.760690949445145,False,148.23355267186793,167.1789046160121,False,44.556247677429205,False,False
2,1970-07-23 09:45:02.328487687,2025-09-09,2025-09-26 15:03:52.848,HH,C,2882277674,JASSM,3,118,76,2,2,1,225,9,2,0,1,26,0,0,0,0,-114687.86004029664,-4805388.697096166,4182911.135954381,2.36185,2.75445,-0.385221,-75.0,30.625,32.875,0.0,0.0,0.0,0.0,0.0,0.0,2,0,41.22084901070697,-91.36719077702692,10000.000246618623,-60.02411900332379,-0.004298818926345,-0.0007354417243426,,9260.064158607724,11112.292394974402,150,2,2025-09-09,2025-09-26 15:03:52.825,HH,C,3563893288,HAWK11,1,1,73,2,1,1,225,2,1,0,0,12,1,225,2,1,-138357.02966483062,-4790263.803682174,4199862.911589146,-2.33271,-0.0856153,-0.097983,112.125,-5.625,7.0,0.203125,-6.57812,6.9375,-0.00390625,-0.0214844,0.0234375,4,0,41.42156091947332,-91.65441213982568,11005.266279789064,87.92398368305587,6.144826115841946,-2.5035024861745785,171.599,9260.064158607724,11112.292394974402,150,True,17.693275482622198,False,148.12770905032224,167.07727728373197,False,44.76142020762396,False,False
2,1970-07-23 09:45:02.338306634,2025-09-09,2025-09-26 15:03:53.830,HH,C,2883409276,JASSM,3,118,76,2,2,1,225,9,2,0,1,26,0,0,0,0,-114759.11394654664,-4805359.644605932,4182942.347136021,2.36185,2.75445,-0.385221,-75.0,30.625,32.875,0.0,0.0,0.0,0.0,0.0,0.0,2,0,41.2212224620239,-91.36804813797762,10000.000217401735,-60.02468397465943,-0.0035536080154758,-0.0007367355371935,,9260.064158607724,11112.292394974402,150,2,2025-09-09,2025-09-26 15:03:53.706,HH,C,3565285120,HAWK11,1,1,73,2,1,1,225,2,1,0,0,12,1,225,2,1,-138225.76208670562,-4790267.911104049,4199868.870573521,-2.32599,-0.0785206,-0.0915595,112.25,-4.875,6.75,0.046875,-6.32812,6.8125,0.0,-0.0078125,-0.03125,4,0,41.42159924027178,-91.65284195484868,11018.982343079682,87.93572693258851,5.599104583939278,-2.079418869936214,171.733,9260.064158607724,11112.292394974402,150,True,17.59937425661227,False,148.0077659305463,166.88243348326026,False,45.08561677237411,False,False
2,1970-07-23 09:45:02.346510391,2025-09-09,2025-09-26 15:03:54.651,HH,C,2884483266,JASSM,3,118,76,2,2,1,225,9,2,0,1,26,0,0,0,0,-114826.74089967164,-4805332.070631322,4182971.968718053,2.36185,2.75445,-0.385221,-75.0,30.625,32.875,0.0,0.0,0.0,0.0,0.0,0.0,2,0,41.22157689384487,-91.36886186681022,10000.000772718118,-60.02522019783569,-0.0028463317880574,-0.0007379597784166,,9260.064158607724,11112.292394974402,150,2,2025-09-09,2025-09-26 15:03:54.598,HH,C,3566398586,HAWK11,1,1,73,2,1,1,225,2,1,0,0,12,1,225,2,1,-138119.75622733062,-4790270.323213424,4199873.235807896,-2.3468,-0.0477452,-0.0767949,112.5,-3.625,5.875,0.078125,-5.1875,5.4375,-0.00390625,-0.0253906,0.0117188,4,0,41.42163253966053,-91.65157425523364,11026.869899824082,87.41252785667864,3.721211193518834,-3.1657535905148184,171.55,9260.064158607724,11112.292394974402,150,True,17.517632094992734,False,147.9844336644291,166.71853637468857,False,45.28724914753669,False,False
2,1970-07-23 09:45:02.357107059,2025-09-09,2025-09-26 15:03:55.710,HH,C,2885676178,JASSM,3,118,76,2,2,1,225,9,2,0,1,26,0,0,0,0,-114901.85613404664,-4805301.442213354,4183004.869352818,2.36185,2.75445,-0.385221,-75.0,30.625,32.875,0.0,0.0,0.0,0.0,0.0,0.0,2,0,41.221970565724526,-91.36976570986056,10000.00018079966,-60.02581580806583,-0.0020607388004402,-0.0007393201642474,,9260.064158607724,11112.292394974402,150,2,2025-09-09,2025-09-26 15:03:55.800,HH,C,3567909716,HAWK11,1,1,73,2,1,1,225,2,1,0,0,12,1,225,2,1,-137977.43200858062,-4790272.565400924,4199879.007292271,-2.32839,-0.0492791,-0.0684539,112.875,-2.125,5.25,0.140625,-6.17188,6.5625,0.0292969,0.0,-0.00585938,4,0,41.42168255248978,-91.64987257516928,11034.82489851182,87.83133894059438,3.4728816434729346,-2.091238161219517,172.784,9260.064158607724,11112.292394974402,150,True,17.417927761473944,False,147.76737290710727,166.50296735731015,False,45.72801013964966,False,False
2,1970-07-23 09:45:02.366226409,2025-09-09,2025-09-26 15:03:56.622,HH,C,2886751020,JASSM,3,118,76,2,2,1,225,9,2,0,1,26,0,0,0,0,-114969.53582154664,-4805273.844801244,4183034.513151646,2.36185,2.75436,-0.385221,-75.0,30.625,32.875,0.0,0.0,0.0,0.0,0.0,0.0,2,0,41.22232526723976,-91.37058009234092,10000.000798476154,-60.02273357234844,-0.0049308719486479,-0.0028042452847647,,9260.064158607724,11112.292394974402,150,2,2025-09-09,2025-09-26 15:03:56.798,HH,C,3569142482,HAWK11,1,1,73,2,1,1,225,2,1,0,0,12,1,225,2,1,-137859.72497733062,-4790273.677705611,4199883.976042271,-2.32389,-0.0371032,-0.0749733,113.25,-1.375,5.0,0.046875,-6.39062,6.6875,0.0,-0.0078125,-0.0078125,4,0,41.42172963156224,-91.64846548136856,11040.01140582615,87.09104679914645,3.1979529032718235,-1.8262085974042817,173.517,9260.064158607724,11112.292394974402,150,True,17.33250954357463,False,147.6307290563952,166.3193028721283,False,46.049802452617726,False,False
2,1970-07-23 09:45:02.375305937,2025-09-09,2025-09-26 15:03:57.530,HH,C,2887884156,JASSM,3,118,76,2,2,1,225,9,2,0,1,26,0,0,0,0,-115040.88543092164,-4805244.749586401,4183065.763639928,2.36185,2.75436,-0.385221,-75.0,30.625,32.875,0.0,0.0,0.0,0.0,0.0,0.0,2,0,41.22269919904302,-91.37143864451136,10000.000010121348,-60.02329934528744,-0.0041846574184125,-0.002805496888043,,9260.064158607724,11112.292394974402,150,2,2025-09-09,2025-09-26 15:03:57.502,HH,C,3569858282,HAWK11,1,1,73,2,1,1,225,2,1,0,0,12,1,225,2,1,-137791.86364920562,-4790273.720674361,4199887.210417271,-2.32273,-0.0322136,-0.0641396,113.375,-0.875,4.875,0.265625,-5.9375,6.23438,0.0234375,-0.03125,0.0136719,4,0,41.42176282201255,-91.6476544583164,11042.336069246385,87.37338886639868,2.5787266448351187,-1.7266085588511484,173.737,9260.064158607724,11112.292394974402,150,True,17.26386890841353,False,147.51999811489844,166.195649933105,False,46.28433269482286,False,False
2,1970-07-23 09:45:02.385444128,2025-09-09,2025-09-26 15:03:58.544,HH,C,2889016594,JASSM,3,118,76,2,2,1,225,9,2,0,1,26,0,0,0,0,-115112.19207154664,-4805215.671705541,4183096.994596959,2.36185,2.75436,-0.385221,-75.0,30.625,32.875,0.0,0.0,0.0,0.0,0.0,0.0,2,0,41.22307289553371,-91.37229668946316,10000.000770325643,-60.023864788204186,-0.003438894142279,-0.0028067444836737,,9260.064158607724,11112.292394974402,150,2,2025-09-09,2025-09-26 15:03:58.798,HH,C,3571528480,HAWK11,1,1,73,2,1,1,225,2,1,0,0,12,1,225,2,1,-137632.90857108062,-4790273.349580611,4199893.108854771,-2.25179,-0.0354733,-0.0527306,114.0,0.0,3.75,0.0625,-6.5,6.92188,0.0390625,0.0,-0.0078125,4,0,41.421832030110224,-91.64575491677608,11042.989033839454,87.9890222721004,2.2881044537889323,2.3535270581063568,175.289,9260.064158607724,11112.292394974402,150,True,17.16147590799026,False,147.6743385107873,165.95251324961623,False,46.36997740355564,False,False
2,1970-07-23 09:45:02.393481261,2025-09-09,2025-09-26 15:03:59.348,HH,C,2890090336,JASSM,3,118,76,2,2,1,225,9,2,0,1,26,0,0,0,0,-115179.80339967164,-4805188.099928197,4183126.605925084,2.36185,2.75436,-0.385221,-75.0,30.625,32.875,0.0,0.0,0.0,0.0,0.0,0.0,2,0,41.22342721699784,-91.37311027734005,10000.000317097256,-60.02440093826255,-0.0027317798747639,-0.0028079246407283,,9260.064158607724,11112.292394974402,150,2,2025-09-09,2025-09-26 15:03:59.204,HH,C,3572005680,HAWK11,1,1,73,2,1,1,225,2,1,0,0,12,1,225,2,1,-137588.04724295562,-4790273.400361861,4199894.526823521,-2.24786,-0.0317342,-0.0588665,114.125,0.0,3.375,0.234375,-6.79688,7.10938,0.0,0.0,-0.00195312,4,0,41.42184896632156,-91.64521876181192,11043.02255650327,87.58383929495743,2.360332798838702,2.5742485838846703,175.546,9260.064158607724,11112.292394974402,150,True,17.103581253646325,False,147.81779060279393,165.85930881144984,False,46.31861124084011,False,False
2,1970-07-23 09:45:02.404445837,2025-09-09,2025-09-26 15:04:00.444,HH,C,2891344968,JASSM,3,118,76,2,2,1,225,9,2,0,1,26,0,0,0,0,-115258.80535279664,-4805155.882643041,4183161.2050461774,2.36185,2.75436,-0.385125,-75.0,30.625,32.875,0.0,0.0,0.0,0.0,0.0,0.0,2,0,41.22384122097521,-91.37406094335624,10000.000838833468,-60.02888946570917,-0.0058119021517461,-0.002809040437886,,9260.064158607724,11112.292394974402,150,2,2025-09-09,2025-09-26 15:04:00.710,HH,C,3573755410,HAWK11,1,1,73,2,1,1,225,2,1,0,0,12,1,225,2,1,-137420.09607108062,-4790273.930635299,4199899.593229771,-2.26003,-0.0394041,-0.0474575,114.625,-2.0,4.875,-0.109375,-6.95312,7.1875,0.0117188,0.00195312,0.0117188,4,0,41.42190869108407,-91.64321139376624,11043.468104476076,88.366395984308,2.259118228536052,1.8847529568429195,177.0,9260.064158607724,11112.292394974402,150,True,16.993063638407673,False,147.89480521145634,165.59773169235694,False,46.506692751645964,False,False
2,1970-07-23 09:45:02.417072643,2025-09-09,2025-09-26 15:04:01.707,HH,C,2892655932,JASSM,3,118,76,2,2,1,225,9,2,0,1,26,0,0,0,0,-115341.35222779664,-4805122.217603979,4183197.3566575055,2.36195,2.75436,-0.385125,-75.0,30.625,32.875,0.0,0.0,0.0,0.0,0.0,0.0,2,0,41.22427380590006,-91.3750542804283,10000.000764187103,-60.029544079990885,-0.004948579533099,0.0026809253008421,,9260.064158607724,11112.292394974402,150,2,2025-09-09,2025-09-26 15:04:01.804,HH,C,3575147242,HAWK11,1,1,73,2,1,1,225,2,1,0,0,12,1,225,2,1,-137285.07263358062,-4790274.980439986,4199903.218229771,-2.24239,-0.0413216,-0.0554151,115.125,-1.0,2.5,0.0625,-6.82812,7.09375,-0.0117188,0.00390625,0.0,4,0,41.42194994650078,-91.64159736491338,11044.397410427891,88.0975512621453,2.643986938554021,2.878307891150845,177.892,9260.064158607724,11112.292394974402,150,True,16.892607641933218,False,148.48383081469615,165.37564735591846,False,46.13704403929045,False,False
2,1970-07-23 09:45:02.426265224,2025-09-09,2025-09-26 15:04:02.626,HH,C,2893909818,JASSM,3,118,76,2,2,1,225,9,2,0,1,26,0,0,0,0,-115420.30730592164,-4805090.017164526,4183231.9333176618,2.36195,2.75436,-0.385125,-75.0,30.625,32.875,0.0,0.0,0.0,0.0,0.0,0.0,2,0,41.22468754851683,-91.376004407529,10000.000409132585,-60.03017022397732,-0.0041228277666832,0.0026794945448183,,9260.064158607724,11112.292394974402,150,2,2025-09-09,2025-09-26 15:04:02.707,HH,C,3576181174,HAWK11,1,1,73,2,1,1,225,2,1,0,0,12,1,225,2,1,-137186.46130545562,-4790276.691377486,4199905.513151646,-2.25035,-0.052443,-0.0583871,115.375,-1.875,2.5,0.078125,-7.46875,7.73438,0.0,0.0273438,0.0078125,4,0,41.42197206377885,-91.6404182708988,11046.638878222382,88.39114948516743,3.234956788544112,2.4011517307462467,178.149,9260.064158607724,11112.292394974402,150,True,16.807712088693865,False,148.76856128457436,165.20264894288488,False,46.02764589242528,False,False
2,1970-07-23 09:45:02.437306378,2025-09-09,2025-09-26 15:04:03.730,HH,C,2895280536,JASSM,3,118,76,2,2,1,225,9,2,0,1,26,0,0,0,0,-115506.61785279664,-4805054.815504369,4183269.730680943,2.36195,2.75436,-0.385125,-75.0,30.625,32.875,0.0,0.0,0.0,0.0,0.0,0.0,2,0,41.22513983175264,-91.37704306274536,10000.000485810868,-60.03085471487218,-0.0032201459837801,0.0026779261105067,,9260.064158607724,11112.292394974402,150,2,2025-09-09,2025-09-26 15:04:03.596,HH,C,3577254874,HAWK11,1,1,73,2,1,1,225,2,1,0,0,12,1,225,2,1,-137082.48083670562,-4790279.364229049,4199908.675261021,-2.24316,-0.0686456,-0.0585789,115.5,-3.25,3.125,-0.0625,-7.60938,7.9375,0.00195312,-0.00390625,0.00976562,4,0,41.42199521052557,-91.63917468044971,11052.755306454776,88.99691153131829,3.939086646259056,2.7967230756698465,178.1,9260.064158607724,11112.292394974402,150,True,16.716490162330757,False,148.96792745250463,165.0165518288839,False,46.01504114719516,False,False
2,1970-07-23 09:45:02.448447200,2025-09-09,2025-09-26 15:04:04.844,HH,C,2896594384,JASSM,3,118,76,2,2,1,225,9,2,0,1,26,0,0,0,0,-115589.34636842164,-4805021.073072729,4183305.9589524274,2.36195,2.75436,-0.385125,-75.0,30.625,32.875,0.0,0.0,0.0,0.0,0.0,0.0,2,0,41.225573342761614,-91.37803862596424,10000.000300404949,-60.031510813242,-0.0023549231959628,0.0026764168340838,,9260.064158607724,11112.292394974402,150,2,2025-09-09,2025-09-26 15:04:04.798,HH,C,3578686472,HAWK11,1,1,73,2,1,1,225,2,1,0,0,12,1,225,2,1,-136943.93591483062,-4790284.293916549,4199913.009245396,-2.24862,-0.068358,-0.0538811,115.625,-4.0,2.875,-0.015625,-7.07812,7.34375,0.00195312,0.00390625,-0.00195312,4,0,41.42201870183919,-91.6375172366992,11064.540622784152,89.18970432050686,3.7502284093716343,2.4973970809403467,179.114,9260.064158607724,11112.292394974402,150,True,16.614466899048924,False,149.29828802950578,164.78478475282355,False,45.91549965029134,False,False
2,1970-07-23 09:45:02.459893906,2025-09-09,2025-09-26 15:04:05.989,HH,C,2897964784,JASSM,3,118,76,2,2,1,225,9,2,0,1,26,0,0,0,0,-115675.63738404664,-4804985.877271947,4183343.745573521,2.36195,2.75426,-0.385125,-75.0,30.625,32.875,0.0,0.0,0.0,0.0,0.0,0.0,2,0,41.22602550290958,-91.3790770747716,10000.000627394516,-60.028576012272325,-0.0050304184636318,0.0006116372787418,,9260.064158607724,11112.292394974402,150,2,2025-09-09,2025-09-26 15:04:06.002,HH,C,3580118070,HAWK11,1,1,73,2,1,1,225,2,1,0,0,12,1,225,2,1,-136804.93005545562,-4790290.178682174,4199916.960417271,-2.25073,-0.0743981,-0.0539769,115.75,-5.0,2.875,0.0625,-7.1875,7.39062,0.00195312,-0.00585938,0.00976562,4,0,41.42203398023671,-91.63585395894587,11077.82118893368,89.41541612183352,4.014586694780055,2.373097873959484,179.493,9260.064158607724,11112.292394974402,150,True,16.51002676676392,False,149.60638813828288,164.5486023037622,False,45.84041010614379,False,False
2,1970-07-23 09:45:02.471467783,2025-09-09,2025-09-26 15:04:07.146,HH,C,2899336640,JASSM,3,118,76,2,2,1,225,9,2,0,1,26,0,0,0,0,-115762.01824342164,-4804950.642652807,4183381.571257115,2.36195,2.75426,-0.385125,-75.0,30.625,32.875,0.0,0.0,0.0,0.0,0.0,0.0,2,0,41.226478135412265,-91.38011661973552,10000.000192847576,-60.02926110776486,-0.0041269963003315,0.0006101177106544,,9260.064158607724,11112.292394974402,150,2,2025-09-09,2025-09-26 15:04:07.204,HH,C,3581549670,HAWK11,1,1,73,2,1,1,225,2,1,0,0,12,1,225,2,1,-136665.97497733062,-4790296.964814986,4199920.962370396,-2.25265,-0.0715219,-0.0416092,115.875,-5.375,2.375,-0.0625,-6.1875,6.42188,0.00390625,-0.015625,-0.00195312,4,0,41.42204420418464,-91.63419098208055,11093.442085806288,89.84062657783407,3.424121210353368,2.298628717391864,178.992,9260.064158607724,11112.292394974402,150,True,16.405609769114754,False,149.91448947069256,164.31009105658453,False,45.77101656667421,False,False
2,1970-07-23 09:45:02.487869932,2025-09-09,2025-09-26 15:04:08.786,HH,C,2900591048,JASSM,3,118,76,2,2,1,225,9,2,0,1,26,0,0,0,0,-115841.00652467164,-4804918.423658666,4183416.157682896,2.36195,2.75426,-0.385125,-75.0,30.625,32.875,0.0,0.0,0.0,0.0,0.0,0.0,2,0,41.226892007477154,-91.38106721167836,10000.000336991749,-60.02988758561873,-0.0033008978674365,0.0006087415065323,,9260.064158607724,11112.292394974402,150,2,2025-09-09,2025-09-26 15:04:08.468,HH,C,3582822202,HAWK11,1,1,73,2,1,1,225,2,1,0,0,12,1,225,2,1,-136541.21716483062,-4790302.901338424,4199923.569792271,-2.27365,-0.0681663,-0.0344187,116.0,-5.375,1.75,-0.125,-6.45312,6.5625,-0.0429688,-0.015625,0.0078125,4,0,41.42204764178197,-91.63269796915512,11104.951719223222,90.02406803735151,3.00875552122818,1.1131600219839315,179.75,9260.064158607724,11112.292394974402,150,True,16.310996289467283,False,150.15532627137358,164.09336709730624,False,45.74879102946901,False,False
2,1970-07-23 09:45:02.514550073,2025-09-09,2025-09-26 15:04:11.455,HH,C,2904468644,JASSM,3,118,76,2,2,1,225,9,2,0,1,26,0,0,0,0,-116085.16668092164,-4804818.822584447,4183523.0649094586,2.36195,2.75426,-0.385029,-75.0,30.625,32.875,0.0,0.0,0.0,0.0,0.0,0.0,2,0,41.22817131124873,-91.3840056586091,10000.000012972148,-60.0356860688081,-0.0046538348729167,0.0006046392634242,,9260.064158607724,11112.292394974402,150,2,2025-09-09,2025-09-26 15:04:11.144,HH,C,3585725164,HAWK11,1,1,73,2,1,1,225,2,1,0,0,12,1,225,2,1,-136258.97888358062,-4790313.626924361,4199926.511198521,-2.3467,-0.041034,-0.0230097,116.5,-4.75,1.625,-0.171875,-6.53125,6.59375,-0.0332031,-0.015625,-0.0234375,4,0,41.42205148673015,-91.62932126665784,11117.949242081488,89.48871768692092,1.4133472074336555,-3.0487397394367446,180.874,9260.064158607724,11112.292394974402,150,True,16.058228882249935,False,150.00649633113864,163.55307005961723,False,46.439714892706476,False,False
2,1970-07-23 09:45:02.515585329,2025-09-09,2025-09-26 15:04:11.558,HH,C,2903155008,JASSM,3,118,76,2,2,1,225,9,2,0,1,26,0,0,0,0,-116002.45183717164,-4804852.566236791,4183486.848356724,2.36195,2.75426,-0.385029,-75.0,30.625,32.875,0.0,0.0,0.0,0.0,0.0,0.0,2,0,41.227737922153615,-91.38301017916264,10000.00073512605,-60.035029991757526,-0.0055189162992837,0.000606152300667,,9260.064158607724,11112.292394974402,150,2,2025-09-09,2025-09-26 15:04:11.892,HH,C,3587116996,HAWK11,1,1,73,2,1,1,225,2,1,0,0,12,1,225,2,1,-136121.75622733062,-4790317.046846236,4199926.858854771,-2.39847,-0.0373908,-0.0159151,117.125,-2.125,0.25,-0.078125,-6.42188,6.34375,-0.015625,-0.00976562,-0.00195312,4,0,41.42205669758316,-91.62768014388848,11117.520105549898,89.65665525741703,0.9891767610918664,-6.007493545068007,181.204,9260.064158607724,11112.292394974402,150,True,16.057306239306936,False,149.684305952603,163.41402502290512,False,46.89352037370951,False,False
2,1970-07-23 09:45:02.525546440,2025-09-09,2025-09-26 15:04:12.554,HH,C,2905780250,JASSM,3,118,76,2,2,1,225,9,2,0,1,26,0,0,0,0,-116167.75457154664,-4804785.130201635,4183559.224821568,2.36195,2.75426,-0.385029,-75.0,30.625,32.875,0.0,0.0,0.0,0.0,0.0,0.0,2,0,41.22860402250056,-91.38499962343153,10000.000490323871,-60.03634115330928,-0.0037900831868915,0.0006031321482049,,9260.064158607724,11112.292394974402,150,2,2025-09-09,2025-09-26 15:04:12.704,HH,C,3588111162,HAWK11,1,1,73,2,1,1,225,2,1,0,0,12,1,225,2,1,-136023.85193045562,-4790318.740205611,4199927.495573521,-2.4119,-0.0306796,-0.0233932,117.5,-1.25,0.5,-0.09375,-6.95312,6.9375,-0.00585938,0.00976562,-0.0136719,4,0,41.42206746757078,-91.6265095046308,11116.227358999948,89.08170649853643,0.9851637589662962,-6.778892671909591,181.827,9260.064158607724,11112.292394974402,150,True,15.922038880451376,False,149.30744567918453,163.16791214940054,False,47.512483903125656,False,False
