Subject_cm,Timestamp,SampleDate_cm,SampleTime_cm,Configuration_cm,Scenario_cm,DisTime_cm,MarkingTxt_cm,Application_cm,EntId_cm,Site_cm,ExerciseId_cm,ForceId_cm,Category_cm,Country_cm,Domain_cm,Kind_cm,Extra_cm,Specific_cm,Subcategory_cm,AltCategory_cm,AltCountry_cm,AltDomain_cm,AltKind_cm,ECEF_X_cm,ECEF_Y_cm,ECEF_Z_cm,OriPhi_cm,OriPsi_cm,OriTheta_cm,LinVelX_cm,LinVelY_cm,LinVelZ_cm,LinAccX_cm,LinAccY_cm,LinAccZ_cm,AngVelX_cm,AngVelY_cm,AngVelZ_cm,DrAlg_cm,Appearance_cm,Latitude_cm,Longitude_cm,Altitude_cm,Heading_cm,Pitch_cm,Roll_cm,CalibratedAirspeed_cm,CM_Altitude_Lead_cm,CM_Altitude_Wing_cm,CM_Airspeed_cm,Subject_ac,SampleDate_ac,SampleTime_ac,Configuration_ac,Scenario_ac,DisTime_ac,MarkingTxt_ac,Application_ac,EntId_ac,Site_ac,ExerciseId_ac,ForceId_ac,Category_ac,Country_ac,Domain_ac,Kind_ac,Extra_ac,Specific_ac,Subcategory_ac,AltCategory_ac,AltCountry_ac,AltDomain_ac,AltKind_ac,ECEF_X_ac,ECEF_Y_ac,ECEF_Z_ac,OriPhi_ac,OriPsi_ac,OriTheta_ac,LinVelX_ac,LinVelY_ac,LinVelZ_ac,LinAccX_ac,LinAccY_ac,LinAccZ_ac,AngVelX_ac,AngVelY_ac,AngVelZ_ac,DrAlg_ac,Appearance_ac,Latitude_ac,Longitude_ac,Altitude_ac,Heading_ac,Pitch_ac,Roll_ac,CalibratedAirspeed_ac,CM_Altitude_Lead_ac,CM_Altitude_Wing_ac,CM_Airspeed_ac,Bank_Angle_Condition,distance_nm,Distance_Condition,angle_between_vel,angle_between_pos,Cone_Condition,angle_between_pos_nose,Nose_Cone_Condition,Intercept_Criteria
2,1970-07-23 10:13:38.504515868,2025-09-11,2025-09-26 14:44:10.451,HH,C,1249654312,JASSM,3,102,76,2,2,1,225,9,2,0,1,26,0,0,0,0,-163213.14196951812,-4785342.297822799,4204084.175261021,-2.36559,-0.397301,0.382249,73.75,-30.75,-32.0,0.0,0.0,0.0,0.0,0.0,0.0,2,0,41.47467793542493,-91.95342360795544,9999.99920170094,119.853776866687,-0.0035372844716036,0.0050450093586022,,9163.148997757502,11279.40419535643,150,2,2025-09-11,2025-09-26 14:44:10.610,HH,C,2832175464,AMBUSH51,1,1,48,2,1,1,225,2,1,0,0,9,1,225,2,1,-133795.41655591512,-4796370.628821878,4192228.588491853,2.28429,2.87258,-0.240682,-112.278,22.852,19.4852,-0.179608,-7.43691,6.4408,-0.0035006,-0.00329254,0.00418512,4,0,41.334461018294895,-91.5978592620781,9157.819808153552,-70.59786422306648,-0.9574078065239122,-2.296831649608136,198.056,9163.148997757502,11279.40419535643,150,True,18.06318588219822,False,163.8014928245171,177.7431294555646,False,14.051661600266957,True,False
2,1970-07-23 10:13:38.513196816,2025-09-11,2025-09-26 14:44:11.319,HH,C,1250787706,JASSM,3,102,76,2,2,1,225,9,2,0,1,26,0,0,0,0,-163143.09558279935,-4785371.698213424,4204053.636198521,-2.36559,-0.397301,0.382249,73.75,-30.75,-32.0,0.0,0.0,0.0,0.0,0.0,0.0,2,0,41.474311107089946,-91.95257391678712,10000.003384332476,119.8543396058147,-0.0028025319101818,0.005043770979376,,9163.148997757502,11279.40419535643,150,2,2025-09-11,2025-09-26 14:44:11.477,HH,C,2833209398,AMBUSH51,1,1,48,2,1,1,225,2,1,0,0,9,1,225,2,1,-133892.67377042762,-4796350.87093597,4192245.3133113673,2.28298,2.87347,-0.238326,-112.402,22.6949,19.3249,-0.0953929,-7.37026,6.35119,-0.00197552,0.00741836,-0.0126323,4,0,41.33467531611665,-91.59902674254197,9152.089140576052,-70.73105554676769,-1.0126579440070913,-2.357179138692945,198.166,9163.148997757502,11279.40419535643,150,True,17.966783766880766,False,163.67955490964218,177.77694388447404,False,14.20947284227985,True,False
2,1970-07-23 10:13:38.523735302,2025-09-11,2025-09-26 14:44:12.373,HH,C,1251921102,JASSM,3,102,76,2,2,1,225,9,2,0,1,26,0,0,0,0,-163073.04919608062,-4785401.096650924,4204023.095182896,-2.36559,-0.397301,0.382249,73.75,-30.75,-32.0,0.0,0.0,0.0,0.0,0.0,0.0,2,0,41.47394427091979,-91.95172423599622,10000.001969507386,119.85490233397783,-0.0020677790549831,0.0050425309441345,,9163.148997757502,11279.40419535643,150,2,2025-09-11,2025-09-26 14:44:12.310,HH,C,2834203562,AMBUSH51,1,1,48,2,1,1,225,2,1,0,0,9,1,225,2,1,-133986.27730149185,-4796331.957826433,4192261.0713796606,2.28436,2.8735,-0.237928,-112.531,22.7347,18.9347,-0.132301,-7.39709,6.17765,0.00529199,-0.00270373,-0.00542515,4,0,41.33487865589361,-91.60015033764878,9146.09777701318,-70.74987978227986,-1.0258906739954303,-2.277308292194353,198.349,9163.148997757502,11279.40419535643,150,True,17.872439803576356,False,163.5297158745659,177.80993701276975,False,14.401284433789968,True,False
2,1970-07-23 10:13:38.533253859,2025-09-11,2025-09-26 14:44:13.325,HH,C,1253173778,JASSM,3,102,76,2,2,1,225,9,2,0,1,26,0,0,0,0,-162995.63025076812,-4785433.586885299,4203989.339323521,-2.36559,-0.397301,0.382249,73.75,-30.75,-32.0,0.0,0.0,0.0,0.0,0.0,0.0,2,0,41.47353882946839,-91.95078513631222,9999.99765705901,119.8555242778898,-0.0012556984207625,0.0050411708085261,,9163.148997757502,11279.40419535643,150,2,2025-09-11,2025-09-26 14:44:13.477,HH,C,2835595394,AMBUSH51,1,1,48,2,1,1,225,2,1,0,0,9,1,225,2,1,-134117.66511480595,-4796305.558930293,4192282.848720438,2.28458,2.87614,-0.235834,-112.766,22.4877,18.7126,-0.0797468,-7.27155,6.21937,0.00676297,-0.00646337,-0.00108503,4,0,41.335160865311245,-91.60172744975544,9137.321924383692,-70.93867803958591,-0.9997848124278697,-2.2255560941755617,198.349,9163.148997757502,11279.40419535643,150,True,17.753238662509332,False,163.34499862834738,177.8588423005892,False,14.637520848803122,True,False
2,1970-07-23 10:13:38.543274214,2025-09-11,2025-09-26 14:44:14.327,HH,C,1254366846,JASSM,3,102,76,2,2,1,225,9,2,0,1,26,0,0,0,0,-162921.89587576812,-4785464.532197799,4203957.190886021,-2.36559,-0.397205,0.382249,73.75,-30.75,-32.0,0.0,0.0,0.0,0.0,0.0,0.0,2,0,41.47315267471708,-91.94989074116285,10000.00277490283,119.85247872867296,-0.0040519207052676,0.0029910179388407,,9163.148997757502,11279.40419535643,150,2,2025-09-11,2025-09-26 14:44:14.310,HH,C,2836589560,AMBUSH51,1,1,48,2,1,1,225,2,1,0,0,9,1,225,2,1,-134211.49264152552,-4796286.903154889,4192298.0985269225,2.28428,2.87927,-0.235193,-112.862,22.4341,18.3558,-0.1956,-7.45164,6.3718,0.00170505,0.00871041,0.00588496,4,0,41.33535917792021,-91.60285365094131,9130.889886347984,-71.08561800102271,-0.8964628450314283,-2.198505929707159,198.655,9163.148997757502,11279.40419535643,150,True,17.656632868939372,False,163.18393988410557,177.89306042358908,False,14.840078998443943,True,False
2,1970-07-23 10:13:38.552175276,2025-09-11,2025-09-26 14:44:15.217,HH,C,1255500240,JASSM,3,102,76,2,2,1,225,9,2,0,1,26,0,0,0,0,-162851.84900076812,-4785493.928682174,4203926.647917271,-2.36559,-0.397205,0.382249,73.75,-30.75,-32.0,0.0,0.0,0.0,0.0,0.0,0.0,2,0,41.472785817217,-91.9490410855833,10000.00315514095,119.85304142729764,-0.0033171637890237,0.0029897318006172,,9163.148997757502,11279.40419535643,150,2,2025-09-11,2025-09-26 14:44:15.110,HH,C,2837543960,AMBUSH51,1,1,48,2,1,1,225,2,1,0,0,9,1,225,2,1,-134301.8460609721,-4796269.02849762,4192312.744233274,2.28441,2.88064,-0.234716,-113.014,22.2463,18.2686,-0.182706,-7.56953,6.62969,0.00115577,0.00550005,-0.00142001,4,0,41.33554933386487,-91.60393812971856,9124.83757487668,-71.15837012082821,-0.8585919208950442,-2.1714596198225644,198.655,9163.148997757502,11279.40419535643,150,True,17.564235161879694,False,163.0778338777753,177.9264801670638,False,14.980599266229314,True,False
2,1970-07-23 10:13:38.562194135,2025-09-11,2025-09-26 14:44:16.219,HH,C,1256693286,JASSM,3,102,76,2,2,1,225,9,2,0,1,26,0,0,0,0,-162778.11609061187,-4785524.870088424,4203894.497526646,-2.36559,-0.397205,0.382345,73.75,-30.75,-32.0,0.0,0.0,0.0,0.0,0.0,0.0,2,0,41.47239965865619,-91.94814673024293,10000.001997780117,119.85748111884304,-0.0064645362566865,0.0029880844524203,,9163.148997757502,11279.40419535643,150,2,2025-09-11,2025-09-26 14:44:16.277,HH,C,2838935792,AMBUSH51,1,1,48,2,1,1,225,2,1,0,0,9,1,225,2,1,-134432.90820274423,-4796243.21465973,4192334.1035580263,2.28905,2.88245,-0.234901,-113.186,22.0014,18.3016,-0.25331,-7.79774,6.77727,-0.00486339,0.0143072,-0.0088831,4,0,41.33582524485715,-91.60551119438,9116.596838741496,-71.22067480232933,-0.7762563934293292,-1.880462655594061,198.911,9163.148997757502,11279.40419535643,150,True,17.44772044846381,False,162.99730954919875,177.97761744985485,False,15.112143187670368,True,False
2,1970-07-23 10:13:38.573716554,2025-09-11,2025-09-26 14:44:17.371,HH,C,1257886332,JASSM,3,102,76,2,2,1,225,9,2,0,1,26,0,0,0,0,-162704.38269217435,-4785555.811494674,4203862.345182896,-2.36559,-0.397205,0.382345,73.75,-30.75,-32.0,0.0,0.0,0.0,0.0,0.0,0.0,2,0,41.47201348004453,-91.94725237967864,10000.000372774948,119.85807340860023,-0.0056911100071528,0.0029867823022283,,9163.148997757502,11279.40419535643,150,2,2025-09-11,2025-09-26 14:44:17.511,HH,C,2840407156,AMBUSH51,1,1,48,2,1,1,225,2,1,0,0,9,1,225,2,1,-134573.11256409087,-4796216.199825705,4192357.1830482953,2.28357,2.88872,-0.239731,-113.326,21.2645,18.681,-0.103504,-8.08093,6.95943,0.00240621,0.0112903,0.00442647,4,0,41.336118371252816,-91.60719380315768,9109.767190345736,-71.25736971230555,-0.3310072164033919,-2.109873712328173,198.911,9163.148997757502,11279.40419535643,150,True,17.32638923378675,False,162.89861245055786,178.03381924409322,False,15.254586552176951,True,False
2,1970-07-23 10:13:38.582274618,2025-09-11,2025-09-26 14:44:18.227,HH,C,1259019726,JASSM,3,102,76,2,2,1,225,9,2,0,1,26,0,0,0,0,-162634.33728201812,-4785585.204072799,4203831.800261021,-2.36559,-0.397205,0.382345,73.75,-30.75,-32.0,0.0,0.0,0.0,0.0,0.0,0.0,2,0,41.47164661278536,-91.94640277295568,9999.99773142732,119.85863606224372,-0.0049563701554195,0.0029855467905853,,9163.148997757502,11279.40419535643,150,2,2025-09-11,2025-09-26 14:44:18.377,HH,C,2841441088,AMBUSH51,1,1,48,2,1,1,225,2,1,0,0,9,1,225,2,1,-134671.1841306305,-4796197.90205519,4192373.591567285,2.28477,2.89269,-0.241017,-113.371,20.6276,19.0411,-0.217294,-7.78378,6.77327,0.0141699,0.00382309,-0.00570811,4,0,41.33632162580045,-91.60837058029291,9107.044366000404,-71.35473371479591,-0.118024587513146,-1.9861757331446448,198.838,9163.148997757502,11279.40419535643,150,True,17.229990254943257,False,162.82660491745952,178.0726477551414,False,15.354388849251285,True,False
2,1970-07-23 10:13:38.591313467,2025-09-11,2025-09-26 14:44:19.131,HH,C,1260153122,JASSM,3,102,76,2,2,1,225,9,2,0,1,26,0,0,0,0,-162564.28894217435,-4785614.598604049,4203801.255339146,-2.36559,-0.397205,0.382345,73.75,-30.75,-32.0,0.0,0.0,0.0,0.0,0.0,0.0,2,0,41.47127972818669,-91.94555313998409,10000.003088762824,119.8591987291779,-0.0042216014774117,0.0029843150421116,,9163.148997757502,11279.40419535643,150,2,2025-09-11,2025-09-26 14:44:19.144,HH,C,2842355720,AMBUSH51,1,1,48,2,1,1,225,2,1,0,0,9,1,225,2,1,-134758.1261552768,-4796182.231070849,4192388.2125014346,2.28739,2.89819,-0.243242,-113.415,20.2442,19.1093,-0.0716556,-8.05109,6.85478,0.00616168,0.00769508,-0.00376276,4,0,41.33649903793823,-91.60941363400926,9106.151435660926,-71.46991184778248,0.1936372334034118,-1.760583259498729,198.691,9163.148997757502,11279.40419535643,150,True,17.139630348221193,False,162.7250757136604,178.10742885692324,False,15.487216527264648,True,False
2,1970-07-23 10:13:38.601198102,2025-09-11,2025-09-26 14:44:20.119,HH,C,1261286516,JASSM,3,102,76,2,2,1,225,9,2,0,1,26,0,0,0,0,-162494.24206717435,-4785643.989229049,4203770.708464146,-2.36559,-0.397205,0.382345,73.75,-30.75,-32.0,0.0,0.0,0.0,0.0,0.0,0.0,2,0,41.47091284708996,-91.94470353569749,9999.998172390851,119.85976137302328,-0.0034868500463762,0.0029830846390699,,9163.148997757502,11279.40419535643,150,2,2025-09-11,2025-09-26 14:44:19.977,HH,C,2843349886,AMBUSH51,1,1,48,2,1,1,225,2,1,0,0,9,1,225,2,1,-134851.5304480447,-4796165.631223415,4192404.436257247,2.28922,2.90379,-0.247895,-113.3,19.5592,19.6078,-0.0663719,-8.02429,7.04059,-0.0102084,0.0181501,0.00633437,4,0,41.33669171181155,-91.61053414353869,9106.89599042998,-71.48632517238235,0.6039184042856475,-1.5780137330564543,198.508,9163.148997757502,11279.40419535643,150,True,17.045776566611455,False,162.6942002909417,178.145412010837,False,15.543706132688316,True,False
2,1970-07-23 10:13:38.611724896,2025-09-11,2025-09-26 14:44:21.172,HH,C,1262539214,JASSM,3,102,76,2,2,1,225,9,2,0,1,26,0,0,0,0,-162416.82214529935,-4785676.475557174,4203736.946745396,-2.36559,-0.397205,0.382345,73.75,-30.75,-32.0,0.0,0.0,0.0,0.0,0.0,0.0,2,0,41.47050733206568,-91.94376451342164,10000.00291062599,119.86038322847762,-0.0026747544333836,0.0029817170717763,,9163.148997757502,11279.40419535643,150,2,2025-09-11,2025-09-26 14:44:21.177,HH,C,2844781486,AMBUSH51,1,1,48,2,1,1,225,2,1,0,0,9,1,225,2,1,-134987.9529805656,-4796142.349593252,4192428.51262266,2.28672,2.91003,-0.251967,-113.132,18.6519,20.1511,-0.0260089,-7.94486,6.78529,-0.00822979,0.00714788,0.00955097,4,0,41.33696995096658,-91.61217040248668,9111.18912200163,-71.55096609590532,1.0180848133138043,-1.633165676629965,198.239,9163.148997757502,11279.40419535643,150,True,16.92444443774179,False,162.6005963465483,178.20430755112415,False,15.68279416855137,True,False
2,1970-07-23 10:13:38.622196055,2025-09-11,2025-09-26 14:44:22.219,HH,C,1263791914,JASSM,3,102,76,2,2,1,225,9,2,0,1,26,0,0,0,0,-162339.40173514312,-4785708.957979049,4203703.183073521,-2.36559,-0.397205,0.382345,73.75,-30.75,-32.0,0.0,0.0,0.0,0.0,0.0,0.0,2,0,41.47010181954269,-91.94282549859516,9999.997975419788,119.86100507399912,-0.0018626610748792,0.0029803598998169,,9163.148997757502,11279.40419535643,150,2,2025-09-11,2025-09-26 14:44:22.245,HH,C,2846054018,AMBUSH51,1,1,48,2,1,1,225,2,1,0,0,9,1,225,2,1,-135108.52371660506,-4796122.645942742,4192449.9980532033,2.28325,2.9153,-0.255667,-112.868,17.9686,20.3312,-0.0820968,-7.63398,6.88358,-0.00417263,0.0129569,0.00461372,4,0,41.3372120507903,-91.613616251727,9117.588673931305,-71.59371834669996,1.377756642597143,-1.757370311095294,197.457,9163.148997757502,11279.40419535643,150,True,16.811696591618507,False,162.4596897690728,178.25733065980012,False,15.870456117361092,True,False
2,1970-07-23 10:13:38.632234756,2025-09-11,2025-09-26 14:44:23.223,HH,C,1264984960,JASSM,3,102,76,2,2,1,225,9,2,0,1,26,0,0,0,0,-162265.66833670562,-4785739.895479049,4203671.026823521,-2.36559,-0.397205,0.382345,73.75,-30.75,-32.0,0.0,0.0,0.0,0.0,0.0,0.0,2,0,41.46971559633282,-91.94193121277904,10000.000976545767,119.8615972938982,-0.0010892340161853,0.0029790543120095,,9163.148997757502,11279.40419535643,150,2,2025-09-11,2025-09-26 14:44:23.177,HH,C,2847167482,AMBUSH51,1,1,48,2,1,1,225,2,1,0,0,9,1,225,2,1,-135212.33369470836,-4796106.077204373,4192468.646232309,2.27309,2.91584,-0.256029,-112.606,17.7234,20.1286,-0.115608,-7.39389,6.44478,0.00605349,0.00201089,-0.00345067,4,0,41.337419138968194,-91.61486098547746,9124.403642473677,-71.59963695727494,1.414943287612537,-2.3316920685509395,197.005,9163.148997757502,11279.40419535643,150,True,16.71023371963049,False,162.337347744211,178.303369214322,False,16.04112227853095,True,False
2,1970-07-23 10:13:38.642255063,2025-09-11,2025-09-26 14:44:24.225,HH,C,1266237658,JASSM,3,102,76,2,2,1,225,9,2,0,1,26,0,0,0,0,-162188.24841483062,-4785772.377900924,4203637.263151646,-2.36559,-0.397109,0.382345,73.75,-30.75,-32.0,0.0,0.0,0.0,0.0,0.0,0.0,2,0,41.4693100686902,-91.94099222664052,10000.004297801675,119.85858149768058,-0.0038467929997868,0.0009283373766899,,9163.148997757502,11279.40419535643,150,2,2025-09-11,2025-09-26 14:44:24.245,HH,C,2848440014,AMBUSH51,1,1,48,2,1,1,225,2,1,0,0,9,1,225,2,1,-135332.9312460411,-4796086.8781884685,4192490.557025792,2.27632,2.92237,-0.253779,-112.242,17.3038,20.1916,-0.256205,-7.38968,6.69665,0.00666102,-0.010945,-0.00214197,4,0,41.33766107597619,-91.61630700299536,9132.98410719877,-71.9401895894878,1.5953842911516918,-2.061063582702313,196.48,9163.148997757502,11279.40419535643,150,True,16.59751301164279,False,162.25438646674377,178.35781326252786,False,16.176788700013887,True,False
2,1970-07-23 10:13:38.652134603,2025-09-11,2025-09-26 14:44:25.213,HH,C,1267371052,JASSM,3,102,76,2,2,1,225,9,2,0,1,26,0,0,0,0,-162118.20105154935,-4785801.764619674,4203606.712370396,-2.36559,-0.397109,0.382345,73.75,-30.75,-32.0,0.0,0.0,0.0,0.0,0.0,0.0,2,0,41.4689431508064,-91.94014266952864,9999.999749137132,119.85914408839602,-0.0031120371489689,0.0009270591850658,,9163.148997757502,11279.40419535643,150,2,2025-09-11,2025-09-26 14:44:25.277,HH,C,2849672780,AMBUSH51,1,1,48,2,1,1,225,2,1,0,0,9,1,225,2,1,-135447.4469439353,-4796069.136509929,4192511.009836726,2.27709,2.92224,-0.253789,-111.958,17.1444,19.8345,-0.0715071,-7.32887,6.24785,0.0175883,-0.00563737,-0.00492581,4,0,41.33788550301893,-91.61767994034712,9141.578588741557,-71.93586143428072,1.5916310637840188,-2.018578311251183,195.954,9163.148997757502,11279.40419535643,150,True,16.492828325785144,False,162.1111499810641,178.41118537346182,False,16.378784645513235,True,False
2,1970-07-23 10:13:38.661209471,2025-09-11,2025-09-26 14:44:26.120,HH,C,1268504446,JASSM,3,102,76,2,2,1,225,9,2,0,1,26,0,0,0,0,-162048.15417654935,-4785831.151338424,4203576.161589146,-2.36559,-0.397109,0.382345,73.75,-30.75,-32.0,0.0,0.0,0.0,0.0,0.0,0.0,2,0,41.46857622652632,-91.93929312783553,9999.998685846604,119.859706664808,-0.0023772849963693,0.0009257787023435,,9163.148997757502,11279.40419535643,150,2,2025-09-11,2025-09-26 14:44:26.043,HH,C,2850587412,AMBUSH51,1,1,48,2,1,1,225,2,1,0,0,9,1,225,2,1,-135534.3153097719,-4796055.727015549,4192526.413730115,2.28666,2.92184,-0.251161,-111.803,16.9776,19.7434,-0.165945,-7.36944,6.21778,0.00113913,-0.00654867,-0.0044223,4,0,41.33805469545359,-91.61872140080688,9147.982521001048,-72.0328685891811,1.474611036902094,-1.4784762868535883,195.539,9163.148997757502,11279.40419535643,150,True,16.402835823996455,False,162.0395974650438,178.45101413534036,False,16.49223498144229,True,False
2,1970-07-23 10:13:38.671214377,2025-09-11,2025-09-26 14:44:27.121,HH,C,1269697492,JASSM,3,102,76,2,2,1,225,9,2,0,1,26,0,0,0,0,-161974.42077811187,-4785862.084932174,4203544.003386021,-2.36559,-0.397109,0.382441,73.75,-30.75,-32.0,0.0,0.0,0.0,0.0,0.0,0.0,2,0,41.46818998584918,-91.9383988855318,10000.002922667794,119.86414637347018,-0.0055245135519487,0.0009241927134245,,9163.148997757502,11279.40419535643,150,2,2025-09-11,2025-09-26 14:44:27.311,HH,C,2852098544,AMBUSH51,1,1,48,2,1,1,225,2,1,0,0,9,1,225,2,1,-135675.58315739414,-4796033.958198065,4192551.181095148,2.29428,2.9219,-0.248219,-111.599,17.0844,19.4457,-0.263467,-7.51579,6.6529,-0.00342362,0.00893303,0.00784696,4,0,41.33832768273926,-91.62041505120064,9157.886270356514,-72.16022331652242,1.3641418545817898,-1.0440650255502737,194.891,9163.148997757502,11279.40419535643,150,True,16.281807167089823,False,161.99910153980179,178.5191290807977,False,16.610133201867704,True,False
2,1970-07-23 10:13:38.681254515,2025-09-11,2025-09-26 14:44:28.125,HH,C,1270890540,JASSM,3,102,76,2,2,1,225,9,2,0,1,26,0,0,0,0,-161900.68689139312,-4785893.016572799,4203511.843229771,-2.36559,-0.397109,0.382441,73.75,-30.75,-32.0,0.0,0.0,0.0,0.0,0.0,0.0,2,0,41.46780373675491,-91.93750464879444,10000.001893586872,119.86473853859172,-0.0047510882893267,0.000922898609386,,9163.148997757502,11279.40419535643,150,2,2025-09-11,2025-09-26 14:44:28.144,HH,C,2853092710,AMBUSH51,1,1,48,2,1,1,225,2,1,0,0,9,1,225,2,1,-135768.13293749723,-4796019.750857552,4192567.228680184,2.30057,2.92025,-0.246023,-111.419,17.1241,19.2587,0.0294632,-7.12252,6.13113,0.0103354,-0.00574348,-0.00264756,4,0,41.338504985223885,-91.62152461255336,9164.127273904622,-72.19199854560277,1.2126361762119224,-0.7070449641561606,194.353,9163.148997757502,11279.40419535643,150,True,16.18660174856652,False,161.96934836797817,178.56266941172225,False,16.68965243321126,True,False
2,1970-07-23 10:13:38.691271727,2025-09-11,2025-09-26 14:44:29.127,HH,C,1272023934,JASSM,3,102,76,2,2,1,225,9,2,0,1,26,0,0,0,0,-161830.64099295562,-4785922.399385299,4203481.290495396,-2.36559,-0.397109,0.382441,73.75,-30.75,-32.0,0.0,0.0,0.0,0.0,0.0,0.0,2,0,41.4674368028184,-91.93665515010711,9999.997767131075,119.86530107389852,-0.0040163494508197,0.0009216710186766,,9163.148997757502,11279.40419535643,150,2,2025-09-11,2025-09-26 14:44:28.944,HH,C,2854047108,AMBUSH51,1,1,48,2,1,1,225,2,1,0,0,9,1,225,2,1,-135857.34466850004,-4796006.171217612,4192582.374921236,2.30143,2.91897,-0.244473,-111.313,17.13,19.0366,-0.167512,-7.36777,6.16238,0.00231674,-0.00181532,-0.00430995,4,0,41.33867301800117,-91.62259412077464,9169.732446298947,-72.21010181378125,1.101004076507083,-0.6762722955263943,194.133,9163.148997757502,11279.40419535643,150,True,16.09557046342209,False,161.90700891691253,178.60532393624865,False,16.801214322025587,True,False
2,1970-07-23 10:13:38.701152253,2025-09-11,2025-09-26 14:44:30.115,HH,C,1273216980,JASSM,3,102,76,2,2,1,225,9,2,0,1,26,0,0,0,0,-161756.90612967435,-4785953.331025924,4203449.128386021,-2.36549,-0.397109,0.382441,73.75,-30.75,-32.0,0.0,0.0,0.0,0.0,0.0,0.0,2,0,41.46705052714363,-91.93576092239049,9999.999856560062,119.86589322420426,-0.0032429100373032,0.0064118420541667,,9163.148997757502,11279.40419535643,150,2,2025-09-11,2025-09-26 14:44:30.177,HH,C,2855518474,AMBUSH51,1,1,48,2,1,1,225,2,1,0,0,9,1,225,2,1,-135995.30101493222,-4795984.7062422205,4192606.035113288,2.31118,2.91691,-0.244718,-111.109,17.2805,18.9287,-0.125347,-7.3477,6.47217,0.0127988,-0.00129517,-0.00547717,4,0,41.33893721849793,-91.6242481674738,9177.77853955116,-72.12334433481114,1.0273778384535008,-0.1444245514941614,193.596,9163.148997757502,11279.40419535643,150,True,15.976414447718176,False,161.9447706234051,178.67277473905233,False,16.84073043869928,True,False
2,1970-07-23 10:13:38.712172742,2025-09-11,2025-09-26 14:44:31.217,HH,C,1274529330,JASSM,3,102,76,2,2,1,225,9,2,0,1,26,0,0,0,0,-161675.79870779935,-4785987.352510299,4203413.749479771,-2.36549,-0.397109,0.382441,73.75,-30.75,-32.0,0.0,0.0,0.0,0.0,0.0,0.0,2,0,41.466625631480376,-91.9347772965979,9999.99720939778,119.86654456794903,-0.0023921424903945,0.0064104197768119,,9163.148997757502,11279.40419535643,150,2,2025-09-11,2025-09-26 14:44:31.410,HH,C,2856989838,AMBUSH51,1,1,48,2,1,1,225,2,1,0,0,9,1,225,2,1,-136131.31088512923,-4795963.491731588,4192629.291097679,2.31651,2.91792,-0.248175,-110.815,17.1158,19.1422,-0.0584327,-7.51217,6.66017,-0.0059349,0.00255809,-0.0100378,4,0,41.33919750357656,-91.62587890622184,9185.439667479037,-72.01644072754918,1.2038747088690167,0.1777834738265282,193.095,9163.148997757502,11279.40419535643,150,True,15.853684471849416,False,161.9947061636932,178.7389636251958,False,16.860699774215952,True,False
2,1970-07-23 10:13:38.722213690,2025-09-11,2025-09-26 14:44:32.221,HH,C,1275782016,JASSM,3,102,76,2,2,1,225,9,2,0,1,26,0,0,0,0,-161598.37927420562,-4786019.827119674,4203379.979948521,-2.36549,-0.397109,0.382441,73.75,-30.75,-32.0,0.0,0.0,0.0,0.0,0.0,0.0,2,0,41.466220052147904,-91.933838408622,10000.00070718026,119.86716628179585,-0.0015800616178263,0.0064090656398996,,9163.148997757502,11279.40419535643,150,2,2025-09-11,2025-09-26 14:44:32.245,HH,C,2857984004,AMBUSH51,1,1,48,2,1,1,225,2,1,0,0,9,1,225,2,1,-136223.5813435398,-4795949.222956047,4192645.261154036,2.314,2.91652,-0.251881,-110.634,17.0073,19.2807,-0.20912,-7.64594,6.85006,0.004337,-0.00720406,0.0141803,4,0,41.339374641188485,-91.62698518061129,9191.364663092583,-71.8079511677447,1.2909152603125271,0.0181803594773267,192.63,9163.148997757502,11279.40419535643,150,True,15.756352721712183,False,162.0250034212656,178.7828306793892,False,16.87739660478397,True,False
2,1970-07-23 10:13:38.732253848,2025-09-11,2025-09-26 14:44:33.225,HH,C,1276975076,JASSM,3,102,76,2,2,1,225,9,2,0,1,26,0,0,0,0,-161524.64441092435,-4786050.754854049,4203347.815886021,-2.36549,-0.397013,0.382441,73.75,-30.75,-32.0,0.0,0.0,0.0,0.0,0.0,0.0,2,0,41.465833764589725,-91.9329442159194,10000.00097880991,119.86412105035105,-0.0043762700415316,0.0043579602058181,,9163.148997757502,11279.40419535643,150,2,2025-09-11,2025-09-26 14:44:33.110,HH,C,2859017936,AMBUSH51,1,1,48,2,1,1,225,2,1,0,0,9,1,225,2,1,-136319.15083371283,-4795934.435290911,4192662.139109591,2.31527,2.91784,-0.254621,-110.351,16.7752,19.578,-0.183436,-7.32416,6.76395,-0.00045461,0.00749326,0.000872809,4,0,41.33956042929744,-91.6281310172818,9198.214971144787,-71.74289444116785,1.4521874396036922,0.1117904835377519,192.288,9163.148997757502,11279.40419535643,150,True,15.659539288356429,False,162.07706569633405,178.828506333794,False,16.87154719285903,True,False
2,1970-07-23 10:13:38.743272147,2025-09-11,2025-09-26 14:44:34.327,HH,C,1278227772,JASSM,3,102,76,2,2,1,225,9,2,0,1,26,0,0,0,0,-161447.22400076812,-4786083.227510299,4203314.042448521,-2.36549,-0.397013,0.382441,73.75,-30.75,-32.0,0.0,0.0,0.0,0.0,0.0,0.0,2,0,41.46542815572604,-91.93200533990144,9999.999326033118,119.86474274660694,-0.0035641748411495,0.0043565459261377,,9163.148997757502,11279.40419535643,150,2,2025-09-11,2025-09-26 14:44:34.344,HH,C,2860489302,AMBUSH51,1,1,48,2,1,1,225,2,1,0,0,9,1,225,2,1,-136455.46831720753,-4795913.356466855,4192686.604013948,2.31061,2.91657,-0.258732,-109.943,16.6917,19.7782,-0.0701413,-7.44477,6.42694,-0.0117294,0.00668391,0.00130557,4,0,41.33982796962788,-91.62976540995564,9208.875392665546,-71.5224311003901,1.5605352432363395,-0.1679117875828872,191.86,9163.148997757502,11279.40419535643,150,True,15.538832222041439,False,162.16228428609057,178.89490074057076,False,16.859241840839978,True,False
2,1970-07-23 10:13:38.753712662,2025-09-11,2025-09-26 14:44:35.371,HH,C,1279480474,JASSM,3,102,76,2,2,1,225,9,2,0,1,26,0,0,0,0,-161369.80310233062,-4786115.700166549,4203280.269011021,-2.36549,-0.397013,0.382441,73.75,-30.75,-32.0,0.0,0.0,0.0,0.0,0.0,0.0,2,0,41.465022539269015,-91.93106646974694,10000.001840900535,119.86536443397944,-0.0027520758379694,0.0043551338768338,,9163.148997757502,11279.40419535643,150,2,2025-09-11,2025-09-26 14:44:35.444,HH,C,2861801600,AMBUSH51,1,1,48,2,1,1,225,2,1,0,0,9,1,225,2,1,-136575.3051556484,-4795894.746478862,4192708.1560747935,2.31122,2.91641,-0.258448,-109.586,16.9573,19.6296,-0.16018,-7.36751,6.44269,-0.000562801,-0.000883212,-0.00476976,4,0,41.340063921714886,-91.63120224294332,9218.156756687613,-71.52942619445636,1.5441406659212942,-0.1352315130260556,191.469,9163.148997757502,11279.40419535643,150,True,15.426835501966172,False,162.24801893689624,178.95240418186953,False,16.84526436660196,True,False
2,1970-07-23 10:13:38.764171273,2025-09-11,2025-09-26 14:44:36.417,HH,C,1280792826,JASSM,3,102,76,2,2,1,225,9,2,0,1,26,0,0,0,0,-161288.69568045562,-4786149.717744674,4203244.886198521,-2.36549,-0.397013,0.382536,73.75,-30.75,-32.0,0.0,0.0,0.0,0.0,0.0,0.0,2,0,41.46459760023809,-91.93008290682798,10000.00315188071,119.86986338651502,-0.0058218187664252,0.0043533948354526,,9163.148997757502,11279.40419535643,150,2,2025-09-11,2025-09-26 14:44:36.577,HH,C,2863153666,AMBUSH51,1,1,48,2,1,1,225,2,1,0,0,9,1,225,2,1,-136700.1002512531,-4795875.117307049,4192730.652720856,2.31164,2.91262,-0.254897,-109.349,17.1452,19.5998,-0.207331,-7.17839,6.36344,0.00105382,0.00207539,0.00901626,4,0,41.34031145509757,-91.63269861945204,9227.331402954907,-71.53823440512245,1.2531172119431429,-0.1663426439451885,191.042,9163.148997757502,11279.40419535643,150,True,15.309866335286657,False,162.33250144268663,179.0113402449956,False,16.833957981235205,True,False
2,1970-07-23 10:13:38.775212247,2025-09-11,2025-09-26 14:44:37.521,HH,C,1282045524,JASSM,3,102,76,2,2,1,225,9,2,0,1,26,0,0,0,0,-161211.27527029935,-4786182.186494674,4203211.108854771,-2.36549,-0.397013,0.382536,73.75,-30.75,-32.0,0.0,0.0,0.0,0.0,0.0,0.0,2,0,41.46419196485559,-91.92914406804776,9999.996239511453,119.87048504296516,-0.0050097227875001,0.0043520317325485,,9163.148997757502,11279.40419535643,150,2,2025-09-11,2025-09-26 14:44:37.376,HH,C,2864108064,AMBUSH51,1,1,48,2,1,1,225,2,1,0,0,9,1,225,2,1,-136787.47317096335,-4795861.25589561,4192746.224939127,2.30967,2.91073,-0.255069,-109.188,17.2934,19.4648,-0.0171278,-7.15686,6.36004,0.000444207,0.0041227,0.0037898,4,0,41.340484247512414,-91.6337463253718,9233.081738959714,-71.46083935373258,1.1836465917708925,-0.3043747474085327,190.773,9163.148997757502,11279.40419535643,150,True,15.215032935474945,False,162.35733301466732,179.05106943449113,False,16.86183262392001,True,False
2,1970-07-23 10:13:38.785231260,2025-09-11,2025-09-26 14:44:38.523,HH,C,1283298222,JASSM,3,102,76,2,2,1,225,9,2,0,1,26,0,0,0,0,-161133.85437186187,-4786214.657197799,4203177.333464146,-2.36549,-0.397013,0.382536,73.75,-30.75,-32.0,0.0,0.0,0.0,0.0,0.0,0.0,2,0,41.46378632341983,-91.92820523434416,10000.002536993905,119.87110669105328,-0.0041976232614866,0.0043506724889641,,9163.148997757502,11279.40419535643,150,2,2025-09-11,2025-09-26 14:44:38.544,HH,C,2865499896,AMBUSH51,1,1,48,2,1,1,225,2,1,0,0,9,1,225,2,1,-136913.81831140773,-4795841.144993367,4192768.72310948,2.30455,2.9123,-0.255314,-108.927,17.3173,19.3871,-0.0683854,-7.1879,6.5209,-0.0140138,-0.00147202,0.00388967,4,0,41.340734357449605,-91.63526138638277,9241.1968790215,-71.5101343153856,1.2579763431815332,-0.576360837943079,190.345,9163.148997757502,11279.40419535643,150,True,15.099610361111322,False,162.369607255129,179.10894410636106,False,16.924552058692253,True,False
2,1970-07-23 10:13:38.796251888,2025-09-11,2025-09-26 14:44:39.625,HH,C,1284550910,JASSM,3,102,76,2,2,1,225,9,2,0,1,26,0,0,0,0,-161056.43444998687,-4786247.123994674,4203143.556120396,-2.36549,-0.397013,0.382536,73.75,-30.75,-32.0,0.0,0.0,0.0,0.0,0.0,0.0,2,0,41.4633806841901,-91.92726642559204,9999.99928200307,119.87172831761958,-0.0033855372170402,0.0043493168486293,,9163.148997757502,11279.40419535643,150,2,2025-09-11,2025-09-26 14:44:39.677,HH,C,2866851962,AMBUSH51,1,1,48,2,1,1,225,2,1,0,0,9,1,225,2,1,-137037.62866425587,-4795821.310037468,4192790.620097649,2.29692,2.91204,-0.255657,-108.66,17.3708,19.1778,-0.0874835,-7.34153,6.36638,-0.0147816,-0.00869377,-0.000799989,4,0,41.340979175530464,-91.63674610523056,9248.518946265664,-71.48701977763623,1.262020542896109,-1.016637932443238,189.991,9163.148997757502,11279.40419535643,150,True,14.985557837328445,False,162.3468147401712,179.16371648496454,False,17.023832302328273,True,False
2,1970-07-23 10:13:38.806273139,2025-09-11,2025-09-26 14:44:40.627,HH,C,1285743970,JASSM,3,102,76,2,2,1,225,9,2,0,1,26,0,0,0,0,-160982.69958670562,-4786278.045869674,4203111.386198521,-2.36549,-0.397013,0.382536,73.75,-30.75,-32.0,0.0,0.0,0.0,0.0,0.0,0.0,2,0,41.46299434073924,-91.92637231326468,10000.000481569805,119.87232034406874,-0.0026121025384372,0.0043480215912436,,9163.148997757502,11279.40419535643,150,2,2025-09-11,2025-09-26 14:44:40.743,HH,C,2868124494,AMBUSH51,1,1,48,2,1,1,225,2,1,0,0,9,1,225,2,1,-137153.48410264586,-4795802.970087042,4192811.0944074863,2.29214,2.9076,-0.251469,-108.558,15.5057,20.6288,0.0371529,-7.1556,6.18027,-0.00644256,-0.0153517,-0.00069804,4,0,41.34120682883615,-91.6381353635248,9255.887050222258,-71.49778622054673,0.9195709886552448,-1.3543833529781797,189.758,9163.148997757502,11279.40419535643,150,True,14.878089567454857,False,162.17069106135952,179.2132726847378,False,17.232688875872835,True,False
2,1970-07-23 10:13:38.817154765,2025-09-11,2025-09-26 14:44:41.715,HH,C,1287056320,JASSM,3,102,76,2,2,1,225,9,2,0,1,26,0,0,0,0,-160901.59167654935,-4786312.057588424,4203075.999479771,-2.36549,-0.397013,0.382536,73.75,-30.75,-32.0,0.0,0.0,0.0,0.0,0.0,0.0,2,0,41.46256937007437,-91.9253888081608,10000.000911142355,119.87297155570342,-0.0017613359234473,0.0043466076297766,,9163.148997757502,11279.40419535643,150,2,2025-09-11,2025-09-26 14:44:41.710,HH,C,2869277726,AMBUSH51,1,1,48,2,1,1,225,2,1,0,0,9,1,225,2,1,-137257.68426065316,-4795786.040427579,4192828.750832844,2.25423,2.91072,-0.252285,-108.529,17.141,18.7086,-0.120762,-7.31001,6.34582,-0.0273525,-0.00765763,-0.00695231,4,0,41.34140902598683,-91.6393850157184,9259.806725181714,-71.58118457419612,1.0791587861288738,-3.4829997390553054,189.6,9163.148997757502,11279.40419535643,150,True,14.772225835518372,False,162.11518280347835,179.254032405708,False,17.392106787647947,True,False
2,1970-07-23 10:13:38.828172145,2025-09-11,2025-09-26 14:44:42.817,HH,C,1288368670,JASSM,3,102,76,2,2,1,225,9,2,0,1,26,0,0,0,0,-160820.48425467435,-4786346.069307174,4203040.610807896,-2.36549,-0.396918,0.382536,73.75,-30.75,-32.0,0.0,0.0,0.0,0.0,0.0,0.0,2,0,41.46214437769963,-91.9244053217379,10000.00175661095,119.86998567400836,-0.0044802016484196,0.0022948854880785,,9163.148997757502,11279.40419535643,150,2,2025-09-11,2025-09-26 14:44:42.943,HH,C,2870749092,AMBUSH51,1,1,48,2,1,1,225,2,1,0,0,9,1,225,2,1,-137392.29236304457,-4795764.735092988,4192851.554940312,2.22089,2.91401,-0.24687,-108.647,16.7274,18.1866,-0.224417,-7.45652,6.71005,-0.0457679,0.00407276,-0.00704801,4,0,41.34166681952532,-91.64099916206676,9266.259021280714,-71.93450651771346,1.004931779336444,-5.352943486816006,189.441,9163.148997757502,11279.40419535643,150,True,14.650477819434832,False,161.7699594171439,179.3041391372255,False,17.82361247392735,True,False
2,1970-07-23 10:13:38.838192205,2025-09-11,2025-09-26 14:44:43.819,HH,C,1289621370,JASSM,3,102,76,2,2,1,225,9,2,0,1,26,0,0,0,0,-160743.06335623687,-4786378.532197799,4203006.829557896,-2.36549,-0.396918,0.382536,73.75,-30.75,-32.0,0.0,0.0,0.0,0.0,0.0,0.0,2,0,41.46173870445806,-91.9234665502414,9999.997369338991,119.87060725575562,-0.0036681074541837,0.0022934794323056,,9163.148997757502,11279.40419535643,150,2,2025-09-11,2025-09-26 14:44:43.676,HH,C,2871623956,AMBUSH51,1,1,48,2,1,1,225,2,1,0,0,9,1,225,2,1,-137471.99211763256,-4795752.586568437,4192864.428060223,2.19051,2.91799,-0.243643,-108.794,16.3655,17.5194,-0.180581,-7.2445,6.57444,-0.0323439,-0.00673801,-0.00519837,4,0,41.34181242569007,-91.64195472373927,9269.868641614248,-72.22113170061864,1.043608413112017,-7.043093352042068,189.208,9163.148997757502,11279.40419535643,150,True,14.560146393539497,False,161.38742835724753,179.33041265166935,False,18.261320070105256,True,False
2,1970-07-23 10:13:38.850217756,2025-09-11,2025-09-26 14:44:45.021,HH,C,1290993372,JASSM,3,102,76,2,2,1,225,9,2,0,1,26,0,0,0,0,-160658.26892264312,-4786414.086885299,4202969.831511021,-2.36549,-0.396918,0.382536,73.75,-30.75,-32.0,0.0,0.0,0.0,0.0,0.0,0.0,2,0,41.46129438945223,-91.92243838393394,9999.998621689843,119.87128802208191,-0.00277867125979,0.0022919422204087,,9163.148997757502,11279.40419535643,150,2,2025-09-11,2025-09-26 14:44:44.943,HH,C,2873135088,AMBUSH51,1,1,48,2,1,1,225,2,1,0,0,9,1,225,2,1,-137608.9822544609,-4795732.590883154,4192885.428257715,2.13988,2.92774,-0.225546,-109.08,15.5701,16.0269,0.147111,-7.13065,6.25131,-0.024369,0.00750783,-0.0157511,4,0,41.3420498048471,-91.64359687535516,9275.82002712156,-73.35368246563819,0.7447382649316641,-9.831669175150598,189.331,9163.148997757502,11279.40419535643,150,True,14.435646120815145,False,160.53866686934563,179.37091425517417,False,19.211371329543322,True,False
2,1970-07-23 10:13:38.860251964,2025-09-11,2025-09-26 14:44:46.025,HH,C,1292246072,JASSM,3,102,76,2,2,1,225,9,2,0,1,26,0,0,0,0,-160580.84802420562,-4786446.549775924,4202936.048307896,-2.36549,-0.396918,0.382536,73.75,-30.75,-32.0,0.0,0.0,0.0,0.0,0.0,0.0,2,0,41.46088868692673,-91.92149963695412,9999.998808629633,119.87190957711825,-0.0019665703844636,0.0022905246721559,,9163.148997757502,11279.40419535643,150,2,2025-09-11,2025-09-26 14:44:46.176,HH,C,2874606454,AMBUSH51,1,1,48,2,1,1,225,2,1,0,0,9,1,225,2,1,-137744.50727036284,-4795713.748997715,4192904.197446203,2.10979,2.93884,-0.20868,-109.684,14.6602,14.3082,-0.186521,-7.26973,6.60592,-0.0145361,0.0179108,-0.0156762,4,0,41.34226547884138,-91.645221152559,9279.68371635292,-74.48729360082991,0.5535308956304145,-11.431771264757296,189.294,9163.148997757502,11279.40419535643,150,False,14.317162853681308,False,159.53323816542112,179.39914056873909,False,20.32317853208953,True,False
2,1970-07-23 10:13:38.871270304,2025-09-11,2025-09-26 14:44:47.127,HH,C,1293498772,JASSM,3,102,76,2,2,1,225,9,2,0,1,26,0,0,0,0,-160503.42663748687,-4786479.010713424,4202902.265104771,-2.36549,-0.396918,0.382632,73.75,-30.75,-32.0,0.0,0.0,0.0,0.0,0.0,0.0,2,0,41.46048298844112,-91.9205608966206,9999.9983640392,119.87637894053478,-0.0050748445570862,0.0022889099766832,,9163.148997757502,11279.40419535643,150,2,2025-09-11,2025-09-26 14:44:47.209,HH,C,2875839220,AMBUSH51,1,1,48,2,1,1,225,2,1,0,0,9,1,225,2,1,-137857.1602350269,-4795699.132091774,4192917.884165284,2.11358,2.95203,-0.190965,-110.223,13.7218,12.8626,-0.134518,-7.18016,6.58418,0.0157199,-0.000109231,-0.0173262,4,0,41.34242558732912,-91.64657095562865,9281.326146763093,-75.73766808232024,0.4205643001532641,-11.07481859609758,189.636,9163.148997757502,11279.40419535643,150,False,14.211082688580198,False,158.626945516156,179.40990712244536,False,21.320719436471983,True,False
2,1970-07-23 10:13:38.881131280,2025-09-11,2025-09-26 14:44:48.113,HH,C,1294751472,JASSM,3,102,76,2,2,1,225,9,2,0,1,26,0,0,0,0,-160426.00573904935,-4786511.471650924,4202868.481901646,-2.36549,-0.396918,0.382632,73.75,-30.75,-32.0,0.0,0.0,0.0,0.0,0.0,0.0,2,0,41.46007728216906,-91.91962217382655,10000.002167792323,119.87700046964646,-0.0042627497766894,0.0022875566933312,,9163.148997757502,11279.40419535643,150,2,2025-09-11,2025-09-26 14:44:47.944,HH,C,2876714084,AMBUSH51,1,1,48,2,1,1,225,2,1,0,0,9,1,225,2,1,-137938.0552647274,-4795689.01600084,4192926.951094863,2.12236,2.96021,-0.181826,-110.674,13.191,11.8337,-0.121781,-7.1422,6.82267,0.0168268,0.00501527,-0.0221594,4,0,41.34253314608419,-91.64754010987518,9281.795704092086,-76.43552036297143,0.4114956914774656,-10.489918751482447,189.758,9163.148997757502,11279.40419535643,150,False,14.121437298519501,False,158.02489214247683,179.40858599674613,False,21.991759847224,True,False
2,1970-07-23 10:13:38.893740712,2025-09-11,2025-09-26 14:44:49.374,HH,C,1296123472,JASSM,3,102,76,2,2,1,225,9,2,0,1,26,0,0,0,0,-160341.21130545562,-4786547.022432174,4202831.479948521,-2.36549,-0.396918,0.382632,73.75,-30.75,-32.0,0.0,0.0,0.0,0.0,0.0,0.0,2,0,41.45963292959363,-91.91859406156816,10000.004210276296,119.87768117785616,-0.0033733127065622,0.002286075806181,,9163.148997757502,11279.40419535643,150,2,2025-09-11,2025-09-26 14:44:49.443,HH,C,2878503582,AMBUSH51,1,1,48,2,1,1,225,2,1,0,0,9,1,225,2,1,-138104.08719349065,-4795669.702773546,4192943.616493674,2.21034,2.97348,-0.167839,-111.292,12.1229,10.5345,-0.247378,-7.18629,6.80542,0.064331,0.00424545,-0.0157158,4,0,41.342732129728205,-91.64952874921676,9282.126094923178,-77.53330080647616,0.432499199768484,-5.324806427357231,189.991,9163.148997757502,11279.40419535643,150,True,13.984753431815442,False,157.12993925507317,179.3836197970495,False,23.02791575210345,True,False
2,1970-07-23 10:13:38.904172667,2025-09-11,2025-09-26 14:44:50.417,HH,C,1297495476,JASSM,3,102,76,2,2,1,225,9,2,0,1,26,0,0,0,0,-160256.41687186187,-4786582.571260299,4202794.476042271,-2.36549,-0.396918,0.382632,73.75,-30.75,-32.0,0.0,0.0,0.0,0.0,0.0,0.0,2,0,41.459188566253886,-91.9175659641276,10000.002258422111,119.87836187025664,-0.0024838753079525,0.002284593250264,,9163.148997757502,11279.40419535643,150,2,2025-09-11,2025-09-26 14:44:50.210,HH,C,2879418216,AMBUSH51,1,1,48,2,1,1,225,2,1,0,0,9,1,225,2,1,-138189.51756758342,-4795660.380589658,4192951.402418124,2.25289,2.97613,-0.16662,-111.562,11.704,10.3255,-0.133529,-7.30937,6.74747,0.0499291,0.00152404,-0.00464493,4,0,41.34282551325117,-91.6505517804073,9282.106458832444,-77.68630453555507,0.4982510442580504,-2.862831719243511,190.186,9163.148997757502,11279.40419535643,150,True,13.888863680361908,False,156.8908285031598,179.35670778575556,False,23.340044614353367,True,False
2,1970-07-23 10:13:38.915206532,2025-09-11,2025-09-26 14:44:51.520,HH,C,1298807828,JASSM,3,102,76,2,2,1,225,9,2,0,1,26,0,0,0,0,-160175.30847342435,-4786616.573213424,4202759.079557896,-2.36549,-0.396918,0.382632,73.75,-30.75,-32.0,0.0,0.0,0.0,0.0,0.0,0.0,2,0,41.45876351241391,-91.91658257209612,9999.998792976205,119.87901295806734,-0.0016331030848882,0.002283176210346,,9163.148997757502,11279.40419535643,150,2,2025-09-11,2025-09-26 14:44:51.376,HH,C,2880810048,AMBUSH51,1,1,48,2,1,1,225,2,1,0,0,9,1,225,2,1,-138320.11624961617,-4795646.274725336,4192962.978074148,2.29861,2.9771,-0.163954,-111.737,11.7647,10.0619,-0.0974987,-7.09059,6.61849,0.0324521,-0.00292011,0.0104227,4,0,41.34296518198754,-91.65211565908044,9281.732828254198,-77.83760835541057,0.4381012648531144,-0.2353580434287537,190.736,9163.148997757502,11279.40419535643,150,True,13.772911428317366,False,156.80082302522587,179.3014144205369,False,23.550543304932372,True,False
2,1970-07-23 10:13:38.926212549,2025-09-11,2025-09-26 14:44:52.621,HH,C,1300120178,JASSM,3,102,76,2,2,1,225,9,2,0,1,26,0,0,0,0,-160094.20056326812,-4786650.575166549,4202723.683073521,-2.36549,-0.396822,0.382632,73.75,-30.75,-32.0,0.0,0.0,0.0,0.0,0.0,0.0,2,0,41.45833845003876,-91.91559919874427,9999.999986120236,119.87602722143647,-0.0043519630376036,0.0002309656819958,,9163.148997757502,11279.40419535643,150,2,2025-09-11,2025-09-26 14:44:52.776,HH,C,2882480246,AMBUSH51,1,1,48,2,1,1,225,2,1,0,0,9,1,225,2,1,-138476.49130440896,-4795629.372721587,4192976.976140152,2.2933,2.97393,-0.170207,-111.93,11.7444,10.324,-0.0404286,-7.33884,6.83666,0.00229802,-0.00260803,0.0167873,4,0,41.34313339145846,-91.6539882148332,9281.565976679398,-77.45250386624858,0.5456415834083987,-0.5661997466936788,191.164,9163.148997757502,11279.40419535643,150,True,13.644181571524202,False,156.87822713461307,179.21595291520063,False,23.613445926963077,True,False
2,1970-07-23 10:13:38.937232675,2025-09-11,2025-09-26 14:44:53.723,HH,C,1301372878,JASSM,3,102,76,2,2,1,225,9,2,0,1,26,0,0,0,0,-160016.77966483062,-4786683.030244674,4202689.894011021,-2.36549,-0.396822,0.382632,73.75,-30.75,-32.0,0.0,0.0,0.0,0.0,0.0,0.0,2,0,41.45793269850327,-91.9146605401426,9999.998906277951,119.87664868170302,-0.0035398672618162,0.0002295557888191,,9163.148997757502,11279.40419535643,150,2,2025-09-11,2025-09-26 14:44:53.576,HH,C,2883434644,AMBUSH51,1,1,48,2,1,1,225,2,1,0,0,9,1,225,2,1,-138566.02939075875,-4795619.82694556,4192985.059019404,2.28574,2.97528,-0.170367,-112.073,11.6308,10.4375,-0.0533968,-7.34719,6.7338,-0.00620121,0.00944902,-0.00112456,4,0,41.34322936526787,-91.65506037187276,9281.94828089911,-77.4972398074107,0.6091525605161312,-0.9864760264411664,191.237,9163.148997757502,11279.40419535643,150,True,13.551051445810092,False,156.87191497954356,179.15820798587453,False,23.701276893423927,True,False
2,1970-07-23 10:13:38.947271285,2025-09-11,2025-09-26 14:44:54.727,HH,C,1302625576,JASSM,3,102,76,2,2,1,225,9,2,0,1,26,0,0,0,0,-159939.35827811187,-4786715.485322799,4202656.104948521,-2.3654,-0.396822,0.382632,73.75,-30.75,-32.0,0.0,0.0,0.0,0.0,0.0,0.0,2,0,41.45752693937732,-91.9137218874034,10000.001994434322,119.87727013308628,-0.002727767683229,0.0057196202187303,,9163.148997757502,11279.40419535643,150,2,2025-09-11,2025-09-26 14:44:54.709,HH,C,2884786710,AMBUSH51,1,1,48,2,1,1,225,2,1,0,0,9,1,225,2,1,-138693.5536223839,-4795606.489000594,4192996.578428405,2.27272,2.97643,-0.169103,-112.334,11.2625,10.5783,-0.195719,-7.35779,6.88881,-6.76193e-05,0.00406444,-0.00325717,4,0,41.343364557568464,-91.65658730332866,9283.150267971285,-77.59585965727194,0.6104889343062264,-1.722337901012027,191.628,9163.148997757502,11279.40419535643,150,True,13.439153589980164,False,156.78057259928445,179.06887727638147,False,23.908221621075015,True,False
2,1970-07-23 10:13:38.958147659,2025-09-11,2025-09-26 14:44:55.814,HH,C,1303937928,JASSM,3,102,76,2,2,1,225,9,2,0,1,26,0,0,0,0,-159858.24987967435,-4786749.483369674,4202620.706511021,-2.3654,-0.396822,0.382632,73.75,-30.75,-32.0,0.0,0.0,0.0,0.0,0.0,0.0,2,0,41.4571018626432,-91.9127385471313,10000.002741090442,119.87792116526334,-0.0018770013456354,0.0057181571984307,,9163.148997757502,11279.40419535643,150,2,2025-09-11,2025-09-26 14:44:55.810,HH,C,2886099008,AMBUSH51,1,1,48,2,1,1,225,2,1,0,0,9,1,225,2,1,-138817.19387449737,-4795593.844452361,4193007.81677876,2.27016,2.97872,-0.167675,-112.566,10.9733,10.587,-0.24502,-7.38951,6.90981,-0.0115733,0.000687637,-0.00905579,4,0,41.34349437797763,-91.65806763597531,9285.182043299226,-77.74408353345048,0.653115707291035,-1.8487924852987168,191.775,9163.148997757502,11279.40419535643,150,True,13.326963967500905,False,156.66919021691095,178.97440919100018,False,24.1359407354477,True,False
2,1970-07-23 10:13:38.972909016,2025-09-11,2025-09-26 14:44:57.290,HH,C,1305250278,JASSM,3,102,76,2,2,1,225,9,2,0,1,26,0,0,0,0,-159777.14196951812,-4786783.481416549,4202585.306120396,-2.3654,-0.396822,0.382728,73.75,-30.75,-32.0,0.0,0.0,0.0,0.0,0.0,0.0,2,0,41.45667676420175,-91.91175522553831,10000.003903832046,119.8824201385839,-0.0049464660680752,0.0057164798933138,,9163.148997757502,11279.40419535643,150,2,2025-09-11,2025-09-26 14:44:57.310,HH,C,2887888506,AMBUSH51,1,1,48,2,1,1,225,2,1,0,0,9,1,225,2,1,-138986.5341864433,-4795577.005656121,4193022.9208359113,2.26215,2.98027,-0.162599,-113.012,10.6788,10.3771,-0.136872,-7.22914,6.82468,0.0131754,-0.00291179,-0.00431411,4,0,41.34366735508766,-91.66009497416547,9288.533565108575,-78.02040037523966,0.5256186392550022,-2.295794763866631,192.166,9163.148997757502,11279.40419535643,150,True,13.192397269132565,False,156.46248696514,178.83551794769113,False,24.508239536574393,True,False
2,1970-07-23 10:13:38.980172646,2025-09-11,2025-09-26 14:44:58.017,HH,C,1306502978,JASSM,3,102,76,2,2,1,225,9,2,0,1,26,0,0,0,0,-159699.72058279935,-4786815.932588424,4202551.513151646,-2.3654,-0.396822,0.382728,73.75,-30.75,-32.0,0.0,0.0,0.0,0.0,0.0,0.0,2,0,41.45627097819656,-91.91081661057424,10000.001932893088,119.88304154956816,-0.004134365695565,0.0057151234099921,,9163.148997757502,11279.40419535643,150,2,2025-09-11,2025-09-26 14:44:58.011,HH,C,2888723606,AMBUSH51,1,1,48,2,1,1,225,2,1,0,0,9,1,225,2,1,-139065.69131574506,-4795569.230021182,4193029.849216497,2.28355,2.98118,-0.159182,-113.171,10.5978,10.3083,-0.215306,-7.17144,6.83653,0.0262228,-0.012133,-0.0127156,4,0,41.34374674067076,-91.66104261181256,9290.054727076606,-78.20103388760839,0.4337205480754218,-1.0624795668447713,192.288,9163.148997757502,11279.40419535643,150,True,13.104749854301822,False,156.39950312794076,178.76480135598678,False,24.65217272842837,True,False
2,1970-07-23 10:13:38.991189262,2025-09-11,2025-09-26 14:44:59.118,HH,C,1307815328,JASSM,3,102,76,2,2,1,225,9,2,0,1,26,0,0,0,0,-159618.61218436187,-4786849.926729049,4202516.110807896,-2.3654,-0.396822,0.382728,73.75,-30.75,-32.0,0.0,0.0,0.0,0.0,0.0,0.0,2,0,41.455845873450215,-91.90983330979972,9999.998240623676,119.8836925394734,-0.0032835985508055,0.0057137141610482,,9163.148997757502,11279.40419535643,150,2,2025-09-11,2025-09-26 14:44:59.009,HH,C,2889916604,AMBUSH51,1,1,48,2,1,1,225,2,1,0,0,9,1,225,2,1,-139178.00958291473,-4795558.234151886,4193039.779826236,2.3018,2.98205,-0.161178,-113.299,10.7057,10.29,-0.102564,-7.20315,6.72536,0.0285634,0.00543347,0.00592241,4,0,41.34385982254349,-91.66238723223042,9292.526498026316,-78.14955825774766,0.5476703435726125,-0.0083683629041114,192.398,9163.148997757502,11279.40419535643,150,True,12.998482995193985,False,156.42131160331706,178.66259947750953,False,24.747122412012306,True,False
2,1970-07-23 10:13:39.001229938,2025-09-11,2025-09-26 14:45:00.122,HH,C,1309068028,JASSM,3,102,76,2,2,1,225,9,2,0,1,26,0,0,0,0,-159541.19079764312,-4786882.375947799,4202482.317839146,-2.3654,-0.396822,0.382728,73.75,-30.75,-32.0,0.0,0.0,0.0,0.0,0.0,0.0,2,0,41.45544008333588,-91.90889471957136,10000.000086475746,119.88431392384032,-0.0024715043613896,0.0057123674026913,,9163.148997757502,11279.40419535643,150,2,2025-09-11,2025-09-26 14:45:00.110,HH,C,2891228902,AMBUSH51,1,1,48,2,1,1,225,2,1,0,0,9,1,225,2,1,-139302.1498616636,-4795546.247012369,4193050.6644995897,2.32598,2.98129,-0.168857,-113.217,10.7313,10.4733,-0.150802,-7.23659,6.78316,0.00366497,0.00493205,0.00376067,4,0,41.34398318534443,-91.66387332754664,9295.477433230735,-77.79444852929443,0.8107728421391878,1.374118403359935,192.63,9163.148997757502,11279.40419535643,150,True,12.88882706375832,False,156.5018022673021,178.54582164739352,False,24.794706531317303,True,False
2,1970-07-23 10:13:39.013248072,2025-09-11,2025-09-26 14:45:01.324,HH,C,1310440030,JASSM,3,102,76,2,2,1,225,9,2,0,1,26,0,0,0,0,-159456.39587576812,-4786917.915010299,4202445.304167271,-2.3654,-0.396726,0.382728,73.75,-30.75,-32.0,0.0,0.0,0.0,0.0,0.0,0.0,2,0,41.45499562537845,-91.90786675261025,10000.000509066433,119.88135793570828,-0.005151682904507,0.0036596528663061,,9163.148997757502,11279.40419535643,150,2,2025-09-11,2025-09-26 14:45:01.209,HH,C,2892541202,AMBUSH51,1,1,48,2,1,1,225,2,1,0,0,9,1,225,2,1,-139427.29371548502,-4795533.843718565,4193062.142110043,2.32468,2.97879,-0.172869,-113.223,10.7805,10.9644,-0.18108,-7.29479,6.84062,-0.00464701,0.00256225,0.00225016,4,0,41.344112835024674,-91.66537155281506,9298.768700142007,-77.53008175678212,0.8603961499089464,1.279371955892169,192.789,9163.148997757502,11279.40419535643,150,True,12.773941111909194,False,156.6953932077671,178.42470610032868,False,24.72892047023328,True,False
2,1970-07-23 10:13:39.024270673,2025-09-11,2025-09-26 14:45:02.427,HH,C,1311752382,JASSM,3,102,76,2,2,1,225,9,2,0,1,26,0,0,0,0,-159375.28747733062,-4786951.907197799,4202409.899870396,-2.3654,-0.396726,0.382728,73.75,-30.75,-32.0,0.0,0.0,0.0,0.0,0.0,0.0,2,0,41.45457049378084,-91.9068834911355,10000.001629922965,119.88200888322142,-0.0043009153984949,0.0036581878808689,,9163.148997757502,11279.40419535643,150,2,2025-09-11,2025-09-26 14:45:02.542,HH,C,2894131866,AMBUSH51,1,1,48,2,1,1,225,2,1,0,0,9,1,225,2,1,-139577.95457422422,-4795518.87387061,4193076.351502362,2.32219,2.97507,-0.179197,-113.177,11.0701,11.1908,-0.117938,-7.27007,6.5869,-0.0184414,-0.00102469,0.0070605,4,0,41.34427176258816,-91.66717528857905,9303.498024587563,-77.12125046846707,0.9478639628273232,1.1058578863427262,193.205,9163.148997757502,11279.40419535643,150,True,12.648811824782875,False,156.87919881779763,178.27624027275036,False,24.705954054413343,True,False
2,1970-07-23 10:13:39.034151241,2025-09-11,2025-09-26 14:45:03.415,HH,C,1313005080,JASSM,3,102,76,2,2,1,225,9,2,0,1,26,0,0,0,0,-159297.86560233062,-4786984.352510299,4202376.102995396,-2.3654,-0.396726,0.382728,73.75,-30.75,-32.0,0.0,0.0,0.0,0.0,0.0,0.0,2,0,41.45416467651949,-91.90594493339545,9999.99857704258,119.88263023044917,-0.003488816843178,0.0036567884806151,,9163.148997757502,11279.40419535643,150,2,2025-09-11,2025-09-26 14:45:03.309,HH,C,2895046498,AMBUSH51,1,1,48,2,1,1,225,2,1,0,0,9,1,225,2,1,-139664.67562322418,-4795510.0663497,4193084.825194634,2.31633,2.9722,-0.181582,-113.193,11.0602,11.5057,-0.14745,-7.23547,6.80634,-0.00312401,-0.00672968,0.00389175,4,0,41.34436635435074,-91.66821359671872,9306.394542887208,-76.9119669015961,0.9195639510013336,0.74397948220891,193.278,9163.148997757502,11279.40419535643,150,True,12.557418247239905,False,156.98767788225237,178.18666718010755,False,24.689388990097477,True,False
2,1970-07-23 10:13:39.046150565,2025-09-11,2025-09-26 14:45:04.615,HH,C,1314377084,JASSM,3,102,76,2,2,1,225,9,2,0,1,26,0,0,0,0,-159213.07068045562,-4787019.887666549,4202339.087370396,-2.3654,-0.396726,0.382728,73.75,-30.75,-32.0,0.0,0.0,0.0,0.0,0.0,0.0,2,0,41.4537202021919,-91.90491700826156,9999.999642649193,119.88331073524743,-0.0025993796693241,0.0036552545425617,,9163.148997757502,11279.40419535643,150,2,2025-09-11,2025-09-26 14:45:04.476,HH,C,2896438330,AMBUSH51,1,1,48,2,1,1,225,2,1,0,0,9,1,225,2,1,-139796.15673114118,-4795496.621674009,4193097.885672471,2.31034,2.96933,-0.181891,-113.314,11.2259,11.7113,-0.113429,-7.22064,6.53892,-0.00457003,-0.00528991,0.00346731,4,0,41.34451173341586,-91.66978785244682,9311.030937433325,-76.79181188844305,0.8125048930422701,0.373149158194663,193.473,9163.148997757502,11279.40419535643,150,True,12.43933071451743,False,157.10960038500482,178.05077455263776,False,24.710914716407412,True,False
2,1970-07-23 10:13:39.056191046,2025-09-11,2025-09-26 14:45:05.619,HH,C,1315629782,JASSM,3,102,76,2,2,1,225,9,2,0,1,26,0,0,0,0,-159135.64880545562,-4787052.332979049,4202305.288542271,-2.3654,-0.396726,0.382728,73.75,-30.75,-32.0,0.0,0.0,0.0,0.0,0.0,0.0,2,0,41.453314355653,-91.90397847503483,10000.001164683325,119.88393205576644,-0.0017872744298834,0.0036538436498673,,9163.148997757502,11279.40419535643,150,2,2025-09-11,2025-09-26 14:45:05.543,HH,C,2897710862,AMBUSH51,1,1,48,2,1,1,225,2,1,0,0,9,1,225,2,1,-139917.86101315907,-4795484.085128128,4193110.135731925,2.30003,2.97129,-0.181949,-113.406,11.3541,11.8143,-0.153751,-7.38804,6.75279,-0.0148752,0.00113913,0.000123795,4,0,41.34464791349672,-91.67124508535365,9315.453493950932,-76.86416383316609,0.8978779214001512,-0.198221519442715,193.4,9163.148997757502,11279.40419535643,150,True,12.330712136869806,False,157.18381326896267,177.9221894410921,False,24.772081271308135,True,False
2,1970-07-23 10:13:39.068212550,2025-09-11,2025-09-26 14:45:06.821,HH,C,1317001786,JASSM,3,102,76,2,2,1,225,9,2,0,1,26,0,0,0,0,-159050.85388358062,-4787087.866182174,4202268.270964146,-2.3654,-0.396726,0.382824,73.75,-30.75,-32.0,0.0,0.0,0.0,0.0,0.0,0.0,2,0,41.45286986214485,-91.9029505775253,10000.002844880357,119.88846063104016,-0.0048179321549848,0.003652116065149,,9163.148997757502,11279.40419535643,150,2,2025-09-11,2025-09-26 14:45:06.942,HH,C,2899381062,AMBUSH51,1,1,48,2,1,1,225,2,1,0,0,9,1,225,2,1,-140076.57095604436,-4795467.64022588,4193126.32631173,2.28334,2.96557,-0.182893,-113.494,11.5517,11.719,0.0392061,-7.02838,6.44058,-0.0105039,-0.011565,-0.00387927,4,0,41.344827503979154,-91.6731454494094,9321.4625100035,-76.6095623622877,0.6961490888381973,-1.2103587083103573,193.742,9163.148997757502,11279.40419535643,150,True,12.199262532700383,False,157.21102084452139,177.7521460367007,False,24.925612513116864,True,False
2,1970-07-23 10:13:39.079209559,2025-09-11,2025-09-26 14:45:07.920,HH,C,1318314136,JASSM,3,102,76,2,2,1,225,9,2,0,1,26,0,0,0,0,-158969.74548514312,-4787121.852510299,4202232.860807896,-2.3654,-0.396726,0.382824,73.75,-30.75,-32.0,0.0,0.0,0.0,0.0,0.0,0.0,2,0,41.45244468373999,-91.90196738258123,9999.99993151503,119.88911150715528,-0.003967163442908,0.0036507031495664,,9163.148997757502,11279.40419535643,150,2,2025-09-11,2025-09-26 14:45:08.009,HH,C,2900653594,AMBUSH51,1,1,48,2,1,1,225,2,1,0,0,9,1,225,2,1,-140196.91827650892,-4795455.095578259,4193138.150090452,2.27313,2.9615,-0.179331,-113.651,11.8231,11.2689,-0.144653,-6.60939,6.1013,-0.0110864,-0.0159093,0.00298877,4,0,41.34496104503301,-91.67458649870107,9324.8614578765,-76.6082443511962,0.3900493811242858,-1.83707472697549,193.742,9163.148997757502,11279.40419535643,150,True,12.089188935747478,False,157.129949141317,177.6171746678435,False,25.15387949268852,True,False
2,1970-07-23 10:13:39.090232713,2025-09-11,2025-09-26 14:45:09.023,HH,C,1319626488,JASSM,3,102,76,2,2,1,225,9,2,0,1,26,0,0,0,0,-158888.63708670562,-4787155.838838424,4202197.450651646,-2.3654,-0.396726,0.382824,73.75,-30.75,-32.0,0.0,0.0,0.0,0.0,0.0,0.0,2,0,41.4520194969008,-91.900984200477,10000.001636577888,119.889762369281,-0.0031163946677179,0.0036492901973437,,9163.148997757502,11279.40419535643,150,2,2025-09-11,2025-09-26 14:45:09.142,HH,C,2902005658,AMBUSH51,1,1,48,2,1,1,225,2,1,0,0,9,1,225,2,1,-140326.48567095728,-4795440.8866520375,4193150.1327923634,2.26602,2.95562,-0.173499,-113.854,12.5762,10.371,-0.0831348,-6.5241,6.07868,-0.0103686,-0.00605349,-0.0129257,4,0,41.34510392900575,-91.67613820166956,9325.179179756316,-76.6346753436101,-0.0790347205539406,-2.303317436625772,194.011,9163.148997757502,11279.40419535643,150,True,11.97468524767831,False,157.03815466746732,177.4683698749707,False,25.4146625139682,True,False
2,1970-07-23 10:13:39.101355823,2025-09-11,2025-09-26 14:45:10.135,HH,C,1320879188,JASSM,3,102,76,2,2,1,225,9,2,0,1,26,0,0,0,0,-158811.21521170562,-4787188.278291549,4202163.647917271,-2.3654,-0.396726,0.382824,73.75,-30.75,-32.0,0.0,0.0,0.0,0.0,0.0,0.0,2,0,41.45161362669844,-91.90004571860275,9999.997908412226,119.89038363493496,-0.0023042948624899,0.0036479402432029,,9163.148997757502,11279.40419535643,150,2,2025-09-11,2025-09-26 14:45:10.209,HH,C,2903278190,AMBUSH51,1,1,48,2,1,1,225,2,1,0,0,9,1,225,2,1,-140447.27352253222,-4795427.028083962,4193160.4567388296,2.25946,2.9527,-0.167046,-114.153,13.1157,9.60783,-0.0757301,-6.67551,6.14916,-0.00144913,0.00396873,-0.000868648,4,0,41.34523503029414,-91.67758498076762,9322.140170192077,-76.79935098836405,-0.4480632733408245,-2.706787829538829,194.427,9163.148997757502,11279.40419535643,150,True,11.866940666783046,False,156.90883320297118,177.32523368153667,False,25.70151672806413,True,False
2,1970-07-23 10:13:39.114915583,2025-09-11,2025-09-26 14:45:11.491,HH,C,1322251190,JASSM,3,102,76,2,2,1,225,9,2,0,1,26,0,0,0,0,-158726.41931326812,-4787223.807588424,4202126.626432896,-2.3654,-0.39663,0.382824,73.75,-30.75,-32.0,0.0,0.0,0.0,0.0,0.0,0.0,2,0,41.4511690950238,-91.89901786466264,10000.00073817546,119.88742778953127,-0.0049844637992968,0.0015947372843511,,9163.148997757502,11279.40419535643,150,2,2025-09-11,2025-09-26 14:45:11.342,HH,C,2904630256,AMBUSH51,1,1,48,2,1,1,225,2,1,0,0,9,1,225,2,1,-140577.5684373009,-4795411.71213885,4193170.724899917,2.26279,2.9529,-0.161938,-114.529,13.4458,8.92474,-0.166236,-6.9342,6.46029,0.0126802,0.00349436,-0.000916502,4,0,41.34537274128108,-91.67914576933386,9316.085968019775,-77.02463252288507,-0.6352784748379577,-2.512018878764692,195.038,9163.148997757502,11279.40419535643,150,True,11.750113824506075,False,156.7316102388038,177.16594131392796,False,26.04853378037095,True,False
2,1970-07-23 10:13:39.123190107,2025-09-11,2025-09-26 14:45:12.319,HH,C,1323623194,JASSM,3,102,76,2,2,1,225,9,2,0,1,26,0,0,0,0,-158641.62439139312,-4787259.334932174,4202089.602995396,-2.3654,-0.39663,0.382824,73.75,-30.75,-32.0,0.0,0.0,0.0,0.0,0.0,0.0,2,0,41.45072455239356,-91.89799003720536,9999.999653264067,119.88810818942908,-0.0040950250925058,0.00159319984976,,9163.148997757502,11279.40419535643,150,2,2025-09-11,2025-09-26 14:45:12.509,HH,C,2906022088,AMBUSH51,1,1,48,2,1,1,225,2,1,0,0,9,1,225,2,1,-140710.6789194479,-4795395.910279695,4193180.592093156,2.26406,2.95414,-0.158266,-114.979,13.5048,8.49907,-0.228621,-7.08203,6.64754,-0.00585167,0.00120987,-0.00804254,4,0,41.34551011870352,-91.68074034727266,9308.178712115649,-77.2290874424071,-0.7228786980827885,-2.425254319909849,195.575,9163.148997757502,11279.40419535643,150,True,11.632116075786433,False,156.55988242264317,176.9987877621787,False,26.392850874933703,True,False
2,1970-07-23 10:13:39.134107590,2025-09-11,2025-09-26 14:45:13.410,HH,C,1324935530,JASSM,3,102,76,2,2,1,225,9,2,0,1,26,0,0,0,0,-158560.51599295562,-4787293.315400924,4202054.188932896,-2.3654,-0.39663,0.382824,73.75,-30.75,-32.0,0.0,0.0,0.0,0.0,0.0,0.0,2,0,41.45029933997567,-91.89700690936604,9999.997157505875,119.88875899351542,-0.0032442619183136,0.0015917392915605,,9163.148997757502,11279.40419535643,150,2,2025-09-11,2025-09-26 14:45:13.309,HH,C,2906976486,AMBUSH51,1,1,48,2,1,1,225,2,1,0,0,9,1,225,2,1,-140802.8241290368,-4795384.872224922,4193187.265802974,2.26811,2.95148,-0.156817,-115.311,13.5933,8.29568,-0.0865562,-7.01735,6.38905,-0.00681915,-0.00356926,-0.00782616,4,0,41.34560473525253,-91.68184422703104,9302.12607978721,-77.19025382713131,-0.8894658242343112,-2.217426281974378,196.064,9163.148997757502,11279.40419535643,150,True,11.536437354330467,False,156.48915649589193,176.877075184333,False,26.588505318352915,True,False
2,1970-07-23 10:13:39.145167445,2025-09-11,2025-09-26 14:45:14.516,HH,C,1326188244,JASSM,3,102,76,2,2,1,225,9,2,0,1,26,0,0,0,0,-158483.09314139312,-4787325.752900924,4202020.384245396,-2.3654,-0.39663,0.382824,73.75,-30.75,-32.0,0.0,0.0,0.0,0.0,0.0,0.0,2,0,41.4498934358541,-91.89606846617193,10000.002142208452,119.88938021245144,-0.0024321541990766,0.0015903405549898,,9163.148997757502,11279.40419535643,150,2,2025-09-11,2025-09-26 14:45:14.442,HH,C,2908328552,AMBUSH51,1,1,48,2,1,1,225,2,1,0,0,9,1,225,2,1,-140934.45819856983,-4795369.049108792,4193196.5210232544,2.27066,2.95232,-0.152083,-115.733,13.6998,8.05519,-0.00363831,-7.12431,6.56856,0.0141928,-0.00378564,-0.0055375,4,0,41.34573832474562,-91.68342120066356,9292.749005797454,-77.42425863670209,-1.0351464044321803,-2.060055073753845,196.516,9163.148997757502,11279.40419535643,150,True,11.424031402052602,False,156.40434715762035,176.7056599465668,False,26.848646952911867,True,False
