Subject_cm,Timestamp,SampleDate_cm,SampleTime_cm,Configuration_cm,Scenario_cm,DisTime_cm,MarkingTxt_cm,Application_cm,EntId_cm,Site_cm,ExerciseId_cm,ForceId_cm,Category_cm,Country_cm,Domain_cm,Kind_cm,Extra_cm,Specific_cm,Subcategory_cm,AltCategory_cm,AltCountry_cm,AltDomain_cm,AltKind_cm,ECEF_X_cm,ECEF_Y_cm,ECEF_Z_cm,OriPhi_cm,OriPsi_cm,OriTheta_cm,LinVelX_cm,LinVelY_cm,LinVelZ_cm,LinAccX_cm,LinAccY_cm,LinAccZ_cm,AngVelX_cm,AngVelY_cm,AngVelZ_cm,DrAlg_cm,Appearance_cm,Latitude_cm,Longitude_cm,Altitude_cm,Heading_cm,Pitch_cm,Roll_cm,CalibratedAirspeed_cm,CM_Altitude_Lead_cm,CM_Altitude_Wing_cm,CM_Airspeed_cm,Subject_ac,SampleDate_ac,SampleTime_ac,Configuration_ac,Scenario_ac,DisTime_ac,MarkingTxt_ac,Application_ac,EntId_ac,Site_ac,ExerciseId_ac,ForceId_ac,Category_ac,Country_ac,Domain_ac,Kind_ac,Extra_ac,Specific_ac,Subcategory_ac,AltCategory_ac,AltCountry_ac,AltDomain_ac,AltKind_ac,ECEF_X_ac,ECEF_Y_ac,ECEF_Z_ac,OriPhi_ac,OriPsi_ac,OriTheta_ac,LinVelX_ac,LinVelY_ac,LinVelZ_ac,LinAccX_ac,LinAccY_ac,LinAccZ_ac,AngVelX_ac,AngVelY_ac,AngVelZ_ac,DrAlg_ac,Appearance_ac,Latitude_ac,Longitude_ac,Altitude_ac,Heading_ac,Pitch_ac,Roll_ac,CalibratedAirspeed_ac,CM_Altitude_Lead_ac,CM_Altitude_Wing_ac,CM_Airspeed_ac,Bank_Angle_Condition,distance_nm,Distance_Condition,angle_between_vel,angle_between_pos,Cone_Condition,angle_between_pos_nose,Nose_Cone_Condition,Intercept_Criteria
2,1970-07-23 11:43:00.606407512,2025-09-17,2025-09-26 19:41:00.640,HA,C,2117709594,JASSM,3,112,76,2,2,1,225,9,2,0,1,26,0,0,0,0,-155699.77185233062,-4777942.317354049,4214092.753386021,-2.71093,-1.01118,0.751842,34.875,-55.5,-61.25,0.0,0.0,0.0,0.0,0.0,0.0,2,0,41.58772206702814,-91.86644865604848,12992.124745282952,155.93877392104443,-0.0029019541952634,-0.0006586084020287,,11984.602822301664,13940.560558617632,150,2,2025-09-17,2025-09-26 19:41:00.648,HA,C,1928734120,HAWK11,1,1,73,2,1,1,225,2,1,0,0,12,1,225,2,1,-144057.54333670562,-4791775.934541549,4199311.792448521,2.42369,3.03134,-0.109871,-113.5,11.625,10.125,-0.25,-7.625,6.39062,0.0,0.0,0.0175781,4,0,41.40784481744678,-91.72199285623476,13941.27223627182,-82.24598367109037,0.7333697172785778,7.256215213375455,179.664,11984.602822301664,13940.560558617632,150,True,12.589910275105568,False,120.55401014132806,172.92598680758934,False,52.4067602497416,False,False
2,1970-07-23 11:43:00.616285948,2025-09-17,2025-09-26 19:41:01.628,HA,C,2118843080,JASSM,3,112,76,2,2,1,225,9,2,0,1,26,0,0,0,0,-155666.63903983062,-4777995.221650924,4214034.386198521,-2.71093,-1.01118,0.751842,34.875,-55.5,-61.25,0.0,0.0,0.0,0.0,0.0,0.0,2,0,41.587019886493,-91.8660311105668,12992.12329986599,155.93905107165398,-0.0021334569319733,-0.0006597293243051,,11984.602822301664,13940.560558617632,150,2,2025-09-17,2025-09-26 19:41:01.646,HA,C,1929927118,HAWK11,1,1,73,2,1,1,225,2,1,0,0,12,1,225,2,1,-144170.67419608062,-4791763.738252486,4199322.571745396,2.39263,3.01868,-0.126553,-112.875,12.375,11.125,0.0,-7.65625,6.57812,0.00976562,0.00390625,0.0234375,4,0,41.407969875412746,-91.7233487353274,13943.034111681256,-81.05403945878568,0.8314700439875605,5.407223888822651,179.078,11984.602822301664,13940.560558617632,150,True,12.506490943392324,False,121.21586374695539,173.12082406436204,False,51.94191268320814,False,False
2,1970-07-23 11:43:00.626332440,2025-09-17,2025-09-26 19:41:02.633,HA,C,2120095262,JASSM,3,112,76,2,2,1,225,9,2,0,1,26,0,0,0,0,-155630.03650076812,-4778053.665010299,4213969.909636021,-2.71083,-1.01118,0.751842,34.875,-55.5,-61.25,0.0,0.0,0.0,0.0,0.0,0.0,2,0,41.586244197273366,-91.8655698499609,12992.129610432185,155.9393572342121,-0.0012845057466252,0.0048441754227626,,11984.602822301664,13940.560558617632,150,2,2025-09-17,2025-09-26 19:41:02.538,HA,C,1930881518,HAWK11,1,1,73,2,1,1,225,2,1,0,0,12,1,225,2,1,-144260.50818045562,-4791753.573213424,4199331.987761021,2.43222,3.01485,-0.133169,-112.25,13.0,12.0,0.0,-7.48438,6.375,0.0253906,0.0,0.0,4,0,41.40807780634345,-91.72442557647976,13945.115148924198,-80.626751928905,0.9216840265921,7.65401429872055,178.406,11984.602822301664,13940.560558617632,150,True,12.425689920843382,False,121.79492375529773,173.26831686187234,False,51.5125063473133,False,False
2,1970-07-23 11:43:00.636367851,2025-09-17,2025-09-26 19:41:03.636,HA,C,2121229978,JASSM,3,112,76,2,2,1,225,9,2,0,1,26,0,0,0,0,-155596.86853201812,-4778106.623994674,4213911.476042271,-2.71083,-1.01118,0.751842,34.875,-55.5,-61.25,0.0,0.0,0.0,0.0,0.0,0.0,2,0,41.58554124682547,-91.8651518810672,12992.122794415704,155.93963465776895,-0.0005151734202097,0.0048430441410355,,11984.602822301664,13940.560558617632,150,2,2025-09-17,2025-09-26 19:41:03.646,HA,C,1932432416,HAWK11,1,1,73,2,1,1,225,2,1,0,0,12,1,225,2,1,-144405.70739920562,-4791735.622041549,4199348.368620396,2.42944,3.00229,-0.147646,-111.375,14.25,13.25,-0.078125,-7.48438,6.375,-0.0332031,0.0,0.0214844,4,0,41.40826912442884,-91.72616663622728,13947.266727789214,-79.53447551594833,0.9436145598360924,7.411845975274677,176.927,11984.602822301664,13940.560558617632,150,True,12.330298312341537,False,122.7471991160748,173.52765180233612,False,50.820771582390854,False,False
2,1970-07-23 11:43:00.646404225,2025-09-17,2025-09-26 19:41:04.640,HA,C,2122423382,JASSM,3,112,76,2,2,1,225,9,2,0,1,26,0,0,0,0,-155561.98376639312,-4778162.321260299,4213850.022917271,-2.71083,-1.01118,0.751842,34.875,-55.5,-61.25,0.0,0.0,0.0,0.0,0.0,0.0,2,0,41.584801960695046,-91.86471228873448,12992.123506465,155.93992642955823,0.0002939330361052,0.0048418744063233,,11984.602822301664,13940.560558617632,150,2,2025-09-17,2025-09-26 19:41:04.538,HA,C,1933307282,HAWK11,1,1,73,2,1,1,225,2,1,0,0,12,1,225,2,1,-144487.00036795562,-4791724.821260299,4199358.302214146,2.41314,2.98733,-0.157521,-110.75,15.125,13.75,-0.1875,-7.26562,6.15625,-0.0546875,0.0,0.0117188,4,0,41.40838583583557,-91.72714168135624,13948.284927007808,-78.54851337710184,0.6908025495069695,6.361854996351087,176.499,11984.602822301664,13940.560558617632,150,True,12.253948981861441,False,123.28020539705997,173.66144585054744,False,50.420277633405675,False,False
2,1970-07-23 11:43:00.656286359,2025-09-17,2025-09-26 19:41:05.628,HA,C,2123614480,JASSM,3,112,76,2,2,1,225,9,2,0,1,26,0,0,0,0,-155527.16736014312,-4778217.911104049,4213788.686979771,-2.71083,-1.01118,0.751842,34.875,-55.5,-61.25,0.0,0.0,0.0,0.0,0.0,0.0,2,0,41.5840640894377,-91.8642735671447,12992.12555154922,155.94021761916022,0.0011014835549601,0.0048406943424551,,11984.602822301664,13940.560558617632,150,2,2025-09-17,2025-09-26 19:41:05.646,HA,C,1934778646,HAWK11,1,1,73,2,1,1,225,2,1,0,0,12,1,225,2,1,-144623.96521170562,-4791705.170869674,4199375.747526646,2.33654,2.98033,-0.157521,-110.125,16.25,14.25,0.0,-7.45312,6.28125,-0.0585938,0.0,0.00976562,4,0,41.40859588308143,-91.72878499832582,13947.97316192298,-78.28494191554732,0.3974220377012791,1.9124662406652184,175.9,11984.602822301664,13940.560558617632,150,True,12.157888859077028,False,123.89982000768848,173.90579399649906,False,50.04303551486905,False,False
2,1970-07-23 11:43:00.665348216,2025-09-17,2025-09-26 19:41:06.534,HA,C,2124748764,JASSM,3,112,76,2,2,1,225,9,2,0,1,26,0,0,0,0,-155494.01111014312,-4778270.846650924,4213730.276823521,-2.71083,-1.01118,0.751938,34.875,-55.5,-61.25,0.0,0.0,0.0,0.0,0.0,0.0,2,0,41.58336142937833,-91.863855775875,12992.124909138283,155.94278752375232,-0.0031195092599421,0.0048395563319902,,11984.602822301664,13940.560558617632,150,2,2025-09-17,2025-09-26 19:41:06.538,HA,C,1935852346,HAWK11,1,1,73,2,1,1,225,2,1,0,0,12,1,225,2,1,-144722.77380545562,-4791690.455049361,4199388.737761021,2.32187,2.97985,-0.162314,-109.625,16.5,14.5,0.03125,-7.375,6.375,0.0136719,-0.00195312,0.0136719,4,0,41.40875334314945,-91.72997071439116,13947.305659032669,-78.06335376536968,0.5618078234835903,1.0695266173784832,175.436,11984.602822301664,13940.560558617632,150,True,12.077295843253426,False,124.12624603846845,174.07809646312228,False,49.99018936539777,False,False
2,1970-07-23 11:43:00.676368511,2025-09-17,2025-09-26 19:41:07.636,HA,C,2126002036,JASSM,3,112,76,2,2,1,225,9,2,0,1,26,0,0,0,0,-155457.37732108062,-4778329.334932174,4213665.737761021,-2.71083,-1.01109,0.751938,34.875,-55.5,-61.25,0.0,0.0,0.0,0.0,0.0,0.0,2,0,41.5825850482137,-91.8633941755212,12992.124460759009,155.93944940925795,-0.0039443797369627,0.0010875683769187,,11984.602822301664,13940.560558617632,150,2,2025-09-17,2025-09-26 19:41:07.740,HA,C,1937323710,HAWK11,1,1,73,2,1,1,225,2,1,0,0,12,1,225,2,1,-144857.10388358062,-4791669.675752486,4199406.608854771,2.4421,2.96231,-0.154261,-109.25,17.625,14.625,-0.203125,-6.32812,5.5,0.183594,-0.00390625,0.0,4,0,41.408973412888834,-91.73158298145744,13944.96256688001,-77.74229723002068,-0.4831822963116913,7.799748397892436,174.703,11984.602822301664,13940.560558617632,150,True,11.979270913538315,False,124.58391872482727,174.3208659805663,False,49.77173021329264,False,False
2,1970-07-23 11:43:00.685427644,2025-09-17,2025-09-26 19:41:08.542,HA,C,2127135430,JASSM,3,112,76,2,2,1,225,9,2,0,1,26,0,0,0,0,-155424.24646170562,-4778382.229463424,4213607.370573521,-2.71083,-1.01109,0.751938,34.875,-55.5,-61.25,0.0,0.0,0.0,0.0,0.0,0.0,2,0,41.58188291387131,-91.86297672342585,12992.126730353692,155.93972646990755,-0.0031759429887789,0.0010864342513301,,11984.602822301664,13940.560558617632,150,2,2025-09-17,2025-09-26 19:41:08.444,HA,C,1938039510,HAWK11,1,1,73,2,1,1,225,2,1,0,0,12,1,225,2,1,-144922.34802420562,-4791658.853486861,4199415.019011021,2.55245,2.96193,-0.158288,-108.875,18.75,14.75,-0.203125,-6.64062,6.07812,0.185547,0.0117188,0.00585938,4,0,41.40908281285463,-91.73236632756168,13941.447590708947,-77.55713965978245,-0.3439290906160248,14.117646067776626,174.703,11984.602822301664,13940.560558617632,150,False,11.9103702355658,False,125.04111458445475,174.4300149632295,False,49.41930796293166,False,False
2,1970-07-23 11:43:00.695307483,2025-09-17,2025-09-26 19:41:09.530,HA,C,2128328476,JASSM,3,112,76,2,2,1,225,9,2,0,1,26,0,0,0,0,-155389.37243826812,-4778437.905244674,4213545.933073521,-2.71083,-1.01109,0.751938,34.875,-55.5,-61.25,0.0,0.0,0.0,0.0,0.0,0.0,2,0,41.581143850273065,-91.86253731775112,12992.130252274788,155.94001809687597,-0.0023670890574658,0.0010852460554721,,11984.602822301664,13940.560558617632,150,2,2025-09-17,2025-09-26 19:41:09.646,HA,C,1939431342,HAWK11,1,1,73,2,1,1,225,2,1,0,0,12,1,225,2,1,-145049.98669608062,-4791635.006807174,4199432.929167271,2.71332,2.92358,-0.195487,-108.5,22.0,16.875,-0.140625,-7.25,7.26562,0.115234,0.0292969,0.0566406,4,0,41.40932256513923,-91.73389978194837,13931.161124354358,-74.52596844375643,-0.5067828102366849,22.92594844398196,175.522,11984.602822301664,13940.560558617632,150,False,11.81579938174884,False,126.94595600849634,174.66305793901253,False,47.74233105808375,False,False
2,1970-07-23 11:43:00.708527859,2025-09-17,2025-09-26 19:41:10.852,HA,C,2129461844,JASSM,3,112,76,2,2,1,225,9,2,0,1,26,0,0,0,0,-155356.24353201812,-4778490.795869674,4213487.565886021,-2.71083,-1.01109,0.751938,34.875,-55.5,-61.25,0.0,0.0,0.0,0.0,0.0,0.0,2,0,41.580441735580045,-91.86211990913436,12992.130814108594,155.94029512078453,-0.0015986806584016,0.0010841042337777,,11984.602822301664,13940.560558617632,150,2,2025-09-17,2025-09-26 19:41:10.740,HA,C,1940862940,HAWK11,1,1,73,2,1,1,225,2,1,0,0,12,1,225,2,1,-145179.35388358062,-4791606.543916549,4199455.366667271,2.84678,2.87823,-0.239301,-107.625,26.25,21.0,-0.03125,-7.82812,8.0,0.046875,0.0351562,0.0371094,4,0,41.40961999971872,-91.73545556982036,13919.483352878557,-70.96116215302095,-0.6598156359235293,29.975543287945275,176.707,11984.602822301664,13940.560558617632,150,False,11.720329849940718,False,129.96034098601388,174.89702036481728,False,44.960210575751,False,False
2,1970-07-23 11:43:00.714383022,2025-09-17,2025-09-26 19:41:11.438,HA,C,2130593704,JASSM,3,112,76,2,2,1,225,9,2,0,1,26,0,0,0,0,-155323.15759451812,-4778543.614229049,4213429.272917271,-2.71083,-1.01109,0.751938,34.875,-55.5,-61.25,0.0,0.0,0.0,0.0,0.0,0.0,2,0,41.57974054183011,-91.86170305235548,12992.12290419444,155.94057177461772,-0.0008312800932651,0.0010829677501121,,11984.602822301664,13940.560558617632,150,2,2025-09-17,2025-09-26 19:41:11.538,HA,C,1941777572,HAWK11,1,1,73,2,1,1,225,2,1,0,0,12,1,225,2,1,-145262.02575858062,-4791585.370088424,4199472.745573521,2.88082,2.84975,-0.265475,-106.875,29.125,24.25,-0.203125,-8.07812,8.26562,0.0410156,0.0429688,0.0546875,4,0,41.40984833655545,-91.73645088264784,13911.282387992143,-68.78675296802066,-0.7784901708966478,31.49088943747495,177.391,11984.602822301664,13940.560558617632,150,False,11.640879770037522,False,132.1673151385984,175.03619098445438,False,42.89292780907819,False,False
2,1970-07-23 11:43:00.723283947,2025-09-17,2025-09-26 19:41:12.328,HA,C,2131668430,JASSM,3,112,76,2,2,1,225,9,2,0,1,26,0,0,0,0,-155291.74255545562,-4778593.766572799,4213373.925261021,-2.71083,-1.01109,0.751938,34.875,-55.5,-61.25,0.0,0.0,0.0,0.0,0.0,0.0,2,0,41.57907475926166,-91.86130725538152,12992.125390407184,155.9408344482203,-0.0001026353969457,0.0010818894836726,,11984.602822301664,13940.560558617632,150,2,2025-09-17,2025-09-26 19:41:12.240,HA,C,1942612672,HAWK11,1,1,73,2,1,1,225,2,1,0,0,12,1,225,2,1,-145336.53552420562,-4791563.951143111,4199490.917448521,2.92252,2.81351,-0.301715,-105.75,31.875,27.625,-0.03125,-8.53125,8.64062,0.0546875,0.0390625,0.0507812,4,0,41.41008494727666,-91.73734878222922,13903.59435438339,-65.90873659939102,-0.7757402431668288,33.26025451445143,178.907,11984.602822301664,13940.560558617632,150,False,11.565482130549785,False,134.4230065716623,175.1580824759664,False,40.76052084897388,False,False
2,1970-07-23 11:43:00.733346458,2025-09-17,2025-09-26 19:41:13.334,HA,C,2132800872,JASSM,3,112,76,2,2,1,225,9,2,0,1,26,0,0,0,0,-155258.64001639312,-4778646.610322799,4213315.604948521,-2.71083,-1.01109,0.751938,34.875,-55.5,-61.25,0.0,0.0,0.0,0.0,0.0,0.0,2,0,41.57837323002398,-91.86089020746029,12992.12621365298,155.94111122143477,0.0006651325035314,0.0010807600427703,,11984.602822301664,13940.560558617632,150,2,2025-09-17,2025-09-26 19:41:13.444,HA,C,1943964736,HAWK11,1,1,73,2,1,1,225,2,1,0,0,12,1,225,2,1,-145456.59411795562,-4791524.371064986,4199526.390104771,2.98532,2.77142,-0.346009,-103.5,36.875,34.125,-0.109375,-8.98438,9.20312,0.0351562,0.0507812,0.0410156,4,0,41.41053811969333,-91.7387974328634,13892.187642924677,-62.497363006635545,-0.6211942636305459,36.04903105543061,180.41,11984.602822301664,13940.560558617632,150,False,11.464559857188112,False,138.63511309416393,175.35774791537864,False,36.75229212050473,False,False
2,1970-07-23 11:43:00.742383377,2025-09-17,2025-09-26 19:41:14.238,HA,C,2133875886,JASSM,3,112,76,2,2,1,225,9,2,0,1,26,0,0,0,0,-155227.21618826812,-4778696.774385299,4213260.241667271,-2.71083,-1.01109,0.752034,34.875,-55.5,-61.25,0.0,0.0,0.0,0.0,0.0,0.0,2,0,41.57770727108842,-91.86049431735536,12992.129668181517,155.9436683140269,-0.0035989936116756,0.0010796419265364,,11984.602822301664,13940.560558617632,150,2,2025-09-17,2025-09-26 19:41:14.334,HA,C,1945157736,HAWK11,1,1,73,2,1,1,225,2,1,0,0,12,1,225,2,1,-145559.34021170562,-4791485.029268111,4199563.796354771,3.02549,2.72157,-0.390494,-100.75,41.375,40.125,-0.265625,-9.51562,9.625,0.0273438,0.0546875,0.0644531,4,0,41.41100603435481,-91.74003918962622,13884.278392196582,-58.8109108112028,-0.6685630341085635,37.28048332541471,181.155,11984.602822301664,13940.560558617632,150,False,11.369741017796477,False,142.55928233146253,175.51833322731287,False,32.99379320066455,False,False
2,1970-07-23 11:43:00.752935732,2025-09-17,2025-09-26 19:41:15.293,HA,C,2135069876,JASSM,3,112,76,2,2,1,225,9,2,0,1,26,0,0,0,0,-155192.31482108062,-4778752.489229049,4213198.745573521,-2.71083,-1.01109,0.752034,34.875,-55.5,-61.25,0.0,0.0,0.0,0.0,0.0,0.0,2,0,41.57696757522936,-91.86005462559586,12992.122795949574,155.94396010690153,-0.0027894663532247,0.001078466479023,,11984.602822301664,13940.560558617632,150,2,2025-09-17,2025-09-26 19:41:15.334,HA,C,1946350734,HAWK11,1,1,73,2,1,1,225,2,1,0,0,12,1,225,2,1,-145658.51794608062,-4791441.075166549,4199607.813932896,3.08742,2.6605,-0.448785,-96.875,45.875,46.875,-0.265625,-10.0156,10.2656,0.015625,0.0625,0.0449219,4,0,41.4115466356261,-91.74124000945362,13879.113267957586,-54.196277419546426,-0.4211068395570568,39.35856358618453,182.402,11984.602822301664,13940.560558617632,150,False,11.267215262527532,False,146.93600028561525,175.66067364030621,False,28.770415404200314,True,False
2,1970-07-23 11:43:00.761329113,2025-09-17,2025-09-26 19:41:16.132,HA,C,2136201864,JASSM,3,112,76,2,2,1,225,9,2,0,1,26,0,0,0,0,-155159.22497733062,-4778805.309541549,4213140.448698521,-2.71083,-1.01109,0.752034,34.875,-55.5,-61.25,0.0,0.0,0.0,0.0,0.0,0.0,2,0,41.57626633637405,-91.85963776595068,12992.129440789691,155.94423674375045,-0.0020220168172708,0.0010773779723023,,11984.602822301664,13940.560558617632,150,2,2025-09-17,2025-09-26 19:41:16.240,HA,C,1947384666,HAWK11,1,1,73,2,1,1,225,2,1,0,0,12,1,225,2,1,-145740.11950858062,-4791400.218721236,4199651.017057896,3.12117,2.6094,-0.504488,-92.625,49.5,53.0,-0.1875,-10.2969,10.5938,0.0136719,0.0605469,0.0605469,4,0,41.412066480693696,-91.74222974162656,13878.49114006094,-50.13077071863238,0.2254600087456294,39.94122957006338,182.854,11984.602822301664,13940.560558617632,150,False,11.172841410732811,False,150.9281488343033,175.76638114634247,False,24.902215380725067,True,False
2,1970-07-23 11:43:00.771363064,2025-09-17,2025-09-26 19:41:17.136,HA,C,2137336442,JASSM,3,112,76,2,2,1,225,9,2,0,1,26,0,0,0,0,-155126.05993826812,-4778858.250947799,4213082.011198521,-2.71083,-1.01109,0.752034,34.875,-55.5,-61.25,0.0,0.0,0.0,0.0,0.0,0.0,2,0,41.57556344119849,-91.85921996764506,12992.12472930869,155.94451399967056,-0.0012527671960403,0.0010762623208717,,11984.602822301664,13940.560558617632,150,2,2025-09-17,2025-09-26 19:41:17.146,HA,C,1948458366,HAWK11,1,1,73,2,1,1,225,2,1,0,0,12,1,225,2,1,-145822.64294608062,-4791353.166963424,4199702.489714146,-3.11379,2.54679,-0.550699,-87.625,53.25,59.125,-0.03125,-9.875,10.1562,0.0253906,0.0644531,0.0703125,4,0,41.4126788119909,-91.74323275599384,13880.653187740634,-46.05572212695619,0.2463043663294298,40.91428025673538,182.891,11984.602822301664,13940.560558617632,150,False,11.073221055403158,False,155.1178812934614,175.86263495414403,False,20.834511909587967,True,False
2,1970-07-23 11:43:00.781745203,2025-09-17,2025-09-26 19:41:18.174,HA,C,2138529482,JASSM,3,112,76,2,2,1,225,9,2,0,1,26,0,0,0,0,-155091.18591483062,-4778913.918916549,4213020.565886021,-2.71083,-1.01109,0.752034,34.875,-55.5,-61.25,0.0,0.0,0.0,0.0,0.0,0.0,2,0,41.57482435647332,-91.85878065067112,12992.12769932642,155.9448055314828,-0.0004439078136974,0.0010751018760015,,11984.602822301664,13940.560558617632,150,2,2025-09-17,2025-09-26 19:41:18.254,HA,C,1949492298,HAWK11,1,1,73,2,1,1,225,2,1,0,0,12,1,225,2,1,-145896.25622733062,-4791304.857393111,4199756.081511021,-3.06183,2.48361,-0.592596,-82.5,57.125,64.5,-0.1875,-10.1562,10.4062,0.0,0.0683594,0.0605469,4,0,41.41331453185648,-91.7441297951449,13883.659574342082,-42.17978618173304,0.2400660972683677,41.94869607239246,183.709,11984.602822301664,13940.560558617632,150,False,10.97225415394788,False,159.1128161643426,175.9343691674394,False,16.936508374688145,True,False
2,1970-07-23 11:43:00.791344458,2025-09-17,2025-09-26 19:41:19.134,HA,C,2139603224,JASSM,3,112,76,2,2,1,225,9,2,0,1,26,0,0,0,0,-155059.79919608062,-4778964.018525924,4212965.265104771,-2.71083,-1.01099,0.752034,34.875,-55.5,-61.25,0.0,0.0,0.0,0.0,0.0,0.0,2,0,41.5741591880482,-91.85838527339598,12992.130093604672,155.94141932523306,-0.0013926800714582,-0.0026819346288835,,11984.602822301664,13940.560558617632,150,2,2025-09-17,2025-09-26 19:41:19.240,HA,C,1951003430,HAWK11,1,1,73,2,1,1,225,2,1,0,0,12,1,225,2,1,-145995.21130545562,-4791228.100557174,4199842.835417271,-3.016,2.38572,-0.652229,-73.875,62.0,71.875,-0.25,-9.84375,10.0156,0.00195312,0.0449219,0.0585938,4,0,41.41433867355856,-91.74533997414544,13890.580074168449,-36.48791883608431,0.3488888480658771,41.3308266055081,183.465,11984.602822301664,13940.560558617632,150,False,10.848971590769889,False,164.9359211439052,176.01627376498766,False,11.278780446718239,True,False
2,1970-07-23 11:43:00.799346252,2025-09-17,2025-09-26 19:41:19.934,HA,C,2140734600,JASSM,3,112,76,2,2,1,225,9,2,0,1,26,0,0,0,0,-155026.72790701812,-4779016.807588424,4212906.991667271,-2.71074,-1.01099,0.752034,34.875,-55.5,-61.25,0.0,0.0,0.0,0.0,0.0,0.0,2,0,41.5734582834739,-91.85796868422372,12992.127600510892,155.94169576729067,-0.0006256127873591,0.0028083788156494,,11984.602822301664,13940.560558617632,150,2,2025-09-17,2025-09-26 19:41:19.834,HA,C,1951520396,HAWK11,1,1,73,2,1,1,225,2,1,0,0,12,1,225,2,1,-146026.87732108062,-4791199.116182174,4199875.104948521,-2.98714,2.34881,-0.66872,-70.75,63.875,74.25,0.0,-9.76562,10.0,0.0117188,0.0585938,0.0585938,4,0,41.41472312730242,-91.7457288542296,13891.705992399164,-34.57405479612621,0.2156532154647545,41.696139226188734,183.831,11984.602822301664,13940.560558617632,150,False,10.774527876415899,False,166.97103339167757,176.02300140877446,False,9.293118169651335,True,False
2,1970-07-23 11:43:00.808402406,2025-09-17,2025-09-26 19:41:20.840,HA,C,2141808342,JASSM,3,112,76,2,2,1,225,9,2,0,1,26,0,0,0,0,-154995.34118826812,-4779066.905244674,4212851.686979771,-2.71074,-1.01099,0.752034,34.875,-55.5,-61.25,0.0,0.0,0.0,0.0,0.0,0.0,2,0,41.572793097459225,-91.8575733243677,12992.123629437472,155.9419581183657,0.0001023656265023,0.0028072857259493,,11984.602822301664,13940.560558617632,150,2,2025-09-17,2025-09-26 19:41:20.740,HA,C,1952633860,HAWK11,1,1,73,2,1,1,225,2,1,0,0,12,1,225,2,1,-146089.05310233062,-4791136.387666549,4199946.239714146,-2.92521,2.26588,-0.707453,-63.5,67.625,78.5,-0.203125,-9.5625,9.84375,0.00195312,0.0566406,0.0488281,4,0,41.41556506587327,-91.74649454761992,13896.48488152512,-30.286342919847176,0.2014924158373248,42.24123378446048,183.795,11984.602822301664,13940.560558617632,150,False,10.670250942326494,False,171.28011397368584,176.04110087206504,False,5.172957433593973,True,False
2,1970-07-23 11:43:00.818303244,2025-09-17,2025-09-26 19:41:21.830,HA,C,2142942120,JASSM,3,112,76,2,2,1,225,9,2,0,1,26,0,0,0,0,-154962.19958670562,-4779119.805635299,4212793.288542271,-2.71074,-1.01099,0.75213,34.875,-55.5,-61.25,0.0,0.0,0.0,0.0,0.0,0.0,2,0,41.57209069754809,-91.85715586744276,12992.123823450793,155.94452839498277,-0.0041186432949017,0.0028060585249938,,11984.602822301664,13940.560558617632,150,2,2025-09-17,2025-09-26 19:41:21.944,HA,C,1954144992,HAWK11,1,1,73,2,1,1,225,2,1,0,0,12,1,225,2,1,-146162.93200858062,-4791046.122041549,4200048.505339146,-2.8463,2.14776,-0.744556,-53.75,71.75,83.5,-0.265625,-9.3125,9.40625,0.0,0.0488281,0.0585938,4,0,41.41677877511329,-91.74741012350935,13901.994026956798,-24.819204489394085,-0.2598597283661928,42.26276330928985,183.758,11984.602822301664,13940.560558617632,150,False,10.540673034793633,False,176.56721077019796,176.03426317191608,False,2.294464086696734,True,False
2,1970-07-23 11:43:00.827343762,2025-09-17,2025-09-26 19:41:22.734,HA,C,2144017294,JASSM,3,112,76,2,2,1,225,9,2,0,1,26,0,0,0,0,-154930.77087576812,-4779169.969697799,4212737.909636021,-2.71074,-1.01099,0.75213,34.875,-55.5,-61.25,0.0,0.0,0.0,0.0,0.0,0.0,2,0,41.57142462079359,-91.85675999558146,12992.1247836664,155.94479107880542,-0.0033896927575847,0.0028049938429034,,11984.602822301664,13940.560558617632,150,2,2025-09-17,2025-09-26 19:41:22.834,HA,C,1955298224,HAWK11,1,1,73,2,1,1,225,2,1,0,0,12,1,225,2,1,-146210.33630545562,-4790973.735322799,4200129.388151646,-2.7696,2.04671,-0.766511,-46.125,74.875,86.5,-0.421875,-9.26562,9.39062,0.00390625,0.0566406,0.0546875,4,0,41.41774662427791,-91.7480028945725,13903.085994622515,-20.45269807798593,-0.7745197443697063,42.645930107637554,184.003,11984.602822301664,13940.560558617632,150,False,10.433288319395187,False,178.4868034025604,175.99700248521668,False,5.241469408627477,True,False
2,1970-07-23 11:43:00.836402689,2025-09-17,2025-09-26 19:41:23.640,HA,C,2145149156,JASSM,3,112,76,2,2,1,225,9,2,0,1,26,0,0,0,0,-154897.68493826812,-4779222.778291549,4212679.612761021,-2.71074,-1.01099,0.75213,34.875,-55.5,-61.25,0.0,0.0,0.0,0.0,0.0,0.0,2,0,41.57072343849983,-91.85634325853724,12992.132635143726,155.94506760414595,-0.0026223213343034,0.0028038802019416,,11984.602822301664,13940.560558617632,150,2,2025-09-17,2025-09-26 19:41:23.746,HA,C,1956212858,HAWK11,1,1,73,2,1,1,225,2,1,0,0,12,1,225,2,1,-146242.55310233062,-4790913.429658736,4200196.466276646,-2.70843,1.96906,-0.785782,-39.25,77.375,88.5,-0.109375,-9.26562,9.46875,0.0,0.0585938,0.0527344,4,0,41.418552199710206,-91.74840981438513,13902.791610021906,-17.09166336748814,-0.8079996465380923,42.98622434525496,184.491,11984.602822301664,13940.560558617632,150,False,10.336119669188879,False,175.4854331574844,175.94303847674848,False,8.571478701983132,True,False
2,1970-07-23 11:43:00.845303767,2025-09-17,2025-09-26 19:41:24.530,HA,C,2146224386,JASSM,3,112,76,2,2,1,225,9,2,0,1,26,0,0,0,0,-154866.25427420562,-4779272.942354049,4212624.226042271,-2.71074,-1.01099,0.75213,34.875,-55.5,-61.25,0.0,0.0,0.0,0.0,0.0,0.0,2,0,41.57005730657417,-91.85594737998032,12992.123378151478,155.9453302853163,-0.0018933158101768,0.0028028101900187,,11984.602822301664,13940.560558617632,150,2,2025-09-17,2025-09-26 19:41:24.646,HA,C,1957405856,HAWK11,1,1,73,2,1,1,225,2,1,0,0,12,1,225,2,1,-146276.41638358062,-4790833.014619674,4200285.153776646,-2.6209,1.8541,-0.803231,-30.25,79.875,90.75,-0.09375,-9.39062,9.48438,0.0078125,0.0683594,0.0703125,4,0,41.41962293373542,-91.74884375303796,13900.077451942016,-12.380279717230229,-1.100696675500004,43.220839312062445,184.895,11984.602822301664,13940.560558617632,150,False,10.22664108357562,False,171.1366307508448,175.8538316994825,False,12.990649765868948,True,False
2,1970-07-23 11:43:00.855348403,2025-09-17,2025-09-26 19:41:25.534,HA,C,2147356724,JASSM,3,112,76,2,2,1,225,9,2,0,1,26,0,0,0,0,-154833.15466483062,-4779325.770479049,4212565.901823521,-2.71074,-1.01099,0.75213,34.875,-55.5,-61.25,0.0,0.0,0.0,0.0,0.0,0.0,2,0,41.56935582318397,-91.85553048920308,12992.12584532528,155.9456069051933,-0.0011256198569098,0.0028016920962705,,11984.602822301664,13940.560558617632,150,2,2025-09-17,2025-09-26 19:41:25.538,HA,C,1958320488,HAWK11,1,1,73,2,1,1,225,2,1,0,0,12,1,225,2,1,-146296.85778983062,-4790770.381807174,4200354.839323521,-2.54478,1.75852,-0.81416,-23.5,81.0,92.5,-0.15625,-9.67188,9.875,0.0078125,0.0644531,0.0507812,4,0,41.42046208575782,-91.74911084625651,13898.846502014052,-8.549913900941295,-1.231654450774739,43.54120175429345,185.579,11984.602822301664,13940.560558617632,150,False,10.13065845343027,False,167.90817743993907,175.76131069933555,False,16.306083844816396,True,False
2,1970-07-23 11:43:00.864403953,2025-09-17,2025-09-26 19:41:26.440,HA,C,2148431262,JASSM,3,112,76,2,2,1,225,9,2,0,1,26,0,0,0,0,-154801.74450858062,-4779375.903291549,4212510.552214146,-2.71074,-1.01099,0.75213,34.875,-55.5,-61.25,0.0,0.0,0.0,0.0,0.0,0.0,2,0,41.56869012063754,-91.855134885058,12992.1292829904,155.94586939718897,-0.0003970875412516,0.0028006222106455,,11984.602822301664,13940.560558617632,150,2,2025-09-17,2025-09-26 19:41:26.444,HA,C,1959433954,HAWK11,1,1,73,2,1,1,225,2,1,0,0,12,1,225,2,1,-146314.25427420562,-4790693.283174361,4200441.444792271,-2.4584,1.64213,-0.824802,-14.25,82.25,94.125,-0.25,-9.96875,10.0469,0.0,0.0664062,0.0585938,4,0,41.42150202849876,-91.74934684271652,13898.545618883862,-3.958208460791695,-1.1696212864997018,43.518276233971314,186.104,11984.602822301664,13940.560558617632,150,False,10.027092833218672,False,163.596944826035,175.6286472227459,False,20.741676210637127,True,False
2,1970-07-23 11:43:00.874442684,2025-09-17,2025-09-26 19:41:27.444,HA,C,2149624200,JASSM,3,112,76,2,2,1,225,9,2,0,1,26,0,0,0,0,-154766.87243826812,-4779431.555635299,4212449.102995396,-2.71074,-1.01099,0.75213,34.875,-55.5,-61.25,0.0,0.0,0.0,0.0,0.0,0.0,2,0,41.56795108599142,-91.85469569066431,12992.124314527911,155.94616080822323,0.0004117030109749,0.0027994494986715,,11984.602822301664,13940.560558617632,150,2,2025-09-17,2025-09-26 19:41:27.334,HA,C,1960587186,HAWK11,1,1,73,2,1,1,225,2,1,0,0,12,1,225,2,1,-146323.03161795562,-4790612.255830611,4200532.458464146,-2.36214,1.51366,-0.826336,-4.75,82.625,95.625,-0.15625,-10.0938,10.3906,0.00195312,0.0644531,0.0585938,4,0,41.42259665713775,-91.74948129169036,13897.512339722049,1.0330939551755671,-1.2215138370928793,43.51611333206904,186.874,11984.602822301664,13940.560558617632,150,False,9.918067718654177,False,159.23445214247968,175.45923746962364,False,25.274788080341896,True,False
2,1970-07-23 11:43:00.883345585,2025-09-17,2025-09-26 19:41:28.334,HA,C,2150757768,JASSM,3,112,76,2,2,1,225,9,2,0,1,26,0,0,0,0,-154733.73669608062,-4779484.440400924,4212390.712370396,-2.71074,-1.01099,0.75213,34.875,-55.5,-61.25,0.0,0.0,0.0,0.0,0.0,0.0,2,0,41.56724881974399,-91.85427837230648,12992.129584558035,155.9464377002885,0.0011802483933698,0.0027983248602755,,11984.602822301664,13940.560558617632,150,2,2025-09-17,2025-09-26 19:41:28.240,HA,C,1961780184,HAWK11,1,1,73,2,1,1,225,2,1,0,0,12,1,225,2,1,-146322.39880545562,-4790529.023408736,4200627.999479771,-2.26694,1.3801,-0.826145,5.375,82.125,96.625,-0.09375,-10.3594,10.5938,-0.00585938,0.0664062,0.0429688,4,0,41.42373666327191,-91.74950410741296,13900.185189828087,6.205273161210564,-0.8689719394323641,43.2454778667753,187.388,11984.602822301664,13940.560558617632,150,False,9.81154872848958,False,154.63424858211374,175.2535968078637,False,30.0843976031248,False,False
2,1970-07-23 11:43:00.902421730,2025-09-17,2025-09-26 19:41:30.242,HA,C,2152964876,JASSM,3,112,76,2,2,1,225,9,2,0,1,26,0,0,0,0,-154669.22009451812,-4779587.403291549,4212277.019011021,-2.71074,-1.01099,0.752226,34.875,-55.5,-61.375,0.0,0.0,0.0,0.0,0.0,0.0,2,0,41.56588147952365,-91.8534658651404,12992.12650672627,155.94927148360955,-0.0023161795511172,0.0027961426302515,,11984.602822301664,13940.560558617632,150,2,2025-09-17,2025-09-26 19:41:30.334,HA,C,1964166182,HAWK11,1,1,73,2,1,1,225,2,1,0,0,12,1,225,2,1,-146285.75622733062,-4790360.347627486,4200818.378386021,-2.23022,1.13831,-0.789521,26.75,80.75,96.25,-0.328125,-10.4062,10.4688,-0.142578,0.0585938,0.0585938,4,0,41.42603151642457,-91.74912781150329,13895.936299685663,15.993516310126983,-0.924683524781301,35.15758018888772,187.473,11984.602822301664,13940.560558617632,150,False,9.609775344814173,False,145.0645343375011,174.69846435247237,False,40.20162645853369,False,False
2,1970-07-23 11:43:00.902526291,2025-09-17,2025-09-26 19:41:30.252,HA,C,2151889584,JASSM,3,112,76,2,2,1,225,9,2,0,1,26,0,0,0,0,-154700.65173514312,-4779537.241182174,4212332.409636021,-2.71074,-1.01099,0.752226,34.875,-55.5,-61.25,0.0,0.0,0.0,0.0,0.0,0.0,2,0,41.56654763493247,-91.85386170365418,12992.127922177742,155.94900885058712,-0.0030452021835395,0.0027971819433512,,11984.602822301664,13940.560558617632,150,2,2025-09-17,2025-09-26 19:41:30.334,HA,C,1964166182,HAWK11,1,1,73,2,1,1,225,2,1,0,0,12,1,225,2,1,-146285.75622733062,-4790360.347627486,4200818.378386021,-2.23022,1.13831,-0.789521,26.75,80.75,96.25,-0.328125,-10.4062,10.4688,-0.142578,0.0585938,0.0585938,4,0,41.42603151642457,-91.74912781150329,13895.936299685663,15.993516310126983,-0.924683524781301,35.15758018888772,187.473,11984.602822301664,13940.560558617632,150,False,9.653313882612002,False,145.03815521155343,174.75488364582438,False,40.177623102207086,False,False
2,1970-07-23 11:43:00.911323204,2025-09-17,2025-09-26 19:41:31.132,HA,C,2154097008,JASSM,3,112,76,2,2,1,225,9,2,0,1,26,0,0,0,0,-154636.12536795562,-4779640.217744674,4212218.698698521,-2.71074,-1.01089,0.752226,34.875,-55.5,-61.375,0.0,0.0,0.0,0.0,0.0,0.0,2,0,41.56518009356405,-91.85304909181778,12992.126661081991,155.94590472309363,-0.0032231938503655,-0.0009569277051835,,11984.602822301664,13940.560558617632,150,2,2025-09-17,2025-09-26 19:41:31.240,HA,C,1965359180,HAWK11,1,1,73,2,1,1,225,2,1,0,0,12,1,225,2,1,-146253.14489920562,-4790278.992158736,4200913.206511021,-2.31756,1.05193,-0.796424,34.875,78.0,96.75,-0.046875,-10.3281,10.5312,-0.111328,0.0507812,0.0273438,4,0,41.42716135316534,-91.74876780360763,13899.300652288037,19.152866327303197,0.5716509593594902,26.616434732242208,187.828,11984.602822301664,13940.560558617632,150,False,9.512758299260891,False,141.3401390054078,174.39023867432374,False,44.24830341934069,False,False
2,1970-07-23 11:43:00.921372050,2025-09-17,2025-09-26 19:41:32.137,HA,C,2155231502,JASSM,3,112,76,2,2,1,225,9,2,0,1,26,0,0,0,0,-154602.96228201812,-4779693.141572799,4212160.255339146,-2.71074,-1.01089,0.752226,34.875,-55.5,-61.375,0.0,0.0,0.0,0.0,0.0,0.0,2,0,41.56447723816796,-91.85263146655451,12992.125652867218,155.94618180375082,-0.0024540114303876,-0.0009580739951794,,11984.602822301664,13940.560558617632,150,2,2025-09-17,2025-09-26 19:41:32.239,HA,C,1966552180,HAWK11,1,1,73,2,1,1,225,2,1,0,0,12,1,225,2,1,-146213.27771170562,-4790200.457002486,4201008.356901646,-2.35552,0.992965,-0.802655,41.125,75.0,97.25,-0.171875,-9.54688,9.6875,-0.0566406,0.0429688,0.0332031,4,0,41.42827789665047,-91.74832004774164,13909.763145529503,21.207504192421062,1.7783296213108288,22.060637463522912,187.192,11984.602822301664,13940.560558617632,150,False,9.418578994489845,False,138.4013333956591,174.05614022934668,False,47.5321268392962,False,False
2,1970-07-23 11:43:00.931722905,2025-09-17,2025-09-26 19:41:33.172,HA,C,2156305244,JASSM,3,112,76,2,2,1,225,9,2,0,1,26,0,0,0,0,-154571.57556326812,-4779743.229463424,4212104.942839146,-2.71074,-1.01089,0.752226,34.875,-55.5,-61.375,0.0,0.0,0.0,0.0,0.0,0.0,2,0,41.563812038442265,-91.85223621997925,12992.126277800577,155.94644403333808,-0.0017260381994916,-0.0009591555254205,,11984.602822301664,13940.560558617632,150,2,2025-09-17,2025-09-26 19:41:33.146,HA,C,1967546346,HAWK11,1,1,73,2,1,1,225,2,1,0,0,12,1,225,2,1,-146177.15271170562,-4790137.299775924,4201088.708464146,-2.36549,0.936016,-0.793835,44.875,72.75,97.75,0.0,-8.76562,8.98438,-0.0390625,0.0351562,0.0351562,4,0,41.42920240204904,-91.74791138861188,13926.198382050849,23.494186572588724,2.2483238977974027,19.232723370237853,186.703,11984.602822301664,13940.560558617632,150,False,9.336267906019533,False,136.60007377699372,173.76057040937144,False,49.63468092441136,False,False
2,1970-07-23 11:43:00.940302954,2025-09-17,2025-09-26 19:41:34.030,HA,C,2157498464,JASSM,3,112,76,2,2,1,225,9,2,0,1,26,0,0,0,0,-154536.69568045562,-4779798.891572799,4212043.474089146,-2.71074,-1.01089,0.752226,34.875,-55.5,-61.375,0.0,0.0,0.0,0.0,0.0,0.0,2,0,41.563072803841145,-91.85179699431755,12992.129630699448,155.94673543716763,-0.0009170453956571,-0.0009603576059065,,11984.602822301664,13940.560558617632,150,2,2025-09-17,2025-09-26 19:41:34.036,HA,C,1968580278,HAWK11,1,1,73,2,1,1,225,2,1,0,0,12,1,225,2,1,-146132.07263358062,-4790073.580049361,4201167.757292271,-2.35936,0.897762,-0.790575,49.5,71.0,96.625,0.09375,-8.25,8.28125,-0.134766,0.00976562,0.00976562,4,0,41.43012308917484,-91.74739590832976,13937.756731996842,24.961345997925815,2.755798428942882,18.087925587099168,185.872,11984.602822301664,13940.560558617632,150,False,9.25200622807781,False,134.36216128377455,173.43227123686012,False,52.2017867929328,False,False
2,1970-07-23 11:43:00.950340940,2025-09-17,2025-09-26 19:41:35.034,HA,C,2158750034,JASSM,3,112,76,2,2,1,225,9,2,0,1,26,0,0,0,0,-154500.10974295562,-4779857.272432174,4211978.997526646,-2.71074,-1.01089,0.752226,34.875,-55.5,-61.375,0.0,0.0,0.0,0.0,0.0,0.0,2,0,41.562297424101885,-91.8513362973597,12992.12558621104,155.9470410815329,-6.849641179414341e-05,-0.0009616136308238,,11984.602822301664,13940.560558617632,150,2,2025-09-17,2025-09-26 19:41:34.943,HA,C,1969614210,HAWK11,1,1,73,2,1,1,225,2,1,0,0,12,1,225,2,1,-146086.84997733062,-4790010.982393111,4201248.921354771,-2.45667,0.863344,-0.784919,52.375,69.5,96.125,-0.046875,-7.78125,7.90625,-0.128906,0.00585938,0.0351562,4,0,41.43105139074828,-91.74687830122797,13956.66170187276,26.347741518566902,3.109179179234523,11.185532168355044,185.225,11984.602822301664,13940.560558617632,150,False,9.16535452325333,False,132.92892557158783,173.0930809300106,False,53.97559593363445,False,False
2,1970-07-23 11:43:00.960382733,2025-09-17,2025-09-26 19:41:36.038,HA,C,2159883658,JASSM,3,112,76,2,2,1,225,9,2,0,1,26,0,0,0,0,-154466.97204764312,-4779910.151338424,4211920.597136021,-2.71074,-1.01089,0.752226,34.875,-55.5,-61.375,0.0,0.0,0.0,0.0,0.0,0.0,2,0,41.5615951145635,-91.85091903063524,12992.125348347949,155.94731790854198,0.0007000839087756,-0.0009627544373308,,11984.602822301664,13940.560558617632,150,2,2025-09-17,2025-09-26 19:41:36.146,HA,C,1971085574,HAWK11,1,1,73,2,1,1,225,2,1,0,0,12,1,225,2,1,-146020.44568045562,-4789924.085908736,4201364.591276646,-2.56175,0.850784,-0.784823,54.5,68.5,95.375,0.03125,-7.01562,7.14062,-0.105469,0.00195312,0.00195312,4,0,41.43236092515966,-91.74611640015657,13989.157100994946,26.799829178607744,3.34712272468782,4.68195310802729,184.369,11984.602822301664,13940.560558617632,150,True,9.069894919273132,False,131.84272816066726,172.6160670054621,False,55.539213299262045,False,False
2,1970-07-23 11:43:00.969441642,2025-09-17,2025-09-26 19:41:36.944,HA,C,2161018284,JASSM,3,112,76,2,2,1,225,9,2,0,1,26,0,0,0,0,-154433.80505545562,-4779963.077119674,4211862.144011021,-2.71064,-1.01089,0.752322,34.875,-55.5,-61.375,0.0,0.0,0.0,0.0,0.0,0.0,2,0,41.56089217434311,-91.85050140400664,12992.126783015588,155.9498885650004,-0.0035202067884899,0.004527531480097,,11984.602822301664,13940.560558617632,150,2,2025-09-17,2025-09-26 19:41:37.036,HA,C,1972278574,HAWK11,1,1,73,2,1,1,225,2,1,0,0,12,1,225,2,1,-145965.07263358062,-4789854.464814986,4201458.612761021,-2.607,0.848196,-0.789425,55.25,68.0,94.875,0.109375,-6.73438,6.875,-0.0214844,-0.0117188,0.00976562,4,0,41.43341959377149,-91.74548001214784,14017.964029150577,26.76591883663768,3.62990180562791,1.9820929008123933,183.355,11984.602822301664,13940.560558617632,150,True,8.98487684431698,False,131.40770366943116,172.21006367453745,False,56.380412853758024,False,False
2,1970-07-23 11:43:00.979322288,2025-09-17,2025-09-26 19:41:37.932,HA,C,2162210656,JASSM,3,112,76,2,2,1,225,9,2,0,1,26,0,0,0,0,-154398.95056326812,-4780018.694307174,4211800.716276646,-2.71064,-1.01089,0.752322,34.875,-55.5,-61.375,0.0,0.0,0.0,0.0,0.0,0.0,2,0,41.56015347202282,-91.85006253929072,12992.127658519948,155.95017971266384,-0.0027118040027254,0.004526361880695,,11984.602822301664,13940.560558617632,150,2,2025-09-17,2025-09-26 19:41:37.944,HA,C,1973113672,HAWK11,1,1,73,2,1,1,225,2,1,0,0,12,1,225,2,1,-145926.69958670562,-4789806.373994674,4201523.333464146,-2.60604,0.84321,-0.783385,55.625,68.25,94.375,-0.015625,-6.375,6.625,0.00976562,-0.00585938,0.00195312,4,0,41.43414937266619,-91.74503893280756,14037.370294473194,27.110181391567544,3.424277766819921,1.8560322239481044,182.744,11984.602822301664,13940.560558617632,150,True,8.91007548090511,False,131.2396863788704,171.91006025109846,False,56.847571058844025,False,False
2,1970-07-23 11:43:00.989363235,2025-09-17,2025-09-26 19:41:38.936,HA,C,2163402482,JASSM,3,112,76,2,2,1,225,9,2,0,1,26,0,0,0,0,-154364.11071951812,-4780074.286104049,4211739.313932896,-2.71064,-1.01089,0.752322,34.875,-55.5,-61.375,0.0,0.0,0.0,0.0,0.0,0.0,2,0,41.559415087552765,-91.84962386978695,12992.126818514624,155.9504707265738,-0.0019037494678449,0.0045251959581386,,11984.602822301664,13940.560558617632,150,2,2025-09-17,2025-09-26 19:41:38.833,HA,C,1974306672,HAWK11,1,1,73,2,1,1,225,2,1,0,0,12,1,225,2,1,-145871.14099295562,-4789737.606416549,4201615.331511021,-2.65005,0.844073,-0.785973,56.0,68.5,93.25,0.015625,-6.04688,6.20312,-0.0292969,-0.00976562,0.0078125,4,0,41.43518933413186,-91.74439998462206,14063.883000795677,27.00828371322076,3.538511984895798,-0.6365669925452622,182.292,11984.602822301664,13940.560558617632,150,True,8.824559240938202,False,130.99443798727276,171.49131349963127,False,57.50958719525189,False,False
2,1970-07-23 11:43:00.999402488,2025-09-17,2025-09-26 19:41:39.940,HA,C,2164537388,JASSM,3,112,76,2,2,1,225,9,2,0,1,26,0,0,0,0,-154330.93591483062,-4780127.221650924,4211680.843229771,-2.71064,-1.01089,0.752322,34.875,-55.5,-61.375,0.0,0.0,0.0,0.0,0.0,0.0,2,0,41.55871196724863,-91.8492061739084,12992.125024264182,155.9507478226072,-0.0011342921518764,0.0045240767205701,,11984.602822301664,13940.560558617632,150,2,2025-09-17,2025-09-26 19:41:40.036,HA,C,1975618970,HAWK11,1,1,73,2,1,1,225,2,1,0,0,12,1,225,2,1,-145809.84997733062,-4789661.348604049,4201715.897917271,-2.67891,0.848291,-0.777824,56.0,69.5,92.0,-0.078125,-5.76562,5.9375,-0.101562,-0.015625,-0.00976562,4,0,41.43633270823823,-91.7436952329732,14090.16418071286,27.08277388396286,3.047871042850274,-2.115393857141964,181.791,11984.602822301664,13940.560558617632,150,True,8.738191427583185,False,130.996080178124,171.0286568038535,False,57.965756510363924,False,False
2,1970-07-23 11:43:01.009442608,2025-09-17,2025-09-26 19:41:40.944,HA,C,2165730680,JASSM,3,112,76,2,2,1,225,9,2,0,1,26,0,0,0,0,-154296.05310233062,-4780182.879854049,4211619.364714146,-2.71064,-1.01089,0.752322,34.875,-55.5,-61.375,0.0,0.0,0.0,0.0,0.0,0.0,2,0,41.557972678537205,-91.84876698374262,12992.12605751589,155.95103917362212,-0.0003252501007182,0.0045229127872273,,11984.602822301664,13940.560558617632,150,2,2025-09-17,2025-09-26 19:41:40.944,HA,C,1976652902,HAWK11,1,1,73,2,1,1,225,2,1,0,0,12,1,225,2,1,-145762.19372733062,-4789600.329072799,4201794.554167271,-2.74889,0.862672,-0.772455,55.625,70.625,91.125,0.125,-5.46875,5.73438,-0.00390625,-0.0136719,-0.00195312,4,0,41.43723511100468,-91.74314787189194,14107.365260146633,26.710747850193464,2.4986756925821934,-5.566750306322732,181.84,11984.602822301664,13940.560558617632,150,True,8.658273303296408,False,131.20798160491256,170.64665278730575,False,58.12991905321781,False,False
2,1970-07-23 11:43:01.019322353,2025-09-17,2025-09-26 19:41:41.932,HA,C,2166923996,JASSM,3,112,76,2,2,1,225,9,2,0,1,26,0,0,0,0,-154261.17028983062,-4780238.538057174,4211557.884245396,-2.71064,-1.01089,0.752322,34.875,-55.5,-61.375,0.0,0.0,0.0,0.0,0.0,0.0,2,0,41.55723337490239,-91.84832780358688,12992.127007914109,155.9513305137397,0.0004838040639246,0.0045217434790941,,11984.602822301664,13940.560558617632,150,2,2025-09-17,2025-09-26 19:41:41.834,HA,C,1977766368,HAWK11,1,1,73,2,1,1,225,2,1,0,0,12,1,225,2,1,-145710.38708670562,-4789533.152314986,4201878.901823521,-2.81303,0.887024,-0.76862,55.25,72.125,90.125,0.078125,-5.35938,5.5625,-0.134766,-0.0175781,-0.0136719,4,0,41.43821330071997,-91.74255313138632,14121.48292454827,25.92511124006893,1.841263296057993,-8.29953693383926,181.668,11984.602822301664,13940.560558617632,150,True,8.57613454206334,False,131.4534192619211,170.22942521082237,False,58.291827806553236,False,False
2,1970-07-23 11:43:01.029360192,2025-09-17,2025-09-26 19:41:42.936,HA,C,2168116276,JASSM,3,112,76,2,2,1,225,9,2,0,1,26,0,0,0,0,-154226.31775076812,-4780294.145479049,4211496.456511021,-2.71064,-1.0108,0.752322,34.875,-55.5,-61.375,0.0,0.0,0.0,0.0,0.0,0.0,2,0,41.55649472170276,-91.84788901553232,12992.124686506962,155.94797874660776,-0.0003825367969706,0.0007680309986047,,11984.602822301664,13940.560558617632,150,2,2025-09-17,2025-09-26 19:41:43.038,HA,C,1979396800,HAWK11,1,1,73,2,1,1,225,2,1,0,0,12,1,225,2,1,-145635.94763358062,-4789431.971650924,4202000.714323521,-2.91984,0.916074,-0.752513,53.875,75.125,88.875,-0.09375,-5.25,5.4375,-0.119141,-0.0136719,-0.0332031,4,0,41.43965069477597,-91.74170022846342,14131.671275562325,25.25957173651692,0.4783145711484757,-13.284937684250014,182.365,11984.602822301664,13940.560558617632,150,False,8.478197861805846,False,132.26826233732626,169.63617345904092,False,58.047057507993316,False,False
2,1970-07-23 11:43:01.039399542,2025-09-17,2025-09-26 19:41:43.939,HA,C,2169308062,JASSM,3,112,76,2,2,1,225,9,2,0,1,26,0,0,0,0,-154191.47986014312,-4780349.731416549,4211435.052214146,-2.71064,-1.0108,0.752418,34.875,-55.5,-61.375,0.0,0.0,0.0,0.0,0.0,0.0,2,0,41.55575634990127,-91.84745042115571,12992.125974619625,155.9505650382691,-0.0045670196090615,0.0007667218725554,,11984.602822301664,13940.560558617632,150,2,2025-09-17,2025-09-26 19:41:43.943,HA,C,1980510266,HAWK11,1,1,73,2,1,1,225,2,1,0,0,12,1,225,2,1,-145587.18591483062,-4789361.268525924,4202082.085417271,-3.04016,0.954424,-0.752226,52.375,77.625,88.375,0.1875,-5.78125,5.95312,-0.0234375,-0.00195312,-0.0234375,4,0,41.44062923588717,-91.7411431201906,14130.902352086498,23.81601685196039,-0.2196100440318047,-18.68045278303055,182.817,11984.602822301664,13940.560558617632,150,False,8.396269328124808,False,133.1375610427161,169.21145987440008,False,57.58067114030359,False,False
2,1970-07-23 11:43:01.049422837,2025-09-17,2025-09-26 19:41:44.942,HA,C,2170501108,JASSM,3,112,76,2,2,1,225,9,2,0,1,26,0,0,0,0,-154156.60486014312,-4780405.373994674,4211373.583464146,-2.71064,-1.0108,0.752418,34.875,-55.5,-61.375,0.0,0.0,0.0,0.0,0.0,0.0,2,0,41.55501721157337,-91.84701137057904,12992.127200851884,155.95085627980703,-0.0037581513350414,0.0007655349768574,,11984.602822301664,13940.560558617632,150,2,2025-09-17,2025-09-26 19:41:44.834,HA,C,1981424898,HAWK11,1,1,73,2,1,1,225,2,1,0,0,12,1,225,2,1,-145547.42224295562,-4789300.830049361,4202150.153776646,-3.03757,0.980214,-0.755965,50.875,79.125,88.25,-0.109375,-5.95312,6.01562,0.0527344,-0.0078125,-0.0351562,4,0,41.44145531795415,-91.74068981382668,14127.160169994531,22.745172383229868,-0.4607837339273222,-17.514086096516323,183.929,11984.602822301664,13940.560558617632,150,False,8.319576614924172,False,133.91557658163393,168.84087379993844,False,57.159885314601766,False,False
2,1970-07-23 11:43:01.058322107,2025-09-17,2025-09-26 19:41:45.832,HA,C,2171634786,JASSM,3,112,76,2,2,1,225,9,2,0,1,26,0,0,0,0,-154123.46521170562,-4780458.247041549,4211315.173307896,-2.71064,-1.0108,0.752418,34.875,-55.5,-61.375,0.0,0.0,0.0,0.0,0.0,0.0,2,0,41.55431485503177,-91.84659417638012,12992.130169082136,155.95113301910646,-0.0029895358006955,0.0007644087508584,,11984.602822301664,13940.560558617632,150,2,2025-09-17,2025-09-26 19:41:45.944,HA,C,1982776962,HAWK11,1,1,73,2,1,1,225,2,1,0,0,12,1,225,2,1,-145491.37732108062,-4789210.105439986,4202249.909636021,-3.00584,1.02412,-0.761621,48.75,81.375,88.375,-0.03125,-6.42188,6.45312,0.125,0.0,-0.0136719,4,0,41.44267835687764,-91.74005289265106,14116.565069797376,20.935514755258477,-0.8618701520016346,-13.943757511059044,185.066,11984.602822301664,13940.560558617632,150,False,8.230989949068858,False,135.05629733107227,168.3251117470071,False,56.51524753845646,False,False
2,1970-07-23 11:43:01.068344525,2025-09-17,2025-09-26 19:41:46.834,HA,C,2172768180,JASSM,3,112,76,2,2,1,225,9,2,0,1,26,0,0,0,0,-154090.33337576812,-4780511.104463424,4211256.774870396,-2.71064,-1.0108,0.752418,34.875,-55.5,-61.375,0.0,0.0,0.0,0.0,0.0,0.0,2,0,41.553612667510606,-91.8461770907816,12992.12467788734,155.95140968252676,-0.0022211063462508,0.0007632839975207,,11984.602822301664,13940.560558617632,150,2,2025-09-17,2025-09-26 19:41:46.740,HA,C,1983810894,HAWK11,1,1,73,2,1,1,225,2,1,0,0,12,1,225,2,1,-145450.30896170562,-4789140.120088424,4202325.878386021,-2.93498,1.04033,-0.77025,47.5,82.375,88.75,0.0,-6.71875,6.90625,0.0527344,0.0,0.00976562,4,0,41.443614788658046,-91.73958742886693,14106.425723661838,20.13242853689867,-0.6446436254448259,-9.230185765584018,185.946,11984.602822301664,13940.560558617632,150,True,8.152487471335197,False,135.72144482945225,167.91251578183767,False,56.25722970415027,False,False
2,1970-07-23 11:43:01.077401493,2025-09-17,2025-09-26 19:41:47.740,HA,C,2173901574,JASSM,3,112,76,2,2,1,225,9,2,0,1,26,0,0,0,0,-154057.20251639312,-4780563.961885299,4211198.376432896,-2.71064,-1.0108,0.752418,34.875,-55.5,-61.375,0.0,0.0,0.0,0.0,0.0,0.0,2,0,41.55291047820271,-91.84576002590268,12992.123023915838,155.9516863283634,-0.0014526801915731,0.0007621511633431,,11984.602822301664,13940.560558617632,150,2,2025-09-17,2025-09-26 19:41:47.444,HA,C,1984526694,HAWK11,1,1,73,2,1,1,225,2,1,0,0,12,1,225,2,1,-145422.35388358062,-4789090.889619674,4202378.983854771,-2.91897,1.04282,-0.777824,46.75,82.75,89.125,-0.125,-6.89062,7.03125,0.0078125,0.0,0.00585938,4,0,41.44427108986894,-91.73927115921144,14098.641621813407,19.88165300564859,-0.2754856391343163,-8.21096581563799,186.838,11984.602822301664,13940.560558617632,150,True,8.083995919609649,False,136.11337470185802,167.60014123302938,False,56.17867773617195,False,False
2,1970-07-23 11:43:01.087440390,2025-09-17,2025-09-26 19:41:48.744,HA,C,2175035074,JASSM,3,112,76,2,2,1,225,9,2,0,1,26,0,0,0,0,-154024.06775076812,-4780616.825166549,4211139.972136021,-2.71064,-1.0108,0.752418,34.875,-55.5,-61.375,0.0,0.0,0.0,0.0,0.0,0.0,2,0,41.55220821363757,-91.84534292102263,12992.126448570552,155.95196299689255,-0.0006841717260364,0.0007610218047097,,11984.602822301664,13940.560558617632,150,2,2025-09-17,2025-09-26 19:41:48.646,HA,C,1985998060,HAWK11,1,1,73,2,1,1,225,2,1,0,0,12,1,225,2,1,-145365.46325858062,-4788987.990205611,4202490.185026646,-2.9812,1.05346,-0.78233,45.375,83.625,90.125,-0.015625,-6.96875,7.0625,-0.0605469,0.00195312,-0.00976562,4,0,41.4456439478956,-91.7386284908747,14082.936068009389,19.38528206306738,-0.1861705504134473,-11.345176037151123,187.999,11984.602822301664,13940.560558617632,150,False,7.990042360683578,False,136.88305302742103,167.01570652657256,False,55.99712487549853,False,False
2,1970-07-23 11:43:01.096341346,2025-09-17,2025-09-26 19:41:49.634,HA,C,2176109486,JASSM,3,112,76,2,2,1,225,9,2,0,1,26,0,0,0,0,-153992.66052420562,-4780666.930635299,4211084.612761021,-2.71064,-1.0108,0.752418,34.875,-55.5,-61.375,0.0,0.0,0.0,0.0,0.0,0.0,2,0,41.55154257089209,-91.84494757162408,12992.12882004851,155.9522252313158,4.42604144591764e-05,0.0007599547399972,,11984.602822301664,13940.560558617632,150,2,2025-09-17,2025-09-26 19:41:49.740,HA,C,1987389892,HAWK11,1,1,73,2,1,1,225,2,1,0,0,12,1,225,2,1,-145314.14294608062,-4788890.602510299,4202595.362761021,-3.07841,1.08654,-0.789041,43.375,84.75,91.125,0.203125,-7.10938,7.15625,-0.0214844,0.00976562,-0.0175781,4,0,41.446942360321465,-91.7380503790436,14068.126773518998,17.995059507671492,-0.2783584515930505,-15.569069128184344,189.306,11984.602822301664,13940.560558617632,150,False,7.901069634740133,False,137.92307824449915,166.4575216336856,False,55.515521588559935,False,False
2,1970-07-23 11:43:01.105421334,2025-09-17,2025-09-26 19:41:50.542,HA,C,2177242802,JASSM,3,112,76,2,2,1,225,9,2,0,1,26,0,0,0,0,-153959.53064139312,-4780719.782197799,4211026.216276646,-2.71064,-1.0108,0.752418,34.875,-55.5,-61.375,0.0,0.0,0.0,0.0,0.0,0.0,2,0,41.55084042478955,-91.84453054730751,12992.128199188162,155.95250183892668,0.0008126388329473,0.0007588318560346,,11984.602822301664,13940.560558617632,150,2,2025-09-17,2025-09-26 19:41:50.444,HA,C,1988105690,HAWK11,1,1,73,2,1,1,225,2,1,0,0,12,1,225,2,1,-145288.89489920562,-4788839.780244674,4202650.216276646,-3.08694,1.10255,-0.794602,41.875,85.25,91.75,0.0625,-7.10938,7.09375,0.0488281,0.0136719,-0.0175781,4,0,41.44761943645904,-91.7377670121818,14060.443696300366,17.282366914302795,-0.1845062159568985,-15.402246791148547,190.088,11984.602822301664,13940.560558617632,150,False,7.831854880458491,False,138.65198358746255,166.12521899496957,False,55.1209805197873,False,False
2,1970-07-23 11:43:01.115323482,2025-09-17,2025-09-26 19:41:51.532,HA,C,2178376368,JASSM,3,112,76,2,2,1,225,9,2,0,1,26,0,0,0,0,-153926.39489920562,-4780772.645479049,4210967.806120396,-2.71064,-1.0108,0.752513,34.875,-55.5,-61.375,0.0,0.0,0.0,0.0,0.0,0.0,2,0,41.5501381162432,-91.84411345734895,12992.12988165239,155.95507240905368,-0.0034082201635855,0.0007576578702605,,11984.602822301664,13940.560558617632,150,2,2025-09-17,2025-09-26 19:41:51.444,HA,C,1989417990,HAWK11,1,1,73,2,1,1,225,2,1,0,0,12,1,225,2,1,-145243.78161795562,-4788745.141572799,4202752.540495396,-3.04227,1.13438,-0.805532,39.75,85.875,93.125,-0.3125,-7.45312,7.46875,0.0371094,0.00976562,-0.0214844,4,0,41.44888111498889,-91.73726206463222,14046.675235944476,15.88133056242991,0.0227039081438766,-11.532044907439294,190.956,11984.602822301664,13940.560558617632,150,False,7.741482976539102,False,139.7211820113788,165.56983154255855,False,54.61751886999671,False,False
2,1970-07-23 11:43:01.124361472,2025-09-17,2025-09-26 19:41:52.436,HA,C,2179508610,JASSM,3,112,76,2,2,1,225,9,2,0,1,26,0,0,0,0,-153893.29626639312,-4780825.444307174,4210909.462370396,-2.71064,-1.0108,0.752513,34.875,-55.5,-61.375,0.0,0.0,0.0,0.0,0.0,0.0,2,0,41.549436630627135,-91.84369684553428,12992.12458978141,155.95534873548198,-0.002640567885818,0.0007565665526423,,11984.602822301664,13940.560558617632,150,2,2025-09-17,2025-09-26 19:41:52.441,HA,C,1990491688,HAWK11,1,1,73,2,1,1,225,2,1,0,0,12,1,225,2,1,-145209.07849295562,-4788668.362275924,4202836.157682896,-3.0229,1.14464,-0.815503,38.25,86.125,94.125,-0.03125,-7.70312,7.625,0.0292969,0.00390625,-0.00195312,4,0,41.44990842233495,-91.73687506528827,14036.96345526835,15.327123050342,0.4515642365812283,-9.998791647890323,192.129,11984.602822301664,13940.560558617632,150,True,7.659548462291582,False,140.4558274496912,165.09767061100612,False,54.36477701002581,False,False
2,1970-07-23 11:43:01.133719719,2025-09-17,2025-09-26 19:41:53.371,HA,C,2180583528,JASSM,3,112,76,2,2,1,225,9,2,0,1,26,0,0,0,0,-153861.87439139312,-4780875.571260299,4210854.073698521,-2.71064,-1.0108,0.752513,34.875,-55.5,-61.375,0.0,0.0,0.0,0.0,0.0,0.0,2,0,41.54877065927003,-91.843301346259,12992.128845873767,155.95561105503523,-0.0019117847155672,0.0007555226595544,,11984.602822301664,13940.560558617632,150,2,2025-09-17,2025-09-26 19:41:53.443,HA,C,1991803986,HAWK11,1,1,73,2,1,1,225,2,1,0,0,12,1,225,2,1,-145167.31872733062,-4788573.290010299,4202941.290495396,-3.00306,1.15432,-0.821351,37.0,86.0,95.625,0.140625,-7.32812,7.42188,-0.0332031,0.00585938,-0.00976562,4,0,41.451191017012746,-91.7364103270096,14028.498986776687,14.868345911278764,0.6656999510194138,-8.461126190177568,192.936,11984.602822301664,13940.560558617632,150,True,7.570753802498275,False,141.09581599487626,164.52615275649194,False,54.31499168622147,False,False
2,1970-07-23 11:43:01.143300190,2025-09-17,2025-09-26 19:41:54.330,HA,C,2181716160,JASSM,3,112,76,2,2,1,225,9,2,0,1,26,0,0,0,0,-153828.76501639312,-4780928.387666549,4210795.708464146,-2.71054,-1.0108,0.752513,34.875,-55.5,-61.375,0.0,0.0,0.0,0.0,0.0,0.0,2,0,41.548068923073096,-91.842884616627,12992.126408958786,155.95588745213593,-0.0011438649762813,0.006245895101139,,11984.602822301664,13940.560558617632,150,2,2025-09-17,2025-09-26 19:41:54.333,HA,C,1992877686,HAWK11,1,1,73,2,1,1,225,2,1,0,0,12,1,225,2,1,-145134.98864920562,-4788496.354463424,4203026.899870396,-3.06326,1.16851,-0.826624,35.75,86.25,96.375,0.171875,-7.20312,7.25,-0.0859375,0.00195312,-0.0078125,4,0,41.45223226038969,-91.73605172453355,14022.923060885165,14.254142770888103,0.8038479133628267,-11.322090930390903,193.632,11984.602822301664,13940.560558617632,150,False,7.488533180787109,False,141.69358636632714,164.03476239340077,False,54.214504260862874,False,False
2,1970-07-23 11:43:01.152359056,2025-09-17,2025-09-26 19:41:55.235,HA,C,2182791416,JASSM,3,112,76,2,2,1,225,9,2,0,1,26,0,0,0,0,-153797.33239920562,-4780978.526338424,4210740.300261021,-2.71054,-1.0107,0.752513,34.875,-55.5,-61.375,0.0,0.0,0.0,0.0,0.0,0.0,2,0,41.54740274939562,-91.84248900090714,12992.123022381966,155.95250776287568,-0.0020894809025192,0.0024916528947873,,11984.602822301664,13940.560558617632,150,2,2025-09-17,2025-09-26 19:41:55.038,HA,C,1993673018,HAWK11,1,1,73,2,1,1,225,2,1,0,0,12,1,225,2,1,-145111.60583670562,-4788438.741182174,4203091.337370396,-3.12069,1.17963,-0.830075,34.5,86.375,97.125,0.046875,-7.21875,7.15625,-0.0507812,0.00390625,-0.0234375,4,0,41.45301406446124,-91.73579307058225,14019.528142846297,13.78617067781697,0.8794415106031093,-14.149859885408285,194.207,11984.602822301664,13940.560558617632,150,False,7.418088808373713,False,142.2781260341988,163.64150280942866,False,54.02988471761166,False,False
2,1970-07-23 11:43:01.162521013,2025-09-17,2025-09-26 19:41:56.252,HA,C,2183923712,JASSM,3,112,76,2,2,1,225,9,2,0,1,26,0,0,0,0,-153764.23278983062,-4781031.327119674,4210681.952604771,-2.71054,-1.0107,0.752513,34.875,-55.5,-61.375,0.0,0.0,0.0,0.0,0.0,0.0,2,0,41.54670121979152,-91.84207241176898,12992.128578870175,155.95278405935528,-0.0013217900442045,0.0024905058394843,,11984.602822301664,13940.560558617632,150,2,2025-09-17,2025-09-26 19:41:56.145,HA,C,1994945550,HAWK11,1,1,73,2,1,1,225,2,1,0,0,12,1,225,2,1,-145076.03943045562,-4788345.622041549,4203195.640104771,3.08043,1.21731,-0.833814,32.0,87.375,97.625,-0.390625,-7.15625,7.04688,-0.0195312,-0.00585938,-0.0234375,4,0,41.45427831227792,-91.73540162036268,14014.549502453434,12.325339705922568,0.7225895398550795,-17.276446757905283,194.83,11984.602822301664,13940.560558617632,150,False,7.327734698903167,False,143.4196952733652,163.05308249259178,False,53.4729079094312,False,False
2,1970-07-23 11:43:01.170301689,2025-09-17,2025-09-26 19:41:57.030,HA,C,2184997762,JASSM,3,112,76,2,2,1,225,9,2,0,1,26,0,0,0,0,-153732.83630545562,-4781081.409150924,4210626.604948521,-2.71054,-1.0107,0.752513,34.875,-55.5,-61.375,0.0,0.0,0.0,0.0,0.0,0.0,2,0,41.54603578182542,-91.8416772670898,12992.127730037457,155.95304612957807,-0.0005935970589362,0.002489415754435,,11984.602822301664,13940.560558617632,150,2,2025-09-17,2025-09-26 19:41:57.035,HA,C,1996019248,HAWK11,1,1,73,2,1,1,225,2,1,0,0,12,1,225,2,1,-145048.48278983062,-4788267.387666549,4203282.915495396,2.98704,1.25691,-0.837266,29.375,88.25,98.125,0.03125,-7.26562,7.17188,-0.0195312,0.0175781,-0.03125,4,0,41.45533766102812,-91.73510052055576,14009.777138718136,10.79808595530834,0.5756276926536875,-20.961423265647827,195.404,11984.602822301664,13940.560558617632,150,False,7.246977761907481,False,144.5974143724138,162.54389787872557,False,52.80137405675675,False,False
2,1970-07-23 11:43:01.180342447,2025-09-17,2025-09-26 19:41:58.034,HA,C,2186131148,JASSM,3,112,76,2,2,1,225,9,2,0,1,26,0,0,0,0,-153699.70446951812,-4781134.256807174,4210568.198698521,-2.71054,-1.0107,0.752513,34.875,-55.5,-61.375,0.0,0.0,0.0,0.0,0.0,0.0,2,0,41.54533358110125,-91.84126029166588,12992.125603994167,155.95332267477863,0.0001748271783581,0.002488272481453,,11984.602822301664,13940.560558617632,150,2,2025-09-17,2025-09-26 19:41:58.252,HA,C,1996933882,HAWK11,1,1,73,2,1,1,225,2,1,0,0,12,1,225,2,1,-145026.96716483062,-4788199.850557174,4203358.294401646,2.89664,1.28912,-0.840717,26.75,88.75,98.75,0.09375,-7.375,7.40625,-0.216797,0.0117188,-0.0390625,4,0,41.45625200035039,-91.7348677582537,14005.91288131582,9.5501595928713,0.526055597825965,-24.78027450648487,196.052,11984.602822301664,13940.560558617632,150,False,7.1689494359571455,False,145.75478153825537,162.08181320819415,False,52.10827181028409,False,False
2,1970-07-23 11:43:01.189400373,2025-09-17,2025-09-26 19:41:58.940,HA,C,2187204890,JASSM,3,112,76,2,2,1,225,9,2,0,1,26,0,0,0,0,-153668.31677420562,-4781184.323213424,4210512.866667271,-2.71054,-1.0107,0.752609,34.875,-55.5,-61.375,0.0,0.0,0.0,0.0,0.0,0.0,2,0,41.54466833692528,-91.8408652748678,12992.128038452514,155.95588033028864,-0.0040895525579528,0.0024871226725128,,11984.602822301664,13940.560558617632,150,2,2025-09-17,2025-09-26 19:41:59.035,HA,C,1998484780,HAWK11,1,1,73,2,1,1,225,2,1,0,0,12,1,225,2,1,-144996.48083670562,-4788083.202119674,4203487.165495396,2.63164,1.36937,-0.840621,20.25,90.625,99.125,0.171875,-7.21875,7.125,-0.0214844,0.0292969,-0.0488281,4,0,41.45782110911442,-91.73454552256553,13996.877900467069,6.523192380100038,0.0403789577016389,-36.55180206862905,197.103,11984.602822301664,13940.560558617632,150,False,7.067387975200825,False,148.57081522171413,161.3782285219623,False,49.97960274524606,False,False
