Subject_cm,Timestamp,SampleDate_cm,SampleTime_cm,Configuration_cm,Scenario_cm,DisTime_cm,MarkingTxt_cm,Application_cm,EntId_cm,Site_cm,ExerciseId_cm,ForceId_cm,Category_cm,Country_cm,Domain_cm,Kind_cm,Extra_cm,Specific_cm,Subcategory_cm,AltCategory_cm,AltCountry_cm,AltDomain_cm,AltKind_cm,ECEF_X_cm,ECEF_Y_cm,ECEF_Z_cm,OriPhi_cm,OriPsi_cm,OriTheta_cm,LinVelX_cm,LinVelY_cm,LinVelZ_cm,LinAccX_cm,LinAccY_cm,LinAccZ_cm,AngVelX_cm,AngVelY_cm,AngVelZ_cm,DrAlg_cm,Appearance_cm,Latitude_cm,Longitude_cm,Altitude_cm,Heading_cm,Pitch_cm,Roll_cm,CalibratedAirspeed_cm,CM_Altitude_Lead_cm,CM_Altitude_Wing_cm,CM_Airspeed_cm,Subject_ac,SampleDate_ac,SampleTime_ac,Configuration_ac,Scenario_ac,DisTime_ac,MarkingTxt_ac,Application_ac,EntId_ac,Site_ac,ExerciseId_ac,ForceId_ac,Category_ac,Country_ac,Domain_ac,Kind_ac,Extra_ac,Specific_ac,Subcategory_ac,AltCategory_ac,AltCountry_ac,AltDomain_ac,AltKind_ac,ECEF_X_ac,ECEF_Y_ac,ECEF_Z_ac,OriPhi_ac,OriPsi_ac,OriTheta_ac,LinVelX_ac,LinVelY_ac,LinVelZ_ac,LinAccX_ac,LinAccY_ac,LinAccZ_ac,AngVelX_ac,AngVelY_ac,AngVelZ_ac,DrAlg_ac,Appearance_ac,Latitude_ac,Longitude_ac,Altitude_ac,Heading_ac,Pitch_ac,Roll_ac,CalibratedAirspeed_ac,CM_Altitude_Lead_ac,CM_Altitude_Wing_ac,CM_Airspeed_ac,Bank_Angle_Condition,distance_nm,Distance_Condition,angle_between_vel,angle_between_pos,Cone_Condition,angle_between_pos_nose,Nose_Cone_Condition,Intercept_Criteria
2,1970-07-23 09:45:08.115854589,2025-09-09,2025-09-26 15:13:31.585,HH,D,3572693270,JASSM,3,126,76,2,2,1,225,9,2,0,1,26,0,0,0,0,-121207.77605592164,-4791459.664137182,4198570.974089146,2.29618,-3.09845,0.0772743,-83.0,-3.5,-6.375,0.0,0.0,0.0,0.0,0.0,0.0,2,0,41.40848964032448,-91.44908101479996,10000.002265657586,-95.91153941822124,0.0042094914400454,0.0009490770809518,,9196.85496766631,11171.809049041656,150,2,2025-09-09,2025-09-26 15:13:31.697,HH,D,4255037230,HAWK11,1,1,73,2,1,1,225,2,1,0,0,12,1,225,2,1,-140648.70739920562,-4793459.073213424,4196241.194792271,2.25054,2.86222,-0.366334,-78.0,26.5,27.125,-0.140625,-7.25,7.60938,-0.0253906,-0.00195312,-0.0078125,4,0,41.37770798171906,-91.6806789721805,11171.809049041656,-65.0174955563815,3.6360759474432167,-4.292693844766108,144.848,9196.85496766631,11171.809049041656,150,True,10.584469402983602,False,30.77879483926342,175.79936571617455,False,145.11262564886917,False,False
2,1970-07-23 09:45:08.126256591,2025-09-09,2025-09-26 15:13:32.625,HH,D,3573946442,JASSM,3,126,76,2,2,1,225,9,2,0,1,26,0,0,0,0,-121295.08855592164,-4791463.424879369,4198564.204557896,2.29618,-3.09845,0.0772743,-83.0,-3.5,-6.375,0.0,0.0,0.0,0.0,0.0,0.0,2,0,41.40840841967643,-91.45012328278216,9999.998375445455,-95.91222879766468,0.0049954146034076,0.0009493499964044,,9196.85496766631,11171.809049041656,150,2,2025-09-09,2025-09-26 15:13:32.603,HH,D,4256071162,HAWK11,1,1,73,2,1,1,225,2,1,0,0,12,1,225,2,1,-140716.57068045562,-4793435.756807174,4196264.544401646,2.25294,2.85397,-0.355788,-78.375,26.375,27.0,-0.015625,-6.29688,6.70312,0.00976562,-0.0292969,0.00195312,4,0,41.37799245439741,-91.68149761216476,11169.972276579763,-65.15456574857022,2.9006419468296056,-4.330041670130457,144.482,9196.85496766631,11171.809049041656,150,True,10.570763188673391,False,30.56638042308172,175.90441372884482,False,145.43300947225495,False,False
2,1970-07-23 09:45:08.137266871,2025-09-09,2025-09-26 15:13:33.726,HH,D,3575316634,JASSM,3,126,76,2,2,1,225,9,2,0,1,26,0,0,0,0,-121390.55339967164,-4791467.537184057,4198556.804167271,2.29618,-3.09845,0.0772743,-83.0,-3.5,-6.375,0.0,0.0,0.0,0.0,0.0,0.0,2,0,41.408319610322245,-91.45126286393588,10000.002302531606,-95.91298254095256,0.005854718528513,0.0009496428258227,,9196.85496766631,11171.809049041656,150,2,2025-09-09,2025-09-26 15:13:33.945,HH,D,4257343694,HAWK11,1,1,73,2,1,1,225,2,1,0,0,12,1,225,2,1,-140800.61950858062,-4793406.583955611,4196292.382292271,2.27298,2.84745,-0.350227,-78.875,26.875,26.25,-0.0625,-6.4375,6.8125,0.03125,-0.00195312,0.00195312,4,0,41.37833922581156,-91.68251161337211,11164.630861661652,-65.1452440538014,2.4279219792947093,-3.3106372329035985,145.472,9196.85496766631,11171.809049041656,150,True,10.560727925981176,False,30.291953645611073,176.0361625663854,False,145.82637449976906,False,False
2,1970-07-23 09:45:08.148275365,2025-09-09,2025-09-26 15:13:34.827,HH,D,3576628992,JASSM,3,126,76,2,2,1,225,9,2,0,1,26,0,0,0,0,-121481.99089967164,-4791471.473707494,4198549.714323521,2.29618,-3.09845,0.0772743,-83.0,-3.5,-6.375,0.0,0.0,0.0,0.0,0.0,0.0,2,0,41.408234539479146,-91.45235436774188,10000.001253015362,-95.9137044836109,0.0066777715546205,0.000949920777784,,9196.85496766631,11171.809049041656,150,2,2025-09-09,2025-09-26 15:13:34.899,HH,D,4258655992,HAWK11,1,1,73,2,1,1,225,2,1,0,0,12,1,225,2,1,-140887.55505545562,-4793376.588838424,4196320.464323521,2.29934,2.8534,-0.347926,-79.375,26.875,26.0,0.0,-6.65625,7.0625,0.0253906,-0.00195312,0.0,4,0,41.378692021899376,-91.68356038999428,11158.008790689028,-65.46214721152646,2.570231943984168,-1.697308328666115,146.254,9196.85496766631,11171.809049041656,150,True,10.554402695036224,False,30.043164444246024,176.17231459487908,False,146.2113634941778,False,False
2,1970-07-23 09:45:08.159883106,2025-09-09,2025-09-26 15:13:35.988,HH,D,3577943186,JASSM,3,126,76,2,2,1,225,9,2,0,1,26,0,0,0,0,-121573.55339967164,-4791475.415113744,4198542.612761021,2.29618,-3.09845,0.0773702,-83.0,-3.5,-6.375,0.0,0.0,0.0,0.0,0.0,0.0,2,0,41.408149331251,-91.45344736098995,9999.99891302454,-95.91853772315744,0.0038577295056376,0.00094980232912,,9196.85496766631,11171.809049041656,150,2,2025-09-09,2025-09-26 15:13:35.807,HH,D,4259888758,HAWK11,1,1,73,2,1,1,225,2,1,0,0,12,1,225,2,1,-140969.05505545562,-4793348.363252486,4196346.620573521,2.31842,2.84841,-0.351857,-79.75,27.375,25.75,-0.03125,-6.70312,7.10938,0.0214844,0.0,0.0117188,4,0,41.379022233065925,-91.68454364112644,11151.175874322582,-65.11437971805768,2.531305914927149,-0.6865835863779957,146.926,9196.85496766631,11171.809049041656,150,True,10.545388477192125,False,30.03249159750135,176.29880693551422,False,146.34260874318966,False,False
2,1970-07-23 09:45:08.171181974,2025-09-09,2025-09-26 15:13:37.118,HH,D,3579313462,JASSM,3,126,76,2,2,1,225,9,2,0,1,26,0,0,0,0,-121669.02605592164,-4791479.524488744,4198535.208464146,2.29618,-3.09845,0.0773702,-83.0,-3.5,-6.375,0.0,0.0,0.0,0.0,0.0,0.0,2,0,41.40806047885741,-91.45458702733607,10000.001400447276,-95.91929151893808,0.0047171048417038,0.0009500364083342,,9196.85496766631,11171.809049041656,150,2,2025-09-09,2025-09-26 15:13:37.009,HH,D,4261280590,HAWK11,1,1,73,2,1,1,225,2,1,0,0,12,1,225,2,1,-141062.84607108062,-4793315.646455611,4196376.677214146,2.34316,2.84017,-0.356555,-80.125,27.5,26.25,-0.09375,-6.67188,7.03125,0.0195312,-0.00585938,0.0136719,4,0,41.37940332900453,-91.68567527189518,11142.64465327714,-64.61420459119616,2.396933487777673,0.5883535032626901,147.708,9196.85496766631,11171.809049041656,150,True,10.540409512745807,False,30.192544788869213,176.4466599534938,False,146.33806812475837,False,False
2,1970-07-23 09:45:08.182212244,2025-09-09,2025-09-26 15:13:38.221,HH,D,3580627860,JASSM,3,126,76,2,2,1,225,9,2,0,1,26,0,0,0,0,-121760.60418092164,-4791483.463941869,4198528.104948521,2.29618,-3.09855,0.0773702,-83.0,-3.5,-6.375,0.0,0.0,0.0,0.0,0.0,0.0,2,0,41.407975245494505,-91.45568020206277,9999.999855958124,-95.9163823881978,0.0014446682035966,0.00137492953027,,9196.85496766631,11171.809049041656,150,2,2025-09-09,2025-09-26 15:13:38.307,HH,D,4262592888,HAWK11,1,1,73,2,1,1,225,2,1,0,0,12,1,225,2,1,-141150.52966483062,-4793284.895479049,4196404.753386021,2.35255,2.83451,-0.360006,-80.375,27.875,26.5,-0.0625,-6.67188,7.0625,0.00195312,-0.00585938,0.0136719,4,0,41.37976042094754,-91.68673328454751,11134.218460882594,-64.26191409211052,2.315075938966907,1.027573763116305,148.38,9196.85496766631,11171.809049041656,150,True,10.534564420953624,False,30.378668176637344,176.58471213353837,False,146.29185035735057,False,False
2,1970-07-23 09:45:08.194654552,2025-09-09,2025-09-26 15:13:39.465,HH,D,3581937984,JASSM,3,126,76,2,2,1,225,9,2,0,1,26,0,0,0,0,-121851.88543092164,-4791487.390699682,4198521.022917271,2.29618,-3.09855,0.0773702,-83.0,-3.5,-6.375,0.0,0.0,0.0,0.0,0.0,0.0,2,0,41.407890267233455,-91.45676983010434,9999.999471133668,-95.9171030852977,0.0022663166512945,0.0013752111399684,,9196.85496766631,11171.809049041656,150,2,2025-09-09,2025-09-26 15:13:39.197,HH,D,4263825654,HAWK11,1,1,73,2,1,1,225,2,1,0,0,12,1,225,2,1,-141234.60388358062,-4793254.878877486,4196432.231901646,2.35907,2.8278,-0.366717,-80.625,28.375,26.875,-0.0625,-6.71875,7.1875,0.00390625,0.0,0.00390625,4,0,41.38010973329524,-91.6877479442456,11126.046267579452,-63.73586331129617,2.322846336797982,1.2857715458770944,148.942,9196.85496766631,11171.809049041656,150,True,10.527090742735863,False,30.664956218813426,176.71855537974088,False,146.14148607414236,False,False
2,1970-07-23 09:45:08.204233774,2025-09-09,2025-09-26 15:13:40.423,HH,D,3583250458,JASSM,3,126,76,2,2,1,225,9,2,0,1,26,0,0,0,0,-121943.32683717164,-4791491.323316869,4198513.929167271,2.29618,-3.09855,0.0773702,-83.0,-3.5,-6.375,0.0,0.0,0.0,0.0,0.0,0.0,2,0,41.40780514043033,-91.45786136740362,10000.002408209832,-95.9178250439918,0.0030894058326312,0.0013754824144911,,9196.85496766631,11171.809049041656,150,2,2025-09-09,2025-09-26 15:13:40.305,HH,D,4265257252,HAWK11,1,1,73,2,1,1,225,2,1,0,0,12,1,225,2,1,-141331.76208670562,-4793219.898408736,4196464.372526646,2.36808,2.82137,-0.376305,-80.875,28.875,27.5,-0.109375,-6.9375,7.3125,0.00390625,0.00585938,0.0078125,4,0,41.38051774095356,-91.68892062709789,11116.724680012156,-63.10255349158183,2.457965438159503,1.6949961952528771,149.553,9196.85496766631,11171.809049041656,150,True,10.526067048407452,False,31.052139699921558,176.8765921919562,False,145.9181490184316,False,False
2,1970-07-23 09:45:08.215260626,2025-09-09,2025-09-26 15:13:41.526,HH,D,3584564784,JASSM,3,126,76,2,2,1,225,9,2,0,1,26,0,0,0,0,-122034.90105592164,-4791495.259840307,4198506.821745396,2.29618,-3.09855,0.0773702,-83.0,-3.5,-6.375,0.0,0.0,0.0,0.0,0.0,0.0,2,0,41.40771986761361,-91.45895448778062,9999.997934023597,-95.9185480485328,0.0039136921542815,0.0013757660099834,,9196.85496766631,11171.809049041656,150,2,2025-09-09,2025-09-26 15:13:41.509,HH,D,4266688850,HAWK11,1,1,73,2,1,1,225,2,1,0,0,12,1,225,2,1,-141429.19763358062,-4793184.167939986,4196497.860807896,2.37508,2.81284,-0.383112,-81.125,29.375,28.375,-0.046875,-6.96875,7.26562,-0.00195312,0.0078125,0.00585938,4,0,41.3809392481286,-91.69009690232124,11108.50659898376,-62.50675699347412,2.403903858229299,1.9401197154645184,150.458,9196.85496766631,11171.809049041656,150,True,10.525092076447084,False,31.537758481514306,177.0381223720769,False,145.6034927323879,False,False
2,1970-07-23 09:45:08.226269379,2025-09-09,2025-09-26 15:13:42.626,HH,D,3585876930,JASSM,3,126,76,2,2,1,225,9,2,0,1,26,0,0,0,0,-122126.32293092164,-4791499.189527807,4198499.727995396,2.29618,-3.09855,0.0773702,-83.0,-3.5,-6.375,0.0,0.0,0.0,0.0,0.0,0.0,2,0,41.40763474047897,-91.46004578686818,10000.001099399076,-95.91926984722836,0.0047366058004199,0.0013760350602039,,9196.85496766631,11171.809049041656,150,2,2025-09-09,2025-09-26 15:13:42.612,HH,D,4268001150,HAWK11,1,1,73,2,1,1,225,2,1,0,0,12,1,225,2,1,-141518.68591483062,-4793151.744111861,4196529.401823521,2.36923,2.80671,-0.390302,-81.25,27.375,31.0,-0.03125,-6.95312,7.26562,-0.00585938,0.0,0.00976562,4,0,41.38132932725649,-91.69117711129338,11103.630307519885,-61.98464057568973,2.4585713083896854,1.4946515763088255,151.264,9196.85496766631,11171.809049041656,150,True,10.520296956973302,False,31.879406504261596,177.18504682331883,False,145.47165915628756,False,False
2,1970-07-23 09:45:08.237151618,2025-09-09,2025-09-26 15:13:43.715,HH,D,3587187728,JASSM,3,126,76,2,2,1,225,9,2,0,1,26,0,0,0,0,-122217.65105592164,-4791503.113355932,4198492.640104771,2.29618,-3.09855,0.0773702,-83.0,-3.5,-6.375,0.0,0.0,0.0,0.0,0.0,0.0,2,0,41.40754969163953,-91.4611359645784,10000.001008457624,-95.91999090301302,0.0055586758668608,0.0013763025018741,,9196.85496766631,11171.809049041656,150,2,2025-09-09,2025-09-26 15:13:43.545,HH,D,4268597648,HAWK11,1,1,73,2,1,1,225,2,1,0,0,12,1,225,2,1,-141559.59802420562,-4793136.281221236,4196543.386198521,2.36329,2.80508,-0.392603,-81.5,29.625,29.375,0.046875,-6.89062,7.34375,-0.0117188,0.00195312,0.00195312,4,0,41.38150852137415,-91.69167118951415,11098.884798059393,-61.83016427646204,2.4891923041789954,1.1251410573396756,151.57,9196.85496766631,11171.809049041656,150,True,10.491416558077344,False,31.938939993862768,177.2461946494051,False,145.42763743243307,False,False
2,1970-07-23 09:45:08.247193316,2025-09-09,2025-09-26 15:13:44.719,HH,D,3588441782,JASSM,3,126,76,2,2,1,225,9,2,0,1,26,0,0,0,0,-122305.02605592164,-4791506.867262182,4198485.856901646,2.29618,-3.09855,0.0773702,-83.0,-3.5,-6.375,0.0,0.0,0.0,0.0,0.0,0.0,2,0,41.40746830068292,-91.4621789514628,10000.000185101831,-95.92068074511415,0.0063451641967753,0.0013765721036577,,9196.85496766631,11171.809049041656,150,2,2025-09-09,2025-09-26 15:13:44.697,HH,D,4270506446,HAWK11,1,1,73,2,1,1,225,2,1,0,0,12,1,225,2,1,-141690.49060233062,-4793088.058564986,4196590.436979771,2.32465,2.79482,-0.395288,-81.875,29.875,30.0,0.078125,-6.45312,6.6875,-0.0273438,-0.0175781,0.0,4,0,41.382089984614495,-91.69325150260642,11091.791567644565,-61.341244355522285,2.2102125309483904,-1.294070915804119,151.924,9196.85496766631,11171.809049041656,150,True,10.50950484427195,False,32.18231620233366,177.46934693022632,False,145.42245894102265,False,False
2,1970-07-23 09:45:08.258208320,2025-09-09,2025-09-26 15:13:45.820,HH,D,3589754572,JASSM,3,126,76,2,2,1,225,9,2,0,1,26,0,0,0,0,-122396.49089967164,-4791510.795973119,4198478.755339146,2.29618,-3.09855,0.0773702,-83.0,-3.5,-6.375,0.0,0.0,0.0,0.0,0.0,0.0,2,0,41.40738308950808,-91.46327075590264,9999.99947394169,-95.92140287444688,0.0071684666794679,0.0013768546857893,,9196.85496766631,11171.809049041656,150,2,2025-09-09,2025-09-26 15:13:45.697,HH,D,4271540380,HAWK11,1,1,73,2,1,1,225,2,1,0,0,12,1,225,2,1,-141760.89685233062,-4793061.320283736,4196615.606901646,2.31075,2.78465,-0.386371,-82.125,30.5,29.625,0.171875,-6.17188,6.4375,-0.0117188,-0.0078125,-0.00195312,4,0,41.382406561748105,-91.6941018370934,11085.713066767465,-61.32755944140932,1.468890302320982,-2.3119051881413677,152.168,9196.85496766631,11171.809049041656,150,True,10.49529727468473,False,32.1903544307399,177.58472845011315,False,145.5251328870433,False,False
2,1970-07-23 09:45:08.269876081,2025-09-09,2025-09-26 15:13:46.987,HH,D,3591066562,JASSM,3,126,76,2,2,1,225,9,2,0,1,26,0,0,0,0,-122487.90105592164,-4791514.720777807,4198471.657682896,2.29618,-3.09855,0.077466,-83.0,-3.5,-6.375,0.0,0.0,0.0,0.0,0.0,0.0,2,0,41.40729792590235,-91.46436190516955,9999.9985201274,-95.92623490934304,0.0043470857148923,0.001376687595383,,9196.85496766631,11171.809049041656,150,2,2025-09-09,2025-09-26 15:13:47.103,HH,D,4273329878,HAWK11,1,1,73,2,1,1,225,2,1,0,0,12,1,225,2,1,-141884.20349295562,-4793014.143525924,4196658.743620396,2.30481,2.77977,-0.381386,-82.875,31.125,29.125,0.0625,-6.35938,6.5625,0.00585938,-0.0078125,0.00585938,4,0,41.382956679385714,-91.6955912225496,11072.16859120903,-61.34846235631016,1.0845566171074283,-2.7577973557240227,153.513,9196.85496766631,11171.809049041656,150,True,10.507683028666069,False,32.012843591956965,177.7932330243811,False,145.91092641283313,False,False
2,1970-07-23 09:45:08.280290721,2025-09-09,2025-09-26 15:13:48.029,HH,D,3592379100,JASSM,3,126,76,2,2,1,225,9,2,0,1,26,0,0,0,0,-122579.35027467164,-4791518.646559057,4198464.558073521,2.29618,-3.09864,0.077466,-83.0,-3.5,-6.375,0.0,0.0,0.0,0.0,0.0,0.0,2,0,41.40721272700682,-91.46545351808206,10000.002512335855,-95.9233157571568,0.0010633024134837,0.0018031252105203,,9196.85496766631,11171.809049041656,150,2,2025-09-09,2025-09-26 15:13:47.697,HH,D,4274005910,HAWK11,1,1,73,2,1,1,225,2,1,0,0,12,1,225,2,1,-141931.48083670562,-4792995.941377486,4196675.132292271,2.34392,2.77651,-0.380427,-83.125,31.5,29.125,0.265625,-6.48438,6.60938,0.201172,-0.00585938,0.0136719,4,0,41.38316725818101,-91.69616231946912,11066.371227861537,-61.26549319278115,0.9233621545668492,-0.5845495595603809,154.503,9196.85496766631,11171.809049041656,150,True,10.482042969639433,False,32.08416086132021,177.8665417904506,False,145.91435637187823,False,False
2,1970-07-23 09:45:08.291352062,2025-09-09,2025-09-26 15:13:49.135,HH,D,3593691324,JASSM,3,126,76,2,2,1,225,9,2,0,1,26,0,0,0,0,-122670.77605592164,-4791522.570387182,4198457.456511021,2.29618,-3.09864,0.077466,-83.0,-3.5,-6.375,0.0,0.0,0.0,0.0,0.0,0.0,2,0,41.40712751976278,-91.46654484866325,10000.000313177025,-95.92403756945023,0.0018862541969274,0.0018034023686215,,9196.85496766631,11171.809049041656,150,2,2025-09-09,2025-09-26 15:13:49.304,HH,D,4275954474,HAWK11,1,1,73,2,1,1,225,2,1,0,0,12,1,225,2,1,-142066.44372733062,-4792942.194307174,4196724.800261021,2.86682,2.74017,-0.470261,-81.125,34.25,33.125,0.0,-8.9375,9.35938,0.126953,0.0761719,0.0722656,4,0,41.38379846777431,-91.69779328699757,11051.690108514558,-56.29200157505189,3.2430910845399943,28.696236928763472,156.543,9196.85496766631,11171.809049041656,150,False,10.500293961123006,False,35.239388679938685,178.09971877351393,False,143.02177225845372,False,False
2,1970-07-23 09:45:08.312674210,2025-09-09,2025-09-26 15:13:51.267,HH,D,3595001844,JASSM,3,126,76,2,2,1,225,9,2,0,1,26,0,0,0,0,-122762.08464967164,-4791526.488355932,4198450.364714146,2.29618,-3.09864,0.077466,-83.0,-3.5,-6.375,0.0,0.0,0.0,0.0,0.0,0.0,2,0,41.4070424208168,-91.4676347778094,10000.001830957872,-95.92475845360796,0.0027081503694422,0.0018036698277057,,9196.85496766631,11171.809049041656,150,2,2025-09-09,2025-09-26 15:13:51.399,HH,D,4278499538,HAWK11,1,1,73,2,1,1,225,2,1,0,0,12,1,225,2,1,-142232.12341483062,-4792861.611299361,4196809.602995396,-3.07582,2.57181,-0.593938,-71.625,42.125,45.75,-0.0625,-9.45312,10.1406,0.0566406,0.0644531,0.0605469,4,0,41.38482105704789,-91.69980067591916,11049.441277527116,-45.37107172659484,2.879300104343048,43.8813437443875,157.802,9196.85496766631,11171.809049041656,150,False,10.532608512721845,False,45.84125269215876,178.43978856785273,False,132.84289785816205,False,False
2,1970-07-23 09:45:08.313228231,2025-09-09,2025-09-26 15:13:51.322,HH,D,3596254828,JASSM,3,126,76,2,2,1,225,9,2,0,1,26,0,0,0,0,-122849.38543092164,-4791530.232496557,4198443.583464146,2.29618,-3.09864,0.077466,-83.0,-3.5,-6.375,0.0,0.0,0.0,0.0,0.0,0.0,2,0,41.40696105356199,-91.4686768645516,10000.001157325632,-95.92544769344065,0.0034939708200067,0.0018039194776807,,9196.85496766631,11171.809049041656,150,2,2025-09-09,2025-09-26 15:13:51.399,HH,D,4278499538,HAWK11,1,1,73,2,1,1,225,2,1,0,0,12,1,225,2,1,-142232.12341483062,-4792861.611299361,4196809.602995396,-3.07582,2.57181,-0.593938,-71.625,42.125,45.75,-0.0625,-9.45312,10.1406,0.0566406,0.0644531,0.0605469,4,0,41.38482105704789,-91.69980067591916,11049.441277527116,-45.37107172659484,2.879300104343048,43.8813437443875,157.802,9196.85496766631,11171.809049041656,150,False,10.485484974137165,False,45.84125269215876,178.43301296544053,False,132.83724571149085,False,False
2,1970-07-23 09:45:08.323872650,2025-09-09,2025-09-26 15:13:52.387,HH,D,3597509520,JASSM,3,126,76,2,2,1,225,9,2,0,1,26,0,0,0,0,-122936.80339967164,-4791533.981519994,4198436.790495396,2.29618,-3.09864,0.077466,-83.0,-3.5,-6.375,0.0,0.0,0.0,0.0,0.0,0.0,2,0,41.40687955081996,-91.46972034756872,9999.99840585094,-95.92613785565752,0.004280847889334,0.0018041862119881,,9196.85496766631,11171.809049041656,150,2,2025-09-09,2025-09-26 15:13:52.399,HH,D,4279573238,HAWK11,1,1,73,2,1,1,225,2,1,0,0,12,1,225,2,1,-142294.50232108062,-4792821.387666549,4196853.517057896,-2.99318,2.4977,-0.634397,-66.0,46.875,50.75,-0.203125,-9.34375,9.90625,0.0410156,0.0703125,0.0957031,4,0,41.38534576146607,-91.7005599852378,11050.278106315944,-41.21199070781907,2.4975597110739165,46.36344630464837,157.313,9196.85496766631,11171.809049041656,150,False,10.468261323179874,False,51.179151978827626,178.58659682721225,False,127.68464041274697,False,False
2,1970-07-23 09:45:08.334271403,2025-09-09,2025-09-26 15:13:53.427,HH,D,3598762250,JASSM,3,126,76,2,2,1,225,9,2,0,1,26,0,0,0,0,-123024.08464967164,-4791537.723707494,4198430.009245396,2.29618,-3.09864,0.077466,-83.0,-3.375,-6.375,0.0,0.0,0.0,0.0,0.0,0.0,2,0,41.406798179280514,-91.47076219631008,9999.99958684928,-95.9268269358472,0.0050664931826851,0.0018044394351563,,9196.85496766631,11171.809049041656,150,2,2025-09-09,2025-09-26 15:13:53.346,HH,D,4280368570,HAWK11,1,1,73,2,1,1,225,2,1,0,0,12,1,225,2,1,-142336.87732108062,-4792789.106416549,4196888.558073521,-2.91236,2.40931,-0.673705,-61.125,49.875,54.125,-0.203125,-9.375,10.0469,0.0546875,0.078125,0.0878906,4,0,41.38576685033132,-91.7010775614817,11049.952688976722,-36.63848182060536,1.923577540283758,48.08748232342285,157.9,9196.85496766631,11171.809049041656,150,False,10.441175345546837,False,55.103929710021035,178.6154707719601,False,123.85050437200746,False,False
2,1970-07-23 09:45:08.345149597,2025-09-09,2025-09-26 15:13:54.514,HH,D,3600072646,JASSM,3,126,76,2,2,1,225,9,2,0,1,26,0,0,0,0,-123115.38152467164,-4791541.637769994,4198422.915495396,2.29618,-3.09864,0.077466,-83.0,-3.375,-6.375,0.0,0.0,0.0,0.0,0.0,0.0,2,0,41.40671305223321,-91.47185197560826,10000.003209752264,-95.92754771618148,0.0058882846007316,0.0018047060112809,,9196.85496766631,11171.809049041656,150,2,2025-09-09,2025-09-26 15:13:54.602,HH,D,4282356902,HAWK11,1,1,73,2,1,1,225,2,1,0,0,12,1,225,2,1,-142428.00622733062,-4792697.740205611,4196985.938932896,-2.77689,2.21363,-0.753089,-47.375,58.375,62.125,-0.078125,-9.98438,10.6719,-0.0527344,0.0976562,0.0761719,4,0,41.38695161593876,-91.70219843902598,11043.04007191927,-27.04192076289989,1.373626006531793,48.77008389807372,158.706,9196.85496766631,11171.809049041656,150,False,10.433644982616292,False,65.73559339871886,178.89683208022112,False,113.62266288293851,False,False
2,1970-07-23 09:45:08.356209301,2025-09-09,2025-09-26 15:13:55.620,HH,D,3601386052,JASSM,3,126,76,2,2,1,225,9,2,0,1,26,0,0,0,0,-123206.89324342164,-4791545.558668432,4198415.802214146,2.29618,-3.09864,0.077466,-83.0,-3.375,-6.375,0.0,0.0,0.0,0.0,0.0,0.0,2,0,41.406627709476936,-91.4729443172962,9999.999169456032,-95.92827019005792,0.0067120109690191,0.0018049781958181,,9196.85496766631,11171.809049041656,150,2,2025-09-09,2025-09-26 15:13:55.602,HH,D,4283549900,HAWK11,1,1,73,2,1,1,225,2,1,0,0,12,1,225,2,1,-142470.40271170562,-4792637.065400924,4197050.466276646,-2.70719,2.05697,-0.809654,-37.5,61.625,66.625,-0.15625,-10.6719,11.5781,-0.0195312,0.109375,0.0722656,4,0,41.38774064082149,-91.70272637704986,11036.824179774098,-19.901308081013564,1.6371511671426824,46.62120123103501,160.136,9196.85496766631,11171.809049041656,150,False,10.402578416778272,False,72.35550903789773,179.0263796080457,False,107.27842507920124,False,False
2,1970-07-23 09:45:08.366227668,2025-09-09,2025-09-26 15:13:56.622,HH,D,3602639052,JASSM,3,126,76,2,2,1,225,9,2,0,1,26,0,0,0,0,-123294.19011842164,-4791549.298902807,4198409.017057896,2.29618,-3.09864,0.077466,-83.0,-3.375,-6.375,0.0,0.0,0.0,0.0,0.0,0.0,2,0,41.40654629160439,-91.4739863453054,10000.00025694628,-95.92895938536888,0.0074977978078498,0.0018052340638594,,9196.85496766631,11171.809049041656,150,2,2025-09-09,2025-09-26 15:13:56.602,HH,D,4284742898,HAWK11,1,1,73,2,1,1,225,2,1,0,0,12,1,225,2,1,-142502.32653983062,-4792573.602510299,4197119.864714146,-2.6047,1.90425,-0.858358,-26.75,63.875,71.0,-0.078125,-10.4219,11.5,0.015625,0.0664062,0.0761719,4,0,41.388580985271226,-91.70313022720764,11033.553662907674,-13.43959272946262,2.402361526208676,46.232875878222494,160.613,9196.85496766631,11171.809049041656,150,False,10.368147665811973,False,79.17367985566977,179.089682782331,False,100.75667864003651,False,False
2,1970-07-23 09:45:08.378246734,2025-09-09,2025-09-26 15:13:57.824,HH,D,3604009344,JASSM,3,126,76,2,2,1,225,9,2,0,1,26,0,0,0,0,-123389.66277467164,-4791553.388746557,4198401.595182896,2.29618,-3.09874,0.0775619,-83.0,-3.375,-6.375,0.0,0.0,0.0,0.0,0.0,0.0,2,0,41.40645723332587,-91.47512596158812,10000.001558973783,-95.9301914318051,0.000616268482772,0.0022307205294478,,9196.85496766631,11171.809049041656,150,2,2025-09-09,2025-09-26 15:13:57.603,HH,D,4285935898,HAWK11,1,1,73,2,1,1,225,2,1,0,0,12,1,225,2,1,-142523.17419608062,-4792507.448213424,4197192.229948521,-2.47086,1.74931,-0.86737,-16.125,66.0,73.5,-0.125,-9.57812,10.3125,0.0136719,0.0683594,0.0957031,4,0,41.38945932503894,-91.70340274226356,11029.291696381724,-7.68853053721978,1.6870118564060663,47.3570768112576,160.136,9196.85496766631,11171.809049041656,150,False,10.323456758375883,False,85.54961708250089,179.06295338594506,False,94.67736834670234,False,False
2,1970-07-23 09:45:08.389267563,2025-09-09,2025-09-26 15:13:58.926,HH,D,3605321696,JASSM,3,126,76,2,2,1,225,9,2,0,1,26,0,0,0,0,-123481.10027467164,-4791557.303785619,4198394.485807896,2.29618,-3.09874,0.0775619,-83.0,-3.375,-6.375,0.0,0.0,0.0,0.0,0.0,0.0,2,0,41.40637193209877,-91.4762174096171,9999.999864354691,-95.93091331098672,0.001439327090159,0.0022309823251109,,9196.85496766631,11171.809049041656,150,2,2025-09-09,2025-09-26 15:13:58.898,HH,D,4287447030,HAWK11,1,1,73,2,1,1,225,2,1,0,0,12,1,225,2,1,-142533.90857108062,-4792419.179658736,4197286.397917271,-2.26233,1.529,-0.857783,-2.25,68.875,74.75,-0.0625,-9.54688,10.3906,0.03125,0.0878906,0.0722656,4,0,41.390618179477,-91.7035623191194,11017.183460756847,0.4523054224536992,0.5400056443893146,49.85904353782242,161.407,9196.85496766631,11171.809049041656,150,False,10.27460369877187,False,93.53481888097623,178.90506231205936,False,87.0688339964919,False,False
2,1970-07-23 09:45:08.399197841,2025-09-09,2025-09-26 15:13:59.919,HH,D,3606576626,JASSM,3,126,76,2,2,1,225,9,2,0,1,26,0,0,0,0,-123568.53386842164,-4791561.046949682,4198387.686979771,2.29618,-3.09874,0.0775619,-83.0,-3.375,-6.375,0.0,0.0,0.0,0.0,0.0,0.0,2,0,41.406290353882,-91.4772610622961,9999.99955150913,-95.93160357737924,0.0022263456109028,0.0022312351837764,,9196.85496766631,11171.809049041656,150,2,2025-09-09,2025-09-26 15:13:59.804,HH,D,4288441194,HAWK11,1,1,73,2,1,1,225,2,1,0,0,12,1,225,2,1,-142531.34802420562,-4792360.117158736,4197348.569792271,-2.13243,1.38797,-0.845799,6.875,69.75,74.75,-0.234375,-9.71875,10.4531,0.0195312,0.0820312,0.0722656,4,0,41.39138966139649,-91.70355271601989,11006.555461142583,5.804201409596769,0.1854885085097354,51.25152622732007,162.152,9196.85496766631,11171.809049041656,150,False,10.222816095462356,False,98.64060611778191,178.74244065138035,False,82.2166193656366,False,False
2,1970-07-23 09:45:08.411268775,2025-09-09,2025-09-26 15:14:01.126,HH,D,3607946932,JASSM,3,126,76,2,2,1,225,9,2,0,1,26,0,0,0,0,-123664.00652467164,-4791565.132887182,4198380.263151646,2.29618,-3.09874,0.0775619,-83.0,-3.375,-6.375,0.0,0.0,0.0,0.0,0.0,0.0,2,0,41.4062012732258,-91.47840067083725,10000.00055961696,-95.93235730719783,0.0030857257717868,0.0022315022830404,,9196.85496766631,11171.809049041656,150,2,2025-09-09,2025-09-26 15:14:01.025,HH,D,4289634194,HAWK11,1,1,73,2,1,1,225,2,1,0,0,12,1,225,2,1,-142518.54724295562,-4792289.089814986,4197422.946745396,-2.00127,1.2152,-0.809175,18.25,70.125,74.125,-0.1875,-10.0625,10.8438,-0.00390625,0.09375,0.0800781,4,0,41.3923165194573,-91.70342504111107,10992.2228707333,12.763975672208533,-0.6837956765550781,51.43865653019825,164.157,9196.85496766631,11171.809049041656,150,False,10.160839666649267,False,104.92297998828344,178.51037036283006,False,76.23969278832043,False,False
2,1970-07-23 09:45:08.422287261,2025-09-09,2025-09-26 15:14:02.228,HH,D,3609260168,JASSM,3,126,76,2,2,1,225,9,2,0,1,26,0,0,0,0,-123755.50261842164,-4791569.047926244,4198373.145964146,2.29618,-3.09874,0.0775619,-83.0,-3.375,-6.375,0.0,0.0,0.0,0.0,0.0,0.0,2,0,41.4061158791921,-91.47949281047282,9999.99861576519,-95.9330796401334,0.0039093131434581,0.0022317713221212,,9196.85496766631,11171.809049041656,150,2,2025-09-09,2025-09-26 15:14:02.508,HH,D,4291542992,HAWK11,1,1,73,2,1,1,225,2,1,0,0,12,1,225,2,1,-142472.57458670562,-4792175.569307174,4197538.868620396,-1.88747,0.980693,-0.7505,37.125,68.5,71.5,-0.15625,-10.4844,11.2656,-0.046875,0.0859375,0.0722656,4,0,41.39378246765747,-91.702916200709,10961.056347969014,22.87706930852456,-0.7888979943409029,48.35494775014845,166.21,9196.85496766631,11171.809049041656,150,False,10.081790048565427,False,115.32344836053241,178.1027734542005,False,66.32257178661774,False,False
2,1970-07-23 09:45:08.432167828,2025-09-09,2025-09-26 15:14:03.216,HH,D,3610516532,JASSM,3,126,76,2,2,1,225,9,2,0,1,26,0,0,0,0,-123843.03777467164,-4791572.792066869,4198366.337370396,2.29618,-3.09874,0.0775619,-83.0,-3.375,-6.375,0.0,0.0,0.0,0.0,0.0,0.0,2,0,41.40603418391351,-91.48053766828843,9999.998386714216,-95.93377070008351,0.0046972459024783,0.0022320170953688,,9196.85496766631,11171.809049041656,150,2,2025-09-09,2025-09-26 15:14:03.102,HH,D,4292219024,HAWK11,1,1,73,2,1,1,225,2,1,0,0,12,1,225,2,1,-142449.66833670562,-4792136.786104049,4197578.841276646,-1.86244,0.898721,-0.723847,43.75,67.125,69.875,-0.34375,-10.5938,11.3438,-0.0429688,0.0898438,0.0742188,4,0,41.39428705989353,-91.70265634440732,10950.68601686333,26.67350082089037,-0.6950346263507151,46.58118553327942,167.261,9196.85496766631,11171.809049041656,150,False,10.020710897348275,False,119.06803885071696,177.94692277964853,False,62.75098219229297,False,False
2,1970-07-23 09:45:08.443207862,2025-09-09,2025-09-26 15:14:04.320,HH,D,3611825950,JASSM,3,126,76,2,2,1,225,9,2,0,1,26,0,0,0,0,-123934.26824342164,-4791576.694410619,4198359.239714146,2.29608,-3.09874,0.0775619,-83.0,-3.375,-6.375,0.0,0.0,0.0,0.0,0.0,0.0,2,0,41.40594901785473,-91.48162663213591,9999.99916965464,-95.93449093018891,0.0055184425949678,-0.0032591869700554,,9196.85496766631,11171.809049041656,150,2,2025-09-09,2025-09-26 15:14:04.304,HH,D,4293889222,HAWK11,1,1,73,2,1,1,225,2,1,0,0,12,1,225,2,1,-142377.06286795562,-4792044.361299361,4197673.352995396,-1.78575,0.724231,-0.655969,58.375,62.125,66.375,-0.296875,-10.6875,11.4844,-0.0136719,0.0800781,0.0742188,4,0,41.39548769706437,-91.7018218277134,10923.040761852351,35.28943406328598,-0.2066740811040376,44.531493788613766,169.143,9196.85496766631,11171.809049041656,150,False,9.929203378163134,False,127.48689162231561,177.57734261370166,False,54.74966761995614,False,False
2,1970-07-23 09:45:08.454225896,2025-09-09,2025-09-26 15:14:05.422,HH,D,3613137926,JASSM,3,126,76,2,2,1,225,9,2,0,1,26,0,0,0,0,-124025.67839967164,-4791580.602613744,4198352.128386021,2.29608,-3.09874,0.0775619,-83.0,-3.375,-6.375,0.0,0.0,0.0,0.0,0.0,0.0,2,0,41.405863686661306,-91.4827177385184,10000.00044774214,-95.93521257612598,0.0063412558110101,-0.0032589312961624,,9196.85496766631,11171.809049041656,150,2,2025-09-09,2025-09-26 15:14:05.508,HH,D,154692,HAWK11,1,1,73,2,1,1,225,2,1,0,0,12,1,225,2,1,-142310.82849295562,-4791981.103486861,4197739.218229771,-1.72832,0.613784,-0.603717,68.0,57.5,62.75,-0.15625,-10.4531,11.1094,0.0,0.0742188,0.0644531,4,0,41.39632032298792,-91.70105304038476,10905.475877892695,41.19368229100323,0.2800547798961637,44.09461559973654,170.071,9196.85496766631,11171.809049041656,150,False,9.842327337581981,False,133.41778422465413,177.30816634260722,False,49.11495239917367,False,False
2,1970-07-23 09:45:08.465246474,2025-09-09,2025-09-26 15:14:06.524,HH,D,3614449132,JASSM,3,126,76,2,2,1,225,9,2,0,1,26,0,0,0,0,-124117.03386842164,-4791584.507887182,4198345.019011021,2.29608,-3.09874,0.0775619,-83.0,-3.375,-6.375,0.0,0.0,0.0,0.0,0.0,0.0,2,0,41.40577838416552,-91.48380818946026,9999.999596101396,-95.93593378733873,0.0071635781577446,-0.0032586638001093,,9196.85496766631,11171.809049041656,150,2,2025-09-09,2025-09-26 15:14:05.508,HH,D,154692,HAWK11,1,1,73,2,1,1,225,2,1,0,0,12,1,225,2,1,-142310.82849295562,-4791981.103486861,4197739.218229771,-1.72832,0.613784,-0.603717,68.0,57.5,62.75,-0.15625,-10.4531,11.1094,0.0,0.0742188,0.0644531,4,0,41.39632032298792,-91.70105304038476,10905.475877892695,41.19368229100323,0.2800547798961637,44.09461559973654,170.071,9196.85496766631,11171.809049041656,150,False,9.793052635758745,False,133.41778422465413,177.29410945221935,False,49.12835609396848,False,False
2,1970-07-23 09:45:08.477447225,2025-09-09,2025-09-26 15:14:07.744,HH,D,3615760850,JASSM,3,126,76,2,2,1,225,9,2,0,1,26,0,0,0,0,-124208.42449342164,-4791588.413160619,4198337.907682896,2.29608,-3.09883,0.0775619,-83.0,-3.375,-6.375,0.0,0.0,0.0,0.0,0.0,0.0,2,0,41.40569305272777,-91.48489905765064,10000.001066796674,-95.93302324422648,0.0038894392249022,-0.0028325318190134,,9196.85496766631,11171.809049041656,150,2,2025-09-09,2025-09-26 15:14:07.697,HH,D,2938356,HAWK11,1,1,73,2,1,1,225,2,1,0,0,12,1,225,2,1,-142127.27966483062,-4791860.700166549,4197870.519011021,-1.64414,0.340831,-0.473808,87.375,42.375,52.625,-0.125,-12.2188,13.2656,-0.0332031,0.105469,0.0625,4,0,41.39795531736499,-91.69890301427824,10880.74202129049,56.19785957635474,3.4428084020848004,41.33024904307976,172.931,9196.85496766631,11171.809049041656,150,False,9.641944187474527,False,147.1510889716236,176.7599675653092,False,36.005179898463346,False,False
2,1970-07-23 09:45:08.487326659,2025-09-09,2025-09-26 15:14:08.732,HH,D,3617015852,JASSM,3,126,76,2,2,1,225,9,2,0,1,26,0,0,0,0,-124295.86589967164,-4791592.148512182,4198331.101042271,2.29608,-3.09883,0.0776578,-83.0,-3.375,-6.375,0.0,0.0,0.0,0.0,0.0,0.0,2,0,41.40561138830285,-91.48594278437167,9999.997988124642,-95.93782397195422,0.0010324311893781,-0.0028324335642799,,9196.85496766631,11171.809049041656,150,2,2025-09-09,2025-09-26 15:14:08.899,HH,D,4449488,HAWK11,1,1,73,2,1,1,225,2,1,0,0,12,1,225,2,1,-142008.93982108062,-4791813.517549361,4197931.362761021,-1.64356,0.206416,-0.406505,95.875,30.75,45.875,-0.25,-11.8438,12.9531,-0.0429688,0.101562,0.0644531,4,0,41.3986675916223,-91.69750598430616,10888.048678500512,63.84042667589219,5.7592998858510684,38.68998854627262,172.674,9196.85496766631,11171.809049041656,150,False,9.530042984810922,False,154.99196606288126,176.51043112806187,False,28.471353485827983,True,False
2,1970-07-23 09:45:08.498286343,2025-09-09,2025-09-26 15:14:09.828,HH,D,3618325902,JASSM,3,126,76,2,2,1,225,9,2,0,1,26,0,0,0,0,-124387.13933717164,-4791596.047926244,4198323.997526646,2.29608,-3.09883,0.0776578,-83.0,-3.375,-6.375,0.0,0.0,0.0,0.0,0.0,0.0,2,0,41.40552614232752,-91.48703224846024,10000.00297092974,-95.93854452690134,0.001854014644149,-0.002832183512304,,9196.85496766631,11171.809049041656,150,2,2025-09-09,2025-09-26 15:14:10.102,HH,D,5682252,HAWK11,1,1,73,2,1,1,225,2,1,0,0,12,1,225,2,1,-141906.57068045562,-4791786.459932174,4197974.931120396,-1.6613,0.101434,-0.35828,100.625,20.875,40.625,-0.1875,-11.7344,12.875,-0.0878906,0.0820312,0.0449219,4,0,41.39914069973755,-91.6962926011646,10908.554208954503,69.67227670102442,8.053824873524523,36.1288716108573,171.843,9196.85496766631,11171.809049041656,150,False,9.425099729910146,False,160.55279289930834,176.3331150981447,False,23.113911927075208,True,False
2,1970-07-23 09:45:08.508188412,2025-09-09,2025-09-26 15:14:10.818,HH,D,3619579702,JASSM,3,126,76,2,2,1,225,9,2,0,1,26,0,0,0,0,-124474.49480592164,-4791599.778394994,4198317.196745396,2.29608,-3.09883,0.0776578,-83.0,-3.375,-6.375,0.0,0.0,0.0,0.0,0.0,0.0,2,0,41.40544454043989,-91.48807494444556,10000.00318955833,-95.93923414899533,0.0026403320610711,-0.0028319387376812,,9196.85496766631,11171.809049041656,150,2,2025-09-09,2025-09-26 15:14:10.696,HH,D,6437818,HAWK11,1,1,73,2,1,1,225,2,1,0,0,12,1,225,2,1,-141842.19763358062,-4791774.746064986,4197998.194792271,-1.70061,0.0480328,-0.332586,102.5,15.125,37.75,-0.109375,-11.0938,12.1875,-0.105469,0.0703125,0.0410156,4,0,41.39937876196058,-91.69552770399812,10925.523701227012,72.70740556633297,9.260652923378684,33.29729953808941,170.743,9196.85496766631,11171.809049041656,150,False,9.343065665462962,False,163.29038512627756,176.23302139133256,False,20.449993055970783,True,False
2,1970-07-23 09:45:08.519164893,2025-09-09,2025-09-26 15:14:11.916,HH,D,3620833442,JASSM,3,126,76,2,2,1,225,9,2,0,1,26,0,0,0,0,-124561.84636842164,-4791603.506910619,4198310.394011021,2.29608,-3.09883,0.0776578,-83.0,-3.375,-6.375,0.0,0.0,0.0,0.0,0.0,0.0,2,0,41.40536292814404,-91.48911759175054,9999.998064433206,-95.93992373777547,0.0034266152182936,-0.0028316893980832,,9196.85496766631,11171.809049041656,150,2,2025-09-09,2025-09-26 15:14:11.898,HH,D,7869418,HAWK11,1,1,73,2,1,1,225,2,1,0,0,12,1,225,2,1,-141716.63122733062,-4791760.973604049,4198038.151823521,-1.78738,-0.0339393,-0.286854,104.25,5.875,32.375,-0.109375,-9.71875,10.7344,-0.0859375,0.0488281,0.0332031,4,0,41.39975252137726,-91.69403247201797,10969.197385503014,77.68078479709905,10.967637856277111,27.767276583378504,169.057,9196.85496766631,11171.809049041656,150,False,9.227916006984497,False,167.13188564462206,176.08244550328695,False,16.532158530182695,True,False
2,1970-07-23 09:45:08.530225534,2025-09-09,2025-09-26 15:14:13.022,HH,D,3622203890,JASSM,3,126,76,2,2,1,225,9,2,0,1,26,0,0,0,0,-124657.32683717164,-4791607.583082494,4198302.960417271,2.29608,-3.09883,0.0776578,-83.0,-3.375,-6.375,0.0,0.0,0.0,0.0,0.0,0.0,2,0,41.40527372102529,-91.49025726425714,10000.003431714433,-95.94067749605782,0.0042860683519937,-0.0028314275377351,,9196.85496766631,11171.809049041656,150,2,2025-09-09,2025-09-26 15:14:13.102,HH,D,9380548,HAWK11,1,1,73,2,1,1,225,2,1,0,0,12,1,225,2,1,-141583.79919608062,-4791755.679658736,4198072.811979771,-1.88402,-0.0875328,-0.259914,104.375,-1.0,28.25,-0.015625,-8.39062,9.21875,-0.0996094,0.0117188,0.0410156,4,0,41.40004134426992,-91.692447435666,11021.715905122428,80.83057179127377,12.237985070122471,22.034401586899097,166.54,9196.85496766631,11171.809049041656,150,False,9.10458093888042,False,168.8780264244704,175.95530978310438,False,14.402507195063372,True,False
2,1970-07-23 09:45:08.541845631,2025-09-09,2025-09-26 15:14:14.184,HH,D,3623457708,JASSM,3,126,76,2,2,1,225,9,2,0,1,26,0,0,0,0,-124744.68621217164,-4791611.310621557,4198296.155729771,2.29608,-3.09883,0.0776578,-83.0,-3.375,-6.375,0.0,0.0,0.0,0.0,0.0,0.0,2,0,41.40519208036853,-91.4912999997588,10000.000430725946,-95.94136714083056,0.0050724222924468,-0.0028311768571762,,9196.85496766631,11171.809049041656,150,2,2025-09-09,2025-09-26 15:14:14.304,HH,D,10891680,HAWK11,1,1,73,2,1,1,225,2,1,0,0,12,1,225,2,1,-141451.06482108062,-4791753.651338424,4198099.382292271,-2.04854,-0.068358,-0.206704,104.375,-3.0,23.75,0.109375,-4.53125,5.1875,-0.15625,-0.0585938,0.0351562,4,0,41.40025609069095,-91.69086240822594,11064.731925457829,82.49660805347668,9.452913231890626,13.175663078690164,162.715,9196.85496766631,11171.809049041656,150,False,8.985802532609638,False,170.7045608117628,175.85624617712747,False,12.322159230709886,True,False
2,1970-07-23 09:45:08.551266715,2025-09-09,2025-09-26 15:14:15.126,HH,D,3624710580,JASSM,3,126,76,2,2,1,225,9,2,0,1,26,0,0,0,0,-124831.97527467164,-4791615.034254369,4198289.356901646,2.29608,-3.09883,0.0776578,-83.0,-3.375,-6.375,0.0,0.0,0.0,0.0,0.0,0.0,2,0,41.40511050395567,-91.49234189367398,9999.999977561723,-95.94205622787872,0.0058581427204191,-0.0028309342950802,,9196.85496766631,11171.809049041656,150,2,2025-09-09,2025-09-26 15:14:15.199,HH,D,11885846,HAWK11,1,1,73,2,1,1,225,2,1,0,0,12,1,225,2,1,-141363.21325858062,-4791751.879854049,4198114.741667271,-2.17969,-0.0528265,-0.190214,104.5,-1.25,20.75,0.125,-4.53125,5.26562,-0.138672,-0.0117188,-0.00195312,4,0,41.40038573299728,-91.68981349113976,11087.321607313608,82.6476273563558,8.17631667939202,5.859543514081559,162.165,9196.85496766631,11171.809049041656,150,True,8.891359349185478,False,172.53600947730928,175.7876331892361,False,10.687130622540456,True,False
2,1970-07-23 09:45:08.562178305,2025-09-09,2025-09-26 15:14:16.217,HH,D,3626021052,JASSM,3,126,76,2,2,1,225,9,2,0,1,26,0,0,0,0,-124923.27996217164,-4791618.927809057,4198282.245573521,2.29608,-3.09883,0.0776578,-83.0,-3.375,-6.375,0.0,0.0,0.0,0.0,0.0,0.0,2,0,41.40502517466507,-91.49343171626634,10000.000919098931,-95.94277701276786,0.0066800085344997,-0.002830690555681,,9196.85496766631,11171.809049041656,150,2,2025-09-09,2025-09-26 15:14:16.102,HH,D,12919778,HAWK11,1,1,73,2,1,1,225,2,1,0,0,12,1,225,2,1,-141272.95935233062,-4791750.327119674,4198129.054167271,-2.28908,-0.031159,-0.177367,104.625,0.125,18.625,0.171875,-4.5625,5.23438,-0.0839844,-0.0273438,0.00976562,4,0,41.40050741872021,-91.68873579480676,11108.007840627277,82.40484846784376,6.772411431097345,-0.2129289619177598,161.554,9196.85496766631,11171.809049041656,150,True,8.793484256101442,False,173.87027101233568,175.72012664355384,False,9.564999634593319,True,False
2,1970-07-23 09:45:08.573192116,2025-09-09,2025-09-26 15:14:17.319,HH,D,3627274646,JASSM,3,126,76,2,2,1,225,9,2,0,1,26,0,0,0,0,-125010.61980592164,-4791622.652418432,4198275.440886021,2.29608,-3.09893,0.0776578,-83.0,-3.375,-6.375,0.0,0.0,0.0,0.0,0.0,0.0,2,0,41.40494352570136,-91.49447421134694,10000.001480077191,-95.93983452376156,0.0033694137385456,-0.0024040716012843,,9196.85496766631,11171.809049041656,150,2,2025-09-09,2025-09-26 15:14:17.304,HH,D,14351376,HAWK11,1,1,73,2,1,1,225,2,1,0,0,12,1,225,2,1,-141146.89880545562,-4791747.446260299,4198146.767057896,-2.31669,-0.0128471,-0.147742,104.875,2.5,15.875,-0.015625,-4.60938,5.10938,0.0234375,-0.0371094,-0.00195312,4,0,41.40066622376791,-91.68723078894529,11130.214204505855,83.00874796727169,4.877950071865198,-1.5639131755908935,161.688,9196.85496766631,11171.809049041656,150,True,8.678466078694287,False,175.67620933084035,175.64055670515873,False,8.199919586341395,True,False
2,1970-07-23 09:45:08.585465246,2025-09-09,2025-09-26 15:14:18.546,HH,D,3628587948,JASSM,3,126,76,2,2,1,225,9,2,0,1,26,0,0,0,0,-125102.12371217164,-4791626.552809057,4198268.310026646,2.29608,-3.09893,0.0776578,-83.0,-3.375,-6.375,0.0,0.0,0.0,0.0,0.0,0.0,2,0,41.40485797274787,-91.49556640675726,9999.998092968712,-95.94055687559776,0.0041930749666262,-0.0024037579462114,,9196.85496766631,11171.809049041656,150,2,2025-09-09,2025-09-26 15:14:18.602,HH,D,16021576,HAWK11,1,1,73,2,1,1,225,2,1,0,0,12,1,225,2,1,-140998.55114920562,-4791740.152314986,4198165.952604771,-2.31794,0.0117925,-0.131155,105.5,5.375,13.25,-0.0625,-5.46875,6.0625,-0.0351562,0.00195312,-0.015625,4,0,41.40086510382424,-91.6854610697931,11143.155002756204,82.80165800750582,3.2016708838954675,-1.4537253024459278,162.678,9196.85496766631,11171.809049041656,150,True,8.549243819646522,False,177.17793155882455,175.54668573033274,False,7.226642707410173,True,False
2,1970-07-23 09:45:08.595245694,2025-09-09,2025-09-26 15:14:19.524,HH,D,3629898760,JASSM,3,126,76,2,2,1,225,9,2,0,1,26,0,0,0,0,-125193.45183717164,-4791630.445387182,4198261.194792271,2.29608,-3.09893,0.0776578,-83.0,-3.375,-6.375,0.0,0.0,0.0,0.0,0.0,0.0,2,0,41.40477258871169,-91.49665650127622,10000.002426118235,-95.94127783673184,0.005015152465114,-0.002403459688729,,9196.85496766631,11171.809049041656,150,2,2025-09-09,2025-09-26 15:14:19.426,HH,D,16459008,HAWK11,1,1,73,2,1,1,225,2,1,0,0,12,1,225,2,1,-140960.51013358062,-4791737.967744674,4198170.485807896,-2.33242,0.0144769,-0.135853,105.75,5.75,13.0,0.0625,-5.78125,6.46875,-0.0351562,0.00585938,-0.0117188,4,0,41.400915357964415,-91.68500736704164,11144.863699910757,82.49871312837895,3.265438409644972,-2.279822554189093,163.46,9196.85496766631,11171.809049041656,150,True,8.47958046831511,False,177.27640127277667,175.50315472793653,False,7.19975490445476,True,False
2,1970-07-23 09:45:08.606285934,2025-09-09,2025-09-26 15:14:20.628,HH,D,3631212468,JASSM,3,126,76,2,2,1,225,9,2,0,1,26,0,0,0,0,-125284.97918092164,-4791634.344801244,4198254.060026646,2.29608,-3.09893,0.0777537,-83.0,-3.375,-6.375,0.0,0.0,0.0,0.0,0.0,0.0,2,0,41.40468699083736,-91.49774897132748,9999.998325221868,-95.94611081670236,0.0021949573146712,-0.0024034318332646,,9196.85496766631,11171.809049041656,150,2,2025-09-09,2025-09-26 15:14:20.696,HH,D,18526872,HAWK11,1,1,73,2,1,1,225,2,1,0,0,12,1,225,2,1,-140776.50232108062,-4791726.805635299,4198193.345182896,-2.38074,0.018216,-0.14755,106.625,6.875,13.375,0.0625,-6.6875,7.45312,0.0214844,0.0,-0.00976562,4,0,41.40116824715621,-91.68281296611144,11153.697370712784,81.85584410597178,3.550688034928597,-5.056392050124217,165.073,9196.85496766631,11171.809049041656,150,True,8.331187880665002,False,176.93786885418666,175.38733484705816,False,7.674681454262805,True,False
2,1970-07-23 09:45:08.617303638,2025-09-09,2025-09-26 15:14:21.730,HH,D,3632523066,JASSM,3,126,76,2,2,1,225,9,2,0,1,26,0,0,0,0,-125376.29168092164,-4791638.234449682,4198246.942839146,2.29608,-3.09893,0.0777537,-83.0,-3.375,-6.375,0.0,0.0,0.0,0.0,0.0,0.0,2,0,41.404601592802,-91.4988388743387,9999.99884916722,-95.9468316487511,0.0030168955596225,-0.0024031846804385,,9196.85496766631,11171.809049041656,150,2,2025-09-09,2025-09-26 15:14:21.744,HH,D,19123372,HAWK11,1,1,73,2,1,1,225,2,1,0,0,12,1,225,2,1,-140722.41638358062,-4791723.464814986,4198200.341276646,-2.34268,0.021284,-0.151672,106.875,6.875,13.75,0.0625,-6.71875,7.54688,0.152344,0.0136719,-0.00195312,4,0,41.40124479762844,-91.68216797776692,11156.750824635348,81.56355609402232,3.576765698347811,-2.867596188520151,166.527,9196.85496766631,11171.809049041656,150,True,8.252905137396622,False,176.7782002794941,175.33147026795135,False,7.890082935598217,True,False
2,1970-07-23 09:45:08.627187245,2025-09-09,2025-09-26 15:14:22.718,HH,D,3633777800,JASSM,3,126,76,2,2,1,225,9,2,0,1,26,0,0,0,0,-125463.71355592164,-4791641.957105932,4198240.128386021,2.29608,-3.09893,0.0777537,-83.0,-3.375,-6.375,0.0,0.0,0.0,0.0,0.0,0.0,2,0,41.40451982776347,-91.4998823366978,9999.999173159324,-95.94752176507764,0.0038038127083839,-0.0024029520790622,,9196.85496766631,11171.809049041656,150,2,2025-09-09,2025-09-26 15:14:22.694,HH,D,20873104,HAWK11,1,1,73,2,1,1,225,2,1,0,0,12,1,225,2,1,-140566.13903983062,-4791714.875947799,4198221.058073521,-2.11478,0.00441019,-0.138921,107.625,5.625,13.125,0.0625,-6.45312,7.1875,0.0644531,-0.00390625,0.0371094,4,0,41.40146302269852,-91.68030395090744,11169.289352786827,82.74757761496501,3.814145226786664,10.125940607339992,166.442,9196.85496766631,11171.809049041656,150,False,8.121681418006034,False,177.36105110147997,175.22182655224873,False,7.385762596050865,True,False
2,1970-07-23 09:45:08.638396848,2025-09-09,2025-09-26 15:14:23.839,HH,D,3635088706,JASSM,3,126,76,2,2,1,225,9,2,0,1,26,0,0,0,0,-125555.04528983062,-4791645.845674361,4198233.007292271,2.29608,-3.09893,0.0777537,-83.0,-3.375,-6.375,0.0,0.0,0.0,0.0,0.0,0.0,2,0,41.404434386577215,-91.50097246428984,9999.998249444963,-95.94824274326484,0.0046259250647599,-0.0024026999227506,,9196.85496766631,11171.809049041656,150,2,2025-09-09,2025-09-26 15:14:23.898,HH,D,22185402,HAWK11,1,1,73,2,1,1,225,2,1,0,0,12,1,225,2,1,-140447.47497733062,-4791709.621064986,4198234.645964146,-2.04978,-0.0163944,-0.116966,108.375,4.125,11.25,0.03125,-6.76562,7.625,0.0371094,0.0078125,0.0214844,4,0,41.401606704470574,-91.67888811296557,11177.28562782378,84.47770654962441,3.873950016877562,13.814156570005093,167.701,9196.85496766631,11171.809049041656,150,False,8.008640775742913,False,178.45918056943694,175.1373560737216,False,6.235015733694442,True,False
2,1970-07-23 09:45:08.650664678,2025-09-09,2025-09-26 15:14:25.066,HH,D,3636400774,JASSM,3,126,76,2,2,1,225,9,2,0,1,26,0,0,0,0,-125646.46325858062,-4791649.737275924,4198225.880339146,2.29608,-3.09893,0.0777537,-83.0,-3.375,-6.375,0.0,0.0,0.0,0.0,0.0,0.0,2,0,41.40434886400719,-91.50206361851312,10000.001952298697,-95.94896439921176,0.0054488128173948,-0.0024024570858564,,9196.85496766631,11171.809049041656,150,2,2025-09-09,2025-09-26 15:14:25.010,HH,D,23577234,HAWK11,1,1,73,2,1,1,225,2,1,0,0,12,1,225,2,1,-140319.97302420562,-4791706.165986861,4198246.306120396,-2.04623,-0.0355692,-0.0951068,109.125,2.125,8.75,0.109375,-6.71875,7.5625,-0.0332031,0.0,0.0292969,4,0,41.40172818888211,-91.67736605356,11184.89720596692,86.14444850771227,3.870526217594657,14.013634095797013,168.519,9196.85496766631,11171.809049041656,150,False,7.890816667176949,False,178.77516405879828,175.06024904111933,False,4.748226158058958,True,False
2,1970-07-23 09:45:08.660264821,2025-09-09,2025-09-26 15:14:26.026,HH,D,3637654132,JASSM,3,126,76,2,2,1,225,9,2,0,1,26,0,0,0,0,-125733.78747733062,-4791653.453096236,4198219.069792271,2.29608,-3.09893,0.0777537,-83.0,-3.375,-6.375,0.0,0.0,0.0,0.0,0.0,0.0,2,0,41.40426715201141,-91.50310590801504,9999.9998540362,-95.9496537363851,0.0062348525271341,-0.0024022156623294,,9196.85496766631,11171.809049041656,150,2,2025-09-09,2025-09-26 15:14:26.102,HH,D,24969066,HAWK11,1,1,73,2,1,1,225,2,1,0,0,12,1,225,2,1,-140191.77575858062,-4791705.061494674,4198255.765104771,-2.09273,-0.0572367,-0.071426,109.875,0.125,6.875,0.015625,-6.95312,7.64062,-0.0292969,0.0,0.00976562,4,0,41.40182093226528,-91.67583486103103,11193.473338834976,87.98550544906115,3.906790078521689,11.371019338341672,169.448,9196.85496766631,11171.809049041656,150,False,7.774829043459356,False,177.6018998526564,174.99408456653535,False,3.7284105337604965,True,False
2,1970-07-23 09:45:08.671303688,2025-09-09,2025-09-26 15:14:27.130,HH,D,3638967482,JASSM,3,126,76,2,2,1,225,9,2,0,1,26,0,0,0,0,-125825.29138358062,-4791657.345674361,4198211.933073521,2.29608,-3.09902,0.0777537,-83.0,-3.375,-6.375,0.0,0.0,0.0,0.0,0.0,0.0,2,0,41.404181524048575,-91.50419808321656,9999.998776183063,-95.94674415157895,0.0029617451625109,-0.0019750983543118,,9196.85496766631,11171.809049041656,150,2,2025-09-09,2025-09-26 15:14:27.008,HH,D,25923464,HAWK11,1,1,73,2,1,1,225,2,1,0,0,12,1,225,2,1,-140103.80505545562,-4791706.040986861,4198260.653776646,-2.12313,-0.0665364,-0.0647148,110.125,-1.25,5.625,-0.015625,-6.84375,7.71875,-0.0507812,0.0175781,0.015625,4,0,41.40186341122174,-91.67478352723884,11200.160728824285,88.62743187697832,4.053397057741141,9.63797443258679,169.949,9196.85496766631,11171.809049041656,150,True,7.678247629189369,False,176.68607574623286,174.94483732272607,False,3.2318678437904063,True,False
2,1970-07-23 09:45:08.682643718,2025-09-09,2025-09-26 15:14:28.264,HH,D,3640280108,JASSM,3,126,76,2,2,1,225,9,2,0,1,26,0,0,0,0,-125916.74450858062,-4791661.235322799,4198204.800261021,2.29608,-3.09902,0.0777537,-83.0,-3.375,-6.375,0.0,0.0,0.0,0.0,0.0,0.0,2,0,41.40409593745795,-91.5052896496778,10000.000017228487,-95.9474660765576,0.003784950250239,-0.0019748026871944,,9196.85496766631,11171.809049041656,150,2,2025-09-09,2025-09-26 15:14:28.194,HH,D,27275530,HAWK11,1,1,73,2,1,1,225,2,1,0,0,12,1,225,2,1,-139979.36364920562,-4791708.939424361,4198266.311979771,-2.19896,-0.0802464,-0.0575243,110.625,-3.0,4.75,-0.15625,-7.09375,7.79688,-0.0917969,0.00390625,0.0078125,4,0,41.40190599822571,-91.67329580456938,11210.62102566911,89.45759017754443,4.3717813727077885,5.305833429161532,170.78,9196.85496766631,11171.809049041656,150,True,7.562061658308702,False,175.67080803472834,174.89436325006406,False,3.22307299154695,True,False
2,1970-07-23 09:45:08.693205365,2025-09-09,2025-09-26 15:14:29.320,HH,D,3641592418,JASSM,3,126,76,2,2,1,225,9,2,0,1,26,0,0,0,0,-126008.17810233062,-4791665.123994674,4198197.667448521,2.29608,-3.09902,0.0777537,-83.0,-3.375,-6.375,0.0,0.0,0.0,0.0,0.0,0.0,2,0,41.40401034937747,-91.50638098019952,10000.001920316565,-95.94818784426616,0.0046079805514858,-0.0019744976831193,,9196.85496766631,11171.809049041656,150,2,2025-09-09,2025-09-26 15:14:29.398,HH,D,28866196,HAWK11,1,1,73,2,1,1,225,2,1,0,0,12,1,225,2,1,-139830.76989920562,-4791714.375947799,4198272.427214146,-2.28745,-0.0866699,-0.0601129,111.0,-4.25,4.625,-0.015625,-6.92188,7.6875,-0.0507812,0.0,0.0,4,0,41.40194074527432,-91.6715186463048,11226.590408029911,89.59019182943761,4.747040914576036,0.224483199267969,171.623,9196.85496766631,11171.809049041656,150,True,7.432874171142136,False,175.0618822493979,174.84447946457996,False,3.605545533991687,True,False
2,1970-07-23 09:45:08.703866348,2025-09-09,2025-09-26 15:14:30.386,HH,D,3642845186,JASSM,3,126,76,2,2,1,225,9,2,0,1,26,0,0,0,0,-126095.45935233062,-4791668.833955611,4198190.856901646,2.29608,-3.09902,0.0777537,-83.0,-3.375,-6.375,0.0,0.0,0.0,0.0,0.0,0.0,2,0,41.40392863986041,-91.50742274728483,9999.998971223038,-95.94887683131246,0.0053936343151978,-0.0019742078820404,,9196.85496766631,11171.809049041656,150,2,2025-09-09,2025-09-26 15:14:30.306,HH,D,29979660,HAWK11,1,1,73,2,1,1,225,2,1,0,0,12,1,225,2,1,-139726.90661795562,-4791719.040010299,4198276.653776646,-2.32158,-0.0823556,-0.0625097,111.375,-4.5,4.5,0.109375,-6.35938,7.14062,-0.0429688,-0.015625,0.00195312,4,0,41.40195955306925,-91.67027615698824,11239.781067054346,89.3241349733167,4.65317109910894,-1.7378075924838878,171.892,9196.85496766631,11171.809049041656,150,True,7.329997828321411,False,174.92192328802446,174.8009915295866,False,3.676051213027174,True,False
2,1970-07-23 09:45:08.715596880,2025-09-09,2025-09-26 15:14:31.559,HH,D,3644157370,JASSM,3,126,76,2,2,1,225,9,2,0,1,26,0,0,0,0,-126186.88122733062,-4791672.719697799,4198183.724089146,2.29608,-3.09902,0.0778495,-83.0,-3.375,-6.375,0.0,0.0,0.0,0.0,0.0,0.0,2,0,41.40384305081401,-91.5085139331008,10000.001363759642,-95.95370897716838,0.0025725215887797,-0.0019742264203307,,9196.85496766631,11171.809049041656,150,2,2025-09-09,2025-09-26 15:14:31.759,HH,D,30496626,HAWK11,1,1,73,2,1,1,225,2,1,0,0,12,1,225,2,1,-139679.36364920562,-4791721.006807174,4198278.583464146,-2.33913,-0.0700838,-0.050142,111.5,-4.25,4.375,0.0,-5.23438,5.96875,-0.0332031,-0.0390625,0.0,4,0,41.40196912436127,-91.6697074717109,11245.396383534866,89.39368893493099,3.658514516312337,-2.698444825140238,172.589,9196.85496766631,11171.809049041656,150,True,7.25522571211719,False,175.01252012828863,174.7599979043351,False,3.5654603999024994,True,False
2,1970-07-23 09:45:08.726204764,2025-09-09,2025-09-26 15:14:32.620,HH,D,3645529322,JASSM,3,126,76,2,2,1,225,9,2,0,1,26,0,0,0,0,-126282.47107108062,-4791676.781221236,4198176.263151646,2.29608,-3.09902,0.0778495,-83.0,-3.375,-6.375,0.0,0.0,0.0,0.0,0.0,0.0,2,0,41.403753536991374,-91.50965486398962,9999.998744527871,-95.95446354502234,0.0034329652435195,-0.0019739662827199,,9196.85496766631,11171.809049041656,150,2,2025-09-09,2025-09-26 15:14:32.898,HH,D,32882624,HAWK11,1,1,73,2,1,1,225,2,1,0,0,12,1,225,2,1,-139453.71521170562,-4791724.720674361,4198282.579557896,-2.37633,-0.00920388,-0.0018216,113.125,-0.5,1.625,0.109375,-4.10938,4.85938,-0.00585938,-0.03125,-0.0078125,4,0,41.40201310375451,-91.66701033392232,11247.035323948025,89.16795167527705,-0.7857929732963217,-4.744807677338212,174.202,9196.85496766631,11171.809049041656,150,True,7.082405636859665,False,175.59971679873823,174.70677857779356,False,1.3658628368978154,True,False
2,1970-07-23 09:45:08.738664848,2025-09-09,2025-09-26 15:14:33.866,HH,D,3646899402,JASSM,3,126,76,2,2,1,225,9,2,0,1,26,0,0,0,0,-126377.92810233062,-4791680.835908736,4198168.813932896,2.29608,-3.09902,0.0778495,-83.0,-3.375,-6.375,0.0,0.0,0.0,0.0,0.0,0.0,2,0,41.403664152475976,-91.5107942069202,10000.0008476792,-95.9552170613248,0.0042922120083607,-0.0019737226329227,,9196.85496766631,11171.809049041656,150,2,2025-09-09,2025-09-26 15:14:33.806,HH,D,34115390,HAWK11,1,1,73,2,1,1,225,2,1,0,0,12,1,225,2,1,-139336.78357108062,-4791721.887666549,4198281.739714146,-2.3816,0.00757403,0.00757403,114.5,3.625,-1.375,0.0,-5.09375,5.73438,0.0195312,-0.00976562,0.0078125,4,0,41.40204452443081,-91.66561432124344,11229.876611668957,88.93670348227042,-1.8617861336415749,-5.044321208697635,176.047,9196.85496766631,11171.809049041656,150,True,6.968221665847391,False,174.8978026573139,174.66222963444193,False,1.6425917456792298,True,False
2,1970-07-23 09:45:08.748243380,2025-09-09,2025-09-26 15:14:34.824,HH,D,3648211804,JASSM,3,126,76,2,2,1,225,9,2,0,1,26,0,0,0,0,-126469.36560233062,-4791684.718721236,4198161.677214146,2.29608,-3.09902,0.0778495,-83.0,-3.375,-6.375,0.0,0.0,0.0,0.0,0.0,0.0,2,0,41.40357852006249,-91.51188557151188,10000.00193474473,-95.9559388453998,0.0051152777703065,-0.0019734880908294,,9196.85496766631,11171.809049041656,150,2,2025-09-09,2025-09-26 15:14:34.600,HH,D,35069788,HAWK11,1,1,73,2,1,1,225,2,1,0,0,12,1,225,2,1,-139244.96521170562,-4791718.735322799,4198280.310026646,-2.36943,0.0173532,0.0100667,115.375,4.875,-2.125,-0.125,-5.5625,6.17188,0.015625,-0.015625,-0.0078125,4,0,41.40206950534616,-91.66451844824986,11212.45457601451,88.67373596951279,-2.3756237498237445,-4.341871119405213,177.709,9196.85496766631,11171.809049041656,150,True,6.869715033282532,False,174.55652083586176,174.6205920204369,False,2.3261011532106393,True,False
2,1970-07-23 09:45:08.759284753,2025-09-09,2025-09-26 15:14:35.928,HH,D,3649525676,JASSM,3,126,76,2,2,1,225,9,2,0,1,26,0,0,0,0,-126560.90466483062,-4791688.605439986,4198154.530729771,2.29608,-3.09902,0.0778495,-83.0,-3.375,-6.375,0.0,0.0,0.0,0.0,0.0,0.0,2,0,41.40349277217162,-91.5129781455739,10000.002367113084,-95.95666142813924,0.0059392588820088,-0.0019732433199096,,9196.85496766631,11171.809049041656,150,2,2025-09-09,2025-09-26 15:14:35.898,HH,D,36620686,HAWK11,1,1,73,2,1,1,225,2,1,0,0,12,1,225,2,1,-139093.02575858062,-4791711.746064986,4198277.440886021,-2.39732,0.0238726,0.0040267,117.125,6.0,-2.0,0.0625,-6.70312,7.25,-0.046875,-0.00195312,-0.00195312,4,0,41.402117969507344,-91.6627056253054,11178.181398458872,88.16785964886448,-2.42536541832669,-5.921763888629833,180.434,9196.85496766631,11171.809049041656,150,True,6.7388770935513485,False,174.60067357702528,174.57427893781752,False,2.856803059515508,True,False
2,1970-07-23 09:45:08.770305498,2025-09-09,2025-09-26 15:14:37.030,HH,D,3650838190,JASSM,3,126,76,2,2,1,225,9,2,0,1,26,0,0,0,0,-126652.34997733062,-4791692.487275924,4198147.390104771,2.29608,-3.09912,0.0778495,-83.0,-3.375,-6.375,0.0,0.0,0.0,0.0,0.0,0.0,2,0,41.40340709725452,-91.51406959808936,10000.001741669455,-95.9537514121462,0.0026656303980392,-0.0015456186819373,,9196.85496766631,11171.809049041656,150,2,2025-09-09,2025-09-26 15:14:37.194,HH,D,38171586,HAWK11,1,1,73,2,1,1,225,2,1,0,0,12,1,225,2,1,-138940.20153983062,-4791703.130830611,4198276.270964146,-2.62579,0.0338435,-0.0101626,119.0,7.625,-0.125,-0.15625,-7.21875,7.70312,-0.210938,0.0117188,-0.0214844,4,0,41.40218770090137,-91.66088278650948,11143.544117043297,87.18069883389784,-2.31392377415575,-18.969352099576483,183.245,9196.85496766631,11171.809049041656,150,False,6.607630520898854,False,175.35503157915858,174.51559931941162,False,3.656768631079213,True,False
2,1970-07-23 09:45:08.781182534,2025-09-09,2025-09-26 15:14:38.118,HH,D,3652149592,JASSM,3,126,76,2,2,1,225,9,2,0,1,26,0,0,0,0,-126743.71716483062,-4791696.364229049,4198140.255339146,2.29608,-3.09912,0.0778495,-83.0,-3.375,-6.375,0.0,0.0,0.0,0.0,0.0,0.0,2,0,41.403321492883954,-91.5151601157691,10000.00106181312,-95.9544726324421,0.0034880646472133,-0.0015453254137926,,9196.85496766631,11171.809049041656,150,2,2025-09-09,2025-09-26 15:14:38.008,HH,D,38847618,HAWK11,1,1,73,2,1,1,225,2,1,0,0,12,1,225,2,1,-138871.92419608062,-4791698.775361861,4198276.851042271,-2.72818,0.0414175,-0.0287621,119.5,8.125,1.875,-0.078125,-7.5625,7.95312,-0.162109,0.0195312,-0.0234375,4,0,41.40222930223804,-91.66006856816465,11129.220028344404,86.09486613678385,-1.9320929155397863,-24.787349931734497,185.286,9196.85496766631,11171.809049041656,150,False,6.521841960184045,False,176.17602494052016,174.45935833788076,False,4.17349216100717,True,False
