Subject_cm,Timestamp,SampleDate_cm,SampleTime_cm,Configuration_cm,Scenario_cm,DisTime_cm,MarkingTxt_cm,Application_cm,EntId_cm,Site_cm,ExerciseId_cm,ForceId_cm,Category_cm,Country_cm,Domain_cm,Kind_cm,Extra_cm,Specific_cm,Subcategory_cm,AltCategory_cm,AltCountry_cm,AltDomain_cm,AltKind_cm,ECEF_X_cm,ECEF_Y_cm,ECEF_Z_cm,OriPhi_cm,OriPsi_cm,OriTheta_cm,LinVelX_cm,LinVelY_cm,LinVelZ_cm,LinAccX_cm,LinAccY_cm,LinAccZ_cm,AngVelX_cm,AngVelY_cm,AngVelZ_cm,DrAlg_cm,Appearance_cm,Latitude_cm,Longitude_cm,Altitude_cm,Heading_cm,Pitch_cm,Roll_cm,CalibratedAirspeed_cm,CM_Altitude_Lead_cm,CM_Altitude_Wing_cm,CM_Airspeed_cm,Subject_ac,SampleDate_ac,SampleTime_ac,Configuration_ac,Scenario_ac,DisTime_ac,MarkingTxt_ac,Application_ac,EntId_ac,Site_ac,ExerciseId_ac,ForceId_ac,Category_ac,Country_ac,Domain_ac,Kind_ac,Extra_ac,Specific_ac,Subcategory_ac,AltCategory_ac,AltCountry_ac,AltDomain_ac,AltKind_ac,ECEF_X_ac,ECEF_Y_ac,ECEF_Z_ac,OriPhi_ac,OriPsi_ac,OriTheta_ac,LinVelX_ac,LinVelY_ac,LinVelZ_ac,LinAccX_ac,LinAccY_ac,LinAccZ_ac,AngVelX_ac,AngVelY_ac,AngVelZ_ac,DrAlg_ac,Appearance_ac,Latitude_ac,Longitude_ac,Altitude_ac,Heading_ac,Pitch_ac,Roll_ac,CalibratedAirspeed_ac,CM_Altitude_Lead_ac,CM_Altitude_Wing_ac,CM_Airspeed_ac,Bank_Angle_Condition,distance_nm,Distance_Condition,angle_between_vel,angle_between_pos,Cone_Condition,angle_between_pos_nose,Nose_Cone_Condition,Intercept_Criteria
2,1970-07-23 09:44:53.359309530,2025-09-09,2025-09-26 14:48:55.930,HH,B,1812292434,JASSM,3,101,76,2,2,1,225,9,2,0,1,26,0,0,0,0,-155592.27380545562,-4777396.727510299,4213337.167448521,-2.71083,-1.01118,0.751842,33.375,-53.25,-58.75,0.0,0.0,0.0,0.0,0.0,0.0,2,0,41.58591446504316,-91.8653737905959,10000.00105583958,155.93948736754888,-0.0009236350560132,0.00484364606314,,8714.375071090433,10952.218357409804,150,2,2025-09-09,2025-09-26 14:48:56.005,HH,B,2494489208,HAWK11,1,1,73,2,1,1,225,2,1,0,0,12,1,225,2,1,-150735.16443045562,-4792623.601533736,4196739.546354771,2.31363,-2.96998,0.209197,-119.5,-2.0,-7.0,-0.03125,-7.35938,6.54688,0.00976562,0.00390625,0.0,4,0,41.38421794991755,-91.80144393240587,10951.308568884537,-106.6333746435902,0.6138182250810418,-0.1384556021389692,196.223,8714.375071090433,10952.218357409804,150,True,12.437227956516882,False,109.6919349763444,169.33685791808466,False,80.9527867017622,False,False
2,1970-07-23 09:44:53.370344487,2025-09-09,2025-09-26 14:48:57.034,HH,B,1813546350,JASSM,3,101,76,2,2,1,225,9,2,0,1,26,0,0,0,0,-155557.12829764312,-4777452.842744674,4213275.253386021,-2.71083,-1.01118,0.751842,33.375,-53.25,-58.75,0.0,0.0,0.0,0.0,0.0,0.0,2,0,41.58516952660352,-91.86493084366516,10000.000242169785,155.93978136804458,-0.0001083451882435,0.0048424592238415,,8714.375071090433,10952.218357409804,150,2,2025-09-09,2025-09-26 14:48:57.407,HH,B,2496119640,HAWK11,1,1,73,2,1,1,225,2,1,0,0,12,1,225,2,1,-150898.49060233062,-4792625.614229049,4196730.056120396,2.40768,-2.97247,0.200376,-119.5,-1.875,-6.375,-0.03125,-7.73438,6.98438,0.21875,0.00585938,0.0136719,4,0,41.38411133899825,-91.80339380707932,10948.321876709815,-106.16831936962156,0.8550631494591517,5.285055721234168,196.724,8714.375071090433,10952.218357409804,150,True,12.37556660136956,False,109.95484038876971,168.8921346474977,False,81.13696194322557,False,False
2,1970-07-23 09:44:53.381350721,2025-09-09,2025-09-26 14:48:58.135,HH,B,1814916858,JASSM,3,101,76,2,2,1,225,9,2,0,1,26,0,0,0,0,-155518.71521170562,-4777514.174775924,4213207.581511021,-2.71083,-1.01118,0.751842,33.375,-53.25,-58.75,0.0,0.0,0.0,0.0,0.0,0.0,2,0,41.58435531941768,-91.86444672649576,9999.999985949124,155.9401026898261,0.0007827515471927,0.0048411588054527,,8714.375071090433,10952.218357409804,150,2,2025-09-09,2025-09-26 14:48:58.111,HH,B,2496954740,HAWK11,1,1,73,2,1,1,225,2,1,0,0,12,1,225,2,1,-150982.29528983062,-4792626.656221236,4196725.731901646,2.55916,-2.97477,0.182927,-119.75,-1.375,-5.125,-0.140625,-8.25,7.35938,0.191406,0.0175781,0.0273438,4,0,41.38406024994996,-91.80439430625498,10948.000293648369,-105.3457493336644,1.4378839772029175,14.005676019870664,196.638,8714.375071090433,10952.218357409804,150,False,12.316195030471192,False,110.56508664664283,168.63645610241326,False,80.78496337080055,False,False
2,1970-07-23 09:44:53.393110394,2025-09-09,2025-09-26 14:48:59.311,HH,B,1816229208,JASSM,3,101,76,2,2,1,225,9,2,0,1,26,0,0,0,0,-155481.93200858062,-4777572.901338424,4213142.780729771,-2.71083,-1.01118,0.751938,33.375,-53.25,-58.75,0.0,0.0,0.0,0.0,0.0,0.0,2,0,41.58357567432284,-91.86398316323306,9999.996264905882,155.94270297541632,-0.0033539872099842,0.0048398852611111,,8714.375071090433,10952.218357409804,150,2,2025-09-09,2025-09-26 14:48:59.407,HH,B,2498505638,HAWK11,1,1,73,2,1,1,225,2,1,0,0,12,1,225,2,1,-151137.94958670562,-4792626.493135299,4196721.085417271,2.69127,-3.01351,0.128663,-120.125,1.375,-1.375,-0.21875,-8.09375,7.28125,0.0429688,0.00585938,0.046875,4,0,41.38400067173732,-91.80625336560476,10949.591827513485,-101.57118004761408,1.916224704681733,22.03005695751542,196.418,8714.375071090433,10952.218357409804,150,False,12.251582641429446,False,112.77835866883996,168.20292149621542,False,79.0077979129986,False,False
2,1970-07-23 09:44:53.403132055,2025-09-09,2025-09-26 14:49:00.313,HH,B,1817484182,JASSM,3,101,76,2,2,1,225,9,2,0,1,26,0,0,0,0,-155446.75622733062,-4777629.061494674,4213080.811979771,-2.71083,-1.01109,0.751938,33.375,-53.25,-58.75,0.0,0.0,0.0,0.0,0.0,0.0,2,0,41.58283009979916,-91.86353986808916,9999.99742244088,155.9393527130009,-0.0042125704976343,0.0010879673025674,,8714.375071090433,10952.218357409804,150,2,2025-09-09,2025-09-26 14:49:00.406,HH,B,2499658870,HAWK11,1,1,73,2,1,1,225,2,1,0,0,12,1,225,2,1,-151253.76794608062,-4792623.309541549,4196721.263151646,2.71841,-3.04898,0.0719054,-119.875,4.125,2.0,-0.078125,-8.10938,7.25,0.0214844,0.0175781,0.0292969,4,0,41.38399907578553,-91.80763779569445,10951.134193708072,-97.79937377479258,2.5897381436111786,23.93640191875852,196.186,8714.375071090433,10952.218357409804,150,False,12.190818174910417,False,114.85578879870154,167.86885860005887,False,77.2656183237094,False,False
2,1970-07-23 09:44:53.414650889,2025-09-09,2025-09-26 14:49:01.465,HH,B,1818855744,JASSM,3,101,76,2,2,1,225,9,2,0,1,26,0,0,0,0,-155408.31384451812,-4777690.436494674,4213013.085417271,-2.71083,-1.01109,0.751938,33.375,-53.25,-58.75,0.0,0.0,0.0,0.0,0.0,0.0,2,0,41.5820152674696,-91.86305541815594,9999.99566799776,155.939674240944,-0.0033207961139871,0.0010866446103927,,8714.375071090433,10952.218357409804,150,2,2025-09-09,2025-09-26 14:49:01.611,HH,B,2501050702,HAWK11,1,1,73,2,1,1,225,2,1,0,0,12,1,225,2,1,-151392.15075858062,-4792615.862275924,4196725.778776646,2.75522,-3.09135,0.0159151,-119.5,7.875,6.25,-0.109375,-8.21875,7.5625,0.0546875,0.0214844,0.0371094,4,0,41.3840478689438,-91.80929332324672,10953.35556761238,-93.78698902909952,2.911237939492041,26.34491842850913,196.027,8714.375071090433,10952.218357409804,150,False,12.120636869504596,False,117.56935725482255,167.47298194818538,False,74.94844982709134,False,False
2,1970-07-23 09:44:53.425322969,2025-09-09,2025-09-26 14:49:02.532,HH,B,1820167928,JASSM,3,101,76,2,2,1,225,9,2,0,1,26,0,0,0,0,-155371.53454764312,-4777749.153291549,4212948.292448521,-2.71083,-1.01109,0.751938,33.375,-53.25,-58.75,0.0,0.0,0.0,0.0,0.0,0.0,2,0,41.581235726577646,-91.86259193896367,9999.99922939312,155.93998184582648,-0.0024676403961478,0.001085395590635,,8714.375071090433,10952.218357409804,150,2,2025-09-09,2025-09-26 14:49:02.796,HH,B,2502482300,HAWK11,1,1,73,2,1,1,225,2,1,0,0,12,1,225,2,1,-151535.26208670562,-4792603.028291549,4196736.140104771,2.81533,-3.13383,-0.0396918,-118.625,12.25,11.125,-0.390625,-8.14062,7.40625,0.0488281,0.0078125,0.0390625,4,0,41.38416725235768,-91.81100736016542,10955.380548080266,-89.78367346841053,3.1955796789183872,29.97341068085582,195.539,8714.375071090433,10952.218357409804,150,False,12.048631633735765,False,120.7282622175706,167.06650073908682,False,72.19632293501779,False,False
2,1970-07-23 09:44:53.436328664,2025-09-09,2025-09-26 14:49:03.632,HH,B,1821480212,JASSM,3,101,76,2,2,1,225,9,2,0,1,26,0,0,0,0,-155334.75329764312,-4777807.873994674,4212883.491667271,-2.71083,-1.01109,0.751938,33.375,-53.25,-58.75,0.0,0.0,0.0,0.0,0.0,0.0,2,0,41.58045610818056,-91.86212844600078,9999.999839769976,155.940289455113,-0.0016144079942858,0.0010841327806017,,8714.375071090433,10952.218357409804,150,2,2025-09-09,2025-09-26 14:49:03.705,HH,B,2503715066,HAWK11,1,1,73,2,1,1,225,2,1,0,0,12,1,225,2,1,-151656.85095389312,-4792587.537080611,4196749.810026646,2.84304,3.10411,-0.0969284,-117.5,16.5,15.75,-0.15625,-8.73438,8.09375,0.00390625,0.0195312,0.0371094,4,0,41.384328801684696,-91.81246536203652,10956.378981556283,-85.60694080087136,3.4173654857572293,31.624807365445854,195.343,8714.375071090433,10952.218357409804,150,False,11.976875279001698,False,123.78155866325197,166.71171928830776,False,69.49770395044635,False,False
2,1970-07-23 09:44:53.448671743,2025-09-09,2025-09-26 14:49:04.867,HH,B,1822732944,JASSM,3,101,76,2,2,1,225,9,2,0,1,26,0,0,0,0,-155299.64099295562,-4777863.930635299,4212821.628386021,-2.71083,-1.01109,0.751938,33.375,-53.25,-58.75,0.0,0.0,0.0,0.0,0.0,0.0,2,0,41.5797118417148,-91.8616859942343,9999.99952783496,155.94058309543786,-0.0007998712926963,0.0010829186607261,,8714.375071090433,10952.218357409804,150,2,2025-09-09,2025-09-26 14:49:05.297,HH,B,2505584098,HAWK11,1,1,73,2,1,1,225,2,1,0,0,12,1,225,2,1,-151839.17028983062,-4792554.981416549,4196780.382292271,2.84592,3.0462,-0.163752,-115.125,23.25,23.125,-0.0625,-8.5625,7.79688,-0.00390625,0.0332031,0.0253906,4,0,41.38469449384387,-91.81465514029748,10956.79487428933,-80.55207080125193,3.476358358566113,31.662048991892974,194.5,8714.375071090433,10952.218357409804,150,False,11.889911502342175,False,128.70123045611774,166.20939018098255,False,65.08018884065125,False,False
2,1970-07-23 09:44:53.456131370,2025-09-09,2025-09-26 14:49:05.613,HH,B,1823806686,JASSM,3,101,76,2,2,1,225,9,2,0,1,26,0,0,0,0,-155269.54528983062,-4777911.975557174,4212768.604948521,-2.71083,-1.01109,0.751938,33.375,-53.25,-58.75,0.0,0.0,0.0,0.0,0.0,0.0,2,0,41.5790739341685,-91.86130676604644,9999.998629909192,155.94083477296903,-0.0001017327556575,0.0010818873524258,,8714.375071090433,10952.218357409804,150,2,2025-09-09,2025-09-26 14:49:05.345,HH,B,2505226198,HAWK11,1,1,73,2,1,1,225,2,1,0,0,12,1,225,2,1,-151803.36560233062,-4792562.147432174,4196773.548307896,2.85004,3.05598,-0.151768,-115.625,22.0,21.625,-0.25,-8.71875,7.70312,-0.0175781,0.0195312,0.0292969,4,0,41.38461248195978,-91.81422480764084,10956.812193461476,-81.43439053017558,3.4373219355863927,31.933090115235217,194.5,8714.375071090433,10952.218357409804,150,False,11.857501324952443,False,127.73689207859692,166.24930807009778,False,66.00416456486873,False,False
2,1970-07-23 09:44:53.465308840,2025-09-09,2025-09-26 14:49:06.530,HH,B,1824940402,JASSM,3,101,76,2,2,1,225,9,2,0,1,26,0,0,0,0,-155237.76892264312,-4777962.702119674,4212712.620573521,-2.71083,-1.01109,0.751938,33.375,-53.25,-58.75,0.0,0.0,0.0,0.0,0.0,0.0,2,0,41.578400410811895,-91.86090636888166,9999.997889770497,155.9411004960036,0.0006353843917771,0.0010808017109421,,8714.375071090433,10952.218357409804,150,2,2025-09-09,2025-09-26 14:49:06.796,HH,B,2507333828,HAWK11,1,1,73,2,1,1,225,2,1,0,0,12,1,225,2,1,-152004.18884451812,-4792515.854463424,4196818.952604771,2.84323,2.98733,-0.234891,-112.0,29.0,29.75,0.078125,-8.57812,7.85938,0.0,0.0292969,0.0488281,4,0,41.38515648743808,-91.81664080503772,10957.05916742576,-75.3004546121961,3.707596908375743,31.1689993979259,194.048,8714.375071090433,10952.218357409804,150,False,11.763622429530102,False,133.1625170802079,165.7038593920392,False,61.125292310700715,False,False
2,1970-07-23 09:44:53.476089866,2025-09-09,2025-09-26 14:49:07.608,HH,B,1826132830,JASSM,3,101,76,2,2,1,225,9,2,0,1,26,0,0,0,0,-155204.34704764312,-4778016.057588424,4212653.733854771,-2.71083,-1.01109,0.752034,33.375,-53.25,-58.75,0.0,0.0,0.0,0.0,0.0,0.0,2,0,41.57769197383299,-91.8604852457124,9999.998877152731,155.94367433429008,-0.0035822587477822,0.0010796029315215,,8714.375071090433,10952.218357409804,150,2,2025-09-09,2025-09-26 14:49:07.703,HH,B,2508447294,HAWK11,1,1,73,2,1,1,225,2,1,0,0,12,1,225,2,1,-152107.35778983062,-4792486.459932174,4196848.522917271,2.84323,2.95464,-0.265954,-109.875,32.25,33.75,-0.078125,-8.15625,7.23438,-0.0078125,0.0136719,0.0410156,4,0,41.385511479396655,-91.81788411874774,10956.931717287054,-72.75963782794953,3.5457356290955286,30.86541936786244,193.962,8714.375071090433,10952.218357409804,150,False,11.688288775163949,False,135.83523296242433,165.39408248517108,False,58.76370348796432,False,False
2,1970-07-23 09:44:53.484171089,2025-09-09,2025-09-26 14:49:08.417,HH,B,1827207366,JASSM,3,101,76,2,2,1,225,9,2,0,1,26,0,0,0,0,-155174.22888358062,-4778064.135713424,4212600.671354771,-2.71083,-1.01109,0.752034,33.375,-53.25,-58.75,0.0,0.0,0.0,0.0,0.0,0.0,2,0,41.57705360528916,-91.8601057591844,10000.00241347144,155.94392617331008,-0.0028836168043836,0.001078605944527,,8714.375071090433,10952.218357409804,150,2,2025-09-09,2025-09-26 14:49:08.297,HH,B,2509083560,HAWK11,1,1,73,2,1,1,225,2,1,0,0,12,1,225,2,1,-152165.62048514312,-4792468.083955611,4196866.601042271,2.8418,2.93441,-0.279376,-108.625,34.5,35.375,-0.15625,-8.01562,6.96875,-0.00976562,0.0195312,0.0390625,4,0,41.38573181951105,-91.8185869359206,10955.483926481282,-71.43853332708363,3.2349443700300653,30.548981742640244,193.852,8714.375071090433,10952.218357409804,150,False,11.629583586900273,False,137.26602065937215,165.19854989000007,False,57.52527780492442,False,False
2,1970-07-23 09:44:53.494308848,2025-09-09,2025-09-26 14:49:09.430,HH,B,1828340202,JASSM,3,101,76,2,2,1,225,9,2,0,1,26,0,0,0,0,-155142.47693045562,-4778114.821260299,4212544.726042271,-2.71083,-1.01109,0.752034,33.375,-53.25,-58.75,0.0,0.0,0.0,0.0,0.0,0.0,2,0,41.576380580582686,-91.85970569537604,9999.998430615931,155.94419166461333,-0.0021470527735415,0.0010775441768688,,8714.375071090433,10952.218357409804,150,2,2025-09-09,2025-09-26 14:49:09.500,HH,B,2510435626,HAWK11,1,1,73,2,1,1,225,2,1,0,0,12,1,225,2,1,-152286.57849295562,-4792425.402314986,4196908.546354771,2.83758,2.88772,-0.321561,-105.625,39.0,39.25,-0.359375,-8.10938,7.21875,-0.0117188,0.0175781,0.0371094,4,0,41.38624599878823,-91.82004777580464,10950.909329635748,-67.92588505244377,2.989127844544046,29.705912191363485,193.889,8714.375071090433,10952.218357409804,150,False,11.546109193171606,False,140.4341872886167,164.84424673904962,False,54.70593048245668,False,False
2,1970-07-23 09:44:53.503351032,2025-09-09,2025-09-26 14:49:10.335,HH,B,1829472314,JASSM,3,101,76,2,2,1,225,9,2,0,1,26,0,0,0,0,-155110.74450858062,-4778165.473604049,4212488.817839146,-2.71083,-1.01109,0.752034,33.375,-53.25,-58.75,0.0,0.0,0.0,0.0,0.0,0.0,2,0,41.57570799863935,-91.85930588674093,9999.99880307164,155.94445698305194,-0.0014109695869571,0.0010764948387543,,8714.375071090433,10952.218357409804,150,2,2025-09-09,2025-09-26 14:49:10.406,HH,B,2511549092,HAWK11,1,1,73,2,1,1,225,2,1,0,0,12,1,225,2,1,-152384.85095389312,-4792386.643525924,4196946.501432896,2.83806,2.85129,-0.35061,-103.25,42.25,42.375,-0.40625,-8.01562,7.28125,-0.00585938,0.0332031,0.0371094,4,0,41.38671417981544,-91.82123620436484,10945.565314127594,-65.36156131433226,2.6908024592350293,29.171867156968403,193.926,8714.375071090433,10952.218357409804,150,False,11.467650666781278,False,142.87191475214354,164.5435673558822,False,52.565634034345024,False,False
2,1970-07-23 09:44:53.513130822,2025-09-09,2025-09-26 14:49:11.313,HH,B,1830605964,JASSM,3,101,76,2,2,1,225,9,2,0,1,26,0,0,0,0,-155078.97009451812,-4778216.194307174,4212432.833464146,-2.71083,-1.01109,0.752034,33.375,-53.25,-58.75,0.0,0.0,0.0,0.0,0.0,0.0,2,0,41.57503450251715,-91.85890555682528,10000.001132951746,155.9447226438881,-0.0006738913851733,0.0010754352136128,,8714.375071090433,10952.218357409804,150,2,2025-09-09,2025-09-26 14:49:11.296,HH,B,2512662556,HAWK11,1,1,73,2,1,1,225,2,1,0,0,12,1,225,2,1,-152479.51794608062,-4792345.499971236,4196986.862761021,2.84036,2.81351,-0.377743,-100.875,45.125,45.375,-0.09375,-7.98438,7.48438,-0.0117188,0.00976562,0.0449219,4,0,41.38721345933471,-91.82238249458476,10939.29787443431,-62.83846481859565,2.3064401007040134,28.64264193730241,194.084,8714.375071090433,10952.218357409804,150,False,11.387876705395842,False,145.16423226971511,164.2495149709523,False,50.565446828963424,False,False
2,1970-07-23 09:44:53.522295329,2025-09-09,2025-09-26 14:49:12.229,HH,B,1831740428,JASSM,3,101,76,2,2,1,225,9,2,0,1,26,0,0,0,0,-155047.17224295562,-4778266.952119674,4212376.806120396,-2.71083,-1.01109,0.752034,33.375,-53.25,-58.75,0.0,0.0,0.0,0.0,0.0,0.0,2,0,41.5743604986793,-91.858504940062,10000.002539918038,155.9449884915399,6.373918674146934e-05,0.0010743708589802,,8714.375071090433,10952.218357409804,150,2,2025-09-09,2025-09-26 14:49:12.202,HH,B,2513656722,HAWK11,1,1,73,2,1,1,225,2,1,0,0,12,1,225,2,1,-152563.34314139312,-4792305.616182174,4197025.745573521,2.8439,2.78034,-0.400944,-98.5,47.875,48.125,-0.234375,-8.25,7.25,-0.0117188,0.0117188,0.0332031,4,0,41.38769730605273,-91.8233988330392,10932.079773103562,-60.65752453583013,1.9816419711631064,28.205893097128563,194.317,8714.375071090433,10952.218357409804,150,False,11.310099831247832,False,147.34016078357268,163.98007869831605,False,48.65587797723131,False,False
2,1970-07-23 09:44:53.531329061,2025-09-09,2025-09-26 14:49:13.132,HH,B,1832814228,JASSM,3,101,76,2,2,1,225,9,2,0,1,26,0,0,0,0,-155017.07458670562,-4778314.993135299,4212323.774870396,-2.71074,-1.01099,0.752034,33.375,-53.25,-58.75,0.0,0.0,0.0,0.0,0.0,0.0,2,0,41.573722551146346,-91.85812575260032,10000.000927220504,155.94159153962266,-0.000914825997622,0.0028088159519391,,8714.375071090433,10952.218357409804,150,2,2025-09-09,2025-09-26 14:49:13.144,HH,B,2514412288,HAWK11,1,1,73,2,1,1,225,2,1,0,0,12,1,225,2,1,-152625.25915701812,-4792274.472627486,4197056.659636021,2.8418,2.76145,-0.424529,-96.875,49.375,50.625,-0.390625,-8.48438,7.75,-0.00390625,0.0214844,0.0292969,4,0,41.38807951354453,-91.8241501844086,10927.367394237788,-59.00011917943715,2.234696988874345,27.71188890772533,194.463,8714.375071090433,10952.218357409804,150,False,11.2424969954952,False,148.91511549802496,163.76643684250232,False,47.3000194878347,False,False
2,1970-07-23 09:44:53.541088946,2025-09-09,2025-09-26 14:49:14.108,HH,B,1833947722,JASSM,3,101,76,2,2,1,225,9,2,0,1,26,0,0,0,0,-154985.30407889312,-4778365.704072799,4212267.794401646,-2.71074,-1.01099,0.752034,33.375,-53.25,-58.75,0.0,0.0,0.0,0.0,0.0,0.0,2,0,41.57304913451364,-91.85772549778632,9999.998312590347,155.94185714023652,-0.0001778395856375,0.0028077089716384,,8714.375071090433,10952.218357409804,150,2,2025-09-09,2025-09-26 14:49:14.004,HH,B,2515804120,HAWK11,1,1,73,2,1,1,225,2,1,0,0,12,1,225,2,1,-152735.81579764312,-4792213.957979049,4197117.735807896,2.84026,2.71313,-0.463933,-93.0,52.75,54.75,-0.28125,-8.04688,7.51562,-0.00976562,0.0117188,0.0429688,4,0,41.38883081281146,-91.82549368009435,10919.639980068258,-55.63305446127367,2.1019855766094824,26.561127534773515,194.39,8714.375071090433,10952.218357409804,150,False,11.147383941508146,False,152.05973865947985,163.42572087012402,False,44.497529193287484,False,False
2,1970-07-23 09:44:53.550169581,2025-09-09,2025-09-26 14:49:15.016,HH,B,1835081616,JASSM,3,101,76,2,2,1,225,9,2,0,1,26,0,0,0,0,-154953.52282889312,-4778416.432588424,4212211.794401646,-2.71074,-1.01099,0.75213,33.375,-53.25,-58.75,0.0,0.0,0.0,0.0,0.0,0.0,2,0,41.57237548207452,-91.8573251157894,9999.998903020767,155.94441608788338,-0.0044303067963565,0.0028065215457143,,8714.375071090433,10952.218357409804,150,2,2025-09-09,2025-09-26 14:49:14.906,HH,B,2516877818,HAWK11,1,1,73,2,1,1,225,2,1,0,0,12,1,225,2,1,-152817.61853201812,-4792165.157197799,4197167.667448521,2.84438,2.68082,-0.489628,-90.125,55.25,57.625,-0.09375,-8.3125,7.76562,-0.0078125,0.0214844,0.0234375,4,0,41.38944264376774,-91.82648930893606,10914.309598664704,-53.42585916406574,2.0407951026867823,26.027399701867942,194.317,8714.375071090433,10952.218357409804,150,False,11.062899192575323,False,154.32961166376043,163.1543954755716,False,42.49869906442823,False,False
2,1970-07-23 09:44:53.560308356,2025-09-09,2025-09-26 14:49:16.030,HH,B,1836212736,JASSM,3,101,76,2,2,1,225,9,2,0,1,26,0,0,0,0,-154921.81872733062,-4778467.038057174,4212155.929167271,-2.71074,-1.01099,0.75213,33.375,-53.25,-58.75,0.0,0.0,0.0,0.0,0.0,0.0,2,0,41.57170345497578,-91.85692571396496,10000.00062021404,155.94468111551623,-0.0036948467606423,0.0028054402765834,,8714.375071090433,10952.218357409804,150,2,2025-09-09,2025-09-26 14:49:16.095,HH,B,2518388950,HAWK11,1,1,73,2,1,1,225,2,1,0,0,12,1,225,2,1,-152929.26892264312,-4792092.810518111,4197242.616667271,2.85963,2.63471,-0.529319,-86.125,58.0,61.625,-0.125,-8.25,7.76562,0.0371094,0.0214844,0.0429688,4,0,41.390357740103696,-91.82785043522,10907.671744679734,-50.18781750243129,2.161769563910324,25.7304361676513,194.194,8714.375071090433,10952.218357409804,150,False,10.958736205427412,False,157.30726417807298,162.80489250137617,False,39.87633848345912,False,False
2,1970-07-23 09:44:53.569107805,2025-09-09,2025-09-26 14:49:16.910,HH,B,1837286478,JASSM,3,101,76,2,2,1,225,9,2,0,1,26,0,0,0,0,-154891.72302420562,-4778515.073213424,4212102.899870396,-2.71074,-1.01099,0.75213,33.375,-53.25,-58.75,0.0,0.0,0.0,0.0,0.0,0.0,2,0,41.57106554968357,-91.8565465832484,10000.001966170756,155.94493268876852,-0.0029967255959794,0.0028044253518857,,8714.375071090433,10952.218357409804,150,2,2025-09-09,2025-09-26 14:49:17.094,HH,B,2519621716,HAWK11,1,1,73,2,1,1,225,2,1,0,0,12,1,225,2,1,-153016.56579764312,-4792030.616182174,4197308.395964146,2.981,2.58543,-0.568052,-82.0,60.375,65.25,-0.265625,-8.85938,8.28125,0.113281,0.03125,0.0410156,4,0,41.39115515722271,-91.82891684233746,10904.21603465564,-46.9119771391063,2.24476509557858,31.33758574268296,194.891,8714.375071090433,10952.218357409804,150,False,10.865638592350912,False,160.13207349274748,162.51766174156955,False,37.34427958006354,False,False
2,1970-07-23 09:44:53.578168201,2025-09-09,2025-09-26 14:49:17.816,HH,B,1838420868,JASSM,3,101,76,2,2,1,225,9,2,0,1,26,0,0,0,0,-154859.92614920562,-4778565.821260299,4212046.872526646,-2.71074,-1.01099,0.75213,33.375,-53.25,-58.75,0.0,0.0,0.0,0.0,0.0,0.0,2,0,41.570391595259,-91.85614603101672,9999.999892327982,155.94519847288316,-0.002259152314952,0.0028033565722555,,8714.375071090433,10952.218357409804,150,2,2025-09-09,2025-09-26 14:49:17.702,HH,B,2520417048,HAWK11,1,1,73,2,1,1,225,2,1,0,0,12,1,225,2,1,-153070.26599295562,-4791988.957979049,4197352.892057896,3.05569,2.55504,-0.589049,-79.25,61.75,68.125,-0.171875,-8.67188,7.92188,0.0644531,0.0332031,0.0449219,4,0,41.39169312195908,-91.8295741470826,10902.47818311306,-45.0209442596763,2.2265338232524257,34.738220188907064,194.769,8714.375071090433,10952.218357409804,150,False,10.788049988348805,False,162.06833918497932,162.3100869677283,False,35.62081556053286,False,False
2,1970-07-23 09:44:53.589306835,2025-09-09,2025-09-26 14:49:18.930,HH,B,1839672700,JASSM,3,101,76,2,2,1,225,9,2,0,1,26,0,0,0,0,-154824.83923514312,-4778621.823213424,4211985.042448521,-2.71074,-1.01099,0.75213,33.375,-53.25,-58.75,0.0,0.0,0.0,0.0,0.0,0.0,2,0,41.56964784951817,-91.85570404194556,9999.996838023724,155.94549174806653,-0.0014452110928753,0.0028021554834126,,8714.375071090433,10952.218357409804,150,2,2025-09-09,2025-09-26 14:49:19.002,HH,B,2521888414,HAWK11,1,1,73,2,1,1,225,2,1,0,0,12,1,225,2,1,-153162.65466483062,-4791909.298799361,4197438.243620396,3.13258,2.47268,-0.636314,-72.125,66.5,72.0,-0.140625,-8.45312,8.07812,-0.00390625,0.0175781,0.046875,4,0,41.39272556413584,-91.83070808447874,10898.931296984878,-40.31214312673612,1.9517789000525116,36.60014925241693,194.805,8714.375071090433,10952.218357409804,150,False,10.674472488517843,False,166.47027171150677,161.99416797725112,False,31.527640565866182,False,False
2,1970-07-23 09:44:53.600665726,2025-09-09,2025-09-26 14:49:20.066,HH,B,1840867554,JASSM,3,101,76,2,2,1,225,9,2,0,1,26,0,0,0,0,-154791.34802420562,-4778675.276338424,4211926.028776646,-2.71074,-1.01099,0.75213,33.375,-53.25,-58.75,0.0,0.0,0.0,0.0,0.0,0.0,2,0,41.56893796821715,-91.85528216412052,10000.002814285432,155.94577167471576,-0.0006683248936454,0.0028010254510429,,8714.375071090433,10952.218357409804,150,2,2025-09-09,2025-09-26 14:49:20.004,HH,B,2523081412,HAWK11,1,1,73,2,1,1,225,2,1,0,0,12,1,225,2,1,-153231.83435233062,-4791840.642549361,4197511.120573521,-3.1391,2.4096,-0.667378,-66.75,69.625,74.75,-0.21875,-8.73438,8.07812,-0.0214844,0.0390625,0.0527344,4,0,41.39361275108798,-91.8315606297212,10893.574641284007,-36.94101493254364,1.698875293772052,35.17321118818043,194.769,8714.375071090433,10952.218357409804,150,False,10.573270731357573,False,169.64237102979388,161.73911975136096,False,28.599376717067916,True,False
2,1970-07-23 09:44:53.609146431,2025-09-09,2025-09-26 14:49:20.914,HH,B,1842060630,JASSM,3,101,76,2,2,1,225,9,2,0,1,26,0,0,0,0,-154757.90759451812,-4778728.647432174,4211867.101042271,-2.71074,-1.01099,0.75213,33.375,-53.25,-58.75,0.0,0.0,0.0,0.0,0.0,0.0,2,0,41.56822914366008,-91.85486093556706,10000.00249349246,155.94605116663985,0.0001073997508682,0.0027998895261487,,8714.375071090433,10952.218357409804,150,2,2025-09-09,2025-09-26 14:49:20.906,HH,B,2523916512,HAWK11,1,1,73,2,1,1,225,2,1,0,0,12,1,225,2,1,-153277.25525076812,-4791790.512666549,4197564.442839146,-3.13057,2.35897,-0.691442,-62.75,71.25,77.0,-0.265625,-8.70312,8.17188,-0.0292969,0.0371094,0.0351562,4,0,41.39426224890753,-91.83212232369944,10889.507578891078,-34.29928312116125,1.5734682078458653,33.91474152470892,194.854,8714.375071090433,10952.218357409804,150,False,10.487803905220098,False,171.92425122090847,161.543157077856,False,26.516636649995146,True,False
2,1970-07-23 09:44:53.619186468,2025-09-09,2025-09-26 14:49:21.918,HH,B,1843312992,JASSM,3,101,76,2,2,1,225,9,2,0,1,26,0,0,0,0,-154722.80505545562,-4778784.668916549,4211805.243620396,-2.71074,-1.01099,0.75213,33.375,-53.25,-58.75,0.0,0.0,0.0,0.0,0.0,0.0,2,0,41.56748509504664,-91.85441878125798,9999.998855993254,155.94634453892888,0.0009216724639271,0.0027987001010747,,8714.375071090433,10952.218357409804,150,2,2025-09-09,2025-09-26 14:49:21.802,HH,B,2525268576,HAWK11,1,1,73,2,1,1,225,2,1,0,0,12,1,225,2,1,-153344.56872733062,-4791707.361299361,4197652.823698521,-3.12894,2.29033,-0.716369,-56.5,74.125,79.625,-0.203125,-8.29688,7.71875,-0.046875,0.0253906,0.03125,4,0,41.39534066122648,-91.8329581580639,10881.995274665403,-31.00017609740608,1.1936122081472116,31.54147609326225,195.038,8714.375071090433,10952.218357409804,150,False,10.373496935914863,False,175.33004784244972,161.28525233162864,False,23.338253811382067,True,False
2,1970-07-23 09:44:53.630288644,2025-09-09,2025-09-26 14:49:23.028,HH,B,1844564394,JASSM,3,101,76,2,2,1,225,9,2,0,1,26,0,0,0,0,-154687.72888358062,-4778840.647432174,4211743.433073521,-2.71074,-1.01099,0.752226,33.375,-53.25,-58.75,0.0,0.0,0.0,0.0,0.0,0.0,2,0,41.56674161159729,-91.85397696955064,9999.998152976075,155.9489323727131,-0.0032574855304908,0.0027974841257872,,8714.375071090433,10952.218357409804,150,2,2025-09-09,2025-09-26 14:49:23.004,HH,B,2526620642,HAWK11,1,1,73,2,1,1,225,2,1,0,0,12,1,225,2,1,-153405.11950858062,-4791621.277314986,4197744.192839146,3.1415,2.22293,-0.745131,-50.625,76.375,82.125,-0.28125,-8.3125,7.76562,-0.0273438,0.0332031,0.046875,4,0,41.39645797222936,-91.83371436014768,10873.22952318594,-27.686058250801032,1.208928156675293,28.30214617012099,195.502,8714.375071090433,10952.218357409804,150,False,10.257429133093586,False,178.38564053287584,161.04286651350066,False,20.430020621044573,True,False
2,1970-07-23 09:44:53.641071680,2025-09-09,2025-09-26 14:49:24.107,HH,B,1845697894,JASSM,3,101,76,2,2,1,225,9,2,0,1,26,0,0,0,0,-154655.95837576812,-4778891.352510299,4211687.444792271,-2.71074,-1.01099,0.752226,33.375,-53.25,-58.75,0.0,0.0,0.0,0.0,0.0,0.0,2,0,41.56606816207409,-91.85357680318047,10000.00000468252,155.9491978782032,-0.002520482728459,0.0027964272861297,,8714.375071090433,10952.218357409804,150,2,2025-09-09,2025-09-26 14:49:24.202,HH,B,2527853408,HAWK11,1,1,73,2,1,1,225,2,1,0,0,12,1,225,2,1,-153454.76989920562,-4791540.970674361,4197830.308073521,-3.13105,2.16138,-0.765456,-45.625,77.5,84.75,-0.1875,-8.59375,8.0,-0.015625,0.0175781,0.0332031,4,0,41.39750752391005,-91.8343381684141,10866.427653766275,-24.870082896237925,1.0754350420582277,26.549961658222152,195.771,8714.375071090433,10952.218357409804,150,False,10.150446875780503,False,178.81671606451198,160.83510566313862,False,18.00404212238164,True,False
2,1970-07-23 09:44:53.650128011,2025-09-09,2025-09-26 14:49:25.012,HH,B,1846950200,JASSM,3,101,76,2,2,1,225,9,2,0,1,26,0,0,0,0,-154620.85681326812,-4778947.370088424,4211625.589323521,-2.71074,-1.01089,0.752226,33.375,-53.25,-58.75,0.0,0.0,0.0,0.0,0.0,0.0,2,0,41.565324144517085,-91.85313469154652,10000.003372858995,155.9458479300077,-0.0033808405571813,-0.0009566967061011,,8714.375071090433,10952.218357409804,150,2,2025-09-09,2025-09-26 14:49:25.202,HH,B,2529285006,HAWK11,1,1,73,2,1,1,225,2,1,0,0,12,1,225,2,1,-153505.91052420562,-4791446.552705611,4197932.997526646,3.13987,2.10548,-0.789137,-40.0,78.5,87.125,0.0,-8.375,7.9375,-0.0703125,0.0234375,0.0390625,4,0,41.39875261157078,-91.83498519946868,10861.00025571703,-22.228562621401935,1.3482943825285612,23.65611570545257,195.661,8714.375071090433,10952.218357409804,150,False,10.027448178127601,False,176.00353561299187,160.61355909608523,False,15.3964306789442,True,False
2,1970-07-23 09:44:53.661068380,2025-09-09,2025-09-26 14:49:26.106,HH,B,1848085946,JASSM,3,101,76,2,2,1,225,9,2,0,1,26,0,0,0,0,-154589.02282889312,-4778998.170869674,4211569.489714146,-2.71074,-1.01089,0.752226,33.375,-53.25,-58.75,0.0,0.0,0.0,0.0,0.0,0.0,2,0,41.564649383401765,-91.85273374536204,9999.999939774105,155.9461139454741,-0.0026423996221096,-0.0009577890261054,,8714.375071090433,10952.218357409804,150,2,2025-09-09,2025-09-26 14:49:26.406,HH,B,2530716604,HAWK11,1,1,73,2,1,1,225,2,1,0,0,12,1,225,2,1,-153550.70544608062,-4791350.588838424,4198037.987761021,2.96336,2.06014,-0.795081,-35.875,79.375,88.625,0.15625,-7.34375,6.82812,-0.113281,0.00390625,0.00976562,4,0,41.400023632560746,-91.83555704227405,10856.273411694008,-20.41474660810585,0.954831513815508,11.729902547749612,195.624,8714.375071090433,10952.218357409804,150,False,9.907598002006095,False,173.944546977281,160.41558644675433,False,13.546938182622496,True,False
2,1970-07-23 09:44:53.670672784,2025-09-09,2025-09-26 14:49:27.067,HH,B,1849276814,JASSM,3,101,76,2,2,1,225,9,2,0,1,26,0,0,0,0,-154555.64392264312,-4779051.438447799,4211510.665495396,-2.71074,-1.01089,0.752226,33.375,-53.25,-58.75,0.0,0.0,0.0,0.0,0.0,0.0,2,0,41.563941851874006,-91.8523133494402,9999.99902695573,155.94639286143428,-0.0018681011173023,-0.0009589430778817,,8714.375071090433,10952.218357409804,150,2,2025-09-09,2025-09-26 14:49:27.004,HH,B,2531472170,HAWK11,1,1,73,2,1,1,225,2,1,0,0,12,1,225,2,1,-153572.96423514312,-4791299.940400924,4198094.017057896,3.05837,2.02227,-0.808312,-34.25,79.625,89.125,0.09375,-7.95312,7.35938,0.207031,0.0117188,0.0546875,4,0,41.40069888715448,-91.8358423365554,10855.012603661124,-18.7337249228392,1.1171602438872672,15.644785987941408,196.235,8714.375071090433,10952.218357409804,150,False,9.82244959435797,False,173.15325533977216,160.26823340097152,False,12.90921192755338,True,False
2,1970-07-23 09:44:53.679128609,2025-09-09,2025-09-26 14:49:27.912,HH,B,1850410208,JASSM,3,101,76,2,2,1,225,9,2,0,1,26,0,0,0,0,-154523.87536795562,-4779102.135713424,4211454.679167271,-2.71074,-1.01089,0.752226,33.375,-53.25,-58.75,0.0,0.0,0.0,0.0,0.0,0.0,2,0,41.56326845563017,-91.85191324403544,10000.000493929385,155.94665831182192,-0.0011311603202451,-0.0009600406754535,,8714.375071090433,10952.218357409804,150,2,2025-09-09,2025-09-26 14:49:28.002,HH,B,2532665168,HAWK11,1,1,73,2,1,1,225,2,1,0,0,12,1,225,2,1,-153605.15954764312,-4791220.097627486,4198182.983854771,-3.07381,1.96877,-0.810709,-30.625,80.625,90.0,-0.203125,-7.28125,6.82812,0.0585938,0.00585938,0.015625,4,0,41.40176824743961,-91.83625752105598,10854.19539772346,-16.69302366194367,0.5483064729867224,22.106862180763237,196.076,8714.375071090433,10952.218357409804,150,False,9.715468313119118,False,171.3893925338952,160.09838578438473,False,11.308484601126887,True,False
2,1970-07-23 09:44:53.689166003,2025-09-09,2025-09-26 14:49:28.916,HH,B,1851664360,JASSM,3,101,76,2,2,1,225,9,2,0,1,26,0,0,0,0,-154488.72302420562,-4779158.231416549,4211392.727995396,-2.71074,-1.01089,0.752226,33.375,-53.25,-58.75,0.0,0.0,0.0,0.0,0.0,0.0,2,0,41.56252333047132,-91.85147053215988,9999.999091143043,155.94695202540433,-0.0003157241361079,-0.0009612560954066,,8714.375071090433,10952.218357409804,150,2,2025-09-09,2025-09-26 14:49:28.702,HH,B,2533420734,HAWK11,1,1,73,2,1,1,225,2,1,0,0,12,1,225,2,1,-153623.54236014312,-4791168.374971236,4198239.876432896,-3.02444,1.93617,-0.811668,-28.125,81.25,90.375,-0.0625,-7.21875,6.73438,0.0117188,0.00976562,0.0253906,4,0,41.40245645700271,-91.83649693803537,10851.868046261136,-15.450338427809577,0.2135559767500226,23.58975754989641,196.04,8714.375071090433,10952.218357409804,150,False,9.62750948012503,False,170.20091810522862,159.9529119599345,False,10.258815277586661,True,False
2,1970-07-23 09:44:53.700308839,2025-09-09,2025-09-26 14:49:30.030,HH,B,1852977344,JASSM,3,101,76,2,2,1,225,9,2,0,1,26,0,0,0,0,-154451.92028983062,-4779216.957979049,4211327.870573521,-2.71074,-1.01089,0.752226,33.375,-53.25,-58.75,0.0,0.0,0.0,0.0,0.0,0.0,2,0,41.56174325253969,-91.85100704710024,10000.000337942016,155.94725951615192,0.00053796657545,-0.0009625160814351,,8714.375071090433,10952.218357409804,150,2,2025-09-09,2025-09-26 14:49:29.907,HH,B,2534892100,HAWK11,1,1,73,2,1,1,225,2,1,0,0,12,1,225,2,1,-153654.95153983062,-4791066.893525924,4198351.415495396,-3.11734,1.87577,-0.838992,-23.25,81.875,91.625,-0.140625,-8.79688,8.10938,-0.130859,0.0292969,0.00976562,4,0,41.40380705287138,-91.83691104359625,10846.757143123064,-12.768453855656864,1.090191880784009,15.753964244337189,197.249,8714.375071090433,10952.218357409804,150,False,9.497279219517909,False,167.88133677627147,159.76864487155072,False,8.140972048755277,True,False
2,1970-07-23 09:44:53.712309704,2025-09-09,2025-09-26 14:49:31.230,HH,B,1854347042,JASSM,3,101,76,2,2,1,225,9,2,0,1,26,0,0,0,0,-154413.52868826812,-4779278.219697799,4211260.210417271,-2.71064,-1.01089,0.752322,33.375,-53.25,-58.75,0.0,0.0,0.0,0.0,0.0,0.0,2,0,41.56092947785192,-91.85052356418228,10000.000225275811,155.94987386358417,-0.0035610294531919,0.0045275920573208,,8714.375071090433,10952.218357409804,150,2,2025-09-09,2025-09-26 14:49:31.202,HH,B,2536442998,HAWK11,1,1,73,2,1,1,225,2,1,0,0,12,1,225,2,1,-153682.95349295562,-4790961.056611861,4198473.343229771,3.00775,1.8519,-0.8783,-20.0,79.375,94.625,-0.203125,-8.92188,8.59375,-0.101562,0.00390625,0.00390625,4,0,41.40525433113328,-91.83728613006068,10853.219419902089,-11.360128127345495,3.06383810393334,5.711194911519051,196.577,8714.375071090433,10952.218357409804,150,True,9.359395888408594,False,166.20946512798577,159.5871284612199,False,7.198836798619933,True,False
2,1970-07-23 09:44:53.722347392,2025-09-09,2025-09-26 14:49:32.234,HH,B,1855600674,JASSM,3,101,76,2,2,1,225,9,2,0,1,26,0,0,0,0,-154378.39001639312,-4779334.290010299,4211198.282682896,-2.71064,-1.01089,0.752322,33.375,-53.25,-58.75,0.0,0.0,0.0,0.0,0.0,0.0,2,0,41.560184653741175,-91.85008105778704,10000.001908149485,155.95016742737604,-0.0027459258893014,0.004526415631207,,8714.375071090433,10952.218357409804,150,2,2025-09-09,2025-09-26 14:49:32.406,HH,B,2537954130,HAWK11,1,1,73,2,1,1,225,2,1,0,0,12,1,225,2,1,-153706.38903983062,-4790861.221650924,4198593.628386021,2.96231,1.8357,-0.88597,-18.375,77.875,95.75,0.0,-7.65625,7.32812,0.00195312,-0.0078125,0.00195312,4,0,41.40665568534133,-91.8376043770334,10870.53255324832,-10.685380835719268,3.360257206882126,2.428437465065317,195.93,8714.375071090433,10952.218357409804,150,True,9.228753119988518,False,165.3425155559916,159.4245474928101,False,7.039012706724413,True,False
2,1970-07-23 09:44:53.734108864,2025-09-09,2025-09-26 14:49:33.410,HH,B,1856914148,JASSM,3,101,76,2,2,1,225,9,2,0,1,26,0,0,0,0,-154341.57458670562,-4779393.036104049,4211133.395964146,-2.71064,-1.01089,0.752322,33.375,-53.25,-58.75,0.0,0.0,0.0,0.0,0.0,0.0,2,0,41.55940425850874,-91.84961744656036,10000.000218394782,155.95047498771922,-0.0018919017633054,0.0045251719181918,,8714.375071090433,10952.218357409804,150,2,2025-09-09,2025-09-26 14:49:33.296,HH,B,2538789230,HAWK11,1,1,73,2,1,1,225,2,1,0,0,12,1,225,2,1,-153718.98962576812,-4790807.044893111,4198659.821745396,2.98302,1.81968,-0.88434,-17.75,77.875,95.75,0.328125,-6.98438,6.71875,0.0390625,-0.0175781,0.0253906,4,0,41.40742237273998,-91.83777568535857,10881.918182609625,-10.137225441680393,3.145471554116277,2.936005614248056,195.624,8714.375071090433,10952.218357409804,150,True,9.134398037068745,False,165.06379939029992,159.28015699747286,False,6.924694316088498,True,False
2,1970-07-23 09:44:53.745147342,2025-09-09,2025-09-26 14:49:34.514,HH,B,1858285516,JASSM,3,101,76,2,2,1,225,9,2,0,1,26,0,0,0,0,-154303.13611014312,-4779454.368135299,4211065.649870396,-2.71064,-1.01089,0.752322,33.375,-53.25,-58.75,0.0,0.0,0.0,0.0,0.0,0.0,2,0,41.55858948841274,-91.84913340997454,9999.996392009418,155.95079609321257,-0.0010002564564257,0.004523885267882,,8714.375071090433,10952.218357409804,150,2,2025-09-09,2025-09-26 14:49:34.594,HH,B,2540459428,HAWK11,1,1,73,2,1,1,225,2,1,0,0,12,1,225,2,1,-153742.34704764312,-4790697.134736861,4198792.811979771,3.04687,1.79543,-0.878683,-16.125,78.5,95.25,0.0625,-6.73438,6.4375,0.0078125,-0.00195312,-0.0078125,4,0,41.40896943040293,-91.8380968821894,10902.036727316168,-9.334954376358342,2.653165608735939,5.562512401606623,195.319,8714.375071090433,10952.218357409804,150,True,8.990867913693975,False,164.39922427213457,159.10068126516225,False,6.270508111089013,True,False
2,1970-07-23 09:44:53.755198460,2025-09-09,2025-09-26 14:49:35.519,HH,B,1859538424,JASSM,3,101,76,2,2,1,225,9,2,0,1,26,0,0,0,0,-154268.01696951812,-4779510.403291549,4211003.755339146,-2.71064,-1.01089,0.752322,33.375,-53.25,-58.75,0.0,0.0,0.0,0.0,0.0,0.0,2,0,41.55784508825758,-91.84869118298464,9999.998911350116,155.95108945807812,-0.0001856203448665,0.0045227147516499,,8714.375071090433,10952.218357409804,150,2,2025-09-09,2025-09-26 14:49:35.594,HH,B,2541692192,HAWK11,1,1,73,2,1,1,225,2,1,0,0,12,1,225,2,1,-153758.36364920562,-4790614.728486861,4198891.108854771,3.06547,1.77865,-0.875711,-14.75,79.125,94.75,0.046875,-6.4375,6.23438,0.00390625,-0.00195312,0.0136719,4,0,41.41012009236399,-91.8383198402493,10913.944678485836,-8.761958499525416,2.37357319019044,5.914103391752193,194.512,8714.375071090433,10952.218357409804,150,True,8.87572263396304,False,163.83128708852675,158.94712058428422,False,5.687181969846382,True,False
2,1970-07-23 09:44:53.766305655,2025-09-09,2025-09-26 14:49:36.630,HH,B,1860849146,JASSM,3,101,76,2,2,1,225,9,2,0,1,26,0,0,0,0,-154231.27868826812,-4779569.022432174,4210939.003386021,-2.71064,-1.01089,0.752322,33.375,-53.25,-58.75,0.0,0.0,0.0,0.0,0.0,0.0,2,0,41.55706633730138,-91.84822857812166,9999.999042425829,155.95139633661304,0.0006666004860193,0.0045214786195457,,8714.375071090433,10952.218357409804,150,2,2025-09-09,2025-09-26 14:49:36.500,HH,B,2542646592,HAWK11,1,1,73,2,1,1,225,2,1,0,0,12,1,225,2,1,-153769.55114920562,-4790550.906221236,4198966.454557896,3.04697,1.76513,-0.878683,-13.75,79.625,94.625,-0.078125,-6.73438,6.64062,-0.0800781,0.00390625,-0.00390625,4,0,41.41100620325344,-91.83847798115646,10921.376536552978,-8.24440727986433,2.45628085078923,4.280135377309072,194.365,8714.375071090433,10952.218357409804,150,True,8.774535708999855,False,163.39250462684262,158.7983638381203,False,5.311182101322738,True,False
2,1970-07-23 09:44:53.777404161,2025-09-09,2025-09-26 14:49:37.740,HH,B,1862103946,JASSM,3,101,76,2,2,1,225,9,2,0,1,26,0,0,0,0,-154196.10681326812,-4779625.139619674,4210877.013151646,-2.71064,-1.0108,0.752322,33.375,-53.25,-58.75,0.0,0.0,0.0,0.0,0.0,0.0,2,0,41.556320809665706,-91.84778570870988,9999.999034982582,155.94804727592074,-0.0001922177308654,0.0007677433697871,,8714.375071090433,10952.218357409804,150,2,2025-09-09,2025-09-26 14:49:37.702,HH,B,2544197490,HAWK11,1,1,73,2,1,1,225,2,1,0,0,12,1,225,2,1,-153786.64001639312,-4790446.808564986,4199088.962370396,2.95953,1.76791,-0.873123,-13.125,79.75,94.625,-0.28125,-6.875,6.67188,-0.0117188,0.00195312,0.0195312,4,0,41.41244911861144,-91.83872208405565,10932.581775014069,-8.399229598704286,2.161033202347918,-0.6135259256926776,193.901,8714.375071090433,10952.218357409804,150,True,8.641888067404627,False,163.10951013745608,158.63586620379135,False,5.1886453749729355,True,False
2,1970-07-23 09:44:53.788126866,2025-09-09,2025-09-26 14:49:38.812,HH,B,1863414496,JASSM,3,101,76,2,2,1,225,9,2,0,1,26,0,0,0,0,-154159.37341483062,-4779683.748994674,4210812.269011021,-2.71064,-1.0108,0.752418,33.375,-53.25,-58.75,0.0,0.0,0.0,0.0,0.0,0.0,2,0,41.55554216480133,-91.84732318782793,10000.001642829484,155.95064943816325,-0.0043326265132362,0.0007663817265148,,8714.375071090433,10952.218357409804,150,2,2025-09-09,2025-09-26 14:49:39.002,HH,B,2545788156,HAWK11,1,1,73,2,1,1,225,2,1,0,0,12,1,225,2,1,-153804.22888358062,-4790340.106416549,4199214.772917271,2.988,1.74634,-0.874177,-13.0,80.0,94.5,0.03125,-7.01562,6.8125,0.00976562,0.00195312,0.0,4,0,41.41392972265511,-91.8389731708376,10944.602764587911,-7.606070864462632,2.0931038221509826,0.0997768851673057,194.39,8714.375071090433,10952.218357409804,150,True,8.505013567069163,False,163.0633152767051,158.46142105988952,False,5.2446105269602965,True,False
2,1970-07-23 09:44:53.799195277,2025-09-09,2025-09-26 14:49:39.919,HH,B,1864669280,JASSM,3,101,76,2,2,1,225,9,2,0,1,26,0,0,0,0,-154124.20153983062,-4779739.864229049,4210750.276823521,-2.71064,-1.0108,0.752418,33.375,-53.25,-58.75,0.0,0.0,0.0,0.0,0.0,0.0,2,0,41.5547966319813,-91.84688033997875,10000.001256220605,155.95094319733644,-0.0035167603661981,0.0007651860644331,,8714.375071090433,10952.218357409804,150,2,2025-09-09,2025-09-26 14:49:39.796,HH,B,2546702788,HAWK11,1,1,73,2,1,1,225,2,1,0,0,12,1,225,2,1,-153814.05700858062,-4790278.772432174,4199287.056120396,2.98407,1.74557,-0.87667,-12.75,79.875,94.75,-0.015625,-7.17188,7.0625,-0.00976562,0.00195312,0.00195312,4,0,41.41478061530823,-91.83911413220363,10951.42170532508,-7.556255587411235,2.23072251693438,-0.1573221626103463,194.084,8714.375071090433,10952.218357409804,150,True,8.408194546394178,False,162.93140865836835,158.31045153966403,False,5.333292533852168,True,False
2,1970-07-23 09:44:53.810165572,2025-09-09,2025-09-26 14:49:41.016,HH,B,1866038898,JASSM,3,101,76,2,2,1,225,9,2,0,1,26,0,0,0,0,-154085.81189139312,-4779801.112275924,4210682.610807896,-2.71064,-1.0108,0.752418,33.375,-53.25,-58.75,0.0,0.0,0.0,0.0,0.0,0.0,2,0,41.55398288070332,-91.84639698926264,9999.998100754176,155.95126381878447,-0.0026262440693311,0.0007638767561704,,8714.375071090433,10952.218357409804,150,2,2025-09-09,2025-09-26 14:49:40.796,HH,B,2547935552,HAWK11,1,1,73,2,1,1,225,2,1,0,0,12,1,225,2,1,-153827.21814139312,-4790196.608369674,4199384.081511021,2.98637,1.72822,-0.880217,-12.625,79.625,95.0,-0.0625,-7.125,6.96875,0.0,0.00390625,0.00585938,4,0,41.4159217916832,-91.8393029148328,10960.983533024511,-6.8981073010305165,2.339086700230661,-0.7645842497472515,194.158,8714.375071090433,10952.218357409804,150,True,8.289786992206336,False,162.85425394959026,158.13399010655507,False,5.523763063839861,True,False
2,1970-07-23 09:44:53.820304522,2025-09-09,2025-09-26 14:49:42.030,HH,B,1867291954,JASSM,3,101,76,2,2,1,225,9,2,0,1,26,0,0,0,0,-154050.68884451812,-4779857.147432174,4210620.704557896,-2.71064,-1.0108,0.752418,33.375,-53.25,-58.75,0.0,0.0,0.0,0.0,0.0,0.0,2,0,41.5532383912607,-91.84595477829494,10000.000955062404,155.95155714644957,-0.0018115216854763,0.0007626870935285,,8714.375071090433,10952.218357409804,150,2,2025-09-09,2025-09-26 14:49:41.906,HH,B,2549208084,HAWK11,1,1,73,2,1,1,225,2,1,0,0,12,1,225,2,1,-153840.92614920562,-4790110.927705611,4199485.798307896,2.97918,1.73215,-0.880409,-12.625,79.625,95.0,-0.046875,-7.01562,6.85938,-0.00976562,0.0,-0.0214844,4,0,41.41711544737464,-91.83949958798692,10972.13155552557,-7.038759449939131,2.371654030123246,-1.0087113022005525,194.011,8714.375071090433,10952.218357409804,150,True,8.172517885558628,False,162.85425394959026,157.96255556639653,False,5.686067941453816,True,False
2,1970-07-23 09:44:53.833487485,2025-09-09,2025-09-26 14:49:43.348,HH,B,1868603948,JASSM,3,101,76,2,2,1,225,9,2,0,1,26,0,0,0,0,-154013.91443045562,-4779915.817354049,4210555.884245396,-2.71064,-1.0108,0.752418,33.375,-53.25,-58.75,0.0,0.0,0.0,0.0,0.0,0.0,2,0,41.552458872263045,-91.8454917868642,10000.001433052734,155.95186425359898,-0.0009584715263979,0.0007614316470244,,8714.375071090433,10952.218357409804,150,2,2025-09-09,2025-09-26 14:49:43.296,HH,B,2550957816,HAWK11,1,1,73,2,1,1,225,2,1,0,0,12,1,225,2,1,-153859.70837576812,-4789994.949189986,4199624.110807896,2.9603,1.72352,-0.896995,-12.875,79.0,95.375,-0.09375,-7.53125,7.34375,-0.00390625,0.015625,0.0078125,4,0,41.41873538270417,-91.83976852963228,10988.615690565824,-6.595695880617992,3.270084598949009,-2.452817783065604,193.742,8714.375071090433,10952.218357409804,150,True,8.027523681485894,False,162.92966705550097,157.76213831756303,False,6.143039911715307,True,False
2,1970-07-23 09:44:53.843347056,2025-09-09,2025-09-26 14:49:44.334,HH,B,1869918162,JASSM,3,101,76,2,2,1,225,9,2,0,1,26,0,0,0,0,-153977.07751639312,-4779974.584932174,4210490.952604771,-2.71064,-1.0108,0.752418,33.375,-53.25,-58.75,0.0,0.0,0.0,0.0,0.0,0.0,2,0,41.55167803089581,-91.84502802050184,9999.998980462931,155.95217187002427,-0.0001039757433003,0.0007601753157671,,8714.375071090433,10952.218357409804,150,2,2025-09-09,2025-09-26 14:49:44.409,HH,B,2552230348,HAWK11,1,1,73,2,1,1,225,2,1,0,0,12,1,225,2,1,-153873.64294608062,-4789910.343721236,4199726.401823521,2.96058,1.72534,-0.894886,-13.125,78.75,95.375,0.0,-7.21875,6.9375,-0.0117188,0.0078125,0.0,4,0,41.41992646762,-91.83996751385128,11003.693532674744,-6.677293757357024,3.1606479810079504,-2.3594140299553654,193.742,8714.375071090433,10952.218357409804,150,True,7.908358790178462,False,163.03788821666222,157.57188427274843,False,6.473577043487823,True,False
2,1970-07-23 09:44:53.854123725,2025-09-09,2025-09-26 14:49:45.412,HH,B,1871228638,JASSM,3,101,76,2,2,1,225,9,2,0,1,26,0,0,0,0,-153940.34509451812,-4780033.186494674,4210426.204557896,-2.71064,-1.0108,0.752418,33.375,-53.25,-58.75,0.0,0.0,0.0,0.0,0.0,0.0,2,0,41.550899394428434,-91.84456558051652,10000.001556761586,155.95247860193476,0.0007481037376317,0.0007589194193268,,8714.375071090433,10952.218357409804,150,2,2025-09-09,2025-09-26 14:49:45.406,HH,B,2553423348,HAWK11,1,1,73,2,1,1,225,2,1,0,0,12,1,225,2,1,-153886.67517264312,-4789832.215791549,4199821.155729771,2.951,1.72841,-0.896612,-13.25,78.25,95.75,0.078125,-7.15625,7.0625,-0.0117188,-0.00195312,-0.00195312,4,0,41.42102831465887,-91.84015323554397,11018.277283933136,-6.772434363429667,3.27509053676359,-2.776820600047242,193.278,8714.375071090433,10952.218357409804,150,True,7.794783080875181,False,163.051592684824,157.37966361942597,False,6.84946528015544,True,False
2,1970-07-23 09:44:53.864166670,2025-09-09,2025-09-26 14:49:46.416,HH,B,1872541176,JASSM,3,101,76,2,2,1,225,9,2,0,1,26,0,0,0,0,-153903.55505545562,-4780091.875947799,4210361.354948521,-2.71064,-1.0108,0.752513,33.375,-53.25,-58.75,0.0,0.0,0.0,0.0,0.0,0.0,2,0,41.55011955868444,-91.84410242784192,9999.99887927632,155.95507972465205,-0.0033879097104411,0.0007576345069124,,8714.375071090433,10952.218357409804,150,2,2025-09-09,2025-09-26 14:49:46.500,HH,B,2554775412,HAWK11,1,1,73,2,1,1,225,2,1,0,0,12,1,225,2,1,-153901.93200858062,-4789743.003877486,4199929.819792271,2.93585,1.73301,-0.899967,-13.625,77.875,95.75,-0.109375,-7.17188,6.98438,-0.015625,0.0078125,0.00390625,4,0,41.422289560430485,-91.84036980280946,11035.98396516622,-6.907806631159861,3.4901839528987906,-3.4464527905265583,192.887,8714.375071090433,10952.218357409804,150,True,7.671630964787783,False,163.21046665407226,157.17242900592726,False,7.272625170232077,True,False
2,1970-07-23 09:44:53.875284677,2025-09-09,2025-09-26 14:49:47.528,HH,B,1873794828,JASSM,3,101,76,2,2,1,225,9,2,0,1,26,0,0,0,0,-153868.41540701812,-4780147.932588424,4210299.413542271,-2.71064,-1.0108,0.752513,33.375,-53.25,-58.75,0.0,0.0,0.0,0.0,0.0,0.0,2,0,41.54937469815411,-91.84366006246567,9999.99857355623,155.95537313243108,-0.0025727932194673,0.000756471497148,,8714.375071090433,10952.218357409804,150,2,2025-09-09,2025-09-26 14:49:47.500,HH,B,2555729812,HAWK11,1,1,73,2,1,1,225,2,1,0,0,12,1,225,2,1,-153912.91833670562,-4789681.079072799,4200005.386198521,2.94687,1.7264,-0.895941,-14.0,78.0,95.375,-0.015625,-6.59375,6.42188,0.0234375,-0.0117188,0.0,4,0,41.42316589318749,-91.8405248668124,11048.614343775129,-6.706667904503648,3.229024457972747,-3.099358329358503,192.85,8714.375071090433,10952.218357409804,150,True,7.573836795393093,False,163.41664294951104,156.98351960669862,False,7.53583927292818,True,False
2,1970-07-23 09:44:53.885326780,2025-09-09,2025-09-26 14:49:48.532,HH,B,1875048404,JASSM,3,101,76,2,2,1,225,9,2,0,1,26,0,0,0,0,-153833.27771170562,-4780203.985322799,4210237.474089146,-2.71064,-1.0108,0.752513,33.375,-53.25,-58.75,0.0,0.0,0.0,0.0,0.0,0.0,2,0,41.5486298719092,-91.84321773213588,9999.997316026273,155.955666512645,-0.0017577171655243,0.000755306161562,,8714.375071090433,10952.218357409804,150,2,2025-09-09,2025-09-26 14:49:48.500,HH,B,2557081876,HAWK11,1,1,73,2,1,1,225,2,1,0,0,12,1,225,2,1,-153928.80017264312,-4789591.779268111,4200113.345182896,2.97659,1.72285,-0.892202,-14.125,78.5,94.75,-0.046875,-6.57812,6.45312,0.03125,-0.00195312,0.00195312,4,0,41.42442277988347,-91.84074895038428,11064.641233119002,-6.610367613791722,3.000463521560653,-1.549663995174232,192.569,8714.375071090433,10952.218357409804,150,True,7.453249993196633,False,163.53779349281294,156.76799022301583,False,7.642914439011407,True,False
2,1970-07-23 09:44:53.897344755,2025-09-09,2025-09-26 14:49:49.734,HH,B,1876359044,JASSM,3,101,76,2,2,1,225,9,2,0,1,26,0,0,0,0,-153796.54138358062,-4780262.588838424,4210172.716276646,-2.71054,-1.0107,0.752513,33.375,-53.25,-58.75,0.0,0.0,0.0,0.0,0.0,0.0,2,0,41.54785115107455,-91.84275528807046,10000.00122296432,155.9523311499123,-0.0025801745552579,0.0024923807982885,,8714.375071090433,10952.218357409804,150,2,2025-09-09,2025-09-26 14:49:49.702,HH,B,2558513476,HAWK11,1,1,73,2,1,1,225,2,1,0,0,12,1,225,2,1,-153945.64099295562,-4789497.094697799,4200226.477995396,3.00478,1.71499,-0.886066,-14.125,79.0,94.375,0.0625,-6.60938,6.42188,0.0175781,0.00195312,0.00585938,4,0,41.42574643802012,-91.84098657090732,11078.745499571098,-6.376327972787724,2.6152373332112244,-0.2729582417100268,192.337,8714.375071090433,10952.218357409804,150,True,7.326713273004281,False,163.5755266218216,156.53408248813142,False,7.754086803007244,True,False
2,1970-07-23 09:44:53.908667049,2025-09-09,2025-09-26 14:49:50.866,HH,B,1877612838,JASSM,3,101,76,2,2,1,225,9,2,0,1,26,0,0,0,0,-153761.39782889312,-4780318.649385299,4210110.765104771,-2.71054,-1.0107,0.752513,33.375,-53.25,-58.75,0.0,0.0,0.0,0.0,0.0,0.0,2,0,41.54710619674026,-91.8423129053443,10000.001828220124,155.95262455607673,-0.0017649624336734,0.0024911629273697,,8714.375071090433,10952.218357409804,150,2,2025-09-09,2025-09-26 14:49:50.702,HH,B,2559786008,HAWK11,1,1,73,2,1,1,225,2,1,0,0,12,1,225,2,1,-153960.39099295562,-4789412.985322799,4200325.976042271,3.02271,1.70387,-0.882902,-13.875,79.375,94.0,-0.28125,-6.625,6.48438,0.00195312,0.0,0.00390625,4,0,41.426915554916,-91.84119515139508,11089.098526760845,-5.998731559421517,2.38512500274237,0.2778287673860887,192.532,8714.375071090433,10952.218357409804,150,True,7.211613179218205,False,163.49341974055486,156.30928028578182,False,7.77970957618512,True,False
2,1970-07-23 09:44:53.918144994,2025-09-09,2025-09-26 14:49:51.814,HH,B,1878924004,JASSM,3,101,76,2,2,1,225,9,2,0,1,26,0,0,0,0,-153724.64587576812,-4780377.274385299,4210045.977995396,-2.71054,-1.0107,0.752513,33.375,-53.25,-58.75,0.0,0.0,0.0,0.0,0.0,0.0,2,0,41.54632714956595,-91.84185028763994,10000.002526709022,155.95293137827613,-0.000912443708592,0.002489890219937,,8714.375071090433,10952.218357409804,150,2,2025-09-09,2025-09-26 14:49:51.796,HH,B,2561098306,HAWK11,1,1,73,2,1,1,225,2,1,0,0,12,1,225,2,1,-153975.74450858062,-4789324.515596236,4200429.718229771,3.02271,1.69467,-0.876862,-13.75,79.875,94.0,-0.25,-6.6875,6.625,-0.0117188,-0.00390625,0.00195312,4,0,41.42813914238172,-91.84141262701768,11098.000952548866,-5.706567745495027,2.002469436890199,-0.1173530932009956,192.691,8714.375071090433,10952.218357409804,150,True,7.091307665113631,False,163.4389511945928,156.06674649797293,False,7.887995047486024,True,False
2,1970-07-23 09:44:53.929169014,2025-09-09,2025-09-26 14:49:52.916,HH,B,1880236148,JASSM,3,101,76,2,2,1,225,9,2,0,1,26,0,0,0,0,-153687.86657889312,-4780435.940400924,4209981.142057896,-2.71054,-1.0107,0.752513,33.375,-53.25,-58.75,0.0,0.0,0.0,0.0,0.0,0.0,2,0,41.54554753211038,-91.8413873378646,10000.000110580746,155.95323841598332,-5.930121628012657e-05,0.0024886204703009,,8714.375071090433,10952.218357409804,150,2,2025-09-09,2025-09-26 14:49:52.796,HH,B,2562291304,HAWK11,1,1,73,2,1,1,225,2,1,0,0,12,1,225,2,1,-153989.74743826812,-4789244.824189986,4200523.657682896,2.98752,1.6892,-0.879546,-13.875,77.75,96.125,-0.203125,-7.09375,6.9375,-0.0351562,0.0,0.00585938,4,0,41.42924459887068,-91.8416105964302,11107.107885976497,-5.490322744774102,2.1334784606039863,-2.3664577179237742,192.923,8714.375071090433,10952.218357409804,150,True,6.978183196289373,False,163.28561358602565,155.82308805748812,False,8.710086250015959,True,False
2,1970-07-23 09:44:53.939307914,2025-09-09,2025-09-26 14:49:53.930,HH,B,1881489554,JASSM,3,101,76,2,2,1,225,9,2,0,1,26,0,0,0,0,-153652.73376639312,-4780491.981416549,4209919.206511021,-2.71054,-1.0107,0.752609,33.375,-53.25,-58.75,0.0,0.0,0.0,0.0,0.0,0.0,2,0,41.54480279191072,-91.8409451226749,10000.00071083772,155.95582737483923,-0.0042366902305073,0.0024873292897945,,8714.375071090433,10952.218357409804,150,2,2025-09-09,2025-09-26 14:49:53.796,HH,B,2563404770,HAWK11,1,1,73,2,1,1,225,2,1,0,0,12,1,225,2,1,-154002.83142264312,-4789170.254854049,4200610.868620396,2.98513,1.68412,-0.894215,-14.25,79.25,94.375,-0.28125,-7.82812,7.6875,0.0078125,0.00976562,-0.00195312,4,0,41.43027434560245,-91.84179562135964,11114.135741696946,-5.21433418625571,2.949444624199889,-2.7171674808918613,193.156,8714.375071090433,10952.218357409804,150,True,6.87181291449996,False,163.63519175351706,155.5845912045808,False,8.693673862253046,True,False
2,1970-07-23 09:44:53.950685576,2025-09-09,2025-09-26 14:49:55.068,HH,B,1882742332,JASSM,3,101,76,2,2,1,225,9,2,0,1,26,0,0,0,0,-153617.61755545562,-4780547.991182174,4209857.302214146,-2.71054,-1.0107,0.752609,33.375,-53.25,-58.75,0.0,0.0,0.0,0.0,0.0,0.0,2,0,41.54405844363641,-91.84050312842427,9999.99814821863,155.9561205057851,-0.0034221436137352,0.0024861568243129,,8714.375071090433,10952.218357409804,150,2,2025-09-09,2025-09-26 14:49:54.906,HH,B,2564796602,HAWK11,1,1,73,2,1,1,225,2,1,0,0,12,1,225,2,1,-154019.59900076812,-4789078.850557174,4200720.606901646,2.97669,1.68738,-0.902077,-14.625,78.375,95.0,-0.203125,-7.42188,7.29688,-0.00195312,0.0136719,0.00195312,4,0,41.43155558010128,-91.8420311470304,11128.979459331336,-5.280671240441914,3.4112478581642445,-3.0580969402260574,193.156,8714.375071090433,10952.218357409804,150,True,6.75052057048628,False,163.74124535335667,155.31729325737246,False,9.300565636141622,True,False
2,1970-07-23 09:44:53.964269015,2025-09-09,2025-09-26 14:49:56.426,HH,B,1884055462,JASSM,3,101,76,2,2,1,225,9,2,0,1,26,0,0,0,0,-153580.81091483062,-4780606.700166549,4209792.415495396,-2.71054,-1.0107,0.752609,33.375,-53.25,-58.75,0.0,0.0,0.0,0.0,0.0,0.0,2,0,41.54327822732357,-91.8400398671079,10000.002029129755,155.95642773643604,-0.0025683541982544,0.0024849146137275,,8714.375071090433,10952.218357409804,150,2,2025-09-09,2025-09-26 14:49:56.702,HH,B,2566904232,HAWK11,1,1,73,2,1,1,225,2,1,0,0,12,1,225,2,1,-154045.81384451812,-4788940.395479049,4200888.395964146,3.00018,1.68028,-0.896804,-15.0,78.25,94.875,-0.109375,-6.53125,6.42188,0.0,-0.00390625,-0.00390625,4,0,41.43350671673945,-91.84239768124225,11154.941191797194,-5.062020220475487,3.0854104132307945,-2.0180515424691245,192.655,8714.375071090433,10952.218357409804,150,True,6.587141683088293,False,163.91967892170962,154.9734833262301,False,9.815065776728222,True,False
2,1970-07-23 09:44:53.972125415,2025-09-09,2025-09-26 14:49:57.212,HH,B,1885308238,JASSM,3,101,76,2,2,1,225,9,2,0,1,26,0,0,0,0,-153545.69568045562,-4780662.709932174,4209730.509245396,-2.71054,-1.0107,0.752609,33.375,-53.25,-58.75,0.0,0.0,0.0,0.0,0.0,0.0,2,0,41.54253386202948,-91.83959790531269,10000.003945924896,155.956720837022,-0.0017537987453761,0.0024837286878255,,8714.375071090433,10952.218357409804,150,2,2025-09-09,2025-09-26 14:49:57.092,HH,B,2567421200,HAWK11,1,1,73,2,1,1,225,2,1,0,0,12,1,225,2,1,-154052.44079764312,-4788906.065400924,4200929.667448521,2.99308,1.67885,-0.893064,-15.125,78.375,94.75,0.0,-6.625,6.46875,-0.0371094,0.0,0.00390625,4,0,41.433988237874445,-91.84249008439431,11160.67151354479,-5.033372740311606,2.8674194031720863,-2.4873115970457844,192.459,8714.375071090433,10952.218357409804,150,True,6.514032412739562,False,163.98977944991134,154.7500522953624,False,10.056034820515084,True,False
2,1970-07-23 09:44:53.982163228,2025-09-09,2025-09-26 14:49:58.216,HH,B,1886619100,JASSM,3,101,76,2,2,1,225,9,2,0,1,26,0,0,0,0,-153508.95251639312,-4780721.313447799,4209665.731901646,-2.71054,-1.0107,0.752609,33.375,-53.25,-58.75,0.0,0.0,0.0,0.0,0.0,0.0,2,0,41.541754995568574,-91.83913546627238,10000.001012206749,155.95702751310515,-0.0009014894733767,0.0024824907929383,,8714.375071090433,10952.218357409804,150,2,2025-09-09,2025-09-26 14:49:58.096,HH,B,2568574432,HAWK11,1,1,73,2,1,1,225,2,1,0,0,12,1,225,2,1,-154066.84704764312,-4788830.674775924,4201019.849089146,2.98522,1.67098,-0.89201,-15.375,78.625,94.375,0.03125,-6.51562,6.4375,0.00390625,0.0,-0.00390625,4,0,41.43504265591824,-91.84269125556564,11172.26644123496,-4.758182557205976,2.779553892871702,-3.2748675204769984,192.337,8714.375071090433,10952.218357409804,150,True,6.404731341052041,False,164.13974967689367,154.460589292696,False,10.38788799805002,True,False
2,1970-07-23 09:44:53.995065455,2025-09-09,2025-09-26 14:49:59.506,HH,B,1887932556,JASSM,3,101,76,2,2,1,225,9,2,0,1,26,0,0,0,0,-153472.13611014312,-4780780.034150924,4209600.825651646,-2.71054,-1.0107,0.752609,33.375,-53.25,-58.875,0.0,0.0,0.0,0.0,0.0,0.0,2,0,41.54097457384101,-91.83867211641537,10000.004093604306,155.95733478847782,-4.748041285949533e-05,0.0024812502097361,,8714.375071090433,10952.218357409804,150,2,2025-09-09,2025-09-26 14:49:59.406,HH,B,2570125330,HAWK11,1,1,73,2,1,1,225,2,1,0,0,12,1,225,2,1,-154087.04333670562,-4788727.797822799,4201141.683073521,2.90766,1.6823,-0.884628,-16.0,79.125,93.75,-0.015625,-6.60938,6.46875,-0.0878906,-0.0117188,-0.00390625,4,0,41.43647311857096,-91.84297220809889,11185.479726470125,-5.209133203643368,2.4024958251238773,-7.236116272439554,192.105,8714.375071090433,10952.218357409804,150,True,6.273060444994682,False,164.51206946860327,154.14264146696542,False,10.897024694036853,True,False
