Subject_cm,Timestamp,SampleDate_cm,SampleTime_cm,Configuration_cm,Scenario_cm,DisTime_cm,MarkingTxt_cm,Application_cm,EntId_cm,Site_cm,ExerciseId_cm,ForceId_cm,Category_cm,Country_cm,Domain_cm,Kind_cm,Extra_cm,Specific_cm,Subcategory_cm,AltCategory_cm,AltCountry_cm,AltDomain_cm,AltKind_cm,ECEF_X_cm,ECEF_Y_cm,ECEF_Z_cm,OriPhi_cm,OriPsi_cm,OriTheta_cm,LinVelX_cm,LinVelY_cm,LinVelZ_cm,LinAccX_cm,LinAccY_cm,LinAccZ_cm,AngVelX_cm,AngVelY_cm,AngVelZ_cm,DrAlg_cm,Appearance_cm,Latitude_cm,Longitude_cm,Altitude_cm,Heading_cm,Pitch_cm,Roll_cm,CalibratedAirspeed_cm,CM_Altitude_Lead_cm,CM_Altitude_Wing_cm,CM_Airspeed_cm,Subject_ac,SampleDate_ac,SampleTime_ac,Configuration_ac,Scenario_ac,DisTime_ac,MarkingTxt_ac,Application_ac,EntId_ac,Site_ac,ExerciseId_ac,ForceId_ac,Category_ac,Country_ac,Domain_ac,Kind_ac,Extra_ac,Specific_ac,Subcategory_ac,AltCategory_ac,AltCountry_ac,AltDomain_ac,AltKind_ac,ECEF_X_ac,ECEF_Y_ac,ECEF_Z_ac,OriPhi_ac,OriPsi_ac,OriTheta_ac,LinVelX_ac,LinVelY_ac,LinVelZ_ac,LinAccX_ac,LinAccY_ac,LinAccZ_ac,AngVelX_ac,AngVelY_ac,AngVelZ_ac,DrAlg_ac,Appearance_ac,Latitude_ac,Longitude_ac,Altitude_ac,Heading_ac,Pitch_ac,Roll_ac,CalibratedAirspeed_ac,CM_Altitude_Lead_ac,CM_Altitude_Wing_ac,CM_Airspeed_ac,Bank_Angle_Condition,distance_nm,Distance_Condition,angle_between_vel,angle_between_pos,Cone_Condition,angle_between_pos_nose,Nose_Cone_Condition,Intercept_Criteria
2,1970-07-23 09:45:01.902204565,2025-09-09,2025-09-26 15:03:10.220,HH,C,2831394272,JASSM,3,117,76,2,2,1,225,9,2,0,1,26,0,0,0,0,-103898.92449342164,-4798518.590894994,4191017.3578782086,2.29972,3.00238,-0.132498,-83.375,11.75,11.25,0.0,0.0,0.0,0.0,0.0,0.0,2,0,41.317913391959806,-91.24039111746266,10000.00142463783,-79.86417327670793,-0.0054335068399026,-0.0012669737278797,,9260.064158607724,11112.292394974402,150,2,2025-09-09,2025-09-26 15:03:10.094,HH,C,3513429440,HAWK11,1,1,73,2,1,1,225,2,1,0,0,12,1,225,2,1,-138185.27185233062,-4791578.634736861,4198428.179167271,2.15716,-3.1368,-0.0667282,-90.75,6.0,5.625,0.15625,-6.96875,7.65625,0.0117188,0.00390625,-0.00195312,4,0,41.404083615705616,-91.65190631145217,11113.211781741598,-88.40148884269524,3.97141642071162,-7.68815672067219,152.449,9260.064158607724,11112.292394974402,150,True,19.25155028381888,False,5.86242440178796,174.4965177629264,False,168.66732143538815,False,False
2,1970-07-23 09:45:01.913224175,2025-09-09,2025-09-26 15:03:11.322,HH,C,2832706810,JASSM,3,117,76,2,2,1,225,9,2,0,1,26,0,0,0,0,-103990.81316529664,-4798505.717848119,4191029.733854771,2.29972,3.00238,-0.132498,-83.375,11.75,11.25,0.0,0.0,0.0,0.0,0.0,0.0,2,0,41.318061695182834,-91.24149111123404,10000.00003316608,-79.8648995337802,-0.0045941437687255,-0.0012675785863104,,9260.064158607724,11112.292394974402,150,2,2025-09-09,2025-09-26 15:03:11.300,HH,C,3514900806,HAWK11,1,1,73,2,1,1,225,2,1,0,0,12,1,225,2,1,-138297.03747733062,-4791572.120088424,4198434.054167271,2.16004,-3.11839,-0.0582913,-91.25,4.5,4.875,-0.015625,-6.90625,7.6875,0.0,0.0078125,-0.015625,4,0,41.404142845682166,-91.65324389507433,11117.86649550418,-89.46304283124368,4.444383596203484,-7.535340649727989,153.635,9260.064158607724,11112.292394974402,150,True,19.26038927578767,False,6.894478675319164,174.51934626432472,False,167.68603254986863,False,False
2,1970-07-23 09:45:01.923364813,2025-09-09,2025-09-26 15:03:12.336,HH,C,2834017560,JASSM,3,117,76,2,2,1,225,9,2,0,1,26,0,0,0,0,-104082.57683717164,-4798492.862379369,4191042.091276646,2.29972,3.00238,-0.132498,-83.375,11.75,11.25,0.0,0.0,0.0,0.0,0.0,0.0,2,0,41.31820977415395,-91.24258961359718,9999.999573145273,-79.86562480831253,-0.0037559246666664,-0.0012681707567311,,9260.064158607724,11112.292394974402,150,2,2025-09-09,2025-09-26 15:03:12.204,HH,C,3515934738,HAWK11,1,1,73,2,1,1,225,2,1,0,0,12,1,225,2,1,-138376.14685233062,-4791568.486299361,4198437.813932896,2.1493,-3.10545,-0.0511007,-91.5,3.375,4.5,0.0,-7.04688,7.79688,-0.0234375,0.0117188,-0.0117188,4,0,41.40417625457356,-91.65419032057324,11122.704231486385,-90.26449639645236,4.729368006095834,-8.174110169131794,153.94,9260.064158607724,11112.292394974402,150,True,19.251902179363483,False,7.590813708208019,174.53269300059986,False,167.0328074124627,False,False
2,1970-07-23 09:45:01.934363695,2025-09-09,2025-09-26 15:03:13.436,HH,C,2835271656,JASSM,3,117,76,2,2,1,225,9,2,0,1,26,0,0,0,0,-104170.37371217164,-4798480.561598119,4191053.9145188336,2.29972,3.00238,-0.132498,-83.375,11.75,11.25,0.0,0.0,0.0,0.0,0.0,0.0,2,0,41.318351448313166,-91.24364063438122,10000.000811960166,-79.86631873563968,-0.0029539391642481,-0.0012687433807124,,9260.064158607724,11112.292394974402,150,2,2025-09-09,2025-09-26 15:03:13.406,HH,C,3517406104,HAWK11,1,1,73,2,1,1,225,2,1,0,0,12,1,225,2,1,-138489.81286795562,-4791564.785127486,4198442.620573521,2.1353,-3.08963,-0.042568,-91.75,1.75,3.75,0.109375,-6.98438,7.79688,-0.0136719,0.0136719,-0.0078125,4,0,41.404211181592224,-91.65554964072396,11132.107507501232,-91.23402815037004,5.087233317175726,-9.016604047946512,154.478,9260.064158607724,11112.292394974402,150,True,19.263534912718185,False,8.682905981634898,174.56088527597507,False,166.00243183048167,False,False
2,1970-07-23 09:45:01.945425645,2025-09-09,2025-09-26 15:03:14.542,HH,C,2836582202,JASSM,3,117,76,2,2,1,225,9,2,0,1,26,0,0,0,0,-104262.12371217164,-4798467.705152807,4191066.269011021,2.29972,3.00238,-0.132498,-83.375,11.75,11.25,0.0,0.0,0.0,0.0,0.0,0.0,2,0,41.31849949452652,-91.24473898355566,9999.999647907742,-79.86704391321881,-0.0021158427088607,-0.0012693449536683,,9260.064158607724,11112.292394974402,150,2,2025-09-09,2025-09-26 15:03:14.594,HH,C,3518797936,HAWK11,1,1,73,2,1,1,225,2,1,0,0,12,1,225,2,1,-138596.46521170562,-4791563.246064986,4198445.970182896,2.15074,-3.074,-0.0324053,-92.0,0.25,2.875,0.0,-6.89062,7.5625,0.0820312,0.00390625,-0.0117188,4,0,41.40422460157962,-91.65682441703864,11143.175237130048,-92.26760482255052,5.374473843519533,-8.192844060141697,154.967,9260.064158607724,11112.292394974402,150,True,19.268997449497014,False,9.76133501008632,174.58904914300794,False,164.97217599570104,False,False
2,1970-07-23 09:45:01.956450397,2025-09-09,2025-09-26 15:03:15.645,HH,C,2837896926,JASSM,3,117,76,2,2,1,225,9,2,0,1,26,0,0,0,0,-104354.16668092164,-4798454.807691869,4191078.661589146,2.29972,3.00238,-0.132498,-83.375,11.75,11.25,0.0,0.0,0.0,0.0,0.0,0.0,2,0,41.31864799350159,-91.24584084487569,10000.000123765316,-79.8677714118189,-0.0012750717992953,-0.0012699391223654,,9260.064158607724,11112.292394974402,150,2,2025-09-09,2025-09-26 15:03:15.704,HH,C,3519871634,HAWK11,1,1,73,2,1,1,225,2,1,0,0,12,1,225,2,1,-138679.42810233062,-4791563.056611861,4198447.948698521,2.35955,-3.07717,-0.0236808,-92.125,-0.25,2.875,0.0625,-6.375,6.90625,0.414062,-0.015625,0.0214844,4,0,41.40422480275795,-91.65781569297272,11152.906867545003,-92.52413926276876,4.908563025277414,3.7432253794027672,155.016,9260.064158607724,11112.292394974402,150,True,19.261780422200356,False,10.013315846734606,174.60944353770844,False,164.7620026185751,False,False
2,1970-07-23 09:45:01.967183474,2025-09-09,2025-09-26 15:03:16.718,HH,C,2839209090,JASSM,3,117,76,2,2,1,225,9,2,0,1,26,0,0,0,0,-104446.02800904664,-4798441.933668432,4191091.0297532086,2.29972,3.00238,-0.132402,-83.375,11.75,11.25,0.0,0.0,0.0,0.0,0.0,0.0,2,0,41.31879620115571,-91.24694053725644,10000.000226834129,-79.87259469910092,-0.0040948949347895,-0.0012703820694479,,9260.064158607724,11112.292394974402,150,2,2025-09-09,2025-09-26 15:03:17.000,HH,C,3521661132,HAWK11,1,1,73,2,1,1,225,2,1,0,0,12,1,225,2,1,-138817.99841483062,-4791560.146455611,4198452.354948521,2.72761,-3.12654,-0.101434,-92.375,3.25,5.625,-0.125,-8.0625,8.84375,0.111328,0.0449219,0.0761719,4,0,41.40424798620319,-91.6594722858018,11165.17943505565,-87.29255029960466,5.727904515668193,25.139776739080485,156.482,9260.064158607724,11112.292394974402,150,False,19.28393254696541,False,7.264182267905546,174.6492908217756,False,167.54656365624183,False,False
2,1970-07-23 09:45:01.978223272,2025-09-09,2025-09-26 15:03:17.822,HH,C,2840521070,JASSM,3,117,76,2,2,1,225,9,2,0,1,26,0,0,0,0,-104537.87761842164,-4798429.060621557,4191103.394987584,2.29972,3.00238,-0.132402,-83.375,11.75,11.25,0.0,0.0,0.0,0.0,0.0,0.0,2,0,41.31894437421245,-91.24804009450366,10000.000256912672,-79.87332068069749,-0.0032558886061881,-0.0012710417721778,,9260.064158607724,11112.292394974402,150,2,2025-09-09,2025-09-26 15:03:17.906,HH,C,3522734830,HAWK11,1,1,73,2,1,1,225,2,1,0,0,12,1,225,2,1,-138901.22107108062,-4791556.161104049,4198459.370573521,2.75388,3.12194,-0.155891,-92.0,5.875,10.0,-0.0625,-8.14062,9.0,-0.0234375,0.03125,0.0273438,4,0,41.40430470279559,-91.66046797810104,11176.531604366864,-83.62530744178339,6.291957794322962,26.773813214482544,156.629,9260.064158607724,11112.292394974402,150,False,19.277921289857122,False,4.562596697269425,174.66013347994013,False,170.55515483872048,False,False
2,1970-07-23 09:45:01.989264285,2025-09-09,2025-09-26 15:03:18.926,HH,C,2841833322,JASSM,3,117,76,2,2,1,225,9,2,0,1,26,0,0,0,0,-104629.74675904664,-4798416.184644994,4191115.761198521,2.29972,3.00229,-0.132402,-83.375,11.75,11.25,0.0,0.0,0.0,0.0,0.0,0.0,2,0,41.319092558237074,-91.2491398905968,10000.000729595558,-79.87042101056366,-0.0064767785591805,-0.0019969309931723,,9260.064158607724,11112.292394974402,150,2,2025-09-09,2025-09-26 15:03:19.094,HH,C,3524126662,HAWK11,1,1,73,2,1,1,225,2,1,0,0,12,1,225,2,1,-139008.35974295562,-4791547.063447799,4198474.259245396,2.7022,3.10622,-0.202869,-91.0,9.125,15.25,-0.109375,-8.0625,8.82812,-0.046875,0.0234375,0.0332031,4,0,41.40444084027577,-91.66175118232204,11194.101990081192,-80.99324472733824,7.386961866584365,23.965821216519863,155.456,9260.064158607724,11112.292394974402,150,False,19.28565658554427,False,2.9325169985572708,174.66725047390779,False,174.02584183421598,False,False
2,1970-07-23 09:45:01.999403412,2025-09-09,2025-09-26 15:03:19.940,HH,C,2843086308,JASSM,3,117,76,2,2,1,225,9,2,0,1,26,0,0,0,0,-104717.46550904664,-4798403.888746557,4191127.5688157086,2.29972,3.00229,-0.132402,-83.375,11.75,11.25,0.0,0.0,0.0,0.0,0.0,0.0,2,0,41.31923404807126,-91.25019000605268,10000.001547964745,-79.87111435227821,-0.0056755053914373,-0.0019975107554581,,9260.064158607724,11112.292394974402,150,2,2025-09-09,2025-09-26 15:03:19.906,HH,C,3525081062,HAWK11,1,1,73,2,1,1,225,2,1,0,0,12,1,225,2,1,-139080.88513358062,-4791538.806611861,4198487.882292271,2.67718,3.081,-0.240164,-90.125,11.0,18.625,0.15625,-7.875,8.65625,0.00195312,0.0332031,0.0566406,4,0,41.40456939606505,-91.66262055139067,11208.528778241423,-78.43342173126824,7.719088616974922,22.551220610485608,155.309,9260.064158607724,11112.292394974402,150,False,19.277559144858312,False,4.1178142243997895,174.66186583057822,False,175.74302756579613,False,False
2,1970-07-23 09:45:02.011446265,2025-09-09,2025-09-26 15:03:21.144,HH,C,2844398674,JASSM,3,117,76,2,2,1,225,9,2,0,1,26,0,0,0,0,-104809.34246217164,-4798391.008863744,4191139.935026646,2.29972,3.00229,-0.132402,-83.375,11.75,11.25,0.0,0.0,0.0,0.0,0.0,0.0,2,0,41.319382233739006,-91.2512899061438,10000.001609304314,-79.8718405665367,-0.0048362488125659,-0.0019981168912851,,9260.064158607724,11112.292394974402,150,2,2025-09-09,2025-09-26 15:03:21.204,HH,C,3526552426,HAWK11,1,1,73,2,1,1,225,2,1,0,0,12,1,225,2,1,-139190.36950858062,-4791523.318330611,4198514.384245396,2.84093,3.03479,-0.318589,-88.125,14.25,24.5,-0.21875,-8.57812,9.35938,0.144531,0.0546875,0.0664062,4,0,41.40482151166801,-91.6639340051621,11235.75664976153,-73.3181107898124,8.732708454754897,31.935252491588564,155.175,9260.064158607724,11112.292394974402,150,False,19.288452561605904,False,7.819999080871741,174.64980789628166,False,175.9701926559041,False,False
2,1970-07-23 09:45:02.022224206,2025-09-09,2025-09-26 15:03:22.222,HH,C,2845710900,JASSM,3,117,76,2,2,1,225,9,2,0,1,26,0,0,0,0,-104901.20964967164,-4798378.128980932,4191152.298307896,2.29972,3.00229,-0.132402,-83.375,11.75,11.25,0.0,0.0,0.0,0.0,0.0,0.0,2,0,41.31953039035867,-91.252389694665,9999.999296364014,-79.87256670927577,-0.0039970816859635,-0.0019987201334161,,9260.064158607724,11112.292394974402,150,2,2025-09-09,2025-09-26 15:03:22.298,HH,C,3527984026,HAWK11,1,1,73,2,1,1,225,2,1,0,0,12,1,225,2,1,-139294.10974295562,-4791503.163057174,4198548.341276646,3.02165,2.9603,-0.408327,-84.625,19.625,31.5,-0.046875,-8.65625,9.64062,0.103516,0.0722656,0.0820312,4,0,41.40515269105966,-91.66518045752332,11267.277287409996,-66.74335803182748,9.103864377572013,41.7908335836193,153.794,9260.064158607724,11112.292394974402,150,False,19.29770371819529,False,13.251424885675243,174.62170600105839,False,171.8020086835033,False,False
2,1970-07-23 09:45:02.033290368,2025-09-09,2025-09-26 15:03:23.329,HH,C,2847021358,JASSM,3,117,76,2,2,1,225,9,2,0,1,26,0,0,0,0,-104992.95183717164,-4798365.265699682,4191164.644987584,2.29972,3.00229,-0.132402,-83.375,11.75,11.25,0.0,0.0,0.0,0.0,0.0,0.0,2,0,41.319678341875424,-91.2534879919602,9999.99967719796,-79.87329186956278,-0.0031590549967622,-0.0019993293521119,,9260.064158607724,11112.292394974402,150,2,2025-09-09,2025-09-26 15:03:23.406,HH,C,3529256558,HAWK11,1,1,73,2,1,1,225,2,1,0,0,12,1,225,2,1,-139382.46325858062,-4791478.584932174,4198585.876432896,3.13498,2.86346,-0.486464,-80.0,26.125,37.75,-0.0625,-8.71875,9.67188,-0.03125,0.0703125,0.0898438,4,0,41.40553698366871,-91.66624461966413,11294.588245724324,-59.99347213446393,8.382038028177014,46.90747816398134,152.449,9260.064158607724,11112.292394974402,150,False,19.299960511745528,False,19.14988592650442,174.57832005675084,False,166.2073052001775,False,False
2,1970-07-23 09:45:02.043386063,2025-09-09,2025-09-26 15:03:24.338,HH,C,2848274056,JASSM,3,117,76,2,2,1,225,9,2,0,1,26,0,0,0,0,-105080.65105592164,-4798352.968824682,4191176.4457688336,2.29972,3.00229,-0.132402,-83.375,11.75,11.25,0.0,0.0,0.0,0.0,0.0,0.0,2,0,41.31981975416392,-91.2545378933687,9999.999204487573,-79.87398507804699,-0.0023579607241076,-0.0019999024348392,,9260.064158607724,11112.292394974402,150,2,2025-09-09,2025-09-26 15:03:24.406,HH,C,3530529090,HAWK11,1,1,73,2,1,1,225,2,1,0,0,12,1,225,2,1,-139464.32653983062,-4791447.731416549,4198629.075651646,-3.12002,2.75934,-0.532962,-74.75,32.5,42.875,0.078125,-7.17188,7.96875,0.00976562,-0.0078125,0.078125,4,0,41.40599795502551,-91.66723342997928,11318.294316761148,-54.42223612781761,6.466150116823342,46.32953835688747,150.946,9260.064158607724,11112.292394974402,150,False,19.30239594821288,False,24.895458103098022,174.5199786469513,False,160.57832504355503,False,False
2,1970-07-23 09:45:02.053424880,2025-09-09,2025-09-26 15:03:25.342,HH,C,2849527198,JASSM,3,117,76,2,2,1,225,9,2,0,1,26,0,0,0,0,-105168.38152467164,-4798340.666090307,4191188.2504563336,2.29972,3.00229,-0.132402,-83.375,11.75,11.25,0.0,0.0,0.0,0.0,0.0,0.0,2,0,41.31996121401606,-91.25558817381778,9999.998544858783,-79.87467853875168,-0.0015565795421309,-0.0020004822875955,,9260.064158607724,11112.292394974402,150,2,2025-09-09,2025-09-26 15:03:25.408,HH,C,3531602788,HAWK11,1,1,73,2,1,1,225,2,1,0,0,12,1,225,2,1,-139530.17224295562,-4791414.644502486,4198668.269011021,-3.04294,2.68063,-0.547248,-71.0,38.125,44.875,-0.03125,-6.20312,6.875,0.046875,0.0371094,0.0683594,4,0,41.406447941366345,-91.66803165316308,11326.671904367016,-51.06090779893541,4.362595079771579,48.74335619007688,149.737,9260.064158607724,11112.292394974402,150,False,19.296384110771903,False,28.707425757971812,174.45741366152853,False,156.8294530867007,False,False
2,1970-07-23 09:45:02.064443969,2025-09-09,2025-09-26 15:03:26.444,HH,C,2850839428,JASSM,3,117,76,2,2,1,225,9,2,0,1,26,0,0,0,0,-105260.24871217164,-4798327.783277807,4191200.610807896,2.29972,3.00229,-0.132402,-83.375,11.75,11.25,0.0,0.0,0.0,0.0,0.0,0.0,2,0,41.3201093271547,-91.25668798257024,10000.000243804488,-79.87540470322963,-0.000717412355749,-0.0020010829104062,,9260.064158607724,11112.292394974402,150,2,2025-09-09,2025-09-26 15:03:26.298,HH,C,3532676488,HAWK11,1,1,73,2,1,1,225,2,1,0,0,12,1,225,2,1,-139591.73083670562,-4791376.932588424,4198708.657682896,-2.97889,2.59876,-0.590487,-66.625,44.25,47.125,0.015625,-7.48438,8.28125,0.0,0.078125,0.0703125,4,0,41.40693424926899,-91.6687802744756,11325.963563237166,-46.45641929640584,3.559321587188605,50.20246002829596,151.35,9260.064158607724,11112.292394974402,150,False,19.286572763649055,False,33.11484415269562,174.38657208657102,False,152.45931238070153,False,False
2,1970-07-23 09:45:02.076245697,2025-09-09,2025-09-26 15:03:27.624,HH,C,2852092930,JASSM,3,117,76,2,2,1,225,9,2,0,1,26,0,0,0,0,-105348.00457154664,-4798315.474684057,4191212.417448521,2.29972,3.00229,-0.132306,-83.375,11.75,11.25,0.0,0.0,0.0,0.0,0.0,0.0,2,0,41.3202508120805,-91.25773857689032,9999.999149867092,-79.88019554704995,-0.003574787818616,-0.0020015416786185,,9260.064158607724,11112.292394974402,150,2,2025-09-09,2025-09-26 15:03:27.501,HH,C,3534108086,HAWK11,1,1,73,2,1,1,225,2,1,0,0,12,1,225,2,1,-139667.70935233062,-4791318.711885299,4198768.311979771,-2.90066,2.45216,-0.659995,-59.0,51.625,52.0,-0.125,-8.9375,9.8125,-0.0214844,0.0664062,0.0898438,4,0,41.40767010468941,-91.66970833984227,11317.65392719877,-38.6458676132606,2.4132092959567237,50.16781109085952,153.684,9260.064158607724,11112.292394974402,150,False,19.29088381426922,False,40.12323000747995,174.2805415798434,False,145.52929252379553,False,False
2,1970-07-23 09:45:02.088648989,2025-09-09,2025-09-26 15:03:28.864,HH,C,2853346770,JASSM,3,117,76,2,2,1,225,9,2,0,1,26,0,0,0,0,-105435.78386842164,-4798303.163160619,4191224.226042271,2.29972,3.00219,-0.132306,-83.375,11.75,11.25,0.0,0.0,0.0,0.0,0.0,0.0,2,0,41.32039231496052,-91.25878945625122,10000.000442009985,-79.8772634995146,-0.006833040031006,-0.0027269126093712,,9260.064158607724,11112.292394974402,150,2,2025-09-09,2025-09-26 15:03:28.796,HH,C,3535778284,HAWK11,1,1,73,2,1,1,225,2,1,0,0,12,1,225,2,1,-139742.73278983062,-4791241.551729049,4198846.169401646,-2.81351,2.27806,-0.734393,-47.875,58.75,58.25,0.0,-9.21875,10.1562,-0.0351562,0.0820312,0.0625,4,0,41.40864166409287,-91.67063161551944,11302.19957848168,-29.91750032242215,1.7654661741754942,49.06101863928368,155.114,9260.064158607724,11112.292394974402,150,False,19.298916548078797,False,48.90478940792817,174.13448094086482,False,136.8876901032736,False,False
2,1970-07-23 09:45:02.097252583,2025-09-09,2025-09-26 15:03:29.725,HH,C,2854718452,JASSM,3,117,76,2,2,1,225,9,2,0,1,26,0,0,0,0,-105531.81316529664,-4798289.692457494,4191237.144011021,2.29972,3.00219,-0.132306,-83.375,11.75,11.25,0.0,0.0,0.0,0.0,0.0,0.0,2,0,41.32054711527121,-91.25993910901104,10000.000447769638,-79.8780225806997,-0.0059558514336342,-0.0027275562812919,,9260.064158607724,11112.292394974402,150,2,2025-09-09,2025-09-26 15:03:29.594,HH,C,3536653150,HAWK11,1,1,73,2,1,1,225,2,1,0,0,12,1,225,2,1,-139776.04528983062,-4791196.982393111,4198890.901823521,-2.78063,2.17959,-0.770921,-41.5,61.875,61.375,-0.203125,-9.6875,10.6875,-0.0390625,0.0839844,0.0742188,4,0,41.40920297665611,-91.6710451780847,11292.03765632844,-25.299757821354262,1.6468354038432105,47.22404368997652,156.763,9260.064158607724,11112.292394974402,150,False,19.27369708374621,False,53.49871417923167,174.03807494458442,False,132.3918296679077,False,False
2,1970-07-23 09:45:02.110670497,2025-09-09,2025-09-26 15:03:31.067,HH,C,2856088754,JASSM,3,117,76,2,2,1,225,9,2,0,1,26,0,0,0,0,-105627.74480592164,-4798276.234449682,4191250.0473313336,2.29972,3.00219,-0.132306,-83.375,11.75,11.25,0.0,0.0,0.0,0.0,0.0,0.0,2,0,41.32070174243496,-91.2610875983361,9999.99961291898,-79.87878089604317,-0.0050795554629763,-0.0027281950311914,,9260.064158607724,11112.292394974402,150,2,2025-09-09,2025-09-26 15:03:31.002,HH,C,3538402882,HAWK11,1,1,73,2,1,1,225,2,1,0,0,12,1,225,2,1,-139826.80700858062,-4791103.144502486,4198986.138151646,-2.65465,1.97433,-0.833623,-27.75,66.0,67.25,-0.265625,-9.78125,10.7812,0.00390625,0.0722656,0.0585938,4,0,41.41039526685911,-91.67168442052228,11271.549651046726,-16.38073565226289,1.836066495278144,46.23986780468107,158.596,9260.064158607724,11112.292394974402,150,False,19.26889542287636,False,62.555530530730785,173.84251816440414,False,123.54631753209834,False,False
2,1970-07-23 09:45:02.119457276,2025-09-09,2025-09-26 15:03:31.945,HH,C,2857342706,JASSM,3,117,76,2,2,1,225,9,2,0,1,26,0,0,0,0,-105715.53191529664,-4798263.918043432,4191261.854948521,2.29972,3.00219,-0.132306,-83.375,11.75,11.25,0.0,0.0,0.0,0.0,0.0,0.0,2,0,41.32084323611303,-91.26213858670944,10000.00026955947,-79.87947483628616,-0.0042776555018066,-0.0027287837129661,,9260.064158607724,11112.292394974402,150,2,2025-09-09,2025-09-26 15:03:32.006,HH,C,3539556114,HAWK11,1,1,73,2,1,1,225,2,1,0,0,12,1,225,2,1,-139848.54528983062,-4791038.613252486,4199052.194792271,-2.52436,1.82122,-0.861426,-18.0,68.125,70.0,-0.1875,-9.875,10.7656,0.0214844,0.0742188,0.0839844,4,0,41.411221282400426,-91.6719666696134,11257.744144455944,-10.361142249796446,1.854569897782652,47.31652868121234,159.305,9260.064158607724,11112.292394974402,150,False,19.247128306423335,False,68.52569110230635,173.69705759966743,False,117.72649838074318,False,False
2,1970-07-23 09:45:02.129228918,2025-09-09,2025-09-26 15:03:32.922,HH,C,2858474604,JASSM,3,117,76,2,2,1,225,9,2,0,1,26,0,0,0,0,-105794.77410279664,-4798252.799879369,4191272.512175084,2.29972,3.00219,-0.132306,-83.375,11.75,11.25,0.0,0.0,0.0,0.0,0.0,0.0,2,0,41.32097094528972,-91.26308727923222,10000.000588091356,-79.88010123492515,-0.0035538105197523,-0.0027293113925427,,9260.064158607724,11112.292394974402,150,2,2025-09-09,2025-09-26 15:03:33.002,HH,C,3540749112,HAWK11,1,1,73,2,1,1,225,2,1,0,0,12,1,225,2,1,-139860.94568045562,-4790969.397432174,4199123.325651646,-2.37403,1.64884,-0.870918,-7.375,69.75,71.875,0.0,-9.625,10.5781,0.0175781,0.0761719,0.0800781,4,0,41.41211104047775,-91.67213898254596,11242.763097223047,-3.954094011387735,1.4710222012936165,48.58342859100123,160.393,9260.064158607724,11112.292394974402,150,False,19.226483141238244,False,74.75595926120684,173.53780813015177,False,111.65779411255207,False,False
2,1970-07-23 09:45:02.138294029,2025-09-09,2025-09-26 15:03:33.829,HH,C,2859607998,JASSM,3,117,76,2,2,1,225,9,2,0,1,26,0,0,0,0,-105874.12175904664,-4798241.666090307,4191283.182096959,2.29982,3.00219,-0.132306,-83.375,11.75,11.25,0.0,0.0,0.0,0.0,0.0,0.0,2,0,41.32109881145428,-91.26403723836262,9999.998996412747,-79.88072847147255,-0.002829002884086,0.0027616374482642,,9260.064158607724,11112.292394974402,150,2,2025-09-09,2025-09-26 15:03:33.596,HH,C,3541504678,HAWK11,1,1,73,2,1,1,225,2,1,0,0,12,1,225,2,1,-139862.86560233062,-4790924.373994674,4199168.741667271,-2.27547,1.54012,-0.868713,-0.125,70.875,72.25,-0.140625,-9.60938,10.5156,0.0234375,0.0859375,0.0820312,4,0,41.41268511985547,-91.67217762904508,11230.728258393192,0.0553128944854008,1.1862785250842878,49.561006220239726,161.004,9260.064158607724,11112.292394974402,150,False,19.1947306507325,False,78.89444569736452,173.4268490079794,False,107.62652400001478,False,False
2,1970-07-23 09:45:02.147428144,2025-09-09,2025-09-26 15:03:34.742,HH,C,2860683966,JASSM,3,117,76,2,2,1,225,9,2,0,1,26,0,0,0,0,-105949.44793092164,-4798231.095777807,4191293.311979771,2.29982,3.00219,-0.132306,-83.375,11.75,11.25,0.0,0.0,0.0,0.0,0.0,0.0,2,0,41.321220199597256,-91.26493905547436,10000.000194289782,-79.88132392241182,-0.0021409279748015,0.0027611311966894,,9260.064158607724,11112.292394974402,150,2,2025-09-09,2025-09-26 15:03:34.596,HH,C,3542657910,HAWK11,1,1,73,2,1,1,225,2,1,0,0,12,1,225,2,1,-139857.98278983062,-4790855.786104049,4199239.114714146,-2.14201,1.35844,-0.856632,10.5,71.0,73.0,-0.171875,-10.5,11.4219,-0.0292969,0.0957031,0.0820312,4,0,41.413569031146224,-91.67214320924371,11214.414377194656,6.8531399676020905,0.9658799386720184,49.419054820162046,162.873,9260.064158607724,11112.292394974402,150,False,19.167455252196127,False,84.85362288766551,173.26061863862154,False,101.8382375712627,False,False
2,1970-07-23 09:45:02.157470586,2025-09-09,2025-09-26 15:03:35.747,HH,C,2861815400,JASSM,3,117,76,2,2,1,225,9,2,0,1,26,0,0,0,0,-106028.65691529664,-4798219.980543432,4191303.962370396,2.29982,3.00219,-0.132306,-83.375,11.75,11.25,0.0,0.0,0.0,0.0,0.0,0.0,2,0,41.321347826433424,-91.26588736187016,10000.000990653109,-79.88195007080559,-0.0014173870110681,0.0027606095483576,,9260.064158607724,11112.292394974402,150,2,2025-09-09,2025-09-26 15:03:35.798,HH,C,3544129276,HAWK11,1,1,73,2,1,1,225,2,1,0,0,12,1,225,2,1,-139835.30700858062,-4790768.413057174,4199330.013151646,-2.01047,1.13304,-0.838129,25.625,69.375,72.625,-0.09375,-11.1562,12.1719,-0.0332031,0.101562,0.0703125,4,0,41.41470633691552,-91.67190272524893,11195.173932361491,15.418755621715324,1.8019301430120624,47.46459730949132,164.768,9260.064158607724,11112.292394974402,150,False,19.13379357764342,False,93.28334468640783,173.04177703741908,False,93.63527892313877,False,False
2,1970-07-23 09:45:02.166269473,2025-09-09,2025-09-26 15:03:36.626,HH,C,2862889986,JASSM,3,117,76,2,2,1,225,9,2,0,1,26,0,0,0,0,-106103.88738404664,-4798209.421949682,4191314.077604771,2.29982,3.00219,-0.132306,-83.375,11.75,11.25,0.0,0.0,0.0,0.0,0.0,0.0,2,0,41.32146904401886,-91.2667880405144,10000.000312816472,-79.88254477298995,-0.0007301863342455,0.0027601058806281,,9260.064158607724,11112.292394974402,150,2,2025-09-09,2025-09-26 15:03:36.707,HH,C,3545083674,HAWK11,1,1,73,2,1,1,225,2,1,0,0,12,1,225,2,1,-139810.82849295562,-4790714.052705611,4199388.015104771,-1.94557,0.999389,-0.821447,35.125,66.875,72.0,-0.234375,-11.0156,11.9844,-0.0488281,0.0878906,0.0683594,4,0,41.415425502911646,-91.67162917765587,11185.60625605388,20.603486746176028,2.680276290964371,45.7327684590551,165.281,9260.064158607724,11112.292394974402,150,False,19.093735514056487,False,98.64695038819012,172.8929402414332,False,88.4301577912194,False,False
2,1970-07-23 09:45:02.175410746,2025-09-09,2025-09-26 15:03:37.541,HH,C,2864022894,JASSM,3,117,76,2,2,1,225,9,2,0,1,26,0,0,0,0,-106183.19988404664,-4798198.290113744,4191324.7406907086,2.29982,3.0021,-0.132306,-83.375,11.75,11.25,0.0,0.0,0.0,0.0,0.0,0.0,2,0,41.32159682644421,-91.26773759399462,9999.999876631777,-79.8795457866263,-0.0040657310912303,0.0020350148401859,,9260.064158607724,11112.292394974402,150,2,2025-09-09,2025-09-26 15:03:37.596,HH,C,3546038074,HAWK11,1,1,73,2,1,1,225,2,1,0,0,12,1,225,2,1,-139778.63318045562,-4790661.373018111,4199444.899870396,-1.87702,0.876287,-0.790479,44.125,64.0,70.625,-0.328125,-11.0,11.9375,-0.0253906,0.0878906,0.0683594,4,0,41.416128468119545,-91.6712628242358,11177.197020260382,25.78230992880223,3.1580831663694493,44.83174033498894,165.965,9260.064158607724,11112.292394974402,150,False,19.047304955602062,False,103.8279990437441,172.74163577914894,False,83.40753297585516,False,False
2,1970-07-23 09:45:02.184449033,2025-09-09,2025-09-26 15:03:38.444,HH,C,2865098362,JASSM,3,117,76,2,2,1,225,9,2,0,1,26,0,0,0,0,-106258.49089967164,-4798187.721754369,4191334.862761021,2.29982,3.0021,-0.13221,-83.375,11.75,11.25,0.0,0.0,0.0,0.0,0.0,0.0,2,0,41.32171812580222,-91.26863900471992,9999.999449323364,-79.88423805407412,-0.0070370710182519,0.0020349280366044,,9260.064158607724,11112.292394974402,150,2,2025-09-09,2025-09-26 15:03:38.502,HH,C,3547191306,HAWK11,1,1,73,2,1,1,225,2,1,0,0,12,1,225,2,1,-139731.22107108062,-4790601.909150924,4199511.847136021,-1.78095,0.736119,-0.752897,54.125,59.5,68.5,-0.296875,-10.9844,12.0156,0.0078125,0.0878906,0.0644531,4,0,41.41694235265162,-91.67071698876296,11172.854904969696,31.848655954201988,4.200455289514955,45.119468920843296,166.369,9260.064158607724,11112.292394974402,150,False,18.997483176715644,False,109.81933872374928,172.56399065982788,False,77.60330669585173,False,False
2,1970-07-23 09:45:02.194248380,2025-09-09,2025-09-26 15:03:39.424,HH,C,2866230108,JASSM,3,117,76,2,2,1,225,9,2,0,1,26,0,0,0,0,-106337.72332154664,-4798176.599684057,4191345.5141282086,2.29982,3.0021,-0.13221,-83.375,11.75,11.25,0.0,0.0,0.0,0.0,0.0,0.0,2,0,41.32184576627153,-91.2695876070915,9999.999845010194,-79.8848644040403,-0.0063133142180714,0.0020343942497236,,9260.064158607724,11112.292394974402,150,2,2025-09-09,2025-09-26 15:03:39.408,HH,C,3548265004,HAWK11,1,1,73,2,1,1,225,2,1,0,0,12,1,225,2,1,-139677.83630545562,-4790550.048799361,4199572.356901646,-1.67127,0.617331,-0.70496,63.0,54.625,65.5,-0.046875,-10.5938,11.6562,0.0546875,0.0722656,0.0839844,4,0,41.41766858036191,-91.67009711676944,11172.816884161311,37.59924404152124,4.854643482646674,47.32040647095142,166.234,9260.064158607724,11112.292394974402,150,False,18.940927576951037,False,115.47309640472886,172.39647110523933,False,72.12339218766974,False,False
2,1970-07-23 09:45:02.203268707,2025-09-09,2025-09-26 15:03:40.326,HH,C,2867363540,JASSM,3,117,76,2,2,1,225,9,2,0,1,26,0,0,0,0,-106417.07293092164,-4798165.460035619,4191356.1801438336,2.29982,3.0021,-0.13221,-83.375,11.75,11.25,0.0,0.0,0.0,0.0,0.0,0.0,2,0,41.32197358691959,-91.27053761648732,9999.998420254662,-79.88549168464392,-0.0055884868868339,0.0020338604990101,,9260.064158607724,11112.292394974402,150,2,2025-09-09,2025-09-26 15:03:40.344,HH,C,3548861504,HAWK11,1,1,73,2,1,1,225,2,1,0,0,12,1,225,2,1,-139644.74060233062,-4790522.795869674,4199603.983854771,-1.60694,0.564217,-0.670158,67.75,52.25,63.125,-0.265625,-10.5,11.4219,0.0644531,0.0742188,0.0703125,4,0,41.418049934657375,-91.66971111619958,11172.065579940288,40.69027326954884,4.719215560460781,49.33238438560085,166.014,9260.064158607724,11112.292394974402,150,False,18.888178716836578,False,118.6074978611216,172.29717074661903,False,69.08900112067208,False,False
2,1970-07-23 09:45:02.212428259,2025-09-09,2025-09-26 15:03:41.242,HH,C,2868496456,JASSM,3,117,76,2,2,1,225,9,2,0,1,26,0,0,0,0,-106496.38543092164,-4798154.325269994,4191366.841276646,2.29982,3.0021,-0.13221,-83.375,11.75,11.25,0.0,0.0,0.0,0.0,0.0,0.0,2,0,41.32210134260566,-91.27148718538936,9999.999771894649,-79.88611867599145,-0.0048639980211533,0.0020333244267337,,9260.064158607724,11112.292394974402,150,2,2025-09-09,2025-09-26 15:03:41.206,HH,C,3550372636,HAWK11,1,1,73,2,1,1,225,2,1,0,0,12,1,225,2,1,-139551.82653983062,-4790459.743135299,4199677.446745396,-1.46342,0.439581,-0.56067,79.0,46.0,55.375,-0.109375,-10.0,10.7969,0.046875,0.0761719,0.0839844,4,0,41.41893702887701,-91.66862273496768,11169.79224850426,49.21454407186359,3.7211274756856856,54.05182755075818,166.1,9260.064158607724,11112.292394974402,150,False,18.814735582262276,False,126.67808046902411,172.08042556869216,False,61.23372554782692,False,False
2,1970-07-23 09:45:02.222451581,2025-09-09,2025-09-26 15:03:42.245,HH,C,2869629590,JASSM,3,117,76,2,2,1,225,9,2,0,1,26,0,0,0,0,-106575.71355592164,-4798143.187574682,4191377.503386021,2.29982,3.0021,-0.13221,-83.375,11.75,11.25,0.0,0.0,0.0,0.0,0.0,0.0,2,0,41.32222911239932,-91.2724369452666,10000.000229086048,-79.88674579503564,-0.0041393668650352,0.0020327914768569,,9260.064158607724,11112.292394974402,150,2,2025-09-09,2025-09-26 15:03:42.096,HH,C,3551406568,HAWK11,1,1,73,2,1,1,225,2,1,0,0,12,1,225,2,1,-139479.98669608062,-4790420.452119674,4199721.128386021,-1.39813,0.371319,-0.47678,86.125,42.25,48.125,-0.1875,-9.54688,10.375,0.0371094,0.0800781,0.0878906,4,0,41.4194780806547,-91.66777790167554,11162.831791363204,54.98310416130291,2.515638473402705,56.16545708388338,166.552,9260.064158607724,11112.292394974402,150,False,18.74550972161245,False,132.35969648028174,171.9325488657764,False,55.68968247609278,False,False
2,1970-07-23 09:45:02.232253956,2025-09-09,2025-09-26 15:03:43.225,HH,C,2870762982,JASSM,3,117,76,2,2,1,225,9,2,0,1,26,0,0,0,0,-106655.06121217164,-4798132.045973119,4191388.167448521,2.29982,3.0021,-0.13221,-83.375,11.75,11.25,0.0,0.0,0.0,0.0,0.0,0.0,2,0,41.32235690818239,-91.27338694300276,9999.999717662216,-79.88737307273401,-0.0034145566697773,0.0020322561296448,,9260.064158607724,11112.292394974402,150,2,2025-09-09,2025-09-26 15:03:43.298,HH,C,3552917700,HAWK11,1,1,73,2,1,1,225,2,1,0,0,12,1,225,2,1,-139363.81872733062,-4790368.366182174,4199773.433073521,-1.31616,0.283403,-0.35109,95.0,36.25,37.375,-0.171875,-9.76562,10.3906,0.0253906,0.0917969,0.0839844,4,0,41.42016113716795,-91.66640776022231,11139.955173449622,63.32650675019111,0.6337337314391303,59.06070700815858,167.322,9260.064158607724,11112.292394974402,150,False,18.656604598113148,False,140.23946353133127,171.7366104242524,False,47.98053719987837,False,False
2,1970-07-23 09:45:02.240389186,2025-09-09,2025-09-26 15:03:44.038,HH,C,2871836724,JASSM,3,117,76,2,2,1,225,9,2,0,1,26,0,0,0,0,-106730.23113404664,-4798121.490309057,4191398.269987584,2.29982,3.0021,-0.13221,-83.375,11.75,11.25,0.0,0.0,0.0,0.0,0.0,0.0,2,0,41.32247797185147,-91.27428692600098,10000.000547098494,-79.88796732748052,-0.0027279076969164,0.0020317453797981,,9260.064158607724,11112.292394974402,150,2,2025-09-09,2025-09-26 15:03:43.944,HH,C,3553434666,HAWK11,1,1,73,2,1,1,225,2,1,0,0,12,1,225,2,1,-139322.26208670562,-4790352.570283736,4199787.821745396,-1.3197,0.255408,-0.312357,98.0,34.375,32.625,-0.109375,-9.8125,10.5469,-0.0585938,0.0878906,0.0800781,4,0,41.4203594331715,-91.66591662735154,11129.368443914644,65.97497693652886,0.1734250547006936,58.35362996307001,167.859,9260.064158607724,11112.292394974402,150,False,18.598544052783755,False,143.1516147866369,171.66260631022183,False,45.116235019605774,False,False
2,1970-07-23 09:45:02.251450505,2025-09-09,2025-09-26 15:03:45.145,HH,C,2873091012,JASSM,3,117,76,2,2,1,225,9,2,0,1,26,0,0,0,0,-106818.04168092164,-4798109.159254369,4191410.069792271,2.29982,3.0021,-0.13221,-83.375,11.75,11.25,0.0,0.0,0.0,0.0,0.0,0.0,2,0,41.322619376085086,-91.2753382550594,10000.001052124066,-79.88866151716991,-0.001925792840685,0.0020311573231043,,9260.064158607724,11112.292394974402,150,2,2025-09-09,2025-09-26 15:03:45.097,HH,C,3555025330,HAWK11,1,1,73,2,1,1,225,2,1,0,0,12,1,225,2,1,-139186.43005545562,-4790310.673799361,4199821.540495396,-1.42708,0.158384,-0.195487,104.875,26.125,21.0,-0.171875,-10.2344,10.8438,-0.113281,0.0761719,0.0605469,4,0,41.42085980829242,-91.664307906192,11089.815324975214,74.53816828446853,-0.4903056686571115,50.777756222998605,169.79,9260.064158607724,11112.292394974402,150,False,18.491671078937202,False,151.26144308196402,171.48356554741804,False,37.134323378689956,False,False
2,1970-07-23 09:45:02.262489591,2025-09-09,2025-09-26 15:03:46.248,HH,C,2874461772,JASSM,3,117,76,2,2,1,225,9,2,0,1,26,0,0,0,0,-106914.00457154664,-4798095.681715307,4191422.964323521,2.29982,3.0021,-0.13221,-83.375,11.75,11.25,0.0,0.0,0.0,0.0,0.0,0.0,2,0,41.32277390203201,-91.27648719529904,10000.000529113702,-79.88942016149169,-0.0010492083945737,0.0020305101357628,,9260.064158607724,11112.292394974402,150,2,2025-09-09,2025-09-26 15:03:46.298,HH,C,3556496696,HAWK11,1,1,73,2,1,1,225,2,1,0,0,12,1,225,2,1,-139053.15466483062,-4790282.589814986,4199840.061979771,-1.57473,0.0752609,-0.108146,109.25,17.5,11.5,-0.234375,-10.0781,10.5156,-0.148438,0.0585938,0.0585938,4,0,41.42117496482836,-91.66272491647396,11051.435893174808,81.40763753193296,-0.3546958034640672,41.54628508651646,171.428,9260.064158607724,11112.292394974402,150,False,18.378088061976086,False,158.20116925087927,171.33408445786878,False,30.30648218316423,False,False
2,1970-07-23 09:45:02.274230988,2025-09-09,2025-09-26 15:03:47.423,HH,C,2875776098,JASSM,3,117,76,2,2,1,225,9,2,0,1,26,0,0,0,0,-107006.01824342164,-4798082.757887182,4191435.327604771,2.29982,3.002,-0.13221,-83.375,11.75,11.25,0.0,0.0,0.0,0.0,0.0,0.0,2,0,41.32292205946831,-91.2775888578548,10000.001038481169,-79.88652153135978,-0.0042687361209816,0.0013058323161116,,9260.064158607724,11112.292394974402,150,2,2025-09-09,2025-09-26 15:03:47.502,HH,C,3557769228,HAWK11,1,1,73,2,1,1,225,2,1,0,0,12,1,225,2,1,-138935.54138358062,-4790266.832979049,4199847.796354771,-1.72803,0.0101626,-0.068358,111.5,10.25,5.625,-0.0625,-10.0938,10.4688,-0.173828,0.0566406,0.0410156,4,0,41.4213412411822,-91.66132480839586,11021.0831574959,85.57990478481098,0.911187768716914,32.45411007819259,172.955,9260.064158607724,11112.292394974402,150,False,18.271683556993214,False,163.10711908382248,171.21827570784757,False,25.529046726174933,True,False
2,1970-07-23 09:45:02.285268527,2025-09-09,2025-09-26 15:03:48.526,HH,C,2877145780,JASSM,3,117,76,2,2,1,225,9,2,0,1,26,0,0,0,0,-107101.90691529664,-4798069.289137182,4191448.2094407086,2.29982,3.002,-0.13221,-83.375,11.75,11.25,0.0,0.0,0.0,0.0,0.0,0.0,2,0,41.32307643476199,-91.27873692054835,10000.000194005615,-79.88727960077014,-0.0033928308462514,0.001305249761047,,9260.064158607724,11112.292394974402,150,2,2025-09-09,2025-09-26 15:03:48.408,HH,C,3558882694,HAWK11,1,1,73,2,1,1,225,2,1,0,0,12,1,225,2,1,-138830.52185233062,-4790259.613252486,4199850.669401646,-1.9262,-0.0480328,-0.0542646,112.375,3.875,2.75,-0.359375,-10.0469,10.4688,-0.308594,0.0566406,0.0117188,4,0,41.42142171654544,-91.6600722385733,11002.07728372296,88.38883344135874,2.8747723775952534,20.9881946665896,173.737,9260.064158607724,11112.292394974402,150,False,18.16787061820497,False,166.5598132005899,171.12185985423628,False,22.25317258250982,True,False
2,1970-07-23 09:45:02.296287909,2025-09-09,2025-09-26 15:03:49.628,HH,C,2878400266,JASSM,3,117,76,2,2,1,225,9,2,0,1,26,0,0,0,0,-107189.73113404664,-4798056.951246557,4191460.0082688336,2.29982,3.002,-0.132114,-83.375,11.75,11.25,0.0,0.0,0.0,0.0,0.0,0.0,2,0,41.32321783053357,-91.27978843384425,9999.999887604148,-79.89207095269818,-0.006249734283862,0.0013050187534116,,9260.064158607724,11112.292394974402,150,2,2025-09-09,2025-09-26 15:03:49.624,HH,C,3560234758,HAWK11,1,1,73,2,1,1,225,2,1,0,0,12,1,225,2,1,-138702.48278983062,-4790257.181611861,4199852.642057896,-2.2421,-0.0692209,-0.0778495,112.625,-1.125,3.0,0.078125,-8.90625,9.29688,-0.123047,0.0195312,-0.015625,4,0,41.42147157397695,-91.6585429026566,10991.258093034843,88.17386441187261,4.677835594605511,2.7938599259694543,173.566,9260.064158607724,11112.292394974402,150,True,18.056092993971237,False,168.22337152158116,171.01904712136545,False,20.757580818724094,True,False
2,1970-07-23 09:45:02.306430464,2025-09-09,2025-09-26 15:03:50.643,HH,C,2879711760,JASSM,3,117,76,2,2,1,225,9,2,0,1,26,0,0,0,0,-107281.54558717164,-4798044.052809057,4191472.3422532086,2.29982,3.002,-0.132114,-83.375,11.75,11.25,0.0,0.0,0.0,0.0,0.0,0.0,2,0,41.3233656339642,-91.28088772679578,10000.002019709586,-79.89279682348239,-0.0054110436566372,0.001304393076291,,9260.064158607724,11112.292394974402,150,2,2025-09-09,2025-09-26 15:03:50.502,HH,C,3561626590,HAWK11,1,1,73,2,1,1,225,2,1,0,0,12,1,225,2,1,-138570.48864920562,-4790256.837861861,4199854.524870396,-2.30318,-0.0618386,-0.0676869,112.75,-2.625,4.0,0.015625,-7.4375,7.4375,0.00976562,-0.0195312,0.00390625,4,0,41.42150905999045,-91.65696557425986,10985.105385069284,88.33464194210458,3.9778518409580736,-0.6624788205271871,172.43,9260.064158607724,11112.292394974402,150,True,17.939927612071887,False,168.27482964480328,170.91372553115716,False,20.79526222115694,True,False
2,1970-07-23 09:45:02.317452561,2025-09-09,2025-09-26 15:03:51.745,HH,C,2880964474,JASSM,3,117,76,2,2,1,225,9,2,0,1,26,0,0,0,0,-107369.24675904664,-4798031.730543432,4191484.121550084,2.29982,3.002,-0.132114,-83.375,11.75,11.25,0.0,0.0,0.0,0.0,0.0,0.0,2,0,41.32350680160052,-91.28193777658434,9999.99951395373,-79.89349018066102,-0.0046099267743873,0.0013037998611932,,9260.064158607724,11112.292394974402,150,2,2025-09-09,2025-09-26 15:03:51.908,HH,C,3563296788,HAWK11,1,1,73,2,1,1,225,2,1,0,0,12,1,225,2,1,-138412.45935233062,-4790261.885713424,4199860.612761021,-2.32235,-0.0937646,-0.107475,112.375,-5.625,6.75,0.046875,-8.10938,8.5625,-0.0175781,-0.0273438,-0.0117188,4,0,41.421547291196696,-91.65507523723376,10999.497730762409,87.81865019624821,6.85186005154598,-1.9699952350699583,173.395,9260.064158607724,11112.292394974402,150,True,17.812753693087394,False,167.81690476781438,170.7927827114131,False,21.225940480835103,True,False
2,1970-07-23 09:45:02.327228379,2025-09-09,2025-09-26 15:03:52.722,HH,C,2882158432,JASSM,3,117,76,2,2,1,225,9,2,0,1,26,0,0,0,0,-107452.83269654664,-4798019.986402807,4191495.348112584,2.29982,3.002,-0.132114,-83.375,11.75,11.25,0.0,0.0,0.0,0.0,0.0,0.0,2,0,41.32364133664762,-91.28293855873892,10000.000728205296,-79.89415100780039,-0.0038464009290628,0.0013032341343208,,9260.064158607724,11112.292394974402,150,2,2025-09-09,2025-09-26 15:03:52.798,HH,C,3564131888,HAWK11,1,1,73,2,1,1,225,2,1,0,0,12,1,225,2,1,-138333.84216483062,-4790264.449189986,4199863.870573521,-2.33357,-0.0846566,-0.0929017,112.125,-5.625,7.0,0.0625,-6.34375,6.64062,0.00195312,-0.0175781,0.0175781,4,0,41.421567534657896,-91.6541348052346,11007.288423756294,88.10837414285344,5.912239596095857,-2.528358940633022,171.648,9260.064158607724,11112.292394974402,150,True,17.727907609574018,False,167.69729633357898,170.72026872091294,False,21.41024846452067,True,False
2,1970-07-23 09:45:02.337284213,2025-09-09,2025-09-26 15:03:53.728,HH,C,2883291846,JASSM,3,117,76,2,2,1,225,9,2,0,1,26,0,0,0,0,-107532.18035279664,-4798008.836012182,4191506.005339146,2.29982,3.002,-0.132114,-83.375,11.75,11.25,0.0,0.0,0.0,0.0,0.0,0.0,2,0,41.32376905173759,-91.28388859983556,10000.000842756755,-79.89477833171678,-0.0031215881304862,0.0013026875505362,,9260.064158607724,11112.292394974402,150,2,2025-09-09,2025-09-26 15:03:53.706,HH,C,3565285120,HAWK11,1,1,73,2,1,1,225,2,1,0,0,12,1,225,2,1,-138225.76208670562,-4790267.911104049,4199868.870573521,-2.32599,-0.0785206,-0.0915595,112.25,-4.875,6.75,0.046875,-6.32812,6.8125,0.0,-0.0078125,-0.03125,4,0,41.42159924027178,-91.65284195484868,11018.982343079682,87.93572693258851,5.599104583939278,-2.079418869936214,171.733,9260.064158607724,11112.292394974402,150,True,17.630638563509887,False,167.64818289122772,170.62908346867073,False,21.59200704892662,True,False
2,1970-07-23 09:45:02.346509784,2025-09-09,2025-09-26 15:03:54.650,HH,C,2884483266,JASSM,3,117,76,2,2,1,225,9,2,0,1,26,0,0,0,0,-107615.58855592164,-4797997.114332494,4191517.206511021,2.29982,3.002,-0.132114,-83.375,11.75,11.25,0.0,0.0,0.0,0.0,0.0,0.0,2,0,41.32390328844664,-91.28488726263464,9999.999815292203,-79.89543776286835,-0.0023596845427433,0.0013021185970352,,9260.064158607724,11112.292394974402,150,2,2025-09-09,2025-09-26 15:03:54.598,HH,C,3566398586,HAWK11,1,1,73,2,1,1,225,2,1,0,0,12,1,225,2,1,-138119.75622733062,-4790270.323213424,4199873.235807896,-2.3468,-0.0477452,-0.0767949,112.5,-3.625,5.875,0.078125,-5.1875,5.4375,-0.00390625,-0.0253906,0.0117188,4,0,41.42163253966053,-91.65157425523364,11026.869899824082,87.41252785667864,3.721211193518834,-3.1657535905148184,171.55,9260.064158607724,11112.292394974402,150,True,17.532317954587576,False,167.7404406653343,170.53669727205246,False,21.65688369026077,True,False
2,1970-07-23 09:45:02.357106374,2025-09-09,2025-09-26 15:03:55.710,HH,C,2885676178,JASSM,3,117,76,2,2,1,225,9,2,0,1,26,0,0,0,0,-107699.10222779664,-4797985.378004369,4191528.421354771,2.29982,3.002,-0.132114,-83.375,11.75,11.25,0.0,0.0,0.0,0.0,0.0,0.0,2,0,41.32403768185706,-91.28588719229172,10000.001862338066,-79.89609803231228,-0.0015968183526853,0.0013015532390921,,9260.064158607724,11112.292394974402,150,2,2025-09-09,2025-09-26 15:03:55.800,HH,C,3567909716,HAWK11,1,1,73,2,1,1,225,2,1,0,0,12,1,225,2,1,-137977.43200858062,-4790272.565400924,4199879.007292271,-2.32839,-0.0492791,-0.0684539,112.875,-2.125,5.25,0.140625,-6.17188,6.5625,0.0292969,0.0,-0.00585938,4,0,41.42168255248978,-91.64987257516928,11034.82489851182,87.83133894059438,3.4728816434729346,-2.091238161219517,172.784,9260.064158607724,11112.292394974402,150,True,17.41590753480565,False,167.6096104144685,170.41869940505208,False,21.950161489567243,True,False
2,1970-07-23 09:45:02.367225700,2025-09-09,2025-09-26 15:03:56.722,HH,C,2886869106,JASSM,3,117,76,2,2,1,225,9,2,0,1,26,0,0,0,0,-107782.61589967164,-4797973.639723119,4191539.635221959,2.29982,3.0019,-0.132114,-83.375,11.75,11.25,0.0,0.0,0.0,0.0,0.0,0.0,2,0,41.32417207158135,-91.28688712658096,10000.000699128968,-79.89313214950103,-0.0048939945470946,0.0005774095786696,,9260.064158607724,11112.292394974402,150,2,2025-09-09,2025-09-26 15:03:56.798,HH,C,3569142482,HAWK11,1,1,73,2,1,1,225,2,1,0,0,12,1,225,2,1,-137859.72497733062,-4790273.677705611,4199883.976042271,-2.32389,-0.0371032,-0.0749733,113.25,-1.375,5.0,0.046875,-6.39062,6.6875,0.0,-0.0078125,-0.0078125,4,0,41.42172963156224,-91.64846548136856,11040.01140582615,87.09104679914645,3.1979529032718235,-1.8262085974042817,173.517,9260.064158607724,11112.292394974402,150,True,17.31200458583129,False,167.50164309183867,170.31445990212976,False,22.174962283552805,True,False
2,1970-07-23 09:45:02.377252273,2025-09-09,2025-09-26 15:03:57.725,HH,C,2888062156,JASSM,3,117,76,2,2,1,225,9,2,0,1,26,0,0,0,0,-107866.13933717164,-4797961.899488744,4191550.8500657086,2.29982,3.0019,-0.132114,-83.375,11.75,11.25,0.0,0.0,0.0,0.0,0.0,0.0,2,0,41.32430646951575,-91.28788718206208,10000.00109774604,-79.8937925055301,-0.0041310375647247,0.0005768865023413,,9260.064158607724,11112.292394974402,150,2,2025-09-09,2025-09-26 15:03:57.798,HH,C,3570295714,HAWK11,1,1,73,2,1,1,225,2,1,0,0,12,1,225,2,1,-137751.00232108062,-4790273.836885299,4199888.745573521,-2.30653,-0.0329806,-0.0512925,113.625,-0.5,4.5,0.046875,-5.6875,5.95312,0.0566406,-0.0234375,0.0332031,4,0,41.42177948392487,-91.64716608580812,11043.064056278246,87.95562062843467,2.125552563639949,-0.7769136377500897,174.043,9260.064158607724,11112.292394974402,150,True,17.212775547427587,False,167.4434426686377,170.2139294185289,False,22.341939240511433,True,False
2,1970-07-23 09:45:02.386406975,2025-09-09,2025-09-26 15:03:58.640,HH,C,2889197888,JASSM,3,117,76,2,2,1,225,9,2,0,1,26,0,0,0,0,-107945.64910279664,-4797950.722730932,4191561.524870396,2.29982,3.0019,-0.132114,-83.375,11.75,11.25,0.0,0.0,0.0,0.0,0.0,0.0,2,0,41.32443439753651,-91.28883918444292,10000.000804009702,-79.89442113280847,-0.0034047445308397,0.0005763919855855,,9260.064158607724,11112.292394974402,150,2,2025-09-09,2025-09-26 15:03:58.798,HH,C,3571528480,HAWK11,1,1,73,2,1,1,225,2,1,0,0,12,1,225,2,1,-137632.90857108062,-4790273.349580611,4199893.108854771,-2.25179,-0.0354733,-0.0527306,114.0,0.0,3.75,0.0625,-6.5,6.92188,0.0390625,0.0,-0.0078125,4,0,41.421832030110224,-91.64575491677608,11042.989033839454,87.9890222721004,2.2881044537889323,2.3535270581063568,175.289,9260.064158607724,11112.292394974402,150,True,17.11109143572772,False,167.58289657834405,170.1073551560651,False,22.30868945639919,True,False
2,1970-07-23 09:45:02.396425955,2025-09-09,2025-09-26 15:03:59.642,HH,C,2890390610,JASSM,3,117,76,2,2,1,225,9,2,0,1,26,0,0,0,0,-108029.14910279664,-4797938.984449682,4191572.7348313336,2.29982,3.0019,-0.132114,-83.375,11.75,11.25,0.0,0.0,0.0,0.0,0.0,0.0,2,0,41.32456873703436,-91.28983896767694,10000.001391448768,-79.89508131251851,-0.0026420020706805,0.000575872873174,,9260.064158607724,11112.292394974402,150,2,2025-09-09,2025-09-26 15:03:59.602,HH,C,3572482878,HAWK11,1,1,73,2,1,1,225,2,1,0,0,12,1,225,2,1,-137542.30310233062,-4790273.477510299,4199895.878386021,-2.25217,-0.0291456,-0.0591541,114.375,0.0,3.125,-0.015625,-6.59375,6.90625,-0.0292969,0.0,0.00585938,4,0,41.4218654458509,-91.64467204702652,11042.91547816349,87.47389194314691,2.2605222165214447,2.331349271873741,175.974,9260.064158607724,11112.292394974402,150,True,17.020813098329892,False,167.82541773547828,170.01879367886477,False,22.15211017524563,True,False
2,1970-07-23 09:45:02.407225425,2025-09-09,2025-09-26 15:04:00.722,HH,C,2891643298,JASSM,3,117,76,2,2,1,225,9,2,0,1,26,0,0,0,0,-108116.84636842164,-4797926.654371557,4191584.507292271,2.29982,3.0019,-0.132018,-83.375,11.75,11.25,0.0,0.0,0.0,0.0,0.0,0.0,2,0,41.32470982371729,-91.29088901156165,9999.999552254678,-79.89987166814363,-0.005500116159914,0.0005755865451521,,9260.064158607724,11112.292394974402,150,2,2025-09-09,2025-09-26 15:04:00.710,HH,C,3573755410,HAWK11,1,1,73,2,1,1,225,2,1,0,0,12,1,225,2,1,-137420.09607108062,-4790273.930635299,4199899.593229771,-2.26003,-0.0394041,-0.0474575,114.625,-2.0,4.875,-0.109375,-6.95312,7.1875,0.0117188,0.00195312,0.0117188,4,0,41.42190869108407,-91.64321139376624,11043.468104476076,88.366395984308,2.259118228536052,1.8847529568429195,177.0,9260.064158607724,11112.292394974402,150,True,16.912533089188837,False,167.75287440365727,169.90632773399585,False,22.32592661908392,True,False
2,1970-07-23 09:45:02.417486192,2025-09-09,2025-09-26 15:04:01.748,HH,C,2892895614,JASSM,3,117,76,2,2,1,225,9,2,0,1,26,0,0,0,0,-108204.51824342164,-4797914.328199682,4191596.275846959,2.29982,3.0019,-0.132018,-83.375,11.75,11.25,0.0,0.0,0.0,0.0,0.0,0.0,2,0,41.32485085461044,-91.2919387558687,10000.001559972938,-79.90056484210253,-0.0046992652056753,0.0005749859516678,,9260.064158607724,11112.292394974402,150,2,2025-09-09,2025-09-26 15:04:01.804,HH,C,3575147242,HAWK11,1,1,73,2,1,1,225,2,1,0,0,12,1,225,2,1,-137285.07263358062,-4790274.980439986,4199903.218229771,-2.24239,-0.0413216,-0.0554151,115.125,-1.0,2.5,0.0625,-6.82812,7.09375,-0.0117188,0.00390625,0.0,4,0,41.42194994650078,-91.64159736491338,11044.397410427891,88.0975512621453,2.643986938554021,2.878307891150845,177.892,9260.064158607724,11112.292394974402,150,True,16.797810283620258,False,168.3929499018695,169.78468114285985,False,21.82104060657199,True,False
2,1970-07-23 09:45:02.428250755,2025-09-09,2025-09-26 15:04:02.825,HH,C,2894146694,JASSM,3,117,76,2,2,1,225,9,2,0,1,26,0,0,0,0,-108292.10418092164,-4797902.011793432,4191608.0317063336,2.29982,3.0019,-0.132018,-83.375,11.75,11.25,0.0,0.0,0.0,0.0,0.0,0.0,2,0,41.32499174362668,-91.2929874763418,9999.999436752953,-79.9012573419423,-0.003899197778724,0.0005743802305152,,9260.064158607724,11112.292394974402,150,2,2025-09-09,2025-09-26 15:04:02.707,HH,C,3576181174,HAWK11,1,1,73,2,1,1,225,2,1,0,0,12,1,225,2,1,-137186.46130545562,-4790276.691377486,4199905.513151646,-2.25035,-0.052443,-0.0583871,115.375,-1.875,2.5,0.078125,-7.46875,7.73438,0.0,0.0273438,0.0078125,4,0,41.42197206377885,-91.6404182708988,11046.638878222382,88.39114948516743,3.234956788544112,2.4011517307462467,178.149,9260.064158607724,11112.292394974402,150,True,16.701179141761635,False,168.66985502646028,169.6883075314352,False,21.641695192314344,True,False
2,1970-07-23 09:45:02.438286165,2025-09-09,2025-09-26 15:04:03.828,HH,C,2895399920,JASSM,3,117,76,2,2,1,225,9,2,0,1,26,0,0,0,0,-108379.83855592164,-4797889.674879369,4191619.807096959,2.29982,3.0019,-0.132018,-83.375,11.75,11.25,0.0,0.0,0.0,0.0,0.0,0.0,2,0,41.325132857011205,-91.2940379785793,10000.001458957437,-79.9019510202818,-0.0030977753643561,0.0005737782544892,,9260.064158607724,11112.292394974402,150,2,2025-09-09,2025-09-26 15:04:03.894,HH,C,3577612774,HAWK11,1,1,73,2,1,1,225,2,1,0,0,12,1,225,2,1,-137047.82653983062,-4790280.551729049,4199909.720182896,-2.24498,-0.0656736,-0.0550316,115.5,-3.625,3.125,0.015625,-7.125,7.35938,-0.00390625,-0.0195312,0.0117188,4,0,41.42200109571739,-91.6387601188962,11055.50524003975,89.03763702604786,3.677510530772061,2.704699467240634,178.015,9260.064158607724,11112.292394974402,150,True,16.584443251305004,False,168.93456325229437,169.56336384137634,False,21.481988439411055,True,False
2,1970-07-23 09:45:02.448446627,2025-09-09,2025-09-26 15:04:04.844,HH,C,2896594384,JASSM,3,117,76,2,2,1,225,9,2,0,1,26,0,0,0,0,-108463.45964967164,-4797877.914137182,4191631.0297532086,2.29982,3.0019,-0.132018,-83.375,11.75,11.25,0.0,0.0,0.0,0.0,0.0,0.0,2,0,41.32526735432202,-91.2950392345732,10000.000286022614,-79.90261218165593,-0.0023339243619903,0.0005731960282171,,9260.064158607724,11112.292394974402,150,2,2025-09-09,2025-09-26 15:04:04.798,HH,C,3578686472,HAWK11,1,1,73,2,1,1,225,2,1,0,0,12,1,225,2,1,-136943.93591483062,-4790284.293916549,4199913.009245396,-2.24862,-0.068358,-0.0538811,115.625,-4.0,2.875,-0.015625,-7.07812,7.34375,0.00195312,0.00390625,-0.00195312,4,0,41.42201870183919,-91.6375172366992,11064.540622784152,89.18970432050686,3.7502284093716343,2.4973970809403467,179.114,9260.064158607724,11112.292394974402,150,True,16.48727626507689,False,169.14110069546143,169.4630528040712,False,21.372386538753855,True,False
2,1970-07-23 09:45:02.458491307,2025-09-09,2025-09-26 15:04:05.849,HH,C,2897846766,JASSM,3,117,76,2,2,1,225,9,2,0,1,26,0,0,0,0,-108551.13738404664,-4797865.583082494,4191642.7953782086,2.29982,3.0019,-0.132018,-83.375,11.75,11.25,0.0,0.0,0.0,0.0,0.0,0.0,2,0,41.3254083557731,-91.2960890680278,10000.000438468634,-79.90330542218608,-0.0015330193290825,0.0005725966692928,,9260.064158607724,11112.292394974402,150,2,2025-09-09,2025-09-26 15:04:05.704,HH,C,3579720404,HAWK11,1,1,73,2,1,1,225,2,1,0,0,12,1,225,2,1,-136842.35974295562,-4790288.482393111,4199915.966276646,-2.25083,-0.072193,-0.0563738,115.75,-4.875,3.0,0.046875,-7.03125,7.39062,-0.00195312,0.0136719,0.0,4,0,41.42203100438767,-91.6363018627274,11074.120929894869,89.22822977140456,4.010205705190117,2.3614977405572657,179.457,9260.064158607724,11112.292394974402,150,True,16.389020848361607,False,169.322336305235,169.36264946873743,False,21.269795582157357,True,False
2,1970-07-23 09:45:02.469245487,2025-09-09,2025-09-26 15:04:06.924,HH,C,2899098148,JASSM,3,117,76,2,2,1,225,9,2,0,1,26,0,0,0,0,-108638.74285279664,-4797853.260816869,4191654.551237584,2.29982,3.00181,-0.132018,-83.375,11.75,11.25,0.0,0.0,0.0,0.0,0.0,0.0,2,0,41.32554923914634,-91.29713804108194,10000.001148825177,-79.90036282100844,-0.0048029215981138,-0.0001528538112972,,9260.064158607724,11112.292394974402,150,2,2025-09-09,2025-09-26 15:04:06.892,HH,C,3581112236,HAWK11,1,1,73,2,1,1,225,2,1,0,0,12,1,225,2,1,-136707.28552420562,-4790294.862275924,4199919.929167271,-2.25179,-0.0753568,-0.0455401,115.875,-5.25,2.625,-0.015625,-6.51562,6.6875,0.0,-0.0136719,0.00195312,4,0,41.42204272985704,-91.63468540436097,11088.92768563895,89.81626668681362,3.737337416239613,2.336992777973732,179.53,9260.064158607724,11112.292394974402,150,True,16.273952178761586,False,169.57690490125808,169.23859893539787,False,21.136150169368857,True,False
2,1970-07-23 09:45:02.479288228,2025-09-09,2025-09-26 15:04:07.928,HH,C,2900292996,JASSM,3,117,76,2,2,1,225,9,2,0,1,26,0,0,0,0,-108722.39129029664,-4797841.494215307,4191665.774870396,2.29982,3.00181,-0.132018,-83.375,11.75,11.25,0.0,0.0,0.0,0.0,0.0,0.0,2,0,41.32568374721196,-91.29813963777872,10000.000721425098,-79.90102421281277,-0.0040388215315845,-0.0001533814306157,,9260.064158607724,11112.292394974402,150,2,2025-09-09,2025-09-26 15:04:07.798,HH,C,3582265468,HAWK11,1,1,73,2,1,1,225,2,1,0,0,12,1,225,2,1,-136596.49255545562,-4790300.215791549,4199922.604948521,-2.2562,-0.0692209,-0.0385413,115.875,-5.25,2.0,0.0625,-6.5625,6.6875,-0.0292969,-0.00585938,0.0,4,0,41.42204773509968,-91.6333594844494,11100.128553364557,89.8861056280978,3.209709787620552,2.103259476379803,179.579,9260.064158607724,11112.292394974402,150,True,16.173174073157767,False,169.83958606215108,169.13212268194792,False,20.99131429139895,True,False
2,1970-07-23 09:45:02.489428758,2025-09-09,2025-09-26 15:04:08.942,HH,C,2901548668,JASSM,3,117,76,2,2,1,225,9,2,0,1,26,0,0,0,0,-108810.29754029664,-4797829.128004369,4191677.5688157086,2.29982,3.00181,-0.132018,-83.375,11.75,11.25,0.0,0.0,0.0,0.0,0.0,0.0,2,0,41.32582508986508,-91.29919222165056,10000.000495811586,-79.90171927526862,-0.0032358281429611,-0.0001539332379648,,9260.064158607724,11112.292394974402,150,2,2025-09-09,2025-09-26 15:04:08.468,HH,C,3582822202,HAWK11,1,1,73,2,1,1,225,2,1,0,0,12,1,225,2,1,-136541.21716483062,-4790302.901338424,4199923.569792271,-2.27365,-0.0681663,-0.0344187,116.0,-5.375,1.75,-0.125,-6.45312,6.5625,-0.0429688,-0.015625,0.0078125,4,0,41.42204764178197,-91.63269796915512,11104.951719223222,90.02406803735151,3.00875552122818,1.1131600219839315,179.75,9260.064158607724,11112.292394974402,150,True,16.0979919048802,False,169.97623038536415,169.0618895970186,False,20.92620795204754,True,False
2,1970-07-23 09:45:02.511645424,2025-09-09,2025-09-26 15:04:11.164,HH,C,2904050092,JASSM,3,117,76,2,2,1,225,9,2,0,1,26,0,0,0,0,-108985.41668092164,-4797804.490309057,4191701.061979771,2.29982,3.00181,-0.131922,-83.375,11.75,11.25,0.0,0.0,0.0,0.0,0.0,0.0,2,0,41.3261066368382,-91.30128910147188,10000.001705125433,-79.90720087228416,-0.0052954238209359,-0.0001547895899139,,9260.064158607724,11112.292394974402,150,2,2025-09-09,2025-09-26 15:04:11.144,HH,C,3585725164,HAWK11,1,1,73,2,1,1,225,2,1,0,0,12,1,225,2,1,-136258.97888358062,-4790313.626924361,4199926.511198521,-2.3467,-0.041034,-0.0230097,116.5,-4.75,1.625,-0.171875,-6.53125,6.59375,-0.0332031,-0.015625,-0.0234375,4,0,41.42205148673015,-91.62932126665784,11117.949242081488,89.48871768692092,1.4133472074336555,-3.0487397394367446,180.874,9260.064158607724,11112.292394974402,150,True,15.861902142883421,False,169.85712748725751,168.7990318051257,False,21.3241602207987,True,False
2,1970-07-23 09:45:02.515504507,2025-09-09,2025-09-26 15:04:11.550,HH,C,2902796280,JASSM,3,117,76,2,2,1,225,9,2,0,1,26,0,0,0,0,-108897.64129029664,-4797816.839918432,4191689.286589146,2.29982,3.00181,-0.132018,-83.375,11.75,11.25,0.0,0.0,0.0,0.0,0.0,0.0,2,0,41.32596551976008,-91.30023807496056,10000.00034986771,-79.90240989520908,-0.0024379726047325,-0.0001544826340922,,9260.064158607724,11112.292394974402,150,2,2025-09-09,2025-09-26 15:04:11.892,HH,C,3587116996,HAWK11,1,1,73,2,1,1,225,2,1,0,0,12,1,225,2,1,-136121.75622733062,-4790317.046846236,4199926.858854771,-2.39847,-0.0373908,-0.0159151,117.125,-2.125,0.25,-0.078125,-6.42188,6.34375,-0.015625,-0.00976562,-0.00195312,4,0,41.42205669758316,-91.62768014388848,11117.520105549898,89.65665525741703,0.9891767610918664,-6.007493545068007,181.204,9260.064158607724,11112.292394974402,150,True,15.840352720492497,False,169.59495526573488,168.73558369058645,False,21.66112699657675,True,False
2,1970-07-23 09:45:02.521325776,2025-09-09,2025-09-26 15:04:12.132,HH,C,2905303678,JASSM,3,117,76,2,2,1,225,9,2,0,1,26,0,0,0,0,-109073.17644654664,-4797792.141676244,4191712.8344407086,2.29982,3.00181,-0.131922,-83.375,11.75,11.25,0.0,0.0,0.0,0.0,0.0,0.0,2,0,41.32624772082362,-91.30233994575386,10000.002349116068,-79.90789479182585,-0.0044937670262664,-0.0001554031118112,,9260.064158607724,11112.292394974402,150,2,2025-09-09,2025-09-26 15:04:12.298,HH,C,3587633962,HAWK11,1,1,73,2,1,1,225,2,1,0,0,12,1,225,2,1,-136071.73864920562,-4790317.910127486,4199927.253386021,-2.4072,-0.0349939,-0.0173532,117.375,-1.375,0.25,-0.03125,-6.51562,6.48438,-0.0195312,-0.00195312,0.0,4,0,41.422062679393655,-91.62708208562952,11117.00485724366,89.50440473780743,0.9411573888324002,-6.507652086905081,181.693,9260.064158607724,11112.292394974402,150,True,15.720979156508744,False,169.3459658659417,168.63009004312934,False,22.00565839188785,True,False
2,1970-07-23 09:45:02.534811154,2025-09-09,2025-09-26 15:04:13.481,HH,C,2906496912,JASSM,3,117,76,2,2,1,225,9,2,0,1,26,0,0,0,0,-109156.71160279664,-4797780.385816869,4191724.038542271,2.29982,3.00181,-0.131922,-83.375,11.75,11.25,0.0,0.0,0.0,0.0,0.0,0.0,2,0,41.32638200309311,-91.30334020880152,9999.999082434811,-79.90855531212635,-0.0037307005610607,-0.0001559857735028,,9260.064158607724,11112.292394974402,150,2,2025-09-09,2025-09-26 15:04:13.704,HH,C,3589304162,HAWK11,1,1,73,2,1,1,225,2,1,0,0,12,1,225,2,1,-135906.16833670562,-4790320.279268111,4199929.169401646,-2.41995,-0.0317342,-0.0412257,117.875,-0.875,1.875,-0.171875,-7.625,7.64062,-0.00390625,0.00585938,0.0,4,0,41.42208948241377,-91.6251025324193,11115.43116610188,88.35601033428503,1.7072516760042806,-7.2593518487551645,182.561,9260.064158607724,11112.292394974402,150,True,15.593688238438189,False,168.59732663906095,168.4723457103464,False,22.923397783959235,True,False
