Subject_cm,Timestamp,SampleDate_cm,SampleTime_cm,Configuration_cm,Scenario_cm,DisTime_cm,MarkingTxt_cm,Application_cm,EntId_cm,Site_cm,ExerciseId_cm,ForceId_cm,Category_cm,Country_cm,Domain_cm,Kind_cm,Extra_cm,Specific_cm,Subcategory_cm,AltCategory_cm,AltCountry_cm,AltDomain_cm,AltKind_cm,ECEF_X_cm,ECEF_Y_cm,ECEF_Z_cm,OriPhi_cm,OriPsi_cm,OriTheta_cm,LinVelX_cm,LinVelY_cm,LinVelZ_cm,LinAccX_cm,LinAccY_cm,LinAccZ_cm,AngVelX_cm,AngVelY_cm,AngVelZ_cm,DrAlg_cm,Appearance_cm,Latitude_cm,Longitude_cm,Altitude_cm,Heading_cm,Pitch_cm,Roll_cm,CalibratedAirspeed_cm,CM_Altitude_Lead_cm,CM_Altitude_Wing_cm,CM_Airspeed_cm,Subject_ac,SampleDate_ac,SampleTime_ac,Configuration_ac,Scenario_ac,DisTime_ac,MarkingTxt_ac,Application_ac,EntId_ac,Site_ac,ExerciseId_ac,ForceId_ac,Category_ac,Country_ac,Domain_ac,Kind_ac,Extra_ac,Specific_ac,Subcategory_ac,AltCategory_ac,AltCountry_ac,AltDomain_ac,AltKind_ac,ECEF_X_ac,ECEF_Y_ac,ECEF_Z_ac,OriPhi_ac,OriPsi_ac,OriTheta_ac,LinVelX_ac,LinVelY_ac,LinVelZ_ac,LinAccX_ac,LinAccY_ac,LinAccZ_ac,AngVelX_ac,AngVelY_ac,AngVelZ_ac,DrAlg_ac,Appearance_ac,Latitude_ac,Longitude_ac,Altitude_ac,Heading_ac,Pitch_ac,Roll_ac,CalibratedAirspeed_ac,CM_Altitude_Lead_ac,CM_Altitude_Wing_ac,CM_Airspeed_ac,Bank_Angle_Condition,distance_nm,Distance_Condition,angle_between_vel,angle_between_pos,Cone_Condition,angle_between_pos_nose,Nose_Cone_Condition,Intercept_Criteria
2,1970-07-23 10:13:45.697279836,2025-09-11,2025-09-26 14:56:09.727,HA,C,2107931942,JASSM,3,115,76,2,2,1,225,9,2,0,1,26,0,0,0,0,-173010.52380545562,-4769788.770479049,4221217.038542271,-2.51458,-0.703426,0.607361,60.375,-51.125,-54.875,0.0,0.0,0.0,0.0,0.0,0.0,2,0,41.68079335256958,-92.07733076250824,10000.006692755196,139.82821846218587,-0.0013025746829877,0.0009619660598026,,8907.031340764672,11074.134321271986,150,2,2025-09-11,2025-09-26 14:56:09.813,HA,C,3011826634,HAWK11,1,1,73,2,1,1,225,2,1,0,0,12,1,225,2,1,-138189.95739920562,-4794240.703096236,4195390.331511021,2.42829,2.62905,-0.563546,-61.125,46.625,49.5,-0.1875,-7.32812,6.48438,0.0644531,0.00585938,-0.00195312,4,0,41.36773977570149,-91.65104552575129,11074.324386136032,-48.558945991184906,3.323677296611177,0.8514559356161046,205.779,8907.031340764672,11074.134321271986,150,True,26.790234567508822,False,176.8730489309731,174.42988806402735,False,2.4440071429243506,True,False
2,1970-07-23 10:13:45.708314580,2025-09-11,2025-09-26 14:56:10.831,HA,C,2109184642,JASSM,3,115,76,2,2,1,225,9,2,0,1,26,0,0,0,0,-172947.09216483062,-4769842.579072799,4221159.222136021,-2.51458,-0.703426,0.607361,60.375,-51.125,-54.875,0.0,0.0,0.0,0.0,0.0,0.0,2,0,41.68009671765082,-92.0765464028428,9999.99991900573,139.8287400421642,-0.0003923705493536,0.0009602101756354,,8907.031340764672,11074.134321271986,150,2,2025-09-11,2025-09-26 14:56:10.907,HA,C,3013099166,HAWK11,1,1,73,2,1,1,225,2,1,0,0,12,1,225,2,1,-138254.74060233062,-4794191.753877486,4195443.680143833,2.48505,2.62589,-0.568723,-60.375,46.75,49.5,-0.078125,-7.28125,6.54688,0.0390625,0.0,0.00976562,4,0,41.36837998452024,-91.65183596012284,11074.12352682134,-48.247411425391626,3.4443506764255027,4.024522980675875,206.134,8907.031340764672,11074.134321271986,150,True,26.683826484607504,False,177.25328302037624,174.41328247090635,False,2.845964497588966,True,False
2,1970-07-23 10:13:45.719354691,2025-09-11,2025-09-26 14:56:11.935,HA,C,2110556646,JASSM,3,115,76,2,2,1,225,9,2,0,1,26,0,0,0,0,-172877.61950858062,-4769901.512666549,4221095.897917271,-2.51458,-0.703426,0.607456,60.375,-51.125,-54.875,0.0,0.0,0.0,0.0,0.0,0.0,2,0,41.67933371806323,-92.0756873626223,9999.996230833774,139.8325332106853,-0.0038424246356769,0.0009581875450563,,8907.031340764672,11074.134321271986,150,2,2025-09-11,2025-09-26 14:56:11.907,HA,C,3014292164,HAWK11,1,1,73,2,1,1,225,2,1,0,0,12,1,225,2,1,-138315.33044608062,-4794145.537080611,4195493.985807896,2.50116,2.6094,-0.573229,-59.5,47.0,49.625,-0.03125,-7.14062,6.32812,-0.00585938,0.00390625,0.0175781,4,0,41.36898411107397,-91.65257539463084,11073.756496717057,-47.47965913476989,3.11299421277031,4.4805914868807655,206.415,8907.031340764672,11074.134321271986,150,True,26.57540335187894,False,177.7643162473886,174.39529052239888,False,3.3874573192634987,True,False
2,1970-07-23 10:13:45.731356777,2025-09-11,2025-09-26 14:56:13.135,HA,C,2111809344,JASSM,3,115,76,2,2,1,225,9,2,0,1,26,0,0,0,0,-172814.18786795562,-4769955.321260299,4221038.081511021,-2.51458,-0.703426,0.607456,60.375,-51.125,-54.875,0.0,0.0,0.0,0.0,0.0,0.0,2,0,41.67863707175183,-92.07490303840368,10000.000519397146,139.8330547522439,-0.0029322201725633,0.0009564827792298,,8907.031340764672,11074.134321271986,150,2,2025-09-11,2025-09-26 14:56:12.910,HA,C,3015564696,HAWK11,1,1,73,2,1,1,225,2,1,0,0,12,1,225,2,1,-138378.80896170562,-4794096.050752486,4195547.526823521,2.49722,2.59981,-0.579365,-58.75,47.0,49.875,0.015625,-7.28125,6.4375,-0.00195312,0.00390625,0.00585938,4,0,41.36962902571281,-91.6533504644706,11072.567636273388,-46.9011014837576,3.0765985326302348,3.987209256559536,206.989,8907.031340764672,11074.134321271986,150,True,26.469292171132448,False,178.21066128678214,174.37693267940398,False,3.8419612791679745,True,False
2,1970-07-23 10:13:45.741374950,2025-09-11,2025-09-26 14:56:14.137,HA,C,2113121700,JASSM,3,115,76,2,2,1,225,9,2,0,1,26,0,0,0,0,-172747.73571951812,-4770011.692354049,4220977.507292271,-2.51448,-0.703426,0.607456,60.375,-51.125,-54.875,0.0,0.0,0.0,0.0,0.0,0.0,2,0,41.67790721359623,-92.07408138403468,10000.00098969673,139.8336011090644,-0.0019786480080353,0.0064461477359434,,8907.031340764672,11074.134321271986,150,2,2025-09-11,2025-09-26 14:56:14.218,HA,C,3017075828,HAWK11,1,1,73,2,1,1,225,2,1,0,0,12,1,225,2,1,-138452.76403983062,-4794036.784150924,4195611.670378208,2.50279,2.59923,-0.57764,-58.0,45.125,52.0,-0.21875,-7.21875,6.35938,0.0,0.00195312,-0.00585938,4,0,41.37040188825951,-91.65425402836664,11071.048426477311,-46.94563810168051,2.984812194107195,4.285376587251495,207.808,8907.031340764672,11074.134321271986,150,True,26.35111355692051,False,177.98273943935868,174.35478082767915,False,4.730810758580069,True,False
2,1970-07-23 10:13:45.752405286,2025-09-11,2025-09-26 14:56:15.240,HA,C,2114493700,JASSM,3,115,76,2,2,1,225,9,2,0,1,26,0,0,0,0,-172678.26306326812,-4770070.622041549,4220914.183073521,-2.51448,-0.70333,0.607456,60.375,-51.125,-54.875,0.0,0.0,0.0,0.0,0.0,0.0,2,0,41.67714421865415,-92.07322240374324,10000.005909726162,139.83052094527633,-0.0036274069070267,0.0033100065484232,,8907.031340764672,11074.134321271986,150,2,2025-09-11,2025-09-26 14:56:15.119,HA,C,3018189294,HAWK11,1,1,73,2,1,1,225,2,1,0,0,12,1,225,2,1,-138507.09411795562,-4793992.150361861,4195658.920378208,2.4584,2.58696,-0.587515,-57.0,47.5,50.125,-0.0625,-7.28125,6.59375,-0.0449219,0.00585938,0.0117188,4,0,41.370977026464594,-91.6549182104142,11067.520438809752,-46.13086173768857,3.031434186471967,1.3978864680887064,208.126,8907.031340764672,11074.134321271986,150,True,26.24632379943101,False,179.20268841475428,174.33387424055195,False,4.952398170659773,True,False
2,1970-07-23 10:13:45.764403717,2025-09-11,2025-09-26 14:56:16.440,HA,C,2115865702,JASSM,3,115,76,2,2,1,225,9,2,0,1,26,0,0,0,0,-172608.78991873687,-4770129.547822799,4220850.854948521,-2.51448,-0.70333,0.607456,60.375,-51.125,-54.875,0.0,0.0,0.0,0.0,0.0,0.0,2,0,41.67638121439967,-92.07236343958128,9999.999032122614,139.83109209426402,-0.0026305216709025,0.0033080820146719,,8907.031340764672,11074.134321271986,150,2,2025-09-11,2025-09-26 14:56:16.501,HA,C,3019819726,HAWK11,1,1,73,2,1,1,225,2,1,0,0,12,1,225,2,1,-138584.91443045562,-4793928.527314986,4195727.244596958,2.42072,2.58591,-0.5832,-56.5,47.375,49.75,-0.109375,-7.21875,6.26562,-0.0449219,-0.00390625,-0.0117188,4,0,41.371803347484125,-91.6558694734216,11064.632120646756,-46.2539839676522,2.8118963599503384,-0.8006452639606397,208.688,8907.031340764672,11074.134321271986,150,True,26.12180010101468,False,179.22755791864137,174.30905919881542,False,5.0799634654515415,True,False
2,1970-07-23 10:13:45.775255269,2025-09-11,2025-09-26 14:56:17.525,HA,C,2117178054,JASSM,3,115,76,2,2,1,225,9,2,0,1,26,0,0,0,0,-172542.33777029935,-4770185.915010299,4220790.276823521,-2.51448,-0.70333,0.607456,60.375,-51.125,-54.875,0.0,0.0,0.0,0.0,0.0,0.0,2,0,41.67565133490547,-92.07154184429211,9999.999325776453,139.8316383876315,-0.0016769478517338,0.0033062111668089,,8907.031340764672,11074.134321271986,150,2,2025-09-11,2025-09-26 14:56:17.611,HA,C,3021052490,HAWK11,1,1,73,2,1,1,225,2,1,0,0,12,1,225,2,1,-138643.88513358062,-4793879.719697799,4195779.289518833,2.4026,2.59137,-0.579557,-56.375,47.125,49.5,0.015625,-7.35938,6.625,-0.00195312,0.00976562,0.00976562,4,0,41.37243487625511,-91.6565905436456,11061.56923705838,-46.589393338187485,2.8244039195965507,-1.683460096247483,209.189,8907.031340764672,11074.134321271986,150,True,26.0154076145084,False,179.16494035661023,174.28697816808514,False,5.019115938413515,True,False
2,1970-07-23 10:13:45.785297041,2025-09-11,2025-09-26 14:56:18.529,HA,C,2118430754,JASSM,3,115,76,2,2,1,225,9,2,0,1,26,0,0,0,0,-172478.90564139312,-4770239.715791549,4220732.456511021,-2.51448,-0.70333,0.607456,60.375,-51.125,-54.875,0.0,0.0,0.0,0.0,0.0,0.0,2,0,41.67495468042794,-92.07075760701984,10000.00382466657,139.8321598336651,-0.0007667574448178,0.0033044629045962,,8907.031340764672,11074.134321271986,150,2,2025-09-11,2025-09-26 14:56:18.611,HA,C,3022325022,HAWK11,1,1,73,2,1,1,225,2,1,0,0,12,1,225,2,1,-138704.08825858062,-4793830.093721236,4195832.479948521,2.44737,2.58715,-0.582721,-56.125,46.625,49.5,-0.21875,-7.21875,6.53125,0.03125,0.00195312,-0.00195312,4,0,41.37307879021572,-91.65732662835636,11059.068582775852,-46.31819834399492,2.831427555068446,0.7624833369361977,209.604,8907.031340764672,11074.134321271986,150,True,25.91060127069021,False,179.2584484813809,174.26516764521315,False,5.024458710938823,True,False
2,1970-07-23 10:13:45.796316435,2025-09-11,2025-09-26 14:56:19.631,HA,C,2119683452,JASSM,3,115,76,2,2,1,225,9,2,0,1,26,0,0,0,0,-172415.47351248687,-4770293.516572799,4220674.632292271,-2.51448,-0.70333,0.607552,60.375,-51.125,-54.875,0.0,0.0,0.0,0.0,0.0,0.0,2,0,41.67425799425789,-92.06997338666103,10000.00508197042,139.83590544540442,-0.00430608864812,0.0033025805533299,,8907.031340764672,11074.134321271986,150,2,2025-09-11,2025-09-26 14:56:19.705,HA,C,3023358954,HAWK11,1,1,73,2,1,1,225,2,1,0,0,12,1,225,2,1,-138753.01599295562,-4793789.908174361,4195875.269011021,2.42158,2.5815,-0.583296,-55.875,46.875,49.0,-0.0625,-7.20312,6.46875,-0.0546875,0.0117188,0.00976562,4,0,41.37359826725665,-91.65792481275436,11056.446210079974,-46.09106870309328,2.6816335354149543,-0.882728619388807,209.861,8907.031340764672,11074.134321271986,150,True,25.81543511103476,False,179.121464484655,174.2453773777102,False,5.093459645601181,True,False
2,1970-07-23 10:13:45.807396614,2025-09-11,2025-09-26 14:56:20.739,HA,C,2120995802,JASSM,3,115,76,2,2,1,225,9,2,0,1,26,0,0,0,0,-172349.02087576812,-4770349.875947799,4220614.050261021,-2.51448,-0.70333,0.607552,60.375,-51.125,-54.875,0.0,0.0,0.0,0.0,0.0,0.0,2,0,41.67352811797386,-92.06915184290392,9999.994535838856,139.83645168181795,-0.0033525288977063,0.0033007779391024,,8907.031340764672,11074.134321271986,150,2,2025-09-11,2025-09-26 14:56:20.412,HA,C,3024512186,HAWK11,1,1,73,2,1,1,225,2,1,0,0,12,1,225,2,1,-138807.28747733062,-4793745.107393111,4195923.051237583,2.41343,2.57623,-0.584063,-55.875,46.5,48.875,-0.09375,-7.28125,6.45312,0.00585938,-0.00585938,-0.00585938,4,0,41.374177982086856,-91.65858841873192,11053.67771548299,-45.87057744970414,2.552883013019947,-1.5061303919182056,210.142,8907.031340764672,11074.134321271986,150,True,25.71306718993502,False,179.07546905058402,174.22368473410373,False,4.96647188886333,True,False
2,1970-07-23 10:13:45.818393984,2025-09-11,2025-09-26 14:56:21.839,HA,C,2122308154,JASSM,3,115,76,2,2,1,225,9,2,0,1,26,0,0,0,0,-172282.56872733062,-4770406.239229049,4220553.472136021,-2.51448,-0.70333,0.607552,60.375,-51.125,-54.875,0.0,0.0,0.0,0.0,0.0,0.0,2,0,41.67279823851934,-92.06833032187244,10000.00791503056,139.8369978952745,-0.0023989731676059,0.003298974715931,,8907.031340764672,11074.134321271986,150,2,2025-09-11,2025-09-26 14:56:21.817,HA,C,3026142618,HAWK11,1,1,73,2,1,1,225,2,1,0,0,12,1,225,2,1,-138883.28357108062,-4793681.950166549,4195989.478971958,2.45197,2.57958,-0.572367,-55.5,46.75,48.375,-0.25,-7.01562,6.26562,0.0410156,0.0,-0.015625,4,0,41.37498901075484,-91.65951782935475,11047.722376419557,-46.427594155038456,2.1465359738471057,0.7842863164814348,210.57,8907.031340764672,11074.134321271986,150,True,25.592484056322508,False,178.9355108280616,174.1983556906115,False,5.119156896933736,True,False
2,1970-07-23 10:13:45.829274983,2025-09-11,2025-09-26 14:56:22.927,HA,C,2123620504,JASSM,3,115,76,2,2,1,225,9,2,0,1,26,0,0,0,0,-172216.11609061187,-4770462.594697799,4220492.890104771,-2.51448,-0.70333,0.607552,60.375,-51.125,-54.875,0.0,0.0,0.0,0.0,0.0,0.0,2,0,41.67206837366255,-92.0675088169289,9999.999391528196,139.8375440901873,-0.0014454318390663,0.0032971861318289,,8907.031340764672,11074.134321271986,150,2,2025-09-11,2025-09-26 14:56:23.112,HA,C,3027613984,HAWK11,1,1,73,2,1,1,225,2,1,0,0,12,1,225,2,1,-138951.93396170562,-4793624.007783736,4196049.424284458,2.51199,2.56884,-0.576873,-54.875,47.125,48.25,0.015625,-6.9375,6.375,0.0410156,0.00390625,0.0136719,4,0,41.37572651532576,-91.6603577324687,11040.02552800124,-45.86655294849163,2.011952648674429,3.908900578245632,210.985,8907.031340764672,11074.134321271986,150,True,25.477857750210624,False,178.90869041058932,174.1735682143442,False,5.554093662000976,True,False
2,1970-07-23 10:13:45.839292931,2025-09-11,2025-09-26 14:56:23.929,HA,C,2124873204,JASSM,3,115,76,2,2,1,225,9,2,0,1,26,0,0,0,0,-172152.68347342435,-4770516.391572799,4220435.061979771,-2.51448,-0.703234,0.607552,60.375,-51.125,-54.875,0.0,0.0,0.0,0.0,0.0,0.0,2,0,41.67137166218159,-92.06672466246988,10000.004391590872,139.83441223093538,-0.0031825261965939,0.0001587826163479,,8907.031340764672,11074.134321271986,150,2,2025-09-11,2025-09-26 14:56:23.911,HA,C,3028687682,HAWK11,1,1,73,2,1,1,225,2,1,0,0,12,1,225,2,1,-139001.51794608062,-4793581.408174361,4196092.845182896,2.54142,2.55369,-0.578407,-54.25,47.75,48.125,-0.125,-6.96875,6.28125,0.0136719,0.0,0.00976562,4,0,41.37626448488004,-91.6609646394611,11032.894813577952,-45.25145615766148,1.6152270648939453,5.140780193042771,211.169,8907.031340764672,11074.134321271986,150,True,25.381649144934368,False,178.58481087634843,174.15195936608842,False,6.083757071360397,True,False
2,1970-07-23 10:13:45.850315311,2025-09-11,2025-09-26 14:56:25.031,HA,C,2126125904,JASSM,3,115,76,2,2,1,225,9,2,0,1,26,0,0,0,0,-172089.25134451812,-4770570.184541549,4220377.229948521,-2.51448,-0.703234,0.607552,60.375,-51.125,-54.875,0.0,0.0,0.0,0.0,0.0,0.0,2,0,41.67067494225902,-92.06594053246876,9999.99662717754,139.83493356194154,-0.0022723122555033,0.0001570047362118,,8907.031340764672,11074.134321271986,150,2,2025-09-11,2025-09-26 14:56:24.907,HA,C,3029721614,HAWK11,1,1,73,2,1,1,225,2,1,0,0,12,1,225,2,1,-139048.57263358062,-4793540.061494674,4196134.391081333,2.48352,2.54698,-0.583296,-53.75,48.0,48.25,-0.0625,-7.0625,6.5,-0.09375,0.00195312,-0.00195312,4,0,41.37678277611486,-91.66154091628458,11024.603732220525,-44.825444622058335,1.6281362003884725,1.6239153851426558,211.169,8907.031340764672,11074.134321271986,150,True,25.28725102426407,False,178.43810239462064,174.12992844371172,False,6.47766725572676,True,False
2,1970-07-23 10:13:45.861334261,2025-09-11,2025-09-26 14:56:26.133,HA,C,2127438252,JASSM,3,115,76,2,2,1,225,9,2,0,1,26,0,0,0,0,-172022.79870779935,-4770626.540010299,4220316.644011021,-2.51448,-0.703234,0.607552,60.375,-51.125,-54.875,0.0,0.0,0.0,0.0,0.0,0.0,2,0,41.66994503379249,-92.0651190815145,9999.996439990253,139.83547969821754,-0.0013187506223615,0.0001551383171472,,8907.031340764672,11074.134321271986,150,2,2025-09-11,2025-09-26 14:56:26.205,HA,C,3031391814,HAWK11,1,1,73,2,1,1,225,2,1,0,0,12,1,225,2,1,-139123.65466483062,-4793473.122041549,4196201.667448521,2.4491,2.55005,-0.579557,-53.75,48.375,48.25,0.0,-6.8125,6.6875,0.00585938,0.00585938,-0.00195312,4,0,41.3776221607005,-91.66246079732412,11011.13952208048,-45.07561311613692,1.5567966963399686,-0.25863513667317,211.34,8907.031340764672,11074.134321271986,150,True,25.16580402655798,False,178.23564964551613,174.10032465979597,False,6.642755839668268,True,False
2,1970-07-23 10:13:45.871415370,2025-09-11,2025-09-26 14:56:27.141,HA,C,2128690952,JASSM,3,115,76,2,2,1,225,9,2,0,1,26,0,0,0,0,-171959.36657889312,-4770680.332979049,4220258.811979771,-2.51448,-0.703234,0.607648,60.375,-51.125,-54.875,0.0,0.0,0.0,0.0,0.0,0.0,2,0,41.66924830274296,-92.06433498613708,9999.999486664878,139.8392234162412,-0.004855135712406,0.0001532123534615,,8907.031340764672,11074.134321271986,150,2,2025-09-11,2025-09-26 14:56:27.208,HA,C,3032545046,HAWK11,1,1,73,2,1,1,225,2,1,0,0,12,1,225,2,1,-139175.91833670562,-4793426.221650924,4196248.503386021,2.45284,2.55724,-0.57553,-54.125,48.5,48.625,-0.09375,-6.76562,7.3125,0.0,0.0078125,0.0,4,0,41.378208292202,-91.66310123542704,11001.034320666871,-45.48926379045609,1.5992594417711856,0.1690733644914091,211.303,8907.031340764672,11074.134321271986,150,True,25.06651486568544,False,178.3620430712771,174.07585910246738,False,6.598662069504161,True,False
2,1970-07-23 10:13:45.882393234,2025-09-11,2025-09-26 14:56:28.239,HA,C,2130003304,JASSM,3,115,76,2,2,1,225,9,2,0,1,26,0,0,0,0,-171892.91345389312,-4770736.684541549,4220198.226042271,-2.51448,-0.703234,0.607648,60.375,-51.125,-55.0,0.0,0.0,0.0,0.0,0.0,0.0,2,0,41.66851840608184,-92.06351356728658,10000.001015100326,139.8397695159738,-0.0039015896608043,0.0001514170076518,,8907.031340764672,11074.134321271986,150,2,2025-09-11,2025-09-26 14:56:28.132,HA,C,3033062012,HAWK11,1,1,73,2,1,1,225,2,1,0,0,12,1,225,2,1,-139199.77966483062,-4793404.719697799,4196269.999479771,2.45216,2.55743,-0.581379,-54.25,48.625,49.0,-0.21875,-6.95312,7.60938,-0.00195312,0.0136719,0.00585938,4,0,41.37847718617633,-91.66339366670486,10996.446982322845,-45.28268270323249,1.8635172883414293,0.1428343208421314,211.242,8907.031340764672,11074.134321271986,150,True,24.989098853365967,False,178.40278058393426,174.01963644794554,False,6.67827980341169,True,False
2,1970-07-23 10:13:45.893403953,2025-09-11,2025-09-26 14:56:29.340,HA,C,2131315654,JASSM,3,115,76,2,2,1,225,9,2,0,1,26,0,0,0,0,-171826.46130545562,-4770793.036104049,4220137.636198521,-2.51448,-0.703234,0.607648,60.375,-51.125,-55.0,0.0,0.0,0.0,0.0,0.0,0.0,2,0,41.66778847698752,-92.06269217870532,9999.99990411618,139.8403155877376,-0.0029480289011115,0.0001495978692843,,8907.031340764672,11074.134321271986,150,2,2025-09-11,2025-09-26 14:56:29.313,HA,C,3035090110,HAWK11,1,1,73,2,1,1,225,2,1,0,0,12,1,225,2,1,-139293.42028983062,-4793321.872041549,4196354.677214146,2.34958,2.56041,-0.585885,-55.625,48.375,50.125,-0.21875,-6.95312,7.5625,-0.0605469,0.00195312,-0.0253906,4,0,41.37952545268665,-91.6645407667029,10982.918730116957,-45.22786963551366,2.154285982380174,-5.63919434386552,210.851,8907.031340764672,11074.134321271986,150,True,24.851631342410005,False,179.14065111115573,173.98505052716618,False,6.2064103154994354,True,False
2,1970-07-23 10:13:45.903295473,2025-09-11,2025-09-26 14:56:30.329,HA,C,2132508700,JASSM,3,115,76,2,2,1,225,9,2,0,1,26,0,0,0,0,-171766.04870779935,-4770844.262666549,4220082.554167271,-2.51439,-0.703234,0.607648,60.375,-51.125,-55.0,0.0,0.0,0.0,0.0,0.0,0.0,2,0,41.66712491059559,-92.06194546020129,9999.99779241245,139.84081201087517,-0.0020811550109096,0.0056394331749288,,8907.031340764672,11074.134321271986,150,2,2025-09-11,2025-09-26 14:56:30.111,HA,C,3036084274,HAWK11,1,1,73,2,1,1,225,2,1,0,0,12,1,225,2,1,-139340.32653983062,-4793281.503877486,4196396.284636021,2.30634,2.58073,-0.572175,-56.625,48.25,50.0,-0.125,-6.96875,7.60938,-0.0253906,0.0078125,-0.0273438,4,0,41.38003835062107,-91.66511499092974,10977.176471930205,-46.48071708048106,2.180529793210909,-7.526765820850474,210.643,8907.031340764672,11074.134321271986,150,True,24.760124102557047,False,179.0860138992958,173.96305658814214,False,5.659427153368731,True,False
2,1970-07-23 10:13:45.913365404,2025-09-11,2025-09-26 14:56:31.336,HA,C,2133701746,JASSM,3,115,76,2,2,1,225,9,2,0,1,26,0,0,0,0,-171705.636842565,-4770895.489229049,4220027.472136021,-2.51439,-0.703234,0.607648,60.375,-51.125,-55.0,0.0,0.0,0.0,0.0,0.0,0.0,2,0,41.6664613391182,-92.06119876581656,10000.000534256144,139.84130841149334,-0.0012142851319938,0.005637791242549,,8907.031340764672,11074.134321271986,150,2,2025-09-11,2025-09-26 14:56:31.313,HA,C,3037515874,HAWK11,1,1,73,2,1,1,225,2,1,0,0,12,1,225,2,1,-139409.42419608062,-4793222.477510299,4196456.251432896,2.43213,2.55197,-0.536989,-58.125,49.25,49.5,-0.15625,-5.17188,5.70312,0.224609,-0.03125,0.0,4,0,41.38078233174031,-91.66596074552206,10966.931490769646,-46.69927548929043,-0.2636807241675487,-1.1914597989020168,210.191,8907.031340764672,11074.134321271986,150,True,24.65023267904636,False,178.2060183069997,173.93759066516463,False,5.1799963673105225,True,False
2,1970-07-23 10:13:45.923351573,2025-09-11,2025-09-26 14:56:32.335,HA,C,2134835142,JASSM,3,115,76,2,2,1,225,9,2,0,1,26,0,0,0,0,-171648.2452410025,-4770944.153291549,4219975.144011021,-2.51439,-0.703234,0.607648,60.375,-51.125,-55.0,0.0,0.0,0.0,0.0,0.0,0.0,2,0,41.66583094741496,-92.06048941690722,10000.004249448066,139.84177997892326,-0.0003907613989926,0.0056362370660489,,8907.031340764672,11074.134321271986,150,2,2025-09-11,2025-09-26 14:56:32.313,HA,C,3038669106,HAWK11,1,1,73,2,1,1,225,2,1,0,0,12,1,225,2,1,-139466.07263358062,-4793172.495088424,4196503.565886021,2.6488,2.54967,-0.539194,-58.25,51.25,49.375,-0.265625,-5.90625,6.51562,0.134766,0.00585938,0.0078125,4,0,41.38138924640968,-91.6666546896165,10950.614076060428,-46.53204839176325,-0.237179599403843,11.15470973412697,209.348,8907.031340764672,11074.134321271986,150,False,24.553534136873992,False,177.4964948594067,173.91529096818275,False,5.900730498310648,True,False
2,1970-07-23 10:13:45.933316525,2025-09-11,2025-09-26 14:56:33.331,HA,C,2135968536,JASSM,3,115,76,2,2,1,225,9,2,0,1,26,0,0,0,0,-171590.85388358062,-4770992.813447799,4219922.815886021,-2.51439,-0.703138,0.607648,60.375,-51.125,-55.0,0.0,0.0,0.0,0.0,0.0,0.0,2,0,41.66520057456669,-92.0597800864498,10000.002740384616,139.83860097396632,-0.0022129464154623,0.0024994609107149,,8907.031340764672,11074.134321271986,150,2,2025-09-11,2025-09-26 14:56:33.313,HA,C,3039901870,HAWK11,1,1,73,2,1,1,225,2,1,0,0,12,1,225,2,1,-139525.83239920562,-4793117.193330611,4196554.813932896,2.77871,2.50825,-0.5623,-57.25,53.625,50.375,-0.140625,-6.3125,7.0,0.128906,0.00585938,0.0605469,4,0,41.38205381284735,-91.66738765763697,10929.966178188188,-44.12699281005873,-0.4702497464519102,17.340930186208656,208.993,8907.031340764672,11074.134321271986,150,False,24.453178652299314,False,176.82246618566543,173.8898984721918,False,7.446873345596261,True,False
2,1970-07-23 10:13:45.943315385,2025-09-11,2025-09-26 14:56:34.331,HA,C,2137161582,JASSM,3,115,76,2,2,1,225,9,2,0,1,26,0,0,0,0,-171530.44201834625,-4771044.036104049,4219867.729948521,-2.51439,-0.703138,0.607648,60.375,-51.125,-55.0,0.0,0.0,0.0,0.0,0.0,0.0,2,0,41.664536985893605,-92.05903343821758,10000.00128266002,139.83909732517458,-0.0013460749429495,0.0024977608273352,,8907.031340764672,11074.134321271986,150,2,2025-09-11,2025-09-26 14:56:34.407,HA,C,3041015336,HAWK11,1,1,73,2,1,1,225,2,1,0,0,12,1,225,2,1,-139578.65857108062,-4793065.803682174,4196602.378386021,2.93,2.46568,-0.588665,-56.0,54.25,53.125,-0.140625,-6.79688,7.45312,0.128906,0.0195312,0.0292969,4,0,41.38267143935119,-91.6680364680886,10910.462941242968,-41.58453857876769,-0.5149593223225364,24.659583618543657,208.541,8907.031340764672,11074.134321271986,150,False,24.35491635857429,False,176.79727289150313,173.86218631734928,False,8.673053251449428,True,False
2,1970-07-23 10:13:45.952301245,2025-09-11,2025-09-26 14:56:35.230,HA,C,2138354630,JASSM,3,115,76,2,2,1,225,9,2,0,1,26,0,0,0,0,-171470.02966483062,-4771095.258760299,4219812.644011021,-2.51439,-0.703138,0.607744,60.375,-51.125,-55.0,0.0,0.0,0.0,0.0,0.0,0.0,2,0,41.66387339239856,-92.05828679946164,10000.00457090103,139.84281833678807,-0.0049283879751448,0.0024959119540414,,8907.031340764672,11074.134321271986,150,2,2025-09-11,2025-09-26 14:56:35.313,HA,C,3042248102,HAWK11,1,1,73,2,1,1,225,2,1,0,0,12,1,225,2,1,-139633.78943045562,-4793006.368135299,4196656.640104771,3.0346,2.40413,-0.63804,-52.25,58.75,54.5,-0.171875,-7.25,7.85938,0.0488281,0.0292969,0.0546875,4,0,41.38338173354549,-91.6687156185804,10885.85724826792,-37.59212093360666,0.0955942859824273,28.606933538543814,208.37,8907.031340764672,11074.134321271986,150,False,24.251821382521044,False,173.3526229304338,173.8270935368317,False,12.201682225786602,True,False
2,1970-07-23 10:13:45.963325923,2025-09-11,2025-09-26 14:56:36.332,HA,C,2139607328,JASSM,3,115,76,2,2,1,225,9,2,0,1,26,0,0,0,0,-171406.59704764312,-4771149.040010299,4219754.800261021,-2.51439,-0.703138,0.607744,60.375,-51.125,-55.0,0.0,0.0,0.0,0.0,0.0,0.0,2,0,41.66317660539451,-92.05750285060908,9999.999322256494,139.8433394707676,-0.0040181657904033,0.0024941730649741,,8907.031340764672,11074.134321271986,150,2,2025-09-11,2025-09-26 14:56:36.001,HA,C,3043083200,HAWK11,1,1,73,2,1,1,225,2,1,0,0,12,1,225,2,1,-139669.98278983062,-4792963.604463424,4196695.765104771,3.07132,2.35092,-0.661529,-49.625,60.625,56.5,0.0,-7.60938,8.1875,-0.0371094,0.0351562,0.0625,4,0,41.38389395454096,-91.6691627923887,10868.089448032544,-34.8268954584917,-0.1368201442281097,28.86486425528097,208.003,8907.031340764672,11074.134321271986,150,False,24.16188852367102,False,171.4265006252093,173.79404501210655,False,14.360634215566,True,False
2,1970-07-23 10:13:45.979800440,2025-09-11,2025-09-26 14:56:37.980,HA,C,2140800374,JASSM,3,115,76,2,2,1,225,9,2,0,1,26,0,0,0,0,-171346.18493826812,-4771200.258760299,4219699.714323521,-2.51439,-0.703138,0.607744,60.375,-51.125,-55.0,0.0,0.0,0.0,0.0,0.0,0.0,2,0,41.66251302510093,-92.05675624789431,10000.002881268549,139.84383577206407,-0.0031513112066773,0.0024925374883143,,8907.031340764672,11074.134321271986,150,2,2025-09-11,2025-09-26 14:56:38.001,HA,C,3045230598,HAWK11,1,1,73,2,1,1,225,2,1,0,0,12,1,225,2,1,-139752.40661795562,-4792851.182588424,4196802.249479771,3.10439,2.23923,-0.742063,-41.625,63.875,62.375,-0.109375,-8.67188,9.29688,-0.0976562,0.0390625,0.0332031,4,0,41.385267238331735,-91.6701864153082,10828.347617836804,-28.268094401612256,1.3157621922351583,26.69017474050458,206.696,8907.031340764672,11074.134321271986,150,False,24.020117670983236,False,165.99975275806815,173.7158699886987,False,20.161488419975033,True,False
2,1970-07-23 10:13:45.983414439,2025-09-11,2025-09-26 14:56:38.341,HA,C,2141933768,JASSM,3,115,76,2,2,1,225,9,2,0,1,26,0,0,0,0,-171288.79333670562,-4771248.915010299,4219647.378386021,-2.51439,-0.703138,0.607744,60.375,-51.125,-55.0,0.0,0.0,0.0,0.0,0.0,0.0,2,0,41.66188259973266,-92.05604698901683,9999.997491049537,139.84430724318185,-0.0023277840953049,0.0024909713567032,,8907.031340764672,11074.134321271986,150,2,2025-09-11,2025-09-26 14:56:38.611,HA,C,3046145230,HAWK11,1,1,73,2,1,1,225,2,1,0,0,12,1,225,2,1,-139782.99646170562,-4792801.926729049,4196851.028776646,3.08023,2.19455,-0.771592,-38.25,64.25,65.125,-0.234375,-8.67188,9.34375,-0.0546875,0.0273438,0.0410156,4,0,41.38588422448812,-91.67056894719654,10815.152932189592,-25.830301121963103,1.9373575834332444,23.617125640487032,206.403,8907.031340764672,11074.134321271986,150,False,23.933111979145295,False,163.8247214040763,173.6677439689034,False,22.45387157967186,True,False
2,1970-07-23 10:13:45.992312396,2025-09-11,2025-09-26 14:56:39.231,HA,C,2143126814,JASSM,3,115,76,2,2,1,225,9,2,0,1,26,0,0,0,0,-171228.38122733062,-4771300.133760299,4219592.288542271,-2.51439,-0.703138,0.607744,60.375,-51.125,-55.0,0.0,0.0,0.0,0.0,0.0,0.0,2,0,41.66121898357084,-92.05530041619636,10000.001869277152,139.84480351196177,-0.0014609092439919,0.0024893187889451,,8907.031340764672,11074.134321271986,150,2,2025-09-11,2025-09-26 14:56:39.503,HA,C,3047139396,HAWK11,1,1,73,2,1,1,225,2,1,0,0,12,1,225,2,1,-139812.90466483062,-4792748.848604049,4196905.634245396,3.07439,2.15496,-0.809558,-34.625,64.375,67.875,-0.375,-9.0625,9.6875,-0.015625,0.0371094,0.0175781,4,0,41.3865633983008,-91.67094467677688,10805.145178986426,-23.43211460894067,3.177635591450997,21.776180608621853,205.792,8907.031340764672,11074.134321271986,150,False,23.84118502579548,False,161.50462565142618,173.6115686917869,False,24.867144531438164,True,False
2,1970-07-23 10:13:46.003004261,2025-09-11,2025-09-26 14:56:40.300,HA,C,2144319860,JASSM,3,115,76,2,2,1,225,9,2,0,1,26,0,0,0,0,-171167.968873815,-4771351.348604049,4219537.198698521,-2.51439,-0.703138,0.607744,60.375,-51.125,-55.0,0.0,0.0,0.0,0.0,0.0,0.0,2,0,41.66055538588795,-92.05455385745871,10000.00144657952,139.84529976489532,-0.0005940515800628,0.0024876819975002,,8907.031340764672,11074.134321271986,150,2,2025-09-11,2025-09-26 14:56:40.120,HA,C,3047815430,HAWK11,1,1,73,2,1,1,225,2,1,0,0,12,1,225,2,1,-139832.21521170562,-4792711.757783736,4196945.321745396,3.0509,2.13885,-0.829788,-32.375,64.0,69.875,-0.40625,-8.92188,9.5625,-0.117188,0.0292969,0.0078125,4,0,41.38704860427399,-91.6711882577758,10801.35712814704,-22.36518235330766,3.9564483348473,19.82215748296954,205.4,8907.031340764672,11074.134321271986,150,False,23.761603074975625,False,160.06056392364346,173.56526116840183,False,26.37150100250002,True,False
2,1970-07-23 10:13:46.012334925,2025-09-11,2025-09-26 14:56:41.233,HA,C,2145453254,JASSM,3,115,76,2,2,1,225,9,2,0,1,26,0,0,0,0,-171110.5772722525,-4771400.004854049,4219484.858854771,-2.51439,-0.703043,0.607744,60.375,-51.125,-55.0,0.0,0.0,0.0,0.0,0.0,0.0,2,0,41.65992492045185,-92.05384464154258,10000.00095858542,139.8421187539366,-0.0024178624718061,-0.0006515048981996,,8907.031340764672,11074.134321271986,150,2,2025-09-11,2025-09-26 14:56:41.313,HA,C,3049326560,HAWK11,1,1,73,2,1,1,225,2,1,0,0,12,1,225,2,1,-139869.96716483062,-4792631.406221236,4197034.944792271,2.92827,2.0936,-0.868329,-28.375,62.875,73.125,-0.125,-8.42188,9.03125,-0.0703125,0.015625,0.015625,4,0,41.38812505370018,-91.67166720004754,10800.772795356655,-19.891287787364423,5.271702286522998,11.04862935861578,204.789,8907.031340764672,11074.134321271986,150,False,23.65250515684845,False,157.5112962923802,173.47498285045805,False,29.0087594320307,True,False
2,1970-07-23 10:13:46.023312675,2025-09-11,2025-09-26 14:56:42.331,HA,C,2146705954,JASSM,3,115,76,2,2,1,225,9,2,0,1,26,0,0,0,0,-171047.14416678375,-4771453.778291549,4219427.011198521,-2.51439,-0.703043,0.607744,60.375,-51.125,-55.0,0.0,0.0,0.0,0.0,0.0,0.0,2,0,41.65922812321887,-92.05306078596948,9999.997930323363,139.842639785477,-0.0015076542737233,-0.0006532873139452,,8907.031340764672,11074.134321271986,150,2,2025-09-11,2025-09-26 14:56:42.407,HA,C,3050678626,HAWK11,1,1,73,2,1,1,225,2,1,0,0,12,1,225,2,1,-139900.74646170562,-4792560.844697799,4197117.997526646,2.84975,2.09954,-0.885682,-26.125,61.625,74.875,-0.109375,-7.78125,8.23438,-0.0410156,0.00195312,-0.00195312,4,0,41.3891001241211,-91.67205945612623,10809.530585222565,-19.69536650632678,6.271658579505108,6.831268465283753,204.716,8907.031340764672,11074.134321271986,150,True,23.545318112030852,False,156.08397405137973,173.3865152570626,False,30.508112622834883,False,False
2,1970-07-23 10:13:46.031401127,2025-09-11,2025-09-26 14:56:43.140,HA,C,2147779696,JASSM,3,115,76,2,2,1,225,9,2,0,1,26,0,0,0,0,-170992.77307303375,-4771499.872041549,4219377.429167271,-2.51439,-0.703043,0.60784,60.375,-51.125,-55.0,0.0,0.0,0.0,0.0,0.0,0.0,2,0,41.65863086200823,-92.05238892392784,10000.008667831333,139.8463092823972,-0.0051737193818957,-0.0006549828692854,,8907.031340764672,11074.134321271986,150,2,2025-09-11,2025-09-26 14:56:43.111,HA,C,3051473958,HAWK11,1,1,73,2,1,1,225,2,1,0,0,12,1,225,2,1,-139917.96325858062,-4792519.465791549,4197167.655729771,2.84074,2.09484,-0.892297,-25.375,61.0,75.625,0.0,-7.42188,7.90625,0.0214844,0.0136719,0.0195312,4,0,41.389678513588166,-91.6722795404758,10816.679383339746,-19.38706300956644,6.552397886606328,6.140325697776643,204.716,8907.031340764672,11074.134321271986,150,True,23.467886034210377,False,155.57868347567972,173.3285910196544,False,31.060174509421675,False,False
2,1970-07-23 10:13:46.041359049,2025-09-11,2025-09-26 14:56:44.135,HA,C,2148853438,JASSM,3,115,76,2,2,1,225,9,2,0,1,26,0,0,0,0,-170938.40173514312,-4771545.961885299,4219327.843229771,-2.51439,-0.703043,0.60784,60.375,-51.125,-55.0,0.0,0.0,0.0,0.0,0.0,0.0,2,0,41.65803359394816,-92.05171707305249,10000.005175619062,139.84675585319434,-0.0043935366099803,-0.0006564697208951,,8907.031340764672,11074.134321271986,150,2,2025-09-11,2025-09-26 14:56:43.708,HA,C,3052070458,HAWK11,1,1,73,2,1,1,225,2,1,0,0,12,1,225,2,1,-139930.46716483062,-4792488.275361861,4197205.101042271,2.88388,2.08046,-0.895557,-24.625,60.75,76.125,-0.1875,-7.40625,7.95312,0.0625,0.00976562,0.015625,4,0,41.39011466693067,-91.6724397788168,10822.066157210042,-18.83558323654357,6.522266462975205,8.03269402691353,204.496,8907.031340764672,11074.134321271986,150,True,23.39828983572794,False,155.0959591296199,173.2809176370402,False,31.58456135804277,False,False
2,1970-07-23 10:13:46.050332015,2025-09-11,2025-09-26 14:56:45.033,HA,C,2149986830,JASSM,3,115,76,2,2,1,225,9,2,0,1,26,0,0,0,0,-170881.00988944,-4771594.610322799,4219275.499479771,-2.51429,-0.703043,0.60784,60.375,-51.125,-55.0,0.0,0.0,0.0,0.0,0.0,0.0,2,0,41.65740313122276,-92.05100791289956,9999.99429854409,139.8472272172993,-0.0035700046620457,0.0048334259167561,,8907.031340764672,11074.134321271986,150,2,2025-09-11,2025-09-26 14:56:44.907,HA,C,3053541824,HAWK11,1,1,73,2,1,1,225,2,1,0,0,12,1,225,2,1,-139960.16052420562,-4792412.048799361,4197298.063932896,2.87065,2.0539,-0.905049,-23.0,60.5,76.75,0.09375,-7.01562,7.53125,-0.0136719,0.00195312,0.0234375,4,0,41.39119052345386,-91.67282106209936,10838.319649104267,-17.747632842061975,6.668396902594069,6.207324739525351,205.034,8907.031340764672,11074.134321271986,150,True,23.29259030243167,False,154.11228433584336,173.180413047915,False,32.66315487993744,False,False
2,1970-07-23 10:13:46.059374688,2025-09-11,2025-09-26 14:56:45.937,HA,C,2151060574,JASSM,3,115,76,2,2,1,225,9,2,0,1,26,0,0,0,0,-170826.63855154935,-4771640.700166549,4219225.913542271,-2.51429,-0.703043,0.60784,60.375,-51.125,-55.0,0.0,0.0,0.0,0.0,0.0,0.0,2,0,41.65680585496265,-92.05033608754272,9999.998779941352,139.8476737603374,-0.0027898217226554,0.0048319390179489,,8907.031340764672,11074.134321271986,150,2,2025-09-11,2025-09-26 14:56:45.815,HA,C,3054655288,HAWK11,1,1,73,2,1,1,225,2,1,0,0,12,1,225,2,1,-139981.45349295562,-4792354.516572799,4197369.243620396,2.85215,2.03962,-0.905816,-22.125,60.375,77.125,0.09375,-6.98438,7.5,-0.0136719,0.00195312,0.00585938,4,0,41.39200957868916,-91.67309548750694,10852.715190401132,-17.258185824247562,6.525470593074815,4.559441069911198,205.364,8907.031340764672,11074.134321271986,150,True,23.20357929011568,False,153.5757810979472,173.09932510651112,False,33.27753358307754,False,False
2,1970-07-23 10:13:46.068276590,2025-09-11,2025-09-26 14:56:46.827,HA,C,2152193968,JASSM,3,115,76,2,2,1,225,9,2,0,1,26,0,0,0,0,-170769.24670584625,-4771689.348604049,4219173.569792271,-2.51429,-0.703043,0.60784,60.375,-51.125,-55.0,0.0,0.0,0.0,0.0,0.0,0.0,2,0,41.65617538358182,-92.0496269543251,9999.996319495807,139.84814509514183,-0.0019662895977078,0.0048303625130799,,8907.031340764672,11074.134321271986,150,2,2025-09-11,2025-09-26 14:56:46.703,HA,C,3055808520,HAWK11,1,1,73,2,1,1,225,2,1,0,0,12,1,225,2,1,-140002.64685233062,-4792294.732393111,4197443.479948521,2.83202,2.03933,-0.90687,-21.375,60.0,77.625,-0.140625,-6.92188,7.3125,0.00195312,0.00585938,0.0,4,0,41.39286268004526,-91.67336951541954,10868.198748062565,-17.22690153317444,6.5790434736632,3.3964415471008453,205.755,8907.031340764672,11074.134321271986,150,True,23.110655244871197,False,153.0903896148383,173.0130943894344,False,33.84099058039129,False,False
2,1970-07-23 10:13:46.077310495,2025-09-11,2025-09-26 14:56:47.731,HA,C,2153267710,JASSM,3,115,76,2,2,1,225,9,2,0,1,26,0,0,0,0,-170714.87536795562,-4771735.434541549,4219123.983854771,-2.51429,-0.703043,0.60784,60.375,-51.125,-55.0,0.0,0.0,0.0,0.0,0.0,0.0,2,0,41.655578122473095,-92.04895515616208,9999.999205266731,139.8485916093076,-0.0011861251467514,0.0048288896662274,,8907.031340764672,11074.134321271986,150,2,2025-09-11,2025-09-26 14:56:47.651,HA,C,3056524320,HAWK11,1,1,73,2,1,1,225,2,1,0,0,12,1,225,2,1,-140015.31482108062,-4792258.168916549,4197489.140104771,2.85014,2.0377,-0.907829,-20.875,60.25,77.5,-0.203125,-6.75,7.1875,0.0625,0.0,0.00390625,4,0,41.39338622028735,-91.67353360331651,10878.209082816824,-17.15309680911719,6.610124368087455,4.3695219441834965,206.183,8907.031340764672,11074.134321271986,150,True,23.037460944072635,False,152.83221516859422,172.95447587520553,False,34.163600839976745,False,False
2,1970-07-23 10:13:46.087334395,2025-09-11,2025-09-26 14:56:48.733,HA,C,2154401104,JASSM,3,115,76,2,2,1,225,9,2,0,1,26,0,0,0,0,-170657.48327811187,-4771784.082979049,4219071.640104771,-2.51429,-0.703043,0.60784,60.375,-51.125,-55.0,0.0,0.0,0.0,0.0,0.0,0.0,2,0,41.65494764249042,-92.04824604695074,10000.005139979474,139.84906291675898,-0.0003625914751139,0.0048273148171636,,8907.031340764672,11074.134321271986,150,2,2025-09-11,2025-09-26 14:56:48.655,HA,C,3057717318,HAWK11,1,1,73,2,1,1,225,2,1,0,0,12,1,225,2,1,-140036.28552420562,-4792196.520479049,4197566.485807896,2.95972,2.02562,-0.899872,-19.875,60.5,77.75,-0.125,-6.46875,6.89062,0.0839844,-0.00195312,0.00390625,4,0,41.394271437565465,-91.67380563303524,10895.843676420083,-16.913582416755222,6.03273787960851,10.13070826310312,206.513,8907.031340764672,11074.134321271986,150,False,22.943376907785385,False,152.24330242379918,172.86334148755554,False,34.84679092055504,False,False
2,1970-07-23 10:13:46.096415447,2025-09-11,2025-09-26 14:56:49.641,HA,C,2155534498,JASSM,3,115,76,2,2,1,225,9,2,0,1,26,0,0,0,0,-170600.09118826812,-4771832.727510299,4219019.292448521,-2.51429,-0.703043,0.60784,60.375,-51.125,-55.0,0.0,0.0,0.0,0.0,0.0,0.0,2,0,41.65431715514811,-92.047536953245,9999.997309536348,139.84953420805198,0.0004609437087515,0.0048257371056886,,8907.031340764672,11074.134321271986,150,2,2025-09-11,2025-09-26 14:56:49.500,HA,C,3059069384,HAWK11,1,1,73,2,1,1,225,2,1,0,0,12,1,225,2,1,-140057.79333670562,-4792126.007783736,4197653.036589146,3.06231,1.98133,-0.896132,-17.625,61.75,77.5,-0.296875,-6.14062,6.65625,0.0507812,0.0,0.03125,4,0,41.39527142930059,-91.67408718087307,10911.684940130992,-15.489241825102296,5.3007253084808585,14.164064104326794,206.684,8907.031340764672,11074.134321271986,150,False,22.84435244755079,False,151.02159996809903,172.75957590058943,False,36.191586021780104,False,False
2,1970-07-23 10:13:46.106254782,2025-09-11,2025-09-26 14:56:50.625,HA,C,2156727544,JASSM,3,115,76,2,2,1,225,9,2,0,1,26,0,0,0,0,-170539.67834647125,-4771883.934541549,4218964.190886021,-2.51429,-0.702947,0.607936,60.375,-51.125,-55.0,0.0,0.0,0.0,0.0,0.0,0.0,2,0,41.6536534742618,-92.04679055140238,10000.001956206706,139.8496056754196,-0.0057667421713232,0.0016877191203464,,8907.031340764672,11074.134321271986,150,2,2025-09-11,2025-09-26 14:56:50.704,HA,C,3060580516,HAWK11,1,1,73,2,1,1,225,2,1,0,0,12,1,225,2,1,-140078.92419608062,-4792045.825166549,4197749.718229771,3.05674,1.94058,-0.890188,-15.125,63.125,77.375,-0.046875,-6.04688,6.4375,-0.0976562,-0.0078125,0.00585938,4,0,41.39639739650682,-91.67436761055224,10925.695848880245,-14.19593667819544,4.529012360240154,12.1373044171975,207.502,8907.031340764672,11074.134321271986,150,False,22.73773425450022,False,149.63042859386474,172.6400495195838,False,37.71604613186294,False,False
2,1970-07-23 10:13:46.116292134,2025-09-11,2025-09-26 14:56:51.629,HA,C,2157860938,JASSM,3,115,76,2,2,1,225,9,2,0,1,26,0,0,0,0,-170482.2862566275,-4771932.575166549,4218911.847136021,-2.51429,-0.702947,0.607936,60.375,-51.0,-55.0,0.0,0.0,0.0,0.0,0.0,0.0,2,0,41.653023027413205,-92.0460814877572,10000.00194543294,139.85007693491318,-0.0049432455428708,0.0016861662886147,,8907.031340764672,11074.134321271986,150,2,2025-09-11,2025-09-26 14:56:51.612,HA,C,3061654214,HAWK11,1,1,73,2,1,1,225,2,1,0,0,12,1,225,2,1,-140091.96911795562,-4791988.234346236,4197817.784636021,3.01619,1.91834,-0.884915,-13.75,64.25,77.0,-0.15625,-6.17188,6.59375,-0.0292969,0.0117188,0.0078125,4,0,41.39719720619783,-91.67454356133771,10932.628319031488,-13.508813395896638,4.011280795725878,8.87644378724009,207.759,8907.031340764672,11074.134321271986,150,True,22.650494460102934,False,148.8584036318448,172.57679890570626,False,38.56136960537272,False,False
2,1970-07-23 10:13:46.125331064,2025-09-11,2025-09-26 14:56:52.533,HA,C,2158994332,JASSM,3,115,76,2,2,1,225,9,2,0,1,26,0,0,0,0,-170424.89416678375,-4771981.219697799,4218859.495573521,-2.51429,-0.702947,0.607936,60.375,-51.0,-55.0,0.0,0.0,0.0,0.0,0.0,0.0,2,0,41.65239250024022,-92.04537243626704,9999.998791112335,139.85054818047982,-0.0041196900170435,0.001684565459745,,8907.031340764672,11074.134321271986,150,2,2025-09-11,2025-09-26 14:56:52.703,HA,C,3062966514,HAWK11,1,1,73,2,1,1,225,2,1,0,0,12,1,225,2,1,-140106.58630545562,-4791915.863252486,4197902.077604771,3.02664,1.90913,-0.876958,-12.25,65.375,76.875,-0.234375,-6.25,6.65625,0.0234375,-0.0078125,0.0234375,4,0,41.39819420324222,-91.67474346205798,10938.523129464991,-13.310327272652945,3.481976866022344,9.081321090935354,208.223,8907.031340764672,11074.134321271986,150,True,22.55451653973708,False,148.01249531415547,172.4644232000277,False,39.522503614606556,False,False
2,1970-07-23 10:13:46.135369528,2025-09-11,2025-09-26 14:56:53.536,HA,C,2160127726,JASSM,3,115,76,2,2,1,225,9,2,0,1,26,0,0,0,0,-170367.50183279935,-4772029.860322799,4218807.147917271,-2.51429,-0.702947,0.607936,60.375,-51.0,-55.0,0.0,0.0,0.0,0.0,0.0,0.0,2,0,41.651762018291,-92.04466339735058,9999.998885307916,139.85101941183476,-0.0032961717597081,0.0016829973463296,,8907.031340764672,11074.134321271986,150,2,2025-09-11,2025-09-26 14:56:53.407,HA,C,3063801612,HAWK11,1,1,73,2,1,1,225,2,1,0,0,12,1,225,2,1,-140114.77966483062,-4791870.164033736,4197954.597136021,3.06183,1.89332,-0.881272,-11.25,66.0,76.625,-0.125,-6.375,6.82812,0.0371094,0.0078125,0.03125,4,0,41.39881916525948,-91.67485730796234,10940.6384769474,-12.686321768567902,3.568071284247257,10.437561207854111,208.15,8907.031340764672,11074.134321271986,150,False,22.47654178620854,False,147.46064488117818,172.38637232577423,False,40.15298049888905,False,False
2,1970-07-23 10:13:46.147310380,2025-09-11,2025-09-26 14:56:54.731,HA,C,2161201468,JASSM,3,115,76,2,2,1,225,9,2,0,1,26,0,0,0,0,-170313.13025076812,-4772075.942354049,4218757.554167271,-2.51429,-0.702947,0.607936,60.375,-51.0,-55.0,0.0,0.0,0.0,0.0,0.0,0.0,2,0,41.651164698585454,-92.0439916896437,10000.003806333449,139.85146582725451,-0.0025159838501104,0.0016815004807218,,8907.031340764672,11074.134321271986,150,2,2025-09-11,2025-09-26 14:56:54.732,HA,C,3064954844,HAWK11,1,1,73,2,1,1,225,2,1,0,0,12,1,225,2,1,-140124.95153983062,-4791805.877900924,4198028.720182896,3.10698,1.86235,-0.886641,-10.0,64.75,78.75,-0.125,-6.70312,7.17188,0.0078125,0.0,0.0253906,4,0,41.39970018641952,-91.67500128632553,10944.047485778106,-11.51796236169758,3.587940171761784,11.725653859769052,207.014,8907.031340764672,11074.134321271986,150,False,22.389826253194983,False,146.6270659742534,172.28203498111287,False,41.08547588284515,False,False
2,1970-07-23 10:13:46.156910524,2025-09-11,2025-09-26 14:56:55.691,HA,C,2162513820,JASSM,3,115,76,2,2,1,225,9,2,0,1,26,0,0,0,0,-170246.67614920562,-4772132.258760299,4218696.936979771,-2.51429,-0.702947,0.607936,60.375,-51.0,-55.0,0.0,0.0,0.0,0.0,0.0,0.0,2,0,41.65043465454863,-92.04317073366136,9999.994528716436,139.85201142560635,-0.0015624366724634,0.0016796812095583,,8907.031340764672,11074.134321271986,150,2,2025-09-11,2025-09-26 14:56:55.703,HA,C,3066545510,HAWK11,1,1,73,2,1,1,225,2,1,0,0,12,1,225,2,1,-140136.24255545562,-4791715.846650924,4198130.964323521,3.09768,1.83483,-0.891818,-7.125,67.125,77.5,-0.28125,-6.75,7.125,0.0117188,0.00585938,0.0078125,4,0,41.40092399521448,-91.67516763410516,10945.22531867465,-10.481381992564929,3.652414492504001,10.0338142693513,206.329,8907.031340764672,11074.134321271986,150,False,22.27833461453269,False,145.09896687092333,172.13595659508294,False,42.76489608032019,False,False
2,1970-07-23 10:13:46.165312403,2025-09-11,2025-09-26 14:56:56.531,HA,C,2163766518,JASSM,3,115,76,2,2,1,225,9,2,0,1,26,0,0,0,0,-170183.242311315,-4772186.020479049,4218639.073698521,-2.51429,-0.702947,0.607936,60.375,-51.0,-55.0,0.0,0.0,0.0,0.0,0.0,0.0,2,0,41.64973774852762,-92.04238710442606,10000.000563317197,139.85253220969182,-0.0006521984293677,0.0016779224924797,,8907.031340764672,11074.134321271986,150,2,2025-09-11,2025-09-26 14:56:56.500,HA,C,3067499908,HAWK11,1,1,73,2,1,1,225,2,1,0,0,12,1,225,2,1,-140141.42224295562,-4791661.950166549,4198192.642057896,-3.12875,1.81882,-0.89805,-5.625,67.25,77.875,-0.109375,-6.875,7.39062,0.0957031,0.00976562,0.0175781,4,0,41.40166006636353,-91.67524834823112,10946.841376497525,-9.843652150401356,3.8807194834871743,12.611893049935988,205.474,8907.031340764672,11074.134321271986,150,False,22.192024822516633,False,144.24984089677918,172.03861166790742,False,43.711430314400545,False,False
2,1970-07-23 10:13:46.177311401,2025-09-11,2025-09-26 14:56:57.731,HA,C,2165078870,JASSM,3,115,76,2,2,1,225,9,2,0,1,26,0,0,0,0,-170116.78796561187,-4772242.336885299,4218578.456511021,-2.51429,-0.702947,0.607936,60.375,-51.0,-55.0,0.0,0.0,0.0,0.0,0.0,0.0,2,0,41.649007692901264,-92.04156618174812,10000.00259017218,139.85307777057378,0.0003013503565314,0.0016761048599045,,8907.031340764672,11074.134321271986,150,2,2025-09-11,2025-09-26 14:56:57.610,HA,C,3068772440,HAWK11,1,1,73,2,1,1,225,2,1,0,0,12,1,225,2,1,-140146.08239920562,-4791590.119111861,4198274.954557896,-3.05368,1.79179,-0.899392,-3.0,67.75,78.375,-0.15625,-6.84375,7.20312,0.015625,0.00976562,0.0273438,4,0,41.40264221078339,-91.67532912420444,10949.07985216454,-8.880747136805354,3.76809316077779,15.764943721906542,204.032,8907.031340764672,11074.134321271986,150,False,22.093328668416945,False,142.7822707811457,171.911191703628,False,45.30628730639415,False,False
2,1970-07-23 10:13:46.187356497,2025-09-11,2025-09-26 14:56:58.735,HA,C,2166391222,JASSM,3,115,76,2,2,1,225,9,2,0,1,26,0,0,0,0,-170050.33361990875,-4772298.649385299,4218517.835417271,-2.51429,-0.702947,0.608032,60.375,-51.0,-55.0,0.0,0.0,0.0,0.0,0.0,0.0,2,0,41.64827762839821,-92.04074527927554,9999.992324354054,139.85684646913637,-0.0031911663453912,0.0016742298941037,,8907.031340764672,11074.134321271986,150,2,2025-09-11,2025-09-26 14:56:58.734,HA,C,3069647306,HAWK11,1,1,73,2,1,1,225,2,1,0,0,12,1,225,2,1,-140147.60583670562,-4791539.995088424,4198332.194792271,-3.03047,1.75392,-0.900926,-1.0,68.25,78.5,-0.0625,-6.84375,7.3125,-0.046875,0.00976562,0.0292969,4,0,41.40332652086335,-91.67536484096976,10950.092003686414,-7.534550496533828,3.623004021037099,15.481036172929628,202.468,8907.031340764672,11074.134321271986,150,False,22.00817683084257,False,141.68231393815975,171.81367645455134,False,46.5032903476098,False,False
2,1970-07-23 10:13:46.199365957,2025-09-11,2025-09-26 14:56:59.936,HA,C,2167703570,JASSM,3,115,76,2,2,1,225,9,2,0,1,26,0,0,0,0,-169983.87927420562,-4772354.965791549,4218457.214323521,-2.51429,-0.702851,0.608032,60.375,-51.0,-55.0,0.0,0.0,0.0,0.0,0.0,0.0,2,0,41.64754753459291,-92.03992439366937,9999.997423546978,139.8537405765787,-0.0048848276799153,-0.0014662948360936,,8907.031340764672,11074.134321271986,150,2,2025-09-11,2025-09-26 14:56:59.703,HA,C,3071118672,HAWK11,1,1,73,2,1,1,225,2,1,0,0,12,1,225,2,1,-140147.34997733062,-4791455.274385299,4198429.321745396,-3.11408,1.7193,-0.907446,1.5,68.375,79.0,-0.140625,-7.10938,7.45312,-0.111328,0.015625,0.0,4,0,41.40448620209898,-91.6753913903278,10952.4266837257,-6.264451407947643,3.815054882438995,9.214691767075768,201.258,8907.031340764672,11074.134321271986,150,True,21.904394427471335,False,140.30489406168627,171.65920088956577,False,48.03538103850529,False,False
2,1970-07-23 10:13:46.210112161,2025-09-11,2025-09-26 14:57:01.011,HA,C,2169015922,JASSM,3,115,76,2,2,1,225,9,2,0,1,26,0,0,0,0,-169917.42468436187,-4772411.278291549,4218396.593229771,-2.51419,-0.702851,0.608032,60.375,-51.0,-55.0,0.0,0.0,0.0,0.0,0.0,0.0,2,0,41.64681745823106,-92.03910352533924,9999.998725589756,139.85428607803,-0.0039312757436484,0.004037011640931,,8907.031340764672,11074.134321271986,150,2,2025-09-11,2025-09-26 14:57:00.813,HA,C,3072629804,HAWK11,1,1,73,2,1,1,225,2,1,0,0,12,1,225,2,1,-140144.23083670562,-4791369.089814986,4198529.017057896,3.13872,1.71432,-0.907733,3.25,68.375,79.5,-0.0625,-6.6875,7.01562,0.00585938,0.0,0.00195312,4,0,41.405672426396215,-91.67538424200846,10956.536293206816,-6.087564833679548,3.80951977396316,7.259891602070341,199.009,8907.031340764672,11074.134321271986,150,True,21.800846965629837,False,139.3453248381329,171.49747143086572,False,49.156957418259786,False,False
2,1970-07-23 10:13:46.220398571,2025-09-11,2025-09-26 14:57:02.039,HA,C,2170268622,JASSM,3,115,76,2,2,1,225,9,2,0,1,26,0,0,0,0,-169853.99084647125,-4772465.032197799,4218338.726042271,-2.51419,-0.702851,0.608032,60.375,-51.0,-55.0,0.0,0.0,0.0,0.0,0.0,0.0,2,0,41.646120544471366,-92.03831998710542,10000.00450782898,139.85480676474702,-0.0030210541618939,0.0040352572206416,,8907.031340764672,11074.134321271986,150,2,2025-09-11,2025-09-26 14:57:01.907,HA,C,3073981868,HAWK11,1,1,73,2,1,1,225,2,1,0,0,12,1,225,2,1,-140139.64489920562,-4791290.576143111,4198619.487761021,-3.13699,1.69476,-0.906295,4.625,68.875,79.625,-0.296875,-6.82812,7.125,-0.0195312,0.0136719,0.00976562,4,0,41.40675100279586,-91.67535688723572,10959.40037476541,-5.410926163482436,3.644609725471618,6.849530129424455,197.97,8907.031340764672,11074.134321271986,150,True,21.704992584221646,False,138.61275458595622,171.34642053009776,False,50.040182614857024,False,False
2,1970-07-23 10:13:46.231271987,2025-09-11,2025-09-26 14:57:03.127,HA,C,2171580972,JASSM,3,115,76,2,2,1,225,9,2,0,1,26,0,0,0,0,-169787.5361345572,-4772521.340791549,4218278.101042271,-2.51419,-0.702851,0.608032,60.375,-51.0,-55.0,0.0,0.0,0.0,0.0,0.0,0.0,2,0,41.6453904535738,-92.03749915520368,9999.999037860882,139.85535222665425,-0.0020674998717993,0.0040334291755242,,8907.031340764672,11074.134321271986,150,2,2025-09-11,2025-09-26 14:57:02.852,HA,C,3074498834,HAWK11,1,1,73,2,1,1,225,2,1,0,0,12,1,225,2,1,-140137.50622733062,-4791260.991182174,4198653.569792271,3.14044,1.68489,-0.905336,5.125,68.875,80.0,-0.125,-6.95312,7.28125,-0.0390625,0.0,0.0195312,4,0,41.40715743825198,-91.67534167307548,10960.43354763178,-5.069384425961159,3.551663525334022,6.096102037278635,196.577,8907.031340764672,11074.134321271986,150,True,21.632943458325187,False,138.3433620948785,171.27400119163428,False,50.38227322171367,False,False
2,1970-07-23 10:13:46.242292544,2025-09-11,2025-09-26 14:57:04.229,HA,C,2172893324,JASSM,3,115,76,2,2,1,225,9,2,0,1,26,0,0,0,0,-169721.08142264312,-4772577.649385299,4218217.476042271,-2.51419,-0.702851,0.608032,60.375,-51.0,-55.0,0.0,0.0,0.0,0.0,0.0,0.0,2,0,41.64466035672178,-92.03667834183426,9999.999362467142,139.8558976684,-0.0011139454600104,0.0040316010961074,,8907.031340764672,11074.134321271986,150,2,2025-09-11,2025-09-26 14:57:04.203,HA,C,3076685998,HAWK11,1,1,73,2,1,1,225,2,1,0,0,12,1,225,2,1,-140127.57849295562,-4791133.794893111,4198800.175261021,2.85742,1.69562,-0.895174,4.875,69.625,80.125,-0.09375,-6.76562,7.07812,-0.0410156,0.00585938,-0.0175781,4,0,41.40890547981665,-91.6752675037216,10964.996833555118,-5.514822724666718,3.017295090556534,-9.663426998491,195.905,8907.031340764672,11074.134321271986,150,True,21.509894197227748,False,138.50383119486258,171.03571953140298,False,50.45943736622677,False,False
2,1970-07-23 10:13:46.253291857,2025-09-11,2025-09-26 14:57:05.329,HA,C,2174207886,JASSM,3,115,76,2,2,1,225,9,2,0,1,26,0,0,0,0,-169654.5147722525,-4772634.051729049,4218156.745573521,-2.51419,-0.702851,0.608032,60.375,-51.0,-55.0,0.0,0.0,0.0,0.0,0.0,0.0,2,0,41.64392900813489,-92.03585616490692,9999.995503008826,139.85644400838265,-0.0001587727483461,0.0040297593415726,,8907.031340764672,11074.134321271986,150,2,2025-09-11,2025-09-26 14:57:05.406,HA,C,3078117598,HAWK11,1,1,73,2,1,1,225,2,1,0,0,12,1,225,2,1,-140122.54724295562,-4791049.995088424,4198896.483854771,2.81783,1.7543,-0.877725,3.125,70.0,80.25,0.046875,-6.57812,6.89062,0.0234375,0.0,-0.015625,4,0,41.410054986754645,-91.675236672082,10967.51824414631,-7.759109809773987,2.3192979582039936,-9.431516287398212,194.952,8907.031340764672,11074.134321271986,150,True,21.409178629825764,False,139.45581488813346,170.87056653934428,False,49.6723709184036,False,False
2,1970-07-23 10:13:46.267715994,2025-09-11,2025-09-26 14:57:06.771,HA,C,2175518026,JASSM,3,115,76,2,2,1,225,9,2,0,1,26,0,0,0,0,-169588.1718767447,-4772690.264619674,4218096.222136021,-2.51419,-0.702851,0.608128,60.375,-51.0,-55.0,0.0,0.0,0.0,0.0,0.0,0.0,2,0,41.64320013058503,-92.03503677005948,10000.004083215536,139.86021389993417,-0.0036554794312166,0.0040278552353044,,8907.031340764672,11074.134321271986,150,2,2025-09-11,2025-09-26 14:57:06.860,HA,C,3078833396,HAWK11,1,1,73,2,1,1,225,2,1,0,0,12,1,225,2,1,-140120.94568045562,-4791007.191377486,4198945.388151646,2.85157,1.76571,-0.878683,2.25,70.25,80.25,-0.140625,-6.8125,7.15625,0.144531,0.00976562,0.00195312,4,0,41.41064002066052,-91.67523249365756,10968.252487973314,-8.162365326560424,2.4419763615146186,-7.011687583821867,194.427,8907.031340764672,11074.134321271986,150,True,21.330069011635256,False,139.9314612002982,170.77475701755972,False,49.292210649937495,False,False
2,1970-07-23 10:13:46.275328715,2025-09-11,2025-09-26 14:57:07.532,HA,C,2176890028,JASSM,3,115,76,2,2,1,225,9,2,0,1,26,0,0,0,0,-169518.6965349478,-4772749.127900924,4218032.835417271,-2.51419,-0.702851,0.608128,60.375,-51.0,-55.0,0.0,0.0,0.0,0.0,0.0,0.0,2,0,41.64243681674101,-92.0341787080607,9999.997830190903,139.8607840692562,-0.0026585732149914,0.004025990930977,,8907.031340764672,11074.134321271986,150,2,2025-09-11,2025-09-26 14:57:07.501,HA,C,3080662662,HAWK11,1,1,73,2,1,1,225,2,1,0,0,12,1,225,2,1,-140118.08630545562,-4790899.740205611,4199068.267057896,3.02654,1.76542,-0.87552,1.875,70.75,80.75,0.125,-6.64062,7.0,0.03125,0.0,0.00976562,4,0,41.412109207274014,-91.67523587778577,10970.434647185764,-8.182227819705961,2.262938339033054,2.999642612046051,194.194,8907.031340764672,11074.134321271986,150,True,21.213509111222294,False,140.14019565528355,170.56940675337245,False,49.28877228974294,False,False
2,1970-07-23 10:13:46.286111956,2025-09-11,2025-09-26 14:57:08.611,HA,C,2178202380,JASSM,3,115,76,2,2,1,225,9,2,0,1,26,0,0,0,0,-169452.24157889312,-4772805.432588424,4217972.206511021,-2.51419,-0.702755,0.608128,60.375,-51.0,-55.0,0.0,0.0,0.0,0.0,0.0,0.0,2,0,41.64170669293093,-92.03335796839418,10000.003488241557,139.85768067570157,-0.0043506248566558,0.0008869560262164,,8907.031340764672,11074.134321271986,150,2,2025-09-11,2025-09-26 14:57:08.812,HA,C,3082253326,HAWK11,1,1,73,2,1,1,225,2,1,0,0,12,1,225,2,1,-140115.20544608062,-4790804.888643111,4199176.399870396,3.04447,1.74663,-0.874944,2.625,71.125,81.25,-0.234375,-6.8125,7.07812,-0.0625,-0.0078125,-0.0078125,4,0,41.41340390272629,-91.67523460204612,10971.614344994712,-7.505921040463757,2.1214829171079024,3.226012642406637,194.084,8907.031340764672,11074.134321271986,150,True,21.106736302070534,False,139.74755962292437,170.38419424060646,False,49.86669104785608,False,False
2,1970-07-23 10:13:46.297131693,2025-09-11,2025-09-26 14:57:09.713,HA,C,2179514732,JASSM,3,115,76,2,2,1,225,9,2,0,1,26,0,0,0,0,-169385.78662283844,-4772861.735322799,4217911.573698521,-2.51419,-0.702755,0.608128,60.375,-51.0,-55.0,0.0,0.0,0.0,0.0,0.0,0.0,2,0,41.64097654856924,-92.0325372480882,10000.00163955702,139.85822601624642,-0.0033970562818006,0.000885109710134,,8907.031340764672,11074.134321271986,150,2,2025-09-11,2025-09-26 14:57:09.650,HA,C,3082770292,HAWK11,1,1,73,2,1,1,225,2,1,0,0,12,1,225,2,1,-140113.99646170562,-4790773.515596236,4199212.157682896,3.00095,1.74931,-0.873794,2.75,71.25,81.375,-0.0625,-6.75,7.07812,-0.136719,0.0,0.0078125,4,0,41.4138321250169,-91.67523111967812,10971.970816100637,-7.61362315540562,2.0719486991967835,0.8460992068289754,193.889,8907.031340764672,11074.134321271986,150,True,21.033909733012223,False,139.68390531629578,170.304668834842,False,50.00984055231512,False,False
2,1970-07-23 10:13:46.308149267,2025-09-11,2025-09-26 14:57:10.814,HA,C,2180767432,JASSM,3,115,76,2,2,1,225,9,2,0,1,26,0,0,0,0,-169322.35229666656,-4772915.477510299,4217853.698698521,-2.51419,-0.702755,0.608128,60.375,-51.0,-55.0,0.0,0.0,0.0,0.0,0.0,0.0,2,0,41.6402796069448,-92.0317538505027,10000.005883815347,139.858746549801,-0.0024868468246178,0.0008833601394365,,8907.031340764672,11074.134321271986,150,2,2025-09-11,2025-09-26 14:57:10.812,HA,C,3084520024,HAWK11,1,1,73,2,1,1,225,2,1,0,0,12,1,225,2,1,-140110.80505545562,-4790669.066377486,4199331.409636021,2.85234,1.77079,-0.86622,1.875,71.625,81.875,0.09375,-6.71875,7.0,-0.0351562,0.0,-0.0195312,4,0,41.41525902689784,-91.67522948713804,10973.670199778591,-8.467549312094793,1.7742422014200072,-6.756650047696795,194.048,8907.031340764672,11074.134321271986,150,True,20.92490651332781,False,140.15174914316376,170.10117293397644,False,49.74569322388087,False,False
2,1970-07-23 10:13:46.319269689,2025-09-11,2025-09-26 14:57:11.926,HA,C,2182079782,JASSM,3,115,76,2,2,1,225,9,2,0,1,26,0,0,0,0,-169255.89734061187,-4772971.776338424,4217793.061979771,-2.51419,-0.702755,0.608128,60.375,-51.0,-55.0,0.0,0.0,0.0,0.0,0.0,0.0,2,0,41.639549448020446,-92.03093316807174,9999.997274049534,139.85929184984306,-0.0015332765741566,0.0008815109193818,,8907.031340764672,11074.134321271986,150,2,2025-09-11,2025-09-26 14:57:12.000,HA,C,3085991390,HAWK11,1,1,73,2,1,1,225,2,1,0,0,12,1,225,2,1,-140109.49646170562,-4790580.004854049,4199432.960417271,2.75752,1.80636,-0.853469,0.125,72.125,81.875,0.015625,-6.54688,6.76562,-0.0273438,0.00195312,-0.0078125,4,0,41.41647457245979,-91.67524497600414,10974.943050090802,-9.909358230634766,1.301240179466283,-10.683908944559144,194.121,8907.031340764672,11074.134321271986,150,False,20.821176520814326,False,141.07966430519699,169.9223188514116,False,48.99588076923203,False,False
2,1970-07-23 10:13:46.329328947,2025-09-11,2025-09-26 14:57:12.932,HA,C,2183332480,JASSM,3,115,76,2,2,1,225,9,2,0,1,26,0,0,0,0,-169192.4628923697,-4773025.516572799,4217735.183073521,-2.51419,-0.702755,0.608128,60.375,-51.0,-55.0,0.0,0.0,0.0,0.0,0.0,0.0,2,0,41.63885248071688,-92.03014980441932,9999.999017553891,139.85981234621192,-0.0006230554440346,0.0008797522508051,,8907.031340764672,11074.134321271986,150,2,2025-09-11,2025-09-26 14:57:12.851,HA,C,3086428822,HAWK11,1,1,73,2,1,1,225,2,1,0,0,12,1,225,2,1,-140109.82263358062,-4790554.030244674,4199462.386198521,2.73787,1.81633,-0.852126,-0.5,72.25,81.875,0.015625,-6.79688,6.92188,-0.0136719,0.00195312,-0.015625,4,0,41.41682766955899,-91.6752579518181,10974.951775199455,-10.293089013039063,1.3013762716254151,-11.388533576644244,194.353,8907.031340764672,11074.134321271986,150,False,20.753470351323713,False,141.40903194022673,169.8521871190923,False,48.73644488258413,False,False
