Subject_cm,Timestamp,SampleDate_cm,SampleTime_cm,Configuration_cm,Scenario_cm,DisTime_cm,MarkingTxt_cm,Application_cm,EntId_cm,Site_cm,ExerciseId_cm,ForceId_cm,Category_cm,Country_cm,Domain_cm,Kind_cm,Extra_cm,Specific_cm,Subcategory_cm,AltCategory_cm,AltCountry_cm,AltDomain_cm,AltKind_cm,ECEF_X_cm,ECEF_Y_cm,ECEF_Z_cm,OriPhi_cm,OriPsi_cm,OriTheta_cm,LinVelX_cm,LinVelY_cm,LinVelZ_cm,LinAccX_cm,LinAccY_cm,LinAccZ_cm,AngVelX_cm,AngVelY_cm,AngVelZ_cm,DrAlg_cm,Appearance_cm,Latitude_cm,Longitude_cm,Altitude_cm,Heading_cm,Pitch_cm,Roll_cm,CalibratedAirspeed_cm,CM_Altitude_Lead_cm,CM_Altitude_Wing_cm,CM_Airspeed_cm,Subject_ac,SampleDate_ac,SampleTime_ac,Configuration_ac,Scenario_ac,DisTime_ac,MarkingTxt_ac,Application_ac,EntId_ac,Site_ac,ExerciseId_ac,ForceId_ac,Category_ac,Country_ac,Domain_ac,Kind_ac,Extra_ac,Specific_ac,Subcategory_ac,AltCategory_ac,AltCountry_ac,AltDomain_ac,AltKind_ac,ECEF_X_ac,ECEF_Y_ac,ECEF_Z_ac,OriPhi_ac,OriPsi_ac,OriTheta_ac,LinVelX_ac,LinVelY_ac,LinVelZ_ac,LinAccX_ac,LinAccY_ac,LinAccZ_ac,AngVelX_ac,AngVelY_ac,AngVelZ_ac,DrAlg_ac,Appearance_ac,Latitude_ac,Longitude_ac,Altitude_ac,Heading_ac,Pitch_ac,Roll_ac,CalibratedAirspeed_ac,CM_Altitude_Lead_ac,CM_Altitude_Wing_ac,CM_Airspeed_ac,Bank_Angle_Condition,distance_nm,Distance_Condition,angle_between_vel,angle_between_pos,Cone_Condition,angle_between_pos_nose,Nose_Cone_Condition,Intercept_Criteria
2,1970-07-23 11:42:53.606204673,2025-09-17,2025-09-26 19:29:20.620,HH,C,1282518004,JASSM,3,103,76,2,2,1,225,9,2,0,1,26,0,0,0,0,-172984.79870779935,-4769810.590791549,4221193.589323521,-2.51458,-0.703426,0.607361,54.625,-46.125,-49.625,0.0,0.0,0.0,0.0,0.0,0.0,2,0,41.68051083162968,-92.07701265942534,9999.995084818089,139.8284299938115,-0.0009334384954052,0.0009612553955988,,9031.630405181751,11029.86252269048,150,2,2025-09-17,2025-09-26 19:29:20.642,HH,C,1093754294,HAWK11,1,1,73,2,1,1,225,2,1,0,0,12,1,225,2,1,-145062.38903983062,-4792161.721650924,4197498.300261021,2.2748,3.0183,-0.140839,-117.375,22.625,22.0,-0.203125,-7.01562,6.76562,0.0,-0.00976562,0.00195312,4,0,41.39312882412717,-91.7338574707938,11030.1231989158,-80.43468200894611,1.36473963646929,-1.3188835920919344,199.388,9031.630405181751,11029.86252269048,150,True,23.103754554729825,False,143.90171461661762,178.24436024735994,False,34.36634854822555,False,False
2,1970-07-23 11:42:53.616247931,2025-09-17,2025-09-26 19:29:21.624,HH,C,1283770738,JASSM,3,103,76,2,2,1,225,9,2,0,1,26,0,0,0,0,-172927.48230154935,-4769859.215791549,4221141.347136021,-2.51458,-0.703426,0.607456,54.625,-46.125,-49.625,0.0,0.0,0.0,0.0,0.0,0.0,2,0,41.67988133403131,-92.07630392103736,10000.000975788002,139.83212322108457,-0.0045579205106133,0.0009595248100615,,9031.630405181751,11029.86252269048,150,2,2025-09-17,2025-09-26 19:29:21.642,HH,C,1094708694,HAWK11,1,1,73,2,1,1,225,2,1,0,0,12,1,225,2,1,-145157.24450858062,-4792143.347627486,4197516.153776646,2.27365,3.01887,-0.13988,-117.625,21.875,22.875,-0.046875,-7.09375,6.9375,-0.00195312,0.0,0.0,4,0,41.39334155704782,-91.73499718581506,11030.71787555313,-80.49818126740963,1.3534859854734211,-1.3817418289916037,199.767,9031.630405181751,11029.86252269048,150,True,23.01102472647237,False,143.9366396175527,178.31353588954155,False,34.4066563875952,False,False
2,1970-07-23 11:42:53.627264631,2025-09-17,2025-09-26 19:29:22.726,HH,C,1285081978,JASSM,3,103,76,2,2,1,225,9,2,0,1,26,0,0,0,0,-172867.48962576812,-4769910.106416549,4221086.663542271,-2.51458,-0.703426,0.607456,54.625,-46.125,-49.625,0.0,0.0,0.0,0.0,0.0,0.0,2,0,41.67922245352494,-92.0755621064862,9999.99545351245,139.83261650105874,-0.0036970577360196,0.0009579076316826,,9031.630405181751,11029.86252269048,150,2,2025-09-17,2025-09-26 19:29:22.844,HH,C,1096378892,HAWK11,1,1,73,2,1,1,225,2,1,0,0,12,1,225,2,1,-145322.19372733062,-4792111.569307174,4197546.981901646,2.2725,3.01677,-0.142085,-117.875,22.375,22.25,0.0,-7.17188,7.01562,0.00390625,0.0,-0.0078125,4,0,41.39370895848081,-91.73697905165707,11031.716415077091,-80.32552926347002,1.3496058973101788,-1.4606581106319951,200.207,9031.630405181751,11029.86252269048,150,True,22.884050626237297,False,143.84939015897734,178.43765481903262,False,34.61678726241021,False,False
2,1970-07-23 11:42:53.638287318,2025-09-17,2025-09-26 19:29:23.828,HH,C,1286335420,JASSM,3,103,76,2,2,1,225,9,2,0,1,26,0,0,0,0,-172810.14050467435,-4769958.754854049,4221034.394011021,-2.51458,-0.703426,0.607456,54.625,-46.125,-49.625,0.0,0.0,0.0,0.0,0.0,0.0,2,0,41.67859262998032,-92.07485299373585,10000.005006132404,139.83308802953263,-0.0028741499421834,0.0009563799402863,,9031.630405181751,11029.86252269048,150,2,2025-09-17,2025-09-26 19:29:23.938,HH,C,1097691190,HAWK11,1,1,73,2,1,1,225,2,1,0,0,12,1,225,2,1,-145451.35974295562,-4792086.857393111,4197571.245573521,2.26905,3.02252,-0.13988,-118.125,22.5,22.25,0.03125,-7.17188,6.96875,-0.0078125,0.00585938,0.00390625,4,0,41.39399643938406,-91.73853093497438,11033.200720050829,-80.63790944867675,1.5106879686437558,-1.6199556598224671,200.476,9031.630405181751,11029.86252269048,150,True,22.775801736661503,False,143.8570391384951,178.5349027278231,False,34.708082819676,False,False
2,1970-07-23 11:42:53.649305027,2025-09-17,2025-09-26 19:29:24.930,HH,C,1287647978,JASSM,3,103,76,2,2,1,225,9,2,0,1,26,0,0,0,0,-172750.08728201812,-4770009.696260299,4220979.651823521,-2.51448,-0.703426,0.607456,54.625,-46.125,-49.625,0.0,0.0,0.0,0.0,0.0,0.0,2,0,41.67793305556114,-92.07411046040512,9999.999880053958,139.8335817749452,-0.0020124034388146,0.0064462204970881,,9031.630405181751,11029.86252269048,150,2,2025-09-17,2025-09-26 19:29:24.734,HH,C,1098605822,HAWK11,1,1,73,2,1,1,225,2,1,0,0,12,1,225,2,1,-145542.24841483062,-4792069.600557174,4197588.429167271,2.27029,3.02165,-0.140168,-118.375,22.25,22.5,-0.1875,-7.28125,6.98438,0.0175781,0.00390625,0.00195312,4,0,41.3941986749381,-91.73962288995834,11034.81436378346,-80.59378005247171,1.4858864785145331,-1.55434580906443,200.952,9031.630405181751,11029.86252269048,150,True,22.68275097186981,False,143.83480300305325,178.60254435426913,False,34.801181283935996,False,False
2,1970-07-23 11:42:53.660184861,2025-09-17,2025-09-26 19:29:26.018,HH,C,1288960416,JASSM,3,103,76,2,2,1,225,9,2,0,1,26,0,0,0,0,-172690.03943045562,-4770060.629854049,4220924.917448521,-2.51448,-0.70333,0.607456,54.625,-46.125,-49.625,0.0,0.0,0.0,0.0,0.0,0.0,2,0,41.67727357433704,-92.07336801006052,9999.997874242345,139.83042412676477,-0.0037964044161773,0.0033103446000013,,9031.630405181751,11029.86252269048,150,2,2025-09-17,2025-09-26 19:29:26.142,HH,C,1100276022,HAWK11,1,1,73,2,1,1,225,2,1,0,0,12,1,225,2,1,-145708.03357108062,-4792038.404268111,4197619.981901646,2.27163,3.02328,-0.140455,-118.5,22.0,22.75,0.0625,-7.15625,6.90625,-0.00195312,-0.00390625,0.0,4,0,41.39456727531254,-91.741614581477,11038.914207864296,-80.64422125047572,1.5674839371074958,-1.4658071087034128,201.429,9031.630405181751,11029.86252269048,150,True,22.555642813627948,False,143.82704149142677,178.72939286878918,False,34.94104077051491,False,False
2,1970-07-23 11:42:53.671185957,2025-09-17,2025-09-26 19:29:27.118,HH,C,1290271422,JASSM,3,103,76,2,2,1,225,9,2,0,1,26,0,0,0,0,-172630.05700858062,-4770111.508760299,4220870.241667271,-2.51448,-0.70333,0.607456,54.625,-46.125,-49.625,0.0,0.0,0.0,0.0,0.0,0.0,2,0,41.67661479495432,-92.0726263834908,10000.00029802164,139.83091725650922,-0.0029356950489509,0.0033086769877276,,9031.630405181751,11029.86252269048,150,2,2025-09-17,2025-09-26 19:29:27.142,HH,C,1101429254,HAWK11,1,1,73,2,1,1,225,2,1,0,0,12,1,225,2,1,-145823.71130545562,-4792016.631807174,4197642.319792271,2.26694,3.02319,-0.137962,-118.75,22.0,22.875,-0.125,-7.1875,6.95312,-0.0136719,-0.00585938,0.00390625,4,0,41.39482665034091,-91.7430043126457,11042.4694947882,-80.74833153199869,1.469623411184831,-1.7385552258986054,201.502,9031.630405181751,11029.86252269048,150,True,22.45138463107066,False,143.83847386293516,178.8170972358253,False,35.02089148665776,False,False
2,1970-07-23 11:42:53.681224370,2025-09-17,2025-09-26 19:29:28.122,HH,C,1291524844,JASSM,3,103,76,2,2,1,225,9,2,0,1,26,0,0,0,0,-172572.70935233062,-4770160.153291549,4220817.964323521,-2.51448,-0.70333,0.607456,54.625,-46.125,-49.625,0.0,0.0,0.0,0.0,0.0,0.0,2,0,41.67598492354274,-92.07191734725586,10000.00123866664,139.83138870998462,-0.002112773745239,0.0033070667415337,,9031.630405181751,11029.86252269048,150,2,2025-09-17,2025-09-26 19:29:27.844,HH,C,1102264352,HAWK11,1,1,73,2,1,1,225,2,1,0,0,12,1,225,2,1,-145906.87146170562,-4792001.253877486,4197658.257292271,2.26166,3.02597,-0.139401,-118.875,21.875,22.875,0.015625,-7.1875,6.98438,0.0078125,-0.00195312,0.0,4,0,41.39501065495498,-91.74400329038052,11045.441715688516,-80.79218803052935,1.6430739978364726,-2.019894176630716,201.624,9031.630405181751,11029.86252269048,150,True,22.364357703269192,False,143.78538768171498,178.87985353388243,False,35.13985311390952,False,False
2,1970-07-23 11:42:53.692244922,2025-09-17,2025-09-26 19:29:29.224,HH,C,1292836800,JASSM,3,103,76,2,2,1,225,9,2,0,1,26,0,0,0,0,-172512.68298514312,-4770211.067354049,4220763.245573521,-2.51448,-0.70333,0.607456,54.625,-46.125,-49.625,0.0,0.0,0.0,0.0,0.0,0.0,2,0,41.67532564510295,-92.07117520787698,10000.001366356835,139.83188216819278,-0.0012514287723434,0.0033053928805839,,9031.630405181751,11029.86252269048,150,2,2025-09-17,2025-09-26 19:29:29.439,HH,C,1104173150,HAWK11,1,1,73,2,1,1,225,2,1,0,0,12,1,225,2,1,-146097.19568045562,-4791966.838838424,4197694.550261021,2.25888,3.02712,-0.138634,-119.125,21.5,22.75,0.203125,-6.89062,6.70312,0.0253906,0.0,0.0,4,0,41.39542587558045,-91.74628933370236,11053.780670581382,-80.86993585368549,1.6644691886857046,-2.172391286933953,201.698,9031.630405181751,11029.86252269048,150,True,22.226765296508816,False,143.59989573424508,179.02727641842074,False,35.48140108240011,False,False
2,1970-07-23 11:42:53.703283158,2025-09-17,2025-09-26 19:29:30.328,HH,C,1294150040,JASSM,3,103,76,2,2,1,225,9,2,0,1,26,0,0,0,0,-172452.59851248687,-4770262.028291549,4220708.472136021,-2.51448,-0.70333,0.607552,54.625,-46.125,-49.625,0.0,0.0,0.0,0.0,0.0,0.0,2,0,41.67466572645704,-92.0704323663216,9999.996576086183,139.83560027089942,-0.0048387944419634,0.0033035715148274,,9031.630405181751,11029.86252269048,150,2,2025-09-17,2025-09-26 19:29:30.438,HH,C,1105326382,HAWK11,1,1,73,2,1,1,225,2,1,0,0,12,1,225,2,1,-146211.42810233062,-4791946.123994674,4197716.130339146,2.26933,3.02616,-0.135182,-119.125,21.75,22.375,-0.0625,-6.75,6.5625,-0.00390625,0.0,0.0,4,0,41.39567404943741,-91.7476614494027,11058.209938940558,-80.98263394055199,1.4935356657628656,-1.5843030512245255,201.698,9031.630405181751,11029.86252269048,150,True,22.123634874909897,False,143.5518082605636,179.11460783526255,False,35.62087846238523,False,False
2,1970-07-23 11:42:53.714184365,2025-09-17,2025-09-26 19:29:31.418,HH,C,1295461176,JASSM,3,103,76,2,2,1,225,9,2,0,1,26,0,0,0,0,-172392.60974295562,-4770312.907197799,4220653.788542271,-2.51448,-0.70333,0.607552,54.625,-46.125,-49.625,0.0,0.0,0.0,0.0,0.0,0.0,2,0,41.67400687669157,-92.06969072348318,10000.000084630212,139.83609338627366,-0.0039780088271022,0.003301962702748,,9031.630405181751,11029.86252269048,150,2,2025-09-17,2025-09-26 19:29:31.438,HH,C,1106439848,HAWK11,1,1,73,2,1,1,225,2,1,0,0,12,1,225,2,1,-146323.82653983062,-4791925.611299361,4197737.030729771,2.26885,3.02319,-0.13336,-119.375,21.875,22.25,-0.0625,-6.9375,6.79688,0.0,0.0,0.0,5,0,41.39591674905546,-91.74901159318767,11061.531316165509,-80.9494607825862,1.2990942600553046,-1.6338210613813875,202.101,9031.630405181751,11029.86252269048,150,True,22.02153668775443,False,143.51879572683498,179.20027998299489,False,35.74591273046613,False,False
2,1970-07-23 11:42:53.725184256,2025-09-17,2025-09-26 19:29:32.518,HH,C,1296715246,JASSM,3,103,76,2,2,1,225,9,2,0,1,26,0,0,0,0,-172335.23230154935,-4770361.571260299,4220601.479948521,-2.51448,-0.70333,0.607552,54.625,-46.125,-49.625,0.0,0.0,0.0,0.0,0.0,0.0,2,0,41.67337666646972,-92.06898137875108,9999.995923093986,139.83656502078398,-0.0031546659985104,0.0033004007729368,,9031.630405181751,11029.86252269048,150,2,2025-09-17,2025-09-26 19:29:32.344,HH,C,1107712380,HAWK11,1,1,73,2,1,1,225,2,1,0,0,12,1,225,2,1,-146450.51403983062,-4791902.332002486,4197760.585417271,2.27365,3.02549,-0.128854,-119.625,21.875,22.25,0.03125,-6.9375,6.75,-0.00585938,0.00195312,0.0,4,0,41.39619120999898,-91.75053344846096,11064.886521215209,-81.23035002056497,1.2264764386480032,-1.3481789112317974,202.248,9031.630405181751,11029.86252269048,150,True,21.91527917291827,False,143.48951532650545,179.29591040569437,False,35.881013691127876,False,False
2,1970-07-23 11:42:53.735225237,2025-09-17,2025-09-26 19:29:33.522,HH,C,1297968326,JASSM,3,103,76,2,2,1,225,9,2,0,1,26,0,0,0,0,-172277.89978201812,-4770410.196260299,4220549.214323521,-2.51448,-0.70333,0.607552,54.625,-46.125,-49.625,0.0,0.0,0.0,0.0,0.0,0.0,2,0,41.67274696451197,-92.06827260361686,9999.99811888258,139.83703627073197,-0.0023319826420354,0.0032988522519198,,9031.630405181751,11029.86252269048,150,2,2025-09-17,2025-09-26 19:29:33.548,HH,C,1109143978,HAWK11,1,1,73,2,1,1,225,2,1,0,0,12,1,225,2,1,-146594.96130545562,-4791875.774385299,4197787.255339146,2.25955,3.02635,-0.12895,-119.75,21.75,22.25,0.15625,-7.04688,6.875,0.0,0.00390625,0.0136719,4,0,41.396502949342576,-91.7522686664286,11068.280919950055,-81.25996004499017,1.2681117594696012,-2.1500594763115544,202.431,9031.630405181751,11029.86252269048,150,True,21.80122155795378,False,143.43716584884106,179.40224140333316,False,36.05598440117173,False,False
2,1970-07-23 11:42:53.746254243,2025-09-17,2025-09-26 19:29:34.625,HH,C,1299278924,JASSM,3,103,76,2,2,1,225,9,2,0,1,26,0,0,0,0,-172217.93542654935,-4770461.051729049,4220494.546354771,-2.51448,-0.70333,0.607552,54.625,-46.125,-49.625,0.0,0.0,0.0,0.0,0.0,0.0,2,0,41.67208834049711,-92.06753130782172,9999.994220536655,139.83752913674687,-0.0014715260505214,0.0032972251258333,,9031.630405181751,11029.86252269048,150,2,2025-09-17,2025-09-26 19:29:34.643,HH,C,1110456278,HAWK11,1,1,73,2,1,1,225,2,1,0,0,12,1,225,2,1,-146726.05114920562,-4791851.611299361,4197811.530729771,2.26588,3.02683,-0.126458,-120.0,21.875,22.0,-0.109375,-6.98438,6.79688,0.00195312,-0.0078125,-0.0117188,4,0,41.39678668740049,-91.75384346048266,11071.376052178592,-81.3859088146557,1.1948466881218012,-1.7867874638870187,202.651,9031.630405181751,11029.86252269048,150,True,21.69093855307189,False,143.36306473574183,179.49311811833869,False,36.24075662693172,False,False
2,1970-07-23 11:42:53.757264176,2025-09-17,2025-09-26 19:29:35.726,HH,C,1300532200,JASSM,3,103,76,2,2,1,225,9,2,0,1,26,0,0,0,0,-172160.59411795562,-4770509.684541549,4220442.272917271,-2.51448,-0.703234,0.607552,54.625,-46.125,-49.625,0.0,0.0,0.0,0.0,0.0,0.0,2,0,41.67145853212232,-92.06682245214796,10000.006556093991,139.83434721469584,-0.0032960253311718,0.0001589931745374,,9031.630405181751,11029.86252269048,150,2,2025-09-17,2025-09-26 19:29:35.844,HH,C,1111808342,HAWK11,1,1,73,2,1,1,225,2,1,0,0,12,1,225,2,1,-146863.07458670562,-4791826.389619674,4197836.624479771,2.26358,3.023,-0.124444,-120.25,22.0,21.875,-0.03125,-6.875,6.6875,0.00390625,-0.00195312,0.0078125,4,0,41.39708114333273,-91.75548953661804,11074.099329156486,-81.32840937030316,0.956529389484791,-1.9451221923965256,202.871,9031.630405181751,11029.86252269048,150,True,21.58043527038609,False,143.33033812031925,179.57847321655896,False,36.39110080917304,False,False
2,1970-07-23 11:42:53.767303525,2025-09-17,2025-09-26 19:29:36.730,HH,C,1301784926,JASSM,3,103,76,2,2,1,225,9,2,0,1,26,0,0,0,0,-172103.27771170562,-4770558.290010299,4220390.019011021,-2.51448,-0.703234,0.607552,54.625,-46.125,-49.625,0.0,0.0,0.0,0.0,0.0,0.0,2,0,41.67082900872564,-92.06611392082168,10000.001041197524,139.83481828482982,-0.002473585779463,0.0001574008624381,,9031.630405181751,11029.86252269048,150,2,2025-09-17,2025-09-26 19:29:36.844,HH,C,1112762742,HAWK11,1,1,73,2,1,1,225,2,1,0,0,12,1,225,2,1,-146959.28552420562,-4791808.624971236,4197854.163542271,2.26751,3.0207,-0.124444,-120.375,22.125,21.875,-0.296875,-7.0,6.71875,0.0078125,-0.00585938,0.00390625,4,0,41.39728766653817,-91.7566453570136,11075.707041482448,-81.24223226856752,0.8596632960660038,-1.7349623538039731,203.274,9031.630405181751,11029.86252269048,150,True,21.4882531581787,False,143.35336198646823,179.62767413065444,False,36.45134149788769,False,False
2,1970-07-23 11:42:53.778342406,2025-09-17,2025-09-26 19:29:37.834,HH,C,1303096894,JASSM,3,103,76,2,2,1,225,9,2,0,1,26,0,0,0,0,-172043.25085623687,-4770609.196260299,4220335.292448521,-2.51448,-0.703234,0.607552,54.625,-46.125,-49.625,0.0,0.0,0.0,0.0,0.0,0.0,2,0,41.67016968652851,-92.06537189740872,10000.00192640316,139.8353116160653,-0.0016122345011895,0.0001557180702845,,9031.630405181751,11029.86252269048,150,2,2025-09-17,2025-09-26 19:29:38.048,HH,C,1114393174,HAWK11,1,1,73,2,1,1,225,2,1,0,0,12,1,225,2,1,-147123.24450858062,-4791778.355439986,4197883.606901646,2.26492,3.0205,-0.119555,-120.75,22.25,21.625,-0.171875,-6.95312,6.67188,-0.00195312,0.0,0.00390625,4,0,41.39763655197996,-91.758615076612,11077.501406765376,-81.44562379269422,0.6668274262397643,-1.8874378438612167,203.347,9031.630405181751,11029.86252269048,150,True,21.36376025190006,False,143.26481964027502,179.67823526617818,False,36.68355775796962,False,False
2,1970-07-23 11:42:53.789184109,2025-09-17,2025-09-26 19:29:38.918,HH,C,1304351006,JASSM,3,103,76,2,2,1,225,9,2,0,1,26,0,0,0,0,-171985.87097342435,-4770657.856416549,4220282.976042271,-2.51448,-0.703234,0.607552,54.625,-46.125,-49.625,0.0,0.0,0.0,0.0,0.0,0.0,2,0,41.6695394205982,-92.06466260933291,9999.997245290975,139.83578317735947,-0.0007888560466088,0.0001541007700899,,9031.630405181751,11029.86252269048,150,2,2025-09-17,2025-09-26 19:29:38.938,HH,C,1115586172,HAWK11,1,1,73,2,1,1,225,2,1,0,0,12,1,225,2,1,-147244.13513358062,-4791755.883760299,4197905.333464146,2.27096,3.01839,-0.118788,-121.0,22.375,21.625,0.0,-6.98438,6.67188,0.00585938,-0.0078125,0.00585938,4,0,41.39789479999087,-91.76006746445208,11078.494376897665,-81.39964153323955,0.5490868956569901,-1.5553287626310612,203.751,9031.630405181751,11029.86252269048,150,True,21.260729426962584,False,143.27341769944533,179.67654189173044,False,36.78227587772503,False,False
2,1970-07-23 11:42:53.800202626,2025-09-17,2025-09-26 19:29:40.020,HH,C,1305722498,JASSM,3,103,76,2,2,1,225,9,2,0,1,26,0,0,0,0,-171923.12048514312,-4770711.067354049,4220225.765104771,-2.51448,-0.703234,0.607648,54.625,-46.125,-49.625,0.0,0.0,0.0,0.0,0.0,0.0,2,0,41.6688501947871,-92.06388695119698,9999.992738117344,139.83952128201292,-0.0043350392528143,0.0001522358890503,,9031.630405181751,11029.86252269048,150,2,2025-09-17,2025-09-26 19:29:40.140,HH,C,1117017770,HAWK11,1,1,73,2,1,1,225,2,1,0,0,12,1,225,2,1,-147389.35974295562,-4791728.852510299,4197931.060026646,2.26444,3.01571,-0.113898,-121.25,22.75,21.25,-0.1875,-6.76562,6.45312,-0.00195312,0.00585938,0.00390625,4,0,41.39820270180195,-91.7618122307091,11078.798648062157,-81.50843699388231,0.2500284433190166,-1.9475738798094049,203.934,9031.630405181751,11029.86252269048,150,True,21.14247687074187,False,143.23138900204543,179.6299902449482,False,36.95304212171426,False,False
2,1970-07-23 11:42:53.811227457,2025-09-17,2025-09-26 19:29:41.122,HH,C,1307035312,JASSM,3,103,76,2,2,1,225,9,2,0,1,26,0,0,0,0,-171863.054811315,-4770762.004854049,4220171.003386021,-2.51448,-0.703234,0.607648,54.625,-46.125,-49.625,0.0,0.0,0.0,0.0,0.0,0.0,2,0,41.66819044316563,-92.06314449413166,10000.004245839496,139.8400148824548,-0.0034731397474384,0.000150607444958,,9031.630405181751,11029.86252269048,150,2,2025-09-17,2025-09-26 19:29:41.048,HH,C,1118091470,HAWK11,1,1,73,2,1,1,225,2,1,0,0,12,1,225,2,1,-147498.43005545562,-4791708.209932174,4197950.142057896,2.26751,3.01552,-0.114186,-121.5,22.875,21.125,0.015625,-6.96875,6.64062,0.00976562,-0.00585938,0.00585938,4,0,41.398434341598616,-91.76312276597491,11077.67599536382,-81.4897404050881,0.2538476397572711,-1.773039682949035,204.325,9031.630405181751,11029.86252269048,150,True,21.042593936377468,False,143.19828570000502,179.57103213850132,False,37.08480510369387,False,False
2,1970-07-23 11:42:53.822242319,2025-09-17,2025-09-26 19:29:42.224,HH,C,1308348238,JASSM,3,103,76,2,2,1,225,9,2,0,1,26,0,0,0,0,-171802.98401053375,-4770812.942354049,4220116.233854771,-2.51439,-0.703234,0.607648,54.625,-46.125,-49.625,0.0,0.0,0.0,0.0,0.0,0.0,2,0,41.66753063525681,-92.06240199073436,10000.002995493069,139.84050850728744,-0.0026111712237336,0.0056404530131003,,9031.630405181751,11029.86252269048,150,2,2025-09-17,2025-09-26 19:29:42.234,HH,C,1119483302,HAWK11,1,1,73,2,1,1,225,2,1,0,0,12,1,225,2,1,-147641.73083670562,-4791681.083955611,4197974.554167271,2.28208,3.01331,-0.108625,-121.875,23.125,20.875,0.015625,-6.79688,6.48438,0.0253906,0.00195312,0.0,4,0,41.398734239832265,-91.76484461391284,11074.769808429175,-81.64523817448686,-0.0505223450595377,-0.952517630130848,204.692,9031.630405181751,11029.86252269048,150,True,20.927861391572876,False,143.14603862086682,179.47392505388055,False,37.26782699042782,False,False
2,1970-07-23 11:42:53.834242062,2025-09-17,2025-09-26 19:29:43.424,HH,C,1309718080,JASSM,3,103,76,2,2,1,225,9,2,0,1,26,0,0,0,0,-171740.30896170562,-4770866.086885299,4220059.085417271,-2.51439,-0.703234,0.607648,54.625,-46.125,-49.625,0.0,0.0,0.0,0.0,0.0,0.0,2,0,41.66684219491194,-92.06162731431108,9999.99386959181,139.84102351428498,-0.0017118166788374,0.0056387410548524,,9031.630405181751,11029.86252269048,150,2,2025-09-17,2025-09-26 19:29:43.438,HH,C,1120954666,HAWK11,1,1,73,2,1,1,225,2,1,0,0,12,1,225,2,1,-147792.16638358062,-4791651.771455611,4198000.401823521,2.54842,3.01188,-0.115144,-122.0,24.5,21.375,-0.359375,-6.98438,6.57812,0.240234,0.00195312,-0.00390625,4,0,41.39905550031845,-91.76665251605384,11070.15220275744,-81.31310162930085,0.1382790218089628,14.298443109679637,205.315,9031.630405181751,11029.86252269048,150,False,20.807559226806923,False,143.69475210925987,179.35788638831244,False,36.85586090380956,False,False
2,1970-07-23 11:42:53.844282853,2025-09-17,2025-09-26 19:29:44.428,HH,C,1310970780,JASSM,3,103,76,2,2,1,225,9,2,0,1,26,0,0,0,0,-171682.99353201812,-4770914.688447799,4220006.827604771,-2.51439,-0.703234,0.607648,54.625,-46.125,-49.625,0.0,0.0,0.0,0.0,0.0,0.0,2,0,41.66621263587175,-92.06091889761068,10000.001962446078,139.84149446552766,-0.0008893804527998,0.0056371851517823,,9031.630405181751,11029.86252269048,150,2,2025-09-17,2025-09-26 19:29:44.438,HH,C,1122147664,HAWK11,1,1,73,2,1,1,225,2,1,0,0,12,1,225,2,1,-147913.89489920562,-4791626.002900924,4198022.804167271,2.67871,2.99002,-0.145345,-121.625,26.75,23.75,0.0,-7.39062,7.10938,0.15625,0.00195312,0.0683594,4,0,41.39933766593971,-91.76811619270606,11064.6094656133,-79.19638779177063,0.3666389724526472,21.61020105909587,205.413,9031.630405181751,11029.86252269048,150,False,20.703578636466233,False,145.1661443446654,179.25912198585303,False,35.49606738609754,False,False
2,1970-07-23 11:42:53.855303158,2025-09-17,2025-09-26 19:29:45.530,HH,C,1312224018,JASSM,3,103,76,2,2,1,225,9,2,0,1,26,0,0,0,0,-171625.6534441275,-4770963.309541549,4219954.546354771,-2.51439,-0.703138,0.607648,54.625,-46.125,-49.625,0.0,0.0,0.0,0.0,0.0,0.0,2,0,41.66558280336318,-92.06021019054208,10000.00891348906,139.83831504965224,-0.0027122807327053,0.0025004268547356,,9031.630405181751,11029.86252269048,150,2,2025-09-17,2025-09-26 19:29:45.438,HH,C,1123221364,HAWK11,1,1,73,2,1,1,225,2,1,0,0,12,1,225,2,1,-148022.91833670562,-4791600.600557174,4198045.476042271,2.85579,2.95579,-0.185516,-120.75,29.75,26.875,-0.28125,-8.14062,7.79688,0.166016,0.0273438,0.0234375,4,0,41.39962178894453,-91.76942797094794,11059.595043555422,-76.1925578869186,0.4710958005803601,31.45494516902102,206.427,9031.630405181751,11029.86252269048,150,False,20.603870442216525,False,147.1465251905207,179.16967432729385,False,33.61303084383246,False,False
2,1970-07-23 11:42:53.865180802,2025-09-17,2025-09-26 19:29:46.518,HH,C,1313477374,JASSM,3,103,76,2,2,1,225,9,2,0,1,26,0,0,0,0,-171568.30798514312,-4771011.930635299,4219902.257292271,-2.51439,-0.703138,0.607648,54.625,-46.125,-49.625,0.0,0.0,0.0,0.0,0.0,0.0,2,0,41.66495291504855,-92.05950143286864,10000.0026665388,139.83878621596145,-0.0018894219819531,0.0024988222893536,,9031.630405181751,11029.86252269048,150,2,2025-09-17,2025-09-26 19:29:46.640,HH,C,1124772262,HAWK11,1,1,73,2,1,1,225,2,1,0,0,12,1,225,2,1,-148178.47693045562,-4791558.287080611,4198083.880339146,2.89155,2.90248,-0.242273,-118.625,35.125,32.5,-0.21875,-8.42188,8.03125,0.0546875,0.0371094,0.0546875,4,0,41.4001041339893,-91.7713019264912,11050.662335632644,-71.7800145575021,0.4664435546296382,32.891231349206635,206.684,9031.630405181751,11029.86252269048,150,False,20.4790908173928,False,150.75047349808852,179.0460331468076,False,30.140215527328618,False,False
2,1970-07-23 11:42:53.876206060,2025-09-17,2025-09-26 19:29:47.620,HH,C,1314730210,JASSM,3,103,76,2,2,1,225,9,2,0,1,26,0,0,0,0,-171510.98620779935,-4771060.532197799,4219849.987761021,-2.51439,-0.703138,0.607744,54.625,-46.125,-49.625,0.0,0.0,0.0,0.0,0.0,0.0,2,0,41.66432326528036,-92.05879298145749,9999.997577832422,139.84248184593918,-0.0055160771504461,0.0024970221944134,,9031.630405181751,11029.86252269048,150,2,2025-09-17,2025-09-26 19:29:47.733,HH,C,1126005028,HAWK11,1,1,73,2,1,1,225,2,1,0,0,12,1,225,2,1,-148299.09021170562,-4791519.912080611,4198119.864714146,2.92041,2.86164,-0.289827,-116.375,39.125,37.625,-0.015625,-8.90625,8.1875,0.00195312,0.0234375,0.0332031,4,0,41.40055311987063,-91.77275698759148,11043.520357507172,-68.24877458625589,0.6787176996204375,33.964414691046585,207.893,9031.630405181751,11029.86252269048,150,False,20.36781030918687,False,153.8165241393196,178.95434550508895,False,27.172887634009378,True,False
2,1970-07-23 11:42:53.887222397,2025-09-17,2025-09-26 19:29:48.722,HH,C,1316042118,JASSM,3,103,76,2,2,1,225,9,2,0,1,26,0,0,0,0,-171450.96154959625,-4771111.426729049,4219795.253386021,-2.51439,-0.703138,0.607744,54.625,-46.125,-49.625,0.0,0.0,0.0,0.0,0.0,0.0,2,0,41.66366391215041,-92.05805113884438,9999.999566725624,139.84297499413256,-0.0046547529951714,0.0024953742422752,,9031.630405181751,11029.86252269048,150,2,2025-09-17,2025-09-26 19:29:48.640,HH,C,1127158260,HAWK11,1,1,73,2,1,1,225,2,1,0,0,12,1,225,2,1,-148410.82653983062,-4791479.659150924,4198158.722136021,2.90919,2.8277,-0.332586,-113.5,43.125,42.25,-0.234375,-9.01562,8.17188,-0.0371094,0.0253906,0.0488281,4,0,41.40103428828295,-91.77410671713702,11037.325295021485,-65.19885993472082,1.0306413266647592,32.771564206032295,207.539,9031.630405181751,11029.86252269048,150,False,20.255727740163557,False,156.8288947308253,178.87378621795537,False,24.2445723183857,True,False
2,1970-07-23 11:42:53.898264389,2025-09-17,2025-09-26 19:29:49.826,HH,C,1317354184,JASSM,3,103,76,2,2,1,225,9,2,0,1,26,0,0,0,0,-171390.929811315,-4771162.325166549,4219740.515104771,-2.51439,-0.703138,0.607744,54.625,-46.125,-49.625,0.0,0.0,0.0,0.0,0.0,0.0,2,0,41.66300450606238,-92.05730922477126,10000.006709325284,139.84346818342513,-0.0037933502637994,0.0024937446911297,,9031.630405181751,11029.86252269048,150,2,2025-09-17,2025-09-26 19:29:49.734,HH,C,1128391026,HAWK11,1,1,73,2,1,1,225,2,1,0,0,12,1,225,2,1,-148525.62927420562,-4791433.536104049,4198204.739714146,2.8834,2.79367,-0.378797,-110.25,46.25,47.375,-0.25,-9.48438,8.21875,-0.0175781,0.0332031,0.0351562,4,0,41.40159812790567,-91.77549527392928,11032.468584810922,-62.02662721893924,1.5679569077447466,30.686491730726164,207.857,9031.630405181751,11029.86252269048,150,False,20.138728544151423,False,159.84374803363892,178.79636058317993,False,21.3167086707169,True,False
2,1970-07-23 11:42:53.909260926,2025-09-17,2025-09-26 19:29:50.926,HH,C,1318667478,JASSM,3,103,76,2,2,1,225,9,2,0,1,26,0,0,0,0,-171330.84167654935,-4771213.266572799,4219685.722136021,-2.51439,-0.703138,0.607744,54.625,-46.125,-49.625,0.0,0.0,0.0,0.0,0.0,0.0,2,0,41.66234448266422,-92.0565666309591,9999.999601974105,139.8439618181635,-0.0029311445773601,0.0024921169264722,,9031.630405181751,11029.86252269048,150,2,2025-09-17,2025-09-26 19:29:50.843,HH,C,1129663558,HAWK11,1,1,73,2,1,1,225,2,1,0,0,12,1,225,2,1,-148642.31286795562,-4791381.629854049,4198258.696745396,2.87938,2.76596,-0.415229,-106.625,49.5,52.625,-0.25,-9.375,8.34375,-0.00585938,0.0351562,0.0351562,4,0,41.40224959943318,-91.77690846855754,11030.765899050451,-59.513541180827325,2.000620244676889,29.92004964891846,207.111,9031.630405181751,11029.86252269048,150,False,20.016928868148568,False,162.99732124514748,178.7239406554581,False,18.24548914655448,True,False
2,1970-07-23 11:42:53.920295044,2025-09-17,2025-09-26 19:29:52.029,HH,C,1319979558,JASSM,3,103,76,2,2,1,225,9,2,0,1,26,0,0,0,0,-171270.80920584625,-4771264.165010299,4219630.979948521,-2.51439,-0.703138,0.607744,54.625,-46.125,-49.625,0.0,0.0,0.0,0.0,0.0,0.0,2,0,41.661685040738114,-92.05582473839328,10000.00762298698,139.84445498034694,-0.0020697174647467,0.0024904755004659,,9031.630405181751,11029.86252269048,150,2,2025-09-17,2025-09-26 19:29:52.049,HH,C,1131174688,HAWK11,1,1,73,2,1,1,225,2,1,0,0,12,1,225,2,1,-148774.38903983062,-4791316.401338424,4198329.212370396,2.88791,2.72473,-0.464413,-101.875,52.625,58.375,-0.1875,-9.34375,8.29688,-0.0078125,0.0273438,0.0390625,4,0,41.4030892345599,-91.7785105241758,11033.408549704112,-56.01241788423163,2.513112110473936,29.540692897094644,206.354,9031.630405181751,11029.86252269048,150,False,19.88110439601472,False,166.5137917097353,178.6509611898362,False,14.816480668288158,True,False
2,1970-07-23 11:42:53.930184567,2025-09-17,2025-09-26 19:29:53.018,HH,C,1321232262,JASSM,3,103,76,2,2,1,225,9,2,0,1,26,0,0,0,0,-171213.49402029935,-4771312.754854049,4219578.710417271,-2.51439,-0.703138,0.607744,54.625,-46.125,-49.625,0.0,0.0,0.0,0.0,0.0,0.0,2,0,41.66105543659475,-92.05511644271822,9999.996785419886,139.84492580351545,-0.001247277646318,0.0024889030591544,,9031.630405181751,11029.86252269048,150,2,2025-09-17,2025-09-26 19:29:53.050,HH,C,1132367688,HAWK11,1,1,73,2,1,1,225,2,1,0,0,12,1,225,2,1,-148873.91052420562,-4791262.044893111,4198389.774870396,2.89577,2.6929,-0.502762,-97.75,55.125,62.5,-0.3125,-9.0625,7.9375,-0.00976562,0.0253906,0.0273438,4,0,41.40380300457163,-91.77971965782962,11038.721663549368,-53.324721769738645,2.986442678392994,29.27190594119013,205.633,9031.630405181751,11029.86252269048,150,False,19.764543321107716,False,169.2742555737343,178.60247298311737,False,12.114498937199276,True,False
2,1970-07-23 11:42:53.941180009,2025-09-17,2025-09-26 19:29:54.118,HH,C,1322544538,JASSM,3,103,76,2,2,1,225,9,2,0,1,26,0,0,0,0,-171153.45153983062,-4771363.657197799,4219523.956511021,-2.51439,-0.703138,0.607744,54.625,-46.125,-49.625,0.0,0.0,0.0,0.0,0.0,0.0,2,0,41.66039588516646,-92.05437445801788,9999.997182851415,139.8454190144238,-0.0003857152707457,0.0024872666035814,,9031.630405181751,11029.86252269048,150,2,2025-09-17,2025-09-26 19:29:54.047,HH,C,1133560686,HAWK11,1,1,73,2,1,1,225,2,1,0,0,12,1,225,2,1,-148969.28552420562,-4791205.365205611,4198454.075651646,2.9648,2.65436,-0.534113,-93.5,57.75,65.875,-0.109375,-8.48438,7.5625,0.146484,0.0390625,0.0449219,4,0,41.40455658252336,-91.78088014237204,11046.123360202304,-50.69421228580026,2.9985613487469367,32.26984876200454,204.655,9031.630405181751,11029.86252269048,150,False,19.645146749356726,False,171.92122931407746,178.56204664891567,False,9.514070557071223,True,False
2,1970-07-23 11:42:53.952198801,2025-09-17,2025-09-26 19:29:55.219,HH,C,1323797830,JASSM,3,103,76,2,2,1,225,9,2,0,1,26,0,0,0,0,-171096.1085222525,-4771412.270479049,4219471.663542271,-2.51439,-0.703043,0.607744,54.625,-46.125,-49.625,0.0,0.0,0.0,0.0,0.0,0.0,2,0,41.6597659802201,-92.05366584673378,9999.999026029907,139.8422376001008,-0.002210245020174,-0.0006519146388055,,9031.630405181751,11029.86252269048,150,2,2025-09-17,2025-09-26 19:29:55.344,HH,C,1135151352,HAWK11,1,1,73,2,1,1,225,2,1,0,0,12,1,225,2,1,-149089.76599295562,-4791124.913057174,4198544.788542271,3.09394,2.58332,-0.577064,-86.875,62.5,70.0,-0.1875,-8.6875,7.51562,0.0136719,0.0332031,0.0664062,4,0,41.40562520287142,-91.78234942847178,11054.295637440588,-46.46970307017772,2.555969410326385,37.72582444120075,203.274,9031.630405181751,11029.86252269048,150,False,19.50466933183816,False,175.9908644860619,178.52359292699828,False,5.485531340884367,True,False
2,1970-07-23 11:42:53.963223242,2025-09-17,2025-09-26 19:29:56.322,HH,C,1325109904,JASSM,3,103,76,2,2,1,225,9,2,0,1,26,0,0,0,0,-171036.07605154935,-4771463.161104049,4219416.917448521,-2.51439,-0.703043,0.60784,54.625,-46.125,-49.625,0.0,0.0,0.0,0.0,0.0,0.0,2,0,41.6591065397168,-92.05292401671709,9999.997881832254,139.84595360921637,-0.0057950798626332,-0.000653800748608,,9031.630405181751,11029.86252269048,150,2,2025-09-17,2025-09-26 19:29:56.344,HH,C,1136225050,HAWK11,1,1,73,2,1,1,225,2,1,0,0,12,1,225,2,1,-149165.29138358062,-4791067.535127486,4198608.599089146,3.13862,2.51908,-0.604293,-82.0,66.0,72.625,-0.25,-8.42188,7.375,0.0117188,0.0117188,0.0410156,4,0,41.4063832746672,-91.78327308468651,11057.41578676648,-43.11723839593592,1.816064159738136,38.36314587208365,202.798,9031.630405181751,11029.86252269048,150,False,19.391703219656595,False,178.88010134201338,178.5071046103611,False,2.593037842121246,True,False
2,1970-07-23 11:42:53.973260735,2025-09-17,2025-09-26 19:29:57.326,HH,C,1326363212,JASSM,3,103,76,2,2,1,225,9,2,0,1,26,0,0,0,0,-170978.73230154935,-4771511.774385299,4219364.624479771,-2.51439,-0.703043,0.60784,54.625,-46.125,-49.625,0.0,0.0,0.0,0.0,0.0,0.0,2,0,41.658476625844585,-92.05221542491785,10000.00849242002,139.8464246055024,-0.0049722469445323,-0.0006553661109576,,9031.630405181751,11029.86252269048,150,2,2025-09-17,2025-09-26 19:29:57.236,HH,C,1137179450,HAWK11,1,1,73,2,1,1,225,2,1,0,0,12,1,225,2,1,-149229.88903983062,-4791013.212861861,4198668.290495396,-3.13517,2.477,-0.625481,-77.625,68.625,75.0,-0.265625,-8.46875,7.35938,-0.0332031,0.0117188,0.0410156,4,0,41.40709738197358,-91.78406506666948,11058.282577764863,-40.81669132173614,1.5658507980341252,37.57800694768158,202.064,9031.630405181751,11029.86252269048,150,False,19.286789620373746,False,178.44640456482034,178.49954395197878,False,0.6679843203000079,True,False
2,1970-07-23 11:42:53.985259443,2025-09-17,2025-09-26 19:29:58.525,HH,C,1327734128,JASSM,3,103,76,2,2,1,225,9,2,0,1,26,0,0,0,0,-170916.00744803375,-4771564.946260299,4219307.417448521,-2.51439,-0.703043,0.60784,54.625,-46.125,-49.625,0.0,0.0,0.0,0.0,0.0,0.0,2,0,41.65778756902548,-92.0514403564944,10000.00199061492,139.8469397816717,-0.004072179712933,-0.0006570966808921,,9031.630405181751,11029.86252269048,150,2,2025-09-17,2025-09-26 19:29:58.437,HH,C,1138611048,HAWK11,1,1,73,2,1,1,225,2,1,0,0,12,1,225,2,1,-149318.90466483062,-4790928.279268111,4198760.270964146,-3.14102,2.40097,-0.656927,-70.875,72.375,78.25,-0.09375,-8.53125,7.5,-0.03125,0.0195312,0.0488281,4,0,41.408207011897325,-91.78516019937427,11055.805344873908,-36.93347891368681,0.97545913647589,34.72227409350557,201.624,9031.630405181751,11029.86252269048,150,False,19.150221749521045,False,174.74220317838294,178.50363960043484,False,3.8175839800467672,True,False
2,1970-07-23 11:42:53.996287537,2025-09-17,2025-09-26 19:29:59.628,HH,C,1329045912,JASSM,3,103,76,2,2,1,225,9,2,0,1,26,0,0,0,0,-170855.98816092435,-4771615.821260299,4219252.683073521,-2.51429,-0.703043,0.60784,54.625,-46.125,-49.625,0.0,0.0,0.0,0.0,0.0,0.0,2,0,41.65712828330661,-92.05069873669478,10000.003468524284,139.8474327185032,-0.0032109780303545,0.0048327536969711,,9031.630405181751,11029.86252269048,150,2,2025-09-17,2025-09-26 19:29:59.639,HH,C,1140161946,HAWK11,1,1,73,2,1,1,225,2,1,0,0,12,1,225,2,1,-149406.20739920562,-4790832.252900924,4198864.145964146,3.13124,2.33098,-0.693743,-63.75,75.375,81.375,-0.21875,-8.625,7.45312,-0.0585938,0.0175781,0.0429688,4,0,41.4094632273322,-91.78623903750268,11051.738698303689,-33.160137820429846,1.0097787937286389,31.65347214381188,201.148,9031.630405181751,11029.86252269048,150,False,19.009560320103045,False,171.00922969374338,178.5257723417418,False,7.561096855301251,True,False
2,1970-07-23 11:42:54.006318672,2025-09-17,2025-09-26 19:30:00.631,HH,C,1330299790,JASSM,3,103,76,2,2,1,225,9,2,0,1,26,0,0,0,0,-170798.6182878775,-4771664.450166549,4219200.358854771,-2.51429,-0.703043,0.60784,54.625,-46.125,-49.625,0.0,0.0,0.0,0.0,0.0,0.0,2,0,41.65649805757217,-92.0499898682868,9999.995469865597,139.8479038802915,-0.0023877629564783,0.0048311788733545,,9031.630405181751,11029.86252269048,150,2,2025-09-17,2025-09-26 19:30:00.545,HH,C,1141195878,HAWK11,1,1,73,2,1,1,225,2,1,0,0,12,1,225,2,1,-149458.97302420562,-4790766.765596236,4198935.095182896,3.10209,2.2793,-0.716177,-59.25,76.875,83.5,-0.34375,-8.79688,7.64062,-0.0683594,0.0253906,0.0449219,4,0,41.41032192076266,-91.7868938824211,11048.691212784037,-30.56578368681448,0.9368401643920188,28.10860461667621,200.622,9031.630405181751,11029.86252269048,150,False,18.90167490581196,False,168.6856790218456,178.54864611206312,False,9.911598387206737,True,False
2,1970-07-23 11:42:54.017179443,2025-09-17,2025-09-26 19:30:01.717,HH,C,1331610482,JASSM,3,103,76,2,2,1,225,9,2,0,1,26,0,0,0,0,-170738.64880545562,-4771715.286104049,4219145.663542271,-2.51429,-0.703043,0.60784,54.625,-46.125,-49.625,0.0,0.0,0.0,0.0,0.0,0.0,2,0,41.655839247844,-92.04924889209296,10000.000046640927,139.84839637683004,-0.0015272279835532,0.0048295195048262,,9031.630405181751,11029.86252269048,150,2,2025-09-17,2025-09-26 19:30:01.733,HH,C,1142627476,HAWK11,1,1,73,2,1,1,225,2,1,0,0,12,1,225,2,1,-149526.39099295562,-4790673.737275924,4199037.175261021,3.11082,2.22312,-0.74446,-53.375,78.125,86.25,-0.234375,-8.60938,7.78125,0.0195312,0.015625,0.0273438,4,0,41.41155186125312,-91.787734083937,11046.599719183776,-27.68177213238557,1.1762381622080005,26.513684940616365,200.182,9031.630405181751,11029.86252269048,150,False,18.768970357793354,False,165.74722981341944,178.59299882339369,False,12.905947391173614,True,False
2,1970-07-23 11:42:54.028202438,2025-09-17,2025-09-26 19:30:02.820,HH,C,1332863448,JASSM,3,103,76,2,2,1,225,9,2,0,1,26,0,0,0,0,-170681.320436315,-4771763.875947799,4219093.378386021,-2.51429,-0.703043,0.60784,54.625,-46.125,-49.625,0.0,0.0,0.0,0.0,0.0,0.0,2,0,41.65520950030205,-92.048540566419,9999.994004728307,139.84886716592987,-0.0007046330269998,0.0048279650216597,,9031.630405181751,11029.86252269048,150,2,2025-09-17,2025-09-26 19:30:02.640,HH,C,1143860242,HAWK11,1,1,73,2,1,1,225,2,1,0,0,12,1,225,2,1,-149578.93591483062,-4790591.829072799,4199128.015104771,-3.13325,2.17451,-0.767662,-48.125,79.25,88.25,0.015625,-8.70312,7.625,-0.0117188,0.0292969,0.0390625,4,0,41.41264253382037,-91.78839245899158,11046.33251012149,-25.271321336443552,1.4271034640621891,26.89859994135188,199.4,9031.630405181751,11029.86252269048,150,False,18.650168371341124,False,163.18521200949624,178.64128293456088,False,15.521333764892812,True,False
2,1970-07-23 11:42:54.039223607,2025-09-17,2025-09-26 19:30:03.922,HH,C,1334176800,JASSM,3,103,76,2,2,1,225,9,2,0,1,26,0,0,0,0,-170621.22912772125,-4771814.809541549,4219038.573698521,-2.51429,-0.703043,0.60784,54.625,-46.125,-49.625,0.0,0.0,0.0,0.0,0.0,0.0,2,0,41.65454938795229,-92.0477981169758,9999.997875595938,139.84936062914616,0.0001576145469258,0.0048263300258637,,9031.630405181751,11029.86252269048,150,2,2025-09-17,2025-09-26 19:30:04.046,HH,C,1145490674,HAWK11,1,1,73,2,1,1,225,2,1,0,0,12,1,225,2,1,-149639.86364920562,-4790483.298799361,4199250.044401646,-3.08551,2.09043,-0.798149,-41.375,80.0,90.5,-0.375,-8.51562,7.5625,-0.03125,0.0253906,0.0195312,4,0,41.41410054335727,-91.7891609553954,11048.936673364364,-21.43871191092021,1.5829466055256425,26.335457569283545,198.496,9031.630405181751,11029.86252269048,150,False,18.508730982304574,False,159.99170730060507,178.71854975645675,False,18.802591033563573,True,False
2,1970-07-23 11:42:54.050240712,2025-09-17,2025-09-26 19:30:05.024,HH,C,1335489162,JASSM,3,103,76,2,2,1,225,9,2,0,1,26,0,0,0,0,-170561.18322928375,-4771865.704072799,4218983.808073521,-2.51429,-0.702947,0.607936,54.625,-46.125,-49.625,0.0,0.0,0.0,0.0,0.0,0.0,2,0,41.653889757178575,-92.04705624398083,9999.99994315962,139.84942908870264,-0.0060753502356071,0.0016883351894326,,9031.630405181751,11029.86252269048,150,2,2025-09-17,2025-09-26 19:30:04.937,HH,C,1146445072,HAWK11,1,1,73,2,1,1,225,2,1,0,0,12,1,225,2,1,-149670.91443045562,-4790419.378877486,4199321.981901646,3.03977,2.05582,-0.804765,-37.875,80.625,91.25,-0.25,-7.85938,6.92188,-0.326172,-0.00390625,0.0332031,4,0,41.41496060105879,-91.7895558337191,11050.252223244395,-20.018759366362705,1.4078515509155725,15.900632484521626,197.188,9031.630405181751,11029.86252269048,150,False,18.405816692439,False,158.36345115235366,178.76918318625027,False,20.483193469069853,True,False
2,1970-07-23 11:42:54.061261377,2025-09-17,2025-09-26 19:30:06.126,HH,C,1336860048,JASSM,3,103,76,2,2,1,225,9,2,0,1,26,0,0,0,0,-170498.45959647125,-4771918.868135299,4218926.597136021,-2.51429,-0.702947,0.607936,54.625,-46.125,-49.625,0.0,0.0,0.0,0.0,0.0,0.0,2,0,41.6532006851961,-92.04628130352228,10000.0002581746,139.8499441334971,-0.005175306382645,0.0016866004800117,,9031.630405181751,11029.86252269048,150,2,2025-09-17,2025-09-26 19:30:06.140,HH,C,1147797138,HAWK11,1,1,73,2,1,1,225,2,1,0,0,12,1,225,2,1,-149713.42614920562,-4790326.986299361,4199426.427214146,2.59367,2.02879,-0.801888,-36.875,80.875,91.125,-0.234375,-7.09375,5.96875,-0.333984,0.0,-0.03125,4,0,41.41620733306551,-91.79009830192165,11052.987477577924,-19.07565353011283,0.8668068212209424,-10.755217064475133,196.956,9031.630405181751,11029.86252269048,150,False,18.278407660291084,False,157.93069156656094,178.84714720711764,False,20.997282046188367,True,False
2,1970-07-23 11:42:54.072276771,2025-09-17,2025-09-26 19:30:07.227,HH,C,1338174532,JASSM,3,103,76,2,2,1,225,9,2,0,1,26,0,0,0,0,-170438.31628592435,-4771969.844697799,4218871.741667271,-2.51429,-0.702947,0.607936,54.625,-46.125,-49.625,0.0,0.0,0.0,0.0,0.0,0.0,2,0,41.65253997082955,-92.0455382582337,10000.00853608035,139.85043797339853,-0.0043123003987894,0.001684947045716,,9031.630405181751,11029.86252269048,150,2,2025-09-17,2025-09-26 19:30:07.343,HH,C,1149387804,HAWK11,1,1,73,2,1,1,225,2,1,0,0,12,1,225,2,1,-149763.45349295562,-4790220.149385299,4199546.757292271,2.38783,2.11018,-0.771976,-39.5,80.125,90.0,0.359375,-7.57812,6.73438,-0.0996094,-0.0078125,-0.0214844,4,0,41.417645813770896,-91.79073599322084,11055.267503157946,-22.772142778662968,0.5308257607346772,-19.29013965105745,196.199,9031.630405181751,11029.86252269048,150,False,18.14163084173648,False,159.24379954725617,178.93673322306108,False,19.781982041329695,True,False
2,1970-07-23 11:42:54.083298627,2025-09-17,2025-09-26 19:30:08.329,HH,C,1339485652,JASSM,3,103,76,2,2,1,225,9,2,0,1,26,0,0,0,0,-170378.32702811187,-4772020.684541549,4218817.022917271,-2.51429,-0.702947,0.607936,54.625,-46.125,-49.625,0.0,0.0,0.0,0.0,0.0,0.0,2,0,41.65188095522858,-92.04479713396148,9999.998201076076,139.85093053015868,-0.0034515147135677,0.0016833035717841,,9031.630405181751,11029.86252269048,150,2,2025-09-17,2025-09-26 19:30:08.546,HH,C,1150859168,HAWK11,1,1,73,2,1,1,225,2,1,0,0,12,1,225,2,1,-149814.50818045562,-4790121.922822799,4199657.534636021,2.35926,2.14719,-0.769483,-43.0,78.875,88.625,0.015625,-7.75,6.9375,0.0332031,0.0117188,-0.0195312,4,0,41.41896839618364,-91.79138277087844,11058.080660720689,-24.21497157782687,1.03627825587412,-19.46965440127009,195.636,9031.630405181751,11029.86252269048,150,False,18.010178691345903,False,161.01433861627186,179.01233200093102,False,18.098620277699556,True,False
2,1970-07-23 11:42:54.092178162,2025-09-17,2025-09-26 19:30:09.217,HH,C,1340559394,JASSM,3,103,76,2,2,1,225,9,2,0,1,26,0,0,0,0,-170329.19885428375,-4772062.321260299,4218772.210417271,-2.51429,-0.702947,0.607936,54.625,-46.125,-49.625,0.0,0.0,0.0,0.0,0.0,0.0,2,0,41.651341238342646,-92.04419020122506,9999.99549293172,139.85133389745386,-0.0027465645628909,0.0016819497562261,,9031.630405181751,11029.86252269048,150,2,2025-09-17,2025-09-26 19:30:09.343,HH,C,1151853334,HAWK11,1,1,73,2,1,1,225,2,1,0,0,12,1,225,2,1,-149850.98474295562,-4790057.290010299,4199730.462370396,2.34133,2.18017,-0.75376,-45.125,78.125,87.75,-0.390625,-7.59375,6.75,-0.0898438,0.0195312,-0.0488281,4,0,41.41983835944389,-91.79184281065044,11060.239675408377,-25.83949822681649,0.8268947758869365,-19.21919416877348,195.135,9031.630405181751,11029.86252269048,150,False,17.914442176240165,False,162.10164275442872,179.05785257416457,False,17.064944903546916,True,False
2,1970-07-23 11:42:54.104202560,2025-09-17,2025-09-26 19:30:10.420,HH,C,1341932590,JASSM,3,103,76,2,2,1,225,9,2,0,1,26,0,0,0,0,-170266.36926444,-4772115.571260299,4218714.901823521,-2.51429,-0.702947,0.607936,54.625,-46.125,-49.625,0.0,0.0,0.0,0.0,0.0,0.0,2,0,41.650650999002416,-92.04341401454704,10000.003249299863,139.85184974461302,-0.0018450131782146,0.0016802215885899,,9031.630405181751,11029.86252269048,150,2,2025-09-17,2025-09-26 19:30:10.545,HH,C,1153284932,HAWK11,1,1,73,2,1,1,225,2,1,0,0,12,1,225,2,1,-149907.53943045562,-4789964.412080611,4199834.222136021,2.2237,2.22571,-0.744077,-49.0,76.875,85.75,-0.0625,-8.09375,7.125,0.0371094,0.0195312,-0.0273438,4,0,41.42108072517987,-91.79255335655716,11061.41723623833,-27.79147635966825,1.2187804706300809,-24.217542952019414,194.83,9031.630405181751,11029.86252269048,150,False,17.782530555374766,False,164.14640861203767,179.11779866868395,False,15.088472334335629,True,False
2,1970-07-23 11:42:54.115220497,2025-09-17,2025-09-26 19:30:11.522,HH,C,1343242686,JASSM,3,103,76,2,2,1,225,9,2,0,1,26,0,0,0,0,-170206.42663748687,-4772166.372041549,4218660.222136021,-2.51429,-0.702947,0.607936,54.625,-46.125,-49.625,0.0,0.0,0.0,0.0,0.0,0.0,2,0,41.6499924556958,-92.04267350943164,9999.999993416815,139.852341871567,-0.0009848762926684,0.0016785626138407,,9031.630405181751,11029.86252269048,150,2,2025-09-17,2025-09-26 19:30:11.639,HH,C,1154597230,HAWK11,1,1,73,2,1,1,225,2,1,0,0,12,1,225,2,1,-149963.60193045562,-4789881.196260299,4199928.188932896,2.22839,2.27825,-0.71263,-51.625,73.0,87.125,0.03125,-7.95312,7.15625,0.0292969,0.00585938,-0.0488281,4,0,41.4221995948994,-91.793254432771,11065.070389279254,-30.633334296529444,0.7510362248845031,-21.993061514625296,194.182,9031.630405181751,11029.86252269048,150,False,17.659129372517828,False,165.33505151957144,179.1643974115201,False,14.019626985878347,True,False
2,1970-07-23 11:42:54.125259325,2025-09-17,2025-09-26 19:30:12.525,HH,C,1344496046,JASSM,3,103,76,2,2,1,225,9,2,0,1,26,0,0,0,0,-170149.07995779935,-4772214.969697799,4218607.913542271,-2.51429,-0.702947,0.607936,54.625,-46.125,-49.625,0.0,0.0,0.0,0.0,0.0,0.0,2,0,41.649362466602646,-92.04196508895488,10000.000425122122,139.8528126696466,-0.0001620199441339,0.0016769999041769,,9031.630405181751,11029.86252269048,150,2,2025-09-17,2025-09-26 19:30:12.545,HH,C,1155591396,HAWK11,1,1,73,2,1,1,225,2,1,0,0,12,1,225,2,1,-150009.06091483062,-4789818.187471236,4199997.587370396,2.22648,2.31123,-0.708603,-55.375,74.125,83.0,-0.109375,-7.92188,7.125,0.0410156,0.0136719,-0.0136719,4,0,41.42303439507882,-91.79382125460712,11064.274564803609,-31.98103038705749,1.2903572174470763,-20.89430954587901,193.864,9031.630405181751,11029.86252269048,150,False,17.554976644242707,False,167.54087395479075,179.19499821043203,False,11.800112480406755,True,False
2,1970-07-23 11:42:54.136278560,2025-09-17,2025-09-26 19:30:13.627,HH,C,1345750234,JASSM,3,103,76,2,2,1,225,9,2,0,1,26,0,0,0,0,-170091.69519217435,-4772263.598604049,4218555.565886021,-2.51429,-0.702947,0.607936,54.625,-46.125,-49.625,0.0,0.0,0.0,0.0,0.0,0.0,2,0,41.64873203173369,-92.04125621224686,9999.993239638234,139.85328376507704,0.0006614003054848,0.0016754210912052,,9031.630405181751,11029.86252269048,150,2,2025-09-17,2025-09-26 19:30:13.545,HH,C,1156784396,HAWK11,1,1,73,2,1,1,225,2,1,0,0,12,1,225,2,1,-150065.98083670562,-4789745.309541549,4200079.243620396,2.26061,2.33606,-0.69777,-58.25,72.75,81.625,-0.0625,-7.6875,7.0625,0.0488281,0.0,-0.0195312,4,0,41.42400850322076,-91.79452874920044,11066.708049334658,-33.23108590488229,1.339817949838524,-18.04745186969787,193.718,9031.630405181751,11029.86252269048,150,False,17.440334873179914,False,169.1225121487776,179.2252864729572,False,10.266550678655152,True,False
2,1970-07-23 11:42:54.147300273,2025-09-17,2025-09-26 19:30:14.730,HH,C,1347061194,JASSM,3,103,76,2,2,1,225,9,2,0,1,26,0,0,0,0,-170031.71301444,-4772314.430635299,4218500.851042271,-2.51429,-0.702851,0.608032,54.625,-46.125,-49.625,0.0,0.0,0.0,0.0,0.0,0.0,2,0,41.64807305954236,-92.04051526349164,10000.000182458807,139.85334791392924,-0.0055712080360583,-0.0014649662973474,,9031.630405181751,11029.86252269048,150,2,2025-09-17,2025-09-26 19:30:14.639,HH,C,1158136460,HAWK11,1,1,73,2,1,1,225,2,1,0,0,12,1,225,2,1,-150134.21911795562,-4789662.893525924,4200171.378386021,2.2213,2.37412,-0.677636,-61.0,71.625,80.25,0.109375,-7.375,7.0,-0.117188,0.0,-0.0214844,4,0,41.42510796622911,-91.79537509910634,11069.315139949364,-35.27369222787863,1.2950156009738498,-18.962248021113137,192.985,9031.630405181751,11029.86252269048,150,False,17.313704453900616,False,170.63083435580032,179.25458469872328,False,8.804856592024194,True,False
2,1970-07-23 11:42:54.158320981,2025-09-17,2025-09-26 19:30:15.832,HH,C,1348373882,JASSM,3,103,76,2,2,1,225,9,2,0,1,26,0,0,0,0,-169971.65173514312,-4772365.325166549,4218446.061979771,-2.51429,-0.702851,0.608032,54.625,-46.125,-49.625,0.0,0.0,0.0,0.0,0.0,0.0,2,0,41.64741322669647,-92.03977335467732,9999.996255222935,139.8538409489147,-0.0047093948297942,-0.0014666154827476,,9031.630405181751,11029.86252269048,150,2,2025-09-17,2025-09-26 19:30:15.937,HH,C,1159727126,HAWK11,1,1,73,2,1,1,225,2,1,0,0,12,1,225,2,1,-150218.52185233062,-4789567.942354049,4200276.872526646,2.14796,2.39617,-0.661721,-64.875,70.5,77.875,0.140625,-7.23438,6.90625,0.0253906,0.0117188,-0.046875,4,0,41.42636917097617,-91.79641815942018,11071.350312817334,-36.606277611428325,1.0978341984530349,-22.408139026311567,193.412,9031.630405181751,11029.86252269048,150,False,17.173916897764673,False,172.79467409614315,179.2813435145617,False,6.673673109130605,True,False
2,1970-07-23 11:42:54.168199998,2025-09-17,2025-09-26 19:30:16.819,HH,C,1349627218,JASSM,3,103,76,2,2,1,225,9,2,0,1,26,0,0,0,0,-169914.30603201812,-4772413.922822799,4218393.749479771,-2.51419,-0.702851,0.608032,54.625,-46.125,-49.625,0.0,0.0,0.0,0.0,0.0,0.0,2,0,41.64678319297189,-92.03906500241963,10000.005921098807,139.85431167793396,-0.0038865235268451,0.0040369242648512,,9031.630405181751,11029.86252269048,150,2,2025-09-17,2025-09-26 19:30:16.639,HH,C,1160562224,HAWK11,1,1,73,2,1,1,225,2,1,0,0,12,1,225,2,1,-150264.60974295562,-4789518.796846236,4200330.960417271,2.14211,2.42944,-0.636123,-66.875,69.875,76.625,0.078125,-7.42188,6.98438,0.00976562,0.0292969,-0.0527344,4,0,41.42701802047319,-91.79698737606267,11071.481557704548,-38.692601552721285,0.7713484216976637,-21.62521259860554,193.253,9031.630405181751,11029.86252269048,150,False,17.078337000923195,False,173.9232376998275,179.2913455571198,False,5.557032753898237,True,False
2,1970-07-23 11:42:54.179221851,2025-09-17,2025-09-26 19:30:17.922,HH,C,1350939516,JASSM,3,103,76,2,2,1,225,9,2,0,1,26,0,0,0,0,-169854.26233084625,-4772464.801729049,4218338.972136021,-2.51419,-0.702851,0.608032,54.625,-46.125,-49.625,0.0,0.0,0.0,0.0,0.0,0.0,2,0,41.64612351906865,-92.03832334063534,10000.000045763993,139.85480453623248,-0.0030249436490931,0.0040352594268128,,9031.630405181751,11029.86252269048,150,2,2025-09-17,2025-09-26 19:30:18.045,HH,C,1162152890,HAWK11,1,1,73,2,1,1,225,2,1,0,0,12,1,225,2,1,-150356.63903983062,-4789426.566377486,4200431.505339146,2.13482,2.46367,-0.61666,-70.625,67.875,74.625,-0.109375,-7.51562,6.92188,0.0117188,0.00390625,-0.0078125,4,0,41.4282281788778,-91.79812181880791,11070.07978542475,-40.63410848101624,0.8114810879372844,-20.91987886537381,193.412,9031.630405181751,11029.86252269048,150,False,16.938330936996362,False,176.08725858264725,179.30514564276626,False,3.456465735017784,True,False
2,1970-07-23 11:42:54.189256109,2025-09-17,2025-09-26 19:30:18.925,HH,C,1352072910,JASSM,3,103,76,2,2,1,225,9,2,0,1,26,0,0,0,0,-169802.40442069,-4772508.743135299,4218291.667448521,-2.51419,-0.702851,0.608032,54.625,-46.125,-49.625,0.0,0.0,0.0,0.0,0.0,0.0,2,0,41.645553814323314,-92.03768280268012,10000.006491375016,139.85523018931198,-0.0022808536783468,0.004033846631623,,9031.630405181751,11029.86252269048,150,2,2025-09-17,2025-09-26 19:30:18.937,HH,C,1163306122,HAWK11,1,1,73,2,1,1,225,2,1,0,0,12,1,225,2,1,-150425.99841483062,-4789361.685518111,4200501.716276646,2.15409,2.48773,-0.599978,-73.125,66.75,73.0,0.0,-7.3125,6.89062,0.0292969,0.0078125,-0.0273438,4,0,41.42907511111149,-91.79897509993437,11068.332445455644,-42.11381826610202,0.7339718416075727,-19.047767954709595,193.864,9031.630405181751,11029.86252269048,150,False,16.83020141412242,False,177.56762455364625,179.30926951233414,False,2.0258207961184733,True,False
2,1970-07-23 11:42:54.200277250,2025-09-17,2025-09-26 19:30:20.027,HH,C,1353384804,JASSM,3,103,76,2,2,1,225,9,2,0,1,26,0,0,0,0,-169742.37927420562,-4772559.604463424,4218236.905729771,-2.51419,-0.702851,0.608032,54.625,-46.125,-49.625,0.0,0.0,0.0,0.0,0.0,0.0,2,0,41.6448943375482,-92.03694139906128,10000.002045091793,139.8557228641179,-0.0014195420246351,0.0040321833070868,,9031.630405181751,11029.86252269048,150,2,2025-09-17,2025-09-26 19:30:20.045,HH,C,1164538888,HAWK11,1,1,73,2,1,1,225,2,1,0,0,12,1,225,2,1,-150502.91638358062,-4789292.940400924,4200575.571745396,2.15659,2.51151,-0.579174,-75.625,65.75,71.25,0.09375,-7.40625,6.84375,0.00976562,0.0117188,-0.0195312,4,0,41.42996821354168,-91.7999201911932,11065.587496551856,-43.74024781710318,0.4901673435150441,-18.16488593071627,193.828,9031.630405181751,11029.86252269048,150,False,16.71029223512886,False,179.06326771858195,179.3096246771324,False,0.7045750247676178,True,False
2,1970-07-23 11:42:54.211295870,2025-09-17,2025-09-26 19:30:21.129,HH,C,1354755584,JASSM,3,103,76,2,2,1,225,9,2,0,1,26,0,0,0,0,-169679.65979178375,-4772612.747041549,4218179.686979771,-2.51419,-0.702851,0.608032,54.625,-46.125,-49.625,0.0,0.0,0.0,0.0,0.0,0.0,2,0,41.64420527129462,-92.03616673311618,10000.000439470849,139.8562376354431,-0.0005195824932677,0.0040304561501533,,9031.630405181751,11029.86252269048,150,2,2025-09-17,2025-09-26 19:30:20.937,HH,C,1165692120,HAWK11,1,1,73,2,1,1,225,2,1,0,0,12,1,225,2,1,-150577.69568045562,-4789229.241182174,4200643.733854771,2.17538,2.52829,-0.56949,-77.875,64.75,69.75,0.078125,-7.3125,6.875,0.0292969,0.00390625,-0.0195312,4,0,41.4307932613541,-91.80083785181478,11062.73123061406,-44.71785137707514,0.5599534194945388,-16.574983132620854,193.987,9031.630405181751,11029.86252269048,150,False,16.591999949496653,False,179.58503089289886,179.3057297829454,False,1.061974619200364,True,False
2,1970-07-23 11:42:54.222318511,2025-09-17,2025-09-26 19:30:22.231,HH,C,1356067936,JASSM,3,103,76,2,2,1,225,9,2,0,1,26,0,0,0,0,-169619.6135271353,-4772663.623994674,4218124.905729771,-2.51419,-0.702851,0.608032,54.625,-46.125,-49.625,0.0,0.0,0.0,0.0,0.0,0.0,2,0,41.64354556434301,-92.03542510055344,9999.999526126923,139.8567304492896,0.000342022921042,0.0040287992250595,,9031.630405181751,11029.86252269048,150,2,2025-09-17,2025-09-26 19:30:22.343,HH,C,1167282784,HAWK11,1,1,73,2,1,1,225,2,1,0,0,12,1,225,2,1,-150683.11169608062,-4789143.477510299,4200735.003386021,2.28247,2.549,-0.548302,-80.125,63.5,68.25,-0.0625,-6.9375,6.53125,0.224609,-0.00390625,-0.0117188,4,0,41.43189980218685,-91.8021299969504,11058.17159965834,-46.26500782915024,0.253624209340366,-9.821011724938206,194.488,9031.630405181751,11029.86252269048,150,True,16.452292849813432,False,178.1985268500157,179.29576811954496,False,2.3912067445982723,True,False
2,1970-07-23 11:42:54.233178981,2025-09-17,2025-09-26 19:30:23.317,HH,C,1357381504,JASSM,3,103,76,2,2,1,225,9,2,0,1,26,0,0,0,0,-169559.51159842435,-4772714.547822799,4218070.073698521,-2.51419,-0.702851,0.608128,54.625,-46.125,-49.625,0.0,0.0,0.0,0.0,0.0,0.0,2,0,41.64288524270321,-92.03468279575613,10000.00264595376,139.86044911158615,-0.0032442287875393,0.0040270843733299,,9031.630405181751,11029.86252269048,150,2,2025-09-17,2025-09-26 19:30:23.233,HH,C,1168356484,HAWK11,1,1,73,2,1,1,225,2,1,0,0,12,1,225,2,1,-150754.88903983062,-4789086.156221236,4200795.183073521,2.39608,2.55532,-0.540728,-80.75,63.75,67.625,-0.046875,-6.95312,6.57812,0.0507812,0.00585938,0.00976562,4,0,41.4326335751978,-91.80300943444736,11053.450481689631,-46.78091615087635,0.1169852953107214,-3.125545456468757,194.561,9031.630405181751,11029.86252269048,150,True,16.34156632281399,False,177.86891635176147,179.28686713313368,False,2.676678523454661,True,False
2,1970-07-23 11:42:54.245175976,2025-09-17,2025-09-26 19:30:24.517,HH,C,1358752290,JASSM,3,103,76,2,2,1,225,9,2,0,1,26,0,0,0,0,-169496.79174979156,-4772767.688447799,4218012.851042271,-2.51419,-0.702755,0.608128,54.625,-46.125,-49.625,0.0,0.0,0.0,0.0,0.0,0.0,2,0,41.642196146467626,-92.03390817437877,10000.002756154156,139.8573150782695,-0.0049898654044049,0.0008881819359467,,9031.630405181751,11029.86252269048,150,2,2025-09-17,2025-09-26 19:30:24.439,HH,C,1169748316,HAWK11,1,1,73,2,1,1,225,2,1,0,0,12,1,225,2,1,-150849.12146170562,-4789011.391572799,4200873.042448521,2.46194,2.54401,-0.560766,-80.875,63.625,67.875,0.171875,-7.67188,7.15625,0.00195312,0.0117188,0.00390625,4,0,41.43358624280578,-91.8041638447656,11045.974041915242,-45.62590529694811,0.6543542753503445,0.3167108945960508,195.209,9031.630405181751,11029.86252269048,150,True,16.21061256790305,False,177.86899977504046,179.2748738881351,False,2.714204347636728,True,False
2,1970-07-23 11:42:54.256219331,2025-09-17,2025-09-26 19:30:25.621,HH,C,1360065222,JASSM,3,103,76,2,2,1,225,9,2,0,1,26,0,0,0,0,-169436.718873815,-4772818.582979049,4217958.042448521,-2.51419,-0.702755,0.608128,54.625,-46.125,-49.625,0.0,0.0,0.0,0.0,0.0,0.0,2,0,41.64153614141734,-92.03316626135232,9999.997397468112,139.85780805917008,-0.0041278858146443,0.0008865224672874,,9031.630405181751,11029.86252269048,150,2,2025-09-17,2025-09-26 19:30:25.733,HH,C,1171338980,HAWK11,1,1,73,2,1,1,225,2,1,0,0,12,1,225,2,1,-150956.79724295562,-4788926.098604049,4200963.233854771,2.45312,2.53826,-0.562492,-80.75,63.625,68.25,0.046875,-7.01562,6.67188,0.00195312,-0.00195312,0.00195312,4,0,41.4346822475364,-91.80548293568428,11040.441062181191,-45.348036350749,0.5562751420399586,-0.361344610178324,195.294,9031.630405181751,11029.86252269048,150,True,16.070602672172488,False,178.00330380949575,179.26090721644954,False,2.6177889983507825,True,False
2,1970-07-23 11:42:54.267219865,2025-09-17,2025-09-26 19:30:26.721,HH,C,1361376992,JASSM,3,103,76,2,2,1,225,9,2,0,1,26,0,0,0,0,-169376.69909842435,-4772869.434541549,4217903.280729771,-2.51419,-0.702755,0.608128,54.625,-46.125,-49.625,0.0,0.0,0.0,0.0,0.0,0.0,2,0,41.64087669227297,-92.03242501839104,9999.998291299482,139.8583005884284,-0.0032666503406764,0.0008848503337115,,9031.630405181751,11029.86252269048,150,2,2025-09-17,2025-09-26 19:30:26.639,HH,C,1172452446,HAWK11,1,1,73,2,1,1,225,2,1,0,0,12,1,225,2,1,-151032.61169608062,-4788865.557588424,4201027.011198521,2.45168,2.53586,-0.562971,-80.75,63.875,68.5,-0.109375,-7.20312,6.64062,-0.00976562,-0.00585938,0.0,4,0,41.43545867567478,-91.80641191716256,11035.952221652462,-45.24114048343538,0.5054713920071142,-0.5160602879378433,195.441,9031.630405181751,11029.86252269048,150,True,15.956557908418839,False,178.11016115003645,179.25093554683087,False,2.5223476457174145,True,False
