Subject_cm,Timestamp,SampleDate_cm,SampleTime_cm,Configuration_cm,Scenario_cm,DisTime_cm,MarkingTxt_cm,Application_cm,EntId_cm,Site_cm,ExerciseId_cm,ForceId_cm,Category_cm,Country_cm,Domain_cm,Kind_cm,Extra_cm,Specific_cm,Subcategory_cm,AltCategory_cm,AltCountry_cm,AltDomain_cm,AltKind_cm,ECEF_X_cm,ECEF_Y_cm,ECEF_Z_cm,OriPhi_cm,OriPsi_cm,OriTheta_cm,LinVelX_cm,LinVelY_cm,LinVelZ_cm,LinAccX_cm,LinAccY_cm,LinAccZ_cm,AngVelX_cm,AngVelY_cm,AngVelZ_cm,DrAlg_cm,Appearance_cm,Latitude_cm,Longitude_cm,Altitude_cm,Heading_cm,Pitch_cm,Roll_cm,CalibratedAirspeed_cm,CM_Altitude_Lead_cm,CM_Altitude_Wing_cm,CM_Airspeed_cm,Subject_ac,SampleDate_ac,SampleTime_ac,Configuration_ac,Scenario_ac,DisTime_ac,MarkingTxt_ac,Application_ac,EntId_ac,Site_ac,ExerciseId_ac,ForceId_ac,Category_ac,Country_ac,Domain_ac,Kind_ac,Extra_ac,Specific_ac,Subcategory_ac,AltCategory_ac,AltCountry_ac,AltDomain_ac,AltKind_ac,ECEF_X_ac,ECEF_Y_ac,ECEF_Z_ac,OriPhi_ac,OriPsi_ac,OriTheta_ac,LinVelX_ac,LinVelY_ac,LinVelZ_ac,LinAccX_ac,LinAccY_ac,LinAccZ_ac,AngVelX_ac,AngVelY_ac,AngVelZ_ac,DrAlg_ac,Appearance_ac,Latitude_ac,Longitude_ac,Altitude_ac,Heading_ac,Pitch_ac,Roll_ac,CalibratedAirspeed_ac,CM_Altitude_Lead_ac,CM_Altitude_Wing_ac,CM_Airspeed_ac,Bank_Angle_Condition,distance_nm,Distance_Condition,angle_between_vel,angle_between_pos,Cone_Condition,angle_between_pos_nose,Nose_Cone_Condition,Intercept_Criteria
2,1970-07-23 10:13:45.702915262,2025-09-11,2025-09-26 14:56:10.291,HA,C,2108468814,JASSM,3,117,76,2,2,1,225,9,2,0,1,26,0,0,0,0,-188293.43591483065,-4786083.454072799,4202204.231901646,-2.30155,-0.153302,0.128183,91.75,-14.0,-11.875,0.0,0.0,0.0,0.0,0.0,0.0,2,0,41.45210092207256,-92.25296077971106,10000.001457451062,99.81602864810648,-0.0045267393656817,0.0023911222903715,,8907.031340764672,11074.134321271986,150,2,2025-09-11,2025-09-26 14:56:10.097,HA,C,3690538064,AMBUSH51,1,1,48,2,1,1,225,2,1,0,0,9,1,225,2,1,-140308.59514140137,-4795071.002509758,4193377.008405362,2.40184,2.64127,-0.46044,-94.9201,49.696,52.2087,-0.0539017,-7.04635,6.33413,0.00955305,0.0044119,-0.00144913,4,0,41.34883821970419,-91.67605383345514,8904.98055454518,-52.97148106871269,-0.6685980773564838,-0.3964648728361876,205.877,8907.031340764672,11074.134321271986,150,True,26.673391895917383,False,154.0146011794055,176.47898237854918,False,22.51502471486036,True,False
2,1970-07-23 10:13:45.712254753,2025-09-11,2025-09-26 14:56:11.225,HA,C,2109661860,JASSM,3,117,76,2,2,1,225,9,2,0,1,26,0,0,0,0,-188201.7034929556,-4786097.635713424,4202192.269011021,-2.30155,-0.153302,0.128183,91.75,-14.0,-11.875,0.0,0.0,0.0,0.0,0.0,0.0,2,0,41.45195728327023,-92.25185765136148,9999.999988023825,99.81675891112036,-0.0036875493252256,0.0023905498271852,,8907.031340764672,11074.134321271986,150,2,2025-09-11,2025-09-26 14:56:11.297,HA,C,3691969664,AMBUSH51,1,1,48,2,1,1,225,2,1,0,0,9,1,225,2,1,-140422.15536515773,-4795011.306676667,4193438.943807609,2.40299,2.64133,-0.458459,-95.1618,50.1237,52.0296,-0.0552384,-7.11613,6.39969,-0.00655283,-0.00116825,0.00613047,4,0,41.34959172488435,-91.6774304615128,8900.445013690829,-53.050686537616194,-0.7495233699740761,-0.3276831111507444,206.378,8907.031340764672,11074.134321271986,150,True,26.552491370924823,False,154.0307435524607,176.53443195530258,False,22.561044839777576,True,False
2,1970-07-23 10:13:45.723275352,2025-09-11,2025-09-26 14:56:12.327,HA,C,2110974212,JASSM,3,117,76,2,2,1,225,9,2,0,1,26,0,0,0,0,-188100.8011492056,-4786113.237275924,4202179.106901646,-2.30155,-0.153302,0.128183,91.75,-14.0,-11.875,0.0,0.0,0.0,0.0,0.0,0.0,2,0,41.4517992373632,-92.2506442546596,10000.00184292329,99.81756216858643,-0.00276446367065,0.0023898845555743,,8907.031340764672,11074.134321271986,150,2,2025-09-11,2025-09-26 14:56:12.531,HA,C,3693441028,AMBUSH51,1,1,48,2,1,1,225,2,1,0,0,9,1,225,2,1,-140540.25936183095,-4794948.963682345,4193503.15009166,2.4103,2.64184,-0.45706,-95.3427,50.403,52.0046,-0.218265,-7.13418,6.53573,0.0153496,-0.00330711,0.00317811,4,0,41.350375498726045,-91.67886229603016,8894.65313079798,-53.12494939008465,-0.7900412938613002,0.1052760182640369,206.781,8907.031340764672,11074.134321271986,150,True,26.423763700289157,False,154.02061597560274,176.5921701985373,False,22.633273317702645,True,False
2,1970-07-23 10:13:45.733313951,2025-09-11,2025-09-26 14:56:13.331,HA,C,2112226910,JASSM,3,117,76,2,2,1,225,9,2,0,1,26,0,0,0,0,-188004.48278983065,-4786128.125947799,4202166.544401646,-2.30155,-0.153302,0.128183,91.75,-14.0,-11.875,0.0,0.0,0.0,0.0,0.0,0.0,2,0,41.45164839517911,-92.24948598988712,10000.002179956353,99.81832892687038,-0.0018833211970317,0.0023892843474391,,8907.031340764672,11074.134321271986,150,2,2025-09-11,2025-09-26 14:56:13.303,HA,C,3694355660,AMBUSH51,1,1,48,2,1,1,225,2,1,0,0,9,1,225,2,1,-140613.5261164137,-4794910.007211972,4193543.123810953,2.41631,2.63829,-0.453819,-95.4968,50.5748,52.2606,-0.10911,-7.16428,6.54663,-0.00280776,-0.00225432,0.00163223,4,0,41.350864348463446,-91.67975066218897,8890.682385416027,-53.11391046351432,-1.0493820528909208,0.359880400316266,207.27,8907.031340764672,11074.134321271986,150,True,26.32542280705496,False,153.94870455561895,176.62625125564108,False,22.739678885785043,True,False
2,1970-07-23 10:13:45.743374634,2025-09-11,2025-09-26 14:56:14.337,HA,C,2113419958,JASSM,3,117,76,2,2,1,225,9,2,0,1,26,0,0,0,0,-187912.75232108065,-4786142.305635299,4202154.577604771,-2.30155,-0.153302,0.128183,91.75,-14.0,-11.875,0.0,0.0,0.0,0.0,0.0,0.0,2,0,41.45150470786757,-92.24838290113291,10000.001782295654,99.81905915711611,-0.0010441464211223,0.0023886936994015,,8907.031340764672,11074.134321271986,150,2,2025-09-11,2025-09-26 14:56:14.464,HA,C,3695747492,AMBUSH51,1,1,48,2,1,1,225,2,1,0,0,9,1,225,2,1,-140724.3008445891,-4794850.69474826,4193603.794436657,2.42786,2.63537,-0.454179,-95.5839,51.0072,52.5575,-0.12357,-7.1644,6.45317,-0.00112456,-0.000311049,-0.00187566,4,0,41.351607472285735,-91.68109398648696,8884.17588027624,-52.98871993655697,-1.1334766144202784,0.9455132366637526,207.808,8907.031340764672,11074.134321271986,150,True,26.20619345940918,False,153.78150457270638,176.68232211695778,False,22.966072882257297,True,False
2,1970-07-23 10:13:45.756526947,2025-09-11,2025-09-26 14:56:15.652,HA,C,2114672656,JASSM,3,117,76,2,2,1,225,9,2,0,1,26,0,0,0,0,-187816.4339617056,-4786157.192354049,4202142.011198521,-2.30145,-0.153206,0.128183,91.75,-14.0,-11.875,0.0,0.0,0.0,0.0,0.0,0.0,2,0,41.45135382818592,-92.24722464775522,9999.99851657383,99.81618953364053,-0.0042199397003775,0.0071774828801935,,8907.031340764672,11074.134321271986,150,2,2025-09-11,2025-09-26 14:56:15.631,HA,C,3697139324,AMBUSH51,1,1,48,2,1,1,225,2,1,0,0,9,1,225,2,1,-140836.33574046026,-4794790.367908774,4193665.343441261,2.43283,2.63401,-0.455513,-95.6024,51.4459,52.776,-0.092226,-7.29555,6.55005,-0.00577469,-0.0108867,0.0169995,4,0,41.35236232448146,-91.6824527434058,8877.177361107832,-52.88669777546304,-1.121719027601472,1.194456134812619,208.333,8907.031340764672,11074.134321271986,150,True,26.083643540038775,False,153.61600704380498,176.739641267908,False,23.192930011790295,True,False
2,1970-07-23 10:13:45.764404578,2025-09-11,2025-09-26 14:56:16.440,HA,C,2115865702,JASSM,3,117,76,2,2,1,225,9,2,0,1,26,0,0,0,0,-187724.7034929556,-4786171.370088424,4202130.042448521,-2.30145,-0.153206,0.128279,91.75,-14.0,-11.875,0.0,0.0,0.0,0.0,0.0,0.0,2,0,41.45121011763634,-92.24612156989754,9999.998297040804,99.82101027200444,-0.0070471903598499,0.0071764650058889,,8907.031340764672,11074.134321271986,150,2,2025-09-11,2025-09-26 14:56:16.398,HA,C,3698053958,AMBUSH51,1,1,48,2,1,1,225,2,1,0,0,9,1,225,2,1,-140909.61794552137,-4794750.893960755,4193705.691979776,2.43606,2.63409,-0.458054,-95.6209,51.4441,53.1046,-0.201403,-7.42817,6.6373,0.01345,-0.00154484,0.00567482,4,0,41.35285675254399,-91.68334153089349,8872.763979101755,-52.7930875959426,-1.0098087138968468,1.3795877264433245,208.724,8907.031340764672,11074.134321271986,150,True,25.98776192545179,False,153.5288082470222,176.77559865977508,False,23.31438608453106,True,False
2,1970-07-23 10:13:45.774346953,2025-09-11,2025-09-26 14:56:17.434,HA,C,2117118396,JASSM,3,117,76,2,2,1,225,9,2,0,1,26,0,0,0,0,-187628.38513358065,-4786186.254854049,4202117.476042271,-2.30145,-0.153206,0.128279,91.75,-14.0,-11.875,0.0,0.0,0.0,0.0,0.0,0.0,2,0,41.45105922680659,-92.2449633279153,9999.999912421084,99.82177700631948,-0.0061660486166726,0.007175868323765,,8907.031340764672,11074.134321271986,150,2,2025-09-11,2025-09-26 14:56:17.298,HA,C,3699127656,AMBUSH51,1,1,48,2,1,1,225,2,1,0,0,9,1,225,2,1,-140994.9362260826,-4794704.724917211,4193752.9000533833,2.43963,2.63341,-0.461808,-95.5701,51.7048,53.2923,-0.0670903,-7.32654,6.51897,0.00680667,-0.00245822,-0.00203586,4,0,41.353435208548106,-91.68437638711096,8867.614074977977,-52.624577774362855,-0.8715694511296567,1.5638692904013882,208.908,8907.031340764672,11074.134321271986,150,True,25.881840098979833,False,153.3969286531677,176.81879639844723,False,23.491785497227834,True,False
2,1970-07-23 10:13:45.784318837,2025-09-11,2025-09-26 14:56:18.431,HA,C,2118311448,JASSM,3,117,76,2,2,1,225,9,2,0,1,26,0,0,0,0,-187536.65466483065,-4786200.430635299,4202105.505339146,-2.30145,-0.153206,0.128279,91.75,-14.0,-11.875,0.0,0.0,0.0,0.0,0.0,0.0,2,0,41.45091549301938,-92.24386026095466,9999.999870979062,99.82250721368004,-0.0053268745746796,0.0071752808773749,,8907.031340764672,11074.134321271986,150,2,2025-09-11,2025-09-26 14:56:18.465,HA,C,3700519488,AMBUSH51,1,1,48,2,1,1,225,2,1,0,0,9,1,225,2,1,-141106.90268253506,-4794643.990292648,4193815.4635672593,2.43274,2.6328,-0.466883,-95.4664,51.8794,53.6878,-0.114578,-7.4319,6.65526,-0.0153017,-0.00908284,0.00114953,4,0,41.354199312783095,-91.68573454826917,8861.8307380639,-52.40832997432582,-0.674297095530667,1.1508339771969986,209.323,8907.031340764672,11074.134321271986,150,True,25.761769281262364,False,153.21256980907557,176.87889096103865,False,23.736354880687387,True,False
2,1970-07-23 10:13:45.795341422,2025-09-11,2025-09-26 14:56:19.534,HA,C,2119564146,JASSM,3,117,76,2,2,1,225,9,2,0,1,26,0,0,0,0,-187440.3363054556,-4786215.313447799,4202092.935026646,-2.30145,-0.153206,0.128279,91.75,-14.0,-11.875,0.0,0.0,0.0,0.0,0.0,0.0,2,0,41.45076456469269,-92.24270203036856,9999.997883638069,99.8232739359701,-0.0044457309504556,0.0071746694845745,,8907.031340764672,11074.134321271986,150,2,2025-09-11,2025-09-26 14:56:19.597,HA,C,3701871554,AMBUSH51,1,1,48,2,1,1,225,2,1,0,0,9,1,225,2,1,-141214.31493808998,-4794585.391315815,4193876.319343488,2.41845,2.6296,-0.467677,-95.4363,51.8257,54.2842,-0.226679,-7.15661,6.4629,-0.0428779,-0.00540643,0.00352557,4,0,41.35493996688622,-91.68703761490568,8857.282835830008,-52.25667936131924,-0.7481162221884727,0.247397737000544,209.788,8907.031340764672,11074.134321271986,150,True,25.641947092854018,False,153.04846107284317,176.93751372946681,False,23.95543872153442,True,False
2,1970-07-23 10:13:45.805255464,2025-09-11,2025-09-26 14:56:20.525,HA,C,2120757194,JASSM,3,117,76,2,2,1,225,9,2,0,1,26,0,0,0,0,-187348.6058367056,-4786229.487275924,4202080.964323521,-2.30145,-0.153206,0.128279,91.75,-14.0,-11.875,0.0,0.0,0.0,0.0,0.0,0.0,2,0,41.45062082084285,-92.24159897430552,10000.002262152904,99.82400413184624,-0.0036065595245137,0.0071740932947018,,8907.031340764672,11074.134321271986,150,2,2025-09-11,2025-09-26 14:56:20.364,HA,C,3702786186,AMBUSH51,1,1,48,2,1,1,225,2,1,0,0,9,1,225,2,1,-141287.50721862377,-4794545.42334693,4193917.8493428314,2.38964,2.62739,-0.466926,-95.5476,51.9072,54.3799,-0.0408287,-7.26059,6.5167,-0.0299658,0.00181324,0.00767011,4,0,41.35544529435584,-91.68792557408968,8854.230719644813,-52.2015421176005,-0.8544527673707027,-1.4609709928156631,210.069,8907.031340764672,11074.134321271986,150,True,25.54601587540636,False,153.0342561543946,176.97618219801882,False,24.00959136884724,True,False
2,1970-07-23 10:13:45.816303159,2025-09-11,2025-09-26 14:56:21.630,HA,C,2122069544,JASSM,3,117,76,2,2,1,225,9,2,0,1,26,0,0,0,0,-187247.70153983065,-4786245.075166549,4202067.794401646,-2.30145,-0.153206,0.128279,91.75,-14.0,-11.875,0.0,0.0,0.0,0.0,0.0,0.0,2,0,41.45046269584358,-92.24038561047644,9999.999372862025,99.82480734633388,-0.0026834661134203,0.0071734658101852,,8907.031340764672,11074.134321271986,150,2,2025-09-11,2025-09-26 14:56:21.497,HA,C,3704138250,AMBUSH51,1,1,48,2,1,1,225,2,1,0,0,9,1,225,2,1,-141396.5628977279,-4794486.170714881,4193979.359970429,2.3576,2.63466,-0.464865,-95.9009,51.7364,54.2668,-0.11599,-7.48832,6.71412,-0.0134875,0.000321452,-0.00692318,4,0,41.35619394541955,-91.6892485439426,8849.628812084735,-52.55891311633753,-0.6935864484471012,-3.104558936991249,210.533,8907.031340764672,11074.134321271986,150,True,25.422751098022953,False,153.2097978645902,177.03592829566725,False,23.895119715720888,True,False
2,1970-07-23 10:13:45.827736308,2025-09-11,2025-09-26 14:56:22.773,HA,C,2123262590,JASSM,3,117,76,2,2,1,225,9,2,0,1,26,0,0,0,0,-187155.9691179556,-4786259.247041549,4202055.819792271,-2.30145,-0.153206,0.128279,91.75,-14.0,-11.875,0.0,0.0,0.0,0.0,0.0,0.0,2,0,41.450318915507786,-92.23928254220978,9999.999724738802,99.82553754591504,-0.0018442756425895,0.0071728783457126,,8907.031340764672,11074.134321271986,150,2,2025-09-11,2025-09-26 14:56:22.667,HA,C,3705530082,AMBUSH51,1,1,48,2,1,1,225,2,1,0,0,9,1,225,2,1,-141508.56796881283,-4794425.906065373,4194042.383536319,2.33858,2.64334,-0.46612,-96.381,51.3512,54.0876,-0.0727314,-7.53423,6.87904,-0.0102729,0.00450137,0.00262883,4,0,41.35695830070777,-91.69060711736284,8846.039676243829,-52.842302881852426,-0.3419509113242457,-3.9688776437888342,210.741,8907.031340764672,11074.134321271986,150,True,25.302768207312262,False,153.4915274430819,177.09803709463108,False,23.675411011571086,True,False
2,1970-07-23 10:13:45.836377364,2025-09-11,2025-09-26 14:56:23.637,HA,C,2124455636,JASSM,3,117,76,2,2,1,225,9,2,0,1,26,0,0,0,0,-187064.2386492056,-4786273.416963424,4202043.845182896,-2.30145,-0.153206,0.128279,91.75,-14.0,-11.875,0.0,0.0,0.0,0.0,0.0,0.0,2,0,41.45017513576417,-92.2381795030719,9999.9999622444,99.82626772413028,-0.001005104972529,0.0071722987463446,,8907.031340764672,11074.134321271986,150,2,2025-09-11,2025-09-26 14:56:23.704,HA,C,3706762848,AMBUSH51,1,1,48,2,1,1,225,2,1,0,0,9,1,225,2,1,-141607.67566913718,-4794373.251232794,4194098.1822933024,2.3229,2.64774,-0.463769,-96.8594,50.7481,54.241,-0.101179,-7.5603,6.75955,-0.00988179,0.000881132,-0.0114152,4,0,41.35763086103714,-91.69180904169772,8844.592672598155,-53.10047176895112,-0.2898110108238316,-4.752794726458375,211.095,8907.031340764672,11074.134321271986,150,True,25.190903810754374,False,153.72821333872884,177.1524322511539,False,23.48816120647543,True,False
2,1970-07-23 10:13:45.846375203,2025-09-11,2025-09-26 14:56:24.637,HA,C,2125708336,JASSM,3,117,76,2,2,1,225,9,2,0,1,26,0,0,0,0,-186967.92028983065,-4786288.293916549,4202031.270964146,-2.30145,-0.15311,0.128279,91.75,-14.0,-11.875,0.0,0.0,0.0,0.0,0.0,0.0,2,0,41.450024158756335,-92.23702130156236,9999.999412113237,99.82339814126432,-0.0041808971353323,0.0064691023862684,,8907.031340764672,11074.134321271986,150,2,2025-09-11,2025-09-26 14:56:24.465,HA,C,3707677480,AMBUSH51,1,1,48,2,1,1,225,2,1,0,0,9,1,225,2,1,-141682.036483845,-4794334.405441332,4194139.69617909,2.30601,2.65241,-0.462423,-97.2742,50.1519,54.2472,-0.169376,-7.67056,6.78391,-0.0140326,0.00432036,0.000933147,4,0,41.35812916729325,-91.6927106322654,8844.376767412346,-53.330247536603565,-0.1852228331268483,-5.599708749139836,211.169,8907.031340764672,11074.134321271986,150,True,25.092024123111486,False,153.98483023017545,177.1911483233167,False,23.26624394171175,True,False
2,1970-07-23 10:13:45.857397075,2025-09-11,2025-09-26 14:56:25.739,HA,C,2127020688,JASSM,3,117,76,2,2,1,225,9,2,0,1,26,0,0,0,0,-186867.0159929556,-4786303.879854049,4202018.097136021,-2.30145,-0.15311,0.128375,91.75,-14.0,-11.875,0.0,0.0,0.0,0.0,0.0,0.0,2,0,41.449865970736894,-92.23580796088174,10000.003769496096,99.82829189585507,-0.0069241762816632,0.0064680380439961,,8907.031340764672,11074.134321271986,150,2,2025-09-11,2025-09-26 14:56:25.597,HA,C,3709029546,AMBUSH51,1,1,48,2,1,1,225,2,1,0,0,9,1,225,2,1,-141793.28478343776,-4794277.533277002,4194201.010829304,2.28675,2.66546,-0.461868,-97.9875,49.1619,53.98,0.0139679,-7.85448,7.10819,0.00261843,0.0198166,-0.00304911,4,0,41.35886190376676,-91.69405905314515,8845.404646198594,-53.84660432510804,0.2443743248433492,-6.3699570646162185,211.45,8907.031340764672,11074.134321271986,150,True,24.967958527265942,False,154.49525773437577,177.2505417409638,False,22.81036018368483,True,False
2,1970-07-23 10:13:45.868463505,2025-09-11,2025-09-26 14:56:26.846,HA,C,2128333038,JASSM,3,117,76,2,2,1,225,9,2,0,1,26,0,0,0,0,-186766.1097429556,-4786319.461885299,4202004.921354771,-2.30145,-0.15311,0.128375,91.75,-14.0,-11.875,0.0,0.0,0.0,0.0,0.0,0.0,2,0,41.44970778044844,-92.23459460457396,9999.999540796476,99.82909509341734,-0.0060010668088012,0.0064674161528079,,8907.031340764672,11074.134321271986,150,2,2025-09-11,2025-09-26 14:56:27.030,HA,C,3710739510,AMBUSH51,1,1,48,2,1,1,225,2,1,0,0,9,1,225,2,1,-141934.5795607827,-4794207.797622301,4194278.018198903,2.27809,2.6787,-0.458036,-99.0074,47.7192,53.686,-0.0272733,-7.8055,6.89926,-4.47328e-05,0.013837,-0.00996709,4,0,41.3597718157048,-91.6957708228176,8850.989715090072,-54.49573592402064,0.5462869009626453,-6.534350238891453,211.34,8907.031340764672,11074.134321271986,150,True,24.825659295005345,False,155.19842429825798,177.3259318990636,False,22.17443303137162,True,False
2,1970-07-23 10:13:45.879274795,2025-09-11,2025-09-26 14:56:27.927,HA,C,2129585738,JASSM,3,117,76,2,2,1,225,9,2,0,1,26,0,0,0,0,-186669.7933367056,-4786334.336885299,4201992.343229771,-2.30145,-0.15311,0.128375,91.75,-14.0,-11.875,0.0,0.0,0.0,0.0,0.0,0.0,2,0,41.44955675216069,-92.23343644394588,10000.001241725216,99.82986175110572,-0.0051199417969051,0.0064668013872998,,8907.031340764672,11074.134321271986,150,2,2025-09-11,2025-09-26 14:56:27.812,HA,C,3711654142,AMBUSH51,1,1,48,2,1,1,225,2,1,0,0,9,1,225,2,1,-142010.48357280402,-4794171.278619161,4194319.286224945,2.27643,2.68839,-0.45598,-99.3865,46.8333,53.7397,-0.00370374,-7.81025,6.98217,0.00114953,-0.00266628,-0.011952,4,0,41.360254325983945,-91.69669007672552,8856.100153449888,-54.94087299181948,0.8013223493301891,-6.38951416773482,211.205,8907.031340764672,11074.134321271986,150,True,24.726265188359154,False,155.48624890121104,177.3637466501838,False,21.918083476779643,True,False
2,1970-07-23 10:13:45.890302356,2025-09-11,2025-09-26 14:56:29.030,HA,C,2130898088,JASSM,3,117,76,2,2,1,225,9,2,0,1,26,0,0,0,0,-186568.8870867056,-4786349.916963424,4201979.165495396,-2.30145,-0.15311,0.128375,91.75,-14.0,-11.875,0.0,0.0,0.0,0.0,0.0,0.0,2,0,41.44939853530302,-92.23222310007122,9999.998607909443,99.83066493550989,-0.0041968326821925,0.0064661777583418,,8907.031340764672,11074.134321271986,150,2,2025-09-11,2025-09-26 14:56:28.897,HA,C,3712966442,AMBUSH51,1,1,48,2,1,1,225,2,1,0,0,9,1,225,2,1,-142119.4619437831,-4794120.537442148,4194377.607901134,2.26984,2.70057,-0.454217,-99.9898,45.6869,53.3608,-0.175186,-7.90965,7.1773,0.0107182,-0.000706362,-0.004905,4,0,41.36093074957315,-91.69800931018968,8865.593660542212,-55.46718794810717,1.1592703709833123,-6.469146190154496,210.961,8907.031340764672,11074.134321271986,150,True,24.604292816310583,False,156.0229596398529,177.41863542359036,False,21.4309677000586,True,False
2,1970-07-23 10:13:45.900392162,2025-09-11,2025-09-26 14:56:30.039,HA,C,2132150786,JASSM,3,117,76,2,2,1,225,9,2,0,1,26,0,0,0,0,-186472.56872733065,-4786364.788057174,4201966.585417271,-2.30145,-0.15311,0.128375,91.75,-14.0,-11.875,0.0,0.0,0.0,0.0,0.0,0.0,2,0,41.44924749366406,-92.2310649289187,9999.996433653105,99.83143159545928,-0.003315693524273,0.0064655760330079,,8907.031340764672,11074.134321271986,150,2,2025-09-11,2025-09-26 14:56:30.033,HA,C,3714318506,AMBUSH51,1,1,48,2,1,1,225,2,1,0,0,9,1,225,2,1,-142233.9017345087,-4794069.104891783,4194438.08395618,2.27008,2.71259,-0.45052,-100.59,44.3875,53.055,-0.20781,-7.85807,7.16717,-0.00173001,0.0121642,-0.0117751,4,0,41.36162485738652,-91.69939402884704,8878.464147052558,-56.06279113928442,1.4344802827125316,-6.168138180032062,210.606,8907.031340764672,11074.134321271986,150,True,24.481753028694836,False,156.56521929400213,177.47546419529513,False,20.938948608834796,True,False
2,1970-07-23 10:13:45.912312353,2025-09-11,2025-09-26 14:56:31.231,HA,C,2133522790,JASSM,3,117,76,2,2,1,225,9,2,0,1,26,0,0,0,0,-186367.0784929556,-4786381.075166549,4201952.808073521,-2.30145,-0.15311,0.128375,91.75,-14.0,-11.875,0.0,0.0,0.0,0.0,0.0,0.0,2,0,41.44908206072989,-92.22979647760918,10000.000998111633,99.8322712535366,-0.0023506491108327,0.0064649218433421,,8907.031340764672,11074.134321271986,150,2,2025-09-11,2025-09-26 14:56:31.330,HA,C,3715869406,AMBUSH51,1,1,48,2,1,1,225,2,1,0,0,9,1,225,2,1,-142365.46481008478,-4794012.364820426,4194506.283017404,2.27323,2.72176,-0.448352,-101.272,43.0258,52.4869,-0.145228,-7.65999,6.90522,0.0113174,0.00930338,-0.00604517,4,0,41.36239964704051,-91.70098512622693,8896.276326365296,-56.49097214057244,1.6741104910712823,-5.771027175695887,210.191,8907.031340764672,11074.134321271986,150,True,24.34411233946352,False,157.22184138645434,177.53893852622232,False,20.340408636337575,True,False
2,1970-07-23 10:13:45.923352687,2025-09-11,2025-09-26 14:56:32.335,HA,C,2134835142,JASSM,3,117,76,2,2,1,225,9,2,0,1,26,0,0,0,0,-186266.1722429556,-4786396.653291549,4201939.626432896,-2.30145,-0.15311,0.128375,91.75,-14.0,-11.875,0.0,0.0,0.0,0.0,0.0,0.0,2,0,41.448923790745575,-92.2285831523335,10000.001406463594,99.83307441806429,-0.0014275380772804,0.0064642834439138,,8907.031340764672,11074.134321271986,150,2,2025-09-11,2025-09-26 14:56:32.396,HA,C,3717141938,AMBUSH51,1,1,48,2,1,1,225,2,1,0,0,9,1,225,2,1,-142472.92384896148,-4793967.024527675,4194561.513020738,2.26787,2.72527,-0.441178,-101.602,42.45,51.8198,-0.0941821,-7.03402,6.35781,-0.00125148,-0.000354741,-0.00115993,4,0,41.36302329490322,-91.7022843838358,8912.278579344926,-56.908371916410125,1.5060851909373651,-6.002600999647519,209.25,8907.031340764672,11074.134321271986,150,True,24.223766778236314,False,157.6500756868837,177.58943331454304,False,19.962604217072716,True,False
2,1970-07-23 10:13:45.934917970,2025-09-11,2025-09-26 14:56:33.491,HA,C,2136207144,JASSM,3,117,76,2,2,1,225,9,2,0,1,26,0,0,0,0,-186160.68200858065,-4786412.936494674,4201925.845182896,-2.30145,-0.153015,0.128375,91.75,-14.0,-11.875,0.0,0.0,0.0,0.0,0.0,0.0,2,0,41.44875832734146,-92.22731471545204,9999.999525060546,99.83027788169122,-0.0045194216083997,0.0057605322190637,,8907.031340764672,11074.134321271986,150,2,2025-09-11,2025-09-26 14:56:33.530,HA,C,3718494002,AMBUSH51,1,1,48,2,1,1,225,2,1,0,0,9,1,225,2,1,-142589.09677039503,-4793918.941555817,4194619.922811888,2.25972,2.73549,-0.438018,-102.066,41.7257,51.0766,-0.0482924,-7.50334,6.69501,-0.0147337,-0.00211701,0.00262467,4,0,41.363683170857584,-91.70368869254608,8929.070867857168,-57.41550008386961,1.74651175606339,-6.235089342476735,209.006,8907.031340764672,11074.134321271986,150,True,24.09585143891534,False,158.17111512005678,177.6427725122835,False,19.494243836878795,True,False
2,1970-07-23 10:13:45.945400488,2025-09-11,2025-09-26 14:56:34.540,HA,C,2137519496,JASSM,3,117,76,2,2,1,225,9,2,0,1,26,0,0,0,0,-186059.77575858065,-4786428.510713424,4201912.661589146,-2.30145,-0.153015,0.128375,91.75,-14.0,-11.875,0.0,0.0,0.0,0.0,0.0,0.0,2,0,41.448600041251865,-92.22610140405594,9999.997223599838,99.83108103192026,-0.0035963136269948,0.0057598448334317,,8907.031340764672,11074.134321271986,150,2,2025-09-11,2025-09-26 14:56:34.663,HA,C,3719846068,AMBUSH51,1,1,48,2,1,1,225,2,1,0,0,9,1,225,2,1,-142704.31917850656,-4793872.451814583,4194676.823343844,2.2501,2.7448,-0.43219,-102.49,40.7372,50.4505,0.0324585,-7.39502,6.64216,0.00227929,0.00249359,-0.00613671,4,0,41.36432352999597,-91.70508111066955,8946.452461411123,-57.99620299129174,1.847783516220877,-6.579698663727728,208.394,8907.031340764672,11074.134321271986,150,True,23.97123875204,False,158.70001114058132,177.69456804716864,False,19.014302253395623,True,False
2,1970-07-23 10:13:45.956432234,2025-09-11,2025-09-26 14:56:35.643,HA,C,2138831848,JASSM,3,117,76,2,2,1,225,9,2,0,1,26,0,0,0,0,-185958.8714617056,-4786444.084932174,4201899.477995396,-2.30145,-0.153015,0.128471,91.75,-14.0,-11.875,0.0,0.0,0.0,0.0,0.0,0.0,2,0,41.448441741909896,-92.2248881219026,10000.000550319011,99.8359747705354,-0.0063395465984351,0.0057588322342373,,8907.031340764672,11074.134321271986,150,2,2025-09-11,2025-09-26 14:56:35.597,HA,C,3720959534,AMBUSH51,1,1,48,2,1,1,225,2,1,0,0,9,1,225,2,1,-142800.07873709497,-4793834.726942223,4194723.336079913,2.24334,2.75344,-0.427892,-102.823,40.0782,49.6948,-0.0296883,-7.42391,6.5628,-0.00123483,-0.0057206,-0.00752447,4,0,41.36484504217411,-91.70623802239832,8961.466666717035,-58.49036792270277,1.9891674299840656,-6.777330309747671,208.223,8907.031340764672,11074.134321271986,150,True,23.858500465227866,False,159.18074239593335,177.735774777041,False,18.574336840240818,True,False
2,1970-07-23 10:13:45.967254152,2025-09-11,2025-09-26 14:56:36.725,HA,C,2140144198,JASSM,3,117,76,2,2,1,225,9,2,0,1,26,0,0,0,0,-185857.9652117056,-4786459.657197799,4201886.292448521,-2.30145,-0.153015,0.128471,91.75,-14.0,-11.875,0.0,0.0,0.0,0.0,0.0,0.0,2,0,41.44828342867071,-92.22367482321052,10000.00009108958,99.83677790734508,-0.0054164389247784,0.0057582090135657,,8907.031340764672,11074.134321271986,150,2,2025-09-11,2025-09-26 14:56:36.764,HA,C,3722351364,AMBUSH51,1,1,48,2,1,1,225,2,1,0,0,9,1,225,2,1,-142921.03944442316,-4793788.288735681,4194780.899344541,2.23313,2.7638,-0.422761,-103.308,39.2099,48.6925,-0.110879,-7.50683,6.72331,0.00334456,0.00279528,-0.00918271,4,0,41.36548852147797,-91.7076989914211,8980.850578033009,-59.082651978300014,2.162968931023755,-7.138474872540319,207.722,8907.031340764672,11074.134321271986,150,True,23.730869810990107,False,159.83037687414134,177.78762530019807,False,17.975843438530195,True,False
2,1970-07-23 10:13:45.980615682,2025-09-11,2025-09-26 14:56:38.061,HA,C,2141456548,JASSM,3,117,76,2,2,1,225,9,2,0,1,26,0,0,0,0,-185757.06091483065,-4786475.227510299,4201873.106901646,-2.30145,-0.153015,0.128471,91.75,-14.0,-11.875,0.0,0.0,0.0,0.0,0.0,0.0,2,0,41.44812511380641,-92.22246155466824,10000.00046037366,99.83758102167376,-0.0044933510449533,0.0057575936491904,,8907.031340764672,11074.134321271986,150,2,2025-09-11,2025-09-26 14:56:38.030,HA,C,3723862496,AMBUSH51,1,1,48,2,1,1,225,2,1,0,0,9,1,225,2,1,-143052.48246852087,-4793739.204476887,4194842.237837349,2.22587,2.77452,-0.415776,-103.777,38.2077,47.7307,-0.151002,-7.39231,6.63752,0.00706674,-0.00182572,-0.00420592,4,0,41.36617135319622,-91.70928610478488,9002.687705104394,-59.7637896964898,2.278328369810676,-7.330745459411816,206.696,8907.031340764672,11074.134321271986,150,True,23.597219420053015,False,160.49304648708585,177.84283693811187,False,17.366653065730194,True,False
2,1970-07-23 10:13:45.989334561,2025-09-11,2025-09-26 14:56:38.933,HA,C,2142768900,JASSM,3,117,76,2,2,1,225,9,2,0,1,26,0,0,0,0,-185656.1566179556,-4786490.797822799,4201859.919401646,-2.30145,-0.153015,0.128471,91.75,-14.0,-11.875,0.0,0.0,0.0,0.0,0.0,0.0,2,0,41.44796677296716,-92.22124829202524,10000.002029493362,99.83838412957542,-0.003570260888654,0.0057569652543413,,8907.031340764672,11074.134321271986,150,2,2025-09-11,2025-09-26 14:56:38.964,HA,C,3724975962,AMBUSH51,1,1,48,2,1,1,225,2,1,0,0,9,1,225,2,1,-143149.31955655458,-4793703.902178889,4194886.646875909,2.21545,2.78492,-0.411421,-104.057,37.1987,47.3206,-0.0213069,-7.49761,6.64728,-0.0288214,0.000242389,-0.0185745,4,0,41.36666401624578,-91.71045508029331,9019.205780855593,-60.32641554892741,2.491058584522646,-7.7114194141419325,206.085,8907.031340764672,11074.134321271986,150,True,23.484354953033797,False,160.9175527377168,177.88127369916984,False,16.976721663861404,True,False
2,1970-07-23 10:13:46.002993041,2025-09-11,2025-09-26 14:56:40.299,HA,C,2144021600,JASSM,3,117,76,2,2,1,225,9,2,0,1,26,0,0,0,0,-185559.8363054556,-4786505.657197799,4201847.329557896,-2.30145,-0.153015,0.128471,91.75,-14.0,-11.875,0.0,0.0,0.0,0.0,0.0,0.0,2,0,41.44781562514032,-92.22009015389725,9999.99664842563,99.83915074596344,-0.0026891090256918,0.0057563766582372,,8907.031340764672,11074.134321271986,150,2,2025-09-11,2025-09-26 14:56:40.297,HA,C,3726566628,AMBUSH51,1,1,48,2,1,1,225,2,1,0,0,9,1,225,2,1,-143287.30191999773,-4793654.9518952025,4194948.18926128,2.15357,2.78515,-0.398366,-104.675,36.6374,45.5488,-0.0419739,-6.71039,6.0137,-0.0495254,-0.00825684,-0.00797388,4,0,41.36734622587922,-91.71212028860258,9042.316631513017,-60.868380049377926,1.9752331177158131,-11.272961234557563,205.4,8907.031340764672,11074.134321271986,150,False,23.34982557875025,False,161.81526960303043,177.93607780782975,False,16.13745836245165,True,False
2,1970-07-23 10:13:46.011351650,2025-09-11,2025-09-26 14:56:41.135,HA,C,2145333950,JASSM,3,117,76,2,2,1,225,9,2,0,1,26,0,0,0,0,-185458.93200858065,-4786521.225557174,4201834.140104771,-2.30145,-0.153015,0.128471,91.75,-14.0,-11.875,0.0,0.0,0.0,0.0,0.0,0.0,2,0,41.44765725773462,-92.2188769036916,9999.999812221406,99.83995384070018,-0.0017660192235496,0.0057557465256313,,8907.031340764672,11074.134321271986,150,2,2025-09-11,2025-09-26 14:56:41.163,HA,C,3727600560,AMBUSH51,1,1,48,2,1,1,225,2,1,0,0,9,1,225,2,1,-143378.27991218006,-4793623.211849727,4194986.875224379,2.10426,2.78783,-0.382266,-105.263,36.4299,43.9281,-0.000266224,-6.46096,5.76756,-0.0640126,-0.00444311,-0.018743,4,0,41.36778006462681,-91.71321806140442,9054.776896094709,-61.62576948734335,1.4292400137715635,-14.062193638167738,205.107,8907.031340764672,11074.134321271986,150,False,23.240847789885457,False,162.5749962039407,177.96833335471652,False,15.41619254761903,True,False
2,1970-07-23 10:13:46.023312972,2025-09-11,2025-09-26 14:56:42.331,HA,C,2146646300,JASSM,3,117,76,2,2,1,225,9,2,0,1,26,0,0,0,0,-185358.02575858065,-4786536.791963424,4201820.950651646,-2.30145,-0.152919,0.128471,91.75,-14.0,-11.875,0.0,0.0,0.0,0.0,0.0,0.0,2,0,41.44749888960624,-92.21766363694712,10000.00343214526,99.83712085955402,-0.0048998368245757,0.0050515392925449,,8907.031340764672,11074.134321271986,150,2,2025-09-11,2025-09-26 14:56:42.364,HA,C,3729032158,AMBUSH51,1,1,48,2,1,1,225,2,1,0,0,9,1,225,2,1,-143506.8335844393,-4793579.530131225,4195037.668878431,2.01626,2.79301,-0.358367,-106.653,35.8684,40.8197,0.0523189,-6.76222,5.96977,-0.0590192,0.00225849,-0.023776,4,0,41.36835998457469,-91.71476884094022,9066.87433963391,-62.79647903592343,0.666400560333814,-19.01825903038796,204.57,8907.031340764672,11074.134321271986,150,False,23.110136403737258,False,164.1152032707474,178.01104489780656,False,13.933346847860285,True,False
2,1970-07-23 10:13:46.032412719,2025-09-11,2025-09-26 14:56:43.241,HA,C,2147899000,JASSM,3,117,76,2,2,1,225,9,2,0,1,26,0,0,0,0,-185261.7073992056,-4786551.649385299,4201808.358854771,-2.30145,-0.152919,0.128471,91.75,-14.0,-11.875,0.0,0.0,0.0,0.0,0.0,0.0,2,0,41.44734770368169,-92.21650553970883,10000.004542652743,99.83788744180497,-0.0040187024959851,0.0050508895638529,,8907.031340764672,11074.134321271986,150,2,2025-09-11,2025-09-26 14:56:43.130,HA,C,3729946790,AMBUSH51,1,1,48,2,1,1,225,2,1,0,0,9,1,225,2,1,-143588.2946829653,-4793552.442365252,4195067.788886506,1.99157,2.7989,-0.337732,-107.63,35.3591,38.7016,-0.0395326,-6.65974,5.80773,-0.0184289,-0.00753695,-0.0247913,4,0,41.36870997397997,-91.7157513308473,9071.52215503068,-63.8627295045626,0.06485686101584,-20.32456437113972,204.716,8907.031340764672,11074.134321271986,150,False,23.009795082284157,False,165.18992828796135,178.03412382398318,False,12.894315888967121,True,False
2,1970-07-23 10:13:46.043270279,2025-09-11,2025-09-26 14:56:44.327,HA,C,2149211350,JASSM,3,117,76,2,2,1,225,9,2,0,1,26,0,0,0,0,-185160.8011492056,-4786567.211885299,4201795.165495396,-2.30145,-0.152919,0.128471,91.75,-14.0,-11.875,0.0,0.0,0.0,0.0,0.0,0.0,2,0,41.44718930743801,-92.21529228630592,10000.00071626127,99.83869053124847,-0.0030955989567465,0.00505021219447,,8907.031340764672,11074.134321271986,150,2,2025-09-11,2025-09-26 14:56:44.200,HA,C,3731219322,AMBUSH51,1,1,48,2,1,1,225,2,1,0,0,9,1,225,2,1,-143704.69568251242,-4793514.852746639,4195107.316155423,1.96386,2.81041,-0.308733,-109.182,34.6977,35.3093,-0.0292918,-6.61537,5.93814,-0.0219908,0.00048998,-0.0263747,4,0,41.36917970713751,-91.71715484337987,9073.304165653157,-65.48939353224064,-0.6474357070129296,-21.69435556933139,204.606,8907.031340764672,11074.134321271986,150,False,22.886938827379602,False,166.8406322358919,178.06420835744117,False,11.30539318355858,True,False
2,1970-07-23 10:13:46.054294629,2025-09-11,2025-09-26 14:56:45.429,HA,C,2150523704,JASSM,3,117,76,2,2,1,225,9,2,0,1,26,0,0,0,0,-185059.89685233065,-4786582.774385299,4201781.972136021,-2.30145,-0.152919,0.128567,91.75,-14.0,-11.875,0.0,0.0,0.0,0.0,0.0,0.0,2,0,41.44703089794544,-92.21407906214878,10000.002517102466,99.8435842544793,-0.0058387857080134,0.0050492453580667,,8907.031340764672,11074.134321271986,150,2,2025-09-11,2025-09-26 14:56:45.629,HA,C,3732929288,AMBUSH51,1,1,48,2,1,1,225,2,1,0,0,9,1,225,2,1,-143862.06061157797,-4793466.522795803,4195154.752609145,1.93727,2.82764,-0.274237,-111.401,33.0222,31.2031,-0.0798731,-7.277,6.21892,-0.0232891,0.00352349,-0.0292376,4,0,41.36975939340068,-91.71905142103722,9068.837478212276,-67.56887579160693,-1.3407228577972523,-22.897888003101976,205.364,8907.031340764672,11074.134321271986,150,False,22.741035853287574,False,169.09545103755727,178.0982412974758,False,9.130033372379655,True,False
2,1970-07-23 10:13:46.066307455,2025-09-11,2025-09-26 14:56:46.630,HA,C,2151895706,JASSM,3,117,76,2,2,1,225,9,2,0,1,26,0,0,0,0,-184954.40466483065,-4786599.041963424,4201768.177214146,-2.30145,-0.152919,0.128567,91.75,-14.0,-11.875,0.0,0.0,0.0,0.0,0.0,0.0,2,0,41.44686527580666,-92.21281068289976,10000.000370455808,99.84442382810118,-0.00487373004283,0.0050486057575682,,8907.031340764672,11074.134321271986,150,2,2025-09-11,2025-09-26 14:56:46.630,HA,C,3734122286,AMBUSH51,1,1,48,2,1,1,225,2,1,0,0,9,1,225,2,1,-143974.33367642804,-4793434.13021134,4195184.464744765,1.93366,2.84596,-0.25306,-113.08,31.4118,28.3499,-0.0754307,-7.564,6.77656,-0.00851067,-0.00168008,-0.0262727,4,0,41.37013262990375,-91.72040381895248,9061.841208074902,-69.14739879898372,-1.4464709848187212,-22.792873256367173,205.902,8907.031340764672,11074.134321271986,150,False,22.619109440063806,False,170.78777175971317,178.11512550645264,False,7.494883938547036,True,False
2,1970-07-23 10:13:46.075352897,2025-09-11,2025-09-26 14:56:47.535,HA,C,2153029100,JASSM,3,117,76,2,2,1,225,9,2,0,1,26,0,0,0,0,-184867.2581804556,-4786612.481416549,4201756.780729771,-2.30145,-0.152919,0.128567,91.75,-14.0,-11.875,0.0,0.0,0.0,0.0,0.0,0.0,2,0,41.44672843649396,-92.21176288660716,10000.004039356598,99.84511738997573,-0.0040765012401648,0.0050480682638831,,8907.031340764672,11074.134321271986,150,2,2025-09-11,2025-09-26 14:56:47.632,HA,C,3735315284,AMBUSH51,1,1,48,2,1,1,225,2,1,0,0,9,1,225,2,1,-144088.37446667446,-4793403.648581546,4195211.144839213,1.91868,2.86111,-0.227843,-114.738,29.5765,25.3761,-0.196297,-7.57946,6.74533,-0.00941781,0.00371698,-0.0328474,4,0,41.37047369380864,-91.7217766578702,9053.111382621566,-70.77777040177354,-1.8269992259243768,-23.398074086817577,206.219,8907.031340764672,11074.134321271986,150,False,22.506732178054556,False,172.55425131557172,178.1276828940959,False,5.80571519524058,True,False
2,1970-07-23 10:13:46.086372498,2025-09-11,2025-09-26 14:56:48.637,HA,C,2154341450,JASSM,3,117,76,2,2,1,225,9,2,0,1,26,0,0,0,0,-184766.3519304556,-4786628.040010299,4201743.583464146,-2.30145,-0.152919,0.128567,91.75,-14.0,-11.875,0.0,0.0,0.0,0.0,0.0,0.0,2,0,41.44656998711901,-92.21054965808152,10000.003402537266,99.84592045311956,-0.003153398357976,0.0050474533243554,,8907.031340764672,11074.134321271986,150,2,2025-09-11,2025-09-26 14:56:48.630,HA,C,3736508284,AMBUSH51,1,1,48,2,1,1,225,2,1,0,0,9,1,225,2,1,-144204.01598290092,-4793375.170000847,4195234.906836018,1.91024,2.88094,-0.205168,-116.327,27.3321,22.4442,0.06248,-7.83197,6.69448,0.00660485,0.0081112,-0.0308958,4,0,41.37078283632502,-91.72316790900284,9043.109449738571,-72.48607106339675,-1.905922925864161,-23.58162833111147,206.513,8907.031340764672,11074.134321271986,150,False,22.38639282185816,False,174.39982441322132,178.1345992943284,False,4.0692751802123235,True,False
2,1970-07-23 10:13:46.096416819,2025-09-11,2025-09-26 14:56:49.641,HA,C,2155474844,JASSM,3,117,76,2,2,1,225,9,2,0,1,26,0,0,0,0,-184679.2073992056,-4786641.475557174,4201732.185026646,-2.30145,-0.152919,0.128567,91.75,-14.0,-11.875,0.0,0.0,0.0,0.0,0.0,0.0,2,0,41.446433136834735,-92.20950189643725,10000.00217428225,99.8466139879954,-0.0023561897324185,0.0050469220149368,,8907.031340764672,11074.134321271986,150,2,2025-09-11,2025-09-26 14:56:49.530,HA,C,3737581982,AMBUSH51,1,1,48,2,1,1,225,2,1,0,0,9,1,225,2,1,-144309.23392658486,-4793351.492192857,4195253.681327514,1.90949,2.90179,-0.180464,-117.599,25.3028,19.7406,-0.0949093,-7.79459,6.73639,-0.000972678,0.00427874,-0.0243419,4,0,41.37103159754056,-91.72443296647504,9033.34236989144,-74.32293828369856,-2.009039137626113,-23.332835015816823,206.794,8907.031340764672,11074.134321271986,150,False,22.279889115815855,False,176.01474810853048,178.13640782908064,False,2.6907817380633374,True,False
2,1970-07-23 10:13:46.105272708,2025-09-11,2025-09-26 14:56:50.527,HA,C,2156548586,JASSM,3,117,76,2,2,1,225,9,2,0,1,26,0,0,0,0,-184596.64685233065,-4786654.204072799,4201721.384245396,-2.30145,-0.152823,0.128567,91.75,-14.0,-11.875,0.0,0.0,0.0,0.0,0.0,0.0,2,0,41.44630346511372,-92.20850925344132,9999.999852319,99.84363504791298,-0.0056578307689683,0.0043423414887402,,8907.031340764672,11074.134321271986,150,2,2025-09-11,2025-09-26 14:56:50.563,HA,C,3738814748,AMBUSH51,1,1,48,2,1,1,225,2,1,0,0,9,1,225,2,1,-144431.40697041195,-4793326.553501744,4195272.292605776,1.91917,2.92217,-0.156549,-118.947,23.0401,16.5336,-0.0968165,-7.87254,6.79497,0.0349904,0.00992132,-0.0221719,4,0,41.37128370224089,-91.7259009729845,9021.38173650312,-76.11294697297738,-2.088141512536216,-22.51826446748901,207.502,8907.031340764672,11074.134321271986,150,False,22.166919306713755,False,177.68285781277038,178.13397789923584,False,1.9505621377216595,True,False
2,1970-07-23 10:13:46.114314397,2025-09-11,2025-09-26 14:56:51.431,HA,C,2157622328,JASSM,3,117,76,2,2,1,225,9,2,0,1,26,0,0,0,0,-184514.08825858065,-4786666.930635299,4201710.585417271,-2.30145,-0.152823,0.128567,91.75,-14.0,-11.875,0.0,0.0,0.0,0.0,0.0,0.0,2,0,41.44617380917848,-92.207516638642,10000.00080006197,99.8442920765749,-0.0049025772280282,0.0043417999255785,,8907.031340764672,11074.134321271986,150,2,2025-09-11,2025-09-26 14:56:51.431,HA,C,3739848680,AMBUSH51,1,1,48,2,1,1,225,2,1,0,0,9,1,225,2,1,-144534.91784532732,-4793307.59939843,4195285.263451452,1.95113,2.94235,-0.134963,-119.935,20.8839,14.2436,-0.0254978,-8.1876,6.72784,0.0508945,0.0167623,-0.0373685,4,0,41.37146545514972,-91.72714396555222,9010.54120958691,-77.79937218811601,-2.075552411598811,-20.458451811251177,207.722,8907.031340764672,11074.134321271986,150,False,22.06471682264052,False,178.65646267163766,178.12666322694335,False,2.3772116569234196,True,False
2,1970-07-23 10:13:46.123371474,2025-09-11,2025-09-26 14:56:52.337,HA,C,2158755724,JASSM,3,117,76,2,2,1,225,9,2,0,1,26,0,0,0,0,-184426.9417742056,-4786680.364229049,4201699.185026646,-2.30145,-0.152823,0.128567,91.75,-14.0,-11.875,0.0,0.0,0.0,0.0,0.0,0.0,2,0,41.44603693016017,-92.20646886730138,10000.00209442928,99.8449856124582,-0.0041053518188251,0.0043412197108071,,8907.031340764672,11074.134321271986,150,2,2025-09-11,2025-09-26 14:56:52.401,HA,C,3741001912,AMBUSH51,1,1,48,2,1,1,225,2,1,0,0,9,1,225,2,1,-144652.2245405035,-4793288.676335448,4195297.705660094,1.99446,2.97714,-0.124468,-121.021,17.6495,12.259,-0.359802,-9.61267,8.36327,0.027596,0.0181293,-0.0239841,4,0,41.37164096446513,-91.728551711151,8999.661041168485,-79.57208083094726,-1.0108095912086947,-17.66965353207654,207.967,8907.031340764672,11074.134321271986,150,False,21.952820690367695,False,178.38834113436863,178.11437081548604,False,3.4844090577315048,True,False
2,1970-07-23 10:13:46.133391506,2025-09-11,2025-09-26 14:56:53.339,HA,C,2159948770,JASSM,3,117,76,2,2,1,225,9,2,0,1,26,0,0,0,0,-184335.20935233065,-4786694.502900924,4201687.183073521,-2.30145,-0.152823,0.128567,91.75,-14.0,-11.875,0.0,0.0,0.0,0.0,0.0,0.0,2,0,41.445892837729566,-92.20536596435844,9999.999761612822,99.84571563875691,-0.0032661743540761,0.0043406087450248,,8907.031340764672,11074.134321271986,150,2,2025-09-11,2025-09-26 14:56:53.331,HA,C,3742115378,AMBUSH51,1,1,48,2,1,1,225,2,1,0,0,9,1,225,2,1,-144764.63830764045,-4793274.097294624,4195308.112268193,2.00713,3.00622,-0.12349,-121.704,13.8076,11.1938,-0.281565,-9.54899,8.44432,-0.00268085,0.0256132,-0.0359038,4,0,41.37177775776213,-91.72989946523316,8994.700812305466,-80.71791889466108,0.1850849616526067,-16.72956388038048,208.113,8907.031340764672,11074.134321271986,150,False,21.84152594744065,False,176.9869943259033,178.0983107813803,False,4.81827548047091,True,False
2,1970-07-23 10:13:46.143269280,2025-09-11,2025-09-26 14:56:54.326,HA,C,2161082164,JASSM,3,117,76,2,2,1,225,9,2,0,1,26,0,0,0,0,-184248.0628679556,-4786707.934541549,4201675.780729771,-2.30145,-0.152823,0.128567,91.75,-14.0,-11.875,0.0,0.0,0.0,0.0,0.0,0.0,2,0,41.44575593756764,-92.20431820295758,10000.000345929146,99.84640916419292,-0.0024689493049811,0.0043400268132565,,8907.031340764672,11074.134321271986,150,2,2025-09-11,2025-09-26 14:56:54.397,HA,C,3743387910,AMBUSH51,1,1,48,2,1,1,225,2,1,0,0,9,1,225,2,1,-144895.47497119423,-4793261.5060602,4195319.097315665,1.98451,3.0402,-0.115207,-122.133,9.49498,9.7391,-0.142888,-9.43913,8.34661,-0.0202099,0.0206551,-0.01159,4,0,41.37190331175994,-91.73146652332882,8997.263834335623,-82.35763010727771,1.3159460278334585,-17.815057929511518,207.612,8907.031340764672,11074.134321271986,150,False,21.723227489715516,False,174.97599596809724,178.07655782394085,False,6.7119008038862775,True,False
2,1970-07-23 10:13:46.152312959,2025-09-11,2025-09-26 14:56:55.231,HA,C,2162215556,JASSM,3,117,76,2,2,1,225,9,2,0,1,26,0,0,0,0,-184160.91736014312,-4786721.366182174,4201664.376432896,-2.30145,-0.152823,0.128663,91.75,-14.0,-11.875,0.0,0.0,0.0,0.0,0.0,0.0,2,0,41.44561901446065,-92.20327045763368,10000.000839887622,99.8511933782085,-0.0053379530209729,0.0043391799143065,,8907.031340764672,11074.134321271986,150,2,2025-09-11,2025-09-26 14:56:55.068,HA,C,3744183242,AMBUSH51,1,1,48,2,1,1,225,2,1,0,0,9,1,225,2,1,-144976.93950422516,-4793255.986438347,4195325.166898269,1.97858,3.06011,-0.106231,-122.239,6.83486,8.90044,-0.192958,-9.10878,7.9165,-0.00233339,0.021452,-0.0324604,4,0,41.37196247864837,-91.73244140584222,9002.903997873793,-83.49492005062888,1.8256796938691435,-18.06028516442248,206.794,8907.031340764672,11074.134321271986,150,False,21.63181746650624,False,173.71576861994114,178.0591280998341,False,7.926678647440306,True,False
2,1970-07-23 10:13:46.161352045,2025-09-11,2025-09-26 14:56:56.135,HA,C,2163289300,JASSM,3,117,76,2,2,1,225,9,2,0,1,26,0,0,0,0,-184078.35778983065,-4786734.088838424,4201653.573698521,-2.30145,-0.152823,0.128663,91.75,-14.0,-11.875,0.0,0.0,0.0,0.0,0.0,0.0,2,0,41.445489310433786,-92.20227785382345,10000.002838286544,99.85185039070052,-0.0045826915693904,0.0043386905334964,,8907.031340764672,11074.134321271986,150,2,2025-09-11,2025-09-26 14:56:56.129,HA,C,3745455774,AMBUSH51,1,1,48,2,1,1,225,2,1,0,0,9,1,225,2,1,-145106.6861610757,-4793250.567314788,4195333.1063130535,1.98646,3.08735,-0.0897066,-122.263,3.13475,7.00808,-0.0609447,-8.86582,7.64771,0.0391807,0.020963,-0.0226088,4,0,41.372024979216526,-91.73399286194224,9016.4459874517,-85.23438283938351,2.366688464422376,-17.51949367475369,205.828,8907.031340764672,11074.134321271986,150,False,21.517500084288002,False,171.7797607850035,178.0296187423012,False,9.8649916993102,True,False
2,1970-07-23 10:13:46.173470457,2025-09-11,2025-09-26 14:56:57.347,HA,C,2164422692,JASSM,3,117,76,2,2,1,225,9,2,0,1,26,0,0,0,0,-183991.21228201807,-4786747.516572799,4201642.169401646,-2.30145,-0.152823,0.128663,91.75,-14.0,-11.875,0.0,0.0,0.0,0.0,0.0,0.0,2,0,41.445352391990426,-92.2012301188738,10000.0016365565,99.8525438931054,-0.0037854780571034,0.0043381733930657,,8907.031340764672,11074.134321271986,150,2,2025-09-11,2025-09-26 14:56:57.429,HA,C,3747006672,AMBUSH51,1,1,48,2,1,1,225,2,1,0,0,9,1,225,2,1,-145265.45670429943,-4793248.912216934,4195340.244981883,2.02784,3.11966,-0.074123,-121.892,-0.91289,4.97479,-0.0646201,-8.65472,7.40877,0.0353524,0.0306087,-0.0157678,4,0,41.37205444053516,-91.73588957374464,9039.68767342217,-87.12614692933128,3.164655613350124,-15.088037171963132,204.325,8907.031340764672,11074.134321271986,150,False,21.38588677349587,False,169.6653730739693,177.9875050133003,False,12.002131310769887,True,False
2,1970-07-23 10:13:46.180278356,2025-09-11,2025-09-26 14:56:58.027,HA,C,2165496434,JASSM,3,117,76,2,2,1,225,9,2,0,1,26,0,0,0,0,-183908.6527117056,-4786760.237275924,4201631.362761021,-2.30145,-0.152823,0.128663,91.75,-14.0,-11.875,0.0,0.0,0.0,0.0,0.0,0.0,2,0,41.44522265562794,-92.20023752408814,9999.997840164124,99.85320089614903,-0.0030302147134475,0.0043376693213524,,8907.031340764672,11074.134321271986,150,2,2025-09-11,2025-09-26 14:56:58.129,HA,C,3747841772,AMBUSH51,1,1,48,2,1,1,225,2,1,0,0,9,1,225,2,1,-145350.64095461395,-4793250.074725379,4195343.175829109,2.05151,3.13599,-0.0690537,-121.518,-2.90851,4.12871,-0.125274,-8.52756,7.70075,0.0411781,0.0149605,-0.0208361,4,0,41.37205196890159,-91.73690646205952,9055.258951999162,-87.9622541459887,3.6754594556737743,-13.715057667653808,203.384,8907.031340764672,11074.134321271986,150,False,21.29591481843147,False,168.65156822361226,177.9604859776667,False,13.030421642701137,True,False
2,1970-07-23 10:13:46.193313201,2025-09-11,2025-09-26 14:56:59.331,HA,C,2166629828,JASSM,3,117,76,2,2,1,225,9,2,0,1,26,0,0,0,0,-183821.50622733065,-4786773.665010299,4201619.956511021,-2.30145,-0.152727,0.128663,91.75,-14.0,-11.875,0.0,0.0,0.0,0.0,0.0,0.0,2,0,41.445085705643926,-92.19918978604598,10000.00020857434,99.8502585031902,-0.0062899017129616,0.0036325926086247,,8907.031340764672,11074.134321271986,150,2,2025-09-11,2025-09-26 14:56:59.463,HA,C,3749432436,AMBUSH51,1,1,48,2,1,1,225,2,1,0,0,9,1,225,2,1,-145511.70812877003,-4793256.024947956,4195346.807797942,2.19599,-3.12443,-0.0597715,-120.465,-5.77329,2.6394,-0.14494,-8.06246,7.04894,0.278,0.0178817,-0.0159238,4,0,41.3720120631077,-91.73882783930704,9089.80403992626,-89.22447598945176,4.304395202591745,-5.440517912275562,201.441,8907.031340764672,11074.134321271986,150,True,21.1640999566908,False,167.11553854684624,177.90736851254957,False,14.616695632678477,True,False
2,1970-07-23 10:13:46.199366834,2025-09-11,2025-09-26 14:56:59.936,HA,C,2167703570,JASSM,3,117,76,2,2,1,225,9,2,0,1,26,0,0,0,0,-183738.94665701807,-4786786.383760299,4201609.149870396,-2.30145,-0.152727,0.128663,91.75,-14.0,-11.875,0.0,0.0,0.0,0.0,0.0,0.0,2,0,41.444955963297566,-92.1981972002852,9999.999100263774,99.85091549682284,-0.0055346410185568,0.0036320518813762,,8907.031340764672,11074.134321271986,150,2,2025-09-11,2025-09-26 14:56:59.831,HA,C,3749869870,AMBUSH51,1,1,48,2,1,1,225,2,1,0,0,9,1,225,2,1,-145556.60947335645,-4793258.13071497,4195347.685063799,2.31188,-3.11728,-0.0590598,-120.122,-5.9616,2.58536,-0.331407,-8.05073,6.8617,0.32117,0.00219815,-0.00581422,4,0,41.37199736155932,-91.73936330572408,9100.243465483189,-89.52622829419525,4.585486250777444,1.2003002946597687,200.928,8907.031340764672,11074.134321271986,150,True,21.095477803194285,False,167.01918207865384,177.8888959830459,False,14.730587255339028,True,False
2,1970-07-23 10:13:46.210113041,2025-09-11,2025-09-26 14:57:01.011,HA,C,2169015922,JASSM,3,117,76,2,2,1,225,9,2,0,1,26,0,0,0,0,-183638.04040701807,-4786801.928682174,4201595.940886021,-2.30145,-0.152727,0.128663,91.75,-14.0,-11.875,0.0,0.0,0.0,0.0,0.0,0.0,2,0,41.44479737314533,-92.1969840440841,10000.000263955646,99.85171848398087,-0.0046115429301979,0.0036313866290621,,8907.031340764672,11074.134321271986,150,2,2025-09-11,2025-09-26 14:57:01.130,HA,C,3751420768,AMBUSH51,1,1,48,2,1,1,225,2,1,0,0,9,1,225,2,1,-145712.16594677628,-4793265.15134367,4195351.759202508,2.52321,-3.13115,-0.0746636,-118.986,-5.15876,4.29646,-0.290379,-7.34363,6.38177,0.160714,-0.0166645,0.0333738,4,0,41.37195503295816,-91.7412184723254,9137.986287201287,-88.32867787643508,4.579992378197051,13.351357711321883,198.679,8907.031340764672,11074.134321271986,150,False,20.959095061395242,False,167.7161962446277,177.8352237651193,False,14.044533498618488,True,False
2,1970-07-23 10:13:46.221440209,2025-09-11,2025-09-26 14:57:02.144,HA,C,2170268622,JASSM,3,117,76,2,2,1,225,9,2,0,1,26,0,0,0,0,-183541.72107108065,-4786816.766572799,4201583.331511021,-2.30145,-0.152727,0.128663,91.75,-14.0,-11.875,0.0,0.0,0.0,0.0,0.0,0.0,2,0,41.44464597688985,-92.19582604024502,10000.00365008636,99.85248496347492,-0.0037304058429381,0.0036307483681597,,8907.031340764672,11074.134321271986,150,2,2025-09-11,2025-09-26 14:57:02.129,HA,C,3752613766,AMBUSH51,1,1,48,2,1,1,225,2,1,0,0,9,1,225,2,1,-145829.84343241277,-4793269.062427949,4195356.0237095095,2.66064,3.12845,-0.081609,-118.105,-2.80196,5.37809,-0.369081,-6.48518,5.72408,0.0810028,-0.00217526,0.00242077,4,0,41.37193930210899,-91.74262239671366,9165.665575187704,-87.13937596363259,3.8301532776787983,21.20776201375069,197.445,8907.031340764672,11074.134321271986,150,False,20.844759059459673,False,168.96209372636866,177.79520935519955,False,12.849734751957238,True,False
2,1970-07-23 10:13:46.231272858,2025-09-11,2025-09-26 14:57:03.127,HA,C,2171580972,JASSM,3,117,76,2,2,1,225,9,2,0,1,26,0,0,0,0,-183440.81482108065,-4786832.307588424,4201570.118620396,-2.30145,-0.152727,0.128663,91.75,-14.0,-11.875,0.0,0.0,0.0,0.0,0.0,0.0,2,0,41.44448735862497,-92.19461289738229,9999.997367297903,99.8532879368634,-0.0028073084965067,0.0036300797361029,,8907.031340764672,11074.134321271986,150,2,2025-09-11,2025-09-26 14:57:03.062,HA,C,3753727232,AMBUSH51,1,1,48,2,1,1,225,2,1,0,0,9,1,225,2,1,-145939.39490486478,-4793269.71868441,4195361.016018787,2.68232,3.10169,-0.103131,-117.158,0.366487,6.55736,-0.275432,-6.94715,5.99474,0.0154495,0.000462932,0.0438184,4,0,41.371949293400974,-91.74393045688446,9186.311425931584,-85.20258056742209,3.496022009027244,22.43231825366729,196.431,8907.031340764672,11074.134321271986,150,False,20.731812982301964,False,170.60509316935756,177.76002578778375,False,11.270521020992604,True,False
2,1970-07-23 10:13:46.242293550,2025-09-11,2025-09-26 14:57:04.229,HA,C,2172893324,JASSM,3,117,76,2,2,1,225,9,2,0,1,26,0,0,0,0,-183339.90759451807,-4786847.848604049,4201556.907682896,-2.30145,-0.152727,0.128663,91.75,-14.0,-11.875,0.0,0.0,0.0,0.0,0.0,0.0,2,0,41.44432874096176,-92.19339974875628,10000.000675503685,99.85409091153768,-0.0018842047972165,0.0036294257533615,,8907.031340764672,11074.134321271986,150,2,2025-09-11,2025-09-26 14:57:04.096,HA,C,3754959998,AMBUSH51,1,1,48,2,1,1,225,2,1,0,0,9,1,225,2,1,-146060.22495795053,-4793267.130906769,4195368.672980134,2.70213,3.07176,-0.115741,-116.326,4.01434,8.42373,-0.254192,-6.86306,6.07833,0.0268116,-0.00282649,0.0194796,4,0,41.371994511793886,-91.74537438749527,9205.604056501064,-83.53309378363133,2.693067189173355,23.46989270042216,196.089,8907.031340764672,11074.134321271986,150,False,20.612456483873355,False,172.62724805081666,177.7262297572199,False,9.295253690231009,True,False
2,1970-07-23 10:13:46.253293296,2025-09-11,2025-09-26 14:57:05.329,HA,C,2174207886,JASSM,3,117,76,2,2,1,225,9,2,0,1,26,0,0,0,0,-183238.83142264312,-4786863.415010299,4201543.671354771,-2.30145,-0.152727,0.128759,91.75,-14.0,-11.875,0.0,0.0,0.0,0.0,0.0,0.0,2,0,41.44416982657296,-92.1921845752118,10000.000793080106,99.85898597053254,-0.0046257243464953,0.0036285531454197,,8907.031340764672,11074.134321271986,150,2,2025-09-11,2025-09-26 14:57:05.365,HA,C,3756471130,AMBUSH51,1,1,48,2,1,1,225,2,1,0,0,9,1,225,2,1,-146207.54835065408,-4793259.040494097,4195380.705371043,2.69004,3.04027,-0.134895,-115.22,7.98342,10.7105,-0.149892,-6.9713,6.06368,-0.0184767,0.00690237,0.0421851,4,0,41.37209717653893,-91.74713671290998,9222.839186259514,-81.52550448220057,2.078218152093849,22.63548824578572,194.879,8907.031340764672,11074.134321271986,150,False,20.47829009836296,False,174.91007817655142,177.692518718287,False,7.043236699985248,True,False
2,1970-07-23 10:13:46.267716742,2025-09-11,2025-09-26 14:57:06.771,HA,C,2175518026,JASSM,3,117,76,2,2,1,225,9,2,0,1,26,0,0,0,0,-183138.09509451807,-4786878.926729049,4201530.477995396,-2.30145,-0.152727,0.128759,91.75,-14.0,-11.875,0.0,0.0,0.0,0.0,0.0,0.0,2,0,41.444011437347214,-92.19097349436376,9999.99723559581,99.85978757154658,-0.0037041824377131,0.0036279513696474,,8907.031340764672,11074.134321271986,150,2,2025-09-11,2025-09-26 14:57:06.768,HA,C,3758141328,AMBUSH51,1,1,48,2,1,1,225,2,1,0,0,9,1,225,2,1,-146367.0842444478,-4793244.649350264,4195397.401786951,2.64944,3.00758,-0.17162,-113.829,12.0812,13.7721,-0.136027,-7.85961,7.20376,-0.0805221,0.0200725,0.0216059,4,0,41.3722665603616,-91.74904718393104,9235.611555272128,-78.72246597310887,2.0914749140216493,20.12546518453604,194.573,8907.031340764672,11074.134321271986,150,False,20.336958105575768,False,177.3671016614151,177.6646201730852,False,4.471166146575686,True,False
2,1970-07-23 10:13:46.275329234,2025-09-11,2025-09-26 14:57:07.532,HA,C,2176890028,JASSM,3,117,76,2,2,1,225,9,2,0,1,26,0,0,0,0,-183032.6019304556,-4786895.170869674,4201516.661589146,-2.30145,-0.152631,0.128759,91.75,-14.0,-11.875,0.0,0.0,0.0,0.0,0.0,0.0,2,0,41.4438455551925,-92.18970523181588,9999.99909278386,99.85699121944296,-0.0067960308028586,0.0029222826846506,,8907.031340764672,11074.134321271986,150,2,2025-09-11,2025-09-26 14:57:07.529,HA,C,3759055960,AMBUSH51,1,1,48,2,1,1,225,2,1,0,0,9,1,225,2,1,-146454.15465236423,-4793234.394231091,4195408.759300287,2.6145,2.98693,-0.176636,-113.147,13.8786,15.4449,-0.136847,-6.8277,5.99898,-0.0268574,-0.00872289,0.0360744,4,0,41.37238842981634,-91.75009074695794,9241.548173144009,-77.73227168392165,1.4145260307422935,17.948845747906898,194.194,8907.031340764672,11074.134321271986,150,False,20.231732575317647,False,178.2784170060746,177.65075908395,False,3.2449797099928235,True,False
2,1970-07-23 10:13:46.286112958,2025-09-11,2025-09-26 14:57:08.611,HA,C,2178202380,JASSM,3,117,76,2,2,1,225,9,2,0,1,26,0,0,0,0,-182931.6956804556,-4786910.707979049,4201503.444792271,-2.30145,-0.152631,0.128759,91.75,-14.0,-11.875,0.0,0.0,0.0,0.0,0.0,0.0,2,0,41.443686869262095,-92.18849212055729,10000.002182969094,99.85779415924402,-0.005872934111186,0.0029216178511525,,8907.031340764672,11074.134321271986,150,2,2025-09-11,2025-09-26 14:57:08.662,HA,C,3760408026,AMBUSH51,1,1,48,2,1,1,225,2,1,0,0,9,1,225,2,1,-146581.66954756077,-4793216.948516041,4195427.020061944,2.58073,2.96776,-0.19611,-112.083,16.6157,17.1054,-0.0733856,-7.36222,6.26227,-0.043731,0.0068566,0.0237614,4,0,41.37259231467919,-91.75161994074747,9247.806419897915,-76.18148312269852,1.3583151742550017,15.847998862910764,194.011,8907.031340764672,11074.134321271986,150,False,20.106632635165298,False,178.6841647093565,177.63733808739124,False,1.5902630426229647,True,False
2,1970-07-23 10:13:46.297132622,2025-09-11,2025-09-26 14:57:09.713,HA,C,2179514732,JASSM,3,117,76,2,2,1,225,9,2,0,1,26,0,0,0,0,-182830.78845389312,-4786926.241182174,4201490.226042271,-2.30145,-0.152631,0.128759,91.75,-14.0,-11.875,0.0,0.0,0.0,0.0,0.0,0.0,2,0,41.443528180832764,-92.18727900532193,9999.996781982423,99.85859709914688,-0.0049498318544858,0.0029209643829727,,8907.031340764672,11074.134321271986,150,2,2025-09-11,2025-09-26 14:57:09.762,HA,C,3761720324,AMBUSH51,1,1,48,2,1,1,225,2,1,0,0,9,1,225,2,1,-146704.58317379444,-4793197.059717516,4195446.886558189,2.54562,2.94691,-0.209231,-111.235,18.8839,18.7202,-0.0562602,-7.12557,6.3266,-0.0372936,0.00346939,0.0260979,4,0,41.37282238761503,-91.75309508611412,9251.196676437983,-74.83971839786176,0.9957594355739864,13.623785718810788,193.889,8907.031340764672,11074.134321271986,150,False,19.9835749163417,False,177.6686081887427,177.62918675764854,False,0.21829345613005108,True,False
2,1970-07-23 10:13:46.308149728,2025-09-11,2025-09-26 14:57:10.814,HA,C,2180767432,JASSM,3,117,76,2,2,1,225,9,2,0,1,26,0,0,0,0,-182734.46814139312,-4786941.069307174,4201477.608854771,-2.30145,-0.152631,0.128759,91.75,-14.0,-11.875,0.0,0.0,0.0,0.0,0.0,0.0,2,0,41.44337669250487,-92.18612103940929,10000.000665790183,99.8593635343117,-0.0040686902137096,0.0029203392328216,,8907.031340764672,11074.134321271986,150,2,2025-09-11,2025-09-26 14:57:10.729,HA,C,3762873556,AMBUSH51,1,1,48,2,1,1,225,2,1,0,0,9,1,225,2,1,-146812.4621710029,-4793177.944533444,4195465.517784708,2.50681,2.93072,-0.215708,-110.681,20.5224,19.8019,-0.223713,-7.09269,6.3132,-0.0442054,0.000548237,0.0147483,4,0,41.373042237151815,-91.7543904087621,9252.686879357389,-73.95542581727268,0.575954192242367,11.216350733089302,193.852,8907.031340764672,11074.134321271986,150,False,19.871064076127407,False,176.7625529920393,177.62423692414652,False,0.8903110216330776,True,False
2,1970-07-23 10:13:46.319270491,2025-09-11,2025-09-26 14:57:11.927,HA,C,2182079782,JASSM,3,117,76,2,2,1,225,9,2,0,1,26,0,0,0,0,-182633.56189139312,-4786956.602510299,4201464.388151646,-2.30145,-0.152631,0.128759,91.75,-14.0,-11.875,0.0,0.0,0.0,0.0,0.0,0.0,2,0,41.4432179656668,-92.18490794739988,10000.00175106518,99.8601664538989,-0.0031455942328841,0.0029196709705839,,8907.031340764672,11074.134321271986,150,2,2025-09-11,2025-09-26 14:57:11.962,HA,C,3764344920,AMBUSH51,1,1,48,2,1,1,225,2,1,0,0,9,1,225,2,1,-146949.43644446833,-4793150.734561365,4195490.969788562,2.45463,2.91181,-0.224788,-110.088,22.4651,20.894,-0.0867825,-7.00328,6.27641,-0.0440431,0.00972158,0.00560824,4,0,41.373350965949086,-91.75603617216348,9251.2491892647,-72.85860664955038,0.1499194859057839,7.997341665140047,194.158,8907.031340764672,11074.134321271986,150,True,19.73950517274724,False,175.70021345833325,177.62373705050288,False,2.0310033187964613,True,False
2,1970-07-23 10:13:46.329329616,2025-09-11,2025-09-26 14:57:12.932,HA,C,2183332480,JASSM,3,117,76,2,2,1,225,9,2,0,1,26,0,0,0,0,-182537.24157889312,-4786971.426729049,4201451.767057896,-2.30145,-0.152631,0.128759,91.75,-14.0,-11.875,0.0,0.0,0.0,0.0,0.0,0.0,2,0,41.44306645036427,-92.183749994299,9999.99770494207,99.86093287586448,-0.002264453329308,0.0029190424450036,,8907.031340764672,11074.134321271986,150,2,2025-09-11,2025-09-26 14:57:12.762,HA,C,3765299320,AMBUSH51,1,1,48,2,1,1,225,2,1,0,0,9,1,225,2,1,-147037.4240840792,-4793132.186126366,4195507.927954824,2.42285,2.90311,-0.227355,-109.821,23.4519,21.3488,-0.0346064,-6.90362,6.14036,-0.0428176,-0.00328006,0.00445559,4,0,41.37355974143023,-91.75709375510586,9249.018733755014,-72.42183933891283,-0.1065550695997434,6.0648488976915536,194.268,8907.031340764672,11074.134321271986,150,True,19.63758353887399,False,175.18438376195658,177.6230071125825,False,2.5846830463585433,True,False
