Subject_cm,Timestamp,SampleDate_cm,SampleTime_cm,Configuration_cm,Scenario_cm,DisTime_cm,MarkingTxt_cm,Application_cm,EntId_cm,Site_cm,ExerciseId_cm,ForceId_cm,Category_cm,Country_cm,Domain_cm,Kind_cm,Extra_cm,Specific_cm,Subcategory_cm,AltCategory_cm,AltCountry_cm,AltDomain_cm,AltKind_cm,ECEF_X_cm,ECEF_Y_cm,ECEF_Z_cm,OriPhi_cm,OriPsi_cm,OriTheta_cm,LinVelX_cm,LinVelY_cm,LinVelZ_cm,LinAccX_cm,LinAccY_cm,LinAccZ_cm,AngVelX_cm,AngVelY_cm,AngVelZ_cm,DrAlg_cm,Appearance_cm,Latitude_cm,Longitude_cm,Altitude_cm,Heading_cm,Pitch_cm,Roll_cm,CalibratedAirspeed_cm,CM_Altitude_Lead_cm,CM_Altitude_Wing_cm,CM_Airspeed_cm,Subject_ac,SampleDate_ac,SampleTime_ac,Configuration_ac,Scenario_ac,DisTime_ac,MarkingTxt_ac,Application_ac,EntId_ac,Site_ac,ExerciseId_ac,ForceId_ac,Category_ac,Country_ac,Domain_ac,Kind_ac,Extra_ac,Specific_ac,Subcategory_ac,AltCategory_ac,AltCountry_ac,AltDomain_ac,AltKind_ac,ECEF_X_ac,ECEF_Y_ac,ECEF_Z_ac,OriPhi_ac,OriPsi_ac,OriTheta_ac,LinVelX_ac,LinVelY_ac,LinVelZ_ac,LinAccX_ac,LinAccY_ac,LinAccZ_ac,AngVelX_ac,AngVelY_ac,AngVelZ_ac,DrAlg_ac,Appearance_ac,Latitude_ac,Longitude_ac,Altitude_ac,Heading_ac,Pitch_ac,Roll_ac,CalibratedAirspeed_ac,CM_Altitude_Lead_ac,CM_Altitude_Wing_ac,CM_Airspeed_ac,Bank_Angle_Condition,distance_nm,Distance_Condition,angle_between_vel,angle_between_pos,Cone_Condition,angle_between_pos_nose,Nose_Cone_Condition,Intercept_Criteria
2,1970-07-23 09:45:01.896364240,2025-09-09,2025-09-26 15:03:09.636,HH,C,2830738050,JASSM,3,116,76,2,2,1,225,9,2,0,1,26,0,0,0,0,-129015.03357108062,-4799553.782197799,4189146.259245396,2.3631,2.75129,-0.384454,-74.875,30.875,32.875,0.0,0.0,0.0,0.0,0.0,0.0,2,0,41.29549607655763,-91.53977590663762,10000.00024587002,-60.0492636455438,-0.003943103269344,0.0027374340053758,,9260.064158607724,11112.292394974402,150,2,2025-09-09,2025-09-26 15:03:09.698,HH,C,4186950262,AMBUSH51,1,1,48,2,1,1,225,2,1,0,0,9,1,225,2,1,-137543.12416999167,-4793606.7625741735,4195292.937315376,2.52472,-3.10396,0.102436,-117.36,-1.66153,-9.0315,-0.229926,-7.36547,6.89293,-0.00627611,0.00526078,0.0143675,4,0,41.37096168683252,-91.64353884019047,9257.143824143282,-96.91109596428451,-1.0378167634651854,13.152820897804736,199.021,9260.064158607724,11112.292394974402,150,False,6.510103847091359,False,34.899584565577754,165.9701700245958,False,131.14304495053906,False,False
2,1970-07-23 09:45:01.906432397,2025-09-09,2025-09-26 15:03:10.643,HH,C,2831989304,JASSM,3,116,76,2,2,1,225,9,2,0,1,26,0,0,0,0,-129093.73669608062,-4799521.401826705,4189180.700651646,2.3631,2.75129,-0.384454,-74.875,30.875,32.875,0.0,0.0,0.0,0.0,0.0,0.0,2,0,41.29590864595973,-91.54072515407984,9999.99961369508,-60.04989009685905,-0.0031191852820469,0.0027360167764463,,9260.064158607724,11112.292394974402,150,2,2025-09-09,2025-09-26 15:03:10.465,HH,C,4187864894,AMBUSH51,1,1,48,2,1,1,225,2,1,0,0,9,1,225,2,1,-137633.18809848325,-4793607.512235094,4195286.528249641,2.51963,-3.11363,0.0924,-117.721,-0.533793,-7.74875,-0.233294,-7.32508,6.67041,-0.00880404,-0.00110792,0.0134375,4,0,41.37089857144768,-91.64461418978104,9251.453347914996,-96.1155551049287,-1.069326701070356,12.900091242314458,199.351,9260.064158607724,11112.292394974402,150,False,6.494361891921504,False,34.06037858665167,166.1835217907902,False,132.1974336608781,False,False
2,1970-07-23 09:45:01.916207611,2025-09-09,2025-09-26 15:03:11.620,HH,C,2833124248,JASSM,3,116,76,2,2,1,225,9,2,0,1,26,0,0,0,0,-129165.12732108062,-4799492.030244674,4189211.940886021,2.3631,2.75129,-0.384454,-74.875,30.875,32.875,0.0,0.0,0.0,0.0,0.0,0.0,2,0,41.29628286656656,-91.54158621488536,10000.00094076868,-60.05045835428446,-0.0023718242113607,0.0027347391675586,,9260.064158607724,11112.292394974402,150,2,2025-09-09,2025-09-26 15:03:11.698,HH,C,4189336260,AMBUSH51,1,1,48,2,1,1,225,2,1,0,0,9,1,225,2,1,-137778.8113791052,-4793606.92963233,4195277.919656186,2.45802,-3.12862,0.0773671,-118.314,1.26138,-6.0679,-0.0340961,-7.38277,6.50126,-0.0380239,-0.00304287,0.0234847,4,0,41.37081901860128,-91.64635352246448,9241.648083135256,-94.90442909211156,-1.1395117066605502,9.419886039681868,200.024,9260.064158607724,11112.292394974402,150,True,6.504199500776697,False,32.86702745657503,166.59446692569205,False,133.80914570138606,False,False
2,1970-07-23 09:45:01.926225080,2025-09-09,2025-09-26 15:03:12.622,HH,C,2834257870,JASSM,3,116,76,2,2,1,225,9,2,0,1,26,0,0,0,0,-129236.43200858062,-4799462.692354049,4189243.1430344586,2.3631,2.75129,-0.384454,-74.875,30.875,32.875,0.0,0.0,0.0,0.0,0.0,0.0,2,0,41.2966566368866,-91.542446249536,10000.000681556668,-60.0510259387327,-0.0016253591731215,0.0027334575719064,,9260.064158607724,11112.292394974402,150,2,2025-09-09,2025-09-26 15:03:12.465,HH,C,4190250892,AMBUSH51,1,1,48,2,1,1,225,2,1,0,0,9,1,225,2,1,-137869.62838547185,-4793605.528816071,4195273.5939103495,2.42932,-3.13302,0.0690621,-118.603,1.95617,-5.0846,-0.0863849,-7.24969,6.51457,-0.0330471,0.00077086,-0.0027391,4,0,41.3707826056048,-91.64743860095072,9235.246828742977,-94.38173865719304,-1.0126786578827762,7.78407383359192,200.353,9260.064158607724,11112.292394974402,150,True,6.494671264455175,False,32.28328203229186,166.8110298145909,False,134.60893250312577,False,False
2,1970-07-23 09:45:01.936266580,2025-09-09,2025-09-26 15:03:13.626,HH,C,2835510192,JASSM,3,116,76,2,2,1,225,9,2,0,1,26,0,0,0,0,-129315.20544608062,-4799430.281709517,4189277.6117844586,2.3631,2.75129,-0.384454,-74.875,30.875,32.875,0.0,0.0,0.0,0.0,0.0,0.0,2,0,41.29706953756967,-91.54339637914391,10000.001514082078,-60.05165298674795,-0.0008007125694678,0.0027320524862504,,9260.064158607724,11112.292394974402,150,2,2025-09-09,2025-09-26 15:03:13.632,HH,C,4191642724,AMBUSH51,1,1,48,2,1,1,225,2,1,0,0,9,1,225,2,1,-138008.95546400023,-4793602.460144989,4195268.24197398,2.36997,-3.13808,0.064341,-118.94,2.93696,-4.09854,-0.101316,-7.29514,6.41823,-0.0535826,0.0048301,0.00910364,4,0,41.37074086559553,-91.64910359124472,9225.956479877748,-93.98870609334242,-1.049376064113543,4.395449947157075,201.209,9260.064158607724,11112.292394974402,150,True,6.499587231929017,False,31.613415528658688,167.17700670073336,False,135.64938420557513,False,False
2,1970-07-23 09:45:01.945425028,2025-09-09,2025-09-26 15:03:14.542,HH,C,2836644006,JASSM,3,116,76,2,2,1,225,9,2,0,1,26,0,0,0,0,-129386.52185233062,-4799400.936982955,4189308.817839146,2.3631,2.75119,-0.384358,-74.875,30.875,32.875,0.0,0.0,0.0,0.0,0.0,0.0,2,0,41.29744335943906,-91.54425657645768,10000.00113077927,-60.05245382984364,-0.0075398433777262,0.0006714341466328,,9260.064158607724,11112.292394974402,150,2,2025-09-09,2025-09-26 15:03:14.331,HH,C,4192477824,AMBUSH51,1,1,48,2,1,1,225,2,1,0,0,9,1,225,2,1,-138092.20249525027,-4793599.984628921,4195265.711985055,2.34585,-3.13845,0.0573902,-119.068,3.24647,-3.49019,-0.133764,-7.64876,6.9301,-0.0493236,-0.00309905,0.00871249,4,0,41.37072424212644,-91.6500986327748,9220.27826151103,-93.67647702804643,-0.8012704795940448,3.009764943562148,201.649,9260.064158607724,11112.292394974402,150,True,6.48812626285141,False,31.2922603766865,167.36259466113876,False,136.15463301819736,False,False
2,1970-07-23 09:45:01.956449236,2025-09-09,2025-09-26 15:03:15.644,HH,C,2837834900,JASSM,3,116,76,2,2,1,225,9,2,0,1,26,0,0,0,0,-129461.43200858062,-4799370.114229049,4189341.5942063336,2.3631,2.75119,-0.384358,-74.875,30.875,32.875,0.0,0.0,0.0,0.0,0.0,0.0,2,0,41.29783599273719,-91.54516013086864,10000.001497518102,-60.05305014913101,-0.0067556413604695,0.0006700980179373,,9260.064158607724,11112.292394974402,150,2,2025-09-09,2025-09-26 15:03:15.498,HH,C,4193869654,AMBUSH51,1,1,48,2,1,1,225,2,1,0,0,9,1,225,2,1,-138230.414982946,-4793596.155973656,4195261.741338585,2.28835,3.14079,0.0563686,-119.236,3.39359,-3.19836,-0.0133603,-7.45182,6.59221,-0.0488472,0.00763266,0.00833798,4,0,41.37069650287936,-91.65175057282036,9212.049561302743,-93.48441443106634,-0.9306305072630568,-0.2747452217584664,202.419,9260.064158607724,11112.292394974402,150,True,6.495951936535697,False,31.13876022004924,167.7239769279382,False,136.67059668756147,False,False
2,1970-07-23 09:45:01.966203236,2025-09-09,2025-09-26 15:03:16.620,HH,C,2839027946,JASSM,3,116,76,2,2,1,225,9,2,0,1,26,0,0,0,0,-129536.47497733062,-4799339.234834517,4189374.4281907086,2.3631,2.75119,-0.384358,-74.875,30.875,32.875,0.0,0.0,0.0,0.0,0.0,0.0,2,0,41.298229323514605,-91.54606529875056,9999.999818674663,-60.0536475379435,-0.0059700443820748,0.0006687524311796,,9260.064158607724,11112.292394974402,150,2,2025-09-09,2025-09-26 15:03:16.699,HH,C,4195301254,AMBUSH51,1,1,48,2,1,1,225,2,1,0,0,9,1,225,2,1,-138374.31757402635,-4793592.462721575,4195257.618053729,2.22915,-3.13947,0.0567028,-119.294,2.79194,-3.19935,-0.051847,-7.48325,6.49683,-0.0500601,0.00454922,0.00167592,4,0,41.37066592724326,-91.65347042085256,9204.237170811311,-93.61058022147914,-0.8164538925167955,-3.6744911766099473,202.59,9260.064158607724,11112.292394974402,150,True,6.506122132595678,False,31.323439099239504,168.10321911304484,False,136.85910067287168,False,False
2,1970-07-23 09:45:01.976243953,2025-09-09,2025-09-26 15:03:17.624,HH,C,2840220994,JASSM,3,116,76,2,2,1,225,9,2,0,1,26,0,0,0,0,-129611.51794608062,-4799308.354463424,4189407.262175084,2.3631,2.75119,-0.384358,-74.875,30.875,32.875,0.0,0.0,0.0,0.0,0.0,0.0,2,0,41.29862265294605,-91.54697047782308,9999.999671526915,-60.05424493882797,-0.0051844443582604,0.0006674019692985,,9260.064158607724,11112.292394974402,150,2,2025-09-09,2025-09-26 15:03:17.798,HH,C,4196613552,AMBUSH51,1,1,48,2,1,1,225,2,1,0,0,9,1,225,2,1,-138504.69968768835,-4793589.694047305,4195253.542143602,2.16775,-3.1301,0.0608056,-119.247,2.13307,-3.89087,-0.155842,-7.8429,6.67849,-0.0596246,0.0142822,-0.011798,4,0,41.37063247131768,-91.65502847966732,9197.85212612868,-94.14246341189332,-0.5687670453840851,-7.217263247107715,202.81,9260.064158607724,11112.292394974402,150,True,6.51100944706087,False,31.781207297018042,168.44004766589947,False,136.74012060513607,False,False
2,1970-07-23 09:45:01.989424961,2025-09-09,2025-09-26 15:03:18.942,HH,C,2841415814,JASSM,3,116,76,2,2,1,225,9,2,0,1,26,0,0,0,0,-129686.67419608062,-4799277.42721733,4189440.144987584,2.3631,2.75119,-0.384358,-74.875,30.875,32.875,0.0,0.0,0.0,0.0,0.0,0.0,2,0,41.29901656552895,-91.54787703429474,10000.001236964714,-60.05484325346734,-0.004397660146723,0.0006660525112806,,9260.064158607724,11112.292394974402,150,2,2025-09-09,2025-09-26 15:03:18.965,HH,C,4198005384,AMBUSH51,1,1,48,2,1,1,225,2,1,0,0,9,1,225,2,1,-138644.6506873768,-4793588.154824269,4195248.275083185,2.10114,-3.11989,0.0668321,-119.131,0.663094,-5.05142,-0.184425,-7.62863,6.7021,-0.0549433,0.00647377,-0.0193402,4,0,41.3705819933526,-91.65670039054407,9192.599817077396,-94.78873179873072,-0.358431363045442,-11.066156437750244,202.92,9260.064158607724,11112.292394974402,150,False,6.519243906515682,False,32.66336535215145,168.81248126154287,False,136.22700577167197,False,False
2,1970-07-23 09:45:01.996204428,2025-09-09,2025-09-26 15:03:19.620,HH,C,2842609128,JASSM,3,116,76,2,2,1,225,9,2,0,1,26,0,0,0,0,-129761.73278983062,-4799246.538057174,4189472.9848313336,2.3631,2.75119,-0.384358,-74.875,30.875,32.875,0.0,0.0,0.0,0.0,0.0,0.0,2,0,41.29940996995536,-91.5487824243734,10000.001044650264,-60.05544080299484,-0.003611892467838,0.0006646957019023,,9260.064158607724,11112.292394974402,150,2,2025-09-09,2025-09-26 15:03:19.731,HH,C,4198920016,AMBUSH51,1,1,48,2,1,1,225,2,1,0,0,9,1,225,2,1,-138736.10605791074,-4793588.382540617,4195243.711892863,2.05653,-3.11369,0.0749903,-119.055,-0.647133,-6.12216,-0.0336596,-7.76591,6.49925,-0.0700568,0.00878947,-0.0194359,4,0,41.37053408595002,-91.65779252583005,9189.77754265468,-95.37459945992542,-0.4013173428561116,-13.643324971497712,202.956,9260.064158607724,11112.292394974402,150,False,6.508165012946161,False,33.46403174736625,169.03368432806218,False,135.6447915535936,False,False
2,1970-07-23 09:45:02.006243449,2025-09-09,2025-09-26 15:03:20.624,HH,C,2843802364,JASSM,3,116,76,2,2,1,225,9,2,0,1,26,0,0,0,0,-129836.79138358062,-4799215.650361861,4189505.8207688336,2.3631,2.75119,-0.384358,-74.875,30.875,32.875,0.0,0.0,0.0,0.0,0.0,0.0,2,0,41.29980333212468,-91.54968782486031,9999.9999427349,-60.05603836408216,-0.0028261426755118,0.0006633691689939,,9260.064158607724,11112.292394974402,150,2,2025-09-09,2025-09-26 15:03:20.798,HH,C,4200192548,AMBUSH51,1,1,48,2,1,1,225,2,1,0,0,9,1,225,2,1,-138862.15362803117,-4793590.110789758,4195235.993898045,1.99731,-3.10132,0.0900707,-118.763,-2.46359,-8.18661,-0.00836013,-7.68801,6.50339,-0.0458615,0.0090329,-0.0202764,4,0,41.37044998067175,-91.65929726033706,9186.277544549675,-96.4907166719778,-0.44375065702157,-17.08643798925371,202.956,9260.064158607724,11112.292394974402,150,False,6.509873880620112,False,34.791983640079614,169.37596030799338,False,134.66219574271676,False,False
2,1970-07-23 09:45:02.019048109,2025-09-09,2025-09-26 15:03:21.904,HH,C,2845054836,JASSM,3,116,76,2,2,1,225,9,2,0,1,26,0,0,0,0,-129915.57263358062,-4799183.22799858,4189540.2875657086,2.3631,2.75119,-0.384358,-74.875,30.875,32.875,0.0,0.0,0.0,0.0,0.0,0.0,2,0,41.30021622792813,-91.55063814278404,10000.001263523298,-60.05666557555896,-0.0020014058849051,0.000661949594514,,9260.064158607724,11112.292394974402,150,2,2025-09-09,2025-09-26 15:03:21.932,HH,C,4201544614,AMBUSH51,1,1,48,2,1,1,225,2,1,0,0,9,1,225,2,1,-138997.38647999507,-4793594.250877158,4195225.005347046,1.95533,-3.0845,0.111934,-118.361,-4.58173,-10.9245,-0.147128,-7.4419,6.44279,-0.0635195,0.000494141,-0.0270841,4,0,41.37032784178644,-91.6609108518407,9182.285110699244,-98.06529236131578,-0.55614508666929,-19.575190912655785,203.103,9260.064158607724,11112.292394974402,150,False,6.511785882872356,False,36.46673842518605,169.7569522295681,False,133.37580295364265,False,False
2,1970-07-23 09:45:02.026422285,2025-09-09,2025-09-26 15:03:22.642,HH,C,2846307476,JASSM,3,116,76,2,2,1,225,9,2,0,1,26,0,0,0,0,-129994.36560233062,-4799150.800264205,4189574.757292271,2.3631,2.75119,-0.384358,-74.875,30.875,32.875,0.0,0.0,0.0,0.0,0.0,0.0,2,0,41.30062916567245,-91.55158861423487,10000.000816784832,-60.05729289353068,-0.0011765521489028,0.0006605399620522,,9260.064158607724,11112.292394974402,150,2,2025-09-09,2025-09-26 15:03:22.698,HH,C,4202459246,AMBUSH51,1,1,48,2,1,1,225,2,1,0,0,9,1,225,2,1,-139087.9485373119,-4793598.513310622,4195215.583364243,1.9298,-3.07094,0.125345,-117.969,-6.2611,-12.9139,0.0351186,-7.57171,6.48532,-0.00975903,0.0064488,-0.0235867,4,0,41.37022324153269,-91.66199091438423,9178.809732571728,-99.15293750528552,-0.4894788150784678,-21.120569478449617,202.81,9260.064158607724,11112.292394974402,150,False,6.496218586859044,False,37.734299770574886,169.9954621858629,False,132.3506934837426,False,False
2,1970-07-23 09:45:02.037222357,2025-09-09,2025-09-26 15:03:23.722,HH,C,2847558222,JASSM,3,116,76,2,2,1,225,9,2,0,1,26,0,0,0,0,-130073.03747733062,-4799118.420381392,4189609.1742844586,2.3631,2.7511,-0.384358,-74.875,30.875,32.875,0.0,0.0,0.0,0.0,0.0,0.0,2,0,41.30104147434631,-91.55253763754916,10000.000331861527,-60.054285711808014,-0.0039366402234904,-0.0014052420665106,,9260.064158607724,11112.292394974402,150,2,2025-09-09,2025-09-26 15:03:23.598,HH,C,4203532944,AMBUSH51,1,1,48,2,1,1,225,2,1,0,0,9,1,225,2,1,-139193.87760975858,-4793604.910432601,4195202.688062352,1.93109,-3.05433,0.147056,-117.449,-8.09265,-15.4123,-0.122062,-7.55438,6.47537,0.00347979,0.00620121,-0.0433773,4,0,41.37007982616248,-91.66325375386408,9174.158946995283,-100.70961727616634,-0.6134681989934734,-21.160737030646544,202.92,9260.064158607724,11112.292394974402,150,False,6.485690345728934,False,39.24447262838862,170.29669384002256,False,131.150210955316,False,False
2,1970-07-23 09:45:02.048224708,2025-09-09,2025-09-26 15:03:24.822,HH,C,2848810926,JASSM,3,116,76,2,2,1,225,9,2,0,1,26,0,0,0,0,-130151.83435233062,-4799085.989229049,4189643.644011021,2.3631,2.7511,-0.384262,-74.875,30.875,32.875,0.0,0.0,0.0,0.0,0.0,0.0,2,0,41.30145441601381,-91.5534881806706,10000.0004008124,-60.0587703507365,-0.0070228249912309,-0.0014062573313087,,9260.064158607724,11112.292394974402,150,2,2025-09-09,2025-09-26 15:03:24.698,HH,C,4204845244,AMBUSH51,1,1,48,2,1,1,225,2,1,0,0,9,1,225,2,1,-139321.86649058323,-4793615.055272565,4195183.857851743,1.92653,-3.03828,0.170548,-116.705,-10.3482,-18.6816,-0.0432384,-7.53705,6.44042,-0.00586416,0.0148919,-0.0241297,4,0,41.36987021619994,-91.664778735541,9167.44626638149,-102.31917596317518,-0.8343198979860738,-21.546988797917244,203.201,9260.064158607724,11112.292394974402,150,False,6.4818909203429875,False,41.185246463727964,170.69064981636475,False,129.6164208371924,False,False
2,1970-07-23 09:45:02.058667199,2025-09-09,2025-09-26 15:03:25.866,HH,C,2850003976,JASSM,3,116,76,2,2,1,225,9,2,0,1,26,0,0,0,0,-130226.87732108062,-4799055.101533736,4189676.4711594586,2.3631,2.7511,-0.384262,-74.875,30.875,32.875,0.0,0.0,0.0,0.0,0.0,0.0,2,0,41.30184768412343,-91.5543934512964,9999.99969666468,-60.05936785030088,-0.006237225237355,-0.0014076073521795,,9260.064158607724,11112.292394974402,150,2,2025-09-09,2025-09-26 15:03:25.698,HH,C,4206038242,AMBUSH51,1,1,48,2,1,1,225,2,1,0,0,9,1,225,2,1,-139438.78392638493,-4793626.654249141,4195163.353879731,1.92965,-3.01639,0.194585,-115.882,-12.7394,-21.3752,-0.134556,-8.00491,6.86392,-0.00879363,0.00742668,-0.0267325,4,0,41.36964254984878,-91.66617098375616,9159.899070209443,-104.169011348262,-0.8391314873044139,-21.568788345923803,203.274,9260.064158607724,11112.292394974402,150,False,6.47540189348366,False,42.96915835045494,171.06206989475209,False,128.20934339726273,False,False
2,1970-07-23 09:45:02.068404487,2025-09-09,2025-09-26 15:03:26.840,HH,C,2851258720,JASSM,3,116,76,2,2,1,225,9,2,0,1,26,0,0,0,0,-130305.79919608062,-4799022.615205611,4189710.995573521,2.3631,2.7511,-0.384262,-74.875,30.875,32.875,0.0,0.0,0.0,0.0,0.0,0.0,2,0,41.30226128763181,-91.55534552698576,9999.999086697264,-60.05999624734531,-0.0054110104355359,-0.0014090402306164,,9260.064158607724,11112.292394974402,150,2,2025-09-09,2025-09-26 15:03:26.998,HH,C,4207589140,AMBUSH51,1,1,48,2,1,1,225,2,1,0,0,9,1,225,2,1,-139588.86538931524,-4793645.251782695,4195132.85120989,1.89541,-2.99163,0.222911,-114.746,-15.9757,-25.0728,-0.0530538,-7.83574,6.85564,-0.0800124,0.00994004,-0.0221136,4,0,41.36929997969472,-91.66795684549872,9150.279277400552,-106.30498048175237,-0.901834209511042,-23.79226950873086,203.311,9260.064158607724,11112.292394974402,150,False,6.476385886215587,False,45.40707649504793,171.5737919919691,False,126.29155717338209,False,False
2,1970-07-23 09:45:02.080648516,2025-09-09,2025-09-26 15:03:28.064,HH,C,2852569150,JASSM,3,116,76,2,2,1,225,9,2,0,1,26,0,0,0,0,-130388.22888358062,-4798988.686494674,4189747.051237584,2.3631,2.7511,-0.384262,-74.875,30.875,32.875,0.0,0.0,0.0,0.0,0.0,0.0,2,0,41.30269323499593,-91.55633993159486,9999.999832736168,-60.0606525882178,-0.0045480890121409,-0.0014105100869208,,9260.064158607724,11112.292394974402,150,2,2025-09-09,2025-09-26 15:03:28.064,HH,C,4208861672,AMBUSH51,1,1,48,2,1,1,225,2,1,0,0,9,1,225,2,1,-139709.61334741415,-4793663.709597509,4195103.896996645,1.84961,-2.96919,0.249565,-113.392,-18.7002,-28.6743,0.114244,-7.82895,6.5776,-0.0242712,0.00820066,-0.0354398,4,0,41.36897375457249,-91.66939243065734,9141.581123295691,-108.2762962566944,-1.0119923029413314,-26.68468195692341,203.201,9260.064158607724,11112.292394974402,150,False,6.463870203609764,False,47.68285346083899,171.9900519650959,False,124.44568703538005,False,False
2,1970-07-23 09:45:02.089443255,2025-09-09,2025-09-26 15:03:28.944,HH,C,2853764172,JASSM,3,116,76,2,2,1,225,9,2,0,1,26,0,0,0,0,-130463.39685233062,-4798957.744600142,4189779.931120396,2.3631,2.7511,-0.384262,-74.875,30.875,32.875,0.0,0.0,0.0,0.0,0.0,0.0,2,0,41.30308713878824,-91.55724674536188,10000.000568435193,-60.0612511210824,-0.0037611786848689,-0.0014118646679159,,9260.064158607724,11112.292394974402,150,2,2025-09-09,2025-09-26 15:03:29.098,HH,C,4210094438,AMBUSH51,1,1,48,2,1,1,225,2,1,0,0,9,1,225,2,1,-139826.86028223808,-4793684.480115391,4195071.936577966,1.83111,-2.94129,0.284866,-111.92,-21.3917,-32.4014,-0.078851,-7.90187,6.82995,-0.00359631,0.0149959,-0.0421851,4,0,41.36861406293382,-91.670785387163,9131.81320889734,-110.8092614406736,-1.2555161531922936,-28.11672876836931,203.311,9260.064158607724,11112.292394974402,150,False,6.453488570626147,False,50.01117122659522,172.415696707816,False,122.5596115171005,False,False
2,1970-07-23 09:45:02.100203536,2025-09-09,2025-09-26 15:03:30.020,HH,C,2855016600,JASSM,3,116,76,2,2,1,225,9,2,0,1,26,0,0,0,0,-130542.17419608062,-4798925.315889205,4189814.3891282086,2.3631,2.7511,-0.384262,-74.875,30.875,32.875,0.0,0.0,0.0,0.0,0.0,0.0,2,0,41.30349995084944,-91.55819711408112,10000.001475203637,-60.061878406979936,-0.0029364819043145,-0.0014132856061301,,9260.064158607724,11112.292394974402,150,2,2025-09-09,2025-09-26 15:03:30.031,HH,C,4211207904,AMBUSH51,1,1,48,2,1,1,225,2,1,0,0,9,1,225,2,1,-139930.46395777148,-4793705.765364829,4195040.594324038,1.84544,-2.91005,0.312497,-110.807,-25.4794,-32.6992,-0.169847,-8.06634,6.96218,0.00318435,0.0210234,-0.0391786,4,0,41.368257836980646,-91.67201522077124,9123.680083229972,-113.1357682380297,-1.0939680393947269,-27.774820783770465,203.824,9260.064158607724,11112.292394974402,150,False,6.435492988323988,False,51.51752816681901,172.7990848548261,False,121.40416035763828,False,False
2,1970-07-23 09:45:02.110402334,2025-09-09,2025-09-26 15:03:31.040,HH,C,2856267456,JASSM,3,116,76,2,2,1,225,9,2,0,1,26,0,0,0,0,-130620.85388358062,-4798892.926240767,4189848.802214146,2.3631,2.7511,-0.384262,-74.875,30.875,32.75,0.0,0.0,0.0,0.0,0.0,0.0,2,0,41.30391223514844,-91.55914631701062,9999.99913215424,-60.06250492855907,-0.0021128113488575,-0.0014146975398719,,9260.064158607724,11112.292394974402,150,2,2025-09-09,2025-09-26 15:03:30.898,HH,C,4212241836,AMBUSH51,1,1,48,2,1,1,225,2,1,0,0,9,1,225,2,1,-140024.25488039016,-4793727.154646887,4195007.5169581855,1.84847,-2.88773,0.336544,-108.524,-26.2842,-39.0253,0.0722279,-8.26951,6.78043,-0.0102168,0.0131962,-0.0311039,4,0,41.36789096359429,-91.67312782123376,9111.341573486488,-114.97013388063232,-1.1687341896495034,-27.97248642373669,203.787,9260.064158607724,11112.292394974402,150,False,6.413248376107269,False,54.25859890933656,173.11745305061618,False,119.03326214318035,False,False
2,1970-07-23 09:45:02.120464674,2025-09-09,2025-09-26 15:03:32.046,HH,C,2857460502,JASSM,3,116,76,2,2,1,225,9,2,0,1,26,0,0,0,0,-130695.89685233062,-4798862.033662642,4189881.624479771,2.3631,2.7511,-0.384262,-74.875,30.875,32.75,0.0,0.0,0.0,0.0,0.0,0.0,2,0,41.30430545457365,-91.56005165720173,10000.000436326716,-60.06310250332886,-0.0013272129061316,-0.0014160432902057,,9260.064158607724,11112.292394974402,150,2,2025-09-09,2025-09-26 15:03:32.167,HH,C,4213752968,AMBUSH51,1,1,48,2,1,1,225,2,1,0,0,9,1,225,2,1,-140159.74030648766,-4793762.869705034,4194955.053366606,1.85028,-2.85145,0.376509,-105.797,-30.0345,-43.322,-0.116243,-8.16074,6.90933,-0.0121933,0.00659236,-0.0495254,4,0,41.36730071395409,-91.674733323519,9095.23217475924,-117.97153972619616,-1.367549254518652,-28.52840528374152,203.897,9260.064158607724,11112.292394974402,150,False,6.403525781193891,False,57.321759680543416,173.690216647405,False,116.56163678180401,False,False
2,1970-07-23 09:45:02.131448667,2025-09-09,2025-09-26 15:03:33.144,HH,C,2858714236,JASSM,3,116,76,2,2,1,225,9,2,0,1,26,0,0,0,0,-130774.75622733062,-4798829.567354049,4189916.116667271,2.3631,2.751,-0.384262,-74.875,30.875,32.75,0.0,0.0,0.0,0.0,0.0,0.0,2,0,41.30471868446032,-91.56100305220944,10000.001047824948,-60.06010567913646,-0.0040764472083236,-0.0034762366490124,,9260.064158607724,11112.292394974402,150,2,2025-09-09,2025-09-26 15:03:33.000,HH,C,4214747134,AMBUSH51,1,1,48,2,1,1,225,2,1,0,0,9,1,225,2,1,-140247.87902388445,-4793789.152329348,4194916.706296117,1.85388,-2.83027,0.401486,-103.932,-32.355,-46.4715,-0.00745317,-8.15996,6.86034,-0.00866672,0.0166978,-0.0348323,4,0,41.36687010871941,-91.67577668797566,9083.1172811494,-119.779826795735,-1.5764188351813353,-28.735978913100265,203.971,9260.064158607724,11112.292394974402,150,False,6.377107784103373,False,59.415519558646146,174.06310316116145,False,114.86162508335264,False,False
2,1970-07-23 09:45:02.142209089,2025-09-09,2025-09-26 15:03:34.220,HH,C,2860027260,JASSM,3,116,76,2,2,1,225,9,2,0,1,26,0,0,0,0,-130857.34607108062,-4798795.564912642,4189952.237761021,2.36319,2.751,-0.384262,-74.875,30.875,32.75,0.0,0.0,0.0,0.0,0.0,0.0,2,0,41.30515143701618,-91.56199946624862,9999.99963022239,-60.06076337844759,-0.0032118402664467,0.0020138055061517,,9260.064158607724,11112.292394974402,150,2,2025-09-09,2025-09-26 15:03:34.301,HH,C,4216298032,AMBUSH51,1,1,48,2,1,1,225,2,1,0,0,9,1,225,2,1,-140380.88106143364,-4793833.398532357,4194852.644099349,1.87224,-2.79175,0.438524,-100.76,-35.8203,-51.1518,0.0593548,-8.17448,7.05332,0.0477819,0.0309208,-0.0395573,4,0,41.36615118771832,-91.67734950607566,9062.696858646068,-122.7067073507851,-1.6692464032202936,-28.50107410943059,204.081,9260.064158607724,11112.292394974402,150,False,6.3581466531997854,False,62.616295110534736,174.67474329071817,False,112.30968186477388,False,False
2,1970-07-23 09:45:02.153269624,2025-09-09,2025-09-26 15:03:35.326,HH,C,2861397674,JASSM,3,116,76,2,2,1,225,9,2,0,1,26,0,0,0,0,-130943.54528983062,-4798760.075166549,4189989.936979771,2.36319,2.751,-0.384166,-74.875,30.875,32.75,0.0,0.0,0.0,0.0,0.0,0.0,2,0,41.30560309741509,-91.56303944046034,9999.999012545895,-60.06530695834027,-0.0062206642144591,0.0020125962846918,,9260.064158607724,11112.292394974402,150,2,2025-09-09,2025-09-26 15:03:35.367,HH,C,4217570564,AMBUSH51,1,1,48,2,1,1,225,2,1,0,0,9,1,225,2,1,-140486.10907452967,-4793873.111283902,4194796.217859346,1.9027,-2.75592,0.468306,-97.9268,-39.0908,-54.5515,-0.124612,-8.24773,7.30612,0.00787401,0.0215789,-0.037612,4,0,41.36551561459262,-91.67859221260372,9045.68330977582,-125.22175982131871,-1.6213369574934815,-27.58344678655356,204.362,9260.064158607724,11112.292394974402,150,False,6.328309059604329,False,65.26986133756587,175.17317705416696,False,110.183281210109,False,False
2,1970-07-23 09:45:02.164288151,2025-09-09,2025-09-26 15:03:36.428,HH,C,2862709910,JASSM,3,116,76,2,2,1,225,9,2,0,1,26,0,0,0,0,-131026.08825858062,-4798726.09127983,4190026.035612584,2.36319,2.751,-0.384166,-74.875,30.875,32.75,0.0,0.0,0.0,0.0,0.0,0.0,2,0,41.306035577841854,-91.564035316121,10000.001259917784,-60.06596431377319,-0.0053565524737116,0.0020111168095352,,9260.064158607724,11112.292394974402,150,2,2025-09-09,2025-09-26 15:03:36.300,HH,C,4218684028,AMBUSH51,1,1,48,2,1,1,225,2,1,0,0,9,1,225,2,1,-140576.28417399962,-4793910.771432351,4194743.773384639,1.92732,-2.72628,0.492208,-95.327,-41.7204,-57.4799,-0.145874,-8.47823,7.32939,0.00769092,0.013398,-0.0436914,4,0,41.36492175047785,-91.67965586123816,9031.172466028916,-127.2584020436241,-1.5936294264806543,-26.90014240642582,204.618,9260.064158607724,11112.292394974402,150,False,6.296032161415395,False,67.54338706368941,175.61476224990867,False,108.38605736626131,False,False
2,1970-07-23 09:45:02.174427860,2025-09-09,2025-09-26 15:03:37.442,HH,C,2863962618,JASSM,3,116,76,2,2,1,225,9,2,0,1,26,0,0,0,0,-131104.88122733062,-4798693.647920455,4190060.494596959,2.36319,2.751,-0.384166,-74.875,30.875,32.75,0.0,0.0,0.0,0.0,0.0,0.0,2,0,41.30644842469592,-91.56498596165264,10000.000242243115,-60.0665918190884,-0.0045316862254157,0.0020096855309817,,9260.064158607724,11112.292394974402,150,2,2025-09-09,2025-09-26 15:03:37.301,HH,C,4219877028,AMBUSH51,1,1,48,2,1,1,225,2,1,0,0,9,1,225,2,1,-140670.1587405585,-4793953.824895879,4194684.740117396,1.952,-2.69284,0.51928,-92.5026,-44.4532,-60.296,-0.0681233,-8.47708,6.99318,0.00785945,0.0147212,-0.0431193,4,0,41.36425065993366,-91.68076177903022,9015.924291264186,-129.5437551108202,-1.6138162210608236,-26.350618782672584,204.692,9260.064158607724,11112.292394974402,150,False,6.265566749105618,False,69.8688892173835,176.09499425943324,False,106.58592474222273,False,False
2,1970-07-23 09:45:02.185449206,2025-09-09,2025-09-26 15:03:38.544,HH,C,2865215318,JASSM,3,116,76,2,2,1,225,9,2,0,1,26,0,0,0,0,-131183.67810233062,-4798661.203584517,4190094.952604771,2.36319,2.751,-0.384166,-74.875,30.875,32.75,0.0,0.0,0.0,0.0,0.0,0.0,2,0,41.30686126223243,-91.56593666610098,9999.999308314154,-60.06721936846135,-0.0037067902066199,0.0020082731206266,,9260.064158607724,11112.292394974402,150,2,2025-09-09,2025-09-26 15:03:38.667,HH,C,4221507460,AMBUSH51,1,1,48,2,1,1,225,2,1,0,0,9,1,225,2,1,-140794.55832639366,-4794017.389083367,4194599.129741494,1.9941,-2.64347,0.550558,-88.4544,-48.1711,-63.6438,-0.118903,-8.41033,7.26601,0.00881236,0.0240548,-0.0312973,4,0,41.36327276450035,-91.68222499008954,8995.751603454984,-132.5571064451617,-1.3614308449210568,-25.302533620349067,205.046,9260.064158607724,11112.292394974402,150,False,6.239131258327941,False,72.95263667399067,176.7594527648845,False,104.24967179413972,False,False
2,1970-07-23 09:45:02.195474186,2025-09-09,2025-09-26 15:03:39.547,HH,C,2866469844,JASSM,3,116,76,2,2,1,225,9,2,0,1,26,0,0,0,0,-131262.58825858062,-4798628.710908736,4190129.460417271,2.36319,2.751,-0.384166,-74.875,30.875,32.75,0.0,0.0,0.0,0.0,0.0,0.0,2,0,41.307274697258805,-91.56688874988944,9999.99912158214,-60.06784783349802,-0.0028807020594909,0.0020068486279074,,9260.064158607724,11112.292394974402,150,2,2025-09-09,2025-09-26 15:03:39.600,HH,C,4222620924,AMBUSH51,1,1,48,2,1,1,225,2,1,0,0,9,1,225,2,1,-140874.7406786542,-4794062.728169531,4194539.150422596,2.02774,-2.60843,0.570975,-85.5694,-50.41,-65.8851,-0.138695,-8.39556,7.23703,0.0112487,0.0211274,-0.0259065,4,0,41.36258406025769,-91.68316655523071,8983.104944584458,-134.61271419200813,-1.1660109754242916,-24.39788412481048,205.156,9260.064158607724,11112.292394974402,150,False,6.203077150492476,False,75.01099791470051,177.1807158391442,False,102.69945156622013,False,False
2,1970-07-23 09:45:02.207228375,2025-09-09,2025-09-26 15:03:40.722,HH,C,2867782086,JASSM,3,116,76,2,2,1,225,9,2,0,1,26,0,0,0,0,-131345.12732108062,-4798594.723115767,4190165.554167271,2.36319,2.751,-0.384166,-74.875,30.875,32.75,0.0,0.0,0.0,0.0,0.0,0.0,2,0,41.30770713507847,-91.56788463108612,9999.9993227576,-60.06850521449629,-0.0020166246613152,0.0020053602618194,,9260.064158607724,11112.292394974402,150,2,2025-09-09,2025-09-26 15:03:40.700,HH,C,4223933224,AMBUSH51,1,1,48,2,1,1,225,2,1,0,0,9,1,225,2,1,-140967.200167787,-4794119.540567846,4194465.1674893815,2.06575,-2.57003,0.592998,-82.2985,-53.0755,-68.1539,-0.177009,-8.50426,7.38268,0.0112238,0.0132087,-0.0285759,4,0,41.36173039800512,-91.68425067409872,8969.233063462763,-136.83666456092203,-0.9948942834136254,-23.38724922345587,205.303,9260.064158607724,11112.292394974402,150,False,6.165492323948634,False,77.30081682613567,177.6508795107113,False,101.02833718311635,False,False
2,1970-07-23 09:45:02.218269832,2025-09-09,2025-09-26 15:03:41.826,HH,C,2869152372,JASSM,3,116,76,2,2,1,225,9,2,0,1,26,0,0,0,0,-131431.31872733062,-4798559.229463424,4190203.244596959,2.36319,2.751,-0.384166,-74.875,30.875,32.75,0.0,0.0,0.0,0.0,0.0,0.0,2,0,41.30815870715392,-91.56892459457625,9999.99892224916,-60.06919170025877,-0.0011143075315644,0.0020037992336016,,9260.064158607724,11112.292394974402,150,2,2025-09-09,2025-09-26 15:03:41.836,HH,C,4225285288,AMBUSH51,1,1,48,2,1,1,225,2,1,0,0,9,1,225,2,1,-141059.4129737981,-4794181.66410968,4194385.880395103,2.10753,-2.52794,0.614692,-78.7748,-55.7242,-70.2896,-0.246792,-8.59369,7.33302,0.0142573,0.0140326,-0.0205095,4,0,41.36080936318337,-91.68532995449029,8956.925796864076,-139.16868648349447,-0.7676854370674756,-22.32731054840669,205.523,9260.064158607724,11112.292394974402,150,False,6.12408263062128,False,79.63835287584762,178.05487706650038,False,99.34703115617111,False,False
2,1970-07-23 09:45:02.229288691,2025-09-09,2025-09-26 15:03:42.928,HH,C,2870466894,JASSM,3,116,76,2,2,1,225,9,2,0,1,26,0,0,0,0,-131514.00622733062,-4798525.179658736,4190239.399870396,2.36319,2.75091,-0.384166,-74.875,30.875,32.75,0.0,0.0,0.0,0.0,0.0,0.0,2,0,41.30859188732296,-91.56992229400944,9999.999359989117,-60.066225220590745,-0.0038234885232007,-5.593402321863624e-05,,9260.064158607724,11112.292394974402,150,2,2025-09-09,2025-09-26 15:03:42.867,HH,C,4226518054,AMBUSH51,1,1,48,2,1,1,225,2,1,0,0,9,1,225,2,1,-141138.99232962163,-4794240.310562693,4194312.405686422,2.14204,-2.49223,0.625699,-75.598,-58.2475,-71.5293,-0.07625,-8.5883,7.13499,0.0209131,0.015826,-0.025713,4,0,41.35995046264871,-91.68625957697836,8947.754836367098,-140.8844480879639,-0.2878988871602617,-21.523487538890365,205.523,9260.064158607724,11112.292394974402,150,False,6.081779317957557,False,81.61474575848511,178.28003213578336,False,97.96639148232353,False,False
2,1970-07-23 09:45:02.239428865,2025-09-09,2025-09-26 15:03:43.942,HH,C,2871722506,JASSM,3,116,76,2,2,1,225,9,2,0,1,26,0,0,0,0,-131592.98278983062,-4798492.655244674,4190273.934050084,2.36319,2.75091,-0.384166,-74.875,30.875,32.75,0.0,0.0,0.0,0.0,0.0,0.0,2,0,41.30900564517889,-91.57087523085248,10000.000804226644,-60.066854270347136,-0.0029967004080187,-5.7313679064698005e-05,,9260.064158607724,11112.292394974402,150,2,2025-09-09,2025-09-26 15:03:44.000,HH,C,4227870120,AMBUSH51,1,1,48,2,1,1,225,2,1,0,0,9,1,225,2,1,-141221.46795215484,-4794306.719700014,4194230.518020942,2.18205,-2.45038,0.639145,-71.8748,-60.6243,-73.1466,-0.291344,-8.61956,7.4817,-0.00639887,0.00869168,-0.041151,4,0,41.358988067920734,-91.6872210282938,8939.670905756888,-142.91084749809798,0.1930605166971619,-20.64711915088477,205.449,9260.064158607724,11112.292394974402,150,False,6.0406669002218125,False,83.85363402369914,178.29787655493163,False,96.3946231457788,False,False
2,1970-07-23 09:45:02.251449850,2025-09-09,2025-09-26 15:03:45.144,HH,C,2873091012,JASSM,3,116,76,2,2,1,225,9,2,0,1,26,0,0,0,0,-131679.06091483062,-4798457.20456108,4190311.571745396,2.36319,2.75091,-0.38407,-74.875,30.875,32.75,0.0,0.0,0.0,0.0,0.0,0.0,2,0,41.30945659691304,-91.57191386992808,9999.99932719727,-60.07139688005093,-0.0060069266954841,-5.8542561015123744e-05,,9260.064158607724,11112.292394974402,150,2,2025-09-09,2025-09-26 15:03:45.101,HH,C,4229182418,AMBUSH51,1,1,48,2,1,1,225,2,1,0,0,9,1,225,2,1,-141299.08242118228,-4794375.196581385,4194148.4418037552,2.21792,-2.40839,0.64641,-68.3628,-63.5324,-73.725,-0.154023,-8.86138,7.74604,0.0208216,0.0162859,-0.017347,4,0,41.35801295059561,-91.68812368095224,8935.924562877297,-144.7455933551054,0.9132741321804372,-20.051783441401927,205.046,9260.064158607724,11112.292394974402,150,False,5.993259232895976,False,85.90148891362784,178.06601707004523,False,95.0018874523233,False,False
2,1970-07-23 09:45:02.262488919,2025-09-09,2025-09-26 15:03:46.248,HH,C,2874461772,JASSM,3,116,76,2,2,1,225,9,2,0,1,26,0,0,0,0,-131765.28357108062,-4798421.694795455,4190349.270964146,2.36319,2.75091,-0.38407,-74.875,30.875,32.75,0.0,0.0,0.0,0.0,0.0,0.0,2,0,41.309908282460896,-91.57295426715672,10000.00050817422,-60.07208367588199,-0.0051042888412352,-6.009538157664854e-05,,9260.064158607724,11112.292394974402,150,2,2025-09-09,2025-09-26 15:03:46.268,HH,C,4230574250,AMBUSH51,1,1,48,2,1,1,225,2,1,0,0,9,1,225,2,1,-141376.69029699283,-4794450.343479684,4194061.054763178,2.25649,-2.3645,0.659666,-64.5445,-65.9083,-74.8069,-0.00323573,-8.6797,7.47833,-0.00261843,0.0186993,-0.0205323,4,0,41.35696230025896,-91.68902387986031,8937.09245590946,-146.84220537604804,1.3321956025558523,-19.411023997655118,204.545,9260.064158607724,11112.292394974402,150,False,5.944369541626932,False,88.0783866490451,177.6253174243758,False,93.53891170136103,False,False
2,1970-07-23 09:45:02.274229838,2025-09-09,2025-09-26 15:03:47.422,HH,C,2875776098,JASSM,3,116,76,2,2,1,225,9,2,0,1,26,0,0,0,0,-131847.95544608062,-4798387.64596733,4190385.416471959,2.36319,2.75091,-0.38407,-74.875,30.875,32.75,0.0,0.0,0.0,0.0,0.0,0.0,2,0,41.31034135830223,-91.57395183317963,10000.000453749291,-60.0727422034232,-0.0042388226343789,-6.158426921436258e-05,,9260.064158607724,11112.292394974402,150,2,2025-09-09,2025-09-26 15:03:47.434,HH,C,4231966082,AMBUSH51,1,1,48,2,1,1,225,2,1,0,0,9,1,225,2,1,-141449.76423346924,-4794528.073143246,4193973.1064680666,2.27825,-2.32133,0.670944,-60.6082,-67.9867,-75.6191,-0.262591,-8.5464,7.41708,-0.0287091,0.0155868,-0.0295018,4,0,41.3558932938333,-91.6898690053372,8943.082063697002,-148.84779049180003,1.764704417391609,-19.74548229800159,203.934,9260.064158607724,11112.292394974402,150,False,5.8959789725197655,False,90.20817732211852,177.0648592580702,False,92.13268681434685,False,False
2,1970-07-23 09:45:02.285267754,2025-09-09,2025-09-26 15:03:48.526,HH,C,2877145780,JASSM,3,116,76,2,2,1,225,9,2,0,1,26,0,0,0,0,-131934.10778983062,-4798352.16159233,4190423.083464146,2.36319,2.75091,-0.38407,-74.875,30.875,32.75,0.0,0.0,0.0,0.0,0.0,0.0,2,0,41.31079266819262,-91.5749914112614,9999.999806593136,-60.07342847061507,-0.0033369146738858,-6.314496959012908e-05,,9260.064158607724,11112.292394974402,150,2,2025-09-09,2025-09-26 15:03:48.566,HH,C,4233318146,AMBUSH51,1,1,48,2,1,1,225,2,1,0,0,9,1,225,2,1,-141515.94695697213,-4794605.819871647,4193887.247311384,2.28055,-2.27788,0.680148,-56.7073,-70.1762,-76.1556,-0.032658,-8.73972,7.34115,-0.0159134,0.0157387,-0.0141595,4,0,41.35483950313778,-91.69063181800492,8953.151476781508,-150.80498293608457,2.2435163391026816,-21.23907228149072,202.944,9260.064158607724,11112.292394974402,150,False,5.843504120650032,False,92.30490008770154,176.45180960012124,False,90.74390030971779,False,False
2,1970-07-23 09:45:02.296287203,2025-09-09,2025-09-26 15:03:49.628,HH,C,2878400266,JASSM,3,116,76,2,2,1,225,9,2,0,1,26,0,0,0,0,-132013.01403983062,-4798319.660615767,4190457.582487584,2.36319,2.75091,-0.38407,-74.875,30.875,32.75,0.0,0.0,0.0,0.0,0.0,0.0,2,0,41.3112060185568,-91.57594356554856,10000.001280023109,-60.07405703127118,-0.0025108604030944,-6.458070735646157e-05,,9260.064158607724,11112.292394974402,150,2,2025-09-09,2025-09-26 15:03:49.600,HH,C,4234550912,AMBUSH51,1,1,48,2,1,1,225,2,1,0,0,9,1,225,2,1,-141572.80995163642,-4794679.384593069,4193807.567763188,2.28918,-2.23734,0.689491,-52.7399,-71.7989,-76.7555,-0.292833,-8.38947,7.25728,-0.0131733,0.0124909,-0.0283533,4,0,41.35385395060004,-91.69128480724498,8965.653273181419,-152.65127945778363,2.594972724516469,-22.291790130002443,202.077,9260.064158607724,11112.292394974402,150,False,5.793896968683333,False,94.3635954760791,175.84816505830278,False,89.3520106048832,False,False
2,1970-07-23 09:45:02.306429463,2025-09-09,2025-09-26 15:03:50.642,HH,C,2879711760,JASSM,3,116,76,2,2,1,225,9,2,0,1,26,0,0,0,0,-132095.51013358062,-4798285.681611861,4190493.6469407086,2.36319,2.75091,-0.38407,-74.875,30.875,32.75,0.0,0.0,0.0,0.0,0.0,0.0,2,0,41.311638134511824,-91.5769390508044,10000.000078299174,-60.07471420222441,-0.0016472405859069,-6.605463075180547e-05,,9260.064158607724,11112.292394974402,150,2,2025-09-09,2025-09-26 15:03:50.633,HH,C,4235783678,AMBUSH51,1,1,48,2,1,1,225,2,1,0,0,9,1,225,2,1,-141624.85686271338,-4794753.448218768,4193728.2182977,2.30095,-2.19537,0.701265,-48.7667,-73.1362,-77.3698,-0.109642,-8.23707,7.02633,-0.00973406,0.0110532,-0.0356708,4,0,41.35286850558666,-91.69188009956169,8979.756241391804,-154.60981318969598,2.789984344009512,-23.25024644659832,200.977,9260.064158607724,11112.292394974402,150,False,5.740527245699927,False,96.40094157888382,175.22312457652743,False,87.98667699992835,False,False
2,1970-07-23 09:45:02.318448765,2025-09-09,2025-09-26 15:03:51.844,HH,C,2881084712,JASSM,3,116,76,2,2,1,225,9,2,0,1,26,0,0,0,0,-132181.86950858062,-4798250.108857955,4190531.401823521,2.36319,2.75081,-0.38407,-74.875,30.875,32.75,0.0,0.0,0.0,0.0,0.0,0.0,2,0,41.31209050247882,-91.57798116941647,10000.001043623608,-60.071776822199816,-0.0043179756344946,-0.0021254200328859,,9260.064158607724,11112.292394974402,150,2,2025-09-09,2025-09-26 15:03:51.767,HH,C,4237135742,AMBUSH51,1,1,48,2,1,1,225,2,1,0,0,9,1,225,2,1,-141677.7500953527,-4794837.165832735,4193639.0437798817,2.31466,-2.1499,0.716246,-44.128,-74.3636,-78.3098,-0.0365286,-8.06253,7.06461,-0.0121122,0.0155535,-0.0367756,4,0,41.35175915030873,-91.69248207172753,8996.397199391831,-156.76850679282614,2.812177496607218,-24.265859842717607,200.011,9260.064158607724,11112.292394974402,150,False,5.682722516212289,False,98.78496498792013,174.50593548202892,False,86.36354543411049,False,False
2,1970-07-23 09:45:02.328486892,2025-09-09,2025-09-26 15:03:52.848,HH,C,2882337606,JASSM,3,116,76,2,2,1,225,9,2,0,1,26,0,0,0,0,-132260.67419608062,-4798217.646455611,4190565.852995396,2.36319,2.75081,-0.38407,-74.875,30.875,32.75,0.0,0.0,0.0,0.0,0.0,0.0,2,0,41.31250329207305,-91.5789321369408,10000.000672781214,-60.07240461557512,-0.0034929859720322,-0.0021267977916893,,9260.064158607724,11112.292394974402,150,2,2025-09-09,2025-09-26 15:03:52.834,HH,C,4238408274,AMBUSH51,1,1,48,2,1,1,225,2,1,0,0,9,1,225,2,1,-141722.2183665762,-4794916.04204513,4193555.473986586,2.33472,-2.10134,0.732046,-39.7154,-75.2343,-79.1153,-0.0638587,-8.03383,7.03419,-0.0169017,0.0125866,-0.0288443,4,0,41.35071791555685,-91.69298514668137,9012.66421986215,-159.04298939284257,2.760213102915149,-25.07064224720652,199.156,9260.064158607724,11112.292394974402,150,False,5.6282683777998574,False,101.02079404650371,173.8218168310551,False,84.84547440989432,False,False
2,1970-07-23 09:45:02.340251873,2025-09-09,2025-09-26 15:03:54.025,HH,C,2883652970,JASSM,3,116,76,2,2,1,225,9,2,0,1,26,0,0,0,0,-132343.41247733062,-4798183.563447799,4190602.0219407086,2.36319,2.75081,-0.383975,-74.875,30.875,32.75,0.0,0.0,0.0,0.0,0.0,0.0,2,0,41.31293666646516,-91.57993058568964,10000.000336264537,-60.07692059911964,-0.0065383196571942,-0.0021279258950177,,9260.064158607724,11112.292394974402,150,2,2025-09-09,2025-09-26 15:03:53.966,HH,C,4239760340,AMBUSH51,1,1,48,2,1,1,225,2,1,0,0,9,1,225,2,1,-141764.63885720534,-4795001.931041664,4193464.403325882,2.384,-2.04495,0.745086,-34.7999,-76.094,-79.9811,-0.279874,-8.22559,7.36509,0.0372999,0.0199768,-0.0436873,4,0,41.34958468140496,-91.69346128181664,9029.796164108477,-161.54665696472122,2.877118196465278,-24.54587224597483,198.044,9260.064158607724,11112.292394974402,150,False,5.56896901077279,False,103.51449983548903,173.06876257092532,False,83.1343721326639,False,False
2,1970-07-23 09:45:02.351307097,2025-09-09,2025-09-26 15:03:55.130,HH,C,2884960674,JASSM,3,116,76,2,2,1,225,9,2,0,1,26,0,0,0,0,-132425.66638358062,-4798149.679170455,4190637.977995396,2.36319,2.75081,-0.383975,-74.875,30.875,32.75,0.0,0.0,0.0,0.0,0.0,0.0,2,0,41.31336749214583,-91.58092320258966,10000.000288121755,-60.07757589893119,-0.0056772280090301,-0.0021294092987199,,9260.064158607724,11112.292394974402,150,2,2025-09-09,2025-09-26 15:03:55.136,HH,C,4241152172,AMBUSH51,1,1,48,2,1,1,225,2,1,0,0,9,1,225,2,1,-141802.12459723468,-4795090.364569921,4193371.04973666,2.41974,-1.99482,0.760741,-30.317,-77.5185,-79.9275,-0.175692,-7.9244,6.92712,-0.00922224,0.00662565,-0.0265161,4,0,41.348421766849896,-91.69387758825587,9047.894010991964,-163.81919987244203,2.666121795802905,-24.571720672592622,196.993,9260.064158607724,11112.292394974402,150,False,5.507865541881958,False,105.77677718073545,172.28808557309665,False,81.65866445516205,False,False
2,1970-07-23 09:45:02.361408240,2025-09-09,2025-09-26 15:03:56.140,HH,C,2886215268,JASSM,3,116,76,2,2,1,225,9,2,0,1,26,0,0,0,0,-132504.58044608062,-4798117.168428267,4190672.474089146,2.36319,2.75081,-0.383975,-74.875,30.875,32.75,0.0,0.0,0.0,0.0,0.0,0.0,2,0,41.313780830169385,-91.5818755282435,9999.999014913925,-60.07820460480125,-0.0048510929247584,-0.0021308440215908,,9260.064158607724,11112.292394974402,150,2,2025-09-09,2025-09-26 15:03:56.100,HH,C,4242305404,AMBUSH51,1,1,48,2,1,1,225,2,1,0,0,9,1,225,2,1,-141829.12475362094,-4795164.924214379,4193291.818300374,2.44542,-1.95722,0.772205,-25.7849,-76.8737,-81.5485,-0.24463,-7.7234,6.71294,-0.00664646,0.0110781,-0.0347595,4,0,41.347438567805845,-91.69417359929524,9061.689566147108,-165.49397451178115,2.463621577941235,-24.669784533745137,196.162,9260.064158607724,11112.292394974402,150,False,5.448903588712213,False,108.05409121274292,171.61088171959074,False,80.10368304093755,False,False
2,1970-07-23 09:45:02.372425243,2025-09-09,2025-09-26 15:03:57.242,HH,C,2887525286,JASSM,3,116,76,2,2,1,225,9,2,0,1,26,0,0,0,0,-132586.97888358062,-4798083.221162642,4190708.493620396,2.36319,2.75081,-0.383975,-74.875,30.875,32.75,0.0,0.0,0.0,0.0,0.0,0.0,2,0,41.31421241848812,-91.58286991610991,10000.000404433194,-60.07886108481024,-0.0039884763899879,-0.0021323490260513,,9260.064158607724,11112.292394974402,150,2,2025-09-09,2025-09-26 15:03:57.133,HH,C,4243538170,AMBUSH51,1,1,48,2,1,1,225,2,1,0,0,9,1,225,2,1,-141853.40053964368,-4795243.588004473,4193207.659349385,2.46221,-1.91083,0.78727,-21.6406,-76.9043,-82.2653,-0.227087,-7.28953,6.44678,-0.0169392,0.0010559,-0.0401107,4,0,41.34639816339243,-91.6944356280542,9074.717670843902,-167.53989028202488,2.093200586415344,-25.65818280793539,195.368,9260.064158607724,11112.292394974402,150,False,5.385937626284138,False,110.13310322428998,170.88478224016055,False,78.77398297290884,False,False
2,1970-07-23 09:45:02.382449231,2025-09-09,2025-09-26 15:03:58.244,HH,C,2888780228,JASSM,3,116,76,2,2,1,225,9,2,0,1,26,0,0,0,0,-132665.91638358062,-4798050.700166549,4190742.996550084,2.36319,2.75081,-0.383975,-74.875,30.875,32.75,0.0,0.0,0.0,0.0,0.0,0.0,2,0,41.314625843606464,-91.58382254940476,9999.999177721214,-60.079490004374186,-0.0031621056604091,-0.0021337671348993,,9260.064158607724,11112.292394974402,150,2,2025-09-09,2025-09-26 15:03:58.166,HH,C,4244770934,AMBUSH51,1,1,48,2,1,1,225,2,1,0,0,9,1,225,2,1,-141873.25425540493,-4795322.988123938,4193120.9565383536,2.45505,-1.86863,0.803703,-17.2233,-76.3805,-83.5863,-0.0756852,-7.23811,6.28292,-0.0511941,0.00328006,-0.0424681,4,0,41.34533697272426,-91.6946445982252,9083.7303011418,-169.39581675638905,1.5374298900927934,-27.85443747922461,194.793,9260.064158607724,11112.292394974402,150,False,5.323366527425358,False,112.3582594698936,170.13863150380848,False,77.32941905225124,False,False
2,1970-07-23 09:45:02.393480593,2025-09-09,2025-09-26 15:03:59.348,HH,C,2890090336,JASSM,3,116,76,2,2,1,225,9,2,0,1,26,0,0,0,0,-132748.32263358062,-4798016.748506392,4190779.0160813336,2.36329,2.75081,-0.383975,-74.875,30.875,32.75,0.0,0.0,0.0,0.0,0.0,0.0,2,0,41.31505743985844,-91.58481705762712,9999.99957105224,-60.08014657490203,-0.0022994152439276,0.003356213985217,,9260.064158607724,11112.292394974402,150,2,2025-09-09,2025-09-26 15:03:59.233,HH,C,4246043466,AMBUSH51,1,1,48,2,1,1,225,2,1,0,0,9,1,225,2,1,-141888.7155147933,-4795403.493504085,4193031.2657415513,2.43982,-1.81511,0.82203,-12.3231,-75.9258,-85.0423,-0.154825,-7.15726,6.60922,-0.0257401,0.0254862,-0.0468248,4,0,41.3442497968965,-91.6948007355886,9088.675697198196,-171.65863817526431,0.8842690543032407,-31.002434228631262,194.634,9260.064158607724,11112.292394974402,150,False,5.25684512462123,False,114.82987258450828,169.36044497720442,False,75.6681459985689,False,False
2,1970-07-23 09:45:02.404445262,2025-09-09,2025-09-26 15:04:00.444,HH,C,2891344968,JASSM,3,116,76,2,2,1,225,9,2,0,1,26,0,0,0,0,-132827.23669608062,-4797984.233369674,4190813.509245396,2.36329,2.75072,-0.383975,-74.875,30.875,32.75,0.0,0.0,0.0,0.0,0.0,0.0,2,0,41.3154707518411,-91.58576943392364,9999.998932637927,-60.07714972373288,-0.0050480950780132,0.0012974155726344,,9260.064158607724,11112.292394974402,150,2,2025-09-09,2025-09-26 15:04:00.366,HH,C,4247395532,AMBUSH51,1,1,48,2,1,1,225,2,1,0,0,9,1,225,2,1,-141899.48740043552,-4795489.307802019,4192933.6570276767,2.50405,-1.73255,0.840668,-6.72573,-75.3578,-86.3881,-0.217367,-7.33109,6.66617,-0.00693358,0.020961,-0.0411074,4,0,41.34307839522965,-91.69489901344056,9089.198161005756,-174.95723354150024,0.2399709274247633,-30.84995790209639,194.903,9260.064158607724,11112.292394974402,150,False,5.189412443258551,False,117.62861850051712,168.52171454431272,False,73.73821122306123,False,False
2,1970-07-23 09:45:02.417072071,2025-09-09,2025-09-26 15:04:01.707,HH,C,2892655932,JASSM,3,116,76,2,2,1,225,9,2,0,1,26,0,0,0,0,-132909.69763358062,-4797950.257295455,4190849.551237584,2.36329,2.75072,-0.383975,-74.875,30.875,32.75,0.0,0.0,0.0,0.0,0.0,0.0,2,0,41.31590261904476,-91.58676462846132,10000.000867653136,-60.07780675834312,-0.0041848310688712,0.0012959773052499,,9260.064158607724,11112.292394974402,150,2,2025-09-09,2025-09-26 15:04:01.833,HH,C,4249145264,AMBUSH51,1,1,48,2,1,1,225,2,1,0,0,9,1,225,2,1,-141903.6939411007,-4795598.661536138,4192805.7725727647,2.56652,-1.6493,0.855575,0.612135,-74.8235,-88.0448,-0.124537,-7.59761,6.85943,-0.0193194,0.0156908,-0.0423973,4,0,41.3415636868489,-91.69491060130592,9081.595801844192,-178.16225184284735,-0.3961345783813053,-30.845192159346933,195.404,9260.064158607724,11112.292394974402,150,False,5.111005068433567,False,121.26878206696007,167.4484180646434,False,71.2026675721103,False,False
2,1970-07-23 09:45:02.426264700,2025-09-09,2025-09-26 15:04:02.626,HH,C,2893909818,JASSM,3,116,76,2,2,1,225,9,2,0,1,26,0,0,0,0,-132988.56482108062,-4797917.759736861,4190884.0219407086,2.36329,2.75072,-0.383975,-74.875,30.875,32.75,0.0,0.0,0.0,0.0,0.0,0.0,2,0,41.31631566633736,-91.58771646420556,10000.00058110338,-60.078435172456224,-0.0033591840353967,0.0012945938128536,,9260.064158607724,11112.292394974402,150,2,2025-09-09,2025-09-26 15:04:02.533,HH,C,4249980362,AMBUSH51,1,1,48,2,1,1,225,2,1,0,0,9,1,225,2,1,-141901.8515968127,-4795650.807305058,4192743.614297673,2.59033,-1.60617,0.863365,4.22707,-74.5632,-88.7606,-0.105903,-7.54984,6.8446,-0.0176632,0.0160383,-0.0398361,4,0,41.34083412122735,-91.6948701902996,9075.146707857191,-179.78430372330394,-0.8084939809968061,-31.33586877080173,195.746,9260.064158607724,11112.292394974402,150,False,5.0479519654194425,False,123.04177517124369,166.86240237317168,False,70.02822370544175,False,False
2,1970-07-23 09:45:02.436407131,2025-09-09,2025-09-26 15:04:03.640,HH,C,2895220436,JASSM,3,116,76,2,2,1,225,9,2,0,1,26,0,0,0,0,-133071.00232108062,-4797883.790986861,4190920.051237584,2.36329,2.75072,-0.383975,-74.875,30.875,32.75,0.0,0.0,0.0,0.0,0.0,0.0,2,0,41.316747391187256,-91.5887114023482,10000.000759692435,-60.07909204885397,-0.002496166367081,0.0012931586697651,,9260.064158607724,11112.292394974402,150,2,2025-09-09,2025-09-26 15:04:03.566,HH,C,4251213128,AMBUSH51,1,1,48,2,1,1,225,2,1,0,0,9,1,225,2,1,-141894.52930493816,-4795727.892799358,4192650.585877455,2.63247,-1.53803,0.872329,9.63703,-74.0592,-89.6613,-0.127794,-7.39766,6.73135,-0.00375651,0.0100149,-0.0348135,4,0,41.339748719012974,-91.69475555845108,9062.810151795087,177.70316213350227,-1.3742745491812738,-31.852697549235558,196.272,9260.064158607724,11112.292394974402,150,False,4.974090285255352,False,125.67052167030718,166.0310068498646,False,68.24802395734507,False,False
2,1970-07-23 09:45:02.446468935,2025-09-09,2025-09-26 15:04:04.646,HH,C,2896353830,JASSM,3,116,76,2,2,1,225,9,2,0,1,26,0,0,0,0,-133142.29528983062,-4797854.414033736,4190951.208464146,2.36329,2.75072,-0.383879,-74.875,30.875,32.75,0.0,0.0,0.0,0.0,0.0,0.0,2,0,41.31712073818372,-91.58957184785532,10000.000929286036,-60.08351683316408,-0.005661458534208,0.0012921731408188,,9260.064158607724,11112.292394974402,150,2,2025-09-09,2025-09-26 15:04:04.633,HH,C,4252485660,AMBUSH51,1,1,48,2,1,1,225,2,1,0,0,9,1,225,2,1,-141881.01633591228,-4795805.654230286,4192554.906905299,2.68867,-1.46495,0.87366,15.3514,-73.4171,-90.3718,-0.0383085,-7.73858,7.06222,0.00966956,0.026383,-0.0364323,4,0,41.33864247585199,-91.69456679585068,9045.950688336983,175.0252923168188,-1.648633279879406,-31.77122700778777,197.103,9260.064158607724,11112.292394974402,150,False,4.904538643140243,False,128.4205198670417,165.19044996035052,False,66.35371293021076,False,False
2,1970-07-23 09:45:02.456244923,2025-09-09,2025-09-26 15:04:05.624,HH,C,2897488944,JASSM,3,116,76,2,2,1,225,9,2,0,1,26,0,0,0,0,-133213.69372733062,-4797824.991670455,4190982.411589146,2.36329,2.75072,-0.383879,-74.875,30.875,32.75,0.0,0.0,0.0,0.0,0.0,0.0,2,0,41.31749464129918,-91.59043357676848,9999.999434574367,-60.08408577109845,-0.0049140041400488,0.0012908774061018,,9260.064158607724,11112.292394974402,150,2,2025-09-09,2025-09-26 15:04:05.666,HH,C,4253718426,AMBUSH51,1,1,48,2,1,1,225,2,1,0,0,9,1,225,2,1,-141861.97746027666,-4795881.468472794,4192460.393137993,2.75838,-1.39199,0.872166,20.9881,-72.9237,-90.748,0.0718443,-7.85037,6.9763,0.0127322,0.0129652,-0.0415443,4,0,41.33755664586367,-91.6943127672917,9026.4271010212,172.34945643671338,-1.907785053530408,-30.897249455622003,198.154,9260.064158607724,11112.292394974402,150,False,4.833471629562189,False,131.11036939200855,164.34737922407436,False,64.5169947021833,False,False
2,1970-07-23 09:45:02.466283010,2025-09-09,2025-09-26 15:04:06.628,HH,C,2898680270,JASSM,3,116,76,2,2,1,225,9,2,0,1,26,0,0,0,0,-133288.62732108062,-4797794.111787642,4191015.159636021,2.36329,2.75072,-0.383879,-74.875,30.875,32.75,0.0,0.0,0.0,0.0,0.0,0.0,2,0,41.31788705459065,-91.59133798336484,9999.999818607444,-60.08468289061339,-0.0041295388567198,0.0012895141284067,,9260.064158607724,11112.292394974402,150,2,2025-09-09,2025-09-26 15:04:06.766,HH,C,4255030724,AMBUSH51,1,1,48,2,1,1,225,2,1,0,0,9,1,225,2,1,-141835.73601687924,-4795960.881791331,4192360.601981565,2.83754,-1.31481,0.865592,26.7799,-72.3922,-90.6241,-0.0733745,-7.88746,7.24059,0.00951352,0.0159259,-0.0419146,4,0,41.33641503018818,-91.69397150462036,9003.813107486885,169.4726817805927,-2.0607297351512357,-29.63958924275975,199.303,9260.064158607724,11112.292394974402,150,False,4.756750544925364,False,133.87800570337055,163.44302248791112,False,62.66039897160241,False,False
2,1970-07-23 09:45:02.475426375,2025-09-09,2025-09-26 15:04:07.542,HH,C,2899814780,JASSM,3,116,76,2,2,1,225,9,2,0,1,26,0,0,0,0,-133359.98669608062,-4797764.703584517,4191046.345182896,2.36329,2.75072,-0.383879,-74.875,30.875,32.75,0.0,0.0,0.0,0.0,0.0,0.0,2,0,41.31826074795865,-91.59219926163613,9999.99975716093,-60.08525153970592,-0.0033824890512531,0.0012882123974802,,9260.064158607724,11112.292394974402,150,2,2025-09-09,2025-09-26 15:04:07.469,HH,C,4255865824,AMBUSH51,1,1,48,2,1,1,225,2,1,0,0,9,1,225,2,1,-141815.69430669042,-4796011.294520269,4192297.022662976,2.88938,-1.26745,0.858036,30.4304,-72.21,-90.3864,-0.249008,-8.4458,7.71508,0.0571383,0.0445029,-0.0367756,4,0,41.33568935117624,-91.69371448894393,8988.716252491158,167.65305227584824,-2.042496586424932,-28.663553297265164,199.865,9260.064158607724,11112.292394974402,150,False,4.6926026454143575,False,135.61128646801757,162.804061968802,False,61.568201765956154,False,False
2,1970-07-23 09:45:02.487887106,2025-09-09,2025-09-26 15:04:08.788,HH,C,2900948822,JASSM,3,116,76,2,2,1,225,9,2,0,1,26,0,0,0,0,-133431.31872733062,-4797735.307100142,4191077.517057896,2.36329,2.75072,-0.383879,-74.875,30.875,32.75,0.0,0.0,0.0,0.0,0.0,0.0,2,0,41.31863427735525,-91.5930602195634,10000.00063273862,-60.08581998152912,-0.0026357327869827,0.0012869235437691,,9260.064158607724,11112.292394974402,150,2,2025-09-09,2025-09-26 15:04:08.766,HH,C,4257416722,AMBUSH51,1,1,48,2,1,1,225,2,1,0,0,9,1,225,2,1,-141771.78659449145,-4796104.213003106,4192180.668069428,2.99327,-1.18781,0.835547,37.1869,-72.1418,-89.1675,-0.187446,-8.53711,7.73073,0.0426657,0.0245229,-0.0342164,4,0,41.33435865381333,-91.69315761710764,8962.195343764837,164.39248542071704,-1.6289088621233998,-26.026324920743978,200.928,9260.064158607724,11112.292394974402,150,False,4.60829761337816,False,138.85248987847845,161.74248732418903,False,59.38693831055234,False,False
2,1970-07-23 09:45:02.514549394,2025-09-09,2025-09-26 15:04:11.454,HH,C,2904468644,JASSM,3,116,76,2,2,1,225,9,2,0,1,26,0,0,0,0,-133652.71325858062,-4797644.060518111,4191174.263151646,2.36329,2.75062,-0.383879,-74.875,30.875,32.75,0.0,0.0,0.0,0.0,0.0,0.0,2,0,41.31979359702975,-91.59573245576748,10000.000186449315,-60.08395845357386,-0.0038928209957915,-0.0007738998680575,,9260.064158607724,11112.292394974402,150,2,2025-09-09,2025-09-26 15:04:11.567,HH,C,4260757118,AMBUSH51,1,1,48,2,1,1,225,2,1,0,0,9,1,225,2,1,-141649.6483308397,-4796306.652846845,4191936.619565493,-3.08115,-1.06861,0.769708,49.3567,-73.2301,-84.202,-0.251977,-9.00686,8.09659,0.0410741,0.0247164,-0.0215622,4,0,41.331527985401536,-91.69162842662762,8923.009831967762,158.648083817887,0.2971833335865338,-18.9153627805534,202.406,9260.064158607724,11112.292394974402,150,False,4.3782606650188605,False,144.83311985237316,159.18747298419223,False,55.918926750820596,False,False
2,1970-07-23 09:45:02.515584620,2025-09-09,2025-09-26 15:04:11.558,HH,C,2903216212,JASSM,3,116,76,2,2,1,225,9,2,0,1,26,0,0,0,0,-133573.93591483062,-4797676.52877983,4191139.839323521,2.36329,2.75062,-0.383879,-74.875,30.875,32.75,0.0,0.0,0.0,0.0,0.0,0.0,2,0,41.31938109227969,-91.59478160067722,9999.999384934385,-60.08333064356058,-0.0047175258681178,-0.0007725206809684,,9260.064158607724,11112.292394974402,150,2,2025-09-09,2025-09-26 15:04:11.567,HH,C,4260757118,AMBUSH51,1,1,48,2,1,1,225,2,1,0,0,9,1,225,2,1,-141649.6483308397,-4796306.652846845,4191936.619565493,-3.08115,-1.06861,0.769708,49.3567,-73.2301,-84.202,-0.251977,-9.00686,8.09659,0.0410741,0.0247164,-0.0215622,4,0,41.331527985401536,-91.69162842662762,8923.009831967762,158.648083817887,0.2971833335865338,-18.9153627805534,202.406,9260.064158607724,11112.292394974402,150,False,4.4245926857141145,False,144.83311985237316,159.4145947890459,False,55.69227224483293,False,False
2,1970-07-23 09:45:02.525545701,2025-09-09,2025-09-26 15:04:12.554,HH,C,2905719488,JASSM,3,116,76,2,2,1,225,9,2,0,1,26,0,0,0,0,-133731.39294608062,-4797611.632295455,4191208.642057896,2.36329,2.75062,-0.383879,-74.875,30.875,32.75,0.0,0.0,0.0,0.0,0.0,0.0,2,0,41.32020556859995,-91.59668214416966,9999.99993035699,-60.08458549842391,-0.0030691454384573,-0.0007752651945526,,9260.064158607724,11112.292394974402,150,2,2025-09-09,2025-09-26 15:04:12.566,HH,C,4261950116,AMBUSH51,1,1,48,2,1,1,225,2,1,0,0,9,1,225,2,1,-141598.38627933382,-4796379.553997288,4191852.997401096,-3.02248,-1.03903,0.749902,52.6887,-73.5318,-82.2336,-0.198391,-8.77993,7.78366,0.0328391,0.0147441,-0.0099338,4,0,41.33053870433673,-91.69099090604274,8917.62009670547,157.0745262796975,0.863599089918242,-16.73696552127478,202.516,9260.064158607724,11112.292394974402,150,False,4.294716682109636,False,146.52454148053846,158.23743705009696,False,55.150294077197884,False,False
2,1970-07-23 09:45:02.531785617,2025-09-09,2025-09-26 15:04:13.178,HH,C,2902082786,JASSM,3,116,76,2,2,1,225,9,2,0,1,26,0,0,0,0,-133502.64294608062,-4797705.91159233,4191108.6860032086,2.36329,2.75072,-0.383879,-74.875,30.875,32.75,0.0,0.0,0.0,0.0,0.0,0.0,2,0,41.31900777597578,-91.59392109377004,10000.000590147722,-60.08638837230751,-0.0018890495967856,0.0012856207523942,,9260.064158607724,11112.292394974402,150,2,2025-09-09,2025-09-26 15:04:13.266,HH,C,4262785216,AMBUSH51,1,1,48,2,1,1,225,2,1,0,0,9,1,225,2,1,-141559.89922812063,-4796431.380228051,4191794.665655133,-3.01507,-1.02458,0.744075,54.8343,-73.4101,-81.1546,0.143716,-8.1093,6.96386,-0.0133938,0.022563,-0.0056769,4,0,41.32984331306268,-91.69051329830128,8916.06291783097,156.38408334850453,0.9240741483831943,-16.885474953645172,202.37,9260.064158607724,11112.292394974402,150,False,4.400991290125605,False,147.61547191737026,158.4350838462827,False,53.852337699046785,False,False
