Subject_cm,Timestamp,SampleDate_cm,SampleTime_cm,Configuration_cm,Scenario_cm,DisTime_cm,MarkingTxt_cm,Application_cm,EntId_cm,Site_cm,ExerciseId_cm,ForceId_cm,Category_cm,Country_cm,Domain_cm,Kind_cm,Extra_cm,Specific_cm,Subcategory_cm,AltCategory_cm,AltCountry_cm,AltDomain_cm,AltKind_cm,ECEF_X_cm,ECEF_Y_cm,ECEF_Z_cm,OriPhi_cm,OriPsi_cm,OriTheta_cm,LinVelX_cm,LinVelY_cm,LinVelZ_cm,LinAccX_cm,LinAccY_cm,LinAccZ_cm,AngVelX_cm,AngVelY_cm,AngVelZ_cm,DrAlg_cm,Appearance_cm,Latitude_cm,Longitude_cm,Altitude_cm,Heading_cm,Pitch_cm,Roll_cm,CalibratedAirspeed_cm,CM_Altitude_Lead_cm,CM_Altitude_Wing_cm,CM_Airspeed_cm,Subject_ac,SampleDate_ac,SampleTime_ac,Configuration_ac,Scenario_ac,DisTime_ac,MarkingTxt_ac,Application_ac,EntId_ac,Site_ac,ExerciseId_ac,ForceId_ac,Category_ac,Country_ac,Domain_ac,Kind_ac,Extra_ac,Specific_ac,Subcategory_ac,AltCategory_ac,AltCountry_ac,AltDomain_ac,AltKind_ac,ECEF_X_ac,ECEF_Y_ac,ECEF_Z_ac,OriPhi_ac,OriPsi_ac,OriTheta_ac,LinVelX_ac,LinVelY_ac,LinVelZ_ac,LinAccX_ac,LinAccY_ac,LinAccZ_ac,AngVelX_ac,AngVelY_ac,AngVelZ_ac,DrAlg_ac,Appearance_ac,Latitude_ac,Longitude_ac,Altitude_ac,Heading_ac,Pitch_ac,Roll_ac,CalibratedAirspeed_ac,CM_Altitude_Lead_ac,CM_Altitude_Wing_ac,CM_Airspeed_ac,Bank_Angle_Condition,distance_nm,Distance_Condition,angle_between_vel,angle_between_pos,Cone_Condition,angle_between_pos_nose,Nose_Cone_Condition,Intercept_Criteria
2,1970-07-23 09:45:01.894428097,2025-09-09,2025-09-26 15:03:09.442,HH,C,2830497664,JASSM,3,119,76,2,2,1,225,9,2,0,1,26,0,0,0,0,-118990.84636842164,-4814889.935133276,4171924.476042271,2.50557,2.45389,-0.614551,-56.75,46.75,52.0,0.0,0.0,0.0,0.0,0.0,0.0,2,0,41.08952090355093,-91.41566805518326,10000.001014079782,-40.086708724326726,-0.0025748099655143,0.0009861825176894,,9260.064158607724,11112.292394974402,150,2,2025-09-09,2025-09-26 15:03:09.298,HH,C,4186473062,AMBUSH51,1,1,48,2,1,1,225,2,1,0,0,9,1,225,2,1,-137497.0014660293,-4793606.016495489,4195296.632620597,2.52933,-3.09703,0.108175,-117.137,-2.45289,-9.59596,-0.180079,-7.32666,6.63413,-0.00259138,0.00862302,0.0193901,4,0,41.370998948912245,-91.64298826561436,9260.064158607724,-97.4186421569654,-0.9607034959674494,13.384168708329014,198.875,9260.064158607724,11112.292394974402,150,False,19.771161548995547,False,55.2529144492652,171.27883615701847,False,116.0538720879661,False,False
2,1970-07-23 09:45:01.905446872,2025-09-09,2025-09-26 15:03:10.544,HH,C,2831810404,JASSM,3,119,76,2,2,1,225,9,2,0,1,26,0,0,0,0,-119053.50652467164,-4814838.453199682,4171981.71774149,2.50557,2.45379,-0.614551,-56.75,46.75,52.0,0.0,0.0,0.0,0.0,0.0,0.0,2,0,41.09020446694694,-91.41642837594884,9999.999883607526,-40.083599021997294,-0.0043479152372488,-0.0021821121867857,,9260.064158607724,11112.292394974402,150,2,2025-09-09,2025-09-26 15:03:10.465,HH,C,4187864894,AMBUSH51,1,1,48,2,1,1,225,2,1,0,0,9,1,225,2,1,-137633.18809848325,-4793607.512235094,4195286.528249641,2.51963,-3.11363,0.0924,-117.721,-0.533793,-7.74875,-0.233294,-7.32508,6.67041,-0.00880404,-0.00110792,0.0134375,4,0,41.37089857144768,-91.64461418978104,9251.453347914996,-96.1155551049287,-1.069326701070356,12.900091242314458,199.351,9260.064158607724,11112.292394974402,150,False,19.75136332060284,False,53.947874655006764,171.44537384761662,False,117.52776817800788,False,False
2,1970-07-23 09:45:01.916208001,2025-09-09,2025-09-26 15:03:11.620,HH,C,2833064590,JASSM,3,119,76,2,2,1,225,9,2,0,1,26,0,0,0,0,-119113.37371217164,-4814789.266676244,4172036.405729771,2.50557,2.45379,-0.614551,-56.75,46.75,52.0,0.0,0.0,0.0,0.0,0.0,0.0,2,0,41.09085753749395,-91.41715482124218,10000.000374192708,-40.08407647856313,-0.0034957084584182,-0.0021837343539638,,9260.064158607724,11112.292394974402,150,2,2025-09-09,2025-09-26 15:03:11.698,HH,C,4189336260,AMBUSH51,1,1,48,2,1,1,225,2,1,0,0,9,1,225,2,1,-137778.8113791052,-4793606.92963233,4195277.919656186,2.45802,-3.12862,0.0773671,-118.314,1.26138,-6.0679,-0.0340961,-7.38277,6.50126,-0.0380239,-0.00304287,0.0234847,4,0,41.37081901860128,-91.64635352246448,9241.648083135256,-94.90442909211156,-1.1395117066605502,9.419886039681868,200.024,9260.064158607724,11112.292394974402,150,True,19.73785393276952,False,52.752961134781664,171.62390957369405,False,118.90381534019636,False,False
2,1970-07-23 09:45:01.927207596,2025-09-09,2025-09-26 15:03:12.720,HH,C,2834377314,JASSM,3,119,76,2,2,1,225,9,2,0,1,26,0,0,0,0,-119176.03777467164,-4814737.783277807,4172093.644987584,2.50557,2.45379,-0.614455,-56.75,46.75,52.0,0.0,0.0,0.0,0.0,0.0,0.0,2,0,41.0915410824504,-91.41791521971363,10000.000511150298,-40.08783804453826,-0.0070215182737966,-0.0021851386709273,,9260.064158607724,11112.292394974402,150,2,2025-09-09,2025-09-26 15:03:12.831,HH,C,4190688324,AMBUSH51,1,1,48,2,1,1,225,2,1,0,0,9,1,225,2,1,-137913.93648877737,-4793604.675354325,4195271.736961382,2.41214,-3.13485,0.0667282,-118.743,2.3753,-4.74506,-0.222212,-7.48866,6.88672,-0.0625645,0.000259034,0.0107307,4,0,41.3707675597922,-91.64796805087532,9232.256565764948,-94.21274955863328,-1.0021034411031062,6.803892239635149,200.537,9260.064158607724,11112.292394974402,150,True,19.720626859077775,False,51.9130584856305,171.7852051957254,False,119.90556420862758,False,False
2,1970-07-23 09:45:01.938261558,2025-09-09,2025-09-26 15:03:13.826,HH,C,2835748834,JASSM,3,119,76,2,2,1,225,9,2,0,1,26,0,0,0,0,-119241.50652467164,-4814683.992262182,4172153.447233677,2.50557,2.45379,-0.614455,-56.75,46.75,52.0,0.0,0.0,0.0,0.0,0.0,0.0,2,0,41.09225524300432,-91.418709669551,10000.0001685348,-40.08836021132759,-0.0060895772122458,-0.0021869620968986,,9260.064158607724,11112.292394974402,150,2,2025-09-09,2025-09-26 15:03:13.998,HH,C,4192080156,AMBUSH51,1,1,48,2,1,1,225,2,1,0,0,9,1,225,2,1,-138051.78568298873,-4793601.321330894,4195266.774055675,2.3559,-3.13898,0.0598295,-119.017,3.09732,-3.85379,-0.00367093,-7.59673,6.71542,-0.0297723,0.0144071,0.0110864,4,0,41.37073038942204,-91.64961548921023,9223.005941536534,-93.76108032765372,-0.9166579917824226,3.5886907110976773,201.392,9260.064158607724,11112.292394974402,150,True,19.702697596401148,False,51.359191341480084,171.94809879073193,False,120.6228203835534,False,False
2,1970-07-23 09:45:01.949264426,2025-09-09,2025-09-26 15:03:14.926,HH,C,2837061112,JASSM,3,119,76,2,2,1,225,9,2,0,1,26,0,0,0,0,-119304.14714967164,-4814632.524000463,4172210.665007115,2.50557,2.45379,-0.614455,-56.75,46.75,52.0,0.0,0.0,0.0,0.0,0.0,0.0,2,0,41.0929385457241,-91.4194698170493,10000.00032299441,-40.0888598392871,-0.005197895924779,-0.0021887051188945,,9260.064158607724,11112.292394974402,150,2,2025-09-09,2025-09-26 15:03:14.998,HH,C,4193273156,AMBUSH51,1,1,48,2,1,1,225,2,1,0,0,9,1,225,2,1,-138170.82628383455,-4793598.025472044,4195263.707122752,2.31189,-3.14053,0.0582547,-119.149,1.44427,-1.64867,-0.033622,-7.53187,6.5037,-0.0574255,0.00219191,-0.00222728,4,0,41.37070887893567,-91.65103828286011,9216.685122024855,-93.63559739022944,-0.9225482263963573,1.0705127375217858,202.235,9260.064158607724,11112.292394974402,150,True,19.68271496665176,False,51.07089459428352,172.08594755507292,False,121.03221632904646,False,False
2,1970-07-23 09:45:01.960405614,2025-09-09,2025-09-26 15:03:16.040,HH,C,2838432776,JASSM,3,119,76,2,2,1,225,9,2,0,1,26,0,0,0,0,-119369.61980592164,-4814578.725172338,4172270.4711594586,2.50566,2.45379,-0.614455,-56.75,46.75,52.0,0.0,0.0,0.0,0.0,0.0,0.0,2,0,41.093652767510186,-91.4202643493175,10000.000162371816,-40.08938207491739,-0.0042658762465052,0.0033009252782887,,9260.064158607724,11112.292394974402,150,2,2025-09-09,2025-09-26 15:03:15.898,HH,C,4194346854,AMBUSH51,1,1,48,2,1,1,225,2,1,0,0,9,1,225,2,1,-138278.91830935734,-4793594.75994949,4195260.423604418,2.2695,3.14061,0.0560208,-119.279,3.20669,-3.04613,-0.168993,-7.4368,6.56803,-0.0435625,-7.17805e-05,-0.00486547,4,0,41.3706875856009,-91.65233031117216,9209.1992910781,-93.46320865909192,-0.9245532469826588,-1.3547282499888935,202.516,9260.064158607724,11112.292394974402,150,True,19.657300428397026,False,51.02806818800103,172.2085232883541,False,121.21238216527809,False,False
2,1970-07-23 09:45:01.971424996,2025-09-09,2025-09-26 15:03:17.142,HH,C,2839745952,JASSM,3,119,76,2,2,1,225,9,2,0,1,26,0,0,0,0,-119432.30339967164,-4814527.219312963,4172327.726042271,2.50566,2.45379,-0.614455,-56.75,46.75,52.0,0.0,0.0,0.0,0.0,0.0,0.0,2,0,41.09433652756046,-91.42102505116542,10000.000407363435,-40.089882081279896,-0.0033735839230978,0.0032991821256968,,9260.064158607724,11112.292394974402,150,2,2025-09-09,2025-09-26 15:03:17.032,HH,C,4195698920,AMBUSH51,1,1,48,2,1,1,225,2,1,0,0,9,1,225,2,1,-138413.2849428682,-4793591.507743976,4195256.49111593,2.21305,-3.13793,0.0578257,-119.294,2.86293,-3.54498,-0.154538,-7.63245,6.51683,-0.0526859,-0.00070012,0.00548341,4,0,41.37065730477481,-91.65393612272123,9202.2119861705,-93.71756474820798,-0.7923972150522137,-4.600596647917372,202.736,9260.064158607724,11112.292394974402,150,True,19.641491701769752,False,51.317396524661056,172.36796951106396,False,121.08374002476388,False,False
2,1970-07-23 09:45:01.983446098,2025-09-09,2025-09-26 15:03:18.344,HH,C,2841056458,JASSM,3,119,76,2,2,1,225,9,2,0,1,26,0,0,0,0,-119494.86199342164,-4814475.816480932,4172384.863737584,2.50566,2.45379,-0.614455,-56.75,46.75,52.0,0.0,0.0,0.0,0.0,0.0,0.0,2,0,41.095018896693546,-91.42178425169992,9999.99999675039,-40.09038110768382,-0.0024830881798168,0.003297456795079,,9260.064158607724,11112.292394974402,150,2,2025-09-09,2025-09-26 15:03:18.198,HH,C,4197090752,AMBUSH51,1,1,48,2,1,1,225,2,1,0,0,9,1,225,2,1,-138553.18953522365,-4793588.912451249,4195251.890416851,2.14458,-3.12426,0.0615129,-119.218,1.53031,-4.01997,-0.139439,-7.74682,6.90524,-0.0445861,0.0127031,-0.0161881,4,0,41.37061763066145,-91.65560784477434,9195.795663357365,-94.39445997574876,-0.3444782090982808,-8.563769297990296,202.846,9260.064158607724,11112.292394974402,150,True,19.627074726351246,False,51.905980536007476,172.53587326874592,False,120.65900313770858,False,False
2,1970-07-23 09:45:01.993244465,2025-09-09,2025-09-26 15:03:19.324,HH,C,2842310958,JASSM,3,119,76,2,2,1,225,9,2,0,1,26,0,0,0,0,-119554.74089967164,-4814426.609937963,4172439.5585618014,2.50566,2.4537,-0.614455,-56.75,46.75,52.0,0.0,0.0,0.0,0.0,0.0,0.0,2,0,41.09567209596267,-91.42251094835356,10000.000584088624,-40.087248966556665,-0.0042957523697732,0.000129670712585,,9260.064158607724,11112.292394974402,150,2,2025-09-09,2025-09-26 15:03:19.332,HH,C,4198442816,AMBUSH51,1,1,48,2,1,1,225,2,1,0,0,9,1,225,2,1,-138687.67027221812,-4793588.262343277,4195246.108340561,2.0792,-3.11939,0.0695807,-119.133,0.0671698,-5.63828,-0.221115,-7.96946,6.88296,-0.0511941,0.0133397,-0.00887894,4,0,41.37055932023888,-91.65721411880806,9191.228757384895,-94.92607273801848,-0.4408290866869724,-12.324113955305696,202.883,9260.064158607724,11112.292394974402,150,False,19.61255666010727,False,52.95426543408434,172.69944781513664,False,119.77474258418083,False,False
2,1970-07-23 09:45:02.004666011,2025-09-09,2025-09-26 15:03:20.466,HH,C,2843621168,JASSM,3,119,76,2,2,1,225,9,2,0,1,26,0,0,0,0,-119617.28386842164,-4814375.217848119,4172496.6801438336,2.50566,2.4537,-0.614455,-56.75,46.75,52.0,0.0,0.0,0.0,0.0,0.0,0.0,2,0,41.0963542846205,-91.42326999062831,10000.000905798252,-40.08774790224477,-0.0034054789153399,0.0001280023801688,,9260.064158607724,11112.292394974402,150,2,2025-09-09,2025-09-26 15:03:20.431,HH,C,4199755116,AMBUSH51,1,1,48,2,1,1,225,2,1,0,0,9,1,225,2,1,-138819.38327669323,-4793589.32926042,4195238.816273528,2.01426,-3.10548,0.0853632,-118.875,-1.84779,-7.42792,-0.0730466,-7.66548,6.68598,-0.0569282,0.00733514,-0.0239216,4,0,41.37048105601173,-91.658786742993,9187.42537681044,-96.1310255514678,-0.4431533618448602,-16.09721024119908,202.993,9260.064158607724,11112.292394974402,150,False,19.594111276084494,False,54.21102349428439,172.86059742720457,False,118.67815733218411,False,False
2,1970-07-23 09:45:02.013422680,2025-09-09,2025-09-26 15:03:21.342,HH,C,2844755486,JASSM,3,119,76,2,2,1,225,9,2,0,1,26,0,0,0,0,-119671.42839967164,-4814330.722242651,4172546.134245396,2.50566,2.4537,-0.614359,-56.75,46.75,52.0,0.0,0.0,0.0,0.0,0.0,0.0,2,0,41.096944910226696,-91.42392712071042,10000.000315685606,-40.09144342437072,-0.0070554518180174,0.0001268044790655,,9260.064158607724,11112.292394974402,150,2,2025-09-09,2025-09-26 15:03:21.165,HH,C,4200629982,AMBUSH51,1,1,48,2,1,1,225,2,1,0,0,9,1,225,2,1,-138906.47190504542,-4793591.162761769,4195232.769545577,1.98451,-3.09499,0.0953859,-118.629,-3.04061,-9.15864,-0.100632,-7.77795,6.71329,-0.0313598,0.00589537,-0.0314534,4,0,41.37041431332994,-91.65982616984331,9185.034986757935,-96.95857016524027,-0.3749156383667662,-17.85031239421724,202.92,9260.064158607724,11112.292394974402,150,False,19.57037848955401,False,55.22236194993317,172.9647298349041,False,117.77301752734718,False,False
2,1970-07-23 09:45:02.024203466,2025-09-09,2025-09-26 15:03:22.420,HH,C,2845949388,JASSM,3,119,76,2,2,1,225,9,2,0,1,26,0,0,0,0,-119728.42058717164,-4814283.889234838,4172598.184538365,2.50566,2.4537,-0.614359,-56.75,46.75,52.0,0.0,0.0,0.0,0.0,0.0,0.0,2,0,41.097566545987824,-91.42461882352876,10000.000355508202,-40.09189810753289,-0.0062441908175487,0.0001252378914106,,9260.064158607724,11112.292394974402,150,2,2025-09-09,2025-09-26 15:03:22.298,HH,C,4201982046,AMBUSH51,1,1,48,2,1,1,225,2,1,0,0,9,1,225,2,1,-139039.93507162284,-4793596.146389435,4195220.677035709,1.93782,-3.07726,0.117841,-118.174,-5.34825,-11.9453,-0.11061,-7.68864,6.68964,-0.0431713,0.00533777,-0.019001,4,0,41.37028000032687,-91.66141833296656,9180.601540365784,-98.5923764916402,-0.4726413682269632,-20.62153594953414,203.066,9260.064158607724,11112.292394974402,150,False,19.554574359670063,False,56.977449289378875,173.1356088319495,False,116.19027477019667,False,False
2,1970-07-23 09:45:02.033290726,2025-09-09,2025-09-26 15:03:23.329,HH,C,2847083084,JASSM,3,119,76,2,2,1,225,9,2,0,1,26,0,0,0,0,-119782.53386842164,-4814239.417066869,4172647.609343053,2.50566,2.4537,-0.614359,-56.75,46.75,52.0,0.0,0.0,0.0,0.0,0.0,0.0,2,0,41.09815683105244,-91.42527559915231,10000.000359052605,-40.09232983694319,-0.0054738675454766,0.0001237161638038,,9260.064158607724,11112.292394974402,150,2,2025-09-09,2025-09-26 15:03:23.198,HH,C,4203055746,AMBUSH51,1,1,48,2,1,1,225,2,1,0,0,9,1,225,2,1,-139146.0714174105,-4793601.84377393,4195208.795715917,1.92937,-3.06246,0.135351,-117.687,-7.18337,-14.4491,-0.177119,-7.55733,6.61978,0.00513595,0.00645296,-0.0209214,4,0,41.37014756463829,-91.66268389249709,9176.439488200478,-99.90186099399024,-0.5109623553548973,-21.20159595771119,202.883,9260.064158607724,11112.292394974402,150,False,19.533363977036693,False,58.48694991592111,173.2714354541202,False,114.8190825425044,False,False
2,1970-07-23 09:45:02.043386773,2025-09-09,2025-09-26 15:03:24.338,HH,C,2848274056,JASSM,3,119,76,2,2,1,225,9,2,0,1,26,0,0,0,0,-119839.38543092164,-4814192.697340307,4172699.5297532086,2.50566,2.4537,-0.614359,-56.75,46.75,52.0,0.0,0.0,0.0,0.0,0.0,0.0,2,0,41.09877692838012,-91.42596562125522,9999.99979213747,-40.09278342634061,-0.0046646053609942,0.0001221515475114,,9260.064158607724,11112.292394974402,150,2,2025-09-09,2025-09-26 15:03:24.331,HH,C,4204407810,AMBUSH51,1,1,48,2,1,1,225,2,1,0,0,9,1,225,2,1,-139279.80919168278,-4793611.450211328,4195190.408367801,1.92688,-3.04278,0.163354,-116.958,-9.59288,-17.6473,-0.241328,-7.65194,6.78359,0.00145746,0.000150843,-0.0246956,4,0,41.36994316155677,-91.66427771990764,9169.769903073557,-101.84211591486044,-0.7487079055855574,-21.49066639714544,203.054,9260.064158607724,11112.292394974402,150,False,19.51453113130612,False,60.44632073171066,173.4497262214433,False,113.04098020908484,False,False
2,1970-07-23 09:45:02.053425485,2025-09-09,2025-09-26 15:03:25.342,HH,C,2849467104,JASSM,3,119,76,2,2,1,225,9,2,0,1,26,0,0,0,0,-119896.33464967164,-4814145.895094213,4172751.540495396,2.50566,2.4537,-0.614359,-56.75,46.75,52.0,0.0,0.0,0.0,0.0,0.0,0.0,2,0,41.099398107847286,-91.42665684232144,10000.000276935496,-40.09323780954596,-0.0038539366304597,0.0001205710127487,,9260.064158607724,11112.292394974402,150,2,2025-09-09,2025-09-26 15:03:25.365,HH,C,4205640576,AMBUSH51,1,1,48,2,1,1,225,2,1,0,0,9,1,225,2,1,-139399.3480582015,-4793622.514097269,4195170.556441324,1.92806,-3.02397,0.186642,-116.148,-11.9108,-20.4471,0.0922303,-7.79986,6.64689,0.0105101,0.00387511,-0.0263996,4,0,41.36972263366848,-91.66570146309692,9162.50466036199,-103.5451882496764,-0.8507387221973588,-21.58690113733318,203.274,9260.064158607724,11112.292394974402,150,False,19.490735775533462,False,62.24385745225317,173.6111263467043,False,111.40661208201806,False,False
2,1970-07-23 09:45:02.063466742,2025-09-09,2025-09-26 15:03:26.346,HH,C,2850660518,JASSM,3,119,76,2,2,1,225,9,2,0,1,26,0,0,0,0,-119953.29949342164,-4814099.077711401,4172803.565886021,2.50566,2.4537,-0.614359,-56.75,46.75,52.0,0.0,0.0,0.0,0.0,0.0,0.0,2,0,41.10001946967464,-91.42734826674646,10000.000093497332,-40.09369233210335,-0.0030430328860855,0.0001189800634681,,9260.064158607724,11112.292394974402,150,2,2025-09-09,2025-09-26 15:03:26.298,HH,C,4206754042,AMBUSH51,1,1,48,2,1,1,225,2,1,0,0,9,1,225,2,1,-139508.31271844008,-4793634.757802849,4195149.850663552,1.9218,-3.00697,0.208263,-115.446,-14.214,-23.0388,-0.233982,-7.90828,6.96013,-0.00289515,0.0124201,-0.0293312,4,0,41.36949113576325,-91.66699850664452,9155.54182556166,-105.10549969698404,-0.9727589772143654,-22.112095008822557,203.274,9260.064158607724,11112.292394974402,150,False,19.463347343292703,False,63.95323139132645,173.76003004615623,False,109.8470607939162,False,False
2,1970-07-23 09:45:02.073225575,2025-09-09,2025-09-26 15:03:27.322,HH,C,2851795462,JASSM,3,119,76,2,2,1,225,9,2,0,1,26,0,0,0,0,-120007.47527467164,-4814054.553297338,4172853.04196024,2.50566,2.4537,-0.614359,-56.75,46.75,52.0,0.0,0.0,0.0,0.0,0.0,0.0,2,0,41.1006103864498,-91.42800585013028,10000.001110237008,-40.094124613796005,-0.0022718462898151,0.0001174788655739,,9260.064158607724,11112.292394974402,150,2,2025-09-09,2025-09-26 15:03:27.298,HH,C,4207947040,AMBUSH51,1,1,48,2,1,1,225,2,1,0,0,9,1,225,2,1,-139622.32235591544,-4793650.125748707,4195125.020046943,1.87158,-2.98615,0.229577,-114.343,-16.688,-26.2463,-0.149929,-7.88884,6.97035,-0.0677931,0.00947191,-0.0295434,4,0,41.36921231319452,-91.66835470380714,9147.69209508678,-106.79342101861108,-0.9335344597461848,-25.22060014868844,203.201,9260.064158607724,11112.292394974402,150,False,19.437606387637032,False,65.97927976109142,173.92116357453068,False,107.98508239297516,False,False
2,1970-07-23 09:45:02.082664734,2025-09-09,2025-09-26 15:03:28.266,HH,C,2852987674,JASSM,3,119,76,2,2,1,225,9,2,0,1,26,0,0,0,0,-120064.38543092164,-4814007.780836401,4172905.013151646,2.50566,2.4536,-0.614359,-56.75,46.75,52.0,0.0,0.0,0.0,0.0,0.0,0.0,2,0,41.10123111483127,-91.42869663617624,9999.999859047257,-40.09096852663626,-0.0041267885404163,-0.0030497454182245,,9260.064158607724,11112.292394974402,150,2,2025-09-09,2025-09-26 15:03:28.398,HH,C,4209259338,AMBUSH51,1,1,48,2,1,1,225,2,1,0,0,9,1,225,2,1,-139748.17299876933,-4793670.197013677,4195093.891792925,1.84268,-2.9618,0.261499,-112.977,-19.5504,-29.855,0.0245832,-7.89145,6.58084,-0.0305795,0.0163379,-0.0446985,4,0,41.36886092133972,-91.6698506611469,9138.61916742823,-109.05704932415684,-1.1743484773388333,-27.17397230207273,203.274,9260.064158607724,11112.292394974402,150,False,19.409642467393716,False,68.3006922237465,174.1043855814045,False,105.8499317108145,False,False
2,1970-07-23 09:45:02.092404449,2025-09-09,2025-09-26 15:03:29.240,HH,C,2854181602,JASSM,3,119,76,2,2,1,225,9,2,0,1,26,0,0,0,0,-120121.37371217164,-4813960.940504369,4172957.0585618014,2.50566,2.4536,-0.614359,-56.75,46.75,52.0,0.0,0.0,0.0,0.0,0.0,0.0,2,0,41.10185273227353,-91.42938838463978,9999.999942316295,-40.09142327888024,-0.0033155412964064,-0.0030512931938376,,9260.064158607724,11112.292394974402,150,2,2025-09-09,2025-09-26 15:03:29.098,HH,C,4210094438,AMBUSH51,1,1,48,2,1,1,225,2,1,0,0,9,1,225,2,1,-139826.86028223808,-4793684.480115391,4195071.936577966,1.83111,-2.94129,0.284866,-111.92,-21.3917,-32.4014,-0.078851,-7.90187,6.82995,-0.00359631,0.0149959,-0.0421851,4,0,41.36861406293382,-91.670785387163,9131.81320889734,-110.8092614406736,-1.2555161531922936,-28.11672876836931,203.311,9260.064158607724,11112.292394974402,150,False,19.372683520760784,False,69.89861652434973,174.21621798604042,False,104.36695908090029,False,False
2,1970-07-23 09:45:02.102442405,2025-09-09,2025-09-26 15:03:30.244,HH,C,2855373302,JASSM,3,119,76,2,2,1,225,9,2,0,1,26,0,0,0,0,-120178.26043092164,-4813914.186598119,4173009.0063157086,2.50566,2.4536,-0.614263,-56.75,46.75,52.0,0.0,0.0,0.0,0.0,0.0,0.0,2,0,41.10247318699093,-91.43007891242816,10000.000920828355,-40.09513853095173,-0.0069239473055349,-0.0030525376736154,,9260.064158607724,11112.292394974402,150,2,2025-09-09,2025-09-26 15:03:30.097,HH,C,4211287436,AMBUSH51,1,1,48,2,1,1,225,2,1,0,0,9,1,225,2,1,-139936.97494304008,-4793706.943176305,4195037.902838236,1.84517,-2.91044,0.313245,-110.114,-24.0496,-36.076,-0.209527,-8.16761,6.93758,0.00996085,0.00779911,-0.040762,4,0,41.36823152477732,-91.6720925651239,9121.2106922159,-113.15213545280356,-1.139028353181083,-27.782819460874943,203.824,9260.064158607724,11112.292394974402,150,False,19.338695778270804,False,72.25218540510534,174.3826644215363,False,102.1845266574212,False,False
2,1970-07-23 09:45:02.113271074,2025-09-09,2025-09-26 15:03:31.327,HH,C,2856566346,JASSM,3,119,76,2,2,1,225,9,2,0,1,26,0,0,0,0,-120235.20964967164,-4813867.378492651,4173061.0116868014,2.50566,2.4536,-0.614263,-56.75,46.75,52.0,0.0,0.0,0.0,0.0,0.0,0.0,2,0,41.10309433961018,-91.43077021274244,10000.000259195143,-40.09559299979647,-0.0061132795979485,-0.0030541109826924,,9260.064158607724,11112.292394974402,150,2,2025-09-09,2025-09-26 15:03:31.231,HH,C,4212639502,AMBUSH51,1,1,48,2,1,1,225,2,1,0,0,9,1,225,2,1,-140061.02851705474,-4793736.280021594,4194994.031050514,1.84933,-2.8775,0.346821,-107.843,-27.2776,-40.2045,-0.181501,-8.3035,7.17209,-0.00376692,0.0240111,-0.0323626,4,0,41.36773923104379,-91.67356378979274,9107.203453128262,-115.77809001403644,-1.1794850624082671,-28.10352631432213,203.751,9260.064158607724,11112.292394974402,150,False,19.30361926292847,False,75.0151195314324,174.57839829507674,False,99.62175499193582,False,False
2,1970-07-23 09:45:02.122410575,2025-09-09,2025-09-26 15:03:32.241,HH,C,2857758940,JASSM,3,119,76,2,2,1,225,9,2,0,1,26,0,0,0,0,-120292.13543092164,-4813820.587477026,4173112.996550084,2.50576,2.4536,-0.614263,-56.75,46.75,52.0,0.0,0.0,0.0,0.0,0.0,0.0,2,0,41.10371525131093,-91.43146124221704,10000.000340536151,-40.096047296253104,-0.0053029308147711,0.0024357766534836,,9260.064158607724,11112.292394974402,150,2,2025-09-09,2025-09-26 15:03:32.268,HH,C,4213872268,AMBUSH51,1,1,48,2,1,1,225,2,1,0,0,9,1,225,2,1,-140171.0946508456,-4793766.220873993,4194950.020611905,1.84724,-2.85151,0.378276,-105.525,-30.1952,-44.2031,0.0203489,-8.06448,6.73706,0.00108919,0.0200143,-0.0396988,4,0,41.36724482196956,-91.67486774625915,9093.38481743401,-118.04167483245956,-1.4406021797588724,-28.699482931567943,203.897,9260.064158607724,11112.292394974402,150,False,19.26436802348944,False,77.65434998730038,174.75661041036597,False,97.16631302700311,False,False
2,1970-07-23 09:45:02.132449579,2025-09-09,2025-09-26 15:03:33.244,HH,C,2858892334,JASSM,3,119,76,2,2,1,225,9,2,0,1,26,0,0,0,0,-120346.23699342164,-4813776.119215307,4173162.3988938336,2.50576,2.4536,-0.614263,-56.75,46.75,52.0,0.0,0.0,0.0,0.0,0.0,0.0,2,0,41.10430532303311,-91.4321179997972,10000.000217435349,-40.09647906694019,-0.0045328094528925,0.0024342907057298,,9260.064158607724,11112.292394974402,150,2,2025-09-09,2025-09-26 15:03:33.301,HH,C,4215105032,AMBUSH51,1,1,48,2,1,1,225,2,1,0,0,9,1,225,2,1,-140278.19912813016,-4793798.786541074,4194902.640233439,1.85293,-2.82236,0.41023,-103.179,-33.0633,-47.7753,-0.0966207,-8.07958,6.92099,-0.00544804,0.0172492,-0.0334383,4,0,41.36671254454483,-91.67613539983184,9078.513942997746,-120.42870036209506,-1.636629471083515,-28.95084627816395,203.934,9260.064158607724,11112.292394974402,150,False,19.22491384463533,False,80.14381792077896,174.9358495092376,False,94.86029509070393,False,False
2,1970-07-23 09:45:02.143210746,2025-09-09,2025-09-26 15:03:34.321,HH,C,2860146568,JASSM,3,119,76,2,2,1,225,9,2,0,1,26,0,0,0,0,-120406.10418092164,-4813726.906812963,4173217.069792271,2.50576,2.4536,-0.614263,-56.75,46.75,52.0,0.0,0.0,0.0,0.0,0.0,0.0,2,0,41.10495833018233,-91.43284476352676,9999.99982223129,-40.09695686757703,-0.0036805727064189,0.0024326114427522,,9260.064158607724,11112.292394974402,150,2,2025-09-09,2025-09-26 15:03:34.301,HH,C,4216298032,AMBUSH51,1,1,48,2,1,1,225,2,1,0,0,9,1,225,2,1,-140380.88106143364,-4793833.398532357,4194852.644099349,1.87224,-2.79175,0.438524,-100.76,-35.8203,-51.1518,0.0593548,-8.17448,7.05332,0.0477819,0.0309208,-0.0395573,4,0,41.36615118771832,-91.67734950607566,9062.696858646068,-122.7067073507851,-1.6692464032202936,-28.50107410943059,204.081,9260.064158607724,11112.292394974402,150,False,19.17791671820363,False,82.5529751427733,175.11143267047805,False,92.63096327573851,False,False
2,1970-07-23 09:45:02.154248882,2025-09-09,2025-09-26 15:03:35.424,HH,C,2861517216,JASSM,3,119,76,2,2,1,225,9,2,0,1,26,0,0,0,0,-120471.53386842164,-4813673.126539526,4173276.8129563336,2.50576,2.4536,-0.614263,-56.75,46.75,52.0,0.0,0.0,0.0,0.0,0.0,0.0,2,0,41.105671927641474,-91.43363906886668,10000.000157165208,-40.09747907966891,-0.0027492115822088,0.0024308255412109,,9260.064158607724,11112.292394974402,150,2,2025-09-09,2025-09-26 15:03:35.367,HH,C,4217570564,AMBUSH51,1,1,48,2,1,1,225,2,1,0,0,9,1,225,2,1,-140486.10907452967,-4793873.111283902,4194796.217859346,1.9027,-2.75592,0.468306,-97.9268,-39.0908,-54.5515,-0.124612,-8.24773,7.30612,0.00787401,0.0215789,-0.037612,4,0,41.36551561459262,-91.67859221260372,9045.68330977582,-125.22175982131871,-1.6213369574934815,-27.58344678655356,204.362,9260.064158607724,11112.292394974402,150,False,19.12348664962122,False,85.2077470784533,175.2971564384857,False,90.1641044691806,False,False
2,1970-07-23 09:45:02.165252191,2025-09-09,2025-09-26 15:03:36.525,HH,C,2862829224,JASSM,3,119,76,2,2,1,225,9,2,0,1,26,0,0,0,0,-120534.15886842164,-4813621.646070776,4173333.99899149,2.50576,2.4536,-0.614263,-56.75,46.75,52.0,0.0,0.0,0.0,0.0,0.0,0.0,2,0,41.10635498950691,-91.43439934352736,10000.000207184075,-40.09797892546803,-0.0018577284752108,0.0024290795229981,,9260.064158607724,11112.292394974402,150,2,2025-09-09,2025-09-26 15:03:36.634,HH,C,4219081696,AMBUSH51,1,1,48,2,1,1,225,2,1,0,0,9,1,225,2,1,-140608.51263017135,-4793925.096196557,4194724.014682952,1.93572,-2.71446,0.500997,-94.3702,-42.6644,-58.4538,-0.267239,-8.39963,7.32193,0.005731,0.0277624,-0.0492758,4,0,41.364697501672325,-91.68003570046442,9025.916115395024,-128.03840900405575,-1.5616718819641984,-26.720451858927863,204.692,9260.064158607724,11112.292394974402,150,False,19.0680323946436,False,88.28056842824051,175.52489293321324,False,87.32311248975446,False,False
2,1970-07-23 09:45:02.175411315,2025-09-09,2025-09-26 15:03:37.541,HH,C,2864083774,JASSM,3,119,76,2,2,1,225,9,2,0,1,26,0,0,0,0,-120594.04168092164,-4813572.418531713,4173388.6801438336,2.50576,2.45351,-0.614263,-56.75,46.75,52.0,0.0,0.0,0.0,0.0,0.0,0.0,2,0,41.107008138793,-91.435126342833,10000.000018087088,-40.09484630755778,-0.0036703049090006,-0.0007377854557406,,9260.064158607724,11112.292394974402,150,2,2025-09-09,2025-09-26 15:03:37.636,HH,C,4220274694,AMBUSH51,1,1,48,2,1,1,225,2,1,0,0,9,1,225,2,1,-140701.42442545324,-4793969.064711784,4194664.026805883,1.96043,-2.68088,0.527227,-91.5143,-45.3638,-61.2038,-0.230639,-8.29435,7.48465,0.00422673,0.018949,-0.0338232,4,0,41.364014686748014,-91.68112979361602,9010.783372041622,-130.2901434071118,-1.5594546682205894,-26.18949819041319,204.912,9260.064158607724,11112.292394974402,150,False,19.01256741768461,False,90.5873145462582,175.70217890745985,False,85.19640216373234,False,False
2,1970-07-23 09:45:02.186429054,2025-09-09,2025-09-26 15:03:38.642,HH,C,2865336854,JASSM,3,119,76,2,2,1,225,9,2,0,1,26,0,0,0,0,-120653.85808717164,-4813523.248121557,4173443.29586649,2.50576,2.45351,-0.614168,-56.75,46.75,52.0,0.0,0.0,0.0,0.0,0.0,0.0,2,0,41.10766051161152,-91.43585254956918,10000.000389665864,-40.09858684742849,-0.0072399349809774,-0.0007390837413277,,9260.064158607724,11112.292394974402,150,2,2025-09-09,2025-09-26 15:03:38.667,HH,C,4221507460,AMBUSH51,1,1,48,2,1,1,225,2,1,0,0,9,1,225,2,1,-140794.55832639366,-4794017.389083367,4194599.129741494,1.9941,-2.64347,0.550558,-88.4544,-48.1711,-63.6438,-0.118903,-8.41033,7.26601,0.00881236,0.0240548,-0.0312973,4,0,41.36327276450035,-91.68222499008954,8995.751603454984,-132.5571064451617,-1.3614308449210568,-25.302533620349067,205.046,9260.064158607724,11112.292394974402,150,False,18.95451171461067,False,92.89383330668414,175.8865190981662,False,83.07552507572348,False,False
2,1970-07-23 09:45:02.197428486,2025-09-09,2025-09-26 15:03:39.742,HH,C,2866706624,JASSM,3,119,76,2,2,1,225,9,2,0,1,26,0,0,0,0,-120719.24089967164,-4813469.497633276,4173502.996550084,2.50576,2.45351,-0.614168,-56.75,46.75,52.0,0.0,0.0,0.0,0.0,0.0,0.0,2,0,41.10837363067986,-91.43664635353429,10000.000721700097,-40.099108757985945,-0.0063091990337848,-0.0007408958093414,,9260.064158607724,11112.292394974402,150,2,2025-09-09,2025-09-26 15:03:39.800,HH,C,4222859524,AMBUSH51,1,1,48,2,1,1,225,2,1,0,0,9,1,225,2,1,-140891.78274118953,-4794072.842212916,4194525.901166936,2.03388,-2.60132,0.575249,-84.9584,-50.8976,-66.3192,-0.157684,-8.53063,7.23532,0.00784696,0.0119291,-0.0332032,4,0,41.3624314562088,-91.6833665067007,8980.506820928953,-135.03292138106335,-1.1383538842950092,-24.258276956391235,205.119,9260.064158607724,11112.292394974402,150,False,18.8883337095963,False,95.38131545797152,176.08611652099722,False,80.79130155618054,False,False
2,1970-07-23 09:45:02.208208474,2025-09-09,2025-09-26 15:03:40.820,HH,C,2867959324,JASSM,3,119,76,2,2,1,225,9,2,0,1,26,0,0,0,0,-120779.03777467164,-4813420.339430151,4173557.593718053,2.50576,2.45351,-0.614168,-56.75,46.75,52.0,0.0,0.0,0.0,0.0,0.0,0.0,2,0,41.1090257986241,-91.43737235437496,9999.999693269998,-40.099586095861824,-0.0054579963914624,-0.0007425392769301,,9260.064158607724,11112.292394974402,150,2,2025-09-09,2025-09-26 15:03:40.800,HH,C,4224052524,AMBUSH51,1,1,48,2,1,1,225,2,1,0,0,9,1,225,2,1,-140975.4093938234,-4794124.850887819,4194458.327174719,2.06964,-2.56649,0.594834,-81.9888,-53.3187,-68.3431,-0.138385,-8.60815,7.21456,0.0140097,0.00985474,-0.0296037,4,0,41.36165118666639,-91.6843468353207,8968.068053717385,-137.03405835697038,-0.9734395461313272,-23.274752267854595,205.303,9260.064158607724,11112.292394974402,150,False,18.825791842151876,False,97.45227676237867,176.26379023059232,False,78.900022761505,False,False
2,1970-07-23 09:45:02.219227814,2025-09-09,2025-09-26 15:03:41.922,HH,C,2869212156,JASSM,3,119,76,2,2,1,225,9,2,0,1,26,0,0,0,0,-120838.83855592164,-4813371.175367651,4173612.1957688336,2.50576,2.45351,-0.614168,-56.75,46.75,52.0,0.0,0.0,0.0,0.0,0.0,0.0,2,0,41.109678029113226,-91.43809841780153,9999.999577682718,-40.10006348113754,-0.00460671904671,-0.0007441982085985,,9260.064158607724,11112.292394974402,150,2,2025-09-09,2025-09-26 15:03:41.934,HH,C,4225404588,AMBUSH51,1,1,48,2,1,1,225,2,1,0,0,9,1,225,2,1,-141067.27715518093,-4794187.228051063,4194378.826758844,2.11048,-2.52477,0.615863,-78.4626,-55.9595,-70.451,-0.347138,-8.55472,7.54726,0.00907868,0.0226337,-0.024163,4,0,41.36072726243648,-91.68542190395972,8955.898426965576,-139.32799010638527,-0.7319794434031454,-22.261379278709256,205.523,9260.064158607724,11112.292394974402,150,False,18.759066991328552,False,99.78336402607019,176.46783523571546,False,76.77541652404351,False,False
2,1970-07-23 09:45:02.229289469,2025-09-09,2025-09-26 15:03:42.928,HH,C,2870466894,JASSM,3,119,76,2,2,1,225,9,2,0,1,26,0,0,0,0,-120898.73308717164,-4813321.935621557,4173666.880339146,2.50576,2.45351,-0.614168,-56.75,46.75,52.0,0.0,0.0,0.0,0.0,0.0,0.0,2,0,41.11033124832843,-91.43882563346992,10000.000883450177,-40.10054163027811,-0.0037541297218725,-0.0007458411971674,,9260.064158607724,11112.292394974402,150,2,2025-09-09,2025-09-26 15:03:42.867,HH,C,4226518054,AMBUSH51,1,1,48,2,1,1,225,2,1,0,0,9,1,225,2,1,-141138.99232962163,-4794240.310562693,4194312.405686422,2.14204,-2.49223,0.625699,-75.598,-58.2475,-71.5293,-0.07625,-8.5883,7.13499,0.0209131,0.015826,-0.025713,4,0,41.35995046264871,-91.68625957697836,8947.754836367098,-140.8844480879639,-0.2878988871602617,-21.523487538890365,205.523,9260.064158607724,11112.292394974402,150,False,18.69316227624058,False,101.56029864169807,176.63149859412795,False,75.16100080680634,False,False
2,1970-07-23 09:45:02.239429679,2025-09-09,2025-09-26 15:03:43.942,HH,C,2871722506,JASSM,3,119,76,2,2,1,225,9,2,0,1,26,0,0,0,0,-120958.66668092164,-4813272.660230932,4173721.601530552,2.50576,2.45351,-0.614168,-56.75,46.75,52.0,0.0,0.0,0.0,0.0,0.0,0.0,2,0,41.11098491627091,-91.4395533389046,10000.0001645779,-40.10102010771979,-0.002900962994304,-0.0007475022545972,,9260.064158607724,11112.292394974402,150,2,2025-09-09,2025-09-26 15:03:44.000,HH,C,4227870120,AMBUSH51,1,1,48,2,1,1,225,2,1,0,0,9,1,225,2,1,-141221.46795215484,-4794306.719700014,4194230.518020942,2.18205,-2.45038,0.639145,-71.8748,-60.6243,-73.1466,-0.291344,-8.61956,7.4817,-0.00639887,0.00869168,-0.041151,4,0,41.358988067920734,-91.6872210282938,8939.670905756888,-142.91084749809798,0.1930605166971619,-20.64711915088477,205.449,9260.064158607724,11112.292394974402,150,False,18.62184863308757,False,103.7991959356328,176.8292243270657,False,73.12228503808517,False,False
2,1970-07-23 09:45:02.251450815,2025-09-09,2025-09-26 15:03:45.145,HH,C,2873091012,JASSM,3,119,76,2,2,1,225,9,2,0,1,26,0,0,0,0,-121023.99089967164,-4813218.953199682,4173781.242155552,2.50576,2.45351,-0.614168,-56.75,46.75,52.0,0.0,0.0,0.0,0.0,0.0,0.0,2,0,41.11169735379384,-91.44034651290134,10000.00041568362,-40.10154163889437,-0.0019710736827765,-0.0007493010514794,,9260.064158607724,11112.292394974402,150,2,2025-09-09,2025-09-26 15:03:45.101,HH,C,4229182418,AMBUSH51,1,1,48,2,1,1,225,2,1,0,0,9,1,225,2,1,-141299.08242118228,-4794375.196581385,4194148.4418037552,2.21792,-2.40839,0.64641,-68.3628,-63.5324,-73.725,-0.154023,-8.86138,7.74604,0.0208216,0.0162859,-0.017347,4,0,41.35801295059561,-91.68812368095224,8935.924562877297,-144.7455933551054,0.9132741321804372,-20.051783441401927,205.046,9260.064158607724,11112.292394974402,150,False,18.5439555107637,False,105.84411449142833,177.0223976532274,False,71.26619685687805,False,False
2,1970-07-23 09:45:02.262489837,2025-09-09,2025-09-26 15:03:46.248,HH,C,2874461772,JASSM,3,119,76,2,2,1,225,9,2,0,1,26,0,0,0,0,-121089.42058717164,-4813165.156812963,4173840.97946024,2.50576,2.45351,-0.614168,-56.75,46.75,52.0,0.0,0.0,0.0,0.0,0.0,0.0,2,0,41.112410954278815,-91.44114098549294,10000.000494836877,-40.10206403140462,-0.0010396687871809,-0.000751114028697,,9260.064158607724,11112.292394974402,150,2,2025-09-09,2025-09-26 15:03:46.268,HH,C,4230574250,AMBUSH51,1,1,48,2,1,1,225,2,1,0,0,9,1,225,2,1,-141376.69029699283,-4794450.343479684,4194061.054763178,2.25649,-2.3645,0.659666,-64.5445,-65.9083,-74.8069,-0.00323573,-8.6797,7.47833,-0.00261843,0.0186993,-0.0205323,4,0,41.35696230025896,-91.68902387986031,8937.09245590946,-146.84220537604804,1.3321956025558523,-19.411023997655118,204.545,9260.064158607724,11112.292394974402,150,False,18.462529700995574,False,108.0173070840732,177.22484439389655,False,69.29659952451199,False,False
2,1970-07-23 09:45:02.274231250,2025-09-09,2025-09-26 15:03:47.423,HH,C,2875776098,JASSM,3,119,76,2,2,1,225,9,2,0,1,26,0,0,0,0,-121152.15886842164,-4813113.573316869,4173898.25680399,2.50576,2.45341,-0.614072,-56.75,46.75,52.0,0.0,0.0,0.0,0.0,0.0,0.0,2,0,41.11309517762937,-91.44190279414276,9999.999953142004,-40.10221477455876,-0.0072301257887407,-0.0039172648460483,,9260.064158607724,11112.292394974402,150,2,2025-09-09,2025-09-26 15:03:47.434,HH,C,4231966082,AMBUSH51,1,1,48,2,1,1,225,2,1,0,0,9,1,225,2,1,-141449.76423346924,-4794528.073143246,4193973.1064680666,2.27825,-2.32133,0.670944,-60.6082,-67.9867,-75.6191,-0.262591,-8.5464,7.41708,-0.0287091,0.0155868,-0.0295018,4,0,41.3558932938333,-91.6898690053372,8943.082063697002,-148.84779049180003,1.764704417391609,-19.74548229800159,203.934,9260.064158607724,11112.292394974402,150,False,18.381263248813756,False,110.1420884948868,177.4250232248293,False,67.37380885615387,False,False
2,1970-07-23 09:45:02.285268955,2025-09-09,2025-09-26 15:03:48.526,HH,C,2877088400,JASSM,3,119,76,2,2,1,225,9,2,0,1,26,0,0,0,0,-121214.79949342164,-4813062.068922338,4173955.444792271,2.50585,2.45341,-0.614072,-56.75,46.75,52.0,0.0,0.0,0.0,0.0,0.0,0.0,2,0,41.11377833653091,-91.4426634331268,10000.001108198976,-40.10271493400219,-0.0063384335148132,0.0015861458266255,,9260.064158607724,11112.292394974402,150,2,2025-09-09,2025-09-26 15:03:48.566,HH,C,4233318146,AMBUSH51,1,1,48,2,1,1,225,2,1,0,0,9,1,225,2,1,-141515.94695697213,-4794605.819871647,4193887.247311384,2.28055,-2.27788,0.680148,-56.7073,-70.1762,-76.1556,-0.032658,-8.73972,7.34115,-0.0159134,0.0157387,-0.0141595,4,0,41.35483950313778,-91.69063181800492,8953.151476781508,-150.80498293608457,2.2435163391026816,-21.23907228149072,202.944,9260.064158607724,11112.292394974402,150,False,18.298766224635024,False,112.23022922134196,177.61584755084814,False,65.47693821535294,False,False
2,1970-07-23 09:45:02.294307171,2025-09-09,2025-09-26 15:03:49.430,HH,C,2878221794,JASSM,3,119,76,2,2,1,225,9,2,0,1,26,0,0,0,0,-121268.90105592164,-4813017.584547338,4174004.835417271,2.50585,2.45341,-0.614072,-56.75,46.75,52.0,0.0,0.0,0.0,0.0,0.0,0.0,2,0,41.11436835920747,-91.44332039609344,10000.000343209733,-40.10314692662721,-0.0055682990226789,0.0015846621977809,,9260.064158607724,11112.292394974402,150,2,2025-09-09,2025-09-26 15:03:49.600,HH,C,4234550912,AMBUSH51,1,1,48,2,1,1,225,2,1,0,0,9,1,225,2,1,-141572.80995163642,-4794679.384593069,4193807.567763188,2.28918,-2.23734,0.689491,-52.7399,-71.7989,-76.7555,-0.292833,-8.38947,7.25728,-0.0131733,0.0124909,-0.0283533,4,0,41.35385395060004,-91.69128480724498,8965.653273181419,-152.65127945778363,2.594972724516469,-22.291790130002443,202.077,9260.064158607724,11112.292394974402,150,False,18.22396402090722,False,114.28210623086453,177.7891739589838,False,63.60155029824349,False,False
2,1970-07-23 09:45:02.304427027,2025-09-09,2025-09-26 15:03:50.442,HH,C,2879414226,JASSM,3,119,76,2,2,1,225,9,2,0,1,26,0,0,0,0,-121325.81902467164,-4812970.782301244,4174056.797819615,2.50585,2.45341,-0.614072,-56.75,46.75,52.0,0.0,0.0,0.0,0.0,0.0,0.0,2,0,41.11498910969192,-91.44401157241474,9999.999714478365,-40.10360142211133,-0.0047580600896328,0.0015830909938551,,9260.064158607724,11112.292394974402,150,2,2025-09-09,2025-09-26 15:03:50.300,HH,C,4235386012,AMBUSH51,1,1,48,2,1,1,225,2,1,0,0,9,1,225,2,1,-141608.7556298225,-4794729.725411305,4193753.5623254734,2.29609,-2.20949,0.697377,-50.0027,-72.6418,-77.249,-0.0419832,-8.07645,7.0984,-0.0221219,0.00893928,-0.0242545,4,0,41.353183561462686,-91.69169622772068,8975.123868316858,-153.95373561055447,2.727612228497469,-22.975838982061436,201.417,9260.064158607724,11112.292394974402,150,False,18.155077790254595,False,115.68049297146388,177.90178012912696,False,62.31989682589925,False,False
2,1970-07-23 09:45:02.314226702,2025-09-09,2025-09-26 15:03:51.422,HH,C,2880546826,JASSM,3,119,76,2,2,1,225,9,2,0,1,26,0,0,0,0,-121379.88152467164,-4812926.327711401,4174106.1523118014,2.50585,2.45341,-0.614072,-56.75,46.75,52.0,0.0,0.0,0.0,0.0,0.0,0.0,2,0,41.11557870916192,-91.4446680858602,9999.999915167997,-40.10403312963992,-0.0039884733604189,0.0015816020521747,,9260.064158607724,11112.292394974402,150,2,2025-09-09,2025-09-26 15:03:51.366,HH,C,4236658544,AMBUSH51,1,1,48,2,1,1,225,2,1,0,0,9,1,225,2,1,-141659.51780817308,-4794807.153513424,4193670.972071033,2.30855,-2.16716,0.710965,-45.7457,-73.8499,-78.1128,-0.0465453,-8.05171,7.07072,-0.00185901,0.0108222,-0.0389623,4,0,41.35215644806304,-91.69227498181635,8990.396169497817,-155.9613585427329,2.7917987572568053,-23.92947712992631,200.341,9260.064158607724,11112.292394974402,150,False,18.076577364491914,False,117.87088059169392,178.07241913863805,False,60.30803493052765,False,False
2,1970-07-23 09:45:02.323288850,2025-09-09,2025-09-26 15:03:52.328,HH,C,2881621536,JASSM,3,119,76,2,2,1,225,9,2,0,1,26,0,0,0,0,-121431.18230592164,-4812884.144605932,4174152.98336649,2.50585,2.45341,-0.614072,-56.75,46.75,52.0,0.0,0.0,0.0,0.0,0.0,0.0,2,0,41.116138167663685,-91.4452910727854,10000.00022128836,-40.10444279565681,-0.0032582143357015,0.0015802009858898,,9260.064158607724,11112.292394974402,150,2,2025-09-09,2025-09-26 15:03:52.500,HH,C,4238010608,AMBUSH51,1,1,48,2,1,1,225,2,1,0,0,9,1,225,2,1,-141709.0571022621,-4794891.622469809,4193581.3906004336,2.33028,-2.11551,0.726941,-41.0413,-74.8627,-78.9724,-0.1453,-8.05391,7.06996,-0.0170557,0.0159654,-0.0354897,4,0,41.35104046573803,-91.69283663261794,9007.766529321185,-158.3718264257043,2.81085110682608,-24.751469438901182,199.449,9260.064158607724,11112.292394974402,150,False,17.995963019538923,False,120.2566613705965,178.2510618232541,False,58.11200205636976,False,False
2,1970-07-23 09:45:02.332429339,2025-09-09,2025-09-26 15:03:53.242,HH,C,2882753100,JASSM,3,119,76,2,2,1,225,9,2,0,1,26,0,0,0,0,-121485.19402467164,-4812839.729078588,4174202.291471959,2.50585,2.45341,-0.614072,-56.75,46.875,52.0,0.0,0.0,0.0,0.0,0.0,0.0,2,0,41.11672722166955,-91.4459469932424,10000.001052078233,-40.10487412319674,-0.0024893381982787,0.0015787038056809,,9260.064158607724,11112.292394974402,150,2,2025-09-09,2025-09-26 15:03:53.200,HH,C,4238845708,AMBUSH51,1,1,48,2,1,1,225,2,1,0,0,9,1,225,2,1,-141736.6873918206,-4794944.046209553,4193525.742108865,2.34098,-2.08302,0.737222,-38.0411,-75.3569,-79.5728,-0.235373,-7.88445,7.08266,-0.0128924,0.0153163,-0.0301281,4,0,41.350348053510906,-91.69314800726264,9018.212665836638,-159.8775820894495,2.7598443332631337,-25.455831283436588,198.936,9260.064158607724,11112.292394974402,150,False,17.926034488007886,False,121.81386770078312,178.40979624856354,False,56.70355211691313,False,False
2,1970-07-23 09:45:02.342487175,2025-09-09,2025-09-26 15:03:54.248,HH,C,2883886986,JASSM,3,119,76,2,2,1,225,9,2,0,1,26,0,0,0,0,-121539.31902467164,-4812795.221266088,4174251.699675084,2.50585,2.45341,-0.614072,-56.75,46.875,52.0,0.0,0.0,0.0,0.0,0.0,0.0,2,0,41.11731747967299,-91.44660430089446,10000.000652605611,-40.105306368061086,-0.0017188708128186,0.001577221166219,,9260.064158607724,11112.292394974402,150,2,2025-09-09,2025-09-26 15:03:54.333,HH,C,4240197774,AMBUSH51,1,1,48,2,1,1,225,2,1,0,0,9,1,225,2,1,-141776.9516218179,-4795029.255485112,4193435.550058368,2.40039,-2.02603,0.751121,-33.2645,-76.3938,-80.1603,-0.236953,-8.2408,7.21945,-0.00913485,0.0171972,-0.0365821,4,0,41.34922517421631,-91.69359863391892,9035.421601832122,-162.4110064459948,2.801301288349328,-24.386528201701232,197.702,9260.064158607724,11112.292394974402,150,False,17.839863240472972,False,124.23113051233736,178.57722658912255,False,54.465932763292535,False,False
2,1970-07-23 09:45:02.351307644,2025-09-09,2025-09-26 15:03:55.130,HH,C,2885021208,JASSM,3,119,76,2,2,1,225,9,2,0,1,26,0,0,0,0,-121593.45964967164,-4812750.699781713,4174301.121550084,2.50585,2.45341,-0.613976,-56.75,46.875,52.0,0.0,0.0,0.0,0.0,0.0,0.0,2,0,41.11790790512201,-91.44726181032956,10000.000727300863,-40.10900158415488,-0.0053694587823979,0.0015759175953316,,9260.064158607724,11112.292394974402,150,2,2025-09-09,2025-09-26 15:03:55.136,HH,C,4241152172,AMBUSH51,1,1,48,2,1,1,225,2,1,0,0,9,1,225,2,1,-141802.12459723468,-4795090.364569921,4193371.04973666,2.41974,-1.99482,0.760741,-30.317,-77.5185,-79.9275,-0.175692,-7.9244,6.92712,-0.00922224,0.00662565,-0.0265161,4,0,41.348421766849896,-91.69387758825587,9047.894010991964,-163.81919987244203,2.666121795802905,-24.571720672592622,196.993,9260.064158607724,11112.292394974402,150,False,17.76390597401918,False,125.70487021888663,178.69022699672246,False,53.11148783157686,False,False
2,1970-07-23 09:45:02.360427515,2025-09-09,2025-09-26 15:03:56.042,HH,C,2886153282,JASSM,3,119,76,2,2,1,225,9,2,0,1,26,0,0,0,0,-121647.49871217164,-4812706.261305151,4174350.4491868014,2.50585,2.45331,-0.613976,-56.75,46.875,52.0,0.0,0.0,0.0,0.0,0.0,0.0,2,0,41.11849721184841,-91.44791809824548,10000.000019666792,-40.105821547325945,-0.0072653847296727,-0.0015897322525938,,9260.064158607724,11112.292394974402,150,2,2025-09-09,2025-09-26 15:03:56.100,HH,C,4242305404,AMBUSH51,1,1,48,2,1,1,225,2,1,0,0,9,1,225,2,1,-141829.12475362094,-4795164.924214379,4193291.818300374,2.44542,-1.95722,0.772205,-25.7849,-76.8737,-81.5485,-0.24463,-7.7234,6.71294,-0.00664646,0.0110781,-0.0347595,4,0,41.347438567805845,-91.69417359929524,9061.689566147108,-165.49397451178115,2.463621577941235,-24.669784533745137,196.162,9260.064158607724,11112.292394974402,150,False,17.680224506068495,False,128.00075386592914,178.82226164990507,False,50.975543552762964,False,False
2,1970-07-23 09:45:02.369466925,2025-09-09,2025-09-26 15:03:56.946,HH,C,2887228104,JASSM,3,119,76,2,2,1,225,9,2,0,1,26,0,0,0,0,-121698.80339967164,-4812664.069410619,4174397.2817063336,2.50585,2.45331,-0.613976,-56.75,46.875,52.0,0.0,0.0,0.0,0.0,0.0,0.0,2,0,41.11905671384052,-91.44854118947843,9999.999741754997,-40.10623130576399,-0.006535055307038,-0.0015911399891127,,9260.064158607724,11112.292394974402,150,2,2025-09-09,2025-09-26 15:03:57.133,HH,C,4243538170,AMBUSH51,1,1,48,2,1,1,225,2,1,0,0,9,1,225,2,1,-141853.40053964368,-4795243.588004473,4193207.659349385,2.46221,-1.91083,0.78727,-21.6406,-76.9043,-82.2653,-0.227087,-7.28953,6.44678,-0.0169392,0.0010559,-0.0401107,4,0,41.34639816339243,-91.6944356280542,9074.717670843902,-167.53989028202488,2.093200586415344,-25.65818280793539,195.368,9260.064158607724,11112.292394974402,150,False,17.59537263832826,False,130.0843329198299,178.95287789123716,False,49.05011749209684,False,False
2,1970-07-23 09:45:02.379228425,2025-09-09,2025-09-26 15:03:57.922,HH,C,2888360408,JASSM,3,119,76,2,2,1,225,9,2,0,1,26,0,0,0,0,-121752.85027467164,-4812619.620680151,4174446.618132115,2.50585,2.45331,-0.613976,-56.75,46.875,52.0,0.0,0.0,0.0,0.0,0.0,0.0,2,0,41.11964613225378,-91.44919759631766,10000.000501097637,-40.10666297825054,-0.005765678609363,-0.0015926324836026,,9260.064158607724,11112.292394974402,150,2,2025-09-09,2025-09-26 15:03:57.766,HH,C,4244293736,AMBUSH51,1,1,48,2,1,1,225,2,1,0,0,9,1,225,2,1,-141865.95083246857,-4795291.995012182,4193154.955666252,2.45485,-1.88983,0.797321,-18.8846,-76.4569,-83.2199,-0.0952055,-7.16589,6.20784,-0.0324354,0.0124118,-0.0265141,4,0,41.34575217082943,-91.694568357262,9080.58090806002,-168.49213501084787,1.7198627775343642,-26.96794796385264,194.903,9260.064158607724,11112.292394974402,150,False,17.52291679056001,False,131.48201603419625,179.02632591863386,False,47.751902687968766,False,False
2,1970-07-23 09:45:02.388263988,2025-09-09,2025-09-26 15:03:58.826,HH,C,2889434160,JASSM,3,119,76,2,2,1,225,9,2,0,1,26,0,0,0,0,-121804.10418092164,-4812577.469312963,4174493.402800084,2.50585,2.45331,-0.613976,-56.75,46.875,52.0,0.0,0.0,0.0,0.0,0.0,0.0,2,0,41.12020507058188,-91.44982009289232,10000.000915603416,-40.10707235506661,-0.0050360742081626,-0.0015940367375352,,9260.064158607724,11112.292394974402,150,2,2025-09-09,2025-09-26 15:03:58.833,HH,C,4245566268,AMBUSH51,1,1,48,2,1,1,225,2,1,0,0,9,1,225,2,1,-141883.55880528004,-4795373.691154855,4193064.709748605,2.43566,-1.83751,0.816224,-14.0182,-75.8553,-84.7547,-0.00528416,-7.30243,6.46607,-0.0400504,0.0201079,-0.0402335,4,0,41.34465379011265,-91.69474970313796,9087.40833402305,-170.7383915643574,1.064321057611853,-30.28702346057105,194.634,9260.064158607724,11112.292394974402,150,False,17.433314403531394,False,133.94507026059387,179.14088253015575,False,45.455753995324045,False,False
2,1970-07-23 09:45:02.397308070,2025-09-09,2025-09-26 15:03:59.730,HH,C,2890509880,JASSM,3,119,76,2,2,1,225,9,2,0,1,26,0,0,0,0,-121855.45183717164,-4812535.239820776,4174540.2719407086,2.50585,2.45331,-0.613976,-56.75,46.875,52.0,0.0,0.0,0.0,0.0,0.0,0.0,2,0,41.12076502644096,-91.45044373899324,9999.99982165074,-40.10748249245912,-0.0043051362678647,-0.0015954424525141,,9260.064158607724,11112.292394974402,150,2,2025-09-09,2025-09-26 15:03:59.600,HH,C,4246480900,AMBUSH51,1,1,48,2,1,1,225,2,1,0,0,9,1,225,2,1,-141893.03768225067,-4795431.714356255,4192999.470965181,2.45662,-1.78992,0.828431,-10.4452,-75.6578,-85.6328,-0.0439094,-7.43585,6.68988,-0.00200257,0.0193381,-0.0471119,4,0,41.343866492584525,-91.69484236364607,9089.56388835227,-172.68163452865718,0.6696161777039011,-31.113493412749868,194.793,9260.064158607724,11112.292394974402,150,False,17.35560046070495,False,135.745387751992,179.2103385655514,False,43.769556760985814,False,False
2,1970-07-23 09:45:02.407225966,2025-09-09,2025-09-26 15:04:00.722,HH,C,2891643298,JASSM,3,119,76,2,2,1,225,9,2,0,1,26,0,0,0,0,-121909.55339967164,-4812490.744703588,4174589.6547532086,2.50585,2.45331,-0.613976,-56.75,46.875,52.0,0.0,0.0,0.0,0.0,0.0,0.0,2,0,41.12135501461598,-91.45110084452617,10000.00041468141,-40.10791463924791,-0.003534993039562,-0.0015969260885368,,9260.064158607724,11112.292394974402,150,2,2025-09-09,2025-09-26 15:04:00.734,HH,C,4247832966,AMBUSH51,1,1,48,2,1,1,225,2,1,0,0,9,1,225,2,1,-141901.52696707213,-4795516.324154898,4192902.391170357,2.51818,-1.71112,0.846294,-4.95105,-75.1715,-86.8457,0.00640307,-7.28078,6.5655,-0.012676,0.0169392,-0.0446256,4,0,41.34270622401852,-91.6949138174875,9088.10361647306,-175.79950983646356,-0.0064470913396696,-30.95942861521902,194.94,9260.064158607724,11112.292394974402,150,False,17.25775431641718,False,138.48962745064622,179.29061490271124,False,41.189940139132105,False,False
2,1970-07-23 09:45:02.417486771,2025-09-09,2025-09-26 15:04:01.748,HH,C,2892834342,JASSM,3,119,76,2,2,1,225,9,2,0,1,26,0,0,0,0,-121966.40496217164,-4812443.986402807,4174641.5473313336,2.50585,2.45331,-0.613976,-56.75,46.875,52.0,0.0,0.0,0.0,0.0,0.0,0.0,2,0,41.12197499418077,-91.45179136407552,10000.000630810586,-40.10836876634635,-0.0027256983049525,-0.0015984888529418,,9260.064158607724,11112.292394974402,150,2,2025-09-09,2025-09-26 15:04:01.833,HH,C,4249145264,AMBUSH51,1,1,48,2,1,1,225,2,1,0,0,9,1,225,2,1,-141903.6939411007,-4795598.661536138,4192805.7725727647,2.56652,-1.6493,0.855575,0.612135,-74.8235,-88.0448,-0.124537,-7.59761,6.85943,-0.0193194,0.0156908,-0.0423973,4,0,41.3415636868489,-91.69491060130592,9081.595801844192,-178.16225184284735,-0.3961345783813053,-30.845192159346933,195.404,9260.064158607724,11112.292394974402,150,False,17.15633691472432,False,141.24463738720752,179.33864878769705,False,38.59074469104072,False,False
2,1970-07-23 09:45:02.428251286,2025-09-09,2025-09-26 15:04:02.825,HH,C,2894146694,JASSM,3,119,76,2,2,1,225,9,2,0,1,26,0,0,0,0,-122029.04558717164,-4812392.464430151,4174698.724089146,2.50585,2.45331,-0.613976,-56.75,46.875,52.0,0.0,0.0,0.0,0.0,0.0,0.0,2,0,41.12265811458917,-91.45255221339404,9999.999985224968,-40.10886915306492,-0.0018339835271867,-0.0016002197359743,,9260.064158607724,11112.292394974402,150,2,2025-09-09,2025-09-26 15:04:02.866,HH,C,4250378030,AMBUSH51,1,1,48,2,1,1,225,2,1,0,0,9,1,225,2,1,-141900.05411705648,-4795676.049485603,4192713.3038685,2.60507,-1.58394,0.866145,5.98973,-74.4164,-89.0535,-0.192192,-7.60259,6.87357,-0.00425794,0.00765763,-0.0426616,4,0,41.34047962300265,-91.69483981811048,9071.480125049591,179.3899917970371,-0.9707104068714756,-31.44744539677979,195.893,9260.064158607724,11112.292394974402,150,False,17.050805542349387,False,143.87288893927584,179.35368164378363,False,36.10519697000889,False,False
2,1970-07-23 09:45:02.438286908,2025-09-09,2025-09-26 15:04:03.828,HH,C,2895399920,JASSM,3,119,76,2,2,1,225,9,2,0,1,26,0,0,0,0,-122088.86589967164,-4812343.262769994,4174753.3241868014,2.50585,2.45331,-0.61388,-56.75,46.875,52.0,0.0,0.0,0.0,0.0,0.0,0.0,2,0,41.12331045411761,-91.45327882101122,10000.0005148322,-40.112607586990286,-0.005401143620779,-0.0016016785608246,,9260.064158607724,11112.292394974402,150,2,2025-09-09,2025-09-26 15:04:03.933,HH,C,4251650562,AMBUSH51,1,1,48,2,1,1,225,2,1,0,0,9,1,225,2,1,-141890.6588342085,-4795754.420643851,4192618.1665566713,2.65044,-1.51324,0.874106,11.5345,-73.8558,-89.9431,-0.0750557,-7.7153,6.83497,-0.00838584,0.023751,-0.0391641,4,0,41.33937269437261,-91.69469998853492,9057.590508395268,176.79782762921133,-1.5266863300069908,-31.888266350086795,196.541,9260.064158607724,11112.292394974402,150,False,16.944718398720113,False,146.546047701313,179.34051234914887,False,33.5734538311598,False,False
2,1970-07-23 09:45:02.448447452,2025-09-09,2025-09-26 15:04:04.844,HH,C,2896594384,JASSM,3,119,76,2,2,1,225,9,2,0,1,26,0,0,0,0,-122145.88152467164,-4812296.366773901,4174805.3632493024,2.50595,2.45331,-0.61388,-56.75,46.875,52.0,0.0,0.0,0.0,0.0,0.0,0.0,2,0,41.12393220369105,-91.45397137522887,10000.000070110378,-40.11306306996727,-0.0045895178344791,0.0038881843780676,,9260.064158607724,11112.292394974402,150,2,2025-09-09,2025-09-26 15:04:04.966,HH,C,4252883326,AMBUSH51,1,1,48,2,1,1,225,2,1,0,0,9,1,225,2,1,-141875.419255923,-4795830.493287473,4192524.068485769,2.71172,-1.44023,0.873004,17.1914,-73.247,-90.5173,-0.187448,-7.8456,7.191,0.00850859,0.0225797,-0.0468748,4,0,41.33828747191168,-91.6944912144592,9039.875561279909,174.1167036488335,-1.7115520493698204,-31.509289508173904,197.518,9260.064158607724,11112.292394974402,150,False,16.84009804242873,False,149.24751421793266,179.30416337029206,False,31.004506876751297,False,False
2,1970-07-23 09:45:02.458492212,2025-09-09,2025-09-26 15:04:05.849,HH,C,2897846766,JASSM,3,119,76,2,2,1,225,9,2,0,1,26,0,0,0,0,-122205.66277467164,-4812247.196363744,4174859.92477274,2.50595,2.45322,-0.61388,-56.75,46.875,52.0,0.0,0.0,0.0,0.0,0.0,0.0,2,0,41.12458409355395,-91.45469753672204,10000.0011446055,-40.10992864900043,-0.0064036784744417,0.0007228604629828,,9260.064158607724,11112.292394974402,150,2,2025-09-09,2025-09-26 15:04:06.000,HH,C,4254116092,AMBUSH51,1,1,48,2,1,1,225,2,1,0,0,9,1,225,2,1,-141854.76994921363,-4795905.151443252,4192430.643359528,2.7821,-1.36925,0.871197,22.9229,-72.5011,-91.0241,-0.203183,-7.97502,7.18371,0.0126282,0.021814,-0.0418293,4,0,41.337216150181234,-91.69421837386032,9019.74962298715,171.51292929185914,-1.9899305813819657,-30.506752964554146,198.374,9260.064158607724,11112.292394974402,150,False,16.7319479988131,False,151.94193108852951,179.25221311725593,False,28.437826985092062,True,False
2,1970-07-23 09:45:02.469246190,2025-09-09,2025-09-26 15:04:06.924,HH,C,2899098148,JASSM,3,119,76,2,2,1,225,9,2,0,1,26,0,0,0,0,-122265.39324342164,-4812198.063551244,4174914.4413743024,2.50595,2.45322,-0.61388,-56.75,46.875,52.0,0.0,0.0,0.0,0.0,0.0,0.0,2,0,41.1252354593643,-91.45542309699113,9999.999600153014,-40.11040585185016,-0.0055533904674467,0.0007212159142905,,9260.064158607724,11112.292394974402,150,2,2025-09-09,2025-09-26 15:04:06.766,HH,C,4255030724,AMBUSH51,1,1,48,2,1,1,225,2,1,0,0,9,1,225,2,1,-141835.73601687924,-4795960.881791331,4192360.601981565,2.83754,-1.31481,0.865592,26.7799,-72.3922,-90.6241,-0.0733745,-7.88746,7.24059,0.00951352,0.0159259,-0.0419146,4,0,41.33641503018818,-91.69397150462036,9003.813107486885,169.4726817805927,-2.0607297351512357,-29.63958924275975,199.303,9260.064158607724,11112.292394974402,150,False,16.637007905315468,False,153.79741106440767,179.2061841214746,False,26.665233016765175,True,False
2,1970-07-23 09:45:02.479288778,2025-09-09,2025-09-26 15:04:07.928,HH,C,2900292996,JASSM,3,119,76,2,2,1,225,9,2,0,1,26,0,0,0,0,-122322.42839967164,-4812151.149977026,4174966.494596959,2.50595,2.45322,-0.61388,-56.75,46.875,52.0,0.0,0.0,0.0,0.0,0.0,0.0,2,0,41.12585739291944,-91.4561159294007,10000.000506625072,-40.110861535326656,-0.0047414987621157,0.0007196679771317,,9260.064158607724,11112.292394974402,150,2,2025-09-09,2025-09-26 15:04:07.833,HH,C,4256303256,AMBUSH51,1,1,48,2,1,1,225,2,1,0,0,9,1,225,2,1,-141804.3305052562,-4796037.160438878,4192264.423328272,2.93036,-1.24222,0.848731,32.3603,-72.2556,-90.0539,-0.12765,-8.73077,8.04298,0.0501517,0.0345327,-0.0365196,4,0,41.33531735635576,-91.69356972086564,8980.940992346983,166.5975416218193,-1.7684481869502666,-27.37033506383387,200.268,9260.064158607724,11112.292394974402,150,False,16.526327683208198,False,156.4509256815772,179.13891664827756,False,24.119655198982503,True,False
2,1970-07-23 09:45:02.489429342,2025-09-09,2025-09-26 15:04:08.942,HH,C,2901548668,JASSM,3,119,76,2,2,1,225,9,2,0,1,26,0,0,0,0,-122382.36589967164,-4812101.847242651,4175021.196257115,2.50595,2.45322,-0.61388,-56.75,46.875,52.0,0.0,0.0,0.0,0.0,0.0,0.0,2,0,41.126510978629184,-91.4568440325868,10000.000515785525,-40.1113404229079,-0.0038882857560666,0.0007180361915583,,9260.064158607724,11112.292394974402,150,2,2025-09-09,2025-09-26 15:04:09.099,HH,C,4257814388,AMBUSH51,1,1,48,2,1,1,225,2,1,0,0,9,1,225,2,1,-141758.83041633508,-4796128.67341729,4192150.365890868,3.0209,-1.17086,0.827548,38.8383,-72.1797,-88.7409,-0.172923,-8.86876,7.95059,0.0441325,0.0288318,-0.0259523,4,0,41.33401081210027,-91.6929943442672,8955.824218144633,163.62893278845368,-1.393239035967502,-25.140816201197516,201.331,9260.064158607724,11112.292394974402,150,False,16.39859629893373,False,159.56911059265028,179.0578282828303,False,21.11438541560608,True,False
2,1970-07-23 09:45:02.511646677,2025-09-09,2025-09-26 15:04:11.164,HH,C,2904050092,JASSM,3,119,76,2,2,1,225,9,2,0,1,26,0,0,0,0,-122501.76433717164,-4812003.627516088,4175130.165495396,2.50595,2.45322,-0.61388,-56.75,46.875,52.0,0.0,0.0,0.0,0.0,0.0,0.0,2,0,41.127812982289086,-91.45829449477569,10000.0007201815,-40.11229443872632,-0.0021886102459926,0.0007147591741552,,9260.064158607724,11112.292394974402,150,2,2025-09-09,2025-09-26 15:04:11.266,HH,C,4260399218,AMBUSH51,1,1,48,2,1,1,225,2,1,0,0,9,1,225,2,1,-141663.94319318197,-4796285.354197249,4191961.4962261496,-3.10025,-1.07746,0.777787,48.2295,-73.2598,-84.7033,-0.191837,-9.00182,7.98974,0.0480357,0.0294311,-0.0290774,4,0,41.33182014327462,-91.69180654987603,8925.502239471127,159.15880760739643,0.0053908049095393,-19.653730046471846,202.333,9260.064158607724,11112.292394974402,150,False,16.16181908234474,False,164.23934918073877,178.92913774267075,False,16.566667953892136,True,False
2,1970-07-23 09:45:02.515504945,2025-09-09,2025-09-26 15:04:11.550,HH,C,2902796280,JASSM,3,119,76,2,2,1,225,9,2,0,1,26,0,0,0,0,-122441.91668092164,-4812052.859449682,4175075.546354771,2.50595,2.45322,-0.61388,-56.75,46.875,52.0,0.0,0.0,0.0,0.0,0.0,0.0,2,0,41.127160370777766,-91.45756745329368,10000.000274481914,-40.111816236950936,-0.0030405559061127,0.0007163974557962,,9260.064158607724,11112.292394974402,150,2,2025-09-09,2025-09-26 15:04:11.567,HH,C,4260757118,AMBUSH51,1,1,48,2,1,1,225,2,1,0,0,9,1,225,2,1,-141649.6483308397,-4796306.652846845,4191936.619565493,-3.08115,-1.06861,0.769708,49.3567,-73.2301,-84.202,-0.251977,-9.00686,8.09659,0.0410741,0.0247164,-0.0215622,4,0,41.331527985401536,-91.69162842662762,8923.009831967762,158.648083817887,0.2971833335865338,-18.9153627805534,202.406,9260.064158607724,11112.292394974402,150,False,16.194467693259536,False,164.8065814166889,178.91730459036248,False,16.01187432127065,True,False
