Subject_cm,Timestamp,SampleDate_cm,SampleTime_cm,Configuration_cm,Scenario_cm,DisTime_cm,MarkingTxt_cm,Application_cm,EntId_cm,Site_cm,ExerciseId_cm,ForceId_cm,Category_cm,Country_cm,Domain_cm,Kind_cm,Extra_cm,Specific_cm,Subcategory_cm,AltCategory_cm,AltCountry_cm,AltDomain_cm,AltKind_cm,ECEF_X_cm,ECEF_Y_cm,ECEF_Z_cm,OriPhi_cm,OriPsi_cm,OriTheta_cm,LinVelX_cm,LinVelY_cm,LinVelZ_cm,LinAccX_cm,LinAccY_cm,LinAccZ_cm,AngVelX_cm,AngVelY_cm,AngVelZ_cm,DrAlg_cm,Appearance_cm,Latitude_cm,Longitude_cm,Altitude_cm,Heading_cm,Pitch_cm,Roll_cm,CalibratedAirspeed_cm,CM_Altitude_Lead_cm,CM_Altitude_Wing_cm,CM_Airspeed_cm,Subject_ac,SampleDate_ac,SampleTime_ac,Configuration_ac,Scenario_ac,DisTime_ac,MarkingTxt_ac,Application_ac,EntId_ac,Site_ac,ExerciseId_ac,ForceId_ac,Category_ac,Country_ac,Domain_ac,Kind_ac,Extra_ac,Specific_ac,Subcategory_ac,AltCategory_ac,AltCountry_ac,AltDomain_ac,AltKind_ac,ECEF_X_ac,ECEF_Y_ac,ECEF_Z_ac,OriPhi_ac,OriPsi_ac,OriTheta_ac,LinVelX_ac,LinVelY_ac,LinVelZ_ac,LinAccX_ac,LinAccY_ac,LinAccZ_ac,AngVelX_ac,AngVelY_ac,AngVelZ_ac,DrAlg_ac,Appearance_ac,Latitude_ac,Longitude_ac,Altitude_ac,Heading_ac,Pitch_ac,Roll_ac,CalibratedAirspeed_ac,CM_Altitude_Lead_ac,CM_Altitude_Wing_ac,CM_Airspeed_ac,Bank_Angle_Condition,distance_nm,Distance_Condition,angle_between_vel,angle_between_pos,Cone_Condition,angle_between_pos_nose,Nose_Cone_Condition,Intercept_Criteria
2,1970-07-23 10:13:38.496217179,2025-09-11,2025-09-26 14:44:09.621,HH,C,1248759528,JASSM,3,103,76,2,2,1,225,9,2,0,1,26,0,0,0,0,-173022.60632498687,-4769778.520479049,4221228.050261021,-2.51458,-0.703426,0.607361,60.375,-51.125,-54.875,0.0,0.0,0.0,0.0,0.0,0.0,2,0,41.68092604245153,-92.07748017021736,10000.00475737638,139.82811910890575,-0.0014759473627654,0.0009622970518564,,9163.148997757502,11279.40419535643,150,2,2025-09-11,2025-09-26 14:44:09.715,HH,C,2152748234,HAWK11,1,1,73,2,1,1,225,2,1,0,0,12,1,225,2,1,-132169.68200858062,-4795706.992158736,4194012.738737584,2.24239,2.93824,-0.214374,-103.875,26.125,23.0,-0.234375,-6.46875,6.53125,0.00390625,-0.00390625,-0.0078125,4,0,41.35072761134469,-91.57867203677732,11279.40419535643,-74.17996360267074,0.7027648509049191,-3.860012197507201,197.873,9163.148997757502,11279.40419535643,150,True,29.86872009402316,False,147.23093243674336,171.4389431487962,False,24.208305554634745,True,False
2,1970-07-23 10:13:38.506259306,2025-09-11,2025-09-26 14:44:10.625,HH,C,1250012226,JASSM,3,103,76,2,2,1,225,9,2,0,1,26,0,0,0,0,-172959.17468436187,-4769832.329072799,4221170.233854771,-2.51458,-0.703426,0.607361,60.375,-51.125,-54.875,0.0,0.0,0.0,0.0,0.0,0.0,2,0,41.680229408568486,-92.0766958073293,9999.996977966555,139.8286406923891,-0.0005657432501607,0.0009605411736573,,9163.148997757502,11279.40419535643,150,2,2025-09-11,2025-09-26 14:44:10.921,HH,C,2154219600,HAWK11,1,1,73,2,1,1,225,2,1,0,0,12,1,225,2,1,-132299.31091483062,-4795674.289033736,4194040.762175084,2.23338,2.93757,-0.206129,-104.75,26.375,22.125,0.0,-6.5,6.57812,0.00195312,-0.00390625,0.00390625,4,0,41.35109004377546,-91.58023034693232,11268.433718788085,-74.50483510301036,0.3579777371108265,-4.38741743090538,198.056,9163.148997757502,11279.40419535643,150,True,29.7481983501175,False,146.8348867643102,171.48164020177975,False,24.64883187923969,True,False
2,1970-07-23 10:13:38.519716022,2025-09-11,2025-09-26 14:44:11.971,HH,C,1251324578,JASSM,3,103,76,2,2,1,225,9,2,0,1,26,0,0,0,0,-172892.72253592435,-4769888.700166549,4221109.663542271,-2.51458,-0.703426,0.607456,60.375,-51.125,-54.875,0.0,0.0,0.0,0.0,0.0,0.0,2,0,41.679499589687566,-92.07587411245004,9999.99332731639,139.8324090291026,-0.0040591448932207,0.0009585942005426,,9163.148997757502,11279.40419535643,150,2,2025-09-11,2025-09-26 14:44:11.809,HH,C,2155253532,HAWK11,1,1,73,2,1,1,225,2,1,0,0,12,1,225,2,1,-132390.78747733062,-4795651.366182174,4194059.784636021,2.2353,2.93805,-0.198267,-105.5,26.25,21.75,-0.125,-6.6875,6.75,-0.00195312,0.0,-0.0175781,4,0,41.35133978318753,-91.58132997594151,11259.447218249168,-74.85659388547934,0.0752945534739016,-4.273393859326653,198.203,9163.148997757502,11279.40419535643,150,True,29.64498229816651,False,146.53423316924417,171.50714368017958,False,24.975396530553844,True,False
2,1970-07-23 10:13:38.528155424,2025-09-11,2025-09-26 14:44:12.815,HH,C,1252636930,JASSM,3,103,76,2,2,1,225,9,2,0,1,26,0,0,0,0,-172826.27038748687,-4769945.071260299,4221049.093229771,-2.51458,-0.703426,0.607456,60.375,-51.125,-54.875,0.0,0.0,0.0,0.0,0.0,0.0,2,0,41.67876976483921,-92.07505243613808,9999.995471246692,139.83295540978716,-0.0031055929354986,0.0009568040403952,,9163.148997757502,11279.40419535643,150,2,2025-09-11,2025-09-26 14:44:13.011,HH,C,2156645364,HAWK11,1,1,73,2,1,1,225,2,1,0,0,12,1,225,2,1,-132513.99450858062,-4795620.764619674,4194084.499479771,2.23645,2.94198,-0.19146,-106.5,26.125,21.125,-0.25,-6.78125,6.85938,-0.00195312,0.0,0.0,4,0,41.35166839362405,-91.58281095805384,11246.058338477143,-75.29470271265541,-0.0227946700921509,-4.164090365003641,198.386,9163.148997757502,11279.40419535643,150,True,29.52585663590046,False,146.10382940052227,171.54814550152008,False,25.447874156605124,True,False
2,1970-07-23 10:13:38.540152829,2025-09-11,2025-09-26 14:44:14.015,HH,C,1254008932,JASSM,3,103,76,2,2,1,225,9,2,0,1,26,0,0,0,0,-172756.79724295562,-4770004.004854049,4220985.769011021,-2.51458,-0.703426,0.607456,60.375,-51.125,-54.875,0.0,0.0,0.0,0.0,0.0,0.0,2,0,41.67800675401498,-92.07419342535292,10000.00275429029,139.83352660795865,-0.0021086905892207,0.0009549318538821,,9163.148997757502,11279.40419535643,150,2,2025-09-11,2025-09-26 14:44:14.105,HH,C,2158037196,HAWK11,1,1,73,2,1,1,225,2,1,0,0,12,1,225,2,1,-132639.50232108062,-4795589.867158736,4194109.106901646,2.24843,2.94563,-0.186475,-107.375,26.125,20.5,-0.15625,-6.9375,6.95312,0.0117188,-0.00976562,-0.00195312,4,0,41.35199764014923,-91.58431952245262,11231.873392614203,-75.64496926980483,-0.0621115237425334,-3.4380156064291088,198.618,9163.148997757502,11279.40419535643,150,True,29.403230537168806,False,145.73591155808867,171.5902897079107,False,25.859688211887068,True,False
2,1970-07-23 10:13:38.551719460,2025-09-11,2025-09-26 14:44:15.171,HH,C,1255321284,JASSM,3,103,76,2,2,1,225,9,2,0,1,26,0,0,0,0,-172690.34509451812,-4770060.372041549,4220925.194792271,-2.51448,-0.70333,0.607456,60.375,-51.125,-54.875,0.0,0.0,0.0,0.0,0.0,0.0,2,0,41.677276914065885,-92.07337178871516,9999.998663275475,139.83042161420832,-0.0038007769524702,0.0033103422821889,,9163.148997757502,11279.40419535643,150,2,2025-09-11,2025-09-26 14:44:14.920,HH,C,2158991594,HAWK11,1,1,73,2,1,1,225,2,1,0,0,12,1,225,2,1,-132725.71325858062,-4795568.869111861,4194125.574675084,2.25399,2.94956,-0.18264,-108.0,26.0,20.375,-0.265625,-6.9375,6.92188,0.0,0.0,-0.0078125,4,0,41.35221950965232,-91.58535568632136,11221.746774190651,-75.95715516421468,-0.0451210459202036,-3.077817146128153,198.618,9163.148997757502,11279.40419535643,150,True,29.303271241308444,False,145.5590039778635,171.6151902059818,False,26.061245853738264,True,False
2,1970-07-23 10:13:38.562194736,2025-09-11,2025-09-26 14:44:16.219,HH,C,1256693286,JASSM,3,103,76,2,2,1,225,9,2,0,1,26,0,0,0,0,-172620.87243826812,-4770119.301729049,4220861.866667271,-2.51448,-0.70333,0.607456,60.375,-51.125,-54.875,0.0,0.0,0.0,0.0,0.0,0.0,2,0,41.67651388748055,-92.07251282518578,10000.000293511694,139.8309927642679,-0.0028038758137022,0.0033084002439749,,9163.148997757502,11279.40419535643,150,2,2025-09-11,2025-09-26 14:44:16.215,HH,C,2160502726,HAWK11,1,1,73,2,1,1,225,2,1,0,0,12,1,225,2,1,-132862.61169608062,-4795536.117158736,4194151.220182896,2.26521,2.95215,-0.181393,-108.875,25.75,20.125,-0.109375,-7.01562,7.0625,0.0214844,0.0,-0.00390625,4,0,41.35256488269261,-91.58700088083772,11206.03838428625,-76.10913069749826,0.0162238315909488,-2.4082628448875765,198.765,9163.148997757502,11279.40419535643,150,True,29.175456418643574,False,145.26313494726327,171.6645741253953,False,26.406122003732452,True,False
2,1970-07-23 10:13:38.573732755,2025-09-11,2025-09-26 14:44:17.373,HH,C,1258005638,JASSM,3,103,76,2,2,1,225,9,2,0,1,26,0,0,0,0,-172554.41980154935,-4770175.665010299,4220801.292448521,-2.51448,-0.70333,0.607456,60.375,-51.125,-54.875,0.0,0.0,0.0,0.0,0.0,0.0,2,0,41.67578405879219,-92.07169122235943,9999.99844574076,139.83153906407253,-0.0018503380057391,0.0033065638498953,,9163.148997757502,11279.40419535643,150,2,2025-09-11,2025-09-26 14:44:17.419,HH,C,2161815024,HAWK11,1,1,73,2,1,1,225,2,1,0,0,12,1,225,2,1,-132983.93200858062,-4795507.653291549,4194173.5766282086,2.28141,2.95636,-0.176983,-109.75,25.5,20.25,-0.15625,-7.04688,7.07812,0.00585938,0.0078125,-0.00585938,4,0,41.35286509556087,-91.588458694061,11192.703990036827,-76.4570410711351,0.0239737549770743,-1.4369913159183594,198.801,9163.148997757502,11279.40419535643,150,True,29.05829352478231,False,145.11070027407686,171.70800103004277,False,26.600587105887392,True,False
2,1970-07-23 10:13:38.584256800,2025-09-11,2025-09-26 14:44:18.425,HH,C,1259317988,JASSM,3,103,76,2,2,1,225,9,2,0,1,26,0,0,0,0,-172487.96716483062,-4770232.028291549,4220740.714323521,-2.51448,-0.70333,0.607456,60.375,-51.125,-54.875,0.0,0.0,0.0,0.0,0.0,0.0,2,0,41.67505419788091,-92.0708696380963,9999.993871095125,139.8320853436871,-0.0008967800119376,0.0033047104849278,,9163.148997757502,11279.40419535643,150,2,2025-09-11,2025-09-26 14:44:18.605,HH,C,2163326156,HAWK11,1,1,73,2,1,1,225,2,1,0,0,12,1,225,2,1,-133123.06482108062,-4795475.530244674,4194198.958464146,2.32063,2.9578,-0.176408,-110.5,25.375,20.5,-0.09375,-7.10938,7.03125,0.0703125,0.00585938,-0.0078125,4,0,41.35320453741898,-91.5901303928979,11178.144793386122,-76.53701304543821,0.0633008754656944,0.8240906259308217,198.838,9163.148997757502,11279.40419535643,150,True,28.932435525577258,False,145.06103409673727,171.76104620103098,False,26.702248743982803,True,False
2,1970-07-23 10:13:38.595256007,2025-09-11,2025-09-26 14:44:19.525,HH,C,1260570688,JASSM,3,103,76,2,2,1,225,9,2,0,1,26,0,0,0,0,-172424.53552420562,-4770285.829072799,4220682.890104771,-2.51448,-0.70333,0.607552,60.375,-51.125,-54.875,0.0,0.0,0.0,0.0,0.0,0.0,2,0,41.67435751238146,-92.07008542117812,9999.994417400776,139.8358309541418,-0.0044361139853587,0.0033028174100675,,9163.148997757502,11279.40419535643,150,2,2025-09-11,2025-09-26 14:44:19.451,HH,C,2163763590,HAWK11,1,1,73,2,1,1,225,2,1,0,0,12,1,225,2,1,-133164.42419608062,-4795465.998994674,4194206.612761021,2.34968,2.95953,-0.176408,-110.75,25.625,20.625,-0.171875,-7.1875,7.09375,0.0761719,0.00390625,-0.00195312,4,0,41.35330606860372,-91.59062732905562,11174.099409928447,-76.6026373374676,0.1358773108174661,2.505751945939146,198.655,9163.148997757502,11279.40419535643,150,True,28.857887759667406,False,145.14832331421906,171.76610223276947,False,26.620354196999156,True,False
2,1970-07-23 10:13:38.606233819,2025-09-11,2025-09-26 14:44:20.623,HH,C,1261942690,JASSM,3,103,76,2,2,1,225,9,2,0,1,26,0,0,0,0,-172355.06237967435,-4770344.754854049,4220619.558073521,-2.51448,-0.70333,0.607552,60.375,-51.125,-54.875,0.0,0.0,0.0,0.0,0.0,0.0,2,0,41.67359445805615,-92.06922653111536,10000.002148924486,139.83640202268109,-0.0034392080922989,0.003300931901225,,9163.148997757502,11279.40419535643,150,2,2025-09-11,2025-09-26 14:44:20.605,HH,C,2165751920,HAWK11,1,1,73,2,1,1,225,2,1,0,0,12,1,225,2,1,-133349.51403983062,-4795422.837861861,4194241.9067063336,2.44085,2.95387,-0.194049,-111.125,26.25,22.25,-0.15625,-7.21875,7.14062,0.0332031,0.0136719,0.00585938,4,0,41.35377044975424,-91.59285138782076,11157.012405670524,-75.64093841124792,0.5796778137670626,7.676024629198692,198.435,9163.148997757502,11279.40419535643,150,True,28.706062652049987,False,145.87668823210012,171.8411069957881,False,25.965341019251113,True,False
2,1970-07-23 10:13:38.617253733,2025-09-11,2025-09-26 14:44:21.725,HH,C,1263195390,JASSM,3,103,76,2,2,1,225,9,2,0,1,26,0,0,0,0,-172291.63025076812,-4770398.551729049,4220561.729948521,-2.51448,-0.70333,0.607552,60.375,-51.125,-54.875,0.0,0.0,0.0,0.0,0.0,0.0,2,0,41.67289775837445,-92.06844234546958,9999.995626986563,139.83692341341214,-0.0025289957958607,0.0032992149933593,,9163.148997757502,11279.40419535643,150,2,2025-09-11,2025-09-26 14:44:21.809,HH,C,2167223286,HAWK11,1,1,73,2,1,1,225,2,1,0,0,12,1,225,2,1,-133486.03357108062,-4795389.977510299,4194269.9203782086,2.45418,2.94659,-0.206896,-111.25,26.625,24.25,-0.1875,-7.21875,7.07812,-0.015625,0.0,0.015625,4,0,41.35413242221957,-91.5944921840048,11146.192427846754,-74.82189928903301,0.7724898493434943,8.36607807723251,197.909,9163.148997757502,11279.40419535643,150,True,28.582954422363066,False,146.68728973872481,171.89223467301906,False,25.204978465817796,True,False
2,1970-07-23 10:13:38.628272610,2025-09-11,2025-09-26 14:44:22.827,HH,C,1264567392,JASSM,3,103,76,2,2,1,225,9,2,0,1,26,0,0,0,0,-172222.15710623687,-4770457.473604049,4220498.397917271,-2.51448,-0.70333,0.607552,60.375,-51.125,-54.875,0.0,0.0,0.0,0.0,0.0,0.0,2,0,41.67213471493527,-92.0675834959096,10000.00590798146,139.83749443861402,-0.0015321083153162,0.0032973435115263,,9163.148997757502,11279.40419535643,150,2,2025-09-11,2025-09-26 14:44:22.917,HH,C,2168495818,HAWK11,1,1,73,2,1,1,225,2,1,0,0,12,1,225,2,1,-133605.34607108062,-4795360.105439986,4194296.168425084,2.44076,2.93901,-0.225112,-111.125,27.875,25.375,0.0,-7.39062,7.23438,0.0917969,0.0117188,0.0214844,4,0,41.35446753284065,-91.5959265728752,11137.731786088789,-73.76537098249665,1.1622641348705165,7.521848094949105,197.188,9163.148997757502,11279.40419535643,150,True,28.462681294587412,False,147.48119835811005,171.9321884116117,False,24.450992756158286,True,False
2,1970-07-23 10:13:38.639714462,2025-09-11,2025-09-26 14:44:23.971,HH,C,1265820092,JASSM,3,103,76,2,2,1,225,9,2,0,1,26,0,0,0,0,-172158.72497733062,-4770511.266572799,4220440.565886021,-2.51448,-0.703234,0.607552,60.375,-51.125,-54.875,0.0,0.0,0.0,0.0,0.0,0.0,2,0,41.671438000965,-92.06679934738813,9999.9923609653,139.8343625760881,-0.0032692040119304,0.0001589392776104,,9163.148997757502,11279.40419535643,150,2,2025-09-11,2025-09-26 14:44:24.105,HH,C,2169887650,HAWK11,1,1,73,2,1,1,225,2,1,0,0,12,1,225,2,1,-133734.20544608062,-4795327.128877486,4194326.537565708,2.54938,2.93307,-0.241218,-110.75,29.0,27.375,-0.203125,-7.46875,7.35938,0.0527344,0.015625,0.00976562,4,0,41.3548473341684,-91.59747599104034,11131.225565201006,-72.86091211236558,1.5403225619116023,13.688229020171567,196.663,9163.148997757502,11279.40419535643,150,False,28.341932611630202,False,148.57754351439806,171.97695230879788,False,23.399647130323434,True,False
2,1970-07-23 10:13:38.650174676,2025-09-11,2025-09-26 14:44:25.017,HH,C,1267132444,JASSM,3,103,76,2,2,1,225,9,2,0,1,26,0,0,0,0,-172092.27185233062,-4770567.625947799,4220379.983854771,-2.51448,-0.703234,0.607552,60.375,-51.125,-54.875,0.0,0.0,0.0,0.0,0.0,0.0,2,0,41.67070810174105,-92.06597786948475,10000.004160080209,139.83490873848547,-0.002315641167901,0.0001570791423864,,9163.148997757502,11279.40419535643,150,2,2025-09-11,2025-09-26 14:44:25.215,HH,C,2171239714,HAWK11,1,1,73,2,1,1,225,2,1,0,0,12,1,225,2,1,-133860.15857108062,-4795292.788057174,4194358.994596958,2.58322,2.91399,-0.26883,-110.125,30.625,29.875,-0.34375,-7.625,7.375,0.0078125,0.015625,0.0234375,4,0,41.355249809779885,-91.59899118504522,11125.69674506904,-70.98004205396386,1.8301144849393531,15.406837491496946,195.844,9163.148997757502,11279.40419535643,150,False,28.218855980509367,False,150.02808359767238,172.0172144916377,False,21.990151635819792,True,False
2,1970-07-23 10:13:38.661210176,2025-09-11,2025-09-26 14:44:26.121,HH,C,1268444794,JASSM,3,103,76,2,2,1,225,9,2,0,1,26,0,0,0,0,-172025.81921561187,-4770623.977510299,4220319.397917271,-2.51448,-0.703234,0.607552,60.375,-51.125,-54.875,0.0,0.0,0.0,0.0,0.0,0.0,2,0,41.66997821690201,-92.06515641937698,9999.994142587277,139.83545487455487,-0.0013620982033042,0.0001552268248051,,9163.148997757502,11279.40419535643,150,2,2025-09-11,2025-09-26 14:44:26.215,HH,C,2172432714,HAWK11,1,1,73,2,1,1,225,2,1,0,0,12,1,225,2,1,-133969.13513358062,-4795261.182588424,4194389.881315708,2.59147,2.90344,-0.286663,-109.25,32.375,32.25,-0.03125,-7.46875,7.45312,-0.00390625,0.00976562,0.0175781,4,0,41.35562821896232,-91.60030280119048,11122.339183540931,-69.83511592037489,2.09628952291143,15.752780256355654,195.575,9163.148997757502,11279.40419535643,150,False,28.103525633181523,False,151.50735057981592,172.04745093837442,False,20.541928551851388,True,False
2,1970-07-23 10:13:38.671215048,2025-09-11,2025-09-26 14:44:27.121,HH,C,1269697492,JASSM,3,103,76,2,2,1,225,9,2,0,1,26,0,0,0,0,-171962.38708670562,-4770677.770479049,4220261.565886021,-2.51448,-0.703234,0.607648,60.375,-51.125,-54.875,0.0,0.0,0.0,0.0,0.0,0.0,2,0,41.66928148611116,-92.06437232319423,9999.996937820077,139.83919859344786,-0.0048984833034172,0.0001532984246597,,9163.148997757502,11279.40419535643,150,2,2025-09-11,2025-09-26 14:44:27.105,HH,C,2173506412,HAWK11,1,1,73,2,1,1,225,2,1,0,0,12,1,225,2,1,-134067.08435233062,-4795231.405244674,4194419.709440708,2.57459,2.89088,-0.306796,-108.375,33.625,34.375,0.015625,-7.73438,7.5,-0.0273438,0.0117188,0.0234375,4,0,41.35599042900398,-91.60148216547262,11120.435239867023,-68.52096964904175,2.376260442672249,14.626847754869836,194.891,9163.148997757502,11279.40419535643,150,False,27.995814865249812,False,152.74923019594593,172.07195158016958,False,19.32675916832668,True,False
2,1970-07-23 10:13:38.682234186,2025-09-11,2025-09-26 14:44:28.223,HH,C,1270950192,JASSM,3,103,76,2,2,1,225,9,2,0,1,26,0,0,0,0,-171898.95446951812,-4770731.563447799,4220203.733854771,-2.51448,-0.703234,0.607648,60.375,-51.125,-55.0,0.0,0.0,0.0,0.0,0.0,0.0,2,0,41.66858474999225,-92.06358823806372,10000.004969783931,139.83971987330395,-0.0039882661907209,0.00015157505422,,9163.148997757502,11279.40419535643,150,2,2025-09-11,2025-09-26 14:44:28.013,HH,C,2174619878,HAWK11,1,1,73,2,1,1,225,2,1,0,0,12,1,225,2,1,-134168.83825858062,-4795199.197236861,4194453.094206333,2.55791,2.87717,-0.329135,-107.375,34.75,36.5,-0.109375,-7.73438,7.59375,-0.015625,0.00976562,0.0117188,4,0,41.35639046687912,-91.60270778002152,11120.5256948072,-67.07529844939322,2.7038786744460133,13.489529334579808,194.353,9163.148997757502,11279.40419535643,150,False,27.885047612705154,False,153.93984227939347,172.05936865766995,False,18.12977793708447,True,False
2,1970-07-23 10:13:38.693337497,2025-09-11,2025-09-26 14:44:29.333,HH,C,1272202892,JASSM,3,103,76,2,2,1,225,9,2,0,1,26,0,0,0,0,-171835.52209647125,-4770785.352510299,4220145.897917271,-2.51448,-0.703234,0.607648,60.375,-51.125,-55.0,0.0,0.0,0.0,0.0,0.0,0.0,2,0,41.667888005483306,-92.06280417445764,10000.000215727312,139.84024113170062,-0.0030780489318987,0.0001498471101306,,9163.148997757502,11279.40419535643,150,2,2025-09-11,2025-09-26 14:44:29.215,HH,C,2176011710,HAWK11,1,1,73,2,1,1,225,2,1,0,0,12,1,225,2,1,-134292.35778983062,-4795158.208955611,4194496.925261021,2.51745,2.86912,-0.348118,-106.25,35.625,39.125,-0.109375,-7.98438,7.76562,-0.0371094,0.0195312,0.0175781,4,0,41.35690962204493,-91.60419621150704,11123.154432399477,-65.98346505554213,3.130818050775628,11.073720311232597,193.938,9163.148997757502,11279.40419535643,150,False,27.760758218802618,False,155.2713596184798,172.08915674158055,False,16.842428454110642,True,False
2,1970-07-23 10:13:38.703132297,2025-09-11,2025-09-26 14:44:30.313,HH,C,1273455590,JASSM,3,103,76,2,2,1,225,9,2,0,1,26,0,0,0,0,-171772.08972342435,-4770839.141572799,4220088.061979771,-2.51439,-0.703234,0.607648,60.375,-51.125,-55.0,0.0,0.0,0.0,0.0,0.0,0.0,2,0,41.66719125554109,-92.06202012775864,10000.00074153042,139.84076237170746,-0.0021678315622222,0.0056395912274435,,9163.148997757502,11279.40419535643,150,2,2025-09-11,2025-09-26 14:44:30.417,HH,C,2177244476,HAWK11,1,1,73,2,1,1,225,2,1,0,0,12,1,225,2,1,-134402.06482108062,-4795121.087861861,4194538.939909458,2.49377,2.86883,-0.372182,-105.25,35.625,41.875,-0.171875,-8.03125,7.95312,-0.0117188,0.00195312,0.00195312,4,0,41.35739580303411,-91.6055184592346,11130.421749870471,-64.96567099293004,4.063429622349839,9.77498213811088,193.559,9163.148997757502,11279.40419535643,150,True,27.643318235202607,False,156.33092778268994,172.1117750710567,False,15.846001106268968,True,False
2,1970-07-23 10:13:38.714151398,2025-09-11,2025-09-26 14:44:31.415,HH,C,1274767940,JASSM,3,103,76,2,2,1,225,9,2,0,1,26,0,0,0,0,-171705.63659842435,-4770895.489229049,4220027.472136021,-2.51439,-0.703234,0.607648,60.375,-51.125,-55.0,0.0,0.0,0.0,0.0,0.0,0.0,2,0,41.66646133917072,-92.06119876288838,10000.000512736113,139.84130841343992,-0.0012142837614419,0.0056377929482042,,9163.148997757502,11279.40419535643,150,2,2025-09-11,2025-09-26 14:44:31.605,HH,C,2178874906,HAWK11,1,1,73,2,1,1,225,2,1,0,0,12,1,225,2,1,-134544.35388358062,-4795071.768525924,4194597.474089146,2.48093,2.8603,-0.390494,-103.75,36.375,44.125,0.0,-7.65625,7.51562,-0.0351562,0.015625,0.00976562,4,0,41.35806062815311,-91.6072338241162,11145.7315475753,-63.88809608205109,4.451540875823282,8.936977962154314,192.826,9163.148997757502,11279.40419535643,150,True,27.503064812818955,False,157.56261016511746,172.14210480858733,False,14.68195227040558,True,False
2,1970-07-23 10:13:38.725711642,2025-09-11,2025-09-26 14:44:32.571,HH,C,1276080280,JASSM,3,103,76,2,2,1,225,9,2,0,1,26,0,0,0,0,-171639.18420584625,-4770951.832979049,4219966.882292271,-2.51439,-0.703138,0.607648,60.375,-51.125,-55.0,0.0,0.0,0.0,0.0,0.0,0.0,2,0,41.665731440034975,-92.06037742704218,9999.996575334528,139.8382038737007,-0.002906447335721,0.0025008134559563,,9163.148997757502,11279.40419535643,150,2,2025-09-11,2025-09-26 14:44:32.251,HH,C,2179193040,HAWK11,1,1,73,2,1,1,225,2,1,0,0,12,1,225,2,1,-134573.04138358062,-4795061.682588424,4194609.719206333,2.47019,2.85896,-0.394712,-103.5,36.375,44.625,-0.046875,-7.6875,7.54688,-0.0449219,0.00976562,0.0078125,4,0,41.358198507641845,-91.60757971774888,11149.431252761327,-63.66282514738586,4.565552554773919,8.310047971770745,192.63,9163.148997757502,11279.40419535643,150,True,27.4294992646013,False,157.7634464163536,172.1348409199452,False,14.488206097608257,True,False
2,1970-07-23 10:13:38.735213491,2025-09-11,2025-09-26 14:44:33.521,HH,C,1277332990,JASSM,3,103,76,2,2,1,225,9,2,0,1,26,0,0,0,0,-171575.7511003775,-4771005.618135299,4219909.042448521,-2.51439,-0.703138,0.607648,60.375,-51.125,-55.0,0.0,0.0,0.0,0.0,0.0,0.0,2,0,41.66503467052889,-92.0595934255716,9999.995291374318,139.83872506159227,-0.0019962242148573,0.0024990296699179,,9163.148997757502,11279.40419535643,150,2,2025-09-11,2025-09-26 14:44:33.715,HH,C,2181340438,HAWK11,1,1,73,2,1,1,225,2,1,0,0,12,1,225,2,1,-134757.45544608062,-4794995.814424361,4194691.855925083,2.39963,2.85435,-0.411682,-102.0,36.5,46.875,-0.265625,-7.57812,7.45312,-0.0585938,0.00976562,-0.00195312,4,0,41.35911406133859,-91.60980363060436,11178.102570458088,-62.78672880360269,5.056797422914303,4.237149258063755,192.019,9163.148997757502,11279.40419535643,150,True,27.264834571095065,False,158.78069764462697,172.17521222360028,False,13.589905003244436,True,False
2,1970-07-23 10:13:38.746232276,2025-09-11,2025-09-26 14:44:34.623,HH,C,1278585690,JASSM,3,103,76,2,2,1,225,9,2,0,1,26,0,0,0,0,-171512.31823904935,-4771059.403291549,4219851.202604771,-2.51439,-0.703138,0.607648,60.375,-51.125,-55.0,0.0,0.0,0.0,0.0,0.0,0.0,2,0,41.66433789553819,-92.05880944393404,9999.999308827482,139.83924622914873,-0.0010860023540797,0.0024972441470229,,9163.148997757502,11279.40419535643,150,2,2025-09-11,2025-09-26 14:44:34.511,HH,C,2182334604,HAWK11,1,1,73,2,1,1,225,2,1,0,0,12,1,225,2,1,-134842.42419608062,-4794965.243135299,4194731.263151646,2.35169,2.85503,-0.415421,-101.5,36.5,47.375,-0.15625,-7.5,7.29688,-0.0410156,0.0136719,0.00585938,4,0,41.35954776582216,-91.6108283917501,11194.160767613794,-62.65492322379726,5.230088458030723,1.5178637828077093,191.824,9163.148997757502,11279.40419535643,150,True,27.159383378062554,False,159.0347901440189,172.18438653390288,False,13.369897787098663,True,False
2,1970-07-23 10:13:38.762912690,2025-09-11,2025-09-26 14:44:36.291,HH,C,1279898040,JASSM,3,103,76,2,2,1,225,9,2,0,1,26,0,0,0,0,-171445.86511404935,-4771115.747041549,4219790.608854771,-2.51439,-0.703138,0.607744,60.375,-51.125,-55.0,0.0,0.0,0.0,0.0,0.0,0.0,2,0,41.66360795295552,-92.057988153274,10000.003644021152,139.8430168642005,-0.0045816400943908,0.0024952494849356,,9163.148997757502,11279.40419535643,150,2,2025-09-11,2025-09-26 14:44:36.215,HH,C,2184322934,HAWK11,1,1,73,2,1,1,225,2,1,0,0,12,1,225,2,1,-135011.28357108062,-4794905.140596236,4194811.190886021,2.32456,2.85215,-0.416859,-100.875,35.75,48.0,-0.15625,-6.59375,6.48438,-0.00976562,-0.0117188,-0.00390625,4,0,41.36041666318054,-91.61286472785616,11231.190984538103,-62.49230254130912,5.1785119060757205,-0.0885121271017235,191.127,9163.148997757502,11279.40419535643,150,True,27.0002615160832,False,159.10045948040425,172.21689744929128,False,13.40035676109642,True,False
2,1970-07-23 10:13:38.768915775,2025-09-11,2025-09-26 14:44:36.891,HH,C,1281150740,JASSM,3,103,76,2,2,1,225,9,2,0,1,26,0,0,0,0,-171382.43225272125,-4771169.528291549,4219732.765104771,-2.51439,-0.703138,0.607744,60.375,-51.125,-55.0,0.0,0.0,0.0,0.0,0.0,0.0,2,0,41.66291116393471,-92.05720420793254,10000.00038526897,139.8435379931221,-0.0036714164968595,0.002493512289612,,9163.148997757502,11279.40419535643,150,2,2025-09-11,2025-09-26 14:44:36.809,HH,C,2184879668,HAWK11,1,1,73,2,1,1,225,2,1,0,0,12,1,225,2,1,-135058.75622733062,-4794888.252900924,4194833.565886021,2.32139,2.84362,-0.414942,-100.875,35.875,47.875,0.046875,-6.40625,6.34375,-0.0175781,0.00390625,0.0136719,4,0,41.36066023368709,-91.61343722304976,11241.420771967862,-62.26461756909851,4.778444560942704,-0.4475300051441868,190.858,9163.148997757502,11279.40419535643,150,True,26.917477387738554,False,159.11010965039617,172.21505074780384,False,13.379859805222633,True,False
2,1970-07-23 10:13:38.778170163,2025-09-11,2025-09-26 14:44:37.817,HH,C,1282463090,JASSM,3,103,76,2,2,1,225,9,2,0,1,26,0,0,0,0,-171315.97888358062,-4771225.868135299,4219672.167448521,-2.51439,-0.703138,0.607744,60.375,-51.125,-55.0,0.0,0.0,0.0,0.0,0.0,0.0,2,0,41.66218120684453,-92.05638295228596,9999.997937433558,139.84408391645974,-0.0027178638052244,0.0024917027535409,,9163.148997757502,11279.40419535643,150,2,2025-09-11,2025-09-26 14:44:37.919,HH,C,2186351032,HAWK11,1,1,73,2,1,1,225,2,1,0,0,12,1,225,2,1,-135183.96130545562,-4794843.219697799,4194892.821745396,2.30922,2.84074,-0.415805,-100.625,35.875,47.75,-0.0625,-6.82812,6.6875,-0.0117188,-0.00585938,0.00585938,4,0,41.3613071939933,-91.614947314123,11267.722418423436,-62.12550939437174,4.70435804524246,-1.2001158480977183,190.614,9163.148997757502,11279.40419535643,150,True,26.784760894513404,False,159.13832548158766,172.23492506536502,False,13.37075159470189,True,False
2,1970-07-23 10:13:38.791719544,2025-09-11,2025-09-26 14:44:39.171,HH,C,1283715790,JASSM,3,103,76,2,2,1,225,9,2,0,1,26,0,0,0,0,-171252.5460222525,-4771279.645479049,4219614.323698521,-2.51439,-0.703138,0.607744,60.375,-51.125,-55.0,0.0,0.0,0.0,0.0,0.0,0.0,2,0,41.6614844300551,-92.05559904323562,9999.995921550948,139.8446050066166,-0.001807658639577,0.0024899795932226,,9163.148997757502,11279.40419535643,150,2,2025-09-11,2025-09-26 14:44:39.105,HH,C,2187822398,HAWK11,1,1,73,2,1,1,225,2,1,0,0,12,1,225,2,1,-135308.40075858062,-4794798.515596236,4194951.506315708,2.30433,2.83528,-0.41149,-100.625,36.0,47.375,-0.078125,-6.76562,6.60938,-0.00976562,-0.00390625,0.00390625,4,0,41.36194844621005,-91.61644817881825,11293.553251694488,-62.10793441793926,4.327553665000357,-1.6047100325485557,190.113,9163.148997757502,11279.40419535643,150,True,26.65515330735296,False,159.08180378502541,172.25567578456224,False,13.42892769507143,True,False
2,1970-07-23 10:13:38.800212953,2025-09-11,2025-09-26 14:44:40.021,HH,C,1285028140,JASSM,3,103,76,2,2,1,225,9,2,0,1,26,0,0,0,0,-171186.09265311187,-4771335.985322799,4219553.726042271,-2.51439,-0.703138,0.607744,60.375,-51.125,-55.0,0.0,0.0,0.0,0.0,0.0,0.0,2,0,41.66075446131497,-92.05477782384465,10000.004799423396,139.84515089051737,-0.0008541057108702,0.0024881699900909,,9163.148997757502,11279.40419535643,150,2,2025-09-11,2025-09-26 14:44:39.917,HH,C,2188776796,HAWK11,1,1,73,2,1,1,225,2,1,0,0,12,1,225,2,1,-135389.10388358062,-4794769.445283736,4194989.276823521,2.29982,2.8324,-0.406505,-100.625,36.125,47.0,-0.109375,-6.70312,6.57812,-0.00195312,0.00390625,-0.0078125,4,0,41.362362825343446,-91.61742157964648,11309.493377386774,-62.211068638404015,4.021793472102249,-1.935911060188146,189.917,9163.148997757502,11279.40419535643,150,True,26.549614848568154,False,159.02374810684555,172.2630431112044,False,13.475366143281919,True,False
2,1970-07-23 10:13:38.811213808,2025-09-11,2025-09-26 14:44:41.121,HH,C,1286340490,JASSM,3,103,76,2,2,1,225,9,2,0,1,26,0,0,0,0,-171119.63903983062,-4771392.321260299,4219493.124479771,-2.51439,-0.703138,0.607744,60.375,-51.125,-55.0,0.0,0.0,0.0,0.0,0.0,0.0,2,0,41.66002448375643,-92.05395662175488,10000.001363102703,139.845696755071,9.945012459838866e-05,0.0024863592215212,,9163.148997757502,11279.40419535643,150,2,2025-09-11,2025-09-26 14:44:41.105,HH,C,2190168628,HAWK11,1,1,73,2,1,1,225,2,1,0,0,12,1,225,2,1,-135505.93005545562,-4794727.467744674,4195043.293425083,2.29905,2.83173,-0.407655,-100.625,36.125,46.5,-0.140625,-6.73438,6.65625,0.00976562,-0.00195312,0.0,4,0,41.36295758500017,-91.6188306625469,11331.402983762911,-62.13977433839848,4.043032853467621,-1.99003489190368,189.636,9163.148997757502,11279.40419535643,150,True,26.422357288338514,False,158.88912640285656,172.28177797507445,False,13.610144366180554,True,False
2,1970-07-23 10:13:38.821251896,2025-09-11,2025-09-26 14:44:42.125,HH,C,1287593190,JASSM,3,103,76,2,2,1,225,9,2,0,1,26,0,0,0,0,-171056.20593436187,-4771446.098604049,4219435.276823521,-2.51439,-0.703043,0.607744,60.375,-51.125,-55.0,0.0,0.0,0.0,0.0,0.0,0.0,2,0,41.65932766394769,-92.05317276208795,10000.007149149103,139.84256535499728,-0.0016376813775294,-0.0006530327487692,,9163.148997757502,11279.40419535643,150,2,2025-09-11,2025-09-26 14:44:42.013,HH,C,2191162794,HAWK11,1,1,73,2,1,1,225,2,1,0,0,12,1,225,2,1,-135589.98278983062,-4794697.244111861,4195082.131315708,2.30059,2.83278,-0.400752,-100.625,35.0,47.5,-0.203125,-6.79688,6.67188,0.0,-0.00585938,-0.00585938,4,0,41.363385444591216,-91.61984447463112,11347.062662916243,-62.46546553084327,3.8107292990857022,-1.9006652897013605,189.636,9163.148997757502,11279.40419535643,150,True,26.317505380297323,False,158.77752218458454,172.2914301277838,False,13.818738556990079,True,False
2,1970-07-23 10:13:38.832271501,2025-09-11,2025-09-26 14:44:43.227,HH,C,1288905548,JASSM,3,103,76,2,2,1,225,9,2,0,1,26,0,0,0,0,-170989.75207694,-4771502.430635299,4219374.671354771,-2.51439,-0.703043,0.60784,60.375,-51.125,-55.0,0.0,0.0,0.0,0.0,0.0,0.0,2,0,41.65859767188063,-92.05235159500111,9999.996929994886,139.8463340946018,-0.0051303675560468,-0.0006550690359349,,9163.148997757502,11279.40419535643,150,2,2025-09-11,2025-09-26 14:44:43.309,HH,C,2192793226,HAWK11,1,1,73,2,1,1,225,2,1,0,0,12,1,225,2,1,-135727.93786795562,-4794647.447236861,4195144.698698521,2.3072,2.8323,-0.40104,-100.625,36.25,45.625,-0.390625,-6.84375,6.67188,0.0078125,-0.00195312,-0.0117188,4,0,41.36408085298143,-91.62150852635403,11369.753286200004,-62.43711189031632,3.805267500059081,-1.5304339245582763,189.404,9163.148997757502,11279.40419535643,150,True,26.177740306779366,False,158.6896653511631,172.31764516862472,False,13.81158162845013,True,False
2,1970-07-23 10:13:38.843129935,2025-09-11,2025-09-26 14:44:44.312,HH,C,1290217892,JASSM,3,103,76,2,2,1,225,9,2,0,1,26,0,0,0,0,-170923.29870779935,-4771558.762666549,4219314.069792271,-2.51439,-0.703043,0.60784,60.375,-51.125,-55.0,0.0,0.0,0.0,0.0,0.0,0.0,2,0,41.657867700013256,-92.05153045231548,10000.001066735564,139.84687989671005,-0.0041768314026763,-0.0006568746607745,,9163.148997757502,11279.40419535643,150,2,2025-09-11,2025-09-26 14:44:43.605,HH,C,2193151126,HAWK11,1,1,73,2,1,1,225,2,1,0,0,12,1,225,2,1,-135758.96716483062,-4794636.185518111,4195158.818815708,2.31152,2.83192,-0.398068,-100.625,36.25,45.75,-0.140625,-6.8125,6.70312,0.0175781,0.00976562,-0.00195312,4,0,41.3642379462219,-91.62188283527506,11374.810448931616,-62.54665282275572,3.673250486657139,-1.2989178872024714,189.331,9163.148997757502,11279.40419535643,150,True,26.10243660763582,False,158.72439587524002,172.3104852461151,False,13.775303103373224,True,False
2,1970-07-23 10:13:38.854172908,2025-09-11,2025-09-26 14:44:45.417,HH,C,1291530244,JASSM,3,103,76,2,2,1,225,9,2,0,1,26,0,0,0,0,-170856.8448503775,-4771615.094697799,4219253.464323521,-2.51429,-0.703043,0.60784,60.375,-51.125,-55.0,0.0,0.0,0.0,0.0,0.0,0.0,2,0,41.65713769602748,-92.05070932231943,10000.002436711726,139.84742568253822,-0.0032232723126395,0.0048327782480936,,9163.148997757502,11279.40419535643,150,2,2025-09-11,2025-09-26 14:44:45.511,HH,C,2195417822,HAWK11,1,1,73,2,1,1,225,2,1,0,0,12,1,225,2,1,-135950.18200858062,-4794566.880830611,4195244.632292271,2.31765,2.83422,-0.39222,-100.75,36.5,45.125,-0.234375,-6.95312,6.75,0.00585938,0.0,-0.0117188,4,0,41.36519732001422,-91.62418947917524,11403.619436480463,-62.8750845466522,3.5315579598217286,-0.9172178340683332,189.098,9163.148997757502,11279.40419535643,150,True,25.930732867013752,False,158.59986740084844,172.354295640239,False,13.91569234826046,True,False
2,1970-07-23 10:13:38.866169838,2025-09-11,2025-09-26 14:44:46.616,HH,C,1292902246,JASSM,3,103,76,2,2,1,225,9,2,0,1,26,0,0,0,0,-170787.37048514312,-4771673.985322799,4219190.101042271,-2.51429,-0.703043,0.60784,60.375,-51.125,-55.0,0.0,0.0,0.0,0.0,0.0,0.0,2,0,41.65637449502496,-92.04985089036344,9999.998708613286,139.8479962537139,-0.0022263639984516,0.0048308694472887,,9163.148997757502,11279.40419535643,150,2,2025-09-11,2025-09-26 14:44:46.605,HH,C,2196730122,HAWK11,1,1,73,2,1,1,225,2,1,0,0,12,1,225,2,1,-136061.77771170562,-4794526.221650924,4195294.595182896,2.3142,2.83576,-0.390015,-100.625,36.375,45.125,-0.125,-6.96875,6.75,-0.015625,-0.00195312,0.00390625,4,0,41.36575765749234,-91.62553576958383,11419.66440471801,-63.02373538312085,3.5041765018244964,-1.0905656124190186,189.331,9163.148997757502,11279.40419535643,150,True,25.80438146268457,False,158.58998724999248,172.37229139403826,False,13.949598319799486,True,False
2,1970-07-23 10:13:38.877711649,2025-09-11,2025-09-26 14:44:47.771,HH,C,1294214598,JASSM,3,103,76,2,2,1,225,9,2,0,1,26,0,0,0,0,-170720.91662772125,-4771730.313447799,4219129.491667271,-2.51429,-0.703043,0.60784,60.375,-51.125,-55.0,0.0,0.0,0.0,0.0,0.0,0.0,2,0,41.65564447593655,-92.04902979997564,9999.993844035436,139.84854199716565,-0.0012728032400591,0.0048290473564857,,9163.148997757502,11279.40419535643,150,2,2025-09-11,2025-09-26 14:44:48.104,HH,C,2198559386,HAWK11,1,1,73,2,1,1,225,2,1,0,0,12,1,225,2,1,-136216.08630545562,-4794470.020479049,4195363.458464146,2.31535,2.84055,-0.387043,-100.625,36.5,44.875,0.03125,-7.0625,7.0,-0.00585938,0.00976562,-0.00585938,4,0,41.36653081054798,-91.62739737605958,11441.431268931608,-63.32419576210001,3.5721950791232087,-0.939133020728181,189.758,9163.148997757502,11279.40419535643,150,True,25.654948579016366,False,158.55932674202054,172.4051658117159,False,14.003082490805234,True,False
2,1970-07-23 10:13:38.888213362,2025-09-11,2025-09-26 14:44:48.821,HH,C,1295526950,JASSM,3,103,76,2,2,1,225,9,2,0,1,26,0,0,0,0,-170654.46252615875,-4771786.641572799,4219068.882292271,-2.51429,-0.703043,0.60784,60.375,-51.125,-55.0,0.0,0.0,0.0,0.0,0.0,0.0,2,0,41.65491445094199,-92.04820872520315,9999.994752725805,139.8490877223919,-0.0003192409894262,0.0048272269370036,,9163.148997757502,11279.40419535643,150,2,2025-09-11,2025-09-26 14:44:49.010,HH,C,2199593318,HAWK11,1,1,73,2,1,1,225,2,1,0,0,12,1,225,2,1,-136303.45935233062,-4794438.510713424,4195402.356901646,2.30749,2.84304,-0.392603,-100.625,36.0,45.125,-0.0625,-7.3125,7.1875,0.0117188,0.0,0.0078125,4,0,41.366966083192025,-91.62845137182828,11454.33003418507,-63.18479712059812,3.888398903368732,-1.3262132974941208,189.881,9163.148997757502,11279.40419535643,150,True,25.5459005346178,False,158.46837797671463,172.41681607723402,False,14.130926050493311,True,False
2,1970-07-23 10:13:38.900529150,2025-09-11,2025-09-26 14:44:50.052,HH,C,1296839300,JASSM,3,103,76,2,2,1,225,9,2,0,1,26,0,0,0,0,-170588.00866873687,-4771842.969697799,4219008.272917271,-2.51429,-0.703043,0.60784,60.375,-51.125,-55.0,0.0,0.0,0.0,0.0,0.0,0.0,2,0,41.654184419937565,-92.04738767190112,10000.001477467777,139.84963342550117,0.000634320011739,0.0048254047775751,,9163.148997757502,11279.40419535643,150,2,2025-09-11,2025-09-26 14:44:50.105,HH,C,2200985150,HAWK11,1,1,73,2,1,1,225,2,1,0,0,12,1,225,2,1,-136420.27966483062,-4794396.292939986,4195454.297331333,2.32091,2.82415,-0.374771,-100.625,36.875,44.25,-0.046875,-5.6875,5.53125,0.0117188,0.0,-0.00195312,4,0,41.36754810568537,-91.62986064484102,11471.21960674076,-63.23017887686687,2.458222067211936,-0.9647845860250276,190.186,9163.148997757502,11279.40419535643,150,True,25.419166725589033,False,158.49897667028233,172.4382757414434,False,14.06951410648274,True,False
2,1970-07-23 10:13:38.910254670,2025-09-11,2025-09-26 14:44:51.025,HH,C,1298151650,JASSM,3,103,76,2,2,1,225,9,2,0,1,26,0,0,0,0,-170521.55456717435,-4771899.293916549,4218947.663542271,-2.51429,-0.702947,0.607936,60.375,-51.125,-55.0,0.0,0.0,0.0,0.0,0.0,0.0,2,0,41.65345440637726,-92.0465666358878,10000.004405927377,139.8497544952895,-0.0055067063809296,0.0016872412592928,,9163.148997757502,11279.40419535643,150,2,2025-09-11,2025-09-26 14:44:51.105,HH,C,2202178150,HAWK11,1,1,73,2,1,1,225,2,1,0,0,12,1,225,2,1,-136521.03161795562,-4794358.454072799,4195498.062956333,2.31535,2.82559,-0.36921,-100.75,37.875,43.5,-0.046875,-6.35938,6.14062,-0.00195312,0.0,-0.00976562,4,0,41.36805158772804,-91.63107657958317,11480.044340582686,-63.5139272708024,2.293485710352872,-1.2652198356409916,190.382,9163.148997757502,11279.40419535643,150,True,25.30200610446432,False,158.5583608698938,172.45457821749764,False,13.982174323902644,True,False
2,1970-07-23 10:13:38.921272522,2025-09-11,2025-09-26 14:44:52.127,HH,C,1299464002,JASSM,3,103,76,2,2,1,225,9,2,0,1,26,0,0,0,0,-170455.10046561187,-4771955.618135299,4218887.050261021,-2.51429,-0.702947,0.607936,60.375,-51.0,-55.0,0.0,0.0,0.0,0.0,0.0,0.0,2,0,41.652724360593744,-92.04574561841534,10000.004611288898,139.85030015911863,-0.0045531423575816,0.0016854108332767,,9163.148997757502,11279.40419535643,150,2,2025-09-11,2025-09-26 14:44:52.215,HH,C,2203410914,HAWK11,1,1,73,2,1,1,225,2,1,0,0,12,1,225,2,1,-136625.22888358062,-4794318.713838424,4195542.375456333,2.31526,2.81754,-0.36595,-100.875,38.75,42.625,-0.03125,-6.3125,6.15625,0.00390625,-0.00390625,0.00195312,4,0,41.368569469943,-91.6323343197587,11485.623823769069,-63.34983427429506,1.855082843291733,-1.430603900288792,190.846,9163.148997757502,11279.40419535643,150,True,25.182881005566337,False,158.5577356000253,172.49962929035303,False,13.997876615527655,True,False
2,1970-07-23 10:13:38.932131147,2025-09-11,2025-09-26 14:44:53.213,HH,C,1300776354,JASSM,3,103,76,2,2,1,225,9,2,0,1,26,0,0,0,0,-170388.64636404935,-4772011.938447799,4218826.436979771,-2.51429,-0.702947,0.607936,60.375,-51.0,-55.0,0.0,0.0,0.0,0.0,0.0,0.0,2,0,41.65199433220166,-92.04492462115591,10000.001041551965,139.85084580166617,-0.0035995968655336,0.0016835944722533,,9163.148997757502,11279.40419535643,150,2,2025-09-11,2025-09-26 14:44:53.013,HH,C,2204365314,HAWK11,1,1,73,2,1,1,225,2,1,0,0,12,1,225,2,1,-136706.13513358062,-4794287.347627486,4195576.350065708,2.32101,2.8162,-0.360102,-101.125,39.375,42.25,0.046875,-6.375,6.26562,0.00195312,-0.00390625,-0.00976562,4,0,41.36897168456775,-91.63331110629576,11487.769960098449,-63.541166497271234,1.5711028057965892,-1.1340445314944736,191.127,9163.148997757502,11279.40419535643,150,True,25.077725827439437,False,158.56245632923137,172.50986547508853,False,13.986498491239235,True,False
2,1970-07-23 10:13:38.943170502,2025-09-11,2025-09-26 14:44:54.317,HH,C,1302088706,JASSM,3,103,76,2,2,1,225,9,2,0,1,26,0,0,0,0,-170322.19226248687,-4772068.262666549,4218765.819792271,-2.51429,-0.702947,0.607936,60.375,-51.0,-55.0,0.0,0.0,0.0,0.0,0.0,0.0,2,0,41.65126424823791,-92.04410364076354,10000.004318878657,139.85139142515888,-0.0026460125222005,0.0016817470414877,,9163.148997757502,11279.40419535643,150,2,2025-09-11,2025-09-26 14:44:54.214,HH,C,2205796912,HAWK11,1,1,73,2,1,1,225,2,1,0,0,12,1,225,2,1,-136827.61560233062,-4794239.572236861,4195626.762175083,2.31181,2.81802,-0.356267,-101.375,39.875,41.875,-0.125,-6.8125,6.71875,-0.0078125,0.00390625,-0.00585938,4,0,41.369575573768365,-91.63477800174232,11488.026892923284,-63.76802547017095,1.489626173857122,-1.6308872723911538,191.396,9163.148997757502,11279.40419535643,150,True,24.948207854947093,False,158.52626652055642,172.53408924812334,False,14.034760591267881,True,False
2,1970-07-23 10:13:38.954188107,2025-09-11,2025-09-26 14:44:55.418,HH,C,1303401056,JASSM,3,103,76,2,2,1,225,9,2,0,1,26,0,0,0,0,-170255.73791678375,-4772124.579072799,4218705.202604771,-2.51429,-0.702947,0.607936,60.375,-51.0,-55.0,0.0,0.0,0.0,0.0,0.0,0.0,2,0,41.65053420506543,-92.04328267932588,9999.994229770438,139.85193702820615,-0.0016924639905597,0.0016799294806387,,9163.148997757502,11279.40419535643,150,2,2025-09-11,2025-09-26 14:44:55.417,HH,C,2207228510,HAWK11,1,1,73,2,1,1,225,2,1,0,0,12,1,225,2,1,-136949.81091483062,-4794191.462861861,4195676.891081333,2.30855,2.81524,-0.352336,-101.875,40.125,41.625,-0.015625,-6.875,6.71875,0.00195312,0.00976562,-0.00976562,4,0,41.37017939582757,-91.63625357439857,11486.908076155758,-63.8267019617304,1.2268406916458492,-1.874341994035728,191.738,9163.148997757502,11279.40419535643,150,True,24.81841153383732,False,158.3959601182141,172.5592090355601,False,14.184502106771461,True,False
2,1970-07-23 10:13:38.965210973,2025-09-11,2025-09-26 14:44:56.521,HH,C,1304713406,JASSM,3,103,76,2,2,1,225,9,2,0,1,26,0,0,0,0,-170189.28357108062,-4772180.899385299,4218644.585417271,-2.51429,-0.702947,0.607936,60.375,-51.0,-55.0,0.0,0.0,0.0,0.0,0.0,0.0,2,0,41.649804132588855,-92.04246173475474,9999.99950529744,139.852482612198,-0.0007388966856197,0.0016780977861834,,9163.148997757502,11279.40419535643,150,2,2025-09-11,2025-09-26 14:44:56.809,HH,C,2208898708,HAWK11,1,1,73,2,1,1,225,2,1,0,0,12,1,225,2,1,-137094.09216483062,-4794134.698213424,4195735.304167271,2.29953,2.82022,-0.349364,-102.375,40.25,41.25,-0.265625,-6.98438,6.78125,-0.00976562,0.00390625,-0.0078125,4,0,41.37088684896207,-91.63799586798416,11484.01567827726,-64.1368957282758,1.3024657919192877,-2.299409359195325,192.092,9163.148997757502,11279.40419535643,150,True,24.675612723168754,False,158.19047434064814,172.59291158750526,False,14.418911421066129,True,False
2,1970-07-23 10:13:38.976233344,2025-09-11,2025-09-26 14:44:57.623,HH,C,1306025758,JASSM,3,103,76,2,2,1,225,9,2,0,1,26,0,0,0,0,-170122.8292253775,-4772237.215791549,4218583.968229771,-2.51429,-0.702947,0.607936,60.375,-51.0,-55.0,0.0,0.0,0.0,0.0,0.0,0.0,2,0,41.6490740775039,-92.04164081039144,10000.001005304328,139.85302817491348,0.0002146520893025,0.0016762801567242,,9163.148997757502,11279.40419535643,150,2,2025-09-11,2025-09-26 14:44:57.416,HH,C,2209614508,HAWK11,1,1,73,2,1,1,225,2,1,0,0,12,1,225,2,1,-137155.84607108062,-4794110.449189986,4195760.148893833,2.29915,2.81879,-0.347255,-102.75,40.25,41.25,-0.03125,-6.95312,6.89062,0.0,0.0078125,-0.00585938,4,0,41.37118830164541,-91.63874158380756,11482.557530540802,-64.17036242562001,1.1633986794144748,-2.350235772092891,192.092,9163.148997757502,11279.40419535643,150,True,24.582173134192537,False,158.10113236545553,172.59772399530712,False,14.513287170800343,True,False
2,1970-07-23 10:13:38.986251319,2025-09-11,2025-09-26 14:44:58.625,HH,C,1307278458,JASSM,3,103,76,2,2,1,225,9,2,0,1,26,0,0,0,0,-170059.3956316275,-4772290.973604049,4218526.104948521,-2.51429,-0.702947,0.608032,60.375,-51.0,-55.0,0.0,0.0,0.0,0.0,0.0,0.0,2,0,41.64837718418369,-92.0408572187301,10000.007799345503,139.85677207900548,-0.0033211965256002,0.0016744719954168,,9163.148997757502,11279.40419535643,150,2,2025-09-11,2025-09-26 14:44:58.917,HH,C,2211284706,HAWK11,1,1,73,2,1,1,225,2,1,0,0,12,1,225,2,1,-137300.19177420562,-4794053.915986861,4195817.816862583,2.29886,2.82521,-0.344475,-103.25,40.25,41.125,-0.09375,-7.26562,7.10938,0.00195312,0.0117188,-0.015625,4,0,41.37188929828815,-91.64048462248738,11478.643658332276,-64.52676618313107,1.3031452603744942,-2.249666449612785,192.398,9163.148997757502,11279.40419535643,150,True,24.44219313185091,False,157.94269114426842,172.63349365071969,False,14.70670068200571,True,False
2,1970-07-23 10:13:38.997289228,2025-09-11,2025-09-26 14:44:59.728,HH,C,1308590808,JASSM,3,103,76,2,2,1,225,9,2,0,1,26,0,0,0,0,-169992.94104178375,-4772347.286104049,4218465.483854771,-2.51429,-0.702851,0.608032,60.375,-51.0,-55.0,0.0,0.0,0.0,0.0,0.0,0.0,2,0,41.64764711458936,-92.04003632933797,10000.002516583028,139.85366619002036,-0.0050148751408431,-0.0014660286383325,,9163.148997757502,11279.40419535643,150,2,2025-09-11,2025-09-26 14:44:59.808,HH,C,2212477704,HAWK11,1,1,73,2,1,1,225,2,1,0,0,12,1,225,2,1,-137403.93982108062,-4794013.701143111,4195859.144011021,2.30327,2.82166,-0.339681,-103.75,40.125,41.125,0.0,-6.375,6.23438,0.00390625,-0.00585938,-0.00390625,4,0,41.372389814026526,-91.64173730674908,11476.604986704058,-64.59218175083004,0.975688382704744,-2.0664851024645823,192.557,9163.148997757502,11279.40419535643,150,True,24.3239551151753,False,157.79079731516592,172.65433403093692,False,14.881000724943107,True,False
2,1970-07-23 10:13:39.008193903,2025-09-11,2025-09-26 14:45:00.819,HH,C,1309843508,JASSM,3,103,76,2,2,1,225,9,2,0,1,26,0,0,0,0,-169929.50720389312,-4772401.040010299,4218407.616667271,-2.51419,-0.702851,0.608032,60.375,-51.0,-55.0,0.0,0.0,0.0,0.0,0.0,0.0,2,0,41.64695020728887,-92.0392527709996,10000.002013228826,139.85418689860913,-0.0041046536907554,0.0040373494496153,,9163.148997757502,11279.40419535643,150,2,2025-09-11,2025-09-26 14:45:00.809,HH,C,2213670704,HAWK11,1,1,73,2,1,1,225,2,1,0,0,12,1,225,2,1,-137507.84997733062,-4793972.660127486,4195899.815886021,2.31957,2.80872,-0.325204,-104.0,41.5,40.125,-0.09375,-5.59375,5.40625,0.00585938,-0.015625,0.00390625,4,0,41.37289077544801,-91.64299222932608,11471.130824422984,-64.69979323541483,-0.1039746651277011,-1.3755360548726694,192.74,9163.148997757502,11279.40419535643,150,True,24.20820009562816,False,157.778896868043,172.67635173571318,False,14.899539173370965,True,False
2,1970-07-23 10:13:39.018189575,2025-09-11,2025-09-26 14:45:01.818,HH,C,1311096206,JASSM,3,103,76,2,2,1,225,9,2,0,1,26,0,0,0,0,-169866.0733660025,-4772454.793916549,4218349.749479771,-2.51419,-0.702851,0.608032,60.375,-51.0,-55.0,0.0,0.0,0.0,0.0,0.0,0.0,2,0,41.6462532945627,-92.03846922954916,10000.006789764911,139.85470758882556,-0.003194432130168,0.0040355950352919,,9163.148997757502,11279.40419535643,150,2,2025-09-11,2025-09-26 14:45:01.806,HH,C,2214863702,HAWK11,1,1,73,2,1,1,225,2,1,0,0,12,1,225,2,1,-137612.27575858062,-4793930.248994674,4195939.166471958,2.32964,2.80431,-0.319356,-104.5,42.875,39.125,0.0,-6.34375,6.1875,0.00390625,0.0117188,0.0,4,0,41.37339085882451,-91.64425379902411,11459.46327167974,-64.77292638307824,-0.5084903447449937,-0.8784504963181369,193.058,9163.148997757502,11279.40419535643,150,True,24.092264612428302,False,157.6817802731172,172.69928717893472,False,15.019060460449333,True,False
2,1970-07-23 10:13:39.030232640,2025-09-11,2025-09-26 14:45:03.023,HH,C,1312468208,JASSM,3,103,76,2,2,1,225,9,2,0,1,26,0,0,0,0,-169796.59814627594,-4772513.661104049,4218286.366667271,-2.51419,-0.702851,0.608032,60.375,-51.0,-55.0,0.0,0.0,0.0,0.0,0.0,0.0,2,0,41.6454900096486,-92.03761108633212,9999.993300938082,139.85527784627578,-0.0021975286721606,0.0040336767451913,,9163.148997757502,11279.40419535643,150,2,2025-09-11,2025-09-26 14:45:03.013,HH,C,2216056702,HAWK11,1,1,73,2,1,1,225,2,1,0,0,12,1,225,2,1,-137717.35778983062,-4793887.001924361,4195978.023893833,2.33251,2.80335,-0.315904,-105.0,43.375,38.875,-0.078125,-6.78125,6.5625,0.0,0.0,0.00195312,4,0,41.37389245666132,-91.64552351315814,11444.722770717672,-64.87865947291279,-0.6829937939746697,-0.7297647460075138,193.241,9163.148997757502,11279.40419535643,150,True,23.970854790907147,False,157.60640672802765,172.7213599003241,False,15.119191927580195,True,False
2,1970-07-23 10:13:39.042109348,2025-09-11,2025-09-26 14:45:04.210,HH,C,1313720908,JASSM,3,103,76,2,2,1,225,9,2,0,1,26,0,0,0,0,-169733.1640642447,-4772567.413057174,4218228.499479771,-2.51419,-0.702851,0.608032,60.375,-51.0,-55.0,0.0,0.0,0.0,0.0,0.0,0.0,2,0,41.64479309727989,-92.03682757816968,10000.004333325154,139.85579849939123,-0.0012873148338812,0.0040319310206953,,9163.148997757502,11279.40419535643,150,2,2025-09-11,2025-09-26 14:45:04.306,HH,C,2217766666,HAWK11,1,1,73,2,1,1,225,2,1,0,0,12,1,225,2,1,-137868.23083670562,-4793824.574189986,4196033.227018833,2.32695,2.80383,-0.314466,-105.75,43.75,38.875,0.0625,-7.17188,6.40625,0.00390625,0.00195312,0.0195312,4,0,41.37461063840169,-91.64734667592955,11421.47418672667,-64.9570355920303,-0.720397722404828,-1.0389889999268225,193.363,9163.148997757502,11279.40419535643,150,True,23.827566401117966,False,157.5281042688193,172.76325155029264,False,15.241051853025501,True,False
2,1970-07-23 10:13:39.051249680,2025-09-11,2025-09-26 14:45:05.124,HH,C,1315033258,JASSM,3,103,76,2,2,1,225,9,2,0,1,26,0,0,0,0,-169666.70947440094,-4772623.719697799,4218167.870573521,-2.51419,-0.702851,0.608032,60.375,-51.0,-55.0,0.0,0.0,0.0,0.0,0.0,0.0,2,0,41.64406298093338,-92.0360067822592,9999.996107980469,139.85634392311562,-0.0003337502508455,0.004030092173802,,9163.148997757502,11279.40419535643,150,2,2025-09-11,2025-09-26 14:45:05.214,HH,C,2218959664,HAWK11,1,1,73,2,1,1,225,2,1,0,0,12,1,225,2,1,-137974.45349295562,-4793780.561494674,4196071.881315708,2.32206,2.8046,-0.311302,-106.125,43.875,38.75,-0.15625,-7.1875,6.35938,-0.00585938,0.0,-0.00585938,4,0,41.37511518917283,-91.64863032676242,11404.507859096317,-65.11674145091042,-0.8161457481799059,-1.303530286607001,193.473,9163.148997757502,11279.40419535643,150,True,23.70815954006989,False,157.4316619537413,172.78745013694189,False,15.362877170082879,True,False
2,1970-07-23 10:13:39.062927835,2025-09-11,2025-09-26 14:45:06.292,HH,C,1316285958,JASSM,3,103,76,2,2,1,225,9,2,0,1,26,0,0,0,0,-169603.27527029935,-4772677.467744674,4218109.999479771,-2.51419,-0.702851,0.608128,60.375,-51.0,-55.0,0.0,0.0,0.0,0.0,0.0,0.0,2,0,41.643366054558165,-92.0352233088736,9999.999853672594,139.86008994655725,-0.0038721886920022,0.0040282516365531,,9163.148997757502,11279.40419535643,150,2,2025-09-11,2025-09-26 14:45:06.214,HH,C,2220152664,HAWK11,1,1,73,2,1,1,225,2,1,0,0,12,1,225,2,1,-138080.84216483062,-4793736.320283736,4196110.640104771,2.31085,2.80901,-0.306892,-106.375,44.0,38.75,-0.171875,-7.35938,6.48438,0.0,0.0,0.00195312,4,0,41.37562176232132,-91.64991606072812,11387.225095190224,-65.46658055672272,-0.8193119162285946,-1.8644360114248573,193.473,9163.148997757502,11279.40419535643,150,True,23.591179197752464,False,157.40587100984405,172.81263356124418,False,15.414573322438978,True,False
2,1970-07-23 10:13:39.074110179,2025-09-11,2025-09-26 14:45:07.411,HH,C,1317598308,JASSM,3,103,76,2,2,1,225,9,2,0,1,26,0,0,0,0,-169536.8205583853,-4772733.772432174,4218049.370573521,-2.51419,-0.702851,0.608128,60.375,-51.0,-55.0,0.0,0.0,0.0,0.0,0.0,0.0,2,0,41.64263593827291,-92.03440254855096,9999.998158042128,139.86063533143627,-0.0029186324078942,0.0040264743046141,,9163.148997757502,11279.40419535643,150,2,2025-09-11,2025-09-26 14:45:07.418,HH,C,2221504728,HAWK11,1,1,73,2,1,1,225,2,1,0,0,12,1,225,2,1,-138202.75622733062,-4793686.179658736,4196154.509245396,2.31967,2.80881,-0.30555,-106.75,43.875,38.625,-0.0625,-7.32812,6.51562,0.00976562,-0.00195312,-0.00976562,4,0,41.37619524768717,-91.65138925840816,11367.616099563076,-65.5153195294158,-0.8792471133058861,-1.3617364366712152,193.779,9163.148997757502,11279.40419535643,150,True,23.462739610632664,False,157.25016485682747,172.84417372205266,False,15.601426437860987,True,False
2,1970-07-23 10:13:39.083168497,2025-09-11,2025-09-26 14:45:08.316,HH,C,1318851008,JASSM,3,103,76,2,2,1,225,9,2,0,1,26,0,0,0,0,-169473.38635428375,-4772787.518525924,4217991.495573521,-2.51419,-0.702755,0.608128,60.375,-51.0,-55.0,0.0,0.0,0.0,0.0,0.0,0.0,2,0,41.6419389861926,-92.03361911056965,9999.99941334461,139.85750715402224,-0.0046540145574874,0.0008875279076118,,9163.148997757502,11279.40419535643,150,2,2025-09-11,2025-09-26 14:45:08.306,HH,C,2222538662,HAWK11,1,1,73,2,1,1,225,2,1,0,0,12,1,225,2,1,-138294.78747733062,-4793648.353486861,4196187.642057896,2.32552,2.81284,-0.30555,-107.0,43.875,38.625,-0.0625,-7.25,6.45312,0.00585938,0.0078125,-0.00976562,4,0,41.37662811972586,-91.65250136568253,11352.915887671876,-65.669553014785,-0.7206592987611865,-0.9551519059183236,193.669,9163.148997757502,11279.40419535643,150,True,23.35447682596061,False,157.19491978082138,172.8647093511293,False,15.677091076700561,True,False
2,1970-07-23 10:13:39.094187620,2025-09-11,2025-09-26 14:45:09.418,HH,C,1320103706,JASSM,3,103,76,2,2,1,225,9,2,0,1,26,0,0,0,0,-169409.95202811187,-4772841.260713424,4217933.620573521,-2.51419,-0.702755,0.608128,60.375,-51.0,-55.0,0.0,0.0,0.0,0.0,0.0,0.0,2,0,41.641242052057954,-92.03283568967068,9999.996366523324,139.8580277129405,-0.0037438052528623,0.0008857783800759,,9163.148997757502,11279.40419535643,150,2,2025-09-11,2025-09-26 14:45:09.510,HH,C,2223850960,HAWK11,1,1,73,2,1,1,225,2,1,0,0,12,1,225,2,1,-138413.77771170562,-4793599.591768111,4196230.438932896,2.33194,2.81006,-0.303441,-107.375,44.125,38.5,0.0,-7.32812,6.53125,0.00390625,-0.00195312,0.0,4,0,41.37718663596047,-91.65393921998064,11334.184362169251,-65.65112163218528,-0.9126371547595808,-0.6352125758307854,194.121,9163.148997757502,11279.40419535643,150,True,23.230392830374388,False,157.12983421929798,172.8965751112853,False,15.776184060508871,True,False
2,1970-07-23 10:13:39.105208457,2025-09-11,2025-09-26 14:45:10.520,HH,C,1321416058,JASSM,3,103,76,2,2,1,225,9,2,0,1,26,0,0,0,0,-169343.4970720572,-4772897.563447799,4217872.987761021,-2.51419,-0.702755,0.608128,60.375,-51.0,-55.0,0.0,0.0,0.0,0.0,0.0,0.0,2,0,41.640511903908006,-92.03201498115544,9999.99820541797,139.85857304065743,-0.0027902366004425,0.0008839320421458,,9163.148997757502,11279.40419535643,150,2,2025-09-11,2025-09-26 14:45:10.510,HH,C,2225123492,HAWK11,1,1,73,2,1,1,225,2,1,0,0,12,1,225,2,1,-138528.53747733062,-4793552.588838424,4196271.936979771,2.41228,2.81236,-0.30392,-107.5,44.125,39.0,-0.34375,-7.65625,6.9375,0.142578,0.0117188,-0.00195312,4,0,41.37772663354039,-91.65532597119048,11316.672677776734,-65.7201085849181,-0.8021581800807724,4.008440236966464,194.622,9163.148997757502,11279.40419535643,150,True,23.10617172843674,False,157.27111403600645,172.92607425306068,False,15.661794578686091,True,False
2,1970-07-23 10:13:39.116248604,2025-09-11,2025-09-26 14:45:11.624,HH,C,1322788062,JASSM,3,103,76,2,2,1,225,9,2,0,1,26,0,0,0,0,-169274.02136404935,-4772956.422822799,4217809.601042271,-2.51419,-0.702755,0.608128,60.375,-51.0,-55.0,0.0,0.0,0.0,0.0,0.0,0.0,2,0,41.639748590572125,-92.03115698774832,10000.004653595632,139.85914313429132,-0.0017933466274534,0.0008820207780143,,9163.148997757502,11279.40419535643,150,2,2025-09-11,2025-09-26 14:45:11.651,HH,C,2226475556,HAWK11,1,1,73,2,1,1,225,2,1,0,0,12,1,225,2,1,-138649.39880545562,-4793502.734346236,4196316.683073521,2.49598,2.81505,-0.320602,-106.875,44.375,40.625,-0.109375,-7.92188,7.09375,0.015625,0.0117188,0.0234375,4,0,41.378304454742526,-91.65678660244768,11299.63107875907,-65.1376522360468,-0.029791932159254,8.846916529731901,195.233,9163.148997757502,11279.40419535643,150,True,22.97541111823971,False,158.01140361273144,172.95660979200477,False,14.947409144577133,True,False
2,1970-07-23 10:13:39.127266863,2025-09-11,2025-09-26 14:45:12.726,HH,C,1324100412,JASSM,3,103,76,2,2,1,225,9,2,0,1,26,0,0,0,0,-169207.5664079947,-4773012.721650924,4217748.964323521,-2.51419,-0.702755,0.608128,60.375,-51.0,-55.0,0.0,0.0,0.0,0.0,0.0,0.0,2,0,41.63901842731886,-92.0303363187914,10000.000258165435,139.85968841967394,-0.0008397762884689,0.000880171533009,,9163.148997757502,11279.40419535643,150,2,2025-09-11,2025-09-26 14:45:12.651,HH,C,2227827622,HAWK11,1,1,73,2,1,1,225,2,1,0,0,12,1,225,2,1,-138770.94372733062,-4793451.651338424,4196363.981901646,2.53567,2.80038,-0.344379,-106.0,45.0,42.625,-0.171875,-8.125,7.20312,0.0195312,0.00976562,0.00585938,4,0,41.37890668324443,-91.65825585079313,11285.161137173192,-63.6087767467783,0.3542692845064674,10.851002131117598,195.612,9163.148997757502,11279.40419535643,150,False,22.84594719015588,False,159.0158280115385,172.9862227866117,False,13.97053097816835,True,False
2,1970-07-23 10:13:39.138252043,2025-09-11,2025-09-26 14:45:13.825,HH,C,1325412764,JASSM,3,103,76,2,2,1,225,9,2,0,1,26,0,0,0,0,-169141.11120779935,-4773069.018525924,4217688.327604771,-2.51419,-0.702755,0.608223,60.375,-51.0,-55.0,0.0,0.0,0.0,0.0,0.0,0.0,2,0,41.63828826983653,-92.0295156662636,9999.996850328303,139.8634573341881,-0.0043319263225496,0.0008782123459151,,9163.148997757502,11279.40419535643,150,2,2025-09-11,2025-09-26 14:45:13.806,HH,C,2229219454,HAWK11,1,1,73,2,1,1,225,2,1,0,0,12,1,225,2,1,-138893.26013358062,-4793398.873018111,4196414.780729771,2.5396,2.79453,-0.360677,-104.75,45.75,44.875,-0.046875,-7.75,6.85938,0.0175781,0.0078125,0.0234375,4,0,41.37954247555573,-91.65973492881218,11274.1752829195,-62.7231312673935,0.7855689120302067,10.969277649485402,196.247,9163.148997757502,11279.40419535643,150,False,22.71479008917157,False,160.2119373555461,173.01316073895723,False,12.802157897098336,True,False
2,1970-07-23 10:13:39.151337582,2025-09-11,2025-09-26 14:45:15.133,HH,C,1326725114,JASSM,3,103,76,2,2,1,225,9,2,0,1,26,0,0,0,0,-169074.65612967435,-4773125.315400924,4217627.690886021,-2.51419,-0.702755,0.608223,60.375,-51.0,-55.0,0.0,0.0,0.0,0.0,0.0,0.0,2,0,41.63755810637674,-92.02869503372472,9999.99924774763,139.86400257981953,-0.0033783642750723,0.0008764245854048,,9163.148997757502,11279.40419535643,150,2,2025-09-11,2025-09-26 14:45:15.011,HH,C,2230571520,HAWK11,1,1,73,2,1,1,225,2,1,0,0,12,1,225,2,1,-139012.16638358062,-4793346.234346236,4196466.792448521,2.58006,2.78331,-0.38292,-103.5,46.625,46.75,-0.25,-7.82812,6.98438,0.0351562,0.00976562,0.0117188,4,0,41.3801861971204,-91.66117326082868,11265.930665228474,-61.39637736837373,1.256325138329193,13.077477677740886,196.968,9163.148997757502,11279.40419535643,150,False,22.584644488396364,False,161.31711433511103,173.0362947658885,False,11.722699157263149,True,False
2,1970-07-23 10:13:39.160144660,2025-09-11,2025-09-26 14:45:16.014,HH,C,1327977814,JASSM,3,103,76,2,2,1,225,9,2,0,1,26,0,0,0,0,-169011.22143729156,-4773179.051729049,4217569.808073521,-2.5141,-0.702755,0.608223,60.375,-51.0,-55.0,0.0,0.0,0.0,0.0,0.0,0.0,2,0,41.63686112070124,-92.02791171703224,9999.997968343205,139.864523024694,-0.0024681399201261,0.0063661880010977,,9163.148997757502,11279.40419535643,150,2,2025-09-11,2025-09-26 14:45:16.010,HH,C,2231764518,HAWK11,1,1,73,2,1,1,225,2,1,0,0,12,1,225,2,1,-139114.26989920562,-4793299.123018111,4196514.173307896,2.60614,2.7742,-0.396342,-102.0,47.875,48.5,-0.390625,-7.79688,6.82812,0.015625,0.00390625,0.0234375,4,0,41.3807686634994,-91.66240902699468,11260.053562009036,-60.51123462938524,1.4573550208817492,14.394312378973051,197.494,9163.148997757502,11279.40419535643,150,False,22.466217111575567,False,162.5391435171216,173.05138884995955,False,10.516963525849606,True,False
