Subject_cm,Timestamp,SampleDate_cm,SampleTime_cm,Configuration_cm,Scenario_cm,DisTime_cm,MarkingTxt_cm,Application_cm,EntId_cm,Site_cm,ExerciseId_cm,ForceId_cm,Category_cm,Country_cm,Domain_cm,Kind_cm,Extra_cm,Specific_cm,Subcategory_cm,AltCategory_cm,AltCountry_cm,AltDomain_cm,AltKind_cm,ECEF_X_cm,ECEF_Y_cm,ECEF_Z_cm,OriPhi_cm,OriPsi_cm,OriTheta_cm,LinVelX_cm,LinVelY_cm,LinVelZ_cm,LinAccX_cm,LinAccY_cm,LinAccZ_cm,AngVelX_cm,AngVelY_cm,AngVelZ_cm,DrAlg_cm,Appearance_cm,Latitude_cm,Longitude_cm,Altitude_cm,Heading_cm,Pitch_cm,Roll_cm,CalibratedAirspeed_cm,CM_Altitude_Lead_cm,CM_Altitude_Wing_cm,CM_Airspeed_cm,Subject_ac,SampleDate_ac,SampleTime_ac,Configuration_ac,Scenario_ac,DisTime_ac,MarkingTxt_ac,Application_ac,EntId_ac,Site_ac,ExerciseId_ac,ForceId_ac,Category_ac,Country_ac,Domain_ac,Kind_ac,Extra_ac,Specific_ac,Subcategory_ac,AltCategory_ac,AltCountry_ac,AltDomain_ac,AltKind_ac,ECEF_X_ac,ECEF_Y_ac,ECEF_Z_ac,OriPhi_ac,OriPsi_ac,OriTheta_ac,LinVelX_ac,LinVelY_ac,LinVelZ_ac,LinAccX_ac,LinAccY_ac,LinAccZ_ac,AngVelX_ac,AngVelY_ac,AngVelZ_ac,DrAlg_ac,Appearance_ac,Latitude_ac,Longitude_ac,Altitude_ac,Heading_ac,Pitch_ac,Roll_ac,CalibratedAirspeed_ac,CM_Altitude_Lead_ac,CM_Altitude_Wing_ac,CM_Airspeed_ac,Bank_Angle_Condition,distance_nm,Distance_Condition,angle_between_vel,angle_between_pos,Cone_Condition,angle_between_pos_nose,Nose_Cone_Condition,Intercept_Criteria
2,1970-07-23 10:13:38.500175986,2025-09-11,2025-09-26 14:44:10.017,HH,C,1249296398,JASSM,3,101,76,2,2,1,225,9,2,0,1,26,0,0,0,0,-155706.98278983062,-4777213.569307174,4213539.237761021,-2.71093,-1.01118,0.751842,37.5,-59.75,-65.875,0.0,0.0,0.0,0.0,0.0,0.0,2,0,41.58834580555372,-91.8668195681658,9999.999969134598,155.93852772064366,-0.0035846034099004,-0.0006576148264018,,9163.148997757502,11279.40419535643,150,2,2025-09-11,2025-09-26 14:44:10.108,HH,C,2153225434,HAWK11,1,1,73,2,1,1,225,2,1,0,0,12,1,225,2,1,-132212.04138358062,-4795696.308564986,4194022.015104771,2.23923,2.9393,-0.210731,-104.125,26.125,22.875,-0.015625,-6.35938,6.5625,-0.0078125,-0.00585938,-0.00195312,4,0,41.3508468338147,-91.57918124919684,11276.083524961943,-74.37440311664508,0.6062560290998,-4.030765062315195,198.056,9163.148997757502,11279.40419535643,150,True,19.22702752642453,False,131.15916466296156,161.67791440277003,False,30.51889545774412,False,False
2,1970-07-23 10:13:38.510216282,2025-09-11,2025-09-26 14:44:11.021,HH,C,1250429792,JASSM,3,101,76,2,2,1,225,9,2,0,1,26,0,0,0,0,-155671.37927420562,-4777270.418916549,4213476.519011021,-2.71093,-1.01118,0.751842,37.5,-59.75,-65.875,0.0,0.0,0.0,0.0,0.0,0.0,2,0,41.58759116128046,-91.86637081404638,9999.997477938296,155.93882558985885,-0.0027586852771935,-0.0006588178555839,,9163.148997757502,11279.40419535643,150,2,2025-09-11,2025-09-26 14:44:10.931,HH,C,2153782166,HAWK11,1,1,73,2,1,1,225,2,1,0,0,12,1,225,2,1,-132260.18982108062,-4795684.133760299,4194032.457487584,2.23472,2.93796,-0.207759,-104.5,26.25,22.5,0.015625,-6.53125,6.5625,-0.00976562,-0.00585938,0.00195312,4,0,41.35098184488714,-91.57976006605668,11272.013096665847,-74.44999649012303,0.4364130965768453,-4.305619248980914,198.056,9163.148997757502,11279.40419535643,150,True,19.156608826297003,False,130.99637525673842,161.67285497718794,False,30.676484445305704,False,False
2,1970-07-23 10:13:38.519254610,2025-09-11,2025-09-26 14:44:11.925,HH,C,1251563186,JASSM,3,101,76,2,2,1,225,9,2,0,1,26,0,0,0,0,-155635.77575858062,-4777327.268525924,4213413.800261021,-2.71093,-1.01118,0.751842,37.5,-59.75,-65.875,0.0,0.0,0.0,0.0,0.0,0.0,2,0,41.58683651515637,-91.8659220703781,9999.999329785296,155.93912344769888,-0.0019327670357442,-0.0006600209010426,,9163.148997757502,11279.40419535643,150,2,2025-09-11,2025-09-26 14:44:11.809,HH,C,2155253532,HAWK11,1,1,73,2,1,1,225,2,1,0,0,12,1,225,2,1,-132390.78747733062,-4795651.366182174,4194059.784636021,2.2353,2.93805,-0.198267,-105.5,26.25,21.75,-0.125,-6.6875,6.75,-0.00195312,0.0,-0.0175781,4,0,41.35133978318753,-91.58132997594151,11259.447218249168,-74.85659388547934,0.0752945534739016,-4.273393859326653,198.203,9163.148997757502,11279.40419535643,150,True,19.046427388930166,False,130.55393536371983,161.74033967815683,False,31.186864854469142,False,False
2,1970-07-23 10:13:38.528154714,2025-09-11,2025-09-26 14:44:12.815,HH,C,1252636930,JASSM,3,101,76,2,2,1,225,9,2,0,1,26,0,0,0,0,-155602.04528983062,-4777381.125947799,4213354.382292271,-2.71083,-1.01118,0.751842,37.5,-59.75,-65.875,0.0,0.0,0.0,0.0,0.0,0.0,2,0,41.586121584932165,-91.86549694462572,10000.004324824697,155.9394056248306,-0.0011503145259937,0.0048439782803393,,9163.148997757502,11279.40419535643,150,2,2025-09-11,2025-09-26 14:44:13.011,HH,C,2156645364,HAWK11,1,1,73,2,1,1,225,2,1,0,0,12,1,225,2,1,-132513.99450858062,-4795620.764619674,4194084.499479771,2.23645,2.94198,-0.19146,-106.5,26.125,21.125,-0.25,-6.78125,6.85938,-0.00195312,0.0,0.0,4,0,41.35166839362405,-91.58281095805384,11246.058338477143,-75.29470271265541,-0.0227946700921509,-4.164090365003641,198.386,9163.148997757502,11279.40419535643,150,True,18.94272443672618,False,130.1249121962395,161.80564832951617,False,31.681806718177082,False,False
2,1970-07-23 10:13:38.537194086,2025-09-11,2025-09-26 14:44:13.719,HH,C,1253710672,JASSM,3,101,76,2,2,1,225,9,2,0,1,26,0,0,0,0,-155568.31482108062,-4777434.981416549,4213294.960417271,-2.71083,-1.01118,0.751842,37.5,-59.75,-65.875,0.0,0.0,0.0,0.0,0.0,0.0,2,0,41.5854066384137,-91.86507182901494,9999.99992116904,155.93968779124785,-0.0003678487892432,0.0048428384895587,,9163.148997757502,11279.40419535643,150,2,2025-09-11,2025-09-26 14:44:13.809,HH,C,2157599762,HAWK11,1,1,73,2,1,1,225,2,1,0,0,12,1,225,2,1,-132599.42810233062,-4795599.605439986,4194101.388151646,2.2445,2.94361,-0.188871,-107.0,26.125,20.875,-0.125,-6.82812,6.875,0.00390625,-0.00390625,-0.0117188,4,0,41.35189420517504,-91.583837883064,11236.38836144749,-75.466797941078,-0.0539696244421355,-3.6849279107873234,198.508,9163.148997757502,11279.40419535643,150,True,18.85726217702748,False,129.95564378995323,161.83797288206262,False,31.8838169949224,False,False
2,1970-07-23 10:13:38.546255630,2025-09-11,2025-09-26 14:44:14.625,HH,C,1254784416,JASSM,3,101,76,2,2,1,225,9,2,0,1,26,0,0,0,0,-155534.58435233062,-4777488.836885299,4213235.538542271,-2.71083,-1.01118,0.751842,37.5,-59.75,-65.875,0.0,0.0,0.0,0.0,0.0,0.0,2,0,41.58469169023411,-91.8646467227832,9999.999415593476,155.93996994745658,0.0004146170452787,0.0048416986841475,,9163.148997757502,11279.40419535643,150,2,2025-09-11,2025-09-26 14:44:14.605,HH,C,2158554162,HAWK11,1,1,73,2,1,1,225,2,1,0,0,12,1,225,2,1,-132685.41247733062,-4795578.622041549,4194117.987761021,2.25255,2.94822,-0.184461,-107.625,26.0,20.625,0.015625,-6.90625,7.01562,0.015625,0.00195312,0.0,4,0,41.35211691972065,-91.5848713335496,11226.566198576864,-75.82873204426049,-0.0313429967711763,-3.174328507013289,198.801,9163.148997757502,11279.40419535643,150,True,18.771747291699768,False,129.73021051760244,161.87163756414768,False,32.14303536414698,False,False
2,1970-07-23 10:13:38.556296535,2025-09-11,2025-09-26 14:44:15.629,HH,C,1255977458,JASSM,3,101,76,2,2,1,225,9,2,0,1,26,0,0,0,0,-155497.10681326812,-4777548.674775924,4213169.515104771,-2.71083,-1.01118,0.751842,37.5,-59.75,-65.875,0.0,0.0,0.0,0.0,0.0,0.0,2,0,41.5838973161846,-91.86417440321722,10000.001650596616,155.94028343595014,0.0012840072051618,0.0048404316164143,,9163.148997757502,11279.40419535643,150,2,2025-09-11,2025-09-26 14:44:15.809,HH,C,2160025526,HAWK11,1,1,73,2,1,1,225,2,1,0,0,12,1,225,2,1,-132819.77966483062,-4795546.293916549,4194143.302214146,2.25984,2.95052,-0.181681,-108.625,25.75,20.25,-0.09375,-6.84375,6.89062,0.015625,0.0,-0.00390625,4,0,41.35245796082226,-91.5864861625879,11211.007923203684,-76.03488277066496,-0.0411438201021304,-2.732745600789423,198.948,9163.148997757502,11279.40419535643,150,True,18.65857065696887,False,129.3676169865815,161.94592600198936,False,32.57993112854134,False,False
2,1970-07-23 10:13:38.565320342,2025-09-11,2025-09-26 14:44:16.532,HH,C,1257051200,JASSM,3,101,76,2,2,1,225,9,2,0,1,26,0,0,0,0,-155463.37634451812,-4777602.526338424,4213110.093229771,-2.71083,-1.01118,0.751938,37.5,-59.75,-65.875,0.0,0.0,0.0,0.0,0.0,0.0,2,0,41.58318238781886,-91.86374931830731,9999.99979316718,155.94285818049084,-0.0029235586375435,0.0048392830991287,,9163.148997757502,11279.40419535643,150,2,2025-09-11,2025-09-26 14:44:16.809,HH,C,2161258292,HAWK11,1,1,73,2,1,1,225,2,1,0,0,12,1,225,2,1,-132932.70544608062,-4795520.028291549,4194164.577604771,2.27681,2.95186,-0.178134,-109.25,23.25,22.625,-0.25,-7.07812,7.10938,0.015625,0.0,0.0,4,0,41.35273919508392,-91.58784302392472,11200.166131124828,-76.23716584394585,-0.1205769920721918,-1.746437485319713,198.838,9163.148997757502,11279.40419535643,150,True,18.560774921327525,False,129.36373280633097,162.0067035585123,False,32.6529985463465,False,False
2,1970-07-23 10:13:38.575195096,2025-09-11,2025-09-26 14:44:17.519,HH,C,1258184594,JASSM,3,101,76,2,2,1,225,9,2,0,1,26,0,0,0,0,-155427.77282889312,-4777659.370088424,4213047.366667271,-2.71083,-1.01109,0.751938,37.5,-59.75,-65.875,0.0,0.0,0.0,0.0,0.0,0.0,2,0,41.582427713275806,-91.86330063797244,9999.995634377869,155.93951148994665,-0.0037721894958038,0.0010873098797148,,9163.148997757502,11279.40419535643,150,2,2025-09-11,2025-09-26 14:44:17.419,HH,C,2161815024,HAWK11,1,1,73,2,1,1,225,2,1,0,0,12,1,225,2,1,-132983.93200858062,-4795507.653291549,4194173.5766282086,2.28141,2.95636,-0.176983,-109.75,25.5,20.25,-0.15625,-7.04688,7.07812,0.00585938,0.0078125,-0.00585938,4,0,41.35286509556087,-91.588458694061,11192.703990036827,-76.4570410711351,0.0239737549770743,-1.4369913159183594,198.801,9163.148997757502,11279.40419535643,150,True,18.48964529383882,False,129.13128759352117,162.00770174933368,False,32.87734111620632,False,False
2,1970-07-23 10:13:38.584256172,2025-09-11,2025-09-26 14:44:18.425,HH,C,1259258336,JASSM,3,101,76,2,2,1,225,9,2,0,1,26,0,0,0,0,-155394.04236014312,-4777713.221650924,4212987.944792271,-2.71083,-1.01109,0.751938,37.5,-59.75,-65.875,0.0,0.0,0.0,0.0,0.0,0.0,2,0,41.58171278149659,-91.86287557233813,10000.001789326408,155.9397936027474,-0.0029897450401869,0.001086160018922,,9163.148997757502,11279.40419535643,150,2,2025-09-11,2025-09-26 14:44:18.605,HH,C,2163326156,HAWK11,1,1,73,2,1,1,225,2,1,0,0,12,1,225,2,1,-133123.06482108062,-4795475.530244674,4194198.958464146,2.32063,2.9578,-0.176408,-110.5,25.375,20.5,-0.09375,-7.10938,7.03125,0.0703125,0.00585938,-0.0078125,4,0,41.35320453741898,-91.5901303928979,11178.144793386122,-76.53701304543821,0.0633008754656944,0.8240906259308217,198.838,9163.148997757502,11279.40419535643,150,True,18.379851128215886,False,129.08018414914736,162.09511025440116,False,33.01528028874383,False,False
2,1970-07-23 10:13:38.593715872,2025-09-11,2025-09-26 14:44:19.371,HH,C,1260391730,JASSM,3,101,76,2,2,1,225,9,2,0,1,26,0,0,0,0,-155358.43884451812,-4777770.063447799,4212925.218229771,-2.71083,-1.01109,0.751938,37.5,-59.75,-65.875,0.0,0.0,0.0,0.0,0.0,0.0,2,0,41.58095811501008,-91.86242691310976,10000.001297561794,155.94009137011517,-0.0021638214779337,0.00108493285316,,9163.148997757502,11279.40419535643,150,2,2025-09-11,2025-09-26 14:44:19.419,HH,C,2164280556,HAWK11,1,1,73,2,1,1,225,2,1,0,0,12,1,225,2,1,-133211.72497733062,-4795455.056611861,4194215.3988938336,2.37882,2.96212,-0.177367,-110.875,25.625,21.0,-0.34375,-7.14062,7.0625,0.0625,0.00585938,0.0,4,0,41.35342264975008,-91.59119566771528,11169.44077406633,-76.66015488309289,0.2814651921055666,4.201539692729819,198.765,9163.148997757502,11279.40419535643,150,True,18.29115865638146,False,129.2869221827419,162.13224860633918,False,32.8454879864022,False,False
2,1970-07-23 10:13:38.603272524,2025-09-11,2025-09-26 14:44:20.327,HH,C,1261525124,JASSM,3,101,76,2,2,1,225,9,2,0,1,26,0,0,0,0,-155322.83337576812,-4777826.905244674,4212862.491667271,-2.71083,-1.01109,0.751938,37.5,-59.75,-65.875,0.0,0.0,0.0,0.0,0.0,0.0,2,0,41.5802034470527,-91.86197824093117,10000.004993158664,155.94038914163906,-0.0013378910179586,0.0010837218068667,,9163.148997757502,11279.40419535643,150,2,2025-09-11,2025-09-26 14:44:20.215,HH,C,2165234954,HAWK11,1,1,73,2,1,1,225,2,1,0,0,12,1,225,2,1,-133300.61560233062,-4795434.298799361,4194232.3754563336,2.4211,2.95704,-0.187337,-111.125,26.0,21.75,-0.28125,-7.20312,7.1875,0.0390625,0.00195312,0.0214844,4,0,41.35364602507682,-91.5922637963492,11161.219477069148,-76.04507815076376,0.4530816443802998,6.575154411507572,198.545,9163.148997757502,11279.40419535643,150,True,18.202151232332188,False,129.6377442535238,162.16938589567073,False,32.53165809110325,False,False
2,1970-07-23 10:13:38.612160183,2025-09-11,2025-09-26 14:44:21.216,HH,C,1262658518,JASSM,3,101,76,2,2,1,225,9,2,0,1,26,0,0,0,0,-155287.22888358062,-4777883.745088424,4212799.761198521,-2.71083,-1.01109,0.751938,37.5,-59.625,-65.875,0.0,0.0,0.0,0.0,0.0,0.0,2,0,41.57944876241868,-91.86152959165857,9999.999813666664,155.9406868935232,-0.0005119507103514,0.0010824961895494,,9163.148997757502,11279.40419535643,150,2,2025-09-11,2025-09-26 14:44:21.013,HH,C,2166229120,HAWK11,1,1,73,2,1,1,225,2,1,0,0,12,1,225,2,1,-133393.28747733062,-4795412.375947799,4194250.708464146,2.45111,2.95215,-0.198746,-111.125,26.625,22.75,-0.125,-7.21875,7.1875,0.0234375,0.00390625,0.0136719,4,0,41.35388485313806,-91.59337746361824,11153.333792509293,-75.37669886631717,0.6889748058848264,8.247412960625748,198.276,9163.148997757502,11279.40419535643,150,True,18.11109915316483,False,130.20394316947426,162.22626044098627,False,32.02244198683941,False,False
2,1970-07-23 10:13:38.622195184,2025-09-11,2025-09-26 14:44:22.219,HH,C,1263791914,JASSM,3,101,76,2,2,1,225,9,2,0,1,26,0,0,0,0,-155251.62439139312,-4777940.582979049,4212737.034636021,-2.71083,-1.01109,0.751938,37.5,-59.625,-65.875,0.0,0.0,0.0,0.0,0.0,0.0,2,0,41.57869411389003,-91.86108095359242,10000.002691752956,155.9409846335321,0.0003139548162127,0.0010812855102663,,9163.148997757502,11279.40419535643,150,2,2025-09-11,2025-09-26 14:44:22.105,HH,C,2167581186,HAWK11,1,1,73,2,1,1,225,2,1,0,0,12,1,225,2,1,-133520.17028983062,-4795381.492158736,4194277.216276646,2.435,2.94544,-0.211402,-111.125,27.5,24.125,-0.15625,-7.29688,7.15625,-0.0527344,0.00585938,0.0136719,4,0,41.35422649271866,-91.59490255761004,11143.458225761104,-74.58769311441893,0.8986896719746811,7.257167103409527,197.567,9163.148997757502,11279.40419535643,150,True,18.003185549902394,False,130.95910410433186,162.29814902187627,False,31.339487139853222,False,False
2,1970-07-23 10:13:38.631233891,2025-09-11,2025-09-26 14:44:23.123,HH,C,1264925308,JASSM,3,101,76,2,2,1,225,9,2,0,1,26,0,0,0,0,-155216.02087576812,-4777997.420869674,4212674.304167271,-2.71083,-1.01109,0.752034,37.5,-59.625,-65.875,0.0,0.0,0.0,0.0,0.0,0.0,2,0,41.57793943702551,-91.86063233766995,10000.001485516015,155.94357671865413,-0.0038530817698315,0.0010800017022601,,9163.148997757502,11279.40419535643,150,2,2025-09-11,2025-09-26 14:44:23.309,HH,C,2168973018,HAWK11,1,1,73,2,1,1,225,2,1,0,0,12,1,225,2,1,-133649.09997733062,-4795349.096650924,4194306.203581333,2.48639,2.93508,-0.23096,-111.125,28.25,25.875,-0.203125,-7.4375,7.29688,0.109375,0.0117188,0.00976562,4,0,41.35459350788346,-91.59645260947924,11135.385535576126,-73.37019387248588,1.226233360862675,10.093901312505515,196.968,9163.148997757502,11279.40419535643,150,False,17.893415560292993,False,131.8020910333967,162.37033963413722,False,30.570288561288063,False,False
2,1970-07-23 10:13:38.641274951,2025-09-11,2025-09-26 14:44:24.127,HH,C,1266118354,JASSM,3,101,76,2,2,1,225,9,2,0,1,26,0,0,0,0,-155178.54236014312,-4778057.248994674,4212608.272917271,-2.71083,-1.01109,0.752034,37.5,-59.625,-65.875,0.0,0.0,0.0,0.0,0.0,0.0,2,0,41.57714505144655,-91.8601601086019,10000.003582339365,155.94389010554673,-0.0029836935409444,0.001078756577562,,9163.148997757502,11279.40419535643,150,2,2025-09-11,2025-09-26 14:44:24.105,HH,C,2169887650,HAWK11,1,1,73,2,1,1,225,2,1,0,0,12,1,225,2,1,-133734.20544608062,-4795327.128877486,4194326.537565708,2.54938,2.93307,-0.241218,-110.75,29.0,27.375,-0.203125,-7.46875,7.35938,0.0527344,0.015625,0.00976562,4,0,41.3548473341684,-91.59747599104034,11131.225565201006,-72.86091211236558,1.5403225619116023,13.688229020171567,196.663,9163.148997757502,11279.40419535643,150,False,17.801929135489807,False,132.61050888886368,162.39806145942464,False,29.791478624727315,True,False
2,1970-07-23 10:13:38.650174076,2025-09-11,2025-09-26 14:44:25.017,HH,C,1267192096,JASSM,3,101,76,2,2,1,225,9,2,0,1,26,0,0,0,0,-155144.81189139312,-4778111.094697799,4212548.839323521,-2.71083,-1.01109,0.752034,37.5,-59.625,-65.875,0.0,0.0,0.0,0.0,0.0,0.0,2,0,41.57643006348719,-91.85973511452325,9999.99865100756,155.94417214152872,-0.0022012089164596,0.0010776184821646,,9163.148997757502,11279.40419535643,150,2,2025-09-11,2025-09-26 14:44:25.215,HH,C,2171239714,HAWK11,1,1,73,2,1,1,225,2,1,0,0,12,1,225,2,1,-133860.15857108062,-4795292.788057174,4194358.994596958,2.58322,2.91399,-0.26883,-110.125,30.625,29.875,-0.34375,-7.625,7.375,0.0078125,0.015625,0.0234375,4,0,41.355249809779885,-91.59899118504522,11125.69674506904,-70.98004205396386,1.8301144849393531,15.406837491496946,195.844,9163.148997757502,11279.40419535643,150,False,17.694117178373826,False,134.06182647284635,162.465834527384,False,28.410595073189803,True,False
2,1970-07-23 10:13:38.661360359,2025-09-11,2025-09-26 14:44:26.136,HH,C,1268325490,JASSM,3,101,76,2,2,1,225,9,2,0,1,26,0,0,0,0,-155109.20739920562,-4778167.928682174,4212486.108854771,-2.71083,-1.01109,0.752034,37.5,-59.625,-65.875,0.0,0.0,0.0,0.0,0.0,0.0,2,0,41.57567540457994,-91.8592865197558,10000.000814291529,155.9444698351568,-0.0013753006496501,0.0010764385574632,,9163.148997757502,11279.40419535643,150,2,2025-09-11,2025-09-26 14:44:26.215,HH,C,2172432714,HAWK11,1,1,73,2,1,1,225,2,1,0,0,12,1,225,2,1,-133969.13513358062,-4795261.182588424,4194389.881315708,2.59147,2.90344,-0.286663,-109.25,32.375,32.25,-0.03125,-7.46875,7.45312,-0.00390625,0.00976562,0.0175781,4,0,41.35562821896232,-91.60030280119048,11122.339183540931,-69.83511592037489,2.09628952291143,15.752780256355654,195.575,9163.148997757502,11279.40419535643,150,False,17.590967536656997,False,135.5418290211373,162.51254692608796,False,26.97935418168272,True,False
2,1970-07-23 10:13:38.669235220,2025-09-11,2025-09-26 14:44:26.923,HH,C,1269458884,JASSM,3,101,76,2,2,1,225,9,2,0,1,26,0,0,0,0,-155073.60290701812,-4778224.762666549,4212423.374479771,-2.71083,-1.01109,0.752034,37.5,-59.625,-65.875,0.0,0.0,0.0,0.0,0.0,0.0,2,0,41.57492071752522,-91.85883793543186,9999.998815959829,155.94476751741755,-0.0005493682601044,0.0010752478968426,,9163.148997757502,11279.40419535643,150,2,2025-09-11,2025-09-26 14:44:26.809,HH,C,2173148512,HAWK11,1,1,73,2,1,1,225,2,1,0,0,12,1,225,2,1,-134034.49841483062,-4795241.474580611,4194409.521940708,2.58265,2.89558,-0.299797,-108.625,33.25,33.625,-0.328125,-7.65625,7.40625,-0.0195312,0.00390625,0.015625,4,0,41.355867176221054,-91.60108975640374,11120.896367901458,-68.98977661260831,2.291507422999489,15.14957942337616,195.16,9163.148997757502,11279.40419535643,150,False,17.50966349311896,False,136.3777271623674,162.51978227696932,False,26.15303126314716,True,False
2,1970-07-23 10:13:38.678273821,2025-09-11,2025-09-26 14:44:27.827,HH,C,1270532626,JASSM,3,101,76,2,2,1,225,9,2,0,1,26,0,0,0,0,-155039.87146170562,-4778278.604463424,4212363.942839146,-2.71083,-1.01099,0.752034,37.5,-59.625,-65.875,0.0,0.0,0.0,0.0,0.0,0.0,2,0,41.5742057610558,-91.85841296033573,10000.000604258114,155.94140095247744,-0.0014436511242387,-0.0026818613877781,,9163.148997757502,11279.40419535643,150,2,2025-09-11,2025-09-26 14:44:27.715,HH,C,2174222212,HAWK11,1,1,73,2,1,1,225,2,1,0,0,12,1,225,2,1,-134131.86560233062,-4795211.040010299,4194440.666471958,2.56252,2.8813,-0.322903,-107.75,34.25,35.75,0.0,-7.73438,7.57812,-0.0175781,0.0117188,0.0175781,4,0,41.35624227378844,-91.60226240001744,11120.192026780804,-67.48914140406224,2.623371345361362,13.80961765305658,194.549,9163.148997757502,11279.40419535643,150,False,17.413276877619534,False,137.5468810627295,162.55480813982044,False,25.026479036748068,True,False
2,1970-07-23 10:13:38.689152485,2025-09-11,2025-09-26 14:44:28.915,HH,C,1271785324,JASSM,3,101,76,2,2,1,225,9,2,0,1,26,0,0,0,0,-155000.51989920562,-4778341.418916549,4212294.602995396,-2.71074,-1.01099,0.752034,37.5,-59.625,-65.875,0.0,0.0,0.0,0.0,0.0,0.0,2,0,41.57337162883526,-91.85791718972746,9999.998985819258,155.94172993796704,-0.0005307810825119,0.0028082295532382,,9163.148997757502,11279.40419535643,150,2,2025-09-11,2025-09-26 14:44:28.917,HH,C,2175653810,HAWK11,1,1,73,2,1,1,225,2,1,0,0,12,1,225,2,1,-134260.41247733062,-4795168.916963424,4194485.289518833,2.52867,2.87152,-0.342269,-106.5,35.5,38.5,0.0,-7.73438,7.5625,-0.0507812,0.0078125,0.0136719,4,0,41.35677269290844,-91.60381122689468,11122.087856789294,-66.31652709262706,2.995602897850846,11.745079506164997,194.133,9163.148997757502,11279.40419535643,150,False,17.291296114097634,False,139.06526721586246,162.60421633718767,False,23.571955720500682,True,False
2,1970-07-23 10:13:38.700912545,2025-09-11,2025-09-26 14:44:30.091,HH,C,1273038024,JASSM,3,101,76,2,2,1,225,9,2,0,1,26,0,0,0,0,-154961.16736014312,-4778404.231416549,4212225.263151646,-2.71074,-1.01099,0.75213,37.5,-59.625,-65.875,0.0,0.0,0.0,0.0,0.0,0.0,2,0,41.5725375062023,-91.85742142093662,9999.997803989818,155.94435218297932,-0.004607627410929,0.0028067761196176,,9163.148997757502,11279.40419535643,150,2,2025-09-11,2025-09-26 14:44:30.105,HH,C,2176807042,HAWK11,1,1,73,2,1,1,225,2,1,0,0,12,1,225,2,1,-134364.08435233062,-4795133.951143111,4194524.042448521,2.49905,2.87065,-0.366526,-105.625,35.625,41.0,-0.140625,-8.42188,8.23438,-0.0234375,0.0214844,0.0,4,0,41.35722504018416,-91.6050606922064,11127.171317040178,-65.26924985534234,3.912665957191828,10.093661894290838,193.596,9163.148997757502,11279.40419535643,150,False,17.181706845741267,False,140.08791874093865,162.63075565815197,False,22.612033529275728,True,False
2,1970-07-23 10:13:38.710215092,2025-09-11,2025-09-26 14:44:31.021,HH,C,1274290724,JASSM,3,101,76,2,2,1,225,9,2,0,1,26,0,0,0,0,-154921.81384451812,-4778467.043916549,4212155.923307896,-2.71074,-1.01099,0.75213,37.5,-59.625,-65.875,0.0,0.0,0.0,0.0,0.0,0.0,2,0,41.571703381499525,-91.85692565320412,10000.001850030429,155.94468115583376,-0.0036947611366052,0.0028054518352374,,9163.148997757502,11279.40419535643,150,2,2025-09-11,2025-09-26 14:44:31.011,HH,C,2178159108,HAWK11,1,1,73,2,1,1,225,2,1,0,0,12,1,225,2,1,-134481.98669608062,-4795093.693330611,4194571.309050083,2.48764,2.86375,-0.38014,-104.375,36.0,43.125,-0.265625,-7.54688,7.29688,-0.0117188,0.0175781,0.0117188,4,0,41.35776396566388,-91.60648184993642,11138.67347362019,-64.44712558752917,4.178432633803693,9.353751046628156,193.131,9163.148997757502,11279.40419535643,150,True,17.06313419982186,False,141.1400424621634,162.66556871084677,False,21.633351235131197,True,False
2,1970-07-23 10:13:38.721230386,2025-09-11,2025-09-26 14:44:32.123,HH,C,1275603060,JASSM,3,101,76,2,2,1,225,9,2,0,1,26,0,0,0,0,-154880.58825858062,-4778532.844697799,4212083.278776646,-2.71074,-1.01099,0.75213,37.5,-59.625,-65.875,0.0,0.0,0.0,0.0,0.0,0.0,2,0,41.57082953164895,-91.85640631508532,9999.999011794238,155.945025763299,-0.0027384299079036,0.0028040471073314,,9163.148997757502,11279.40419535643,150,2,2025-09-11,2025-09-26 14:44:32.215,HH,C,2179630472,HAWK11,1,1,73,2,1,1,225,2,1,0,0,12,1,225,2,1,-134610.25622733062,-4795048.526338424,4194625.835417271,2.45581,2.8556,-0.400273,-103.125,36.375,45.125,-0.34375,-7.70312,7.42188,-0.0449219,0.0078125,0.015625,4,0,41.358379361671794,-91.6080284542932,11154.554904486702,-63.30843641949061,4.65507541320583,7.44013579425112,192.716,9163.148997757502,11279.40419535643,150,True,16.934919386175885,False,142.1509716963814,162.7023226169055,False,20.706654325956855,True,False
2,1970-07-23 10:13:38.731255180,2025-09-11,2025-09-26 14:44:33.125,HH,C,1276796120,JASSM,3,101,76,2,2,1,225,9,2,0,1,26,0,0,0,0,-154843.10876639312,-4778592.663057174,4212017.237761021,-2.71074,-1.01099,0.75213,37.5,-59.625,-65.875,0.0,0.0,0.0,0.0,0.0,0.0,2,0,41.5700351204618,-91.8559341816724,9999.998883987932,155.94533904285873,-0.0018690315832633,0.0028027836912854,,9163.148997757502,11279.40419535643,150,2,2025-09-11,2025-09-26 14:44:32.931,HH,C,2179948606,HAWK11,1,1,73,2,1,1,225,2,1,0,0,12,1,225,2,1,-134638.54919608062,-4795038.406221236,4194638.283659458,2.44478,2.85378,-0.402286,-102.875,36.625,45.5,-0.109375,-7.64062,7.42188,-0.0546875,0.0078125,0.00390625,4,0,41.35851887972471,-91.60836965193428,11158.58482223865,-63.15831943467109,4.664511852138061,6.779864972609152,192.398,9163.148997757502,11279.40419535643,150,True,16.868797687880058,False,142.39717727294195,162.6700329071879,False,20.433833995803123,True,False
2,1970-07-23 10:13:38.741132457,2025-09-11,2025-09-26 14:44:34.113,HH,C,1278048818,JASSM,3,101,76,2,2,1,225,9,2,0,1,26,0,0,0,0,-154803.75622733062,-4778655.471650924,4211947.894011021,-2.71074,-1.01099,0.75213,37.5,-59.625,-65.875,0.0,0.0,0.0,0.0,0.0,0.0,2,0,41.56920098580848,-91.855438465416,10000.000837629592,155.94566796529512,-0.0009561660411924,0.0028014490261895,,9163.148997757502,11279.40419535643,150,2,2025-09-11,2025-09-26 14:44:34.105,HH,C,2181857404,HAWK11,1,1,73,2,1,1,225,2,1,0,0,12,1,225,2,1,-134802.28357108062,-4794979.717744674,4194712.506315708,2.36962,2.85714,-0.414367,-101.625,36.375,47.25,-0.1875,-7.59375,7.375,-0.0625,0.00585938,0.00195312,4,0,41.35934173923772,-91.61034426553148,11186.349355463311,-62.77485997461482,5.268911570587662,2.58282037108496,191.934,9163.148997757502,11279.40419535643,150,True,16.721051721416664,False,143.1439014192235,162.7313225420088,False,19.824981122659494,True,False
2,1970-07-23 10:13:38.752171841,2025-09-11,2025-09-26 14:44:35.217,HH,C,1279301516,JASSM,3,101,76,2,2,1,225,9,2,0,1,26,0,0,0,0,-154764.40368826812,-4778718.278291549,4211878.548307896,-2.71074,-1.01099,0.75213,37.5,-59.625,-65.875,0.0,0.0,0.0,0.0,0.0,0.0,2,0,41.56836684740309,-91.85494276267012,9999.99905347459,155.94599687334642,-4.3299233459067616e-05,0.0028001132146622,,9163.148997757502,11279.40419535643,150,2,2025-09-11,2025-09-26 14:44:35.417,HH,C,2183368536,HAWK11,1,1,73,2,1,1,225,2,1,0,0,12,1,225,2,1,-134930.41638358062,-4794933.800752486,4194772.781706333,2.33232,2.85531,-0.419256,-101.125,35.875,48.0,-0.078125,-7.39062,7.28125,-0.0136719,0.00585938,0.00195312,4,0,41.36000039387604,-91.61188955677532,11212.866369815889,-62.50515679724643,5.392430773080809,0.4288158896211687,191.469,9163.148997757502,11279.40419535643,150,True,16.593416523289342,False,143.33393212267026,162.76573296585465,False,19.726107833180357,True,False
2,1970-07-23 10:13:38.762214904,2025-09-11,2025-09-26 14:44:36.221,HH,C,1280494564,JASSM,3,101,76,2,2,1,225,9,2,0,1,26,0,0,0,0,-154726.92517264312,-4778778.094697799,4211812.503386021,-2.71074,-1.01099,0.75213,37.5,-59.625,-65.875,0.0,0.0,0.0,0.0,0.0,0.0,2,0,41.56757241503296,-91.85447067757016,10000.00062646258,155.94631010560815,0.000826109211259,0.0027988351880951,,9163.148997757502,11279.40419535643,150,2,2025-09-11,2025-09-26 14:44:36.215,HH,C,2184322934,HAWK11,1,1,73,2,1,1,225,2,1,0,0,12,1,225,2,1,-135011.28357108062,-4794905.140596236,4194811.190886021,2.32456,2.85215,-0.416859,-100.875,35.75,48.0,-0.15625,-6.59375,6.48438,-0.00976562,-0.0117188,-0.00390625,4,0,41.36041666318054,-91.61286472785616,11231.190984538103,-62.49230254130912,5.1785119060757205,-0.0885121271017235,191.127,9163.148997757502,11279.40419535643,150,True,16.496055788021124,False,143.35731671712992,162.76946262116488,False,19.716657498651465,True,False
2,1970-07-23 10:13:38.772295685,2025-09-11,2025-09-26 14:44:37.229,HH,C,1281747262,JASSM,3,101,76,2,2,1,225,9,2,0,1,26,0,0,0,0,-154687.57263358062,-4778840.899385299,4211743.155729771,-2.71074,-1.01099,0.752226,37.5,-59.625,-65.875,0.0,0.0,0.0,0.0,0.0,0.0,2,0,41.56673827072434,-91.85397500047806,10000.000157547149,155.94893367917794,-0.0032538342886839,0.002797467876188,,9163.148997757502,11279.40419535643,150,2,2025-09-11,2025-09-26 14:44:37.107,HH,C,2185317100,HAWK11,1,1,73,2,1,1,225,2,1,0,0,12,1,225,2,1,-135096.43591483062,-4794874.737275924,4194851.319792271,2.31765,2.84573,-0.415996,-100.75,36.0,47.625,-0.390625,-6.9375,6.73438,-0.00585938,0.0136719,-0.00195312,4,0,41.36085418356641,-91.6138916604016,11249.254836047388,-62.297168184630415,4.900675694374305,-0.6157207808391991,190.809,9163.148997757502,11279.40419535643,150,True,16.393718351788173,False,143.35521000357014,162.7737305026361,False,19.700897115603638,True,False
2,1970-07-23 10:13:38.785353030,2025-09-11,2025-09-26 14:44:38.535,HH,C,1283059614,JASSM,3,101,76,2,2,1,225,9,2,0,1,26,0,0,0,0,-154646.34509451812,-4778906.692354049,4211670.505339146,-2.71074,-1.01099,0.752226,37.5,-59.625,-65.875,0.0,0.0,0.0,0.0,0.0,0.0,2,0,41.56586441434297,-91.85345572151824,9999.998326954348,155.94927821370788,-0.0022975028634877,0.0027961183150158,,9163.148997757502,11279.40419535643,150,2,2025-09-11,2025-09-26 14:44:38.513,HH,C,2186867998,HAWK11,1,1,73,2,1,1,225,2,1,0,0,12,1,225,2,1,-135227.80114920562,-4794827.405244674,4194913.601042271,2.30864,2.83576,-0.413887,-100.625,36.125,47.5,-0.203125,-6.90625,6.78125,-0.00585938,0.0,0.0,4,0,41.36153420450321,-91.6154760856736,11276.88794170444,-62.02500120177097,4.439678437788738,-1.3401799690463052,190.308,9163.148997757502,11279.40419535643,150,True,16.261478157229714,False,143.3875701937805,162.80805918449136,False,19.697877324500592,True,False
2,1970-07-23 10:13:38.794270927,2025-09-11,2025-09-26 14:44:39.427,HH,C,1284371964,JASSM,3,101,76,2,2,1,225,9,2,0,1,26,0,0,0,0,-154605.11853201812,-4778972.485322799,4211597.852995396,-2.71074,-1.01089,0.752226,37.5,-59.625,-65.875,0.0,0.0,0.0,0.0,0.0,0.0,2,0,41.564990542143725,-91.85293646824776,9999.99814528533,155.94597944551563,-0.0030157564534342,-0.00095724080098,,9163.148997757502,11279.40419535643,150,2,2025-09-11,2025-09-26 14:44:39.511,HH,C,2188339364,HAWK11,1,1,73,2,1,1,225,2,1,0,0,12,1,225,2,1,-135351.49255545562,-4794782.994111861,4194971.747526646,2.30279,2.83115,-0.408135,-100.625,36.0,47.25,-0.015625,-6.67188,6.59375,-0.0078125,-0.00976562,0.0,4,0,41.36217019881855,-91.61696792897035,11302.225117840797,-62.09767598561816,4.038543974077534,-1.7859527967558786,189.991,9163.148997757502,11279.40419535643,150,True,16.133963534622325,False,143.27607640607033,162.83795267004282,False,19.83806076684601,True,False
2,1970-07-23 10:13:38.805132279,2025-09-11,2025-09-26 14:44:40.513,HH,C,1285684316,JASSM,3,101,76,2,2,1,225,9,2,0,1,26,0,0,0,0,-154563.89196951812,-4779038.276338424,4211525.200651646,-2.71074,-1.01089,0.752226,37.5,-59.625,-65.875,0.0,0.0,0.0,0.0,0.0,0.0,2,0,41.56411667912226,-91.85241722972644,9999.998994594713,155.9463239413622,-0.0020594270844282,-0.0009586604107183,,9163.148997757502,11279.40419535643,150,2,2025-09-11,2025-09-26 14:44:40.320,HH,C,2189214230,HAWK11,1,1,73,2,1,1,225,2,1,0,0,12,1,225,2,1,-135425.35778983062,-4794756.392549361,4195006.138151646,2.29781,2.83154,-0.406793,-100.625,36.25,46.875,-0.21875,-6.76562,6.65625,-0.00195312,-0.00195312,-0.00195312,4,0,41.362548217180006,-91.61785885755756,11316.44115350419,-62.16795409489181,4.000730717351378,-2.0677933030140654,189.832,9163.148997757502,11279.40419535643,150,True,16.035837597422592,False,143.24125390863068,162.83189522789905,False,19.844893211419528,True,False
2,1970-07-23 10:13:38.816149477,2025-09-11,2025-09-26 14:44:41.614,HH,C,1286937016,JASSM,3,101,76,2,2,1,225,9,2,0,1,26,0,0,0,0,-154524.53845389312,-4779101.077119674,4211455.849089146,-2.71074,-1.01089,0.752226,37.5,-59.625,-65.875,0.0,0.0,0.0,0.0,0.0,0.0,2,0,41.56328252265766,-91.85192159527276,10000.002341825597,155.94665277122,-0.0011465527016459,-0.0009600131418229,,9163.148997757502,11279.40419535643,150,2,2025-09-11,2025-09-26 14:44:41.715,HH,C,2190963960,HAWK11,1,1,73,2,1,1,225,2,1,0,0,12,1,225,2,1,-135573.19177420562,-4794703.165986861,4195074.308073521,2.30078,2.83297,-0.40267,-100.625,36.125,46.375,-0.203125,-6.79688,6.67188,0.0,-0.00585938,-0.00585938,4,0,41.36330022449124,-91.61964198595808,11343.508626335715,-62.392738048052834,3.8937788739109385,-1.880492102991766,189.563,9163.148997757502,11279.40419535643,150,True,15.896980581210622,False,143.05464206470566,162.88427632855957,False,20.073176437077535,True,False
2,1970-07-23 10:13:38.827178837,2025-09-11,2025-09-26 14:44:42.717,HH,C,1288249366,JASSM,3,101,76,2,2,1,225,9,2,0,1,26,0,0,0,0,-154483.31189139312,-4779166.866182174,4211383.192839146,-2.71074,-1.01089,0.752226,37.5,-59.625,-65.875,0.0,0.0,0.0,0.0,0.0,0.0,2,0,41.56240864014588,-91.8514023848547,10000.001277642858,155.94699723679386,-0.0001902099029717,-0.0009614392812222,,9163.148997757502,11279.40419535643,150,2,2025-09-11,2025-09-26 14:44:42.651,HH,C,2191401394,HAWK11,1,1,73,2,1,1,225,2,1,0,0,12,1,225,2,1,-135610.78943045562,-4794689.605439986,4195091.514128208,2.29953,2.83403,-0.402286,-100.625,36.25,46.125,-0.234375,-6.76562,6.59375,0.00390625,0.00976562,0.00195312,4,0,41.363490728392186,-91.62009549125834,11350.05202120664,-62.44746468237915,3.9191926914479,-1.931956022224317,189.526,9163.148997757502,11279.40419535643,150,True,15.820226854215262,False,143.01766836350188,162.8514767279163,False,20.065350726605157,True,False
2,1970-07-23 10:13:38.837212602,2025-09-11,2025-09-26 14:44:43.721,HH,C,1289502064,JASSM,3,101,76,2,2,1,225,9,2,0,1,26,0,0,0,0,-154443.95837576812,-4779229.663057174,4211313.839323521,-2.71074,-1.01089,0.752226,37.5,-59.625,-65.875,0.0,0.0,0.0,0.0,0.0,0.0,2,0,41.56157448921765,-91.85090677801618,10000.00165337714,155.9473260372315,0.0007226550136235,-0.000962788945837,,9163.148997757502,11279.40419535643,150,2,2025-09-11,2025-09-26 14:44:43.605,HH,C,2193151126,HAWK11,1,1,73,2,1,1,225,2,1,0,0,12,1,225,2,1,-135758.96716483062,-4794636.185518111,4195158.818815708,2.31152,2.83192,-0.398068,-100.625,36.25,45.75,-0.140625,-6.8125,6.70312,0.0175781,0.00976562,-0.00195312,4,0,41.3642379462219,-91.62188283527506,11374.810448931616,-62.54665282275572,3.673250486657139,-1.2989178872024714,189.331,9163.148997757502,11279.40419535643,150,True,15.681465931436469,False,142.90488695164854,162.9059624866228,False,20.222616312650104,True,False
2,1970-07-23 10:13:38.848237376,2025-09-11,2025-09-26 14:44:44.823,HH,C,1290814416,JASSM,3,101,76,2,2,1,225,9,2,0,1,26,0,0,0,0,-154402.73181326812,-4779295.448213424,4211241.181120396,-2.71064,-1.01089,0.752322,37.5,-59.625,-65.875,0.0,0.0,0.0,0.0,0.0,0.0,2,0,41.560700612021485,-91.85038759645369,9999.998134899615,155.94996406658686,-0.0033105697142209,0.0045272274152625,,9163.148997757502,11279.40419535643,150,2,2025-09-11,2025-09-26 14:44:45.105,HH,C,2194940624,HAWK11,1,1,73,2,1,1,225,2,1,0,0,12,1,225,2,1,-135910.35193045562,-4794581.277314986,4195226.899870396,2.31823,2.83259,-0.393658,-100.625,36.5,45.25,-0.078125,-6.79688,6.59375,0.015625,0.0,0.00976562,4,0,41.36499868501567,-91.62370901330516,11397.827807547188,-62.755367626862,3.5257546180688117,-0.9126512176930986,189.172,9163.148997757502,11279.40419535643,150,True,15.538472541789806,False,142.828701696042,162.9615053359138,False,20.331661928581898,True,False
2,1970-07-23 10:13:38.859252637,2025-09-11,2025-09-26 14:44:45.925,HH,C,1292067114,JASSM,3,101,76,2,2,1,225,9,2,0,1,26,0,0,0,0,-154363.37927420562,-4779358.243135299,4211171.825651646,-2.71064,-1.01089,0.752322,37.5,-59.625,-65.875,0.0,0.0,0.0,0.0,0.0,0.0,2,0,41.55986645478579,-91.8498920281655,10000.000408478703,155.9502928304671,-0.0023977067300798,0.0045259050580843,,9163.148997757502,11279.40419535643,150,2,2025-09-11,2025-09-26 14:44:45.917,HH,C,2195934788,HAWK11,1,1,73,2,1,1,225,2,1,0,0,12,1,225,2,1,-135994.53943045562,-4794550.781221236,4195264.424284458,2.31727,2.83604,-0.390973,-100.625,36.5,45.0,0.0,-6.84375,6.84375,-0.00390625,0.0,0.0,4,0,41.36541922442909,-91.62472458362396,11410.001789888269,-62.99393681684237,3.5524357536388007,-0.9066868776004448,189.172,9163.148997757502,11279.40419535643,150,True,15.437236088725491,False,142.75250653493205,162.96833101551917,False,20.408649787421204,True,False
2,1970-07-23 10:13:38.869290101,2025-09-11,2025-09-26 14:44:46.929,HH,C,1293260162,JASSM,3,101,76,2,2,1,225,9,2,0,1,26,0,0,0,0,-154325.89880545562,-4779418.047822799,4211105.770964146,-2.71064,-1.01089,0.752322,37.5,-59.625,-65.875,0.0,0.0,0.0,0.0,0.0,0.0,2,0,41.55907200505746,-91.84942004794068,10000.003310483606,155.95060594080235,-0.0015282953844602,0.0045246559147136,,9163.148997757502,11279.40419535643,150,2,2025-09-11,2025-09-26 14:44:46.917,HH,C,2197127788,HAWK11,1,1,73,2,1,1,225,2,1,0,0,12,1,225,2,1,-136094.69958670562,-4794514.262666549,4195309.260221958,2.31545,2.83508,-0.390015,-100.625,36.625,44.875,-0.203125,-6.90625,6.75,0.00585938,-0.00195312,0.0,4,0,41.36592224290749,-91.62593293089272,11424.326212298867,-62.99938477593832,3.478799800326059,-1.0322818566227316,189.49,9163.148997757502,11279.40419535643,150,True,15.329082000976936,False,142.75175349066637,162.99043086034789,False,20.42587980222634,True,False
2,1970-07-23 10:13:38.879171687,2025-09-11,2025-09-26 14:44:47.917,HH,C,1294512860,JASSM,3,101,76,2,2,1,225,9,2,0,1,26,0,0,0,0,-154286.54626639312,-4779480.838838424,4211036.411589146,-2.71064,-1.01089,0.752322,37.5,-59.625,-65.875,0.0,0.0,0.0,0.0,0.0,0.0,2,0,41.55823784041936,-91.84892450604612,9999.99785601922,155.950934676592,-0.0006154298659287,0.004523331265615,,9163.148997757502,11279.40419535643,150,2,2025-09-11,2025-09-26 14:44:48.104,HH,C,2198559386,HAWK11,1,1,73,2,1,1,225,2,1,0,0,12,1,225,2,1,-136216.08630545562,-4794470.020479049,4195363.458464146,2.31535,2.84055,-0.387043,-100.625,36.5,44.875,0.03125,-7.0625,7.0,-0.00585938,0.00976562,-0.00585938,4,0,41.36653081054798,-91.62739737605958,11441.431268931608,-63.32419576210001,3.5721950791232087,-0.939133020728181,189.758,9163.148997757502,11279.40419535643,150,True,15.206127194793622,False,142.7142999971333,163.02708949619756,False,20.50723973706238,True,False
2,1970-07-23 10:13:38.889711916,2025-09-11,2025-09-26 14:44:48.971,HH,C,1295705906,JASSM,3,101,76,2,2,1,225,9,2,0,1,26,0,0,0,0,-154249.06677420562,-4779540.641572799,4210970.354948521,-2.71064,-1.01089,0.752322,37.5,-59.625,-65.875,0.0,0.0,0.0,0.0,0.0,0.0,2,0,41.55744338480819,-91.84845256196868,10000.001657554036,155.95124775287027,0.0002539794699426,0.0045220728907299,,9163.148997757502,11279.40419535643,150,2,2025-09-11,2025-09-26 14:44:49.010,HH,C,2199593318,HAWK11,1,1,73,2,1,1,225,2,1,0,0,12,1,225,2,1,-136303.45935233062,-4794438.510713424,4195402.356901646,2.30749,2.84304,-0.392603,-100.625,36.0,45.125,-0.0625,-7.3125,7.1875,0.0117188,0.0,0.0078125,4,0,41.366966083192025,-91.62845137182828,11454.33003418507,-63.18479712059812,3.888398903368732,-1.3262132974941208,189.881,9163.148997757502,11279.40419535643,150,True,15.105584183987537,False,142.6399902610545,163.04009510475103,False,20.623192022039397,True,False
2,1970-07-23 10:13:38.901718216,2025-09-11,2025-09-26 14:44:50.171,HH,C,1296958604,JASSM,3,101,76,2,2,1,225,9,2,0,1,26,0,0,0,0,-154209.71325858062,-4779603.430635299,4210900.995573521,-2.71064,-1.0108,0.752322,37.5,-59.625,-65.875,0.0,0.0,0.0,0.0,0.0,0.0,2,0,41.55660922760593,-91.84795703401466,10000.001691794198,155.9479336259367,-0.0005078452364852,0.0007682206372171,,9163.148997757502,11279.40419535643,150,2,2025-09-11,2025-09-26 14:44:50.105,HH,C,2200985150,HAWK11,1,1,73,2,1,1,225,2,1,0,0,12,1,225,2,1,-136420.27966483062,-4794396.292939986,4195454.297331333,2.32091,2.82415,-0.374771,-100.625,36.875,44.25,-0.046875,-5.6875,5.53125,0.0117188,0.0,-0.00195312,4,0,41.36754810568537,-91.62986064484102,11471.21960674076,-63.23017887686687,2.458222067211936,-0.9647845860250276,190.186,9163.148997757502,11279.40419535643,150,True,14.985460309428705,False,142.6341012621761,163.07446391436673,False,20.608129398952123,True,False
2,1970-07-23 10:13:38.910254110,2025-09-11,2025-09-26 14:44:51.025,HH,C,1298211304,JASSM,3,101,76,2,2,1,225,9,2,0,1,26,0,0,0,0,-154170.35974295562,-4779666.219697799,4210831.632292271,-2.71064,-1.0108,0.752418,37.5,-59.625,-65.875,0.0,0.0,0.0,0.0,0.0,0.0,2,0,41.55577504184101,-91.8474615188033,9999.998530183118,155.95055767665642,-0.0045874732627216,0.0007667556931042,,9163.148997757502,11279.40419535643,150,2,2025-09-11,2025-09-26 14:44:51.105,HH,C,2202178150,HAWK11,1,1,73,2,1,1,225,2,1,0,0,12,1,225,2,1,-136521.03161795562,-4794358.454072799,4195498.062956333,2.31535,2.82559,-0.36921,-100.75,37.875,43.5,-0.046875,-6.35938,6.14062,-0.00195312,0.0,-0.00976562,4,0,41.36805158772804,-91.63107657958317,11480.044340582686,-63.5139272708024,2.293485710352872,-1.2652198356409916,190.382,9163.148997757502,11279.40419535643,150,True,14.874577357557929,False,142.6647952747553,163.09608062439474,False,20.55060583048268,True,False
2,1970-07-23 10:13:38.921272201,2025-09-11,2025-09-26 14:44:52.127,HH,C,1299464002,JASSM,3,101,76,2,2,1,225,9,2,0,1,26,0,0,0,0,-154131.00622733062,-4779729.006807174,4210762.270964146,-2.71064,-1.0108,0.752418,37.5,-59.625,-65.875,0.0,0.0,0.0,0.0,0.0,0.0,2,0,41.55494087862621,-91.8469660170884,10000.000132250496,155.95088636452704,-0.0036746135894459,0.0007654206713867,,9163.148997757502,11279.40419535643,150,2,2025-09-11,2025-09-26 14:44:52.215,HH,C,2203410914,HAWK11,1,1,73,2,1,1,225,2,1,0,0,12,1,225,2,1,-136625.22888358062,-4794318.713838424,4195542.375456333,2.31526,2.81754,-0.36595,-100.875,38.75,42.625,-0.03125,-6.3125,6.15625,0.00390625,-0.00390625,0.00195312,4,0,41.368569469943,-91.6323343197587,11485.623823769069,-63.34983427429506,1.855082843291733,-1.430603900288792,190.846,9163.148997757502,11279.40419535643,150,True,14.761816802409284,False,142.6112143721003,163.12144741184196,False,20.589264705679643,True,False
2,1970-07-23 10:13:38.932130742,2025-09-11,2025-09-26 14:44:53.213,HH,C,1300776354,JASSM,3,101,76,2,2,1,225,9,2,0,1,26,0,0,0,0,-154089.77868826812,-4779794.784150924,4210689.602995396,-2.71064,-1.0108,0.752418,37.5,-59.625,-65.875,0.0,0.0,0.0,0.0,0.0,0.0,2,0,41.55406696366885,-91.84644693301922,10000.000314072293,155.95123068978825,-0.0027182591539794,0.000764011423731,,9163.148997757502,11279.40419535643,150,2,2025-09-11,2025-09-26 14:44:53.013,HH,C,2204365314,HAWK11,1,1,73,2,1,1,225,2,1,0,0,12,1,225,2,1,-136706.13513358062,-4794287.347627486,4195576.350065708,2.32101,2.8162,-0.360102,-101.125,39.375,42.25,0.046875,-6.375,6.26562,0.00195312,-0.00390625,-0.00976562,4,0,41.36897168456775,-91.63331110629576,11487.769960098449,-63.541166497271234,1.5711028057965892,-1.1340445314944736,191.127,9163.148997757502,11279.40419535643,150,True,14.660054594505393,False,142.6087169251727,163.12460783841266,False,20.575745878515143,True,False
2,1970-07-23 10:13:38.942169878,2025-09-11,2025-09-26 14:44:54.216,HH,C,1301969402,JASSM,3,101,76,2,2,1,225,9,2,0,1,26,0,0,0,0,-154052.29919608062,-4779854.579072799,4210623.542448521,-2.71064,-1.0108,0.752418,37.5,-59.625,-65.875,0.0,0.0,0.0,0.0,0.0,0.0,2,0,41.55327251762112,-91.8459750526362,10000.001708703448,155.95154369815492,-0.0018488686818515,0.0007627387212845,,9163.148997757502,11279.40419535643,150,2,2025-09-11,2025-09-26 14:44:54.214,HH,C,2205796912,HAWK11,1,1,73,2,1,1,225,2,1,0,0,12,1,225,2,1,-136827.61560233062,-4794239.572236861,4195626.762175083,2.31181,2.81802,-0.356267,-101.375,39.875,41.875,-0.125,-6.8125,6.71875,-0.0078125,0.00390625,-0.00585938,4,0,41.369575573768365,-91.63477800174232,11488.026892923284,-63.76802547017095,1.489626173857122,-1.6308872723911538,191.396,9163.148997757502,11279.40419535643,150,True,14.539751681141116,False,142.56843822120268,163.1685222086234,False,20.645596435608045,True,False
2,1970-07-23 10:13:38.953192532,2025-09-11,2025-09-26 14:44:55.319,HH,C,1303281752,JASSM,3,101,76,2,2,1,225,9,2,0,1,26,0,0,0,0,-154011.07165701812,-4779920.352510299,4210550.872526646,-2.71064,-1.0108,0.752418,37.5,-59.625,-65.875,0.0,0.0,0.0,0.0,0.0,0.0,2,0,41.5523986080891,-91.84545599676896,9999.999171145737,155.95188799335347,-0.000892523699378,0.0007613325390085,,9163.148997757502,11279.40419535643,150,2,2025-09-11,2025-09-26 14:44:55.417,HH,C,2207228510,HAWK11,1,1,73,2,1,1,225,2,1,0,0,12,1,225,2,1,-136949.81091483062,-4794191.462861861,4195676.891081333,2.30855,2.81524,-0.352336,-101.875,40.125,41.625,-0.015625,-6.875,6.71875,0.00195312,0.00976562,-0.00976562,4,0,41.37017939582757,-91.63625357439857,11486.908076155758,-63.8267019617304,1.2268406916458492,-1.874341994035728,191.738,9163.148997757502,11279.40419535643,150,True,14.414215831065501,False,142.43673357819225,163.2083833155239,False,20.81033274269138,True,False
2,1970-07-23 10:13:38.963231930,2025-09-11,2025-09-26 14:44:56.323,HH,C,1304534450,JASSM,3,101,76,2,2,1,225,9,2,0,1,26,0,0,0,0,-153971.71814139312,-4779983.135713424,4210481.505339146,-2.71064,-1.0108,0.752418,37.5,-59.625,-65.875,0.0,0.0,0.0,0.0,0.0,0.0,2,0,41.55156441958778,-91.84496054813,9999.999911281377,155.95221662408153,2.035080351147693e-05,0.0007599898234076,,9163.148997757502,11279.40419535643,150,2,2025-09-11,2025-09-26 14:44:56.214,HH,C,2208262442,HAWK11,1,1,73,2,1,1,225,2,1,0,0,12,1,225,2,1,-137039.35388358062,-4794156.213838424,4195713.242643833,2.30356,2.81927,-0.350898,-102.125,40.125,41.5,-0.3125,-6.89062,6.6875,-0.015625,-0.00195312,-0.00585938,4,0,41.37061924619364,-91.6373348686065,11485.277851761082,-64.03739306193792,1.325947770974696,-2.085244808847118,192.019,9163.148997757502,11279.40419535643,150,True,14.31017653619331,False,142.33632344822217,163.22374101162347,False,20.924970960387395,True,False
2,1970-07-23 10:13:38.974249867,2025-09-11,2025-09-26 14:44:57.424,HH,C,1305787148,JASSM,3,101,76,2,2,1,225,9,2,0,1,26,0,0,0,0,-153932.36462576812,-4780045.916963424,4210412.138151646,-2.71064,-1.0108,0.752418,37.5,-59.625,-65.875,0.0,0.0,0.0,0.0,0.0,0.0,2,0,41.55073024048331,-91.844465112983,10000.00116409361,155.9525452404409,0.0009332145680616,0.0007586513215556,,9163.148997757502,11279.40419535643,150,2,2025-09-11,2025-09-26 14:44:57.416,HH,C,2209614508,HAWK11,1,1,73,2,1,1,225,2,1,0,0,12,1,225,2,1,-137155.84607108062,-4794110.449189986,4195760.148893833,2.29915,2.81879,-0.347255,-102.75,40.25,41.25,-0.03125,-6.95312,6.89062,0.0,0.0078125,-0.00585938,4,0,41.37118830164541,-91.63874158380756,11482.557530540802,-64.17036242562001,1.1633986794144748,-2.350235772092891,192.092,9163.148997757502,11279.40419535643,150,True,14.190739949549362,False,142.14115391678968,163.26380158848866,False,21.15586671885888,True,False
2,1970-07-23 10:13:38.984288320,2025-09-11,2025-09-26 14:44:58.428,HH,C,1307039848,JASSM,3,101,76,2,2,1,225,9,2,0,1,26,0,0,0,0,-153893.01111014312,-4780108.696260299,4210342.769011021,-2.71064,-1.0108,0.752513,37.5,-59.625,-65.875,0.0,0.0,0.0,0.0,0.0,0.0,2,0,41.54989605762135,-91.84396969132696,9999.998679228347,155.9551677652828,-0.0031433275426908,0.000757285704594,,9163.148997757502,11279.40419535643,150,2,2025-09-11,2025-09-26 14:44:58.309,HH,C,2210608674,HAWK11,1,1,73,2,1,1,225,2,1,0,0,12,1,225,2,1,-137241.02575858062,-4794077.119111861,4195794.142057896,2.29982,2.82022,-0.344187,-103.125,40.125,41.25,-0.109375,-6.95312,6.73438,0.0,0.0,-0.00390625,4,0,41.371601535498094,-91.63977015139766,11480.240992470295,-64.35129551144394,1.09771328207149,-2.287465863947991,192.325,9163.148997757502,11279.40419535643,150,True,14.089456203910512,False,142.01782202294578,163.27672764385557,False,21.29448367340956,True,False
2,1970-07-23 10:13:38.994171931,2025-09-11,2025-09-26 14:44:59.417,HH,C,1308232894,JASSM,3,101,76,2,2,1,225,9,2,0,1,26,0,0,0,0,-153855.53161795562,-4780168.487275924,4210276.702604771,-2.71064,-1.0108,0.752513,37.5,-59.625,-65.875,0.0,0.0,0.0,0.0,0.0,0.0,2,0,41.54910158467507,-91.84349787311108,10000.003001796606,155.95548070671725,-0.0022739220934665,0.0007560401020076,,9163.148997757502,11279.40419535643,150,2,2025-09-11,2025-09-26 14:44:59.214,HH,C,2211801672,HAWK11,1,1,73,2,1,1,225,2,1,0,0,12,1,225,2,1,-137344.35583670562,-4794036.810518111,4195835.384245396,2.29848,2.82809,-0.345529,-103.5,39.875,41.25,-0.21875,-7.3125,7.10938,0.0078125,0.0,-0.00585938,4,0,41.37210211379534,-91.64101786532784,11477.753758638164,-64.59123898908632,1.457202354594212,-2.2174622873025456,192.325,9163.148997757502,11279.40419535643,150,True,13.980286085939417,False,141.860447056182,163.30961207355648,False,21.48907183989212,True,False
2,1970-07-23 10:13:39.006522065,2025-09-11,2025-09-26 14:45:00.652,HH,C,1309425940,JASSM,3,101,76,2,2,1,225,9,2,0,1,26,0,0,0,0,-153818.05212576812,-4780228.274385299,4210210.634245396,-2.71054,-1.0108,0.752513,37.5,-59.625,-65.875,0.0,0.0,0.0,0.0,0.0,0.0,2,0,41.54830711983277,-91.8430260679531,9999.998300398822,155.95579363457583,-0.0014045262519684,0.0062462696807488,,9163.148997757502,11279.40419535643,150,2,2025-09-11,2025-09-26 14:45:00.809,HH,C,2213670704,HAWK11,1,1,73,2,1,1,225,2,1,0,0,12,1,225,2,1,-137507.84997733062,-4793972.660127486,4195899.815886021,2.31957,2.80872,-0.325204,-104.0,41.5,40.125,-0.09375,-5.59375,5.40625,0.00585938,-0.015625,0.00390625,4,0,41.37289077544801,-91.64299222932608,11471.130824422984,-64.69979323541483,-0.1039746651277011,-1.3755360548726694,192.74,9163.148997757502,11279.40419535643,150,True,13.836783901505461,False,141.82293167833595,163.3994467730798,False,21.58710979353151,True,False
2,1970-07-23 10:13:39.014232087,2025-09-11,2025-09-26 14:45:01.423,HH,C,1310618988,JASSM,3,101,76,2,2,1,225,9,2,0,1,26,0,0,0,0,-153780.57165701812,-4780288.063447799,4210144.565886021,-2.71054,-1.0107,0.752513,37.5,-59.625,-65.875,0.0,0.0,0.0,0.0,0.0,0.0,2,0,41.54751264148008,-91.8425542619017,10000.00312741516,155.95246447915548,-0.0022097379447637,0.0024918305900183,,9163.148997757502,11279.40419535643,150,2,2025-09-11,2025-09-26 14:45:01.510,HH,C,2214505802,HAWK11,1,1,73,2,1,1,225,2,1,0,0,12,1,225,2,1,-137580.91638358062,-4793943.109346236,4195927.460417271,2.32791,2.80383,-0.31878,-104.375,42.5,39.25,-0.109375,-5.90625,5.8125,0.0117188,0.0,0.00976562,4,0,41.3732406953651,-91.64387490113374,11463.512664643164,-64.7780116552218,-0.5504956079054919,-0.9858732083806858,192.789,9163.148997757502,11279.40419535643,150,True,13.745143144403597,False,141.71478544638055,163.4064573019369,False,21.693086226923494,True,False
2,1970-07-23 10:13:39.024269621,2025-09-11,2025-09-26 14:45:02.426,HH,C,1311752382,JASSM,3,101,76,2,2,1,225,9,2,0,1,26,0,0,0,0,-153744.96618826812,-4780344.860322799,4210081.798307896,-2.71054,-1.0107,0.752513,37.5,-59.625,-65.875,0.0,0.0,0.0,0.0,0.0,0.0,2,0,41.54675788351639,-91.8421060695986,9999.999799718216,155.95276173644854,-0.0013838005894751,0.0024905919320474,,9163.148997757502,11279.40419535643,150,2,2025-09-11,2025-09-26 14:45:02.417,HH,C,2215579502,HAWK11,1,1,73,2,1,1,225,2,1,0,0,12,1,225,2,1,-137675.32653983062,-4793904.358369674,4195962.495573521,2.33184,2.80258,-0.317246,-104.875,43.25,38.875,-0.203125,-6.64062,6.42188,0.00195312,0.0,-0.00390625,4,0,41.37369157521036,-91.64501562384837,11450.79175363664,-64.79414470788463,-0.6594834264672176,-0.7828659421831298,193.058,9163.148997757502,11279.40419535643,150,True,13.643871693731345,False,141.6714938445779,163.43742821162485,False,21.765935659602,True,False
2,1970-07-23 10:13:39.034150592,2025-09-11,2025-09-26 14:45:03.415,HH,C,1312945428,JASSM,3,101,76,2,2,1,225,9,2,0,1,26,0,0,0,0,-153707.48571951812,-4780404.645479049,4210015.727995396,-2.71054,-1.0107,0.752513,37.5,-59.625,-65.875,0.0,0.0,0.0,0.0,0.0,0.0,2,0,41.54596341132333,-91.84163428757678,10000.00017446862,155.95307463450033,-0.0005143999351022,0.002489301041832,,9163.148997757502,11279.40419535643,150,2,2025-09-11,2025-09-26 14:45:03.013,HH,C,2216056702,HAWK11,1,1,73,2,1,1,225,2,1,0,0,12,1,225,2,1,-137717.35778983062,-4793887.001924361,4195978.023893833,2.33251,2.80335,-0.315904,-105.0,43.375,38.875,-0.078125,-6.78125,6.5625,0.0,0.0,0.00195312,4,0,41.37389245666132,-91.64552351315814,11444.722770717672,-64.87865947291279,-0.6829937939746697,-0.7297647460075138,193.241,9163.148997757502,11279.40419535643,150,True,13.569954589966718,False,141.67514065850935,163.4150746815958,False,21.739963488223186,True,False
2,1970-07-23 10:13:39.044169420,2025-09-11,2025-09-26 14:45:04.416,HH,C,1314138474,JASSM,3,101,76,2,2,1,225,9,2,0,1,26,0,0,0,0,-153670.00622733062,-4780464.428682174,4209949.657682896,-2.71054,-1.0107,0.752513,37.5,-59.625,-65.875,0.0,0.0,0.0,0.0,0.0,0.0,2,0,41.54516894854892,-91.84116252954962,10000.00064521431,155.95338751172292,0.0003549865752986,0.0024880062996272,,9163.148997757502,11279.40419535643,150,2,2025-09-11,2025-09-26 14:45:04.306,HH,C,2217766666,HAWK11,1,1,73,2,1,1,225,2,1,0,0,12,1,225,2,1,-137868.23083670562,-4793824.574189986,4196033.227018833,2.32695,2.80383,-0.314466,-105.75,43.75,38.875,0.0625,-7.17188,6.40625,0.00390625,0.00195312,0.0195312,4,0,41.37461063840169,-91.64734667592955,11421.47418672667,-64.9570355920303,-0.720397722404828,-1.0389889999268225,193.363,9163.148997757502,11279.40419535643,150,True,13.434108444490441,False,141.60061761211614,163.49894964766713,False,21.898619569565614,True,False
2,1970-07-23 10:13:39.054212413,2025-09-11,2025-09-26 14:45:05.421,HH,C,1315331520,JASSM,3,101,76,2,2,1,225,9,2,0,1,26,0,0,0,0,-153632.52673514312,-4780524.211885299,4209883.583464146,-2.71054,-1.0107,0.752609,37.5,-59.625,-65.875,0.0,0.0,0.0,0.0,0.0,0.0,2,0,41.54437445741848,-91.84069078307196,9999.997428713865,155.95599605359772,-0.0037679620558816,0.0024866498617117,,9163.148997757502,11279.40419535643,150,2,2025-09-11,2025-09-26 14:45:05.510,HH,C,2219277798,HAWK11,1,1,73,2,1,1,225,2,1,0,0,12,1,225,2,1,-138003.52575858062,-4793768.386689986,4196082.562956333,2.32053,2.80556,-0.308714,-106.125,44.125,38.75,-0.25,-7.1875,6.40625,-0.015625,0.00585938,-0.00976562,4,0,41.37525473525329,-91.6489816995492,11399.770236661074,-65.25962728631032,-0.8820919941744007,-1.3725663312157672,193.547,9163.148997757502,11279.40419535643,150,True,13.307143260350134,False,141.5701247003196,163.5690708263253,False,22.00008269812625,True,False
2,1970-07-23 10:13:39.064248529,2025-09-11,2025-09-26 14:45:06.424,HH,C,1316524568,JASSM,3,101,76,2,2,1,225,9,2,0,1,26,0,0,0,0,-153595.04626639312,-4780583.995088424,4209817.511198521,-2.71054,-1.0107,0.752609,37.5,-59.625,-65.875,0.0,0.0,0.0,0.0,0.0,0.0,2,0,41.543579977585466,-91.84021903645127,10000.00319730713,155.95630891353505,-0.0028985598452058,0.0024853926252116,,9163.148997757502,11279.40419535643,150,2,2025-09-11,2025-09-26 14:45:06.510,HH,C,2220550330,HAWK11,1,1,73,2,1,1,225,2,1,0,0,12,1,225,2,1,-138117.15857108062,-4793721.414033736,4196123.634245396,2.31133,2.80862,-0.307659,-106.5,43.875,38.625,-0.140625,-7.48438,6.57812,0.0117188,0.0,0.00195312,4,0,41.375791920659566,-91.65035489136667,11381.29630935034,-65.42078331120518,-0.8032582649938699,-1.844292989394021,193.632,9163.148997757502,11279.40419535643,150,True,13.192690084914222,False,141.38141868298646,163.61939512197233,False,22.238716437817047,True,False
2,1970-07-23 10:13:39.075307387,2025-09-11,2025-09-26 14:45:07.530,HH,C,1317717614,JASSM,3,101,76,2,2,1,225,9,2,0,1,26,0,0,0,0,-153557.56579764312,-4780643.776338424,4209751.435026646,-2.71054,-1.0107,0.752609,37.5,-59.625,-65.875,0.0,0.0,0.0,0.0,0.0,0.0,2,0,41.54278548104703,-91.83974730213076,10000.00048552976,155.95662176040034,-0.0020291443550235,0.0024841288840622,,9163.148997757502,11279.40419535643,150,2,2025-09-11,2025-09-26 14:45:07.418,HH,C,2221504728,HAWK11,1,1,73,2,1,1,225,2,1,0,0,12,1,225,2,1,-138202.75622733062,-4793686.179658736,4196154.509245396,2.31967,2.80881,-0.30555,-106.75,43.875,38.625,-0.0625,-7.32812,6.51562,0.00976562,-0.00195312,-0.00976562,4,0,41.37619524768717,-91.65138925840816,11367.616099563076,-65.5153195294158,-0.8792471133058861,-1.3617364366712152,193.779,9163.148997757502,11279.40419535643,150,True,13.094203717469092,False,141.32558356680715,163.64220389432325,False,22.31732133157728,True,False
2,1970-07-23 10:13:39.083167867,2025-09-11,2025-09-26 14:45:08.316,HH,C,1318851008,JASSM,3,101,76,2,2,1,225,9,2,0,1,26,0,0,0,0,-153521.96032889312,-4780700.567354049,4209688.663542271,-2.71054,-1.0107,0.752609,37.5,-59.625,-65.875,0.0,0.0,0.0,0.0,0.0,0.0,2,0,41.54203072016461,-91.8392991773653,10000.001479985523,155.9569189452236,-0.0012032148500543,0.0024829251973845,,9163.148997757502,11279.40419535643,150,2,2025-09-11,2025-09-26 14:45:08.306,HH,C,2222538662,HAWK11,1,1,73,2,1,1,225,2,1,0,0,12,1,225,2,1,-138294.78747733062,-4793648.353486861,4196187.642057896,2.32552,2.81284,-0.30555,-107.0,43.875,38.625,-0.0625,-7.25,6.45312,0.00585938,0.0078125,-0.00976562,4,0,41.37662811972586,-91.65250136568253,11352.915887671876,-65.669553014785,-0.7206592987611865,-0.9551519059183236,193.669,9163.148997757502,11279.40419535643,150,True,12.99461243163039,False,141.26994735128756,163.67535592087742,False,22.406072713604757,True,False
2,1970-07-23 10:13:39.093209699,2025-09-11,2025-09-26 14:45:09.320,HH,C,1320044054,JASSM,3,101,76,2,2,1,225,9,2,0,1,26,0,0,0,0,-153484.47986014312,-4780760.344697799,4209622.587370396,-2.71054,-1.0107,0.752609,37.5,-59.625,-65.875,0.0,0.0,0.0,0.0,0.0,0.0,2,0,41.54123624293931,-91.8388274670648,9999.99856510466,155.95723176657518,-0.0003338208623559,0.0024816698879707,,9163.148997757502,11279.40419535643,150,2,2025-09-11,2025-09-26 14:45:09.214,HH,C,2223731660,HAWK11,1,1,73,2,1,1,225,2,1,0,0,12,1,225,2,1,-138402.13708670562,-4793604.389619674,4196226.247526646,2.33098,2.81121,-0.305933,-107.25,43.75,38.75,-0.21875,-7.34375,6.5625,0.015625,0.0,0.0,4,0,41.377131802581104,-91.65379854628064,11336.074170043506,-65.59255687280097,-0.7680720701470266,-0.6712191006758433,194.048,9163.148997757502,11279.40419535643,150,True,12.883915712342407,False,141.22363813814104,163.72192054503807,False,22.498562805265422,True,False
2,1970-07-23 10:13:39.104230787,2025-09-11,2025-09-26 14:45:10.423,HH,C,1321356406,JASSM,3,101,76,2,2,1,225,9,2,0,1,26,0,0,0,0,-153443.25232108062,-4780826.100557174,4209549.901823521,-2.71054,-1.0107,0.752609,37.5,-59.625,-65.875,0.0,0.0,0.0,0.0,0.0,0.0,2,0,41.54036229894188,-91.83830861046212,9999.999086895872,155.95757584798693,0.0006225244294707,0.002480274441416,,9163.148997757502,11279.40419535643,150,2,2025-09-11,2025-09-26 14:45:10.510,HH,C,2225123492,HAWK11,1,1,73,2,1,1,225,2,1,0,0,12,1,225,2,1,-138528.53747733062,-4793552.588838424,4196271.936979771,2.41228,2.81236,-0.30392,-107.5,44.125,39.0,-0.34375,-7.65625,6.9375,0.142578,0.0117188,-0.00195312,4,0,41.37772663354039,-91.65532597119048,11316.672677776734,-65.7201085849181,-0.8021581800807724,4.008440236966464,194.622,9163.148997757502,11279.40419535643,150,True,12.757377672835638,False,141.34462029267848,163.78254132411405,False,22.438404086091246,True,False
2,1970-07-23 10:13:39.115270309,2025-09-11,2025-09-26 14:45:11.527,HH,C,1322668756,JASSM,3,101,76,2,2,1,225,9,2,0,1,26,0,0,0,0,-153402.02380545562,-4780891.854463424,4209477.216276646,-2.71054,-1.0107,0.752609,37.5,-59.625,-65.875,0.0,0.0,0.0,0.0,0.0,0.0,2,0,41.53948836430748,-91.83778975688932,10000.000560943055,155.95791992144274,0.0015788623931643,0.002478891274457,,9163.148997757502,11279.40419535643,150,2,2025-09-11,2025-09-26 14:45:11.651,HH,C,2226475556,HAWK11,1,1,73,2,1,1,225,2,1,0,0,12,1,225,2,1,-138649.39880545562,-4793502.734346236,4196316.683073521,2.49598,2.81505,-0.320602,-106.875,44.375,40.625,-0.109375,-7.92188,7.09375,0.015625,0.0117188,0.0234375,4,0,41.378304454742526,-91.65678660244768,11299.63107875907,-65.1376522360468,-0.029791932159254,8.846916529731901,195.233,9163.148997757502,11279.40419535643,150,True,12.633563968489744,False,142.07265992458747,163.83683674721894,False,21.764458262241423,True,False
