Subject_cm,Timestamp,SampleDate_cm,SampleTime_cm,Configuration_cm,Scenario_cm,DisTime_cm,MarkingTxt_cm,Application_cm,EntId_cm,Site_cm,ExerciseId_cm,ForceId_cm,Category_cm,Country_cm,Domain_cm,Kind_cm,Extra_cm,Specific_cm,Subcategory_cm,AltCategory_cm,AltCountry_cm,AltDomain_cm,AltKind_cm,ECEF_X_cm,ECEF_Y_cm,ECEF_Z_cm,OriPhi_cm,OriPsi_cm,OriTheta_cm,LinVelX_cm,LinVelY_cm,LinVelZ_cm,LinAccX_cm,LinAccY_cm,LinAccZ_cm,AngVelX_cm,AngVelY_cm,AngVelZ_cm,DrAlg_cm,Appearance_cm,Latitude_cm,Longitude_cm,Altitude_cm,Heading_cm,Pitch_cm,Roll_cm,CalibratedAirspeed_cm,CM_Altitude_Lead_cm,CM_Altitude_Wing_cm,CM_Airspeed_cm,Subject_ac,SampleDate_ac,SampleTime_ac,Configuration_ac,Scenario_ac,DisTime_ac,MarkingTxt_ac,Application_ac,EntId_ac,Site_ac,ExerciseId_ac,ForceId_ac,Category_ac,Country_ac,Domain_ac,Kind_ac,Extra_ac,Specific_ac,Subcategory_ac,AltCategory_ac,AltCountry_ac,AltDomain_ac,AltKind_ac,ECEF_X_ac,ECEF_Y_ac,ECEF_Z_ac,OriPhi_ac,OriPsi_ac,OriTheta_ac,LinVelX_ac,LinVelY_ac,LinVelZ_ac,LinAccX_ac,LinAccY_ac,LinAccZ_ac,AngVelX_ac,AngVelY_ac,AngVelZ_ac,DrAlg_ac,Appearance_ac,Latitude_ac,Longitude_ac,Altitude_ac,Heading_ac,Pitch_ac,Roll_ac,CalibratedAirspeed_ac,CM_Altitude_Lead_ac,CM_Altitude_Wing_ac,CM_Airspeed_ac,Bank_Angle_Condition,distance_nm,Distance_Condition,angle_between_vel,angle_between_pos,Cone_Condition,angle_between_pos_nose,Nose_Cone_Condition,Intercept_Criteria
2,1970-07-23 10:13:53.931458305,2025-09-11,2025-09-26 15:09:53.145,HA,D,3090058018,JASSM,3,135,76,2,2,1,225,9,2,0,1,26,0,0,0,0,-171305.56286795562,-4793410.872041549,4194623.352018833,-2.29541,0.0350898,-0.0800546,91.375,3.25,7.375,0.0,0.0,0.0,0.0,0.0,0.0,2,0,41.36113772215921,-92.04674931113313,10000.00054238077,83.87915846735049,-0.0051871873466388,0.0066288575475706,,9077.867462759696,10906.843150451044,150,2,2025-09-11,2025-09-26 15:09:53.281,HA,D,377647340,AMBUSH51,1,1,48,2,1,1,225,2,1,0,0,9,1,225,2,1,-159978.83313480188,-4791813.52184473,4196601.560487679,2.37521,3.00054,-0.0896812,-121.753,13.7068,8.08429,-0.178463,-6.97779,6.44929,0.0113715,0.0015282,0.00350684,4,0,41.38632151055692,-91.91215885578916,9396.265951712052,-82.06843318870011,-1.2086707376424228,4.342207977989061,206.965,9077.867462759696,10906.843150451044,150,True,6.246598640158467,False,168.09292079370837,172.1049652699813,False,19.795037180882336,True,False
2,1970-07-23 10:13:53.939257039,2025-09-11,2025-09-26 15:09:53.925,HA,D,3091131760,JASSM,3,135,76,2,2,1,225,9,2,0,1,26,0,0,0,0,-171223.3370378775,-4793408.007783736,4194629.937956333,-2.29541,0.0348022,-0.079767,91.375,3.125,7.375,0.0,0.0,0.0,0.0,0.0,0.0,2,0,41.36121669277711,-92.04576893786276,10000.000398539096,83.90303413360674,-0.0030731990905971,0.0053119072644263,,9077.867462759696,10906.843150451044,150,2,2025-09-11,2025-09-26 15:09:53.882,HA,D,378363138,AMBUSH51,1,1,48,2,1,1,225,2,1,0,0,9,1,225,2,1,-160051.1179685101,-4791805.191749471,4196606.296102192,2.37553,2.99768,-0.0906666,-121.889,14.3672,8.19567,-0.213586,-6.9478,6.41284,-0.0137933,0.00164055,0.00367537,4,0,41.38638867054162,-91.91302552692876,9391.983024533403,-81.91805521618855,-1.2922863077230418,4.342402861151049,207.637,9077.867462759696,10906.843150451044,150,True,6.165742051854609,False,167.90355272162884,171.86559037995005,False,20.224727205081127,True,False
2,1970-07-23 10:13:53.949396193,2025-09-11,2025-09-26 15:09:54.939,HA,D,3092374236,JASSM,3,135,76,2,2,1,225,9,2,0,1,26,0,0,0,0,-171128.18908865875,-4793404.693330611,4194637.557096958,-2.29541,0.0348022,-0.079767,91.375,3.125,7.375,0.0,0.0,0.0,0.0,0.0,0.0,2,0,41.3613080517288,-92.04463449206914,10000.000526104017,83.90378378054666,-0.002216844617378,0.0053123194973949,,9077.867462759696,10906.843150451044,150,2,2025-09-11,2025-09-26 15:09:54.948,HA,D,379635670,AMBUSH51,1,1,48,2,1,1,225,2,1,0,0,9,1,225,2,1,-160182.63267234268,-4791789.57793569,4196615.020092914,2.34158,2.99244,-0.0978213,-122.224,14.7414,8.71287,-0.0705101,-7.31347,6.5796,-0.023932,-0.000317291,0.00999414,4,0,41.3865142980616,-91.91460253290607,9383.30509518972,-81.41417909529041,-1.2407752895649498,2.3582682678405256,208.309,9077.867462759696,10906.843150451044,150,True,6.047935676057011,False,167.63397168845384,171.5629012088815,False,20.795807555772573,True,False
2,1970-07-23 10:13:53.959436794,2025-09-11,2025-09-26 15:09:55.943,HA,D,3093626936,JASSM,3,135,76,2,2,1,225,9,2,0,1,26,0,0,0,0,-171032.25842459625,-4793401.350557174,4194645.238737583,-2.29541,0.0348022,-0.079767,91.375,3.125,7.375,0.0,0.0,0.0,0.0,0.0,0.0,2,0,41.36140015597396,-92.04349071123008,10000.00241638946,83.90453959750752,-0.0013534453327675,0.0053127401562512,,9077.867462759696,10906.843150451044,150,2,2025-09-11,2025-09-26 15:09:55.948,HA,D,380828670,AMBUSH51,1,1,48,2,1,1,225,2,1,0,0,9,1,225,2,1,-160304.92345167673,-4791774.688730298,4196623.69718752,2.31621,2.99198,-0.0979132,-122.509,14.9439,9.10056,-0.265647,-7.39016,6.76915,-0.0252928,-0.00212741,0.0028036,4,0,41.38663711337912,-91.9160690885323,9375.557947388075,-81.39357299320312,-1.255887899088617,0.9013956950528,208.92,9077.867462759696,10906.843150451044,150,True,5.934652803948451,False,167.46037782918478,171.26148606590547,False,21.26929107810742,True,False
2,1970-07-23 10:13:53.969459183,2025-09-11,2025-09-26 15:09:56.945,HA,D,3094819984,JASSM,3,135,76,2,2,1,225,9,2,0,1,26,0,0,0,0,-170940.89587576812,-4793398.165010299,4194652.553190708,-2.29541,0.0348981,-0.079767,91.375,3.125,7.25,0.0,0.0,0.0,0.0,0.0,0.0,2,0,41.36148786591976,-92.04240139383998,10000.000810808237,83.90162947186306,-0.0046307783321011,0.0057510164507146,,9077.867462759696,10906.843150451044,150,2,2025-09-11,2025-09-26 15:09:57.014,HA,D,382101202,AMBUSH51,1,1,48,2,1,1,225,2,1,0,0,9,1,225,2,1,-160434.14622285715,-4791758.856833913,4196633.264775673,2.28937,2.99746,-0.100465,-122.702,14.7836,9.4906,-0.226602,-7.32008,6.81187,-0.0271861,0.0073497,-0.0137142,4,0,41.386770148932094,-91.917618821778,9368.002018651909,-81.49398261392462,-0.9241669619326164,-0.603564745563109,209.519,9077.867462759696,10906.843150451044,150,True,5.820520831915088,False,167.45217733836054,170.88528292008147,False,21.65250134438244,True,False
2,1970-07-23 10:13:53.979536535,2025-09-11,2025-09-26 15:09:57.953,HA,D,3096013032,JASSM,3,135,76,2,2,1,225,9,2,0,1,26,0,0,0,0,-170849.53332694,-4793394.979463424,4194659.866667271,-2.29541,0.0348981,-0.079767,91.375,3.125,7.25,0.0,0.0,0.0,0.0,0.0,0.0,2,0,41.36157555895698,-92.04131207352488,10000.001406240544,83.90234930351785,-0.0038084942865793,0.0057513605738519,,9077.867462759696,10906.843150451044,150,2,2025-09-11,2025-09-26 15:09:57.982,HA,D,383254434,AMBUSH51,1,1,48,2,1,1,225,2,1,0,0,9,1,225,2,1,-160552.8679927732,-4791744.48016022,4196642.176188901,2.26626,2.99709,-0.101929,-123.004,14.8883,9.29338,-0.142364,-7.33828,6.70085,-0.0258358,-0.0037045,-0.0128695,4,0,41.38689217136761,-91.91904255844489,9361.745924710696,-81.41819645371477,-0.8830393483620907,-1.930884909251405,210.215,9077.867462759696,10906.843150451044,150,True,5.7118769453905305,False,167.50201058354875,170.56928069715852,False,21.921076709767696,True,False
2,1970-07-23 10:13:53.990236685,2025-09-11,2025-09-26 15:09:59.023,HA,D,3097265730,JASSM,3,135,76,2,2,1,225,9,2,0,1,26,0,0,0,0,-170753.6026628775,-4793391.632783736,4194667.545378208,-2.29541,0.0348981,-0.079767,91.375,3.125,7.25,0.0,0.0,0.0,0.0,0.0,0.0,2,0,41.36166763360431,-92.04016828498165,10000.001161126698,83.90310512956894,-0.0029450958944644,0.0057517299466276,,9077.867462759696,10906.843150451044,150,2,2025-09-11,2025-09-26 15:09:59.148,HA,D,384646266,AMBUSH51,1,1,48,2,1,1,225,2,1,0,0,9,1,225,2,1,-160697.78906688534,-4791727.386131391,4196652.774943331,2.25035,3.00055,-0.0992021,-123.387,14.3655,9.21626,-0.141531,-7.54088,6.68269,-0.00934499,-0.00234379,-0.00214613,4,0,41.3870365049497,-91.92078030873796,9354.633604018843,-81.66732204220787,-0.8386610111410617,-2.8186787409809906,210.814,9077.867462759696,10906.843150451044,150,True,5.587737201128799,False,167.7181340017257,170.18435794757207,False,22.086077329013975,True,False
2,1970-07-23 10:13:54.001274558,2025-09-11,2025-09-26 15:10:00.127,HA,D,3098578082,JASSM,3,135,76,2,2,1,225,9,2,0,1,26,0,0,0,0,-170653.10388358062,-4793388.125947799,4194675.588346958,-2.29541,0.0348981,-0.0796711,91.375,3.25,7.25,0.0,0.0,0.0,0.0,0.0,0.0,2,0,41.361764075837,-92.0389700273342,10000.00104158252,83.9080096316992,-0.0056821330671023,0.0057518350316969,,9077.867462759696,10906.843150451044,150,2,2025-09-11,2025-09-26 15:10:00.116,HA,D,385799498,AMBUSH51,1,1,48,2,1,1,225,2,1,0,0,9,1,225,2,1,-160817.2007238927,-4791713.790867632,4196661.35304335,2.24099,3.00536,-0.0991473,-123.698,13.7187,9.21027,-0.0686614,-7.44592,6.7095,-0.00248111,-0.00429123,0.00504856,4,0,41.38715145308579,-91.92221198562522,9349.65020950214,-81.85306842916901,-0.6351890969923801,-3.325533109070376,211.12,9077.867462759696,10906.843150451044,150,True,5.474178184247966,False,167.8884652045405,169.8932617976143,False,22.203951164889514,True,False
2,1970-07-23 10:13:54.011396626,2025-09-11,2025-09-26 15:10:01.139,HA,D,3099830778,JASSM,3,135,76,2,2,1,225,9,2,0,1,26,0,0,0,0,-170557.17321951812,-4793384.777314986,4194683.264128208,-2.29541,0.0348981,-0.0796711,91.375,3.25,7.25,0.0,0.0,0.0,0.0,0.0,0.0,2,0,41.36185611902322,-92.03782623302,9999.99938674936,83.90876546437116,-0.0048187362199547,0.0057522582215924,,9077.867462759696,10906.843150451044,150,2,2025-09-11,2025-09-26 15:10:01.114,HA,D,386992496,AMBUSH51,1,1,48,2,1,1,225,2,1,0,0,9,1,225,2,1,-160941.149421553,-4791700.310667478,4196670.063205575,2.22155,3.00898,-0.0963079,-124.059,13.0772,8.98435,-0.0861917,-7.52096,6.83418,-0.0183665,0.00673176,-0.00656532,4,0,41.38726568468071,-91.9236978116853,9345.618674163828,-82.11284842382145,-0.5882432763910165,-4.415799229910031,211.535,9077.867462759696,10906.843150451044,150,True,5.360907794279804,False,168.18370372217197,169.5275143116009,False,22.269304403604565,True,False
2,1970-07-23 10:13:54.023330791,2025-09-11,2025-09-26 15:10:02.333,HA,D,3101083478,JASSM,3,135,76,2,2,1,225,9,2,0,1,26,0,0,0,0,-170461.242311315,-4793381.427705611,4194690.939909458,-2.29541,0.0348981,-0.0796711,91.375,3.25,7.25,0.0,0.0,0.0,0.0,0.0,0.0,2,0,41.36194815669584,-92.0366824329828,10000.000068139569,83.90952130220997,-0.0039553368996675,0.0057526869918358,,9077.867462759696,10906.843150451044,150,2,2025-09-11,2025-09-26 15:10:02.515,HA,D,388662694,AMBUSH51,1,1,48,2,1,1,225,2,1,0,0,9,1,225,2,1,-161114.5648802802,-4791682.610091028,4196682.019143053,2.19649,3.01432,-0.0919904,-124.658,12.0375,8.51965,-0.0251549,-7.72314,6.92176,-0.0165293,-0.00166135,-0.0133418,4,0,41.38741702220612,-91.9257761610266,9342.344280685396,-82.50188582468463,-0.5233390038450133,-5.819285432085428,212.232,9077.867462759696,10906.843150451044,150,True,5.2229920795712115,False,168.68961060597667,169.03821553221007,False,22.243722395741475,True,False
2,1970-07-23 10:13:54.032455194,2025-09-11,2025-09-26 15:10:03.245,HA,D,3102336176,JASSM,3,135,76,2,2,1,225,9,2,0,1,26,0,0,0,0,-170365.3116472525,-4793378.077119674,4194698.614714146,-2.29541,0.0348981,-0.0796711,91.375,3.25,7.25,0.0,0.0,0.0,0.0,0.0,0.0,2,0,41.36204018215509,-92.03553863305191,10000.001011280923,83.9102771413639,-0.003091940167418,0.0057531151447763,,9077.867462759696,10906.843150451044,150,2,2025-09-11,2025-09-26 15:10:03.115,HA,D,389378494,AMBUSH51,1,1,48,2,1,1,225,2,1,0,0,9,1,225,2,1,-161190.26348058617,-4791675.466263376,4196687.089626731,2.18446,3.02024,-0.0901555,-124.883,11.218,8.49813,-0.0656026,-7.85653,7.0371,-0.0239071,-0.000991403,-0.0102292,4,0,41.38747860352443,-91.92668316258494,9342.031436693273,-82.80522126069833,-0.3404932498165002,-6.475393388771439,212.378,9077.867462759696,10906.843150451044,150,True,5.134200719372241,False,168.95190923389387,168.75630345617918,False,22.247919935465507,True,False
2,1970-07-23 10:13:54.042474259,2025-09-11,2025-09-26 15:10:04.247,HA,D,3103529222,JASSM,3,135,76,2,2,1,225,9,2,0,1,26,0,0,0,0,-170273.9503191275,-4793374.884736861,4194705.922331333,-2.29541,0.0348981,-0.0796711,91.375,3.25,7.25,0.0,0.0,0.0,0.0,0.0,0.0,2,0,41.36212781101705,-92.03444931179467,9999.999392292077,83.91099698152857,-0.0022696691872161,0.0057535202234238,,9077.867462759696,10906.843150451044,150,2,2025-09-11,2025-09-26 15:10:04.114,HA,D,390571492,AMBUSH51,1,1,48,2,1,1,225,2,1,0,0,9,1,225,2,1,-161315.41640847875,-4791665.073160904,4196694.730897083,2.15998,3.02912,-0.0855453,-125.266,9.76856,7.97698,-0.171844,-7.98451,7.15915,-0.0203534,-0.00191519,-0.00589745,4,0,41.38756696002609,-91.92818214714198,9343.399675193272,-83.34052358295283,-0.1355802375044917,-7.831019420639198,212.586,9077.867462759696,10906.843150451044,150,True,5.023038003905193,False,169.56858172306778,168.36158973685085,False,22.001039046309312,True,False
2,1970-07-23 10:13:54.052257235,2025-09-11,2025-09-26 15:10:05.225,HA,D,3104662618,JASSM,3,135,76,2,2,1,225,9,2,0,1,26,0,0,0,0,-170187.15417654935,-4793371.851533736,4194712.864714146,-2.29541,0.0348981,-0.0796711,91.375,3.25,7.25,0.0,0.0,0.0,0.0,0.0,0.0,2,0,41.36221105309349,-92.0334144196878,10000.000838286527,83.91168085524093,-0.0014884857930903,0.0057539064744268,,9077.867462759696,10906.843150451044,150,2,2025-09-11,2025-09-26 15:10:05.114,HA,D,391764492,AMBUSH51,1,1,48,2,1,1,225,2,1,0,0,9,1,225,2,1,-161440.6965357558,-4791655.877154324,4196702.215088138,2.13899,3.04268,-0.0791467,-125.523,8.30086,7.41976,-0.159532,-7.96052,7.05794,-0.024371,0.00753487,-0.0120186,4,0,41.38764709175733,-91.92968217308496,9347.390793611636,-84.1293169932218,0.2015729542640031,-8.970423146611056,212.659,9077.867462759696,10906.843150451044,150,True,4.91434008670039,False,170.1828683733764,167.96075138137184,False,21.75453530180188,True,False
2,1970-07-23 10:13:54.061393911,2025-09-11,2025-09-26 15:10:06.139,HA,D,3105796012,JASSM,3,135,76,2,2,1,225,9,2,0,1,26,0,0,0,0,-170100.359498815,-4793368.816377486,4194719.806120396,-2.29541,0.0349939,-0.0796711,91.375,3.25,7.25,0.0,0.0,0.0,0.0,0.0,0.0,2,0,41.36229429056544,-92.0323795432587,9999.999385887706,83.90873470624254,-0.0048069367814308,0.0061916584839111,,9077.867462759696,10906.843150451044,150,2,2025-09-11,2025-09-26 15:10:06.048,HA,D,392877956,AMBUSH51,1,1,48,2,1,1,225,2,1,0,0,9,1,225,2,1,-161557.00194008212,-4791648.703048475,4196708.577826626,2.12104,3.05432,-0.0750461,-125.724,7.06264,6.48282,-0.100742,-7.92184,7.04624,-0.0220928,0.0047011,-0.00693774,4,0,41.38770940692874,-91.93107419515503,9353.187040936433,-84.74706502343916,0.5452044016864926,-9.951034389246765,212.513,9077.867462759696,10906.843150451044,150,True,4.810169807437029,False,170.86191522710897,167.5723987155033,False,21.444535061750475,True,False
2,1970-07-23 10:13:54.071438985,2025-09-11,2025-09-26 15:10:07.143,HA,D,3106989058,JASSM,3,135,76,2,2,1,225,9,2,0,1,26,0,0,0,0,-170008.99670584625,-4793365.622041549,4194727.111784458,-2.29541,0.0349939,-0.0796711,91.375,3.25,7.25,0.0,0.0,0.0,0.0,0.0,0.0,2,0,41.36238188824567,-92.03129019686747,10000.001120757164,83.90945456663408,-0.0039846535158056,0.0061920087581228,,9077.867462759696,10906.843150451044,150,2,2025-09-11,2025-09-26 15:10:07.248,HA,D,394309556,AMBUSH51,1,1,48,2,1,1,225,2,1,0,0,9,1,225,2,1,-161708.5001509408,-4791641.325333948,4196715.964121216,2.10466,3.0716,-0.0649846,-125.865,4.99684,5.59268,-0.155336,-7.79686,7.05514,-0.0157948,0.00771797,-0.00948231,4,0,41.38777276501792,-91.9328866385242,9363.631082199076,-85.83407254410255,0.905077073722404,-10.834191696348189,212.244,9077.867462759696,10906.843150451044,150,False,4.6859388918991876,False,171.71633771370335,167.08559927146172,False,21.004494538018246,True,False
2,1970-07-23 10:13:54.081456859,2025-09-11,2025-09-26 15:10:08.145,HA,D,3108122452,JASSM,3,135,76,2,2,1,225,9,2,0,1,26,0,0,0,0,-169922.20202811187,-4793362.585908736,4194734.051237583,-2.29541,0.0349939,-0.0796711,91.375,3.25,7.25,0.0,0.0,0.0,0.0,0.0,0.0,2,0,41.36246509922479,-92.0302553154393,10000.001030145708,83.91013843672555,-0.003203484395754,0.0061923442297193,,9077.867462759696,10906.843150451044,150,2,2025-09-11,2025-09-26 15:10:08.115,HA,D,395343488,AMBUSH51,1,1,48,2,1,1,225,2,1,0,0,9,1,225,2,1,-161817.57659101457,-4791637.671959307,4196720.175982978,2.08961,3.08519,-0.0582954,-125.951,3.33174,4.77534,-0.141832,-7.97279,7.23762,-0.00460332,0.00897465,-0.012726,4,0,41.3878010322344,-91.93419090268311,9372.83847674522,-86.63657611576033,1.235526577939402,-11.663321676172009,212.109,9077.867462759696,10906.843150451044,150,False,4.585351929499283,False,172.4141283548058,166.69879277449937,False,20.616261886720395,True,False
2,1970-07-23 10:13:54.091498536,2025-09-11,2025-09-26 15:10:09.149,HA,D,3109315498,JASSM,3,135,76,2,2,1,225,9,2,0,1,26,0,0,0,0,-169830.83923514312,-4793359.388643111,4194741.354948521,-2.29541,0.0349939,-0.0796711,91.375,3.25,7.25,0.0,0.0,0.0,0.0,0.0,0.0,2,0,41.362552681015,-92.02916596459158,9999.999741425,83.91085830250896,-0.0023812016324779,0.0061926987221339,,9077.867462759696,10906.843150451044,150,2,2025-09-11,2025-09-26 15:10:09.114,HA,D,396536486,AMBUSH51,1,1,48,2,1,1,225,2,1,0,0,9,1,225,2,1,-161943.3121905556,-4791635.216614541,4196724.155549585,2.07791,3.10222,-0.0487136,-125.927,1.37146,3.67423,-0.0603836,-7.95319,7.10786,-0.0143613,0.00731849,-0.00839624,4,0,41.38781724333187,-91.93569365722664,9385.880340581563,-87.69368249695948,1.604689653020579,-12.308096215385072,211.511,9077.867462759696,10906.843150451044,150,False,4.473933246292184,False,173.24946090260892,166.2578897305645,False,20.10446105018922,True,False
2,1970-07-23 10:13:54.101258091,2025-09-11,2025-09-26 15:10:10.125,HA,D,3110508546,JASSM,3,135,76,2,2,1,225,9,2,0,1,26,0,0,0,0,-169739.47619803375,-4793356.190400924,4194748.658659458,-2.29541,0.0349939,-0.0795753,91.375,3.25,7.25,0.0,0.0,0.0,0.0,0.0,0.0,2,0,41.36264025834805,-92.0280766083212,10000.000346414974,83.91569082600726,-0.0052004969483496,0.0061928162056701,,9077.867462759696,10906.843150451044,150,2,2025-09-11,2025-09-26 15:10:10.114,HA,D,397729484,AMBUSH51,1,1,48,2,1,1,225,2,1,0,0,9,1,225,2,1,-162069.4871096308,-4791634.862531282,4196726.689145457,2.06424,3.11482,-0.0397057,-125.999,-0.671087,2.33331,-0.165386,-7.93993,7.22865,-0.00358799,0.0130963,-0.0234493,4,0,41.38781108675999,-91.93720080892298,9400.99957822944,-88.55928920507124,1.806430042754393,-13.085093637819169,211.059,9077.867462759696,10906.843150451044,150,False,4.362146378981901,False,174.14393703022242,165.8102797441955,False,19.495194163368637,True,False
2,1970-07-23 10:13:54.111295417,2025-09-11,2025-09-26 15:10:11.129,HA,D,3111761244,JASSM,3,135,76,2,2,1,225,9,2,0,1,26,0,0,0,0,-169643.54504569,-4793352.831025924,4194756.325651646,-2.29541,0.0349939,-0.0795753,91.375,3.25,7.25,0.0,0.0,0.0,0.0,0.0,0.0,2,0,41.36273219783314,-92.02693278204704,9999.998499698191,83.9164466929289,-0.0043370987970144,0.0061932507102496,,9077.867462759696,10906.843150451044,150,2,2025-09-11,2025-09-26 15:10:11.081,HA,D,398882718,AMBUSH51,1,1,48,2,1,1,225,2,1,0,0,9,1,225,2,1,-162190.11584563,-4791636.380293338,4196728.006105665,2.0527,3.1326,-0.0303878,-125.783,-2.6003,0.982631,-0.205943,-7.81378,7.17726,-0.00267252,0.00928882,-0.0175072,4,0,41.38778668012401,-91.93864095904492,9417.630930477071,-89.63436680506902,2.218975772947483,-13.747886781295223,210.643,9077.867462759696,10906.843150451044,150,False,4.250691703695049,False,174.94649832873267,165.3589272115757,False,18.923077503002677,True,False
2,1970-07-23 10:13:54.121445125,2025-09-11,2025-09-26 15:10:12.144,HA,D,3112954292,JASSM,3,135,76,2,2,1,225,9,2,0,1,26,0,0,0,0,-169552.18213065094,-4793349.631807174,4194763.627409458,-2.29541,0.0349939,-0.0795753,91.375,3.25,7.25,0.0,0.0,0.0,0.0,0.0,0.0,2,0,41.36281974661055,-92.02584342165976,10000.001329944198,83.91716656881654,-0.0035148157934422,0.0061936625058946,,9077.867462759696,10906.843150451044,150,2,2025-09-11,2025-09-26 15:10:12.214,HA,D,400234782,AMBUSH51,1,1,48,2,1,1,225,2,1,0,0,9,1,225,2,1,-162333.25536977343,-4791640.567813782,4196727.869773792,2.04696,-3.13188,-0.0150275,-125.525,-4.91671,-0.705071,-0.0251683,-8.00447,7.23752,0.0131733,0.00886021,-0.0250576,4,0,41.38773203068042,-91.94034888864658,9439.561068003632,-91.00506710861244,2.442402115159844,-14.10836902485799,210.118,9077.867462759696,10906.843150451044,150,False,4.130003101923555,False,175.78287173426605,164.85608500715136,False,18.176053833709027,True,False
2,1970-07-23 10:13:54.131457562,2025-09-11,2025-09-26 15:10:13.145,HA,D,3114087686,JASSM,3,135,76,2,2,1,225,9,2,0,1,26,0,0,0,0,-169465.38720877594,-4793346.590791549,4194770.562956333,-2.29541,0.0349939,-0.0795753,91.375,3.25,7.25,0.0,0.0,0.0,0.0,0.0,0.0,2,0,41.362902911290576,-92.024808525508,10000.001244536294,83.91785045457274,-0.0027336458395885,0.0061940564671836,,9077.867462759696,10906.843150451044,150,2,2025-09-11,2025-09-26 15:10:13.180,HA,D,401388014,AMBUSH51,1,1,48,2,1,1,225,2,1,0,0,9,1,225,2,1,-162453.43229806918,-4791646.020471292,4196726.534813582,2.14821,-3.11429,-9.49018e-07,-125.205,-6.68488,-1.71379,-0.305957,-7.89568,7.20413,0.14248,0.00249151,-0.0272319,4,0,41.38766636898701,-91.94178204106584,9460.098717366502,-92.31958151438424,2.6297060731219224,-8.357433690915949,209.458,9077.867462759696,10906.843150451044,150,True,4.023285653058317,False,176.11373707264696,164.40580501442614,False,17.77649502181913,True,False
2,1970-07-23 10:13:54.151275787,2025-09-11,2025-09-26 15:10:15.127,HA,D,3116533432,JASSM,3,135,76,2,2,1,225,9,2,0,1,26,0,0,0,0,-169278.0927751822,-4793340.025361861,4194785.525846958,-2.29541,0.0350898,-0.0795753,91.375,3.25,7.25,0.0,0.0,0.0,0.0,0.0,0.0,2,0,41.36308233725672,-92.02257531940356,9999.99922726342,83.91569614518642,-0.0051475881970199,0.0066317597903747,,9077.867462759696,10906.843150451044,150,2,2025-09-11,2025-09-26 15:10:15.014,HA,D,403575178,AMBUSH51,1,1,48,2,1,1,225,2,1,0,0,9,1,225,2,1,-162683.1513372976,-4791659.5849101385,4196722.501443274,2.34165,-3.10511,0.000624121,-124.592,-8.03753,-1.75306,-0.170757,-7.49897,6.68815,0.107836,-0.0055167,-0.0117481,4,0,41.38751211992481,-91.94452023215588,9503.892065307024,-92.69678512935236,3.0022048848093266,2.706934965820455,208.297,9077.867462759696,10906.843150451044,150,True,3.808374183026135,False,175.92125235711342,163.45013776536177,False,18.354198677292832,True,False
2,1970-07-23 10:13:54.151399012,2025-09-11,2025-09-26 15:10:15.139,HA,D,3115280730,JASSM,3,135,76,2,2,1,225,9,2,0,1,26,0,0,0,0,-169374.02429373687,-4793343.388643111,4194777.862761021,-2.29541,0.0349939,-0.0795753,91.375,3.25,7.25,0.0,0.0,0.0,0.0,0.0,0.0,2,0,41.36299044417769,-92.02371916066409,10000.001051182966,83.91857033585279,-0.0019113633365426,0.0061944724810003,,9077.867462759696,10906.843150451044,150,2,2025-09-11,2025-09-26 15:10:15.014,HA,D,403575178,AMBUSH51,1,1,48,2,1,1,225,2,1,0,0,9,1,225,2,1,-162683.1513372976,-4791659.5849101385,4196722.501443274,2.34165,-3.10511,0.000624121,-124.592,-8.03753,-1.75306,-0.170757,-7.49897,6.68815,0.107836,-0.0055167,-0.0117481,4,0,41.38751211992481,-91.94452023215588,9503.892065307024,-92.69678512935236,3.0022048848093266,2.706934965820455,208.297,9077.867462759696,10906.843150451044,150,True,3.8580707136134755,False,175.92125235711342,163.6693756183156,False,18.140118519724545,True,False
2,1970-07-23 10:13:54.163276733,2025-09-11,2025-09-26 15:10:16.327,HA,D,3117905432,JASSM,3,135,76,2,2,1,225,9,2,0,1,26,0,0,0,0,-169173.0253923697,-4793336.340791549,4194793.918425083,-2.29541,0.0350898,-0.0795753,91.375,3.25,7.25,0.0,0.0,0.0,0.0,0.0,0.0,2,0,41.36318297251809,-92.02132254322032,9999.999624129685,83.91652401606576,-0.0042019639593287,0.0066321758973167,,9077.867462759696,10906.843150451044,150,2,2025-09-11,2025-09-26 15:10:16.314,HA,D,405126078,AMBUSH51,1,1,48,2,1,1,225,2,1,0,0,9,1,225,2,1,-162843.28310925938,-4791669.16493247,4196719.871672483,2.41495,-3.12506,-0.00366085,-123.914,-6.59496,-1.78544,-0.0742548,-5.90303,5.27334,0.0544232,-0.0148627,0.0131483,4,0,41.38740504509892,-91.94642889616502,9535.136202816628,-91.75671674209464,2.3094344362143304,6.949177364025732,207.087,9077.867462759696,10906.843150451044,150,True,3.6724285257897598,False,176.15607342788994,162.78074064802826,False,19.38067886809813,True,False
2,1970-07-23 10:13:54.185456010,2025-09-11,2025-09-26 15:10:18.545,HA,D,3120530136,JASSM,3,135,76,2,2,1,225,9,2,0,1,26,0,0,0,0,-168972.0263689322,-4793329.288057174,4194809.971159458,-2.29541,0.0350898,-0.0795753,91.375,3.25,7.25,0.0,0.0,0.0,0.0,0.0,0.0,2,0,41.363375460200686,-92.01892591225018,10000.00071881874,83.91810778402306,-0.0023929394199567,0.0066329774153555,,9077.867462759696,10906.843150451044,150,2,2025-09-11,2025-09-26 15:10:18.714,HA,D,407989274,AMBUSH51,1,1,48,2,1,1,225,2,1,0,0,9,1,225,2,1,-163140.56772418733,-4791678.54485853,4196713.830554239,2.46826,3.1199,-0.0112216,-123.437,-1.90937,-1.79163,-0.256047,-6.60122,6.04361,0.00203586,-0.0213604,0.0169371,4,0,41.38724833712816,-91.94997571689244,9569.984283481555,-89.98489686624146,0.955368060752246,10.03772708666174,206.195,9077.867462759696,10906.843150451044,150,False,3.419430953853141,False,176.1234760005584,161.33583526797796,False,22.161382455434904,True,False
2,1970-07-23 10:13:54.186434297,2025-09-11,2025-09-26 15:10:18.643,HA,D,3119158132,JASSM,3,135,76,2,2,1,225,9,2,0,1,26,0,0,0,0,-169077.0939958853,-4793332.975557174,4194801.580534458,-2.29541,0.0350898,-0.0795753,91.375,3.25,7.25,0.0,0.0,0.0,0.0,0.0,0.0,2,0,41.36327484676028,-92.02017869749778,10000.00086222042,83.91727990398176,-0.003338565332746,0.006632557293828,,9077.867462759696,10906.843150451044,150,2,2025-09-11,2025-09-26 15:10:18.714,HA,D,407989274,AMBUSH51,1,1,48,2,1,1,225,2,1,0,0,9,1,225,2,1,-163140.56772418733,-4791678.54485853,4196713.830554239,2.46826,3.1199,-0.0112216,-123.437,-1.90937,-1.79163,-0.256047,-6.60122,6.04361,0.00203586,-0.0213604,0.0169371,4,0,41.38724833712816,-91.94997571689244,9569.984283481555,-89.98489686624146,0.955368060752246,10.03772708666174,206.195,9077.867462759696,10906.843150451044,150,False,3.473238857591672,False,176.1234760005584,161.6355060734419,False,21.862837471015517,True,False
2,1970-07-23 10:13:54.206276768,2025-09-11,2025-09-26 15:10:20.627,HA,D,3123095184,JASSM,3,135,76,2,2,1,225,9,2,0,1,26,0,0,0,0,-168775.5953996939,-4793322.391572799,4194825.653776646,-2.29541,0.0350898,-0.0794794,91.375,3.25,7.25,0.0,0.0,0.0,0.0,0.0,0.0,2,0,41.36356351328639,-92.01658373696227,10000.000579471733,83.92376819670369,-0.0042666428864281,0.0066335734259419,,9077.867462759696,10906.843150451044,150,2,2025-09-11,2025-09-26 15:10:20.582,HA,D,410216206,AMBUSH51,1,1,48,2,1,1,225,2,1,0,0,9,1,225,2,1,-163370.79148812813,-4791677.69092671,4196709.618616161,2.4766,3.07894,0.000610517,-123.423,2.99267,-2.75585,-0.121266,-5.86624,5.12301,0.0408265,-0.012547,-0.00151155,4,0,41.38717832935509,-91.9527257389932,9578.043754272432,-88.94391493879932,-1.2510881698472085,10.500336484855405,206.341,9077.867462759696,10906.843150451044,150,False,3.205762866732059,False,175.27783264259847,159.87323650585128,False,24.84772892537932,True,False
2,1970-07-23 10:13:54.214813846,2025-09-11,2025-09-26 15:10:21.481,HA,D,3121782834,JASSM,3,135,76,2,2,1,225,9,2,0,1,26,0,0,0,0,-168876.0949724478,-4793325.920869674,4194817.630339146,-2.29541,0.0350898,-0.0794794,91.375,3.25,7.25,0.0,0.0,0.0,0.0,0.0,0.0,2,0,41.36346730243884,-92.0177820606092,10000.000773756994,83.92297630363905,-0.0051711544612989,0.0066331101683031,,9077.867462759696,10906.843150451044,150,2,2025-09-11,2025-09-26 15:10:21.313,HA,D,411091070,AMBUSH51,1,1,48,2,1,1,225,2,1,0,0,9,1,225,2,1,-163461.36919484733,-4791674.980679805,4196707.595012338,2.49617,3.06977,0.00208694,-123.583,4.38662,-2.53057,-0.251289,-6.46596,5.75986,0.0261208,-0.00726232,0.0121309,4,0,41.38716241264941,-91.95380865456748,9574.586279673113,-88.6603515874992,-1.7005182371173144,11.61532843740082,206.586,9077.867462759696,10906.843150451044,150,False,3.212558510051823,False,174.72581986811878,159.83766535757138,False,25.417642845451798,True,False
2,1970-07-23 10:13:54.240059497,2025-09-11,2025-09-26 15:10:24.005,HA,D,3127032240,JASSM,3,135,76,2,2,1,225,9,2,0,1,26,0,0,0,0,-168474.09619315094,-4793311.795869674,4194849.718229771,-2.29541,0.0351857,-0.0794794,91.375,3.25,7.25,0.0,0.0,0.0,0.0,0.0,0.0,2,0,41.36385207791235,-92.01298874229704,9999.999375321717,83.92251390976116,-0.0056525744427705,0.0070713159509122,,9077.867462759696,10906.843150451044,150,2,2025-09-11,2025-09-26 15:10:24.014,HA,D,414312168,AMBUSH51,1,1,48,2,1,1,225,2,1,0,0,9,1,225,2,1,-163796.0245132571,-4791654.481243146,4196703.503091452,2.48286,3.02262,-0.0227146,-124.204,10.2144,-0.365237,-0.0779407,-6.91028,6.15931,-0.0464004,-0.00700432,0.024912,4,0,41.38718872857128,-91.95781395681992,9543.39434707627,-85.80712684567739,-2.7809571487646685,10.713147046238502,208.614,9077.867462759696,10906.843150451044,150,False,2.851992787171555,False,171.97708478237192,156.6979129105248,False,31.193975688447498,False,False
2,1970-07-23 10:13:54.240171961,2025-09-11,2025-09-26 15:10:24.017,HA,D,3124407536,JASSM,3,135,76,2,2,1,225,9,2,0,1,26,0,0,0,0,-168675.09564383453,-4793318.860322799,4194833.676237583,-2.29541,0.0350898,-0.0794794,91.375,3.25,7.25,0.0,0.0,0.0,0.0,0.0,0.0,2,0,41.36365971670538,-92.01538540842031,9999.998670718722,83.92456009452032,-0.0033621297732914,0.0066340415500695,,9077.867462759696,10906.843150451044,150,2,2025-09-11,2025-09-26 15:10:24.014,HA,D,414312168,AMBUSH51,1,1,48,2,1,1,225,2,1,0,0,9,1,225,2,1,-163796.0245132571,-4791654.481243146,4196703.503091452,2.48286,3.02262,-0.0227146,-124.204,10.2144,-0.365237,-0.0779407,-6.91028,6.15931,-0.0464004,-0.00700432,0.024912,4,0,41.38718872857128,-91.95781395681992,9543.39434707627,-85.80712684567739,-2.7809571487646685,10.713147046238502,208.614,9077.867462759696,10906.843150451044,150,False,2.952001617613559,False,171.97708478237192,157.53179007675237,False,30.361343669607813,False,False
2,1970-07-23 10:13:54.240954675,2025-09-11,2025-09-26 15:10:24.095,HA,D,3125779540,JASSM,3,135,76,2,2,1,225,9,2,0,1,26,0,0,0,0,-168570.02783377594,-4793315.168916549,4194842.061979771,-2.29541,0.0350898,-0.0794794,91.375,3.25,7.25,0.0,0.0,0.0,0.0,0.0,0.0,2,0,41.36376026823411,-92.01413260786735,10000.000162374872,83.9253879909883,-0.0024165045804814,0.0066345196348766,,9077.867462759696,10906.843150451044,150,2,2025-09-11,2025-09-26 15:10:24.048,HA,D,414351934,AMBUSH51,1,1,48,2,1,1,225,2,1,0,0,9,1,225,2,1,-163798.92311076628,-4791654.236882314,4196703.492251315,2.48187,3.02214,-0.0231825,-124.215,10.3984,-0.42824,-0.108035,-6.99548,6.21989,-0.0515249,-0.00759105,0.0233099,4,0,41.387189519295006,-91.9578486758532,9543.01344988396,-85.76883725977936,-2.7836977396383973,10.6541453773234,208.651,9077.867462759696,10906.843150451044,150,False,2.8983033540565346,False,171.92226839345074,157.08722712255712,False,30.84824393537406,False,False
2,1970-07-23 10:13:54.254213919,2025-09-11,2025-09-26 15:10:25.421,HA,D,3128344590,JASSM,3,135,76,2,2,1,225,9,2,0,1,26,0,0,0,0,-168373.59649832672,-4793308.262666549,4194857.737761021,-2.29541,0.0351857,-0.0794794,91.375,3.25,7.25,0.0,0.0,0.0,0.0,0.0,0.0,2,0,41.3639482357002,-92.01179040471683,10000.0019886655,83.92330581807454,-0.0047480633706806,0.007071718603371,,9077.867462759696,10906.843150451044,150,2,2025-09-11,2025-09-26 15:10:25.414,HA,D,415982366,AMBUSH51,1,1,48,2,1,1,225,2,1,0,0,9,1,225,2,1,-163969.7362962214,-4791638.574326134,4196703.838866824,2.45534,3.00517,-0.0304634,-124.496,12.6453,0.552438,-0.120746,-6.70422,5.90938,-0.00940949,-0.000710523,0.00143873,4,0,41.38725025932785,-91.95989517421224,9519.60675108362,-84.8117542750822,-3.232270367996701,9.057547371267626,209.983,9077.867462759696,10906.843150451044,150,True,2.7232275907532726,False,170.82366366859483,155.2072262770788,False,33.78488630029597,False,False
2,1970-07-23 10:13:54.262097014,2025-09-11,2025-09-26 15:10:26.209,HA,D,3129597290,JASSM,3,135,76,2,2,1,225,9,2,0,1,26,0,0,0,0,-168277.66470511383,-4793304.887666549,4194865.391081333,-2.29541,0.0351857,-0.0794794,91.375,3.25,7.25,0.0,0.0,0.0,0.0,0.0,0.0,2,0,41.3640400139472,-92.01064653156108,9999.999778528185,83.92406173558105,-0.0038846645216147,0.0070721056293968,,9077.867462759696,10906.843150451044,150,2,2025-09-11,2025-09-26 15:10:26.147,HA,D,416857232,AMBUSH51,1,1,48,2,1,1,225,2,1,0,0,9,1,225,2,1,-164061.12979351578,-4791628.826768504,4196704.375445109,2.43263,2.9963,-0.0347353,-124.761,13.9786,0.819899,-0.216697,-6.8378,6.1553,-0.0464462,-0.00574556,0.0123806,4,0,41.387293245349866,-91.96099071457196,9504.487181838453,-84.29113927437102,-3.44838199803761,7.709776097025626,210.289,9077.867462759696,10906.843150451044,150,True,2.6356430887577735,False,170.25249240344738,154.13373499444955,False,35.38421293372234,False,False
2,1970-07-23 10:13:54.286232627,2025-09-11,2025-09-26 15:10:28.623,HA,D,3130909640,JASSM,3,135,76,2,2,1,225,9,2,0,1,26,0,0,0,0,-168177.1650102896,-4793301.351533736,4194873.408659458,-2.29541,0.0351857,-0.0794794,91.375,3.25,7.25,0.0,0.0,0.0,0.0,0.0,0.0,2,0,41.36413615156384,-92.00944818831394,10000.00116028643,83.92485365060146,-0.0029801539491735,0.0070725124837992,,9077.867462759696,10906.843150451044,150,2,2025-09-11,2025-09-26 15:10:28.648,HA,D,419839728,AMBUSH51,1,1,48,2,1,1,225,2,1,0,0,9,1,225,2,1,-164373.11618543562,-4791589.223818895,4196709.099558988,2.56259,2.97636,-0.0444477,-125.681,17.6087,2.89188,-0.263995,-7.06498,6.18849,0.132277,0.00614712,0.0188138,4,0,41.387497069244255,-91.96473313315576,9443.61344408686,-83.11625132704266,-3.9269033563955738,15.035106420942917,212.965,9077.867462759696,10906.843150451044,150,False,2.4533984721826885,False,168.4163830605476,151.24292931279257,False,40.08565492845682,False,False
2,1970-07-23 10:13:54.299421642,2025-09-11,2025-09-26 15:10:29.942,HA,D,3133534342,JASSM,3,135,76,2,2,1,225,9,2,0,1,26,0,0,0,0,-167976.1651476187,-4793294.275361861,4194889.439909458,-2.29541,0.0351857,-0.0794794,91.375,3.25,7.25,0.0,0.0,0.0,0.0,0.0,0.0,2,0,41.364328386289344,-92.00705148722722,10000.001476095847,83.9264374948317,-0.0011711301809822,0.0070733226804576,,9077.867462759696,10906.843150451044,150,2,2025-09-11,2025-09-26 15:10:29.981,HA,D,421430394,AMBUSH51,1,1,48,2,1,1,225,2,1,0,0,9,1,225,2,1,-164540.5481602603,-4791562.884739733,4196714.477993607,2.70808,2.94669,-0.0703068,-125.724,21.466,5.37005,-0.305497,-7.41521,6.4973,-0.00216278,0.0134646,0.0175966,4,0,41.38765584550677,-91.9667436601822,9404.622137481692,-80.87577269157399,-4.198457835974766,23.11474829289188,214.517,9077.867462759696,10906.843150451044,150,False,2.292086426892732,False,166.3795735330912,148.43911096582772,False,44.910078917526,False,False
2,1970-07-23 10:13:54.307075142,2025-09-11,2025-09-26 15:10:30.707,HA,D,3132221990,JASSM,3,135,76,2,2,1,225,9,2,0,1,26,0,0,0,0,-168076.66510184234,-4793297.813447799,4194881.424284458,-2.29541,0.0351857,-0.0794794,91.375,3.25,7.25,0.0,0.0,0.0,0.0,0.0,0.0,2,0,41.36423227516173,-92.00824983980722,9999.99870766302,83.92564557061307,-0.0020756422619305,0.0070729176228172,,9077.867462759696,10906.843150451044,150,2,2025-09-11,2025-09-26 15:10:30.581,HA,D,422146192,AMBUSH51,1,1,48,2,1,1,225,2,1,0,0,9,1,225,2,1,-164616.0975645058,-4791549.405672727,4196718.096279671,2.71038,2.93026,-0.0827118,-125.735,23.2919,6.88796,-0.299788,-7.56609,6.73754,0.0107265,0.00259138,0.0416691,4,0,41.38774500323847,-91.96765151898305,9385.695612272428,-79.71606055577632,-4.417517409940829,23.087211025232296,215.299,9077.867462759696,10906.843150451044,150,False,2.309235880382086,False,165.34364888172746,148.415632389127,False,45.98641428590664,False,False
2,1970-07-23 10:13:54.307491156,2025-09-11,2025-09-26 15:10:30.749,HA,D,3134846692,JASSM,3,135,76,2,2,1,225,9,2,0,1,26,0,0,0,0,-167875.66520102447,-4793290.735322799,4194897.453581333,-2.29541,0.0351857,-0.0793835,91.375,3.25,7.25,0.0,0.0,0.0,0.0,0.0,0.0,2,0,41.364424483351975,-92.00585313202916,10000.00042925624,83.93134201919135,-0.0039082627320699,0.0070735763535764,,9077.867462759696,10906.843150451044,150,2,2025-09-11,2025-09-26 15:10:30.847,HA,D,422464326,AMBUSH51,1,1,48,2,1,1,225,2,1,0,0,9,1,225,2,1,-164650.46084724643,-4791542.869915151,4196720.062395019,2.71704,2.92213,-0.0894619,-125.68,24.3362,7.54783,-0.147662,-7.63512,6.57709,0.0234597,0.00927841,0.034387,4,0,41.38779012470178,-91.968064621714,9376.786884773112,-79.11652905584205,-4.5003420981376125,23.38200717100506,215.678,9077.867462759696,10906.843150451044,150,False,2.2047895214665836,False,164.7965609268251,146.5841716538688,False,48.356127288636515,False,False
2,1970-07-23 10:13:54.323475064,2025-09-11,2025-09-26 15:10:32.347,HA,D,3137053828,JASSM,3,135,76,2,2,1,225,9,2,0,1,26,0,0,0,0,-167706.6424196524,-4793284.779268111,4194910.929167271,-2.29541,0.0352816,-0.0793835,91.375,3.25,7.25,0.0,0.0,0.0,0.0,0.0,0.0,2,0,41.3645860738158,-92.00383770778284,10000.000415433067,83.92904371520395,-0.0064866703519775,0.0075102559467539,,9077.867462759696,10906.843150451044,150,2,2025-09-11,2025-09-26 15:10:32.481,HA,D,424412890,AMBUSH51,1,1,48,2,1,1,225,2,1,0,0,9,1,225,2,1,-164854.70809027457,-4791498.993799279,4196736.736649523,2.71389,2.89327,-0.134183,-125.236,28.875,13.3219,-0.270663,-9.03211,8.04297,-0.037614,0.0347074,0.0178213,4,0,41.388121874864666,-91.970522092497,9322.296849655448,-76.11057700732336,-3.979232594014491,22.794769032978355,218.244,9077.867462759696,10906.843150451044,150,False,2.060312275859979,False,161.71912561285902,142.78592364190632,False,55.34545114112046,False,False
2,1970-07-23 10:13:54.326216294,2025-09-11,2025-09-26 15:10:32.621,HA,D,3135920434,JASSM,3,135,76,2,2,1,225,9,2,0,1,26,0,0,0,0,-167793.439451055,-4793287.837861861,4194904.010221958,-2.29541,0.0351857,-0.0793835,91.375,3.25,7.25,0.0,0.0,0.0,0.0,0.0,0.0,2,0,41.36450310496322,-92.00487267507526,10000.000964892017,83.931989950715,-0.0031682210082615,0.0070739670065639,,9077.867462759696,10906.843150451044,150,2,2025-09-11,2025-09-26 15:10:32.481,HA,D,424412890,AMBUSH51,1,1,48,2,1,1,225,2,1,0,0,9,1,225,2,1,-164854.70809027457,-4791498.993799279,4196736.736649523,2.71389,2.89327,-0.134183,-125.236,28.875,13.3219,-0.270663,-9.03211,8.04297,-0.037614,0.0347074,0.0178213,4,0,41.388121874864666,-91.970522092497,9322.296849655448,-76.11057700732336,-3.979232594014491,22.794769032978355,218.244,9077.867462759696,10906.843150451044,150,False,2.09785349375801,False,161.71912561285902,143.5604444429643,False,54.572175040360776,False,False
2,1970-07-23 10:13:54.342331718,2025-09-11,2025-09-26 15:10:34.233,HA,D,3139320618,JASSM,3,135,76,2,2,1,225,9,2,0,1,26,0,0,0,0,-167533.05130179352,-4793278.658174361,4194924.767057896,-2.29541,0.0352816,-0.0793835,91.375,3.25,7.25,0.0,0.0,0.0,0.0,0.0,0.0,2,0,41.36475200620071,-92.00176780210056,10000.00164908719,83.93041161062553,-0.0049243309241717,0.0075109778766444,,9077.867462759696,10906.843150451044,150,2,2025-09-11,2025-09-26 15:10:34.214,HA,D,426480754,AMBUSH51,1,1,48,2,1,1,225,2,1,0,0,9,1,225,2,1,-165071.2525416666,-4791446.738699444,4196767.190631521,2.62122,2.87261,-0.205073,-123.748,30.8321,21.8404,-0.182572,-9.73396,8.07282,-0.102776,0.0229854,0.035471,4,0,41.388593927926046,-91.97312992336354,9278.149823434052,-72.337445828613,-2.066796667786795,17.0860799658753,219.686,9077.867462759696,10906.843150451044,150,False,1.9259873402909182,False,158.59605066177704,138.07669953460612,False,63.32245000430371,False,False
2,1970-07-23 10:13:54.352473149,2025-09-11,2025-09-26 15:10:35.247,HA,D,3140454012,JASSM,3,135,76,2,2,1,225,9,2,0,1,26,0,0,0,0,-167446.2557085318,-4793275.596650924,4194931.684050083,-2.29541,0.0352816,-0.0793835,91.375,3.25,7.25,0.0,0.0,0.0,0.0,0.0,0.0,2,0,41.36483495104959,-92.0007328453138,10000.001470901463,83.93109556263873,-0.0041431620059434,0.0075113314490472,,9077.867462759696,10906.843150451044,150,2,2025-09-11,2025-09-26 15:10:35.281,HA,D,427753286,AMBUSH51,1,1,48,2,1,1,225,2,1,0,0,9,1,225,2,1,-165202.57812242708,-4791413.615375742,4196792.528351727,2.43604,2.86373,-0.234649,-122.792,30.7672,25.5361,-0.027413,-9.2247,7.65393,-0.233073,0.0190884,0.0175196,4,0,41.38893507960743,-91.97471208258494,9262.76389556347,-70.7623376030179,-1.2680756960447257,6.318952138085341,219.576,9077.867462759696,10906.843150451044,150,True,1.861159775188792,False,157.4003797784554,135.05904421526787,False,67.53259464864122,False,False
2,1970-07-23 10:13:54.362411166,2025-09-11,2025-09-26 15:10:36.241,HA,D,3138127582,JASSM,3,135,76,2,2,1,225,9,2,0,1,26,0,0,0,0,-167624.414186315,-4793281.879854049,4194917.484831333,-2.29541,0.0352816,-0.0793835,91.375,3.25,7.25,0.0,0.0,0.0,0.0,0.0,0.0,2,0,41.3646646837834,-92.00285721714548,10000.001003382406,83.92969167104958,-0.0057466065231896,0.007510602856047,,9077.867462759696,10906.843150451044,150,2,2025-09-11,2025-09-26 15:10:36.348,HA,D,429025818,AMBUSH51,1,1,48,2,1,1,225,2,1,0,0,9,1,225,2,1,-165332.46507583902,-4791381.327654464,4196820.534938533,2.11904,2.87672,-0.245706,-122.642,29.0638,26.8746,-0.0809844,-9.17617,7.53301,-0.34295,0.0193984,-0.00872914,4,0,41.38928955644901,-91.9762767335033,9255.110419679108,-70.79592091168031,-0.3061158832384932,-11.666073612239316,219.344,9077.867462759696,10906.843150451044,150,False,1.9014917439205279,False,157.45889006421558,135.05580190261185,False,67.44031421361471,False,False
2,1970-07-23 10:13:54.363551271,2025-09-11,2025-09-26 15:10:36.355,HA,D,3141587406,JASSM,3,135,76,2,2,1,225,9,2,0,1,26,0,0,0,0,-167359.46005423492,-4793272.534150924,4194938.600065708,-2.29541,0.0352816,-0.0793835,91.375,3.25,7.25,0.0,0.0,0.0,0.0,0.0,0.0,2,0,41.36491788581087,-91.99969788557716,10000.0006641402,83.93177951773065,-0.0033619929414567,0.0075116841859906,,9077.867462759696,10906.843150451044,150,2,2025-09-11,2025-09-26 15:10:36.348,HA,D,429025818,AMBUSH51,1,1,48,2,1,1,225,2,1,0,0,9,1,225,2,1,-165332.46507583902,-4791381.327654464,4196820.534938533,2.11904,2.87672,-0.245706,-122.642,29.0638,26.8746,-0.0809844,-9.17617,7.53301,-0.34295,0.0193984,-0.00872914,4,0,41.38928955644901,-91.9762767335033,9255.110419679108,-70.79592091168031,-0.3061158832384932,-11.666073612239316,219.344,9077.867462759696,10906.843150451044,150,False,1.8029600756666735,False,157.45889006421558,131.84153509880764,False,70.65306987870899,False,False
2,1970-07-23 10:13:54.373352242,2025-09-11,2025-09-26 15:10:37.335,HA,D,3142780452,JASSM,3,135,76,2,2,1,225,9,2,0,1,26,0,0,0,0,-167268.09631522125,-4793269.308564986,4194945.880339146,-2.29541,0.0352816,-0.0793835,91.375,3.25,7.25,0.0,0.0,0.0,0.0,0.0,0.0,2,0,41.36500518852024,-91.99860845351346,9999.99991177637,83.93249947218173,-0.0025397099022143,0.007512068558853,,9077.867462759696,10906.843150451044,150,2,2025-09-11,2025-09-26 15:10:37.381,HA,D,430258584,AMBUSH51,1,1,48,2,1,1,225,2,1,0,0,9,1,225,2,1,-165460.43903056302,-4791352.663779382,4196847.657946093,1.84299,2.91122,-0.23204,-123.571,25.4624,25.134,-0.210189,-9.83236,8.23364,-0.175179,0.0375911,-0.0349613,4,0,41.38961688786509,-91.9778170591435,9254.30173819102,-72.6770480055673,0.570898211343443,-27.01890703626212,219.014,9077.867462759696,10906.843150451044,150,False,1.748491382044757,False,159.14461534618582,128.41826115261074,False,72.34550025911066,False,False
2,1970-07-23 10:13:54.389971120,2025-09-11,2025-09-26 15:10:38.997,HA,D,3143854194,JASSM,3,135,76,2,2,1,225,9,2,0,1,26,0,0,0,0,-167185.8688371939,-4793266.406221236,4194952.431120396,-2.29541,0.0352816,-0.0793835,91.375,3.25,7.25,0.0,0.0,0.0,0.0,0.0,0.0,2,0,41.36508373820584,-91.9976279605336,10000.001423192569,83.93314743498239,-0.0017996554318172,0.0075124004754256,,9077.867462759696,10906.843150451044,150,2,2025-09-11,2025-09-26 15:10:38.980,HA,D,432167382,AMBUSH51,1,1,48,2,1,1,225,2,1,0,0,9,1,225,2,1,-165659.28516071007,-4791319.710810844,4196882.759424962,1.63542,2.99465,-0.178383,-125.899,15.6971,18.5366,-0.109588,-10.5628,8.95433,-0.128365,0.0455931,-0.0218889,4,0,41.390009007852896,-91.98020566624324,9266.285078348868,-78.09963816546578,1.9784323728907312,-38.05769572480414,217.23,9077.867462759696,10906.843150451044,150,False,1.688807983707332,False,164.2460126948551,123.73020976863506,False,71.7713383614497,False,False
2,1970-07-23 10:13:54.390413590,2025-09-11,2025-09-26 15:10:39.041,HA,D,3144987588,JASSM,3,135,76,2,2,1,225,9,2,0,1,26,0,0,0,0,-167099.07312186187,-4793263.340791549,4194959.345182896,-2.29541,0.0352816,-0.0793835,91.375,3.25,7.25,0.0,0.0,0.0,0.0,0.0,0.0,2,0,41.36516664927497,-91.996592993405,10000.000858559906,83.93383139834626,-0.0010184863206904,0.007512757355664,,9077.867462759696,10906.843150451044,150,2,2025-09-11,2025-09-26 15:10:38.980,HA,D,432167382,AMBUSH51,1,1,48,2,1,1,225,2,1,0,0,9,1,225,2,1,-165659.28516071007,-4791319.710810844,4196882.759424962,1.63542,2.99465,-0.178383,-125.899,15.6971,18.5366,-0.109588,-10.5628,8.95433,-0.128365,0.0455931,-0.0218889,4,0,41.390009007852896,-91.98020566624324,9266.285078348868,-78.09963816546578,1.9784323728907312,-38.05769572480414,217.23,9077.867462759696,10906.843150451044,150,False,1.6632079694149642,False,164.2460126948551,122.38672457621475,False,73.11278494463474,False,False
2,1970-07-23 10:13:54.405776838,2025-09-11,2025-09-26 15:10:40.577,HA,D,3146120982,JASSM,3,135,76,2,2,1,225,9,2,0,1,26,0,0,0,0,-167012.2773454947,-4793260.274385299,4194966.259245396,-2.29541,0.0352816,-0.0792876,91.375,3.25,7.25,0.0,0.0,0.0,0.0,0.0,0.0,2,0,41.3652495568525,-91.99555802332668,10000.001782711204,83.93862793375664,-0.0038789916758422,0.0075129722297552,,9077.867462759696,10906.843150451044,150,2,2025-09-11,2025-09-26 15:10:40.414,HA,D,433877348,AMBUSH51,1,1,48,2,1,1,225,2,1,0,0,9,1,225,2,1,-165840.84472656698,-4791303.486868787,4196903.59255,1.51725,3.05655,-0.104395,-127.194,7.41441,9.51425,-0.270278,-9.75869,8.33733,-0.0723953,0.0401919,-0.0648012,4,0,41.39020880662625,-91.98238091223132,9287.018005522674,-83.6044810615577,1.7921658543648296,-44.50904917567048,215.433,9077.867462759696,10906.843150451044,150,False,1.6108273070132202,False,169.6884063880792,117.66764844591567,False,72.3284393686588,False,False
2,1970-07-23 10:13:54.414158465,2025-09-11,2025-09-26 15:10:41.415,HA,D,3147194724,JASSM,3,135,76,2,2,1,225,9,2,0,1,26,0,0,0,0,-166930.0498064322,-4793257.368135299,4194972.807096958,-2.29541,0.0352816,-0.0792876,91.375,3.25,7.25,0.0,0.0,0.0,0.0,0.0,0.0,2,0,41.36532808398822,-91.99457752390762,9999.998206099352,83.93927590393986,-0.0031389375684958,0.0075133606616293,,9077.867462759696,10906.843150451044,150,2,2025-09-11,2025-09-26 15:10:41.413,HA,D,435070346,AMBUSH51,1,1,48,2,1,1,225,2,1,0,0,9,1,225,2,1,-165969.1228456271,-4791298.873074607,4196910.119503781,1.47751,3.09206,-0.0532695,-127.511,2.28249,2.60761,-0.131268,-9.11466,7.56658,-0.0228647,0.0240132,-0.0465044,4,0,41.39025389969011,-91.9839149705959,9300.7534286911,-87.14537958132622,1.3773233100144655,-46.72382969604265,213.857,9077.867462759696,10906.843150451044,150,False,1.5707332272571752,False,173.52615775451503,113.85307648101781,False,72.32301042838223,False,False
2,1970-07-23 10:13:54.417271124,2025-09-11,2025-09-26 15:10:41.727,HA,D,3148268466,JASSM,3,135,76,2,2,1,225,9,2,0,1,26,0,0,0,0,-166847.82373221344,-4793254.461885299,4194979.355925083,-2.29541,0.0353774,-0.0792876,91.375,3.25,7.25,0.0,0.0,0.0,0.0,0.0,0.0,2,0,41.3654066090621,-91.99359703961954,10000.000370034146,83.93629361494433,-0.0064985308683376,0.0079491235912458,,9077.867462759696,10906.843150451044,150,2,2025-09-11,2025-09-26 15:10:41.747,HA,D,435468012,AMBUSH51,1,1,48,2,1,1,225,2,1,0,0,9,1,225,2,1,-166010.7787135982,-4791298.490728531,4196910.648019444,1.48298,3.10188,-0.0340371,-127.503,0.804872,0.490624,-0.0710539,-8.89928,7.40305,0.0523072,0.0524445,-0.052844,4,0,41.39025115966647,-91.98441266495875,9304.509309365258,-88.34450283266911,1.071174395745942,-46.41135172952786,213.686,9077.867462759696,10906.843150451044,150,False,1.5469818610628334,False,174.67607164776743,111.55928423806034,False,73.47592048621675,False,False
2,1970-07-23 10:13:54.426440872,2025-09-11,2025-09-26 15:10:42.644,HA,D,3149342208,JASSM,3,135,76,2,2,1,225,9,2,0,1,26,0,0,0,0,-166765.59460623687,-4793251.554658736,4194985.902800083,-2.29541,0.0353774,-0.0792876,91.375,3.25,7.25,0.0,0.0,0.0,0.0,0.0,0.0,2,0,41.36548511902497,-91.99261651694516,9999.999132438405,83.9369416025005,-0.0057584629701317,0.0079494631395303,,9077.867462759696,10906.843150451044,150,2,2025-09-11,2025-09-26 15:10:42.647,HA,D,436541710,AMBUSH51,1,1,48,2,1,1,225,2,1,0,0,9,1,225,2,1,-166126.28123292068,-4791299.600794809,4196907.929516647,1.51877,3.12976,0.024839,-127.225,-2.76051,-6.44368,-0.289375,-8.84341,7.34637,0.0446444,0.0451624,-0.0485642,4,0,41.39020239421175,-91.98579176157708,9311.19070040562,-91.93226762588822,0.0398260917154938,-44.38817790025395,212.965,9077.867462759696,10906.843150451044,150,False,1.5145443012137354,False,178.18319821407488,107.75889594554224,False,73.94781779477437,False,False
2,1970-07-23 10:13:54.445292785,2025-09-11,2025-09-26 15:10:44.529,HA,D,3151549344,JASSM,3,135,76,2,2,1,225,9,2,0,1,26,0,0,0,0,-166596.57092459625,-4793245.576143111,4194999.359831333,-2.29541,0.0353774,-0.0792876,91.375,3.25,7.25,0.0,0.0,0.0,0.0,0.0,0.0,2,0,41.36564648601135,-91.99060102585806,10000.000601557034,83.93827356176591,-0.0042372373231595,0.0079501753557372,,9077.867462759696,10906.843150451044,150,2,2025-09-11,2025-09-26 15:10:44.680,HA,D,438967476,AMBUSH51,1,1,48,2,1,1,225,2,1,0,0,9,1,225,2,1,-166383.37255725023,-4791314.15923794,4196881.480976526,1.56904,-3.08934,0.124827,-125.554,-10.8176,-19.391,-0.20084,-8.60958,7.24958,0.0211108,0.0282305,-0.0597183,4,0,41.38988417961377,-91.98885640022138,9311.574288918591,-98.65067023501578,-1.012100964056055,-41.72548236470599,212.036,9077.867462759696,10906.843150451044,150,False,1.4563820658119333,True,174.90300631865387,99.1376519433184,False,75.8778451090671,False,False
2,1970-07-23 10:13:54.450231063,2025-09-11,2025-09-26 15:10:45.023,HA,D,3150475602,JASSM,3,135,76,2,2,1,225,9,2,0,1,26,0,0,0,0,-166678.79870779935,-4793248.485322799,4194992.813932896,-2.29541,0.0353774,-0.0792876,91.375,3.25,7.25,0.0,0.0,0.0,0.0,0.0,0.0,2,0,41.36556798848721,-91.99158153653508,10000.001457973556,83.93762558005719,-0.0049772931310543,0.0079498298285325,,9077.867462759696,10906.843150451044,150,2,2025-09-11,2025-09-26 15:10:44.980,HA,D,439325374,AMBUSH51,1,1,48,2,1,1,225,2,1,0,0,9,1,225,2,1,-166420.1413257895,-4791317.522365115,4196875.450270803,1.57545,-3.08087,0.139572,-125.19,-11.8625,-21.4581,-0.234117,-8.7917,7.2466,0.0294747,0.0378949,-0.0449377,4,0,41.3898158650828,-91.98929416580128,9309.90651253624,-99.6020462466856,-1.2138695106933195,-41.40349214657179,211.718,9077.867462759696,10906.843150451044,150,False,1.458514164679934,True,173.85696493360587,100.09600651855366,False,73.92719328759547,False,False
2,1970-07-23 10:13:54.461397780,2025-09-11,2025-09-26 15:10:46.139,HA,D,3152623086,JASSM,3,135,76,2,2,1,225,9,2,0,1,26,0,0,0,0,-166514.34326346344,-4793242.666963424,4195005.904753208,-2.29541,0.0353774,-0.0792876,91.375,3.25,7.25,0.0,0.0,0.0,0.0,0.0,0.0,2,0,41.36572496855918,-91.98962051428184,10000.001135949213,83.9389215450819,-0.0034971833122515,0.0079505143824059,,9077.867462759696,10906.843150451044,150,2,2025-09-11,2025-09-26 15:10:46.246,HA,D,440836506,AMBUSH51,1,1,48,2,1,1,225,2,1,0,0,9,1,225,2,1,-166577.6099015177,-4791335.988290838,4196843.627273258,1.6281,-3.03822,0.197502,-123.424,-17.1963,-28.7179,-0.0631416,-9.04075,7.3954,0.0423016,0.0293145,-0.047913,4,0,41.38945863425598,-91.99116727558652,9299.76069753717,-103.68444039541536,-1.6299368463970232,-38.69578318980172,211.584,9077.867462759696,10906.843150451044,150,False,1.4257223060165587,True,169.74469907070704,93.24181419948994,False,76.73023730938263,False,False
2,1970-07-23 10:13:54.473758234,2025-09-11,2025-09-26 15:10:47.375,HA,D,3154949526,JASSM,3,135,76,2,2,1,225,9,2,0,1,26,0,0,0,0,-166336.18322928375,-4793236.359346236,4195020.083464146,-2.29541,0.0353774,-0.0792876,91.375,3.25,7.25,0.0,0.0,0.0,0.0,0.0,0.0,2,0,41.365894998366905,-91.98749606505775,9999.999235403327,83.94032551734578,-0.0018937320762367,0.0079512617570783,,9077.867462759696,10906.843150451044,150,2,2025-09-11,2025-09-26 15:10:47.246,HA,D,442029506,AMBUSH51,1,1,48,2,1,1,225,2,1,0,0,9,1,225,2,1,-166700.3983872627,-4791355.366538339,4196811.52216661,1.67468,-3.00538,0.239391,-121.806,-21.4404,-34.2014,-0.0579191,-9.10454,7.37549,0.0318966,0.0283013,-0.0403355,4,0,41.38910121844911,-91.99262577902206,9288.292181732111,-106.69890422258264,-1.8766945577850664,-36.34250892891473,211.511,9077.867462759696,10906.843150451044,150,False,1.4114037849393404,True,166.56981019164957,86.62120636419867,False,80.20935199888123,False,False
2,1970-07-23 10:13:54.483810766,2025-09-11,2025-09-26 15:10:48.381,HA,D,3153816132,JASSM,3,135,76,2,2,1,225,9,2,0,1,26,0,0,0,0,-166422.97912772125,-4793239.432588424,4195013.176237583,-2.29541,0.0353774,-0.0792876,91.375,3.25,7.25,0.0,0.0,0.0,0.0,0.0,0.0,2,0,41.36581216881695,-91.98853105421162,9999.99960834792,83.9396415295572,-0.0026749003270498,0.0079508982271324,,9077.867462759696,10906.843150451044,150,2,2025-09-11,2025-09-26 15:10:48.480,HA,D,443500870,AMBUSH51,1,1,48,2,1,1,225,2,1,0,0,9,1,225,2,1,-166849.1041143139,-4791385.081661271,4196765.112846436,1.73514,-2.95731,0.284121,-119.346,-26.739,-40.2899,-0.316147,-9.45476,7.99746,0.050882,0.0265203,-0.0432628,4,0,41.3885803599428,-91.99438951475098,9273.451796243502,-110.38857680215264,-1.6510135879049643,-33.47805843548942,211.511,9077.867462759696,10906.843150451044,150,False,1.3913305797000894,True,162.82765594459676,85.1130853269441,False,77.98816497274393,False,False
2,1970-07-23 10:13:54.492352320,2025-09-11,2025-09-26 15:10:49.235,HA,D,3157216314,JASSM,3,135,76,2,2,1,225,9,2,0,1,26,0,0,0,0,-166162.59118826812,-4793230.210908736,4195033.895964146,-2.29541,0.0353774,-0.0792876,91.375,3.25,7.25,0.0,0.0,0.0,0.0,0.0,0.0,2,0,41.366060628006565,-91.98542607676984,10000.001119128572,83.94169350290186,-0.0003313941987012,0.0079519870202871,,9077.867462759696,10906.843150451044,150,2,2025-09-11,2025-09-26 15:10:49.180,HA,D,444335970,AMBUSH51,1,1,48,2,1,1,225,2,1,0,0,9,1,225,2,1,-166932.08022182912,-4791404.919358129,4196735.752360965,1.76385,-2.92804,0.30852,-117.776,-30.007,-43.2,-0.213965,-9.33799,8.09275,0.0148315,0.0321441,-0.0438579,4,0,41.38824695199408,-91.9953722928378,9265.67339617022,-112.50684600248556,-1.4342433074133532,-32.2656105080686,211.547,9077.867462759696,10906.843150451044,150,False,1.404505224989958,True,160.79770479371237,77.45154569697851,False,83.58025104212108,False,False
2,1970-07-23 10:13:54.493795944,2025-09-11,2025-09-26 15:10:49.379,HA,D,3156082920,JASSM,3,135,76,2,2,1,225,9,2,0,1,26,0,0,0,0,-166249.38720877594,-4793233.285127486,4195026.990690708,-2.29541,0.0353774,-0.0792876,91.375,3.25,7.25,0.0,0.0,0.0,0.0,0.0,0.0,2,0,41.365977824437465,-91.98646107222606,10000.000346066645,83.94100950869262,-0.0011125624355742,0.0079516309655631,,9077.867462759696,10906.843150451044,150,2,2025-09-11,2025-09-26 15:10:49.313,HA,D,444495036,AMBUSH51,1,1,48,2,1,1,225,2,1,0,0,9,1,225,2,1,-166948.64720574507,-4791409.229662808,4196729.073286521,1.76553,-2.92414,0.31254,-117.483,-30.6872,-43.9548,-0.35127,-9.53777,8.23622,0.0291939,0.0389581,-0.0401045,4,0,41.3881727879351,-91.99556836743892,9263.208527271276,-112.82041042544996,-1.4377934808370072,-32.229906323417964,211.474,9077.867462759696,10906.843150451044,150,False,1.393414483920352,True,160.33409310888462,78.93077787086203,False,81.64137831024281,False,False
2,1970-07-23 10:13:54.502964403,2025-09-11,2025-09-26 15:10:50.296,HA,D,3158290056,JASSM,3,135,76,2,2,1,225,9,2,0,1,26,0,0,0,0,-166080.3632829947,-4793227.296846236,4195040.437956333,-2.29541,0.0354733,-0.0791918,91.375,3.25,7.25,0.0,0.0,0.0,0.0,0.0,0.0,2,0,41.36613907574349,-91.98444555186812,10000.001725123811,83.94282373222403,-0.0073326838860257,0.0083871284213471,,9077.867462759696,10906.843150451044,150,2,2025-09-11,2025-09-26 15:10:50.280,HA,D,445648268,AMBUSH51,1,1,48,2,1,1,225,2,1,0,0,9,1,225,2,1,-167061.14244892576,-4791441.038782409,4196683.785792287,1.75616,-2.89171,0.341166,-115.147,-35.2424,-47.8819,-0.109615,-9.24913,7.71605,-0.0429716,0.0206884,-0.0345223,4,0,41.3876545141904,-91.99689870955672,9252.868288366151,-115.2235601281304,-1.295380648049902,-33.306244384955725,211.266,9077.867462759696,10906.843150451044,150,False,1.407462385832415,True,157.5258395336565,72.5759163380817,False,85.14623580575515,False,False
2,1970-07-23 10:13:54.510490293,2025-09-11,2025-09-26 15:10:51.049,HA,D,3159363798,JASSM,3,135,76,2,2,1,225,9,2,0,1,26,0,0,0,0,-165998.13537772125,-4793224.381807174,4195046.977995396,-2.29541,0.0354733,-0.0791918,91.375,3.25,7.25,0.0,0.0,0.0,0.0,0.0,0.0,2,0,41.36621750773784,-91.9834650250151,9999.99919095773,83.94347173194295,-0.0065926293768566,0.0083874753266307,,9077.867462759696,10906.843150451044,150,2,2025-09-11,2025-09-26 15:10:51.180,HA,D,446721966,AMBUSH51,1,1,48,2,1,1,225,2,1,0,0,9,1,225,2,1,-167162.85780325372,-4791474.12802799,4196638.92908866,1.7746,-2.85191,0.372415,-112.555,-39.0944,-51.6867,-0.127083,-9.68036,8.15411,0.0211232,0.0471036,-0.0523779,4,0,41.38713375736809,-91.99809975073468,9245.694450378818,-117.99825428641724,-1.0153639408070425,-32.990310449269366,211.156,9077.867462759696,10906.843150451044,150,False,1.4174788988453442,True,154.88808090754478,68.36003354862547,False,86.71731977479632,False,False
2,1970-07-23 10:13:54.522586143,2025-09-11,2025-09-26 15:10:52.258,HA,D,3160735802,JASSM,3,135,76,2,2,1,225,9,2,0,1,26,0,0,0,0,-165893.0664079947,-4793220.656221236,4195055.335417271,-2.29551,0.0354733,-0.0791918,91.375,3.25,7.25,0.0,0.0,0.0,0.0,0.0,0.0,2,0,41.36631772383512,-91.98221212674412,10000.00057126155,83.94429973493716,-0.0056470036051879,0.0028964560448037,,9077.867462759696,10906.843150451044,150,2,2025-09-11,2025-09-26 15:10:52.280,HA,D,448034266,AMBUSH51,1,1,48,2,1,1,225,2,1,0,0,9,1,225,2,1,-167284.45751329832,-4791519.71188017,4196579.785591148,1.80742,-2.79902,0.409946,-108.892,-44.125,-55.6701,-0.294505,-9.71473,8.11559,-0.00250192,0.030721,-0.0420083,4,0,41.38643808821008,-91.99953304698197,9239.982810235451,-121.50255666340148,-0.5664799443331733,-32.21704971951058,210.777,9077.867462759696,10906.843150451044,150,False,1.437262455279664,True,151.67423137487768,63.21194510965241,False,88.61427701539604,False,False
2,1970-07-23 10:13:54.533253128,2025-09-11,2025-09-26 15:10:53.325,HA,D,3162048150,JASSM,3,135,76,2,2,1,225,9,2,0,1,26,0,0,0,0,-165792.56579764312,-4793217.091768111,4195063.327604771,-2.29551,0.0354733,-0.0791918,91.375,3.25,7.25,0.0,0.0,0.0,0.0,0.0,0.0,2,0,41.36641356234532,-91.98101370077552,10000.00110716621,83.94509174036241,-0.0047424943535713,0.002896881725084,,9077.867462759696,10906.843150451044,150,2,2025-09-11,2025-09-26 15:10:53.180,HA,D,449107964,AMBUSH51,1,1,48,2,1,1,225,2,1,0,0,9,1,225,2,1,-167381.04060317506,-4791561.049547771,4196528.002556475,1.82464,-2.76084,0.434277,-105.727,-47.9964,-58.813,-0.174844,-9.36864,7.95251,0.00511514,0.0386897,-0.0506136,4,0,41.385822549465495,-92.00066931004324,9237.651116796203,-123.90860073918807,-0.1907686468332923,-32.111180909427425,210.533,9077.867462759696,10906.843150451044,150,False,1.4627155170340143,True,149.09664700938177,58.85373915206207,False,90.37493971389706,False,False
2,1970-07-23 10:13:54.546552013,2025-09-11,2025-09-26 15:10:54.655,HA,D,3163300852,JASSM,3,135,76,2,2,1,225,9,2,0,1,26,0,0,0,0,-165696.632936315,-4793213.687471236,4195070.955534458,-2.29551,0.0354733,-0.0791918,91.375,3.25,7.25,0.0,0.0,0.0,0.0,0.0,0.0,2,0,41.36650503749672,-91.9798697407052,9999.999748486303,83.94584775224361,-0.0038790951607537,0.0028972921927382,,9077.867462759696,10906.843150451044,150,2,2025-09-11,2025-09-26 15:10:54.580,HA,D,450778162,AMBUSH51,1,1,48,2,1,1,225,2,1,0,0,9,1,225,2,1,-167525.0392167798,-4791631.535743317,4196441.984141166,1.83908,-2.69974,0.476505,-100.307,-53.2714,-63.533,-0.0878223,-9.10468,7.65781,-0.0205989,0.0357249,-0.0357998,4,0,41.38479263535253,-92.00235966202384,9236.854151502312,-127.86137448409154,0.1571089608224977,-32.82272553861812,209.763,9077.867462759696,10906.843150451044,150,False,1.4931737583671654,True,145.18242493946832,53.403817533614195,False,91.9031475248988,False,False
