Subject_cm,Timestamp,SampleDate_cm,SampleTime_cm,Configuration_cm,Scenario_cm,DisTime_cm,MarkingTxt_cm,Application_cm,EntId_cm,Site_cm,ExerciseId_cm,ForceId_cm,Category_cm,Country_cm,Domain_cm,Kind_cm,Extra_cm,Specific_cm,Subcategory_cm,AltCategory_cm,AltCountry_cm,AltDomain_cm,AltKind_cm,ECEF_X_cm,ECEF_Y_cm,ECEF_Z_cm,OriPhi_cm,OriPsi_cm,OriTheta_cm,LinVelX_cm,LinVelY_cm,LinVelZ_cm,LinAccX_cm,LinAccY_cm,LinAccZ_cm,AngVelX_cm,AngVelY_cm,AngVelZ_cm,DrAlg_cm,Appearance_cm,Latitude_cm,Longitude_cm,Altitude_cm,Heading_cm,Pitch_cm,Roll_cm,CalibratedAirspeed_cm,CM_Altitude_Lead_cm,CM_Altitude_Wing_cm,CM_Airspeed_cm,Subject_ac,SampleDate_ac,SampleTime_ac,Configuration_ac,Scenario_ac,DisTime_ac,MarkingTxt_ac,Application_ac,EntId_ac,Site_ac,ExerciseId_ac,ForceId_ac,Category_ac,Country_ac,Domain_ac,Kind_ac,Extra_ac,Specific_ac,Subcategory_ac,AltCategory_ac,AltCountry_ac,AltDomain_ac,AltKind_ac,ECEF_X_ac,ECEF_Y_ac,ECEF_Z_ac,OriPhi_ac,OriPsi_ac,OriTheta_ac,LinVelX_ac,LinVelY_ac,LinVelZ_ac,LinAccX_ac,LinAccY_ac,LinAccZ_ac,AngVelX_ac,AngVelY_ac,AngVelZ_ac,DrAlg_ac,Appearance_ac,Latitude_ac,Longitude_ac,Altitude_ac,Heading_ac,Pitch_ac,Roll_ac,CalibratedAirspeed_ac,CM_Altitude_Lead_ac,CM_Altitude_Wing_ac,CM_Airspeed_ac,Bank_Angle_Condition,distance_nm,Distance_Condition,angle_between_vel,angle_between_pos,Cone_Condition,angle_between_pos_nose,Nose_Cone_Condition,Intercept_Criteria
2,1970-07-23 11:42:53.599286788,2025-09-17,2025-09-26 19:29:19.928,HH,C,1281683694,JASSM,3,102,76,2,2,1,225,9,2,0,1,26,0,0,0,0,-163238.49353201812,-4785331.657197799,4204095.227995396,-2.36559,-0.397301,0.382249,73.125,-30.5,-31.75,0.0,0.0,0.0,0.0,0.0,0.0,2,0,41.47481069676813,-91.95373113503432,9999.99856084832,119.853573194596,-0.0038032092163062,0.0050454562052362,,9031.630405181751,11029.86252269048,150,2,2025-09-17,2025-09-26 19:29:19.876,HH,C,1780153888,AMBUSH51,1,1,48,2,1,1,225,2,1,0,0,9,1,225,2,1,-145911.916536352,-4792744.129742495,4195887.276288199,2.29796,2.97827,-0.141895,-117.315,18.8453,19.9143,-0.0424063,-7.06147,6.23489,-0.00330086,-0.00146786,0.00501319,4,0,41.37863371571733,-91.74379339304522,9032.135346301176,-78.88263520044735,-0.2827773749573547,-0.2848754346969194,200.146,9031.630405181751,11029.86252269048,150,True,11.062118552385542,False,162.10300287465938,178.2356912536088,False,19.40153945427299,True,False
2,1970-07-23 11:42:53.608185963,2025-09-17,2025-09-26 19:29:20.818,HH,C,1282757532,JASSM,3,102,76,2,2,1,225,9,2,0,1,26,0,0,0,0,-163172.70105154935,-4785359.272432174,4204066.544401646,-2.36559,-0.397301,0.382249,73.125,-30.5,-31.75,0.0,0.0,0.0,0.0,0.0,0.0,2,0,41.47446615188542,-91.9529330418166,10000.003835422,119.85410176259678,-0.0031130798388771,0.0050442963035765,,9031.630405181751,11029.86252269048,150,2,2025-09-17,2025-09-26 19:29:20.776,HH,C,1781227586,AMBUSH51,1,1,48,2,1,1,225,2,1,0,0,9,1,225,2,1,-146016.5253240113,-4792725.935773607,4195904.025013474,2.30323,2.97769,-0.140753,-117.276,20.268,18.8087,-0.0777057,-7.14924,6.19616,0.00480097,0.00585583,0.0148586,4,0,41.37883607285409,-91.74504942039182,9031.529307191964,-78.91004721601853,-0.3500758321096081,0.0127406730823289,200.292,9031.630405181751,11029.86252269048,150,True,10.966279109555167,False,162.1792168668283,178.13994857421898,False,19.47229621524687,True,False
2,1970-07-23 11:42:53.617225705,2025-09-17,2025-09-26 19:29:21.722,HH,C,1283888746,JASSM,3,102,76,2,2,1,225,9,2,0,1,26,0,0,0,0,-163103.39294608062,-4785388.360322799,4204036.325651646,-2.36559,-0.397301,0.382249,73.125,-30.5,-31.75,0.0,0.0,0.0,0.0,0.0,0.0,2,0,41.4741031913817,-91.952092312793,10000.000077116689,119.85465856389928,-0.0023860746796945,0.0050430749566812,,9031.630405181751,11029.86252269048,150,2,2025-09-17,2025-09-26 19:29:21.776,HH,C,1782420584,AMBUSH51,1,1,48,2,1,1,225,2,1,0,0,9,1,225,2,1,-146134.59063073053,-4792705.160404462,4195922.966761745,2.30665,2.97245,-0.141531,-117.17,20.7272,18.6112,-0.0561701,-7.05748,6.08144,0.00268293,-0.0179815,0.0039188,4,0,41.379066137314105,-91.74646711603154,9030.342995214212,-78.67886138757638,-0.5403956310112163,0.1645720981391937,200.402,9031.630405181751,11029.86252269048,150,True,10.861208621354274,False,162.26151679489948,178.02935253212328,False,19.52106779511305,True,False
2,1970-07-23 11:42:53.626262463,2025-09-17,2025-09-26 19:29:22.626,HH,C,1284962716,JASSM,3,102,76,2,2,1,225,9,2,0,1,26,0,0,0,0,-163037.59216483062,-4785415.977510299,4204007.636198521,-2.36559,-0.397301,0.382249,73.125,-30.5,-31.75,0.0,0.0,0.0,0.0,0.0,0.0,2,0,41.4737585856271,-91.95129413686696,10000.00296433287,119.85518717926328,-0.0016958555714167,0.0050419094332582,,9031.630405181751,11029.86252269048,150,2,2025-09-17,2025-09-26 19:29:22.643,HH,C,1783454516,AMBUSH51,1,1,48,2,1,1,225,2,1,0,0,9,1,225,2,1,-146234.83111079238,-4792687.176624761,4195938.901433762,2.30771,2.96958,-0.141564,-117.169,20.992,18.5833,-0.0907954,-6.94387,6.07668,0.00328838,0.000714684,0.00178827,4,0,41.37926251045811,-91.7476709097494,9028.173321377371,-78.56927024388287,-0.6591696323979148,0.2012631988144832,200.476,9031.630405181751,11029.86252269048,150,True,10.767628742905558,False,162.33148577906834,177.93186500811544,False,19.56057318223921,True,False
2,1970-07-23 11:42:53.635327689,2025-09-17,2025-09-26 19:29:23.532,HH,C,1286037118,JASSM,3,102,76,2,2,1,225,9,2,0,1,26,0,0,0,0,-162971.76501639312,-4785443.602510299,4203978.935026646,-2.36559,-0.397301,0.382249,73.125,-30.5,-31.75,0.0,0.0,0.0,0.0,0.0,0.0,2,0,41.47341385410537,-91.95049565088736,10000.000416313058,119.85571599635594,-0.0010053696062407,0.0050407584338706,,9031.630405181751,11029.86252269048,150,2,2025-09-17,2025-09-26 19:29:23.543,HH,C,1784528216,AMBUSH51,1,1,48,2,1,1,225,2,1,0,0,9,1,225,2,1,-146341.3014481173,-4792667.710848987,4195955.645785901,2.30821,2.96547,-0.139928,-117.176,21.4146,18.4223,-0.119909,-7.07911,6.23045,-0.00842953,-0.00141376,-0.00524206,4,0,41.379472020829056,-91.74894965925236,9024.586544321794,-78.48383601840293,-0.893906928964056,0.1955447629892329,200.696,9031.630405181751,11029.86252269048,150,True,10.670790889975924,False,162.39948315436303,177.82592666205628,False,19.614371464443966,True,False
2,1970-07-23 11:42:53.645208048,2025-09-17,2025-09-26 19:29:24.520,HH,C,1287169632,JASSM,3,102,76,2,2,1,225,9,2,0,1,26,0,0,0,0,-162902.37732108062,-4785472.723604049,4203948.679167271,-2.36559,-0.397205,0.382249,73.125,-30.5,-31.75,0.0,0.0,0.0,0.0,0.0,0.0,2,0,41.473050443847285,-91.9496539837259,10000.00072158093,119.85263552565893,-0.0038471774144521,0.0029906537626387,,9031.630405181751,11029.86252269048,150,2,2025-09-17,2025-09-26 19:29:24.509,HH,C,1785681448,AMBUSH51,1,1,48,2,1,1,225,2,1,0,0,9,1,225,2,1,-146453.7698326505,-4792646.725875766,4195973.14079549,2.3099,2.96147,-0.138094,-117.264,21.9174,18.2263,-0.248794,-7.01795,6.25359,0.00470735,-0.000914421,-0.0099879,4,0,41.37969453073452,-91.75030061122142,9019.346774542442,-78.41049323460082,-1.1318686566692218,0.2593024921428789,200.952,9031.630405181751,11029.86252269048,150,True,10.568589815447803,False,162.46698670570643,177.7109842631234,False,19.678557103349522,True,False
2,1970-07-23 11:42:53.655243220,2025-09-17,2025-09-26 19:29:25.524,HH,C,1288364632,JASSM,3,102,76,2,2,1,225,9,2,0,1,26,0,0,0,0,-162829.16101248687,-4785503.448213424,4203916.755339146,-2.36559,-0.397205,0.382249,73.125,-30.5,-31.75,0.0,0.0,0.0,0.0,0.0,0.0,2,0,41.47266700448847,-91.94876588733143,9999.999772896856,119.85322368106668,-0.003079184904424,0.0029893259844877,,9031.630405181751,11029.86252269048,150,2,2025-09-17,2025-09-26 19:29:25.676,HH,C,1787073280,AMBUSH51,1,1,48,2,1,1,225,2,1,0,0,9,1,225,2,1,-146591.2642225317,-4792620.571557329,4195994.225544189,2.3039,2.95721,-0.136864,-117.358,22.5431,17.8844,-0.183591,-7.18842,6.15621,-0.00824228,-0.00182156,0.00174458,4,0,41.379967456321495,-91.75195236753852,9011.06293830044,-78.30183335436497,-1.3571801052255892,-0.1205298992961864,201.246,9031.630405181751,11029.86252269048,150,True,10.450971090317,False,162.51232486543594,177.56775795275465,False,19.796901338565245,True,False
2,1970-07-23 11:42:53.665266834,2025-09-17,2025-09-26 19:29:26.526,HH,C,1289557554,JASSM,3,102,76,2,2,1,225,9,2,0,1,26,0,0,0,0,-162756.07214529935,-4785534.120088424,4203884.884245396,-2.36559,-0.397205,0.382345,73.125,-30.5,-31.75,0.0,0.0,0.0,0.0,0.0,0.0,2,0,41.47228420214459,-91.9478793469074,9999.99825584628,119.85765819575484,-0.006233305454682,0.0029876932587835,,9031.630405181751,11029.86252269048,150,2,2025-09-17,2025-09-26 19:29:26.476,HH,C,1788027678,AMBUSH51,1,1,48,2,1,1,225,2,1,0,0,9,1,225,2,1,-146685.13055130368,-4792602.275179762,4196008.597842695,2.30153,2.95453,-0.134249,-117.482,22.8747,17.8107,-0.0709035,-7.07983,6.0849,-0.00475104,-0.014276,0.00289931,4,0,41.38015624048404,-91.75308017837312,9004.280422134214,-78.31165498856319,-1.5695627568954906,-0.2765477158747503,201.466,9031.630405181751,11029.86252269048,150,True,10.356112658592814,False,162.5650947359989,177.4645126138406,False,19.85674898841394,True,False
2,1970-07-23 11:42:53.674527175,2025-09-17,2025-09-26 19:29:27.452,HH,C,1290691074,JASSM,3,102,76,2,2,1,225,9,2,0,1,26,0,0,0,0,-162686.62292654935,-4785563.264619674,4203854.601042271,-2.36559,-0.397205,0.382345,73.125,-30.5,-31.75,0.0,0.0,0.0,0.0,0.0,0.0,2,0,41.47192046113911,-91.9470369636958,10000.002101585307,119.85821606862568,-0.0055048183288553,0.0029864677635061,,9031.630405181751,11029.86252269048,150,2,2025-09-17,2025-09-26 19:29:27.609,HH,C,1789379744,AMBUSH51,1,1,48,2,1,1,225,2,1,0,0,9,1,225,2,1,-146817.47905334638,-4792576.2655956885,4196028.597879397,2.30569,2.94991,-0.134767,-117.675,23.1141,17.7806,-0.135351,-7.35367,6.33149,0.00891847,-0.0031365,0.00992548,4,0,41.38042187807415,-91.75467044533949,8993.629588940217,-78.11425680198373,-1.7431649864007874,-0.0796731832319164,201.759,9031.630405181751,11029.86252269048,150,True,10.24354971597292,False,162.59951703035094,177.31999605943386,False,19.97517293059743,True,False
2,1970-07-23 11:42:53.685183178,2025-09-17,2025-09-26 19:29:28.518,HH,C,1292002474,JASSM,3,102,76,2,2,1,225,9,2,0,1,26,0,0,0,0,-162606.27478201812,-4785596.979463424,4203819.563932896,-2.36559,-0.397205,0.382345,73.125,-30.5,-31.75,0.0,0.0,0.0,0.0,0.0,0.0,2,0,41.47149963993147,-91.94606239528687,9999.999154829256,119.85886147684374,-0.004662013202785,0.0029850587224962,,9031.630405181751,11029.86252269048,150,2,2025-09-17,2025-09-26 19:29:28.676,HH,C,1790652276,AMBUSH51,1,1,48,2,1,1,225,2,1,0,0,9,1,225,2,1,-146943.71824583376,-4792551.145805726,4196047.651441284,2.29502,2.95231,-0.137229,-117.872,23.3411,17.7905,-0.274042,-7.72803,6.68555,-0.0233744,0.0133855,-0.0136497,4,0,41.38067692477659,-91.75618743174188,8982.664041097314,-78.10247533339634,-1.546056386905331,-0.672920008913166,202.345,9031.630405181751,11029.86252269048,150,True,10.127328620366743,False,162.64418144837077,177.17649423326475,False,20.080790757525435,True,False
2,1970-07-23 11:42:53.696201651,2025-09-17,2025-09-26 19:29:29.620,HH,C,1293255402,JASSM,3,102,76,2,2,1,225,9,2,0,1,26,0,0,0,0,-162529.50915701812,-4785629.192354049,4203786.087370396,-2.36559,-0.397205,0.382345,73.125,-30.5,-31.75,0.0,0.0,0.0,0.0,0.0,0.0,2,0,41.47109755529776,-91.94513129165034,10000.00015629744,119.85947809547515,-0.0038567767366725,0.002983696165361,,9031.630405181751,11029.86252269048,150,2,2025-09-17,2025-09-26 19:29:29.443,HH,C,1791566908,AMBUSH51,1,1,48,2,1,1,225,2,1,0,0,9,1,225,2,1,-147034.165831487,-4792533.331621783,4196061.518682098,2.28827,2.9594,-0.144662,-118.047,22.7241,18.3833,-0.168368,-8.38272,7.21254,-0.00613463,0.0105933,0.00559576,4,0,41.38086001339629,-91.75727425989302,8975.732547762318,-78.0570059538174,-0.9614639178606325,-1.0034263361297298,202.382,9031.630405181751,11029.86252269048,150,True,10.032031392911263,False,162.6682817463951,177.06841853656556,False,20.150213494858793,True,False
2,1970-07-23 11:42:53.706220932,2025-09-17,2025-09-26 19:29:30.622,HH,C,1294507100,JASSM,3,102,76,2,2,1,225,9,2,0,1,26,0,0,0,0,-162452.81921561187,-4785661.370088424,4203752.644011021,-2.36559,-0.397205,0.382345,73.125,-30.5,-31.75,0.0,0.0,0.0,0.0,0.0,0.0,2,0,41.47069588110219,-91.94420111886242,9999.99737200646,119.860094092748,-0.0030523457386443,0.0029823531145926,,9031.630405181751,11029.86252269048,150,2,2025-09-17,2025-09-26 19:29:30.742,HH,C,1793117806,AMBUSH51,1,1,48,2,1,1,225,2,1,0,0,9,1,225,2,1,-147187.46130275846,-4792504.3564055,4196086.022687953,2.27898,2.97077,-0.150584,-118.073,21.5306,19.306,-0.109563,-8.11233,7.09422,0.00215862,0.0102979,-0.0115837,4,0,41.38116982020931,-91.75911584421216,8969.161047179341,-78.23824948419637,-0.2541386687891815,-1.4377537798493154,202.309,9031.630405181751,11029.86252269048,150,True,9.904180233061691,False,162.64574746639013,176.89180396628282,False,20.321264822105693,True,False
2,1970-07-23 11:42:53.717283207,2025-09-17,2025-09-26 19:29:31.728,HH,C,1295759438,JASSM,3,102,76,2,2,1,225,9,2,0,1,26,0,0,0,0,-162376.08972342435,-4785693.565400924,4203719.183073521,-2.36559,-0.397205,0.382345,73.125,-30.5,-31.75,0.0,0.0,0.0,0.0,0.0,0.0,2,0,41.47029398411195,-91.94327047745602,10000.000416151115,119.86071039545008,-0.0022474955350077,0.0029810024743342,,9031.630405181751,11029.86252269048,150,2,2025-09-17,2025-09-26 19:29:31.842,HH,C,1794430106,AMBUSH51,1,1,48,2,1,1,225,2,1,0,0,9,1,225,2,1,-147316.5247448983,-4792481.145959343,4196107.260153318,2.27086,2.9771,-0.153428,-118.048,20.7819,19.6353,-0.0864581,-7.92494,6.91202,-0.0171202,0.00636142,-0.00512971,4,0,41.38142768599683,-91.76066590146527,8967.869159230611,-78.35804896690746,0.1226659377306276,-1.8483618738594,202.15,9031.630405181751,11029.86252269048,150,True,9.78909231634099,False,162.53661384583216,176.7371409654816,False,20.570894381908637,True,False
2,1970-07-23 11:42:53.727163175,2025-09-17,2025-09-26 19:29:32.716,HH,C,1297013176,JASSM,3,102,76,2,2,1,225,9,2,0,1,26,0,0,0,0,-162299.27429373687,-4785725.795869674,4203685.683073521,-2.36559,-0.397205,0.382345,73.125,-30.5,-31.75,0.0,0.0,0.0,0.0,0.0,0.0,2,0,41.46989162410628,-91.94233880560672,10000.00194020189,119.86132737562832,-0.0014417414278666,0.0029796455394562,,9031.630405181751,11029.86252269048,150,2,2025-09-17,2025-09-26 19:29:32.742,HH,C,1795503804,AMBUSH51,1,1,48,2,1,1,225,2,1,0,0,9,1,225,2,1,-147423.23467343557,-4792462.446818851,4196125.25366478,2.27883,2.98265,-0.15131,-117.868,20.1722,19.9569,-0.112088,-7.44082,6.6951,0.0251513,-0.00123483,-0.00221687,4,0,41.38164088550317,-91.76194732097711,8968.958742475186,-78.65926073458259,0.2763590117870595,-1.3445177915558302,201.637,9031.630405181751,11029.86252269048,150,True,9.685603713188634,False,162.47774623508604,176.60395511183148,False,20.749848749196776,True,False
2,1970-07-23 11:42:53.738232237,2025-09-17,2025-09-26 19:29:33.823,HH,C,1298324968,JASSM,3,102,76,2,2,1,225,9,2,0,1,26,0,0,0,0,-162218.90222342435,-4785759.516572799,4203650.632292271,-2.36559,-0.397109,0.382345,73.125,-30.5,-31.75,0.0,0.0,0.0,0.0,0.0,0.0,2,0,41.46947064068308,-91.94136400947905,10000.003543158424,119.85833529567222,-0.0041683363356239,0.000928900905492,,9031.630405181751,11029.86252269048,150,2,2025-09-17,2025-09-26 19:29:33.842,HH,C,1796816102,AMBUSH51,1,1,48,2,1,1,225,2,1,0,0,9,1,225,2,1,-147551.9516467549,-4792440.067058881,4196146.966886332,2.30716,2.98118,-0.149651,-117.674,20.379,19.7786,-0.088706,-7.29101,6.36048,0.0224819,0.00249359,0.00174042,4,0,41.381897049319335,-91.7634929570409,8970.732934079126,-78.67536645145431,0.1520864305183343,0.2659151927774909,201.343,9031.630405181751,11029.86252269048,150,True,9.568594637614723,False,162.50307043470832,176.44165175919554,False,20.899131041341438,True,False
2,1970-07-23 11:42:53.749204205,2025-09-17,2025-09-26 19:29:34.920,HH,C,1299577388,JASSM,3,102,76,2,2,1,225,9,2,0,1,26,0,0,0,0,-162142.16784842435,-4785791.709932174,4203617.165495396,-2.36559,-0.397109,0.382345,73.125,-30.5,-31.75,0.0,0.0,0.0,0.0,0.0,0.0,2,0,41.46906869376121,-91.94043334551968,10000.001252767866,119.85895159842666,-0.0033634352289176,0.0009274972303737,,9031.630405181751,11029.86252269048,150,2,2025-09-17,2025-09-26 19:29:34.943,HH,C,1798128402,AMBUSH51,1,1,48,2,1,1,225,2,1,0,0,9,1,225,2,1,-147681.2383677018,-4792417.774168775,4196169.046026702,2.33676,2.97499,-0.145425,-117.543,18.306,21.7598,-0.0827945,-6.89896,5.97398,0.0246332,-0.00320308,0.00143041,4,0,41.382155042335945,-91.76504537815808,8973.56671364819,-78.62180590001762,-0.2696069957948943,1.909893082991559,201.05,9031.630405181751,11029.86252269048,150,True,9.453635793702254,False,162.49856763051167,176.27559234487947,False,20.98968226321967,True,False
2,1970-07-23 11:42:53.759240975,2025-09-17,2025-09-26 19:29:35.924,HH,C,1300772170,JASSM,3,102,76,2,2,1,225,9,2,0,1,26,0,0,0,0,-162068.96472342435,-4785822.420869674,4203585.237761021,-2.36559,-0.397109,0.382345,73.125,-30.5,-31.75,0.0,0.0,0.0,0.0,0.0,0.0,2,0,41.46868523538865,-91.93954552100008,9999.998399180738,119.85953952753988,-0.0025955743408262,0.0009261565444004,,9031.630405181751,11029.86252269048,150,2,2025-09-17,2025-09-26 19:29:36.042,HH,C,1799440700,AMBUSH51,1,1,48,2,1,1,225,2,1,0,0,9,1,225,2,1,-147810.067473257,-4792393.7377475,4196190.588098735,2.36686,2.97263,-0.150462,-117.128,21.4988,20.001,-0.143236,-7.35643,6.32802,0.030488,0.00321556,0.0125782,4,0,41.382419840278224,-91.76659298757674,8970.920063706433,-78.31881883184109,-0.1748201650488662,3.613423281744505,200.573,9031.630405181751,11029.86252269048,150,True,9.340931848952994,False,162.98436251475934,176.10706535133735,False,20.77939523689297,True,False
2,1970-07-23 11:42:53.769263123,2025-09-17,2025-09-26 19:29:36.926,HH,C,1301965260,JASSM,3,102,76,2,2,1,225,9,2,0,1,26,0,0,0,0,-161995.86511404935,-4785853.088838424,4203553.356901646,-2.36559,-0.397109,0.382441,73.125,-30.5,-31.75,0.0,0.0,0.0,0.0,0.0,0.0,2,0,41.46830232130351,-91.9386589621966,10000.004182816334,119.86397414939935,-0.0057494532438183,0.0009245710701988,,9031.630405181751,11029.86252269048,150,2,2025-09-17,2025-09-26 19:29:36.809,HH,C,1800355332,AMBUSH51,1,1,48,2,1,1,225,2,1,0,0,9,1,225,2,1,-147899.71371614357,-4792377.115845026,4196205.868055496,2.37719,2.96804,-0.156403,-116.896,21.8004,20.3387,-0.184936,-7.39775,6.25543,0.0101211,0.00265796,0.00216278,4,0,41.38260542775206,-91.76766986704057,8969.968054911433,-77.89256353803769,-0.1393867833377886,4.163973853058442,200.427,9031.630405181751,11029.86252269048,150,True,9.248608255262706,False,163.21966485117392,175.9819707104218,False,20.671929022464994,True,False
2,1970-07-23 11:42:53.779302530,2025-09-17,2025-09-26 19:29:37.930,HH,C,1303217716,JASSM,3,102,76,2,2,1,225,9,2,0,1,26,0,0,0,0,-161919.12829764312,-4785885.280244674,4203519.886198521,-2.36559,-0.397109,0.382441,73.125,-30.5,-31.75,0.0,0.0,0.0,0.0,0.0,0.0,2,0,41.46790033819831,-91.93772830324916,10000.000419561076,119.86459043464858,-0.0049445263440542,0.0009232196197939,,9031.630405181751,11029.86252269048,150,2,2025-09-17,2025-09-26 19:29:37.943,HH,C,1801707398,AMBUSH51,1,1,48,2,1,1,225,2,1,0,0,9,1,225,2,1,-148032.7388541733,-4792351.860203654,4196229.09994188,2.40093,2.96412,-0.166856,-116.513,22.3436,21.0439,-0.192119,-7.73169,6.7026,0.0187347,-0.0092909,0.00256225,4,0,41.38288808161089,-91.76926806676002,8968.320894451861,-77.30059788010519,0.0986439328233125,5.487816357763632,200.133,9031.630405181751,11029.86252269048,150,True,9.13135048284279,False,163.6739338413271,175.80242994762045,False,20.399717175211386,True,False
2,1970-07-23 11:42:53.790162965,2025-09-17,2025-09-26 19:29:39.016,HH,C,1304470252,JASSM,3,102,76,2,2,1,225,9,2,0,1,26,0,0,0,0,-161842.38611014312,-4785917.473604049,4203486.413542271,-2.36559,-0.397109,0.382441,73.125,-30.5,-31.75,0.0,0.0,0.0,0.0,0.0,0.0,2,0,41.46749832381317,-91.9367975907809,10000.000899784987,119.865206750427,-0.0041395453251001,0.0009218718251068,,9031.630405181751,11029.86252269048,150,2,2025-09-17,2025-09-26 19:29:39.109,HH,C,1803099230,AMBUSH51,1,1,48,2,1,1,225,2,1,0,0,9,1,225,2,1,-148167.7267359345,-4792325.48968148,4196254.033880559,2.41289,2.95744,-0.177636,-116.084,22.8346,22.2226,-0.222579,-7.68889,6.66393,0.00480305,0.00966124,-0.00156149,4,0,41.38318847646061,-91.77089013591706,8967.781261345424,-76.5906342398551,0.2343056168177376,6.109418768701132,199.694,9031.630405181751,11029.86252269048,150,True,9.01269760851838,False,164.2815651035663,175.61988751660041,False,19.96726281908958,True,False
2,1970-07-23 11:42:53.801182114,2025-09-17,2025-09-26 19:29:40.118,HH,C,1305781026,JASSM,3,102,76,2,2,1,225,9,2,0,1,26,0,0,0,0,-161762.07605154935,-4785951.163057174,4203451.384245396,-2.36549,-0.397109,0.382441,73.125,-30.5,-31.75,0.0,0.0,0.0,0.0,0.0,0.0,2,0,41.4670776117887,-91.93582362051929,10000.00332580704,119.86585170616218,-0.0032971398954808,0.0064119339971775,,9031.630405181751,11029.86252269048,150,2,2025-09-17,2025-09-26 19:29:40.075,HH,C,1804252462,AMBUSH51,1,1,48,2,1,1,225,2,1,0,0,9,1,225,2,1,-148280.73040232743,-4792302.629649565,4196276.063436509,2.38443,2.95257,-0.178989,-115.763,23.6514,22.8927,-0.116867,-7.43648,6.45498,-0.0408639,-0.00135759,0.0214561,4,0,41.38345240395887,-91.77224833519853,8967.91579057786,-76.34954532607848,0.0836479487327859,4.4297680378219,199.351,9031.630405181751,11029.86252269048,150,True,8.902935103750563,False,164.80131979503756,175.4620528537059,False,19.613413082201916,True,False
2,1970-07-23 11:42:53.810226152,2025-09-17,2025-09-26 19:29:41.022,HH,C,1306914918,JASSM,3,102,76,2,2,1,225,9,2,0,1,26,0,0,0,0,-161692.60339529935,-4785980.303682174,4203421.079557896,-2.36549,-0.397109,0.382441,73.125,-30.5,-31.75,0.0,0.0,0.0,0.0,0.0,0.0,2,0,41.466713665279975,-91.93498109342484,9999.99741812343,119.86640961688724,-0.0025684128074663,0.0064107134021727,,9031.630405181751,11029.86252269048,150,2,2025-09-17,2025-09-26 19:29:40.842,HH,C,1805167094,AMBUSH51,1,1,48,2,1,1,225,2,1,0,0,9,1,225,2,1,-148369.48633528652,-4792284.536046173,4196293.554868341,2.36299,2.94629,-0.180889,-115.555,23.8194,23.332,-0.173759,-7.37823,6.42485,-0.00113496,-0.00977359,-0.00653827,4,0,41.38366178859141,-91.77331515820988,8968.094645681877,-76.03181883070197,-0.1044394200507838,3.137242271936211,198.985,9031.630405181751,11029.86252269048,150,True,8.812691258626726,False,165.02974500639763,175.33379876175624,False,19.510437400624056,True,False
2,1970-07-23 11:42:53.819281191,2025-09-17,2025-09-26 19:29:41.928,HH,C,1307989852,JASSM,3,102,76,2,2,1,225,9,2,0,1,26,0,0,0,0,-161626.74304373687,-4786007.930635299,4203392.351042271,-2.36549,-0.397109,0.382441,73.125,-30.5,-31.75,0.0,0.0,0.0,0.0,0.0,0.0,2,0,41.466368630766766,-91.9341823825075,9999.999667698348,119.86693850938006,-0.0018775731930607,0.0064095512135886,,9031.630405181751,11029.86252269048,150,2,2025-09-17,2025-09-26 19:29:41.943,HH,C,1806479392,AMBUSH51,1,1,48,2,1,1,225,2,1,0,0,9,1,225,2,1,-148495.7579639588,-4792257.979586791,4196319.146357491,2.3726,2.9436,-0.179907,-115.286,24.5835,23.598,-0.324302,-7.33357,6.41825,-0.0129465,-0.0056561,-0.00907035,4,0,41.38396927877802,-91.77483322343626,8967.884269206543,-75.97239591466058,-0.2533830305497688,3.659911119504261,198.569,9031.630405181751,11029.86252269048,150,True,8.704712970474985,False,165.38866541833642,175.1606807022136,False,19.339651026268072,True,False
2,1970-07-23 11:42:53.829301417,2025-09-17,2025-09-26 19:29:42.930,HH,C,1309123398,JASSM,3,102,76,2,2,1,225,9,2,0,1,26,0,0,0,0,-161557.29187186187,-4786037.061494674,4203362.056120396,-2.36549,-0.397013,0.382441,73.125,-30.5,-31.75,0.0,0.0,0.0,0.0,0.0,0.0,2,0,41.46600479189406,-91.93334013461713,9999.999363392964,119.86385888306394,-0.0047187170424766,0.0043585463212278,,9031.630405181751,11029.86252269048,150,2,2025-09-17,2025-09-26 19:29:42.742,HH,C,1807433792,AMBUSH51,1,1,48,2,1,1,225,2,1,0,0,9,1,225,2,1,-148587.88667626955,-4792238.072920896,4196338.213870323,2.36873,2.93586,-0.185109,-115.067,25.0462,23.902,-0.201816,-7.25601,6.13391,-0.0104623,-0.0044868,0.0105954,4,0,41.384199443041645,-91.77594102068396,8967.28863321832,-75.45914860666772,-0.3742782834946139,3.354557966395012,198.276,9031.630405181751,11029.86252269048,150,True,8.612366073295526,False,165.66203928264008,175.0256511434571,False,19.207713248392093,True,False
2,1970-07-23 11:42:53.838200286,2025-09-17,2025-09-26 19:29:43.820,HH,C,1310256808,JASSM,3,102,76,2,2,1,225,9,2,0,1,26,0,0,0,0,-161487.84851248687,-4786066.188447799,4203331.763151646,-2.36549,-0.397013,0.382441,73.125,-30.5,-31.75,0.0,0.0,0.0,0.0,0.0,0.0,2,0,41.46564098169847,-91.93249799113974,9999.997738149465,119.8644165279811,-0.0039902981062959,0.0043572806505752,,9031.630405181751,11029.86252269048,150,2,2025-09-17,2025-09-26 19:29:43.742,HH,C,1808626790,AMBUSH51,1,1,48,2,1,1,225,2,1,0,0,9,1,225,2,1,-148702.98494905583,-4792212.568459655,4196362.442713564,2.37221,2.92912,-0.184286,-114.896,25.716,24.2589,-0.272362,-7.13651,6.40059,-0.00445559,0.000171649,-0.000879051,4,0,41.3844935025612,-91.77732526059624,8965.873325884726,-75.23913888771213,-0.6850454620158175,3.48121795962346,198.239,9031.630405181751,11029.86252269048,150,True,8.507685262726108,False,166.00828731589843,174.86102839836434,False,19.036437520217195,True,False
2,1970-07-23 11:42:53.848242593,2025-09-17,2025-09-26 19:29:44.824,HH,C,1311390478,JASSM,3,102,76,2,2,1,225,9,2,0,1,26,0,0,0,0,-161418.38903983062,-4786095.323213424,4203301.464323521,-2.36549,-0.397013,0.382441,73.125,-30.5,-31.75,0.0,0.0,0.0,0.0,0.0,0.0,2,0,41.46527708250627,-91.93165566124878,10000.004630214791,119.8649742923118,-0.0032617106309696,0.004356016214496,,9031.630405181751,11029.86252269048,150,2,2025-09-17,2025-09-26 19:29:44.875,HH,C,1809978856,AMBUSH51,1,1,48,2,1,1,225,2,1,0,0,9,1,225,2,1,-148833.802895973,-4792182.608232261,4196390.392590659,2.36556,2.92109,-0.185483,-114.702,26.4913,24.5812,-0.268148,-7.31884,6.31688,0.00272454,0.00513387,-0.00303663,4,0,41.38483626870261,-91.77889893073382,8962.774643462366,-74.88384226515606,-0.9713525031181596,3.0101996911189786,198.129,9031.630405181751,11029.86252269048,150,True,8.394417334881942,False,166.37479884404755,174.67482328573462,False,18.869317193985992,True,False
2,1970-07-23 11:42:53.858923649,2025-09-17,2025-09-26 19:29:45.892,HH,C,1312581392,JASSM,3,102,76,2,2,1,225,9,2,0,1,26,0,0,0,0,-161345.42273123687,-4786125.924775924,4203269.632292271,-2.36549,-0.397013,0.382441,73.125,-30.5,-31.75,0.0,0.0,0.0,0.0,0.0,0.0,2,0,41.464894805427456,-91.93077081603364,9999.997750188217,119.86556020461644,-0.0024963401940125,0.0043546882810833,,9031.630405181751,11029.86252269048,150,2,2025-09-17,2025-09-26 19:29:45.742,HH,C,1811012788,AMBUSH51,1,1,48,2,1,1,225,2,1,0,0,9,1,225,2,1,-148932.4535617645,-4792159.179287954,4196412.094057368,2.3535,2.91406,-0.189072,-114.64,26.9772,25.0734,-0.0536206,-7.45832,6.32798,-0.0250764,-0.00631981,-0.00186317,4,0,41.38510392267686,-91.7800859671157,8959.742135177674,-74.4657436113394,-1.1224535976637793,2.2365675860989334,198.313,9031.630405181751,11029.86252269048,150,True,8.29583963859696,False,166.69648637498278,174.52541681214896,False,18.70002926454956,True,False
2,1970-07-23 11:42:53.867320018,2025-09-17,2025-09-26 19:29:46.732,HH,C,1313714932,JASSM,3,102,76,2,2,1,225,9,2,0,1,26,0,0,0,0,-161275.97155936187,-4786155.053682174,4203239.333464146,-2.36549,-0.397013,0.382536,73.125,-30.5,-31.75,0.0,0.0,0.0,0.0,0.0,0.0,2,0,41.46453092677262,-91.92992860707548,9999.99787745675,119.86996555715535,-0.0056883463854932,0.0043531643287665,,9031.630405181751,11029.86252269048,150,2,2025-09-17,2025-09-26 19:29:46.775,HH,C,1812245554,AMBUSH51,1,1,48,2,1,1,225,2,1,0,0,9,1,225,2,1,-149051.42967985693,-4792130.72471342,4196438.2633998925,2.33221,2.91146,-0.187412,-114.537,27.5059,25.1833,-0.270913,-7.31788,6.22084,-0.0262894,-0.00444311,-0.000960194,4,0,41.38542786391163,-91.78151766122316,8955.596570102158,-74.43725099311861,-1.2937382875810923,0.9884154678447798,198.423,9031.630405181751,11029.86252269048,150,True,8.188596993395398,False,166.90109110102938,174.34849236905566,False,18.6830579438793,True,False
2,1970-07-23 11:42:53.876205451,2025-09-17,2025-09-26 19:29:47.620,HH,C,1314790104,JASSM,3,102,76,2,2,1,225,9,2,0,1,26,0,0,0,0,-161210.09655936187,-4786182.682588424,4203210.595182896,-2.36549,-0.397013,0.382536,73.125,-30.5,-31.75,0.0,0.0,0.0,0.0,0.0,0.0,2,0,41.4641857824968,-91.92912977378715,10000.001763113098,119.87049450793788,-0.0049973550433879,0.0043520055400259,,9031.630405181751,11029.86252269048,150,2,2025-09-17,2025-09-26 19:29:47.643,HH,C,1813279486,AMBUSH51,1,1,48,2,1,1,225,2,1,0,0,9,1,225,2,1,-149150.48105438869,-4792106.712699511,4196460.069417747,2.31795,2.91167,-0.188033,-114.484,27.6613,25.3085,-0.0246432,-7.11849,6.27288,-0.0113985,-0.00167384,-0.00305951,4,0,41.38569959056372,-91.78270972300342,8951.39915325259,-74.42015539075986,-1.2597233769948124,0.1733725000629684,198.459,9031.630405181751,11029.86252269048,150,True,8.094257095638953,False,166.99702980911783,174.19449209647152,False,18.7431135534429,True,False
2,1970-07-23 11:42:53.885261492,2025-09-17,2025-09-26 19:29:48.526,HH,C,1315864494,JASSM,3,102,76,2,2,1,225,9,2,0,1,26,0,0,0,0,-161144.26892264312,-4786210.288057174,4203181.876432896,-2.36549,-0.397013,0.382536,73.125,-30.5,-31.75,0.0,0.0,0.0,0.0,0.0,0.0,2,0,41.46384089446224,-91.92833152475134,9999.997453173304,119.87102306823824,-0.0043068682064479,0.0043508588589978,,9031.630405181751,11029.86252269048,150,2,2025-09-17,2025-09-26 19:29:48.442,HH,C,1814233884,AMBUSH51,1,1,48,2,1,1,225,2,1,0,0,9,1,225,2,1,-149242.02592976572,-4792084.28472022,4196480.281901006,2.3056,2.90898,-0.187783,-114.521,27.8743,25.3033,0.124632,-7.11769,5.9947,-0.0242649,-0.00707298,-0.00414975,4,0,41.38595251402412,-91.78381154262308,8947.072915606772,-74.32872659819394,-1.379986411284356,-0.5652706929422495,198.423,9031.630405181751,11029.86252269048,150,True,8.003958918269618,False,167.04965434640732,174.0471141283124,False,18.842881620020776,True,False
2,1970-07-23 11:42:53.895280845,2025-09-17,2025-09-26 19:29:49.528,HH,C,1316996400,JASSM,3,102,76,2,2,1,225,9,2,0,1,26,0,0,0,0,-161074.91784842435,-4786239.372041549,4203151.620573521,-2.36549,-0.397013,0.382536,73.125,-30.5,-31.75,0.0,0.0,0.0,0.0,0.0,0.0,2,0,41.46347753514411,-91.92749055805264,9999.99862863504,119.87157991011344,-0.0035794201109643,0.0043496465202903,,9031.630405181751,11029.86252269048,150,2,2025-09-17,2025-09-26 19:29:49.442,HH,C,1815426884,AMBUSH51,1,1,48,2,1,1,225,2,1,0,0,9,1,225,2,1,-149356.61070909072,-4792056.215006215,4196505.2806074405,2.29233,2.90869,-0.182866,-114.671,28.0243,25.1093,-0.228133,-7.28501,6.23591,-0.00735594,0.00102885,-0.00947399,4,0,41.386267029528206,-91.78519067846696,8941.019222600273,-74.525831828409,-1.5818366669436696,-1.3236862235811555,198.386,9031.630405181751,11029.86252269048,150,True,7.899241478668101,False,167.00037448586846,173.86322615611454,False,19.082495011264044,True,False
2,1970-07-23 11:42:53.904179799,2025-09-17,2025-09-26 19:29:50.417,HH,C,1318070142,JASSM,3,102,76,2,2,1,225,9,2,0,1,26,0,0,0,0,-161009.13025076812,-4786266.961885299,4203122.917448521,-2.36549,-0.397013,0.382536,73.125,-30.5,-31.75,0.0,0.0,0.0,0.0,0.0,0.0,2,0,41.46313282610412,-91.92669281143408,9999.999424815034,119.8721081303222,-0.0028893432179496,0.0043484838641553,,9031.630405181751,11029.86252269048,150,2,2025-09-17,2025-09-26 19:29:50.308,HH,C,1816460816,AMBUSH51,1,1,48,2,1,1,225,2,1,0,0,9,1,225,2,1,-149454.98776260694,-4792031.97821248,4196526.617502801,2.28119,2.91487,-0.178133,-114.7,28.0698,24.8987,-0.141327,-7.35276,6.44898,-0.0171119,0.000431723,0.00360255,4,0,41.38653701263031,-91.78637480150304,8935.216662634592,-74.96225808850748,-1.508179845523892,-1.886841554400202,198.533,9031.630405181751,11029.86252269048,150,True,7.805494004515069,False,166.93326911846958,173.69810479760343,False,19.31911521088543,True,False
2,1970-07-23 11:42:53.914199912,2025-09-17,2025-09-26 19:29:51.419,HH,C,1319262452,JASSM,3,102,76,2,2,1,225,9,2,0,1,26,0,0,0,0,-160936.07800467435,-4786297.596650924,4203091.046354771,-2.36549,-0.397013,0.382536,73.125,-30.5,-31.75,0.0,0.0,0.0,0.0,0.0,0.0,2,0,41.4627500667316,-91.92580698359076,10000.003139417242,119.87269466843078,-0.0021230748596946,0.0043472107000363,,9031.630405181751,11029.86252269048,150,2,2025-09-17,2025-09-26 19:29:51.475,HH,C,1817852648,AMBUSH51,1,1,48,2,1,1,225,2,1,0,0,9,1,225,2,1,-149589.57446037556,-4791999.067403352,4196555.193947292,2.26167,2.91939,-0.170931,-114.909,28.0897,24.3461,-0.162612,-7.28687,6.15078,-0.0114381,-0.00435572,0.0072748,4,0,41.38690073542578,-91.78799468962612,8926.562867611767,-75.4398846000323,-1.5981960891177156,-2.9472593810440846,198.789,9031.630405181751,11029.86252269048,150,True,7.688146051419485,False,166.7091326471874,173.47236284229263,False,19.777215490556422,True,False
2,1970-07-23 11:42:53.923264131,2025-09-17,2025-09-26 19:29:52.326,HH,C,1320395846,JASSM,3,102,76,2,2,1,225,9,2,0,1,26,0,0,0,0,-160866.63562186187,-4786326.715791549,4203060.747526646,-2.36549,-0.397013,0.382536,73.125,-30.5,-31.75,0.0,0.0,0.0,0.0,0.0,0.0,2,0,41.46238620800173,-91.92496493915488,9999.99995526559,119.87325221186168,-0.0013946684543174,0.004345994084976,,9031.630405181751,11029.86252269048,150,2,2025-09-17,2025-09-26 19:29:52.142,HH,C,1818647980,AMBUSH51,1,1,48,2,1,1,225,2,1,0,0,9,1,225,2,1,-149665.47785114383,-4791980.515835561,4196571.143162932,2.25319,2.91961,-0.167547,-115.093,28.0019,24.1018,-0.156662,-7.30263,6.439,-0.00765763,-0.00758689,0.0033508,4,0,41.387104671825135,-91.78890826941324,8921.34711794709,-75.5917337815184,-1.7195430074326965,-3.4269747690281265,198.985,9031.630405181751,11029.86252269048,150,True,7.60440918914841,False,166.57056550510188,173.32622325860473,False,20.063511338952573,True,False
2,1970-07-23 11:42:53.933281237,2025-09-17,2025-09-26 19:29:53.328,HH,C,1321530962,JASSM,3,102,76,2,2,1,225,9,2,0,1,26,0,0,0,0,-160797.08777029935,-4786355.879854049,4203030.401823521,-2.36549,-0.396918,0.382536,73.125,-30.5,-31.75,0.0,0.0,0.0,0.0,0.0,0.0,2,0,41.46202178051821,-91.92412162498182,10000.00000708416,119.87017351654644,-0.0042347858219777,0.002294457056242,,9031.630405181751,11029.86252269048,150,2,2025-09-17,2025-09-26 19:29:53.476,HH,C,1820238646,AMBUSH51,1,1,48,2,1,1,225,2,1,0,0,9,1,225,2,1,-149818.37369120502,-4791943.352298835,4196602.651177514,2.24836,2.93225,-0.154618,-115.208,27.8545,23.3272,-0.172031,-7.08983,6.28258,0.041047,0.00668599,-0.0043474,4,0,41.38751004361535,-91.79074847885433,8910.013718562981,-76.62255988246864,-1.6905432672773906,-3.556856323559165,199.315,9031.630405181751,11029.86252269048,150,True,7.480012367658119,False,166.23191670726047,173.06013894283421,False,20.675538786025516,True,False
2,1970-07-23 11:42:53.943320357,2025-09-17,2025-09-26 19:29:54.332,HH,C,1322723602,JASSM,3,102,76,2,2,1,225,9,2,0,1,26,0,0,0,0,-160724.01501639312,-4786386.520479049,4202998.519011021,-2.36549,-0.396918,0.382536,73.125,-30.5,-31.75,0.0,0.0,0.0,0.0,0.0,0.0,2,0,41.46163889144454,-91.923235579813,10000.001845795476,119.8707601857108,-0.0034683018201003,0.0022931323261825,,9031.630405181751,11029.86252269048,150,2,2025-09-17,2025-09-26 19:29:54.342,HH,C,1821272578,AMBUSH51,1,1,48,2,1,1,225,2,1,0,0,9,1,225,2,1,-149918.11914601718,-4791919.287588794,4196622.776365029,2.27122,2.94019,-0.150809,-115.328,27.5805,23.191,-0.0707131,-7.37878,6.37949,0.0139327,0.00254561,-0.0037149,4,0,41.38777051015761,-91.79194893204092,8902.137291902864,-77.08768597262639,-1.5042056544990945,-2.1646695257990234,199.681,9031.630405181751,11029.86252269048,150,True,7.381795888895169,False,166.09225228801435,172.86366995897984,False,21.009072036694693,True,False
2,1970-07-23 11:42:53.953199218,2025-09-17,2025-09-26 19:29:55.319,HH,C,1323917644,JASSM,3,102,76,2,2,1,225,9,2,0,1,26,0,0,0,0,-160650.85681326812,-4786417.196260299,4202966.597136021,-2.36549,-0.396918,0.382536,73.125,-30.5,-31.75,0.0,0.0,0.0,0.0,0.0,0.0,2,0,41.46125553978084,-91.9223485092407,10000.001919726848,119.87134752935386,-0.0027009176596132,0.0022917989891957,,9031.630405181751,11029.86252269048,150,2,2025-09-17,2025-09-26 19:29:55.308,HH,C,1822425810,AMBUSH51,1,1,48,2,1,1,225,2,1,0,0,9,1,225,2,1,-150030.77240192913,-4791892.296883313,4196645.217556767,2.29065,2.94355,-0.150459,-115.476,27.2755,23.2286,-0.176072,-7.80189,6.61206,0.0198894,0.0138432,-0.00221687,4,0,41.38806160207115,-91.79330467500388,8893.085795086597,-77.23158116823639,-1.3757523893616566,-1.0193458443923673,199.791,9031.630405181751,11029.86252269048,150,True,7.276935686643538,False,166.0034210791858,172.6400742983819,False,21.316103228387334,True,False
2,1970-07-23 11:42:53.963222103,2025-09-17,2025-09-26 19:29:56.322,HH,C,1325109904,JASSM,3,102,76,2,2,1,225,9,2,0,1,26,0,0,0,0,-160577.80749686187,-4786447.825166549,4202934.722136021,-2.36549,-0.396918,0.382536,73.125,-30.5,-31.75,0.0,0.0,0.0,0.0,0.0,0.0,2,0,41.46087275479663,-91.9214627698742,10000.001366674607,119.87193398712844,-0.0019346773938058,0.0022904699910208,,9031.630405181751,11029.86252269048,150,2,2025-09-17,2025-09-26 19:29:56.309,HH,C,1823618808,AMBUSH51,1,1,48,2,1,1,225,2,1,0,0,9,1,225,2,1,-150146.32805850508,-4791865.066671364,4196668.428501075,2.32797,2.94695,-0.155592,-115.596,26.7482,23.782,0.0197069,-8.06463,6.69835,0.0586426,0.00017581,0.0173823,4,0,41.38835875950305,-91.79469519050572,8885.345656694482,-77.14423307376578,-1.0343711344815003,1.146861425578015,199.987,9031.630405181751,11029.86252269048,150,True,7.1707912366461946,False,166.04052544990782,172.40511012928172,False,21.49638683655925,True,False
2,1970-07-23 11:42:53.973260175,2025-09-17,2025-09-26 19:29:57.326,HH,C,1326302378,JASSM,3,102,76,2,2,1,225,9,2,0,1,26,0,0,0,0,-160504.74499686187,-4786478.457979049,4202902.841276646,-2.36549,-0.396918,0.382632,73.125,-30.5,-31.75,0.0,0.0,0.0,0.0,0.0,0.0,2,0,41.46048990281884,-91.9205768817237,10000.00034441972,119.87636835674152,-0.0050886762135409,0.0022889381297238,,9031.630405181751,11029.86252269048,150,2,2025-09-17,2025-09-26 19:29:57.308,HH,C,1824811806,AMBUSH51,1,1,48,2,1,1,225,2,1,0,0,9,1,225,2,1,-150261.7796130572,-4791838.13710268,4196692.39912326,2.39656,2.95246,-0.164813,-115.496,26.4913,24.8048,-0.347104,-8.22234,7.25503,0.0758595,0.00899545,-0.00357342,4,0,41.38865926121626,-91.79608436356234,8879.992517723376,-76.96295735679591,-0.4478032757939806,5.12454329069828,199.987,9031.630405181751,11029.86252269048,150,True,7.0646861266681915,False,166.34038945759798,172.16522207119178,False,21.413204592047375,True,False
2,1970-07-23 11:42:53.983300119,2025-09-17,2025-09-26 19:29:58.330,HH,C,1327495646,JASSM,3,102,76,2,2,1,225,9,2,0,1,26,0,0,0,0,-160431.63366873687,-4786509.112275924,4202870.936979771,-2.36549,-0.396918,0.382632,73.125,-30.5,-31.75,0.0,0.0,0.0,0.0,0.0,0.0,2,0,41.460106767721214,-91.91969041155384,10000.000930596854,119.87695528956166,-0.0043217797451985,0.0022876494174782,,9031.630405181751,11029.86252269048,150,2,2025-09-17,2025-09-26 19:29:58.242,HH,C,1825925272,AMBUSH51,1,1,48,2,1,1,225,2,1,0,0,9,1,225,2,1,-150368.26506197493,-4791813.4348358335,4196715.804604559,2.45119,2.95313,-0.184023,-115.159,26.4155,26.4801,-0.301279,-8.68567,7.55687,0.0587217,0.00909324,0.0203472,4,0,41.388944356444895,-91.79736561280087,8878.208387816427,-76.17362258445738,0.3203188544499996,8.26035142310776,199.718,9031.630405181751,11029.86252269048,150,True,6.963075393158756,False,166.93543695382948,171.93721662560858,False,21.007146667426202,True,False
2,1970-07-23 11:42:53.993179394,2025-09-17,2025-09-26 19:29:59.317,HH,C,1328688148,JASSM,3,102,76,2,2,1,225,9,2,0,1,26,0,0,0,0,-160358.56970389312,-4786539.745088424,4202839.054167271,-2.36549,-0.396918,0.382632,73.125,-30.5,-31.75,0.0,0.0,0.0,0.0,0.0,0.0,2,0,41.45972388916332,-91.91880452673684,10000.003042878076,119.877541830363,-0.0035553880276676,0.0022863744343993,,9031.630405181751,11029.86252269048,150,2,2025-09-17,2025-09-26 19:29:59.242,HH,C,1827118272,AMBUSH51,1,1,48,2,1,1,225,2,1,0,0,9,1,225,2,1,-150482.7000456903,-4791786.682539968,4196743.2375668455,2.51244,2.94704,-0.205693,-114.354,26.7513,28.6585,0.00481266,-8.04329,7.08953,0.0463088,0.0120414,0.00248943,4,0,41.389267340285166,-91.79874260202662,8880.737784388952,-75.02489978051786,0.9020840192051502,11.714702239606332,199.205,9031.630405181751,11029.86252269048,150,False,6.85681612228844,False,167.8676826324426,171.69625283645357,False,20.263902494407468,True,False
2,1970-07-23 11:42:54.003199382,2025-09-17,2025-09-26 19:30:00.319,HH,C,1329881168,JASSM,3,102,76,2,2,1,225,9,2,0,1,26,0,0,0,0,-160285.47351248687,-4786570.389619674,4202807.155729771,-2.36549,-0.396918,0.382632,73.125,-30.5,-31.75,0.0,0.0,0.0,0.0,0.0,0.0,2,0,41.45934083501377,-91.91791826232544,10000.00110760926,119.8781286180358,-0.0027886587593533,0.0022850987107444,,9031.630405181751,11029.86252269048,150,2,2025-09-17,2025-09-26 19:30:00.308,HH,C,1828390804,AMBUSH51,1,1,48,2,1,1,225,2,1,0,0,9,1,225,2,1,-150604.84668248583,-4791757.23679297,4196775.1041828,2.54321,2.93317,-0.235202,-113.226,27.386,31.1908,-0.159288,-7.918,7.14459,0.0280787,0.0088186,0.0257089,4,0,41.38963482304766,-91.80021273416234,8886.862114710313,-73.25302089914688,1.467695828269816,13.340372415629025,198.569,9031.630405181751,11029.86252269048,150,False,6.745720334932453,False,169.02780534244135,171.44410819119003,False,19.282690467781315,True,False
2,1970-07-23 11:42:54.012241378,2025-09-17,2025-09-26 19:30:01.224,HH,C,1331014562,JASSM,3,102,76,2,2,1,225,9,2,0,1,26,0,0,0,0,-160216.03210623687,-4786599.500947799,4202776.851042271,-2.36549,-0.396918,0.382632,73.125,-30.5,-31.75,0.0,0.0,0.0,0.0,0.0,0.0,2,0,41.45897692514036,-91.9170763208942,9999.997796207408,119.87868605573446,-0.0020602649334496,0.0022838849023251,,9031.630405181751,11029.86252269048,150,2,2025-09-17,2025-09-26 19:30:01.242,HH,C,1829504268,AMBUSH51,1,1,48,2,1,1,225,2,1,0,0,9,1,225,2,1,-150708.8779785331,-4791730.9608010985,4196804.423872367,2.56011,2.91868,-0.249526,-112.189,28.6883,32.9197,-0.188653,-7.81828,6.74947,0.0126094,0.0119686,0.0180336,4,0,41.38996962540986,-91.80146529593794,8893.866516562064,-72.10410353349933,1.428268407004765,14.138416002997786,198.007,9031.630405181751,11029.86252269048,150,False,6.645905870761217,False,170.14220309651364,171.2257492678117,False,18.366722964233773,True,False
2,1970-07-23 11:42:54.022280692,2025-09-17,2025-09-26 19:30:02.228,HH,C,1332149060,JASSM,3,102,76,2,2,1,225,9,2,0,1,26,0,0,0,0,-160146.52038748687,-4786628.641572799,4202746.517057896,-2.36549,-0.396822,0.382632,73.125,-30.5,-31.75,0.0,0.0,0.0,0.0,0.0,0.0,2,0,41.45861265102858,-91.916233536459,10000.000445419944,119.87560724089909,-0.0049007672073013,0.0002319225028411,,9031.630405181751,11029.86252269048,150,2,2025-09-17,2025-09-26 19:30:02.242,HH,C,1830697268,AMBUSH51,1,1,48,2,1,1,225,2,1,0,0,9,1,225,2,1,-150820.35471051515,-4791701.015919134,4196838.2621738445,2.56903,2.90377,-0.260904,-111.016,30.2314,34.81,-0.27426,-7.45866,6.57434,0.00271206,-0.00215029,0.0221968,4,0,41.39035535237163,-91.80280818827686,8902.229760626504,-71.06540176349974,1.2630534091576766,14.458514241497785,197.408,9031.630405181751,11029.86252269048,150,False,6.541067843939498,False,171.4062230582293,170.9993005537385,False,17.308028320591404,True,False
2,1970-07-23 11:42:54.032301266,2025-09-17,2025-09-26 19:30:03.230,HH,C,1333341698,JASSM,3,102,76,2,2,1,225,9,2,0,1,26,0,0,0,0,-160073.44763358062,-4786659.274385299,4202714.626432896,-2.36549,-0.396822,0.382632,73.125,-30.5,-31.75,0.0,0.0,0.0,0.0,0.0,0.0,2,0,41.45822969480934,-91.91534758722108,9999.999490117616,119.87619380705571,-0.0041342817088837,0.0002305938158338,,9031.630405181751,11029.86252269048,150,2,2025-09-17,2025-09-26 19:30:03.108,HH,C,1831731200,AMBUSH51,1,1,48,2,1,1,225,2,1,0,0,9,1,225,2,1,-150917.15972960906,-4791673.519293148,4196869.069549698,2.56647,2.8862,-0.272064,-110.048,31.6865,36.02,-0.179621,-7.32361,6.39759,-0.0131587,0.0144965,0.0174822,4,0,41.39070878489948,-91.80397491309172,8908.911715095655,-69.93664805967592,0.986955807206142,14.068469951724344,196.846,9031.630405181751,11029.86252269048,150,False,6.44149952176294,False,172.41673387277018,170.79260486691805,False,16.517753006355715,True,False
2,1970-07-23 11:42:54.042179210,2025-09-17,2025-09-26 19:30:04.217,HH,C,1334534534,JASSM,3,102,76,2,2,1,225,9,2,0,1,26,0,0,0,0,-160000.36267264312,-4786689.913057174,4202682.729948521,-2.36549,-0.396822,0.382632,73.125,-30.5,-31.75,0.0,0.0,0.0,0.0,0.0,0.0,2,0,41.45784665975899,-91.91446150011186,10000.00295238884,119.87678046003752,-0.003367663934306,0.0002292580450817,,9031.630405181751,11029.86252269048,150,2,2025-09-17,2025-09-26 19:30:04.208,HH,C,1833043498,AMBUSH51,1,1,48,2,1,1,225,2,1,0,0,9,1,225,2,1,-151037.5194306222,-4791637.054225886,4196909.136071496,2.55024,2.86335,-0.277548,-108.909,33.7746,37.1568,0.0105754,-6.59158,5.65979,-0.0209256,-0.00804462,0.0183519,4,0,41.39117365143844,-91.80542640072476,8915.448074850958,-68.84632433626571,0.2835285987718785,12.795161662126697,196.467,9031.630405181751,11029.86252269048,150,False,6.327860772365083,False,173.65876660154763,170.55270386734745,False,15.58049478513218,True,False
2,1970-07-23 11:42:54.051220014,2025-09-17,2025-09-26 19:30:05.122,HH,C,1335668582,JASSM,3,102,76,2,2,1,225,9,2,0,1,26,0,0,0,0,-159930.87976248687,-4786719.038057174,4202652.403776646,-2.3654,-0.396822,0.382632,73.125,-30.5,-31.75,0.0,0.0,0.0,0.0,0.0,0.0,2,0,41.45748250642799,-91.91361909563008,9999.997063854178,119.87733818786494,-0.0026388353459603,0.0057194682032541,,9031.630405181751,11029.86252269048,150,2,2025-09-17,2025-09-26 19:30:05.142,HH,C,1834156964,AMBUSH51,1,1,48,2,1,1,225,2,1,0,0,9,1,225,2,1,-151138.5035142918,-4791603.930563016,4196943.893706985,2.53724,2.84787,-0.285534,-107.994,35.853,37.7023,-0.140884,-6.94975,5.94355,-0.0185849,-0.0137059,0.0120165,4,0,41.3915864144844,-91.80664519460272,8917.193388493684,-67.92920937988059,-0.0192631515084196,11.806464107603023,196.321,9031.630405181751,11029.86252269048,150,False,6.226638926738056,False,174.67061222156684,170.3450775098749,False,14.878175508442501,True,False
2,1970-07-23 11:42:54.061260759,2025-09-17,2025-09-26 19:30:06.126,HH,C,1336860048,JASSM,3,102,76,2,2,1,225,9,2,0,1,26,0,0,0,0,-159857.87878592435,-4786749.639619674,4202620.544401646,-2.3654,-0.396822,0.382632,73.125,-30.5,-31.75,0.0,0.0,0.0,0.0,0.0,0.0,2,0,41.457099912591175,-91.91273404782306,10000.004144582606,119.87792414407166,-0.0018731060846991,0.0057181461113319,,9031.630405181751,11029.86252269048,150,2,2025-09-17,2025-09-26 19:30:06.208,HH,C,1835429496,AMBUSH51,1,1,48,2,1,1,225,2,1,0,0,9,1,225,2,1,-151253.07330210574,-4791564.332846575,4196984.53446827,2.51147,2.8345,-0.293207,-107.12,37.4534,38.7698,0.00704686,-6.99442,6.13517,-0.0177589,0.00331751,0.00989843,4,0,41.39207484424923,-91.8080287359421,8916.835819145135,-67.10506918924654,-0.2456234059178141,10.109267456057138,196.284,9031.630405181751,11029.86252269048,150,False,6.11471729388315,False,175.66138328997846,170.1147228769684,False,14.159176151916757,True,False
2,1970-07-23 11:42:54.071298451,2025-09-17,2025-09-26 19:30:07.129,HH,C,1337994474,JASSM,3,102,76,2,2,1,225,9,2,0,1,26,0,0,0,0,-159788.37292654935,-4786778.772432174,4202590.206511021,-2.3654,-0.396822,0.382728,73.125,-30.5,-31.75,0.0,0.0,0.0,0.0,0.0,0.0,2,0,41.45673562556153,-91.91189138516113,9999.997068639124,119.88232999355304,-0.0050642707420876,0.0057166743361979,,9031.630405181751,11029.86252269048,150,2,2025-09-17,2025-09-26 19:30:07.275,HH,C,1836702028,AMBUSH51,1,1,48,2,1,1,225,2,1,0,0,9,1,225,2,1,-151366.22056739242,-4791523.650847675,4197026.063429971,2.4927,2.82493,-0.30972,-106.394,38.4281,40.1948,-0.279655,-7.87857,7.01327,-0.0345722,-0.00153652,0.0195212,4,0,41.39257597109336,-91.80939571403104,8915.635517965486,-66.061155622195,0.0339358647402378,8.868760853881865,196.516,9031.630405181751,11029.86252269048,150,True,6.005144648702091,False,176.54318654410065,169.88918605296377,False,13.492553106936867,True,False
2,1970-07-23 11:42:54.080179311,2025-09-17,2025-09-26 19:30:08.017,HH,C,1339128790,JASSM,3,102,76,2,2,1,225,9,2,0,1,26,0,0,0,0,-159718.87341483062,-4786807.903291549,4202559.872526646,-2.3654,-0.396822,0.382728,73.125,-30.5,-31.75,0.0,0.0,0.0,0.0,0.0,0.0,2,0,41.45637136905251,-91.91104880860182,9999.997589721454,119.88288782309488,-0.0043352694329127,0.0057154631766056,,9031.630405181751,11029.86252269048,150,2,2025-09-17,2025-09-26 19:30:07.842,HH,C,1837378060,AMBUSH51,1,1,48,2,1,1,225,2,1,0,0,9,1,225,2,1,-151426.35303503403,-4791501.269334864,4197049.137605367,2.4818,2.82015,-0.312711,-105.976,39.2457,40.8108,-0.219479,-7.6036,6.70733,-0.0216912,0.00681707,0.00457211,4,0,41.3928535914216,-91.81012249468898,8915.30596164589,-65.75692335724051,-0.0343323495768805,8.16021043998399,196.663,9031.630405181751,11029.86252269048,150,True,5.926334050461489,False,177.06318213058572,169.7360957302114,False,13.146538543318632,True,False
2,1970-07-23 11:42:54.091197167,2025-09-17,2025-09-26 19:30:09.119,HH,C,1340379690,JASSM,3,102,76,2,2,1,225,9,2,0,1,26,0,0,0,0,-159642.23083670562,-4786840.028291549,4202526.419401646,-2.3654,-0.396822,0.382728,73.125,-30.5,-31.75,0.0,0.0,0.0,0.0,0.0,0.0,2,0,41.45596965710149,-91.91011964404404,9999.999207283374,119.88350297372702,-0.0035313370525876,0.0057141184467156,,9031.630405181751,11029.86252269048,150,2,2025-09-17,2025-09-26 19:30:08.942,HH,C,1838690360,AMBUSH51,1,1,48,2,1,1,225,2,1,0,0,9,1,225,2,1,-151543.13132766425,-4791457.148729149,4197095.118376082,2.4452,2.81057,-0.3294,-105.293,39.7519,42.2959,-0.154726,-7.8797,6.89794,-0.0398049,0.00524622,0.00406444,4,0,41.39340452153975,-91.8115341806296,8915.59955288675,-64.70882985868657,0.2586683409414071,5.891970244002192,196.736,9031.630405181751,11029.86252269048,150,True,5.809036663047444,False,177.79342043020202,169.49789954799644,False,12.591430897164194,True,False
2,1970-07-23 11:42:54.100238576,2025-09-17,2025-09-26 19:30:10.023,HH,C,1341514710,JASSM,3,102,76,2,2,1,225,9,2,0,1,26,0,0,0,0,-159572.68786795562,-4786869.174775924,4202496.065886021,-2.3654,-0.396822,0.382728,73.125,-30.5,-31.75,0.0,0.0,0.0,0.0,0.0,0.0,2,0,41.45560517141356,-91.90927656150755,9999.999274816484,119.8840611297708,-0.0028018862732275,0.0057129161629872,,9031.630405181751,11029.86252269048,150,2,2025-09-17,2025-09-26 19:30:10.042,HH,C,1840002658,AMBUSH51,1,1,48,2,1,1,225,2,1,0,0,9,1,225,2,1,-151657.90683693788,-4791413.249311924,4197141.951958024,2.39988,2.80941,-0.338285,-104.776,40.0522,43.3627,-0.0599228,-7.76093,6.88536,-0.0389706,-0.000546156,0.00512346,4,0,41.39396025363827,-91.81292188139376,8918.140502210632,-64.3012196403135,0.5699221292005211,3.276724207719496,196.663,9031.630405181751,11029.86252269048,150,True,5.696866093018284,False,178.25187355726288,169.26794325855906,False,12.262642385972878,True,False
2,1970-07-23 11:42:54.110280662,2025-09-17,2025-09-26 19:30:11.028,HH,C,1342706426,JASSM,3,102,76,2,2,1,225,9,2,0,1,26,0,0,0,0,-159499.67126639312,-4786899.778291549,4202464.194792271,-2.3654,-0.396822,0.382728,73.125,-30.5,-31.75,0.0,0.0,0.0,0.0,0.0,0.0,2,0,41.45522245647235,-91.90839137715324,10000.002779788609,119.88464715464426,-0.0020359911444748,0.0057116394750849,,9031.630405181751,11029.86252269048,150,2,2025-09-17,2025-09-26 19:30:11.141,HH,C,1841314956,AMBUSH51,1,1,48,2,1,1,225,2,1,0,0,9,1,225,2,1,-151773.5299048421,-4791368.679708198,4197190.395580414,2.39098,2.80411,-0.341988,-104.403,40.0809,44.1633,-0.307239,-7.47811,6.70768,0.00759937,0.011205,0.00425586,4,0,41.39453066608377,-91.81431998411514,8922.600603559886,-63.95059995199237,0.5145212859143069,2.668771508606336,196.663,9031.630405181751,11029.86252269048,150,True,5.581711865091054,False,178.450423316403,169.0286909347774,False,12.134426047171203,True,False
2,1970-07-23 11:42:54.120318166,2025-09-17,2025-09-26 19:30:12.031,HH,C,1343898862,JASSM,3,102,76,2,2,1,225,9,2,0,1,26,0,0,0,0,-159426.61071951812,-4786930.397432174,4202432.302214146,-2.3654,-0.396726,0.382728,73.125,-30.5,-31.75,0.0,0.0,0.0,0.0,0.0,0.0,2,0,41.4548395054553,-91.90750567157622,9999.998165800094,119.8815969824262,-0.0048392579663704,0.0036591137015263,,9031.630405181751,11029.86252269048,150,2,2025-09-17,2025-09-26 19:30:12.042,HH,C,1842388656,AMBUSH51,1,1,48,2,1,1,225,2,1,0,0,9,1,225,2,1,-151866.41558569527,-4791332.674611459,4197229.767596575,2.39412,2.80491,-0.344231,-104.027,40.424,44.3876,-0.321932,-7.29772,6.48115,-0.000575284,-0.00809039,-0.000452529,4,0,41.3949931555816,-91.81544324165849,8926.6846886356,-63.8892236048517,0.6358425654480088,2.864724183097481,196.284,9031.630405181751,11029.86252269048,150,True,5.480208413587452,False,178.68668084469797,168.81315748811116,False,12.103781774644,True,False
2,1970-07-23 11:42:54.130199560,2025-09-17,2025-09-26 19:30:13.019,HH,C,1345032256,JASSM,3,102,76,2,2,1,225,9,2,0,1,26,0,0,0,0,-159357.16736014312,-4786959.500947799,4202401.989714146,-2.3654,-0.396726,0.382728,73.125,-30.5,-31.75,0.0,0.0,0.0,0.0,0.0,0.0,2,0,41.45447551331082,-91.90666382632882,10000.000396681338,119.88215430692182,-0.0041108476134171,0.00365785855462,,9031.630405181751,11029.86252269048,150,2,2025-09-17,2025-09-26 19:30:12.875,HH,C,1843382820,AMBUSH51,1,1,48,2,1,1,225,2,1,0,0,9,1,225,2,1,-151952.87222907587,-4791298.85955891,4197266.689270373,2.39437,2.8007,-0.347374,-103.748,40.4873,44.7958,-0.185594,-7.41531,6.63393,0.00921391,0.00538146,0.0174843,4,0,41.39542727579674,-91.81648888181957,8930.344526320903,-63.602706129957326,0.6005703480403723,2.800260750405811,196.211,9031.630405181751,11029.86252269048,150,True,5.384764618310742,False,178.77031314657995,168.60499038534556,False,12.091999251490785,True,False
2,1970-07-23 11:42:54.140240316,2025-09-17,2025-09-26 19:30:14.024,HH,C,1346287008,JASSM,3,102,76,2,2,1,225,9,2,0,1,26,0,0,0,0,-159280.28943045562,-4786991.719697799,4202368.429167271,-2.3654,-0.396726,0.382728,73.125,-30.5,-31.75,0.0,0.0,0.0,0.0,0.0,0.0,2,0,41.45407252962677,-91.90573186476884,9999.999311644671,119.8827712861794,-0.003304446387004,0.003656455462715,,9031.630405181751,11029.86252269048,150,2,2025-09-17,2025-09-26 19:30:13.841,HH,C,1844536052,AMBUSH51,1,1,48,2,1,1,225,2,1,0,0,9,1,225,2,1,-152053.4830373172,-4791258.59321117,4197310.202870365,2.42361,2.79042,-0.344946,-103.35,41.4738,44.8096,-0.205392,-6.7221,6.03104,-0.00472607,-0.0133647,0.0104144,4,0,41.39594159529845,-91.81770607200744,8933.545864162332,-63.31448280612975,0.1087730757830672,4.277492853911848,196.211,9031.630405181751,11029.86252269048,150,True,5.275837422646499,False,179.27584079706898,168.3625850798691,False,12.00695396154792,True,False
2,1970-07-23 11:42:54.151238870,2025-09-17,2025-09-26 19:30:15.123,HH,C,1347598452,JASSM,3,102,76,2,2,1,225,9,2,0,1,26,0,0,0,0,-159199.93689139312,-4787025.393525924,4202333.352995396,-2.3654,-0.396726,0.382728,73.125,-30.5,-31.75,0.0,0.0,0.0,0.0,0.0,0.0,2,0,41.45365133897543,-91.9047577946219,10000.00251156892,119.88341613698458,-0.0024616061678414,0.0036550013855508,,9031.630405181751,11029.86252269048,150,2,2025-09-17,2025-09-26 19:30:15.075,HH,C,1846007418,AMBUSH51,1,1,48,2,1,1,225,2,1,0,0,9,1,225,2,1,-152179.93674679662,-4791206.727464089,4197365.355443504,2.41255,2.77774,-0.343846,-103.042,41.002,46.2791,-0.123509,-6.77044,6.11796,-0.0160757,-0.0149418,-0.00652579,4,0,41.39659859882054,-91.81923641327222,8935.490850474813,-62.87904325387099,-0.4203948003375582,3.397439692479081,196.211,9031.630405181751,11029.86252269048,150,True,5.148654082994423,False,178.80720531055184,168.07108419907527,False,11.834351345214658,True,False
2,1970-07-23 11:42:54.162258575,2025-09-17,2025-09-26 19:30:16.225,HH,C,1348851740,JASSM,3,102,76,2,2,1,225,9,2,0,1,26,0,0,0,0,-159123.14782889312,-4787057.571260299,4202299.831511021,-2.3654,-0.396726,0.382728,73.125,-30.5,-31.75,0.0,0.0,0.0,0.0,0.0,0.0,2,0,41.45324882991572,-91.9038269354238,10000.001213122488,119.88403237638026,-0.0016561500542863,0.0036536203321528,,9031.630405181751,11029.86252269048,150,2,2025-09-17,2025-09-26 19:30:16.208,HH,C,1847359484,AMBUSH51,1,1,48,2,1,1,225,2,1,0,0,9,1,225,2,1,-152296.32173149215,-4791157.505191173,4197415.777416445,2.38255,2.77182,-0.346774,-102.723,43.5145,44.8909,-0.20468,-7.0923,6.29668,-0.0367714,0.0019568,-0.00382101,4,0,41.39720982258932,-91.8206454943427,8932.899029428921,-62.53600071582076,-0.5267426318540412,1.5607105004597397,196.394,9031.630405181751,11029.86252269048,150,True,5.029691527164589,False,179.69431099234615,167.78724251644414,False,11.975153302618075,True,False
2,1970-07-23 11:42:54.173277856,2025-09-17,2025-09-26 19:30:17.327,HH,C,1350222374,JASSM,3,102,76,2,2,1,225,9,2,0,1,26,0,0,0,0,-159039.16833670562,-4787092.762666549,4202263.169401646,-2.3654,-0.396726,0.382824,73.125,-30.5,-31.75,0.0,0.0,0.0,0.0,0.0,0.0,2,0,41.45280860667881,-91.90280892470123,10000.002255002986,119.88855440570111,-0.0046953596064256,0.0036519132178499,,9031.630405181751,11029.86252269048,150,2,2025-09-17,2025-09-26 19:30:17.341,HH,C,1848711548,AMBUSH51,1,1,48,2,1,1,225,2,1,0,0,9,1,225,2,1,-152413.10192103044,-4791107.376388063,4197467.109864649,2.35975,2.77089,-0.349091,-102.608,43.7585,45.2411,-0.183124,-7.03875,6.3649,-0.00444727,-0.00469486,0.0042829,4,0,41.397832493965744,-91.82205966807152,8930.093069016048,-62.40746535622485,-0.467283734209805,0.2346759481048281,196.626,9031.630405181751,11029.86252269048,150,True,4.905800914589526,False,179.51459514016048,167.48231382269034,False,12.078316974655634,True,False
2,1970-07-23 11:42:54.184299121,2025-09-17,2025-09-26 19:30:18.429,HH,C,1351476144,JASSM,3,102,76,2,2,1,225,9,2,0,1,26,0,0,0,0,-158962.34997733062,-4787124.952119674,4202229.632292271,-2.3654,-0.396726,0.382824,73.125,-30.5,-31.75,0.0,0.0,0.0,0.0,0.0,0.0,2,0,41.45240591241031,-91.90187773468624,10000.002097017306,119.8891708538857,-0.0038895882502692,0.0036505718988258,,9031.630405181751,11029.86252269048,150,2,2025-09-17,2025-09-26 19:30:18.375,HH,C,1849944314,AMBUSH51,1,1,48,2,1,1,225,2,1,0,0,9,1,225,2,1,-152518.28201048996,-4791062.049766804,4197513.388607131,2.36296,2.77097,-0.347587,-102.571,44.0488,45.2681,-0.218562,-7.27332,6.30974,0.00331543,-0.00614088,-0.00305743,4,0,41.39839465904939,-91.8233334588418,8927.236349235702,-62.47241592419088,-0.5238951610320742,0.4211299775684938,196.736,9031.630405181751,11029.86252269048,150,True,4.793553686678722,False,179.3952469400512,167.19281924110845,False,12.293504949249884,True,False
2,1970-07-23 11:42:54.195179366,2025-09-17,2025-09-26 19:30:19.517,HH,C,1352787378,JASSM,3,102,76,2,2,1,225,9,2,0,1,26,0,0,0,0,-158882.01013358062,-4787158.616182174,4202194.558073521,-2.3654,-0.396726,0.382824,73.125,-30.5,-31.75,0.0,0.0,0.0,0.0,0.0,0.0,2,0,41.451984757819055,-91.9009038700583,10000.004508941189,119.88981554741382,-0.0030468831310397,0.0036491758094039,,9031.630405181751,11029.86252269048,150,2,2025-09-17,2025-09-26 19:30:19.442,HH,C,1851216846,AMBUSH51,1,1,48,2,1,1,225,2,1,0,0,9,1,225,2,1,-152628.23830841057,-4791014.285497025,4197561.666134679,2.36736,2.76924,-0.348596,-102.545,44.4476,45.2366,-0.112687,-7.3416,6.6326,-0.00762018,0.000231986,0.00681291,4,0,41.39898390027848,-91.82466526044476,8923.102237329078,-62.36659273017722,-0.547775749876503,0.6381188765308162,196.81,9031.630405181751,11029.86252269048,150,True,4.676252311849688,False,179.23781248253925,166.87565761992283,False,12.541478272221205,True,False
2,1970-07-23 11:42:54.206199616,2025-09-17,2025-09-26 19:30:20.619,HH,C,1354100284,JASSM,3,102,76,2,2,1,225,9,2,0,1,26,0,0,0,0,-158801.56775076812,-4787192.321260299,4202159.436979771,-2.3654,-0.396726,0.382824,73.125,-30.5,-31.75,0.0,0.0,0.0,0.0,0.0,0.0,2,0,41.45156305479656,-91.89992877586646,10000.002089601558,119.8904610495111,-0.0022031015917173,0.003647775346834,,9031.630405181751,11029.86252269048,150,2,2025-09-17,2025-09-26 19:30:20.542,HH,C,1852529144,AMBUSH51,1,1,48,2,1,1,225,2,1,0,0,9,1,225,2,1,-152740.2664776913,-4790965.326607251,4197611.181878699,2.36608,2.7645,-0.349286,-102.589,44.8141,45.3631,-0.156701,-7.23793,6.46257,0.00358799,0.00166968,0.00487379,4,0,41.39958819934098,-91.82602229425376,8918.887187352644,-62.15883587722601,-0.6990146023103893,0.4696665414330355,197.042,9031.630405181751,11029.86252269048,150,True,4.557586635258083,False,179.08575671543204,166.5404112704059,False,12.774393673790556,True,False
