Subject_cm,Timestamp,SampleDate_cm,SampleTime_cm,Configuration_cm,Scenario_cm,DisTime_cm,MarkingTxt_cm,Application_cm,EntId_cm,Site_cm,ExerciseId_cm,ForceId_cm,Category_cm,Country_cm,Domain_cm,Kind_cm,Extra_cm,Specific_cm,Subcategory_cm,AltCategory_cm,AltCountry_cm,AltDomain_cm,AltKind_cm,ECEF_X_cm,ECEF_Y_cm,ECEF_Z_cm,OriPhi_cm,OriPsi_cm,OriTheta_cm,LinVelX_cm,LinVelY_cm,LinVelZ_cm,LinAccX_cm,LinAccY_cm,LinAccZ_cm,AngVelX_cm,AngVelY_cm,AngVelZ_cm,DrAlg_cm,Appearance_cm,Latitude_cm,Longitude_cm,Altitude_cm,Heading_cm,Pitch_cm,Roll_cm,CalibratedAirspeed_cm,CM_Altitude_Lead_cm,CM_Altitude_Wing_cm,CM_Airspeed_cm,Subject_ac,SampleDate_ac,SampleTime_ac,Configuration_ac,Scenario_ac,DisTime_ac,MarkingTxt_ac,Application_ac,EntId_ac,Site_ac,ExerciseId_ac,ForceId_ac,Category_ac,Country_ac,Domain_ac,Kind_ac,Extra_ac,Specific_ac,Subcategory_ac,AltCategory_ac,AltCountry_ac,AltDomain_ac,AltKind_ac,ECEF_X_ac,ECEF_Y_ac,ECEF_Z_ac,OriPhi_ac,OriPsi_ac,OriTheta_ac,LinVelX_ac,LinVelY_ac,LinVelZ_ac,LinAccX_ac,LinAccY_ac,LinAccZ_ac,AngVelX_ac,AngVelY_ac,AngVelZ_ac,DrAlg_ac,Appearance_ac,Latitude_ac,Longitude_ac,Altitude_ac,Heading_ac,Pitch_ac,Roll_ac,CalibratedAirspeed_ac,CM_Altitude_Lead_ac,CM_Altitude_Wing_ac,CM_Airspeed_ac,Bank_Angle_Condition,distance_nm,Distance_Condition,angle_between_vel,angle_between_pos,Cone_Condition,angle_between_pos_nose,Nose_Cone_Condition,Intercept_Criteria
2,1970-07-23 11:42:53.599286229,2025-09-17,2025-09-26 19:29:19.928,HH,C,1281683694,JASSM,3,101,76,2,2,1,225,9,2,0,1,26,0,0,0,0,-155726.76013358062,-4777181.989229049,4213574.077604771,-2.71093,-1.01118,0.751842,33.25,-53.0,-58.5,0.0,0.0,0.0,0.0,0.0,0.0,2,0,41.58876500760493,-91.86706885073916,10000.001983312228,155.93836225260273,-0.0040433975395505,-0.0006569440676547,,9031.630405181751,11029.86252269048,150,2,2025-09-17,2025-09-26 19:29:19.938,HH,C,1092879428,HAWK11,1,1,73,2,1,1,225,2,1,0,0,12,1,225,2,1,-144976.32068045562,-4792178.475557174,4197482.134245396,2.27,3.01734,-0.141222,-117.25,22.625,22.0,0.0,-7.07812,6.875,0.0117188,-0.00390625,0.0078125,4,0,41.39293552752911,-91.7328233120971,11029.86252269048,-80.38140910731089,1.3379066465612466,-1.5999604917974142,199.021,9031.630405181751,11029.86252269048,150,True,13.204166159517861,False,127.87087590006854,176.71234655179438,False,48.91102633517521,False,False
2,1970-07-23 11:42:53.608185381,2025-09-17,2025-09-26 19:29:20.818,HH,C,1282757532,JASSM,3,101,76,2,2,1,225,9,2,0,1,26,0,0,0,0,-155696.79528983062,-4777229.836885299,4213521.292448521,-2.71093,-1.01118,0.751842,33.25,-53.0,-58.5,0.0,0.0,0.0,0.0,0.0,0.0,2,0,41.58812987498333,-91.8666911614261,10000.002611664711,155.93861295355077,-0.0033482783390305,-0.000657958341859,,9031.630405181751,11029.86252269048,150,2,2025-09-17,2025-09-26 19:29:20.642,HH,C,1093754294,HAWK11,1,1,73,2,1,1,225,2,1,0,0,12,1,225,2,1,-145062.38903983062,-4792161.721650924,4197498.300261021,2.2748,3.0183,-0.140839,-117.375,22.625,22.0,-0.203125,-7.01562,6.76562,0.0,-0.00976562,0.00195312,4,0,41.39312882412717,-91.7338574707938,11030.1231989158,-80.43468200894611,1.36473963646929,-1.3188835920919344,199.388,9031.630405181751,11029.86252269048,150,True,13.131098460808182,False,127.85560302702278,176.85618011406592,False,49.073995834365036,False,False
2,1970-07-23 11:42:53.617224837,2025-09-17,2025-09-26 19:29:21.722,HH,C,1283888746,JASSM,3,101,76,2,2,1,225,9,2,0,1,26,0,0,0,0,-155665.22986014312,-4777280.239229049,4213465.686979771,-2.71093,-1.01118,0.751842,33.25,-53.0,-58.5,0.0,0.0,0.0,0.0,0.0,0.0,2,0,41.58746081653518,-91.86629330610752,10000.002186256834,155.93887703680105,-0.0026160304391294,-0.0006590264956069,,9031.630405181751,11029.86252269048,150,2,2025-09-17,2025-09-26 19:29:21.642,HH,C,1094708694,HAWK11,1,1,73,2,1,1,225,2,1,0,0,12,1,225,2,1,-145157.24450858062,-4792143.347627486,4197516.153776646,2.27365,3.01887,-0.13988,-117.625,21.875,22.875,-0.046875,-7.09375,6.9375,-0.00195312,0.0,0.0,4,0,41.39334155704782,-91.73499718581506,11030.71787555313,-80.49818126740963,1.3534859854734211,-1.3817418289916037,199.767,9031.630405181751,11029.86252269048,150,True,13.052714489037893,False,127.89586721878547,177.01656997593025,False,49.20737912676337,False,False
2,1970-07-23 11:42:53.626261920,2025-09-17,2025-09-26 19:29:22.626,HH,C,1284962716,JASSM,3,101,76,2,2,1,225,9,2,0,1,26,0,0,0,0,-155635.26111014312,-4777328.090791549,4213412.894011021,-2.71093,-1.01118,0.751842,33.25,-53.0,-58.5,0.0,0.0,0.0,0.0,0.0,0.0,2,0,41.58682560607362,-91.86591558367265,10000.001386981598,155.93912775327826,-0.0019208277259562,-0.0006600384286804,,9031.630405181751,11029.86252269048,150,2,2025-09-17,2025-09-26 19:29:22.548,HH,C,1095901692,HAWK11,1,1,73,2,1,1,225,2,1,0,0,12,1,225,2,1,-145274.21716483062,-4792120.750947799,4197537.987761021,2.27173,3.01715,-0.143044,-117.75,22.625,22.125,-0.046875,-7.01562,6.875,0.00585938,0.0,0.00390625,4,0,41.39360227926284,-91.7364026328872,11031.213825327246,-80.29855577034257,1.401921128122992,-1.5008117485765238,200.17,9031.630405181751,11029.86252269048,150,True,12.96873546240366,False,127.85250806209059,177.2191683054559,False,49.452140498071664,False,False
2,1970-07-23 11:42:53.635326982,2025-09-17,2025-09-26 19:29:23.532,HH,C,1286037118,JASSM,3,101,76,2,2,1,225,9,2,0,1,26,0,0,0,0,-155605.27966483062,-4777375.959932174,4213360.077604771,-2.71083,-1.01118,0.751842,33.25,-53.0,-58.5,0.0,0.0,0.0,0.0,0.0,0.0,2,0,41.58619013406344,-91.86553770968756,9999.994724746402,155.93937856720183,-0.0012253388368188,0.0048440845597142,,9031.630405181751,11029.86252269048,150,2,2025-09-17,2025-09-26 19:29:23.643,HH,C,1097253758,HAWK11,1,1,73,2,1,1,225,2,1,0,0,12,1,225,2,1,-145408.79528983062,-4792094.963838424,4197563.251432896,2.27144,3.02127,-0.139401,-118.0,22.5,22.25,0.0,-7.10938,6.90625,-0.00390625,-0.00195312,-0.00390625,4,0,41.39390193740101,-91.73801955025168,11032.623029558372,-80.61111711725968,1.439198032606506,-1.4918545472115998,200.439,9031.630405181751,11029.86252269048,150,True,12.87859980178466,False,127.8270591158998,177.45528700960546,False,49.724245427623906,False,False
2,1970-07-23 11:42:53.645207414,2025-09-17,2025-09-26 19:29:24.520,HH,C,1287169632,JASSM,3,101,76,2,2,1,225,9,2,0,1,26,0,0,0,0,-155573.67810233062,-4777426.418916549,4213304.405729771,-2.71083,-1.01118,0.751842,33.25,-53.0,-58.5,0.0,0.0,0.0,0.0,0.0,0.0,2,0,41.58552029327687,-91.86513942320522,9999.995623405492,155.93964292651748,-0.0004922414304943,0.0048430098718839,,9031.630405181751,11029.86252269048,150,2,2025-09-17,2025-09-26 19:29:24.344,HH,C,1098168390,HAWK11,1,1,73,2,1,1,225,2,1,0,0,12,1,225,2,1,-145499.60388358062,-4792077.658174361,4197580.382292271,2.26876,3.02175,-0.139401,-118.25,22.25,22.5,0.0,-7.17188,6.90625,-0.00195312,-0.00390625,0.00195312,4,0,41.39410412669677,-91.73911056328754,11033.994039626165,-80.62991096764748,1.4603610854560645,-1.6423785463320095,200.659,9031.630405181751,11029.86252269048,150,True,12.80210659058134,False,127.80632188643087,177.61235044474728,False,49.912255448971116,False,False
2,1970-07-23 11:42:53.655242616,2025-09-17,2025-09-26 19:29:25.524,HH,C,1288364632,JASSM,3,101,76,2,2,1,225,9,2,0,1,26,0,0,0,0,-155540.33142264312,-4777479.661104049,4213245.663542271,-2.71083,-1.01118,0.751842,33.25,-53.0,-58.5,0.0,0.0,0.0,0.0,0.0,0.0,2,0,41.58481350724869,-91.86471915255096,10000.001036834245,155.93992187385174,0.0002812965795954,0.0048418939592932,,9031.630405181751,11029.86252269048,150,2,2025-09-17,2025-09-26 19:29:25.438,HH,C,1099361388,HAWK11,1,1,73,2,1,1,225,2,1,0,0,12,1,225,2,1,-145617.10974295562,-4792055.444307174,4197602.714323521,2.27317,3.02271,-0.142181,-118.375,22.25,22.5,-0.328125,-7.3125,7.01562,0.00195312,0.0,-0.0136719,4,0,41.39436578760103,-91.740522273258,11036.574111426296,-80.54787009781546,1.6079220444972535,-1.3798444745435916,201.246,9031.630405181751,11029.86252269048,150,True,12.713773259889521,False,127.79123199408147,177.81833124342248,False,50.145096526847205,False,False
2,1970-07-23 11:42:53.665266314,2025-09-17,2025-09-26 19:29:26.526,HH,C,1289557554,JASSM,3,101,76,2,2,1,225,9,2,0,1,26,0,0,0,0,-155507.04333670562,-4777532.809541549,4213187.019011021,-2.71083,-1.01118,0.751842,33.25,-53.0,-58.5,0.0,0.0,0.0,0.0,0.0,0.0,2,0,41.58410792525439,-91.86429962957746,9999.997647916894,155.9402003210432,0.0010535085686635,0.0048407651627931,,9031.630405181751,11029.86252269048,150,2,2025-09-17,2025-09-26 19:29:26.438,HH,C,1100554388,HAWK11,1,1,73,2,1,1,225,2,1,0,0,12,1,225,2,1,-145736.56872733062,-4792032.876924361,4197625.634245396,2.27346,3.02185,-0.13988,-118.625,22.0,22.875,0.0625,-7.23438,7.0,-0.00585938,0.00390625,0.0,4,0,41.39463314934802,-91.74195745352328,11039.713622744412,-80.6148763180259,1.484865763107363,-1.3721892643765794,201.551,9031.630405181751,11029.86252269048,150,True,12.624936614020374,False,127.8122571404646,178.02788650673253,False,50.35181468448364,False,False
2,1970-07-23 11:42:53.674526470,2025-09-17,2025-09-26 19:29:27.452,HH,C,1290691074,JASSM,3,101,76,2,2,1,225,9,2,0,1,26,0,0,0,0,-155475.41247733062,-4777583.309541549,4213131.296354771,-2.71083,-1.01118,0.751938,33.25,-53.0,-58.5,0.0,0.0,0.0,0.0,0.0,0.0,2,0,41.58343749893944,-91.86390100172156,9999.996867625605,155.9427575069207,-0.003202761474608,0.0048396758904216,,9031.630405181751,11029.86252269048,150,2,2025-09-17,2025-09-26 19:29:27.438,HH,C,1101826920,HAWK11,1,1,73,2,1,1,225,2,1,0,0,12,1,225,2,1,-145862.45935233062,-4792009.445283736,4197649.737761021,2.26339,3.0253,-0.139496,-118.75,21.875,23.0,-0.171875,-7.26562,7.0,-0.0078125,0.00390625,-0.00976562,4,0,41.39491245966903,-91.74346978824369,11043.784206499276,-80.76242931676352,1.6178366316778745,-1.9254958864200764,201.466,9031.630405181751,11029.86252269048,150,True,12.536459562285987,False,127.80157426685696,178.2485591859175,False,50.60473752093169,False,False
2,1970-07-23 11:42:53.685182559,2025-09-17,2025-09-26 19:29:28.518,HH,C,1292002474,JASSM,3,101,76,2,2,1,225,9,2,0,1,26,0,0,0,0,-155438.81872733062,-4777641.735322799,4213066.827604771,-2.71083,-1.01109,0.751938,33.25,-53.0,-58.5,0.0,0.0,0.0,0.0,0.0,0.0,2,0,41.58266184539695,-91.86343983843004,9999.998971284149,155.93941910280466,-0.0040284297998838,0.0010876905500851,,9031.630405181751,11029.86252269048,150,2,2025-09-17,2025-09-26 19:29:28.643,HH,C,1103218752,HAWK11,1,1,73,2,1,1,225,2,1,0,0,12,1,225,2,1,-146001.97888358062,-4791983.977510299,4197676.399870396,2.2561,3.02664,-0.139209,-119.0,21.625,22.875,-0.078125,-7.14062,7.0,-0.015625,0.0,0.0,4,0,41.395218664034864,-91.74514568041968,11049.42676709011,-80.82644979205969,1.66512532591011,-2.334193179491615,201.661,9031.630405181751,11029.86252269048,150,True,12.436705892581058,False,127.65461145522448,178.4890505614306,False,51.02360653780662,False,False
2,1970-07-23 11:42:53.695201778,2025-09-17,2025-09-26 19:29:29.520,HH,C,1293135554,JASSM,3,101,76,2,2,1,225,9,2,0,1,26,0,0,0,0,-155407.20056326812,-4777692.213838424,4213011.124479771,-2.71083,-1.01109,0.751938,33.25,-53.0,-58.5,0.0,0.0,0.0,0.0,0.0,0.0,2,0,41.581991673198935,-91.86304138881871,9999.996429115656,155.93968355209512,-0.003294973390644,0.001086607549296,,9031.630405181751,11029.86252269048,150,2,2025-09-17,2025-09-26 19:29:29.439,HH,C,1104173150,HAWK11,1,1,73,2,1,1,225,2,1,0,0,12,1,225,2,1,-146097.19568045562,-4791966.838838424,4197694.550261021,2.25888,3.02712,-0.138634,-119.125,21.5,22.75,0.203125,-6.89062,6.70312,0.0253906,0.0,0.0,4,0,41.39542587558045,-91.74628933370236,11053.780670581382,-80.86993585368549,1.6644691886857046,-2.172391286933953,201.698,9031.630405181751,11029.86252269048,150,True,12.359644186759454,False,127.56035955337198,178.64753848100273,False,51.30481375713224,False,False
2,1970-07-23 11:42:53.704242700,2025-09-17,2025-09-26 19:29:30.424,HH,C,1294268128,JASSM,3,101,76,2,2,1,225,9,2,0,1,26,0,0,0,0,-155375.59607108062,-4777742.670869674,4212955.444792271,-2.71083,-1.01109,0.751938,33.25,-53.0,-58.5,0.0,0.0,0.0,0.0,0.0,0.0,2,0,41.58132178291461,-91.86264311959964,9999.996738948475,155.93994787816246,-0.002561828148576,0.0010855224800795,,9031.630405181751,11029.86252269048,150,2,2025-09-17,2025-09-26 19:29:30.438,HH,C,1105326382,HAWK11,1,1,73,2,1,1,225,2,1,0,0,12,1,225,2,1,-146211.42810233062,-4791946.123994674,4197716.130339146,2.26933,3.02616,-0.135182,-119.125,21.75,22.375,-0.0625,-6.75,6.5625,-0.00390625,0.0,0.0,4,0,41.39567404943741,-91.7476614494027,11058.209938940558,-80.98263394055199,1.4935356657628656,-1.5843030512245255,201.698,9031.630405181751,11029.86252269048,150,True,12.27618904581196,False,127.50972142799336,178.83023150839017,False,51.58015662125162,False,False
2,1970-07-23 11:42:53.714183232,2025-09-17,2025-09-26 19:29:31.418,HH,C,1295401522,JASSM,3,101,76,2,2,1,225,9,2,0,1,26,0,0,0,0,-155343.96911795562,-4777793.163057174,4212899.726042271,-2.71083,-1.01109,0.751938,33.25,-53.0,-58.5,0.0,0.0,0.0,0.0,0.0,0.0,2,0,41.58065142270672,-91.8622445758499,9999.999857522547,155.94021238293146,-0.0018281688235818,0.0010844395459397,,9031.630405181751,11029.86252269048,150,2,2025-09-17,2025-09-26 19:29:31.438,HH,C,1106439848,HAWK11,1,1,73,2,1,1,225,2,1,0,0,12,1,225,2,1,-146323.82653983062,-4791925.611299361,4197737.030729771,2.26885,3.02319,-0.13336,-119.375,21.875,22.25,-0.0625,-6.9375,6.79688,0.0,0.0,0.0,5,0,41.39591674905546,-91.74901159318767,11061.531316165509,-80.9494607825862,1.2990942600553046,-1.6338210613813875,202.101,9031.630405181751,11029.86252269048,150,True,12.19360672755523,False,127.47581278707821,178.99448113368902,False,51.84026822558749,False,False
2,1970-07-23 11:42:53.723223242,2025-09-17,2025-09-26 19:29:32.322,HH,C,1296534916,JASSM,3,101,76,2,2,1,225,9,2,0,1,26,0,0,0,0,-155312.34118826812,-4777843.655244674,4212844.007292271,-2.71083,-1.01109,0.751938,33.25,-53.0,-58.5,0.0,0.0,0.0,0.0,0.0,0.0,2,0,41.57998106122885,-91.86184602864496,10000.006325182208,155.9404768864915,-0.001094506018575,0.0010833646668176,,9031.630405181751,11029.86252269048,150,2,2025-09-17,2025-09-26 19:29:32.344,HH,C,1107712380,HAWK11,1,1,73,2,1,1,225,2,1,0,0,12,1,225,2,1,-146450.51403983062,-4791902.332002486,4197760.585417271,2.27365,3.02549,-0.128854,-119.625,21.875,22.25,0.03125,-6.9375,6.75,-0.00585938,0.00195312,0.0,4,0,41.39619120999898,-91.75053344846096,11064.886521215209,-81.23035002056497,1.2264764386480032,-1.3481789112317974,202.248,9031.630405181751,11029.86252269048,150,True,12.106298421211847,False,127.44654550911791,179.14656404982662,False,52.12982960612648,False,False
2,1970-07-23 11:42:53.733242719,2025-09-17,2025-09-26 19:29:33.324,HH,C,1297670246,JASSM,3,101,76,2,2,1,225,9,2,0,1,26,0,0,0,0,-155280.66052420562,-4777894.231416549,4212788.190886021,-2.71083,-1.01109,0.751938,33.25,-53.0,-58.5,0.0,0.0,0.0,0.0,0.0,0.0,2,0,41.5793095497764,-91.8614468252711,10000.005389151049,155.9407418220203,-0.0003595917713166,0.0010822753744902,,9031.630405181751,11029.86252269048,150,2,2025-09-17,2025-09-26 19:29:33.142,HH,C,1108627012,HAWK11,1,1,73,2,1,1,225,2,1,0,0,12,1,225,2,1,-146542.35583670562,-4791885.457979049,4197777.540495396,2.26281,3.02702,-0.127033,-119.75,21.75,22.25,-0.265625,-7.07812,6.82812,-0.0214844,0.00390625,-0.00195312,4,0,41.39638933804745,-91.75163672064222,11067.06774664536,-81.36703519510714,1.2231834065589413,-1.9606688485594976,202.284,9031.630405181751,11029.86252269048,150,True,12.031029364352724,False,127.39466906069381,179.22028343053415,False,52.373292444461065,False,False
2,1970-07-23 11:42:53.742311349,2025-09-17,2025-09-26 19:29:34.231,HH,C,1298802148,JASSM,3,101,76,2,2,1,225,9,2,0,1,26,0,0,0,0,-155249.07458670562,-4777944.655244674,4212732.538542271,-2.71083,-1.01109,0.751938,33.25,-53.0,-58.5,0.0,0.0,0.0,0.0,0.0,0.0,2,0,41.57864003233469,-91.8610488242017,9999.998970929708,155.941005956129,0.0003731363074306,0.0010811839820011,,9031.630405181751,11029.86252269048,150,2,2025-09-17,2025-09-26 19:29:34.344,HH,C,1110018844,HAWK11,1,1,73,2,1,1,225,2,1,0,0,12,1,225,2,1,-146682.83044608062,-4791859.518525924,4197803.601042271,2.26502,3.02606,-0.129526,-119.875,21.875,22.125,-0.21875,-7.09375,6.78125,0.00195312,0.00195312,-0.0078125,4,0,41.39669399334528,-91.7533242665617,11070.368881625447,-81.22515981771899,1.27859752743064,-1.8383525227210376,202.614,9031.630405181751,11029.86252269048,150,True,11.939541854639208,False,127.37560119351515,179.24951409951242,False,52.68739134461309,False,False
2,1970-07-23 11:42:53.751182820,2025-09-17,2025-09-26 19:29:35.118,HH,C,1299876906,JASSM,3,101,76,2,2,1,225,9,2,0,1,26,0,0,0,0,-155219.08337576812,-4777992.532197799,4212679.698698521,-2.71083,-1.01109,0.752034,33.25,-53.0,-58.5,0.0,0.0,0.0,0.0,0.0,0.0,2,0,41.57800434090749,-91.86067092562672,9999.999332458876,155.9435511101874,-0.0039241151519752,0.0010801001925859,,9031.630405181751,11029.86252269048,150,2,2025-09-17,2025-09-26 19:29:35.050,HH,C,1110933476,HAWK11,1,1,73,2,1,1,225,2,1,0,0,12,1,225,2,1,-146774.91638358062,-4791842.664033736,4197820.462370396,2.26464,3.02597,-0.125403,-120.125,21.875,22.125,-0.0625,-6.89062,6.65625,0.0,-0.00585938,0.0078125,4,0,41.39689130097458,-91.7544304644318,11072.424856295724,-81.39890268045257,1.1185005110615078,-1.864705070201809,202.724,9031.630405181751,11029.86252269048,150,True,11.86695773645824,False,127.34663882654446,179.20508725766575,False,52.91364999758817,False,False
2,1970-07-23 11:42:53.761223035,2025-09-17,2025-09-26 19:29:36.122,HH,C,1301010834,JASSM,3,101,76,2,2,1,225,9,2,0,1,26,0,0,0,0,-155187.44177420562,-4778043.043916549,4212623.948698521,-2.71083,-1.01109,0.752034,33.25,-53.0,-58.5,0.0,0.0,0.0,0.0,0.0,0.0,2,0,41.57733364935493,-91.86027223959778,9999.9981131382,155.94381569213976,-0.0031901035658225,0.0010790395037209,,9031.630405181751,11029.86252269048,150,2,2025-09-17,2025-09-26 19:29:36.142,HH,C,1112245776,HAWK11,1,1,73,2,1,1,225,2,1,0,0,12,1,225,2,1,-146906.43591483062,-4791818.451143111,4197844.487761021,2.26454,3.02175,-0.124157,-120.375,22.0,21.875,-0.171875,-6.98438,6.6875,0.00976562,0.0078125,-0.00195312,4,0,41.3971735395228,-91.75601042781844,11074.900429864962,-81.2939758904244,0.8930213737475048,-1.8985190619243304,202.944,9031.630405181751,11029.86252269048,150,True,11.779079598725614,False,127.27146796635589,179.0689974038783,False,53.27209633950891,False,False
2,1970-07-23 11:42:53.770265834,2025-09-17,2025-09-26 19:29:37.026,HH,C,1302142320,JASSM,3,101,76,2,2,1,225,9,2,0,1,26,0,0,0,0,-155155.86755545562,-4778093.446260299,4212568.319792271,-2.71083,-1.01109,0.752034,33.25,-53.0,-58.5,0.0,0.0,0.0,0.0,0.0,0.0,2,0,41.57666441137231,-91.859874411522,10000.001044246934,155.94407970123058,-0.0024576796556765,0.0010779914829371,,9031.630405181751,11029.86252269048,150,2,2025-09-17,2025-09-26 19:29:37.141,HH,C,1113200174,HAWK11,1,1,73,2,1,1,225,2,1,0,0,12,1,225,2,1,-147002.69958670562,-4791800.628877486,4197861.985807896,2.26818,3.0206,-0.122143,-120.5,22.125,21.75,-0.0625,-6.92188,6.625,0.00585938,0.00195312,0.00195312,4,0,41.39738011368888,-91.75716690248514,11076.28368720083,-81.33746785120327,0.7683685308611569,-1.6985639620902468,203.054,9031.630405181751,11029.86252269048,150,True,11.703238527124778,False,127.25239768853167,178.92869677298737,False,53.5020494871059,False,False
2,1970-07-23 11:42:53.779301867,2025-09-17,2025-09-26 19:29:37.930,HH,C,1303217716,JASSM,3,101,76,2,2,1,225,9,2,0,1,26,0,0,0,0,-155125.85778983062,-4778141.348604049,4212515.446745396,-2.71083,-1.01109,0.752034,33.25,-53.0,-58.5,0.0,0.0,0.0,0.0,0.0,0.0,2,0,41.57602834437459,-91.85949630384576,9999.99949887168,155.9443306201152,-0.0017615579790186,0.0010769998276358,,9031.630405181751,11029.86252269048,150,2,2025-09-17,2025-09-26 19:29:38.048,HH,C,1114393174,HAWK11,1,1,73,2,1,1,225,2,1,0,0,12,1,225,2,1,-147123.24450858062,-4791778.355439986,4197883.606901646,2.26492,3.0205,-0.119555,-120.75,22.25,21.625,-0.171875,-6.95312,6.67188,-0.00195312,0.0,0.00390625,4,0,41.39763655197996,-91.758615076612,11077.501406765376,-81.44562379269422,0.6668274262397643,-1.8874378438612167,203.347,9031.630405181751,11029.86252269048,150,True,11.621873035388063,False,127.21900716194645,178.72297000560405,False,53.802880190437826,False,False
2,1970-07-23 11:42:53.789183496,2025-09-17,2025-09-26 19:29:38.918,HH,C,1304351006,JASSM,3,101,76,2,2,1,225,9,2,0,1,26,0,0,0,0,-155094.23376639312,-4778191.831025924,4212459.726042271,-2.71083,-1.01109,0.752034,33.25,-53.0,-58.5,0.0,0.0,0.0,0.0,0.0,0.0,2,0,41.57535801721948,-91.8590978640704,10000.001703270733,155.94459502832672,-0.0010279505002715,0.0010759377735178,,9031.630405181751,11029.86252269048,150,2,2025-09-17,2025-09-26 19:29:38.938,HH,C,1115586172,HAWK11,1,1,73,2,1,1,225,2,1,0,0,12,1,225,2,1,-147244.13513358062,-4791755.883760299,4197905.333464146,2.27096,3.01839,-0.118788,-121.0,22.375,21.625,0.0,-6.98438,6.67188,0.00585938,-0.0078125,0.00585938,4,0,41.39789479999087,-91.76006746445208,11078.494376897665,-81.39964153323955,0.5490868956569901,-1.5553287626310612,203.751,9031.630405181751,11029.86252269048,150,True,11.538342661534434,False,127.2273117114467,178.49316403342246,False,54.06734579278502,False,False
2,1970-07-23 11:42:53.798220916,2025-09-17,2025-09-26 19:29:39.822,HH,C,1305424748,JASSM,3,101,76,2,2,1,225,9,2,0,1,26,0,0,0,0,-155064.27185233062,-4778239.657197799,4212406.935026646,-2.71083,-1.01109,0.752034,33.25,-53.0,-58.5,0.0,0.0,0.0,0.0,0.0,0.0,2,0,41.57472294517849,-91.85872037442508,10000.002043117927,155.94484553061423,-0.0003329234894085,0.0010749409731605,,9031.630405181751,11029.86252269048,150,2,2025-09-17,2025-09-26 19:29:39.844,HH,C,1116540570,HAWK11,1,1,73,2,1,1,225,2,1,0,0,12,1,225,2,1,-147340.82263358062,-4791737.936494674,4197922.560026646,2.26713,3.01609,-0.114665,-121.125,22.625,21.375,0.203125,-6.51562,6.34375,-0.00585938,-0.00390625,0.00390625,4,0,41.398100166597054,-91.7612290732072,11079.031008997285,-81.489757226718,0.2951147952483806,-1.791141513712326,203.861,9031.630405181751,11029.86252269048,150,True,11.465297412086496,False,127.20316050021408,178.29649919408385,False,54.31133106341885,False,False
2,1970-07-23 11:42:53.807262956,2025-09-17,2025-09-26 19:29:40.726,HH,C,1306498684,JASSM,3,101,76,2,2,1,225,9,2,0,1,26,0,0,0,0,-155034.30310233062,-4778287.495088424,4212354.130339146,-2.71083,-1.01099,0.752034,33.25,-53.0,-58.5,0.0,0.0,0.0,0.0,0.0,0.0,2,0,41.57408771116005,-91.85834280573802,10000.003896291022,155.941447506282,-0.0013144607672868,-0.0026820635461772,,9031.630405181751,11029.86252269048,150,2,2025-09-17,2025-09-26 19:29:40.734,HH,C,1117574504,HAWK11,1,1,73,2,1,1,225,2,1,0,0,12,1,225,2,1,-147446.98083670562,-4791717.913057174,4197941.224089146,2.26626,3.01677,-0.116007,-121.375,22.75,21.25,-0.125,-6.98438,6.625,0.00585938,0.0078125,-0.00390625,4,0,41.39832584169079,-91.76250458881591,11078.301227840257,-81.45857205888785,0.3757658898853598,-1.836046931118104,204.264,9031.630405181751,11029.86252269048,150,True,11.389354385179935,False,127.1697428685229,178.0721692266543,False,54.59040624192489,False,False
2,1970-07-23 11:42:53.816323563,2025-09-17,2025-09-26 19:29:41.632,HH,C,1307631810,JASSM,3,101,76,2,2,1,225,9,2,0,1,26,0,0,0,0,-155002.68298514312,-4778337.965791549,4212298.415495396,-2.71074,-1.01099,0.752034,33.25,-53.0,-58.5,0.0,0.0,0.0,0.0,0.0,0.0,2,0,41.57341748841969,-91.85794444115788,10000.000340206156,155.94171185449207,-0.0005809679692617,0.0028083089538554,,9031.630405181751,11029.86252269048,150,2,2025-09-17,2025-09-26 19:29:41.642,HH,C,1118807268,HAWK11,1,1,73,2,1,1,225,2,1,0,0,12,1,225,2,1,-147571.42614920562,-4791694.498994674,4197962.612761021,2.2747,3.01466,-0.110734,-121.625,23.0,20.875,-0.0625,-6.75,6.35938,0.0136719,-0.0117188,0.0,4,0,41.39858671398363,-91.763999818079,11076.533688571626,-81.60530766525318,0.0863007697972049,-1.366999638660382,204.398,9031.630405181751,11029.86252269048,150,True,11.305686814818953,False,127.08947533648586,177.79986298502536,False,54.960588272095904,False,False
2,1970-07-23 11:42:53.826202771,2025-09-17,2025-09-26 19:29:42.620,HH,C,1308764550,JASSM,3,101,76,2,2,1,225,9,2,0,1,26,0,0,0,0,-154971.07361014312,-4778388.418916549,4212242.720182896,-2.71074,-1.01099,0.752034,33.25,-53.0,-58.5,0.0,0.0,0.0,0.0,0.0,0.0,2,0,41.57274749855441,-91.85754622031187,10000.000463221406,155.94197610382415,0.0001522696128374,0.0028072123144127,,9031.630405181751,11029.86252269048,150,2,2025-09-17,2025-09-26 19:29:42.548,HH,C,1119880968,HAWK11,1,1,73,2,1,1,225,2,1,0,0,12,1,225,2,1,-147681.24841483062,-4791673.590791549,4197981.188932896,2.31161,3.01159,-0.109488,-122.0,23.375,20.75,0.09375,-6.82812,6.59375,0.150391,0.0078125,0.00390625,4,0,41.39881635623814,-91.7653194497246,11073.727994361796,-81.54324789239405,-0.090633345012803,0.7284718729249512,204.838,9031.630405181751,11029.86252269048,150,True,11.226977532759506,False,127.11452301593326,177.5512241115282,False,55.19632842103571,False,False
2,1970-07-23 11:42:53.835242175,2025-09-17,2025-09-26 19:29:43.524,HH,C,1309899318,JASSM,3,101,76,2,2,1,225,9,2,0,1,26,0,0,0,0,-154939.40759451812,-4778438.963838424,4212186.923307896,-2.71074,-1.01099,0.75213,33.25,-53.0,-58.5,0.0,0.0,0.0,0.0,0.0,0.0,2,0,41.5720762865138,-91.85714729360852,10000.003592315636,155.9445340842527,-0.004102869250591,0.0028060414851198,,9031.630405181751,11029.86252269048,150,2,2025-09-17,2025-09-26 19:29:43.438,HH,C,1120954666,HAWK11,1,1,73,2,1,1,225,2,1,0,0,12,1,225,2,1,-147792.16638358062,-4791651.771455611,4198000.401823521,2.54842,3.01188,-0.115144,-122.0,24.5,21.375,-0.359375,-6.98438,6.57812,0.240234,0.00195312,-0.00390625,4,0,41.39905550031845,-91.76665251605384,11070.15220275744,-81.31310162930085,0.1382790218089628,14.298443109679637,205.315,9031.630405181751,11029.86252269048,150,False,11.147675576749599,False,127.64626673656333,177.29459455688178,False,54.93033658843829,False,False
2,1970-07-23 11:42:53.845281385,2025-09-17,2025-09-26 19:29:44.528,HH,C,1311031240,JASSM,3,101,76,2,2,1,225,9,2,0,1,26,0,0,0,0,-154907.82068045562,-4778489.377900924,4212131.265104771,-2.71074,-1.01099,0.75213,33.25,-53.0,-58.5,0.0,0.0,0.0,0.0,0.0,0.0,2,0,41.5714067723764,-91.85674937343612,9999.997313071584,155.9447981271636,-0.0033701551968308,0.0028049751186655,,9031.630405181751,11029.86252269048,150,2,2025-09-17,2025-09-26 19:29:44.438,HH,C,1122147664,HAWK11,1,1,73,2,1,1,225,2,1,0,0,12,1,225,2,1,-147913.89489920562,-4791626.002900924,4198022.804167271,2.67871,2.99002,-0.145345,-121.625,26.75,23.75,0.0,-7.39062,7.10938,0.15625,0.00195312,0.0683594,4,0,41.39933766593971,-91.76811619270606,11064.6094656133,-79.19638779177063,0.3666389724526472,21.61020105909587,205.413,9031.630405181751,11029.86252269048,150,False,11.064213402452861,False,129.11774326691747,177.0096355294329,False,53.754592577348554,False,False
2,1970-07-23 11:42:53.855302351,2025-09-17,2025-09-26 19:29:45.530,HH,C,1312224018,JASSM,3,101,76,2,2,1,225,9,2,0,1,26,0,0,0,0,-154874.53650076812,-4778542.504854049,4212072.614714146,-2.71074,-1.01099,0.75213,33.25,-53.0,-58.5,0.0,0.0,0.0,0.0,0.0,0.0,2,0,41.57070124770275,-91.85633007908908,10000.000910378476,155.94507634929,-0.0025980386224255,0.0028038387050171,,9031.630405181751,11029.86252269048,150,2,2025-09-17,2025-09-26 19:29:45.438,HH,C,1123221364,HAWK11,1,1,73,2,1,1,225,2,1,0,0,12,1,225,2,1,-148022.91833670562,-4791600.600557174,4198045.476042271,2.85579,2.95579,-0.185516,-120.75,29.75,26.875,-0.28125,-8.14062,7.79688,0.166016,0.0273438,0.0234375,4,0,41.39962178894453,-91.76942797094794,11059.595043555422,-76.1925578869186,0.4710958005803601,31.45494516902102,206.427,9031.630405181751,11029.86252269048,150,False,10.980999261420891,False,131.0983672074716,176.75008088586037,False,52.04053163571049,False,False
2,1970-07-23 11:42:53.864198618,2025-09-17,2025-09-26 19:29:46.419,HH,C,1313356872,JASSM,3,101,76,2,2,1,225,9,2,0,1,26,0,0,0,0,-154842.92419608062,-4778592.959932174,4212016.911589146,-2.71074,-1.01099,0.75213,33.25,-53.0,-58.5,0.0,0.0,0.0,0.0,0.0,0.0,2,0,41.57003118823957,-91.855931855757,10000.002461904493,155.9453405861855,-0.0018647315591208,0.0028027698912175,,9031.630405181751,11029.86252269048,150,2,2025-09-17,2025-09-26 19:29:46.344,HH,C,1124295062,HAWK11,1,1,73,2,1,1,225,2,1,0,0,12,1,225,2,1,-148130.39880545562,-4791572.191377486,4198071.145964146,2.87573,2.93029,-0.213703,-119.5,33.75,30.625,-0.0625,-8.15625,7.6875,-0.00976562,0.0234375,0.046875,4,0,41.39994430502903,-91.77072243910978,11053.57843053204,-74.03500977636287,0.4998736793901741,32.325978649216275,206.427,9031.630405181751,11029.86252269048,150,False,10.8984653900466,False,133.5926161320576,176.49403119961667,False,49.80491226484145,False,False
2,1970-07-23 11:42:53.874220329,2025-09-17,2025-09-26 19:29:47.422,HH,C,1314492472,JASSM,3,101,76,2,2,1,225,9,2,0,1,26,0,0,0,0,-154811.23474295562,-4778643.536104049,4211961.069792271,-2.71074,-1.01099,0.75213,33.25,-53.0,-58.5,0.0,0.0,0.0,0.0,0.0,0.0,2,0,41.56935948584957,-91.85553266962984,9999.996504721452,155.94560545842296,-0.0011296293737344,0.0028016953827543,,9031.630405181751,11029.86252269048,150,2,2025-09-17,2025-09-26 19:29:47.344,HH,C,1125607362,HAWK11,1,1,73,2,1,1,225,2,1,0,0,12,1,225,2,1,-148260.92810233062,-4791532.590791549,4198107.868620396,2.91782,2.87113,-0.277459,-117.125,38.0,35.875,-0.09375,-8.82812,8.20312,0.0117188,0.0390625,0.03125,4,0,41.40040374714577,-91.77229640473546,11045.774798689708,-69.12231670647685,0.5724637059876635,33.95877455939446,207.539,9031.630405181751,11029.86252269048,150,False,10.804003591465884,False,136.79141767589016,176.186608080545,False,46.923213894057014,False,False
2,1970-07-23 11:42:53.883279461,2025-09-17,2025-09-26 19:29:48.327,HH,C,1315624484,JASSM,3,101,76,2,2,1,225,9,2,0,1,26,0,0,0,0,-154779.64587576812,-4778693.954072799,4211905.405729771,-2.71074,-1.01099,0.75213,33.25,-53.0,-58.5,0.0,0.0,0.0,0.0,0.0,0.0,2,0,41.56868990342076,-91.85513475789077,10000.000768495387,155.9458694815667,-0.0003968504077584,0.0028006205527113,,9031.630405181751,11029.86252269048,150,2,2025-09-17,2025-09-26 19:29:48.343,HH,C,1126720826,HAWK11,1,1,73,2,1,1,225,2,1,0,0,12,1,225,2,1,-148368.45349295562,-4791495.504854049,4198143.294401646,2.91591,2.84458,-0.313699,-114.75,41.5,40.5,-0.03125,-8.89062,8.14062,-0.0253906,0.03125,0.0410156,4,0,41.40084369272458,-91.7735946506064,11039.600802519668,-66.61434865529411,0.9436106644666864,33.43872659896466,207.857,9031.630405181751,11029.86252269048,150,False,10.715330443422623,False,139.5811362176209,175.93166289702685,False,44.397307813253406,False,False
2,1970-07-23 11:42:53.892320753,2025-09-17,2025-09-26 19:29:49.232,HH,C,1316698226,JASSM,3,101,76,2,2,1,225,9,2,0,1,26,0,0,0,0,-154749.68298514312,-4778741.772432174,4211852.606901646,-2.71074,-1.01099,0.75213,33.25,-53.0,-58.5,0.0,0.0,0.0,0.0,0.0,0.0,2,0,41.56805481184951,-91.85475733721398,9999.997149488192,155.94611990521463,0.0002981853096016,0.0027996107524067,,9031.630405181751,11029.86252269048,150,2,2025-09-17,2025-09-26 19:29:49.344,HH,C,1127993358,HAWK11,1,1,73,2,1,1,225,2,1,0,0,12,1,225,2,1,-148489.43396170562,-4791448.553682174,4198189.520964146,2.88897,2.80335,-0.364416,-111.25,45.5,45.625,-0.21875,-9.34375,8.34375,-0.0332031,0.0410156,0.0429688,4,0,41.40141273650026,-91.77505730723064,11033.62821585354,-62.97692551129632,1.3598958232206135,31.18230097981271,207.857,9031.630405181751,11029.86252269048,150,False,10.6193562067933,False,142.8703186264657,175.64940577933532,False,41.398514193420986,False,False
2,1970-07-23 11:42:53.903179948,2025-09-17,2025-09-26 19:29:50.317,HH,C,1317950460,JASSM,3,101,76,2,2,1,225,9,2,0,1,26,0,0,0,0,-154714.73864920562,-4778797.543916549,4211791.028776646,-2.71074,-1.01099,0.75213,33.25,-53.0,-58.5,0.0,0.0,0.0,0.0,0.0,0.0,2,0,41.56731410479882,-91.85431717702478,10000.001709552882,155.94641195339568,0.0011087988840508,0.00279842271009,,9031.630405181751,11029.86252269048,150,2,2025-09-17,2025-09-26 19:29:50.343,HH,C,1129186358,HAWK11,1,1,73,2,1,1,225,2,1,0,0,12,1,225,2,1,-148599.00427420562,-4791401.415986861,4198237.819792271,2.88053,2.77814,-0.399698,-108.125,48.25,50.75,-0.234375,-9.45312,8.32812,-0.0253906,0.0351562,0.0332031,4,0,41.40199896494066,-91.77638374731278,11030.832402292106,-60.59614494060554,1.825027661547085,30.226312679062204,207.319,9031.630405181751,11029.86252269048,150,False,10.517799046323413,False,145.7554638997471,175.39078970856048,False,38.78877414943898,False,False
2,1970-07-23 11:42:53.913220247,2025-09-17,2025-09-26 19:29:51.322,HH,C,1319202800,JASSM,3,101,76,2,2,1,225,9,2,0,1,26,0,0,0,0,-154679.79138358062,-4778853.317354049,4211729.444792271,-2.71074,-1.01099,0.752226,33.25,-53.0,-58.5,0.0,0.0,0.0,0.0,0.0,0.0,2,0,41.56657334542525,-91.85387699104469,10000.002257603232,155.94899870755975,-0.0030733420424058,0.0027972154357166,,9031.630405181751,11029.86252269048,150,2,2025-09-17,2025-09-26 19:29:51.437,HH,C,1130379356,HAWK11,1,1,73,2,1,1,225,2,1,0,0,12,1,225,2,1,-148705.59802420562,-4791351.120088424,4198291.229948521,2.88379,2.74841,-0.436418,-104.375,51.25,55.375,-0.203125,-9.3125,8.15625,-0.00195312,0.0253906,0.0351562,4,0,41.40263901743092,-91.77767582262994,11031.140006803198,-58.00816120708681,2.218570457142871,29.812868385668345,206.72,9031.630405181751,11029.86252269048,150,False,10.413915653058227,False,148.70100517713306,175.1399429301677,False,36.10517052787302,False,False
2,1970-07-23 11:42:53.923263020,2025-09-17,2025-09-26 19:29:52.326,HH,C,1320395846,JASSM,3,101,76,2,2,1,225,9,2,0,1,26,0,0,0,0,-154646.49939139312,-4778906.448213424,4211670.776823521,-2.71074,-1.01099,0.752226,33.25,-53.0,-58.5,0.0,0.0,0.0,0.0,0.0,0.0,2,0,41.5658676695257,-91.85345766411746,10000.002557890608,155.94927692483105,-0.0023010677901804,0.0027961176894442,,9031.630405181751,11029.86252269048,150,2,2025-09-17,2025-09-26 19:29:52.344,HH,C,1131572356,HAWK11,1,1,73,2,1,1,225,2,1,0,0,12,1,225,2,1,-148807.85974295562,-4791298.397432174,4198348.944792271,2.8929,2.71476,-0.478506,-100.375,53.75,59.75,-0.078125,-9.20312,8.28125,0.0,0.0390625,0.0371094,4,0,41.40332334911771,-91.77891706991784,11034.496532998786,-55.084801215433295,2.7413393847954235,29.609382938473026,206.17,9031.630405181751,11029.86252269048,150,False,10.310758072239995,False,151.5248418968557,174.90107145790813,False,33.53315591792936,False,False
2,1970-07-23 11:42:53.934281248,2025-09-17,2025-09-26 19:29:53.428,HH,C,1321648546,JASSM,3,101,76,2,2,1,225,9,2,0,1,26,0,0,0,0,-154611.54138358062,-4778962.235322799,4211609.173307896,-2.71074,-1.01089,0.752226,33.25,-53.0,-58.5,0.0,0.0,0.0,0.0,0.0,0.0,2,0,41.56512669564756,-91.85301736381936,10000.001452137512,155.9459257737145,-0.0031647569845181,-0.0009570151521536,,9031.630405181751,11029.86252269048,150,2,2025-09-17,2025-09-26 19:29:53.344,HH,C,1132765354,HAWK11,1,1,73,2,1,1,225,2,1,0,0,12,1,225,2,1,-148906.04528983062,-4791243.374971236,4198410.847136021,2.90085,2.68034,-0.5135,-96.125,56.125,63.75,-0.109375,-8.8125,7.85938,0.00390625,0.00976562,0.0292969,4,0,41.40405036775534,-91.78011049917724,11040.979421120364,-52.444332510044525,3.004876111686381,29.258925789555995,205.242,9031.630405181751,11029.86252269048,150,False,10.203737666285495,False,154.29710548816436,174.67141172656784,False,31.001751606901998,False,False
2,1970-07-23 11:42:53.944298623,2025-09-17,2025-09-26 19:29:54.429,HH,C,1322842848,JASSM,3,101,76,2,2,1,225,9,2,0,1,26,0,0,0,0,-154578.21423514312,-4779015.420869674,4211550.440886021,-2.71074,-1.01089,0.752226,33.25,-53.0,-58.5,0.0,0.0,0.0,0.0,0.0,0.0,2,0,41.5644202628717,-91.85259761336482,10000.00062533204,155.94620426406263,-0.0023916596160426,-0.0009581670316014,,9031.630405181751,11029.86252269048,150,2,2025-09-17,2025-09-26 19:29:54.343,HH,C,1133958352,HAWK11,1,1,73,2,1,1,225,2,1,0,0,12,1,225,2,1,-148999.87536795562,-4791185.884736861,4198476.097136021,3.01916,2.64267,-0.542358,-92.0,58.875,67.0,-0.265625,-8.51562,7.32812,0.126953,0.03125,0.03125,4,0,41.404815456482254,-91.78125283630384,11048.331796834816,-49.94988810295659,2.961778117348341,35.07961322176593,204.374,9031.630405181751,11029.86252269048,150,False,10.097701223059135,False,156.94299644842073,174.45421333521065,False,28.576993779707614,True,False
2,1970-07-23 11:42:53.955177997,2025-09-17,2025-09-26 19:29:55.517,HH,C,1324154928,JASSM,3,101,76,2,2,1,225,9,2,0,1,26,0,0,0,0,-154541.59997733062,-4779073.850557174,4211485.915495396,-2.71074,-1.01089,0.752226,33.25,-53.0,-58.5,0.0,0.0,0.0,0.0,0.0,0.0,2,0,41.5636441607444,-91.85213647343276,9999.999883427252,155.94651021045905,-0.0015423188218054,-0.000959429263539,,9031.630405181751,11029.86252269048,150,2,2025-09-17,2025-09-26 19:29:55.344,HH,C,1135151352,HAWK11,1,1,73,2,1,1,225,2,1,0,0,12,1,225,2,1,-149089.76599295562,-4791124.913057174,4198544.788542271,3.09394,2.58332,-0.577064,-86.875,62.5,70.0,-0.1875,-8.6875,7.51562,0.0136719,0.0332031,0.0664062,4,0,41.40562520287142,-91.78234942847178,11054.295637440588,-46.46970307017772,2.555969410326385,37.72582444120075,203.274,9031.630405181751,11029.86252269048,150,False,9.98535974720127,False,160.04623551862636,174.24578683351416,False,25.677987759614485,True,False
2,1970-07-23 11:42:53.966180215,2025-09-17,2025-09-26 19:29:56.618,HH,C,1325466592,JASSM,3,101,76,2,2,1,225,9,2,0,1,26,0,0,0,0,-154504.99743826812,-4779132.260713424,4211421.411589146,-2.71074,-1.01089,0.752226,33.25,-53.0,-58.5,0.0,0.0,0.0,0.0,0.0,0.0,2,0,41.562868315622445,-91.85167549244494,10000.00350716745,155.94681604671277,-0.0006932594932819,-0.0009606870244023,,9031.630405181751,11029.86252269048,150,2,2025-09-17,2025-09-26 19:29:56.639,HH,C,1136622716,HAWK11,1,1,73,2,1,1,225,2,1,0,0,12,1,225,2,1,-149193.09802420562,-4791045.025361861,4198633.606901646,-3.13632,2.50135,-0.61388,-81.0,65.375,74.375,-0.125,-8.5625,7.54688,-0.00585938,0.0390625,0.0429688,4,0,41.406680834875374,-91.783613673251,11058.446728021338,-42.122378416896815,1.7316816198212106,38.28491840340944,202.651,9031.630405181751,11029.86252269048,150,False,9.856808230868719,False,163.54235923451344,174.01762170874164,False,22.423377217499617,True,False
2,1970-07-23 11:42:53.976219020,2025-09-17,2025-09-26 19:29:57.621,HH,C,1326660386,JASSM,3,101,76,2,2,1,225,9,2,0,1,26,0,0,0,0,-154471.68396170562,-4779185.420869674,4211362.700651646,-2.71074,-1.01089,0.752226,33.25,-53.0,-58.5,0.0,0.0,0.0,0.0,0.0,0.0,2,0,41.5621621712197,-91.85125594478504,10000.000395321633,155.9470943900913,7.951718790782579e-05,-0.0009618378954448,,9031.630405181751,11029.86252269048,150,2,2025-09-17,2025-09-26 19:29:57.546,HH,C,1137497582,HAWK11,1,1,73,2,1,1,225,2,1,0,0,12,1,225,2,1,-149249.75818045562,-4790995.082002486,4198687.894011021,-3.13805,2.4629,-0.632288,-76.125,69.625,75.75,-0.109375,-8.53125,7.35938,-0.0429688,0.03125,0.0507812,4,0,41.40733388238656,-91.78430919968206,11057.750487402922,-40.060334978856666,1.48486329435009,36.95833665788907,201.918,9031.630405181751,11029.86252269048,150,False,9.763791447993448,False,166.33954643175176,173.88624819288373,False,19.72610178004153,True,False
2,1970-07-23 11:42:53.987239186,2025-09-17,2025-09-26 19:29:58.723,HH,C,1327972664,JASSM,3,101,76,2,2,1,225,9,2,0,1,26,0,0,0,0,-154435.06384451812,-4779243.856416549,4211298.163542271,-2.71074,-1.01089,0.752322,33.25,-53.0,-58.5,0.0,0.0,0.0,0.0,0.0,0.0,2,0,41.56138595066077,-91.85079476452152,10000.001421563977,155.94969394404893,-0.0040605747543185,-0.0009631593142239,,9031.630405181751,11029.86252269048,150,2,2025-09-17,2025-09-26 19:29:58.733,HH,C,1139008714,HAWK11,1,1,73,2,1,1,225,2,1,0,0,12,1,225,2,1,-149341.73278983062,-4790904.567354049,4198786.015104771,-3.13891,2.38064,-0.665268,-69.25,73.0,79.125,-0.40625,-8.53125,7.42188,-0.0234375,0.0292969,0.0429688,4,0,41.40851761160922,-91.78544177206592,11055.101548748087,-35.904974269725166,0.8519027654090059,34.14446873942319,201.551,9031.630405181751,11029.86252269048,150,False,9.629943236213126,False,170.0797042597293,173.69593937643484,False,16.170061135311755,True,False
2,1970-07-23 11:42:53.997280066,2025-09-17,2025-09-26 19:29:59.728,HH,C,1329225162,JASSM,3,101,76,2,2,1,225,9,2,0,1,26,0,0,0,0,-154400.11267264312,-4779299.627900924,4211236.565886021,-2.71064,-1.01089,0.752322,33.25,-53.0,-58.5,0.0,0.0,0.0,0.0,0.0,0.0,2,0,41.56064509738697,-91.85035461297876,10000.000594911276,155.9499859482505,-0.0032498163622063,0.0045271408415309,,9031.630405181751,11029.86252269048,150,2,2025-09-17,2025-09-26 19:29:59.639,HH,C,1140161946,HAWK11,1,1,73,2,1,1,225,2,1,0,0,12,1,225,2,1,-149406.20739920562,-4790832.252900924,4198864.145964146,3.13124,2.33098,-0.693743,-63.75,75.375,81.375,-0.21875,-8.625,7.45312,-0.0585938,0.0175781,0.0429688,4,0,41.4094632273322,-91.78623903750268,11051.738698303689,-33.160137820429846,1.0097787937286389,31.65347214381188,201.148,9031.630405181751,11029.86252269048,150,False,9.516675786012499,False,172.93129913246142,173.56244169020258,False,13.439097899909415,True,False
2,1970-07-23 11:42:54.008299588,2025-09-17,2025-09-26 19:30:00.829,HH,C,1330477628,JASSM,3,101,76,2,2,1,225,9,2,0,1,26,0,0,0,0,-154365.16150076812,-4779355.397432174,4211174.968229771,-2.71064,-1.01089,0.752322,33.25,-53.0,-58.5,0.0,0.0,0.0,0.0,0.0,0.0,2,0,41.55990425398735,-91.84991447224547,9999.999161025851,155.95027794100565,-0.0024390687386685,0.0045259731222803,,9031.630405181751,11029.86252269048,150,2,2025-09-17,2025-09-26 19:30:00.843,HH,C,1141593544,HAWK11,1,1,73,2,1,1,225,2,1,0,0,12,1,225,2,1,-149478.84216483062,-4790740.564424361,4198963.630339146,3.09346,2.26099,-0.725765,-57.625,77.25,84.25,-0.171875,-8.92188,7.625,-0.0566406,0.0273438,0.0351562,4,0,41.41066671327478,-91.78714104654404,11047.701045205573,-29.6085788327962,1.018318510274736,26.937933386399408,200.586,9031.630405181751,11029.86252269048,150,False,9.387290712114023,False,176.0750502669273,173.42643018190975,False,10.450243435252931,True,False
2,1970-07-23 11:42:54.019322204,2025-09-17,2025-09-26 19:30:01.932,HH,C,1331790946,JASSM,3,101,76,2,2,1,225,9,2,0,1,26,0,0,0,0,-154328.51306326812,-4779413.877900924,4211110.376432896,-2.71064,-1.01089,0.752322,33.25,-53.0,-58.5,0.0,0.0,0.0,0.0,0.0,0.0,2,0,41.55912739688181,-91.84945296756516,10000.00250470622,155.95058410217703,-0.0015889173622126,0.0045247348644028,,9031.630405181751,11029.86252269048,150,2,2025-09-17,2025-09-26 19:30:02.045,HH,C,1143025144,HAWK11,1,1,73,2,1,1,225,2,1,0,0,12,1,225,2,1,-149544.26403983062,-4790647.172822799,4199066.675261021,3.12549,2.20932,-0.751651,-51.75,78.375,86.875,-0.078125,-8.48438,7.45312,0.015625,0.0175781,0.0234375,4,0,41.41190569607176,-91.78795754283504,11046.660193960157,-26.976365667146386,1.26798715949575,26.831104646429527,199.767,9031.630405181751,11029.86252269048,150,False,9.254722306590832,False,178.97609123799344,173.3109262116566,False,7.71292079113069,True,False
2,1970-07-23 11:42:54.029181425,2025-09-17,2025-09-26 19:30:02.918,HH,C,1332983930,JASSM,3,101,76,2,2,1,225,9,2,0,1,26,0,0,0,0,-154295.22204764312,-4779466.997041549,4211051.702604771,-2.71064,-1.01089,0.752322,33.25,-53.0,-58.5,0.0,0.0,0.0,0.0,0.0,0.0,2,0,41.55842173422229,-91.84903375313073,10000.001440887088,155.9508622040196,-0.0008166747407516,0.0045236200284042,,9031.630405181751,11029.86252269048,150,2,2025-09-17,2025-09-26 19:30:03.048,HH,C,1144297676,HAWK11,1,1,73,2,1,1,225,2,1,0,0,12,1,225,2,1,-149595.96716483062,-4790563.297822799,4199159.935026646,-3.12069,2.15074,-0.77514,-46.375,79.5,88.875,-0.296875,-8.65625,7.64062,-0.00976562,0.00976562,0.03125,4,0,41.413024558215575,-91.78860660085634,11046.746128056298,-24.20546257316312,1.3852155771129149,26.69459787640229,199.144,9031.630405181751,11029.86252269048,150,False,9.135945782285754,False,178.37479827795087,173.2270211513542,False,5.261566258381965,True,False
2,1970-07-23 11:42:54.039223335,2025-09-17,2025-09-26 19:30:03.922,HH,C,1334176800,JASSM,3,101,76,2,2,1,225,9,2,0,1,26,0,0,0,0,-154261.93396170562,-4779520.110322799,4210993.034636021,-2.71064,-1.01089,0.752322,33.25,-53.0,-58.5,0.0,0.0,0.0,0.0,0.0,0.0,2,0,41.55771614380384,-91.84861458516508,10000.002781084148,155.95114027115744,-4.451085865643179e-05,0.0045225097541147,,9031.630405181751,11029.86252269048,150,2,2025-09-17,2025-09-26 19:30:04.046,HH,C,1145490674,HAWK11,1,1,73,2,1,1,225,2,1,0,0,12,1,225,2,1,-149639.86364920562,-4790483.298799361,4199250.044401646,-3.08551,2.09043,-0.798149,-41.375,80.0,90.5,-0.375,-8.51562,7.5625,-0.03125,0.0253906,0.0195312,4,0,41.41410054335727,-91.7891609553954,11048.936673364364,-21.43871191092021,1.5829466055256425,26.335457569283545,198.496,9031.630405181751,11029.86252269048,150,False,9.020907921967394,False,176.01263997992746,173.16152923620885,False,3.2201080040359207,True,False
2,1970-07-23 11:42:54.049241951,2025-09-17,2025-09-26 19:30:04.924,HH,C,1335369962,JASSM,3,101,76,2,2,1,225,9,2,0,1,26,0,0,0,0,-154228.63806326812,-4779573.235322799,4210934.349089146,-2.71064,-1.01089,0.752322,33.25,-53.0,-58.5,0.0,0.0,0.0,0.0,0.0,0.0,2,0,41.55701036497588,-91.8481953282332,9999.997796891845,155.95141839343458,0.0007278536091636,0.0045213903699255,,9031.630405181751,11029.86252269048,150,2,2025-09-17,2025-09-26 19:30:04.937,HH,C,1146445072,HAWK11,1,1,73,2,1,1,225,2,1,0,0,12,1,225,2,1,-149670.91443045562,-4790419.378877486,4199321.981901646,3.03977,2.05582,-0.804765,-37.875,80.625,91.25,-0.25,-7.85938,6.92188,-0.326172,-0.00390625,0.0332031,4,0,41.41496060105879,-91.7895558337191,11050.252223244395,-20.018759366362705,1.4078515509155725,15.900632484521626,197.188,9031.630405181751,11029.86252269048,150,False,8.92036035812798,False,174.39643145951658,173.11411201072409,False,1.9807242224894552,True,False
2,1970-07-23 11:42:54.059280972,2025-09-17,2025-09-26 19:30:05.928,HH,C,1336563180,JASSM,3,101,76,2,2,1,225,9,2,0,1,26,0,0,0,0,-154195.34021170562,-4779626.364229049,4210875.661589146,-2.71064,-1.0108,0.752322,33.25,-53.0,-58.5,0.0,0.0,0.0,0.0,0.0,0.0,2,0,41.55630454844766,-91.84777605552549,10000.00179055167,155.94805367941703,-0.000174424320651,0.0007677122150892,,9031.630405181751,11029.86252269048,150,2,2025-09-17,2025-09-26 19:30:05.843,HH,C,1147638072,HAWK11,1,1,73,2,1,1,225,2,1,0,0,12,1,225,2,1,-149708.49841483062,-4790337.764619674,4199414.261198521,2.64497,2.02524,-0.802751,-36.75,80.75,91.375,-0.09375,-7.09375,5.95312,-0.386719,-0.00585938,-0.0136719,4,0,41.41606201011253,-91.79003539517122,11052.710080371897,-18.925970476544,0.8633201910212708,-7.960238970909026,196.846,9031.630405181751,11029.86252269048,150,True,8.804857291919257,False,173.89333055061823,173.06913309401696,False,1.731517170660592,True,False
2,1970-07-23 11:42:54.069319737,2025-09-17,2025-09-26 19:30:06.931,HH,C,1337756010,JASSM,3,101,76,2,2,1,225,9,2,0,1,26,0,0,0,0,-154162.05310233062,-4779679.471650924,4210816.991667271,-2.71064,-1.0108,0.752418,33.25,-53.0,-58.5,0.0,0.0,0.0,0.0,0.0,0.0,2,0,41.555598974804944,-91.84735692887548,9999.995969996224,155.95062705616238,-0.0043947946101209,0.000766476019812,,9031.630405181751,11029.86252269048,150,2,2025-09-17,2025-09-26 19:30:07.046,HH,C,1149069670,HAWK11,1,1,73,2,1,1,225,2,1,0,0,12,1,225,2,1,-149753.61950858062,-4790241.079072799,4199523.378386021,2.4258,2.09254,-0.778591,-39.0,80.25,90.375,0.0,-7.89062,6.89062,-0.09375,-0.0078125,-0.0527344,4,0,41.41736532757178,-91.79061066533782,11055.23846417081,-21.95882871059352,0.5895885627982739,-17.814319114085116,196.577,9031.630405181751,11029.86252269048,150,False,8.676532487258786,False,175.01345162593256,173.01901607152206,False,2.425568959436226,True,False
2,1970-07-23 11:42:54.079199765,2025-09-17,2025-09-26 19:30:07.919,HH,C,1338949904,JASSM,3,101,76,2,2,1,225,9,2,0,1,26,0,0,0,0,-154128.73669608062,-4779732.627900924,4210758.270964146,-2.71064,-1.0108,0.752418,33.25,-53.0,-58.5,0.0,0.0,0.0,0.0,0.0,0.0,2,0,41.55489277186252,-91.84693744166316,10000.000928323549,155.950905319686,-0.0036219684392454,0.000765343632514,,9031.630405181751,11029.86252269048,150,2,2025-09-17,2025-09-26 19:30:08.045,HH,C,1150302436,HAWK11,1,1,73,2,1,1,225,2,1,0,0,12,1,225,2,1,-149794.64489920562,-4790159.142549361,4199615.542448521,2.35974,2.12801,-0.769291,-41.75,79.375,89.375,0.171875,-7.78125,6.92188,0.0214844,0.0175781,-0.00585938,4,0,41.41846723084485,-91.7911315054203,11056.937037405602,-23.503990175888102,0.692534273501187,-20.19575718321828,195.673,9031.630405181751,11029.86252269048,150,False,8.560443455469816,False,176.37258364911492,172.95981562532856,False,3.6824746438993876,True,False
2,1970-07-23 11:42:54.089220371,2025-09-17,2025-09-26 19:30:08.922,HH,C,1340142532,JASSM,3,101,76,2,2,1,225,9,2,0,1,26,0,0,0,0,-154095.45544608062,-4779785.727510299,4210699.608854771,-2.71064,-1.0108,0.752418,33.25,-53.0,-58.5,0.0,0.0,0.0,0.0,0.0,0.0,2,0,41.5541872930893,-91.8465184064332,10000.00099765636,155.95118327951295,-0.0028499400098201,0.0007642043678058,,9031.630405181751,11029.86252269048,150,2,2025-09-17,2025-09-26 19:30:08.937,HH,C,1151296602,HAWK11,1,1,73,2,1,1,225,2,1,0,0,12,1,225,2,1,-149830.25232108062,-4790093.729463424,4199689.485807896,2.36329,2.15726,-0.762964,-44.0,78.625,88.25,-0.046875,-7.42188,6.54688,0.0214844,0.0,-0.0332031,4,0,41.41934885403871,-91.79158144410545,11059.311675000965,-24.751232552762072,0.8789252378250051,-18.847970898029644,195.404,9031.630405181751,11029.86252269048,150,False,8.457980881113157,False,177.53685506982086,172.89381796419076,False,4.819317680925447,True,False
2,1970-07-23 11:42:54.099261244,2025-09-17,2025-09-26 19:30:09.926,HH,C,1341395810,JASSM,3,101,76,2,2,1,225,9,2,0,1,26,0,0,0,0,-154060.48181326812,-4779841.524385299,4210637.964323521,-2.71064,-1.0108,0.752418,33.25,-53.0,-58.5,0.0,0.0,0.0,0.0,0.0,0.0,2,0,41.55344595966878,-91.84607807380684,9999.999353795574,155.951475362425,-0.002038672945283,0.0007630150905122,,9031.630405181751,11029.86252269048,150,2,2025-09-17,2025-09-26 19:30:09.734,HH,C,1152290766,HAWK11,1,1,73,2,1,1,225,2,1,0,0,12,1,225,2,1,-149868.12927420562,-4790028.164033736,4199763.069792271,2.2678,2.1934,-0.745611,-46.25,77.875,87.125,0.296875,-7.53125,6.6875,-0.162109,0.00585938,-0.0234375,4,0,41.42022853397714,-91.7920585721982,11060.711944258075,-26.545696133584272,0.6617725614553608,-22.92509671779981,194.72,9031.630405181751,11029.86252269048,150,False,8.352949859455796,False,178.7016425590977,172.8161609967508,False,6.01369756426452,True,False
2,1970-07-23 11:42:54.109278763,2025-09-17,2025-09-26 19:30:10.927,HH,C,1342588374,JASSM,3,101,76,2,2,1,225,9,2,0,1,26,0,0,0,0,-154027.20251639312,-4779894.618135299,4210579.304167271,-2.71064,-1.0108,0.752418,33.25,-53.0,-58.5,0.0,0.0,0.0,0.0,0.0,0.0,2,0,41.55274052532357,-91.84565908291331,9999.997231877242,155.9517532848932,-0.0012666957367195,0.0007618777219163,,9031.630405181751,11029.86252269048,150,2,2025-09-17,2025-09-26 19:30:10.937,HH,C,1153722366,HAWK11,1,1,73,2,1,1,225,2,1,0,0,12,1,225,2,1,-149926.18591483062,-4789935.898408736,4199866.167448521,2.22696,2.24364,-0.736982,-50.375,76.5,85.0,-0.0625,-8.03125,7.07812,0.046875,0.0078125,-0.0449219,4,0,41.42146250669564,-91.79278684574872,11062.077221350804,-28.652078227753798,1.2269342781190873,-23.356110390992303,194.793,9031.630405181751,11029.86252269048,150,False,8.226663394592071,False,179.0515549860629,172.7057910094579,False,8.241408103910103,True,False
2,1970-07-23 11:42:54.120317361,2025-09-17,2025-09-26 19:30:12.031,HH,C,1343839210,JASSM,3,101,76,2,2,1,225,9,2,0,1,26,0,0,0,0,-153992.29626639312,-4779950.305635299,4210517.778776646,-2.71064,-1.0108,0.752418,33.25,-53.0,-58.5,0.0,0.0,0.0,0.0,0.0,0.0,2,0,41.55200063041775,-91.84521961897592,9999.99996265995,155.9520447832506,-0.0004570042245197,0.0007606957844426,,9031.630405181751,11029.86252269048,150,2,2025-09-17,2025-09-26 19:30:11.937,HH,C,1154756298,HAWK11,1,1,73,2,1,1,225,2,1,0,0,12,1,225,2,1,-149971.03357108062,-4789870.515596236,4199939.251432896,2.22485,2.28764,-0.713876,-53.125,75.0,83.875,0.15625,-7.8125,7.25,0.015625,0.0195312,-0.0292969,4,0,41.422336421464266,-91.793347238055,11063.39178277,-30.947948300638792,1.0193551483977683,-21.848942148925538,194.023,9031.630405181751,11029.86252269048,150,False,8.121020390179238,False,177.54337085333586,172.59779592628564,False,9.85875792185327,True,False
2,1970-07-23 11:42:54.129200725,2025-09-17,2025-09-26 19:30:12.920,HH,C,1344972604,JASSM,3,101,76,2,2,1,225,9,2,0,1,26,0,0,0,0,-153960.66833670562,-4780000.762666549,4210462.028776646,-2.71064,-1.0108,0.752418,33.25,-53.0,-58.5,0.0,0.0,0.0,0.0,0.0,0.0,2,0,41.55133020600246,-91.84482143736712,9999.99861272189,155.9523088951766,0.0002766586540096,0.0007596176690842,,9031.630405181751,11029.86252269048,150,2,2025-09-17,2025-09-26 19:30:12.844,HH,C,1156028830,HAWK11,1,1,73,2,1,1,225,2,1,0,0,12,1,225,2,1,-150029.26403983062,-4789791.635713424,4200027.390104771,2.23904,2.31909,-0.708699,-56.375,73.5,82.625,-0.203125,-7.89062,7.375,0.0507812,0.0136719,-0.0117188,4,0,41.42338974998029,-91.7940726261598,11065.233588618072,-32.26942363324296,1.475044363157685,-19.88854238287979,193.791,9031.630405181751,11029.86252269048,150,False,8.007499512501123,False,175.80302259653874,172.46210326185806,False,11.734443859812409,True,False
2,1970-07-23 11:42:54.139239911,2025-09-17,2025-09-26 19:30:13.923,HH,C,1346107128,JASSM,3,101,76,2,2,1,225,9,2,0,1,26,0,0,0,0,-153929.00818045562,-4780051.272432174,4210406.222136021,-2.71064,-1.0108,0.752418,33.25,-53.0,-58.5,0.0,0.0,0.0,0.0,0.0,0.0,2,0,41.55065909023334,-91.84442285777084,10000.004296753632,155.95257326757988,0.0010110755152939,0.0007585360277031,,9031.630405181751,11029.86252269048,150,2,2025-09-17,2025-09-26 19:30:13.937,HH,C,1157261594,HAWK11,1,1,73,2,1,1,225,2,1,0,0,12,1,225,2,1,-150089.96521170562,-4789715.762666549,4200112.327604771,2.26713,2.34929,-0.688374,-59.25,72.25,81.375,0.015625,-7.45312,6.875,0.0371094,0.00390625,-0.0351562,4,0,41.42440311734602,-91.79482643777668,11067.71930043746,-34.012944840946346,1.2018063004629225,-17.206957562315335,193.412,9031.630405181751,11029.86252269048,150,False,7.8959183038032865,False,174.25106501616168,172.3087193168042,False,13.437536856953308,True,False
2,1970-07-23 11:42:54.149260501,2025-09-17,2025-09-26 19:30:14.926,HH,C,1347299044,JASSM,3,101,76,2,2,1,225,9,2,0,1,26,0,0,0,0,-153895.74646170562,-4780104.332979049,4210347.591276646,-2.71064,-1.0108,0.752513,33.25,-53.0,-58.5,0.0,0.0,0.0,0.0,0.0,0.0,2,0,41.54995404154382,-91.84400412614588,10000.000824127248,155.9551449256126,-0.0032067801496894,0.0007573772464001,,9031.630405181751,11029.86252269048,150,2,2025-09-17,2025-09-26 19:30:14.937,HH,C,1158534126,HAWK11,1,1,73,2,1,1,225,2,1,0,0,12,1,225,2,1,-150154.35388358062,-4789639.481416549,4200197.454557896,2.17921,2.37662,-0.676581,-61.875,71.125,80.0,0.140625,-7.42188,6.96875,-0.121094,0.0078125,0.00390625,4,0,41.42541949911181,-91.79562449377624,11069.905385492464,-35.40000853690573,1.3071170316794285,-21.287143049952977,192.948,9031.630405181751,11029.86252269048,150,False,7.78145734610547,False,172.79657278139175,172.1351656439753,False,15.060750689173352,True,False
2,1970-07-23 11:42:54.159300365,2025-09-17,2025-09-26 19:30:15.930,HH,C,1348492090,JASSM,3,101,76,2,2,1,225,9,2,0,1,26,0,0,0,0,-153862.45349295562,-4780157.444307174,4210288.903776646,-2.71064,-1.0108,0.752513,33.25,-53.0,-58.5,0.0,0.0,0.0,0.0,0.0,0.0,2,0,41.549248312807855,-91.8435850098682,10000.000040022667,155.95542291215517,-0.0024344888894664,0.0007562705323067,,9031.630405181751,11029.86252269048,150,2,2025-09-17,2025-09-26 19:30:15.937,HH,C,1159727126,HAWK11,1,1,73,2,1,1,225,2,1,0,0,12,1,225,2,1,-150218.52185233062,-4789567.942354049,4200276.872526646,2.14796,2.39617,-0.661721,-64.875,70.5,77.875,0.140625,-7.23438,6.90625,0.0253906,0.0117188,-0.046875,4,0,41.42636917097617,-91.79641815942018,11071.350312817334,-36.606277611428325,1.0978341984530349,-22.408139026311567,193.412,9031.630405181751,11029.86252269048,150,False,7.6709250955408965,False,171.1427448942687,171.94985871430183,False,16.87435636065315,True,False
2,1970-07-23 11:42:54.168199308,2025-09-17,2025-09-26 19:30:16.819,HH,C,1349627218,JASSM,3,101,76,2,2,1,225,9,2,0,1,26,0,0,0,0,-153830.77673514312,-4780207.975557174,4210233.065886021,-2.71064,-1.0108,0.752513,33.25,-53.0,-58.5,0.0,0.0,0.0,0.0,0.0,0.0,2,0,41.54857685705248,-91.84318624878746,9999.99978928056,155.95568739414014,-0.0016997022310376,0.0007552230903788,,9031.630405181751,11029.86252269048,150,2,2025-09-17,2025-09-26 19:30:16.639,HH,C,1160562224,HAWK11,1,1,73,2,1,1,225,2,1,0,0,12,1,225,2,1,-150264.60974295562,-4789518.796846236,4200330.960417271,2.14211,2.42944,-0.636123,-66.875,69.875,76.625,0.078125,-7.42188,6.98438,0.00976562,0.0292969,-0.0527344,4,0,41.42701802047319,-91.79698737606267,11071.481557704548,-38.692601552721285,0.7713484216976637,-21.62521259860554,193.253,9031.630405181751,11029.86252269048,150,False,7.582817347935792,False,170.0229519935552,171.79824097067927,False,18.13329133636475,True,False
2,1970-07-23 11:42:54.179220778,2025-09-17,2025-09-26 19:30:17.922,HH,C,1350879422,JASSM,3,101,76,2,2,1,225,9,2,0,1,26,0,0,0,0,-153795.83239920562,-4780263.719697799,4210171.466276646,-2.71054,-1.0107,0.752513,33.25,-53.0,-58.5,0.0,0.0,0.0,0.0,0.0,0.0,2,0,41.54783612168899,-91.84274636340216,10000.000504318154,155.95233706915698,-0.0025637278513047,0.0024923559042488,,9031.630405181751,11029.86252269048,150,2,2025-09-17,2025-09-26 19:30:18.045,HH,C,1162152890,HAWK11,1,1,73,2,1,1,225,2,1,0,0,12,1,225,2,1,-150356.63903983062,-4789426.566377486,4200431.505339146,2.13482,2.46367,-0.61666,-70.625,67.875,74.625,-0.109375,-7.51562,6.92188,0.0117188,0.00390625,-0.0078125,4,0,41.4282281788778,-91.79812181880791,11070.07978542475,-40.63410848101624,0.8114810879372844,-20.91987886537381,193.412,9031.630405181751,11029.86252269048,150,False,7.450982268992596,False,167.8445755888205,171.52010291014645,False,20.591918188248954,True,False
2,1970-07-23 11:42:54.188257011,2025-09-17,2025-09-26 19:30:18.825,HH,C,1352012896,JASSM,3,101,76,2,2,1,225,9,2,0,1,26,0,0,0,0,-153764.20153983062,-4780314.176729049,4210115.708464146,-2.71054,-1.0107,0.752513,33.25,-53.0,-58.5,0.0,0.0,0.0,0.0,0.0,0.0,2,0,41.54716563616832,-91.8423481978204,10000.00321069031,155.95260114883388,-0.001830006230846,0.0024912632076585,,9031.630405181751,11029.86252269048,150,2,2025-09-17,2025-09-26 19:30:18.937,HH,C,1163306122,HAWK11,1,1,73,2,1,1,225,2,1,0,0,12,1,225,2,1,-150425.99841483062,-4789361.685518111,4200501.716276646,2.15409,2.48773,-0.599978,-73.125,66.75,73.0,0.0,-7.3125,6.89062,0.0292969,0.0078125,-0.0273438,4,0,41.42907511111149,-91.79897509993437,11068.332445455644,-42.11381826610202,0.7339718416075727,-19.047767954709595,193.864,9031.630405181751,11029.86252269048,150,False,7.3482437629869395,False,166.36575896118327,171.28799801558048,False,22.29562682427757,True,False
2,1970-07-23 11:42:54.199298859,2025-09-17,2025-09-26 19:30:19.929,HH,C,1353264278,JASSM,3,101,76,2,2,1,225,9,2,0,1,26,0,0,0,0,-153729.28064139312,-4780369.879854049,4210054.147917271,-2.71054,-1.0107,0.752513,33.25,-53.0,-58.5,0.0,0.0,0.0,0.0,0.0,0.0,2,0,41.546425400704365,-91.84190862798212,9999.998083710483,155.95289268543868,-0.001019959846219,0.0024900527578006,,9031.630405181751,11029.86252269048,150,2,2025-09-17,2025-09-26 19:30:20.045,HH,C,1164538888,HAWK11,1,1,73,2,1,1,225,2,1,0,0,12,1,225,2,1,-150502.91638358062,-4789292.940400924,4200575.571745396,2.15659,2.51151,-0.579174,-75.625,65.75,71.25,0.09375,-7.40625,6.84375,0.00976562,0.0117188,-0.0195312,4,0,41.42996821354168,-91.7999201911932,11065.587496551856,-43.74024781710318,0.4901673435150441,-18.16488593071627,193.828,9031.630405181751,11029.86252269048,150,False,7.237353705211894,False,164.87964098533502,171.01809365918083,False,24.04075775830914,True,False
