Subject_cm,Timestamp,SampleDate_cm,SampleTime_cm,Configuration_cm,Scenario_cm,DisTime_cm,MarkingTxt_cm,Application_cm,EntId_cm,Site_cm,ExerciseId_cm,ForceId_cm,Category_cm,Country_cm,Domain_cm,Kind_cm,Extra_cm,Specific_cm,Subcategory_cm,AltCategory_cm,AltCountry_cm,AltDomain_cm,AltKind_cm,ECEF_X_cm,ECEF_Y_cm,ECEF_Z_cm,OriPhi_cm,OriPsi_cm,OriTheta_cm,LinVelX_cm,LinVelY_cm,LinVelZ_cm,LinAccX_cm,LinAccY_cm,LinAccZ_cm,AngVelX_cm,AngVelY_cm,AngVelZ_cm,DrAlg_cm,Appearance_cm,Latitude_cm,Longitude_cm,Altitude_cm,Heading_cm,Pitch_cm,Roll_cm,CalibratedAirspeed_cm,CM_Altitude_Lead_cm,CM_Altitude_Wing_cm,CM_Airspeed_cm,Subject_ac,SampleDate_ac,SampleTime_ac,Configuration_ac,Scenario_ac,DisTime_ac,MarkingTxt_ac,Application_ac,EntId_ac,Site_ac,ExerciseId_ac,ForceId_ac,Category_ac,Country_ac,Domain_ac,Kind_ac,Extra_ac,Specific_ac,Subcategory_ac,AltCategory_ac,AltCountry_ac,AltDomain_ac,AltKind_ac,ECEF_X_ac,ECEF_Y_ac,ECEF_Z_ac,OriPhi_ac,OriPsi_ac,OriTheta_ac,LinVelX_ac,LinVelY_ac,LinVelZ_ac,LinAccX_ac,LinAccY_ac,LinAccZ_ac,AngVelX_ac,AngVelY_ac,AngVelZ_ac,DrAlg_ac,Appearance_ac,Latitude_ac,Longitude_ac,Altitude_ac,Heading_ac,Pitch_ac,Roll_ac,CalibratedAirspeed_ac,CM_Altitude_Lead_ac,CM_Altitude_Wing_ac,CM_Airspeed_ac,Bank_Angle_Condition,distance_nm,Distance_Condition,angle_between_vel,angle_between_pos,Cone_Condition,angle_between_pos_nose,Nose_Cone_Condition,Intercept_Criteria
2,1970-07-23 10:13:45.701393928,2025-09-11,2025-09-26 14:56:10.139,HA,C,2108349510,JASSM,3,114,76,2,2,1,225,9,2,0,1,26,0,0,0,0,-163227.88855154935,-4785336.108369674,4204090.604948521,-2.36559,-0.397301,0.382249,73.75,-30.75,-32.0,0.0,0.0,0.0,0.0,0.0,0.0,2,0,41.474755163805526,-91.95360249117826,9999.999903920629,119.85365839419292,-0.0036919700663801,0.0050452720748986,,8907.031340764672,11074.134321271986,150,2,2025-09-11,2025-09-26 14:56:10.097,HA,C,3690538064,AMBUSH51,1,1,48,2,1,1,225,2,1,0,0,9,1,225,2,1,-140308.59514140137,-4795071.002509758,4193377.008405362,2.40184,2.64127,-0.46044,-94.9201,49.696,52.2087,-0.0539017,-7.04635,6.33413,0.00955305,0.0044119,-0.00144913,4,0,41.34883821970419,-91.67605383345514,8904.98055454518,-52.97148106871269,-0.6685980773564838,-0.3964648728361876,205.877,8907.031340764672,11074.134321271986,150,True,14.586219441569312,False,173.8240385603163,178.50390394775724,False,4.992836928327965,True,False
2,1970-07-23 10:13:45.710276406,2025-09-11,2025-09-26 14:56:11.027,HA,C,2109482904,JASSM,3,114,76,2,2,1,225,9,2,0,1,26,0,0,0,0,-163157.84216483062,-4785365.508760299,4204060.065886021,-2.36559,-0.397301,0.382249,73.75,-30.75,-32.0,0.0,0.0,0.0,0.0,0.0,0.0,2,0,41.47438833679684,-91.95275279799286,10000.00336134274,119.854221135518,-0.0029572175148392,0.0050440337014323,,8907.031340764672,11074.134321271986,150,2,2025-09-11,2025-09-26 14:56:11.031,HA,C,3691651530,AMBUSH51,1,1,48,2,1,1,225,2,1,0,0,9,1,225,2,1,-140396.5439624822,-4795024.746487782,4193425.0605241377,2.40526,2.63945,-0.457672,-95.153,50.1135,52.1034,-0.0282937,-7.16115,6.39162,-0.00150947,0.0023105,0.00389799,4,0,41.349422501676266,-91.67711999396408,8901.593661249979,-53.00891622053102,-0.8478322318564996,-0.2459378424680976,206.207,8907.031340764672,11074.134321271986,150,True,14.483048493364677,False,173.81225330713877,178.51404410918576,False,5.052238470974721,True,False
2,1970-07-23 10:13:45.720315709,2025-09-11,2025-09-26 14:56:12.031,HA,C,2110616298,JASSM,3,114,76,2,2,1,225,9,2,0,1,26,0,0,0,0,-163087.79577811187,-4785394.907197799,4204029.524870396,-2.36559,-0.397301,0.382249,73.75,-30.75,-32.0,0.0,0.0,0.0,0.0,0.0,0.0,2,0,41.47402150195293,-91.95190311518488,10000.001221317394,119.85478386587847,-0.0022224646695388,0.0050427936719508,,8907.031340764672,11074.134321271986,150,2,2025-09-11,2025-09-26 14:56:12.097,HA,C,3692924062,AMBUSH51,1,1,48,2,1,1,225,2,1,0,0,9,1,225,2,1,-140498.33856762468,-4794971.01780931,4193480.487488648,2.40841,2.64048,-0.456982,-95.2929,50.3529,52.0571,-0.122762,-7.2104,6.37578,0.0142406,-0.00181532,-0.00249775,4,0,41.350098603950144,-91.67835409103384,8896.800410087528,-53.07541252806283,-0.8408129480334429,-0.0385602557536938,206.708,8907.031340764672,11074.134321271986,150,True,14.370567068100339,False,173.80124726644684,178.52609217864452,False,5.1012795506244295,True,False
2,1970-07-23 10:13:45.731356377,2025-09-11,2025-09-26 14:56:13.135,HA,C,2111809344,JASSM,3,114,76,2,2,1,225,9,2,0,1,26,0,0,0,0,-163014.06237967435,-4785425.852510299,4203997.376432896,-2.36559,-0.397301,0.382249,73.75,-30.75,-32.0,0.0,0.0,0.0,0.0,0.0,0.0,2,0,41.47363535572856,-91.9510087184445,10000.00164980218,119.85537620508926,-0.0014490391395653,0.0050414920781855,,8907.031340764672,11074.134321271986,150,2,2025-09-11,2025-09-26 14:56:13.030,HA,C,3694037528,AMBUSH51,1,1,48,2,1,1,225,2,1,0,0,9,1,225,2,1,-140587.30974898953,-4794924.096645265,4193528.8441098,2.41363,2.64056,-0.456136,-95.3998,49.5671,52.8881,-0.106684,-7.07744,6.40595,0.00416431,-0.0046054,0.00257474,4,0,41.3506886974092,-91.67943273224232,8892.523394408834,-53.11160723328285,-0.8731112425400313,0.2634241351304978,207.344,8907.031340764672,11074.134321271986,150,True,14.264420244303832,False,173.79732646517851,178.53566769576688,False,5.03243263550218,True,False
2,1970-07-23 10:13:45.739401483,2025-09-11,2025-09-26 14:56:13.940,HA,C,2112942738,JASSM,3,114,76,2,2,1,225,9,2,0,1,26,0,0,0,0,-162944.01599295562,-4785455.248994674,4203966.835417271,-2.36559,-0.397301,0.382249,73.75,-30.75,-32.0,0.0,0.0,0.0,0.0,0.0,0.0,2,0,41.47326851958815,-91.95015905609812,10000.001782115378,119.85593891349914,-0.0007142925065365,0.0050402617860287,,8907.031340764672,11074.134321271986,150,2,2025-09-11,2025-09-26 14:56:14.031,HA,C,3695230526,AMBUSH51,1,1,48,2,1,1,225,2,1,0,0,9,1,225,2,1,-140683.59081806094,-4794872.6534241,4193581.3375790287,2.42245,2.63615,-0.454429,-95.5801,50.9274,52.282,-0.105014,-7.23252,6.48964,-0.000517028,-0.00463453,0.00383974,4,0,41.35133233341032,-91.68060025089272,8886.615348008087,-53.00901508523188,-1.0962255481062158,0.6558821824195633,207.735,8907.031340764672,11074.134321271986,150,True,14.155510251942559,False,173.66818827747628,178.54693171616287,False,5.293136224981012,True,False
2,1970-07-23 10:13:45.748273919,2025-09-11,2025-09-26 14:56:14.827,HA,C,2114016480,JASSM,3,114,76,2,2,1,225,9,2,0,1,26,0,0,0,0,-162877.65564139312,-4785483.098604049,4203937.899870396,-2.36559,-0.397205,0.382249,73.75,-30.75,-32.0,0.0,0.0,0.0,0.0,0.0,0.0,2,0,41.47292096992027,-91.94935411415858,10000.00154730475,119.85283411936224,-0.0035878598432403,0.0029902008815378,,8907.031340764672,11074.134321271986,150,2,2025-09-11,2025-09-26 14:56:14.832,HA,C,3696184926,AMBUSH51,1,1,48,2,1,1,225,2,1,0,0,9,1,225,2,1,-140759.98935227192,-4794831.522903397,4193623.340403111,2.42959,2.6349,-0.453629,-95.6147,51.2543,52.5495,-0.154557,-7.2107,6.61483,0.00349228,0.00464285,0.00403947,4,0,41.351847254574,-91.68152679664291,8881.92574381467,-52.99215619623726,-1.1725408410909677,1.0332346421997245,207.955,8907.031340764672,11074.134321271986,150,True,14.062182629454998,False,173.51894664446027,178.55586869902095,False,5.46114201239823,True,False
2,1970-07-23 10:13:45.757396095,2025-09-11,2025-09-26 14:56:15.739,HA,C,2115090222,JASSM,3,114,76,2,2,1,225,9,2,0,1,26,0,0,0,0,-162811.29577811187,-4785510.946260299,4203908.964323521,-2.36559,-0.397205,0.382249,73.75,-30.75,-32.0,0.0,0.0,0.0,0.0,0.0,0.0,2,0,41.47257342613382,-91.94854918745207,9999.99964654498,119.85336719319514,-0.0028917818459859,0.0029889885165089,,8907.031340764672,11074.134321271986,150,2,2025-09-11,2025-09-26 14:56:15.631,HA,C,3697139324,AMBUSH51,1,1,48,2,1,1,225,2,1,0,0,9,1,225,2,1,-140836.33574046026,-4794790.367908774,4193665.343441261,2.43283,2.63401,-0.455513,-95.6024,51.4459,52.776,-0.092226,-7.29555,6.55005,-0.00577469,-0.0108867,0.0169995,4,0,41.35236232448146,-91.6824527434058,8877.177361107832,-52.88669777546304,-1.121719027601472,1.194456134812619,208.333,8907.031340764672,11074.134321271986,150,True,13.968874725330917,False,173.40436990962775,178.56479393744323,False,5.590006678835231,True,False
2,1970-07-23 10:13:45.767354494,2025-09-11,2025-09-26 14:56:16.735,HA,C,2116283270,JASSM,3,114,76,2,2,1,225,9,2,0,1,26,0,0,0,0,-162737.56384451812,-4785541.887666549,4203876.813932896,-2.36559,-0.397205,0.382345,73.75,-30.75,-32.0,0.0,0.0,0.0,0.0,0.0,0.0,2,0,41.47218726353643,-91.94765484962868,10000.000670025134,119.857806870694,-0.006039161726463,0.0029873651879408,,8907.031340764672,11074.134321271986,150,2,2025-09-11,2025-09-26 14:56:16.765,HA,C,3698491390,AMBUSH51,1,1,48,2,1,1,225,2,1,0,0,9,1,225,2,1,-140944.03826104756,-4794732.24149529,4193724.7373019448,2.43754,2.63368,-0.458345,-95.6219,51.5259,53.2516,-0.15387,-7.41091,6.7018,-0.00245614,0.00494245,-0.000795827,4,0,41.35309027866386,-91.68375903428505,8870.620819668078,-52.76669414180424,-1.0108592057231345,1.453783110103929,208.908,8907.031340764672,11074.134321271986,150,True,13.849696878808832,False,173.26422899588,178.578740974093,False,5.733300908186617,True,False
2,1970-07-23 10:13:45.777414686,2025-09-11,2025-09-26 14:56:17.741,HA,C,2117476316,JASSM,3,114,76,2,2,1,225,9,2,0,1,26,0,0,0,0,-162663.82898123687,-4785572.829072799,4203844.661589146,-2.36559,-0.397205,0.382345,73.75,-30.75,-32.0,0.0,0.0,0.0,0.0,0.0,0.0,2,0,41.47180108138277,-91.9467604873851,10000.001021935524,119.85839916569137,-0.0052657242125187,0.0029860698130578,,8907.031340764672,11074.134321271986,150,2,2025-09-11,2025-09-26 14:56:17.696,HA,C,3699604856,AMBUSH51,1,1,48,2,1,1,225,2,1,0,0,9,1,225,2,1,-141033.79410671766,-4794683.630516881,4193774.5702226753,2.44087,2.63271,-0.463834,-95.5593,51.6381,53.5912,-0.139678,-7.5587,6.8422,0.00748494,0.0161381,0.00397914,4,0,41.353700203369456,-91.6848477381016,8865.473175358267,-52.52072822853507,-0.8084598785107061,1.6154558200936815,209.189,8907.031340764672,11074.134321271986,150,True,13.742552199798356,False,173.12637628521915,178.59017778075327,False,5.880483098729752,True,False
2,1970-07-23 10:13:45.788287217,2025-09-11,2025-09-26 14:56:18.828,HA,C,2118729014,JASSM,3,114,76,2,2,1,225,9,2,0,1,26,0,0,0,0,-162586.40905936187,-4785605.315400924,4203810.901823521,-2.36559,-0.397205,0.382345,73.75,-30.75,-32.0,0.0,0.0,0.0,0.0,0.0,0.0,2,0,41.47139559638309,-91.94582143947304,10000.00078603102,119.85902104907257,-0.0044536352823507,0.002984713741031,,8907.031340764672,11074.134321271986,150,2,2025-09-11,2025-09-26 14:56:18.864,HA,C,3700996688,AMBUSH51,1,1,48,2,1,1,225,2,1,0,0,9,1,225,2,1,-141144.44605002867,-4794623.56693778,4193836.60753418,2.42659,2.63193,-0.467948,-95.4648,51.661,54.0517,-0.104789,-7.5053,6.67535,-0.0128279,0.00274118,-0.00472399,4,0,41.354456988472734,-91.68618997984838,8860.109402452164,-52.33489855890989,-0.6579153305421791,0.7748584004901832,209.543,8907.031340764672,11074.134321271986,150,True,13.618784103024078,False,172.96876837276807,178.60614421483933,False,6.0444066556478395,True,False
2,1970-07-23 10:13:45.797294251,2025-09-11,2025-09-26 14:56:19.729,HA,C,2119862408,JASSM,3,114,76,2,2,1,225,9,2,0,1,26,0,0,0,0,-162516.36218436187,-4785634.707979049,4203780.354948521,-2.36559,-0.397205,0.382345,73.75,-30.75,-32.0,0.0,0.0,0.0,0.0,0.0,0.0,2,0,41.47102870564165,-91.94497183136772,9999.999580426576,119.85958369673986,-0.003718877558539,0.0029834735532007,,8907.031340764672,11074.134321271986,150,2,2025-09-11,2025-09-26 14:56:19.597,HA,C,3701871554,AMBUSH51,1,1,48,2,1,1,225,2,1,0,0,9,1,225,2,1,-141214.31493808998,-4794585.391315815,4193876.319343488,2.41845,2.6296,-0.467677,-95.4363,51.8257,54.2842,-0.226679,-7.15661,6.4629,-0.0428779,-0.00540643,0.00352557,4,0,41.35493996688622,-91.68703761490568,8857.282835830008,-52.25667936131924,-0.7481162221884727,0.247397737000544,209.788,8907.031340764672,11074.134321271986,150,True,13.527172702758625,False,172.85551279367016,178.61594639436365,False,6.173218833402199,True,False
2,1970-07-23 10:13:45.807395617,2025-09-11,2025-09-26 14:56:20.739,HA,C,2121055456,JASSM,3,114,76,2,2,1,225,9,2,0,1,26,0,0,0,0,-162442.62878592435,-4785665.647432174,4203748.200651646,-2.36559,-0.397205,0.382345,73.75,-30.75,-32.0,0.0,0.0,0.0,0.0,0.0,0.0,2,0,41.47064250071743,-91.94407751928222,10000.00246319392,119.860175944918,-0.0029454508749166,0.0029821696667736,,8907.031340764672,11074.134321271986,150,2,2025-09-11,2025-09-26 14:56:20.708,HA,C,3703183852,AMBUSH51,1,1,48,2,1,1,225,2,1,0,0,9,1,225,2,1,-141320.01002803596,-4794527.681783305,4193936.2585740536,2.37996,2.6273,-0.466997,-95.6452,51.9168,54.3857,-0.19243,-7.30646,6.56221,-0.0255258,-0.00208996,-0.00366497,4,0,41.35566942831278,-91.6883198958853,8852.8225550056,-52.19547693515136,-0.854271906402605,-2.0179832747531785,210.276,8907.031340764672,11074.134321271986,150,True,13.40888034966555,False,172.86583424231432,178.6322550035353,False,6.193632674079383,True,False
2,1970-07-23 10:13:45.817264502,2025-09-11,2025-09-26 14:56:21.726,HA,C,2122248492,JASSM,3,114,76,2,2,1,225,9,2,0,1,26,0,0,0,0,-162368.89587576812,-4785696.582979049,4203716.046354771,-2.36559,-0.397205,0.382345,73.75,-30.75,-32.0,0.0,0.0,0.0,0.0,0.0,0.0,2,0,41.470256311983086,-91.94318322523654,9999.999606230444,119.86076817661444,-0.002172040499271,0.002980883072922,,8907.031340764672,11074.134321271986,150,2,2025-09-11,2025-09-26 14:56:21.865,HA,C,3704575684,AMBUSH51,1,1,48,2,1,1,225,2,1,0,0,9,1,225,2,1,-141431.11729344894,-4794467.482835939,4193998.82298033,2.35223,2.63733,-0.464373,-96.0668,51.5873,54.2986,-0.21406,-7.70836,7.05404,-0.0115255,0.000951872,-0.00108711,4,0,41.35643045935143,-91.68966770422352,8848.327506401998,-52.67970220428328,-0.6231283106203842,-3.3426558367074004,210.57,8907.031340764672,11074.134321271986,150,True,13.287091305029113,False,173.0941021891832,178.64850964205147,False,5.986553447357046,True,False
2,1970-07-23 10:13:45.827735620,2025-09-11,2025-09-26 14:56:22.773,HA,C,2123441548,JASSM,3,114,76,2,2,1,225,9,2,0,1,26,0,0,0,0,-162295.16198904935,-4785727.520479049,4203683.890104771,-2.36559,-0.397205,0.382345,73.75,-30.75,-32.0,0.0,0.0,0.0,0.0,0.0,0.0,2,0,41.46987009166328,-91.9422889293351,10000.001039868372,119.86136040500617,-0.0013986097161431,0.0029795797612137,,8907.031340764672,11074.134321271986,150,2,2025-09-11,2025-09-26 14:56:22.667,HA,C,3705530082,AMBUSH51,1,1,48,2,1,1,225,2,1,0,0,9,1,225,2,1,-141508.56796881283,-4794425.906065373,4194042.383536319,2.33858,2.64334,-0.46612,-96.381,51.3512,54.0876,-0.0727314,-7.53423,6.87904,-0.0102729,0.00450137,0.00262883,4,0,41.35695830070777,-91.69060711736284,8846.039676243829,-52.842302881852426,-0.3419509113242457,-3.9688776437888342,210.741,8907.031340764672,11074.134321271986,150,True,13.188244219619712,False,173.30156303036975,178.65831815722194,False,5.800148948888385,True,False
2,1970-07-23 10:13:45.837335229,2025-09-11,2025-09-26 14:56:23.733,HA,C,2124574942,JASSM,3,114,76,2,2,1,225,9,2,0,1,26,0,0,0,0,-162225.11511404935,-4785756.909150924,4203653.341276646,-2.36559,-0.397109,0.382345,73.75,-30.75,-32.0,0.0,0.0,0.0,0.0,0.0,0.0,2,0,41.46950318483092,-91.94143936264857,10000.00031627532,119.85828539520544,-0.0042335065205733,0.000929014742081,,8907.031340764672,11074.134321271986,150,2,2025-09-11,2025-09-26 14:56:23.704,HA,C,3706762848,AMBUSH51,1,1,48,2,1,1,225,2,1,0,0,9,1,225,2,1,-141607.67566913718,-4794373.251232794,4194098.1822933024,2.3229,2.64774,-0.463769,-96.8594,50.7481,54.241,-0.101179,-7.5603,6.75955,-0.00988179,0.000881132,-0.0114152,4,0,41.35763086103714,-91.69180904169772,8844.592672598155,-53.10047176895112,-0.2898110108238316,-4.752794726458375,211.095,8907.031340764672,11074.134321271986,150,True,13.077129969765467,False,173.53969689032562,178.6724047347685,False,5.549903210306496,True,False
2,1970-07-23 10:13:45.847356223,2025-09-11,2025-09-26 14:56:24.735,HA,C,2125767988,JASSM,3,114,76,2,2,1,225,9,2,0,1,26,0,0,0,0,-162151.38122733062,-4785787.844697799,4203621.183073521,-2.36559,-0.397109,0.382345,73.75,-30.75,-32.0,0.0,0.0,0.0,0.0,0.0,0.0,2,0,41.469116949365976,-91.9405450882388,10000.000150730284,119.858877600607,-0.0034600754694677,0.0009276606387697,,8907.031340764672,11074.134321271986,150,2,2025-09-11,2025-09-26 14:56:24.830,HA,C,3708114914,AMBUSH51,1,1,48,2,1,1,225,2,1,0,0,9,1,225,2,1,-141718.39943718445,-4794315.62341546,4194159.833596622,2.29925,2.65496,-0.461885,-97.5192,50.0307,54.0333,-0.206539,-7.63606,7.01582,-0.0144362,0.00631773,-0.0065882,4,0,41.3583704665508,-91.69315144583668,8844.445472535303,-53.44797626667727,-0.1195974633804001,-5.921767201132404,211.23,8907.031340764672,11074.134321271986,150,True,12.956215293991624,False,173.95154683277894,178.6870643680018,False,5.137307111976813,True,False
2,1970-07-23 10:13:45.857395753,2025-09-11,2025-09-26 14:56:25.739,HA,C,2126961034,JASSM,3,114,76,2,2,1,225,9,2,0,1,26,0,0,0,0,-162077.64782889312,-4785818.778291549,4203589.024870396,-2.36559,-0.397109,0.382345,73.75,-30.75,-32.0,0.0,0.0,0.0,0.0,0.0,0.0,2,0,41.46873071845771,-91.93965083107436,9999.999043968866,119.85946979005269,-0.0026866544177168,0.0009263140352249,,8907.031340764672,11074.134321271986,150,2,2025-09-11,2025-09-26 14:56:25.597,HA,C,3709029546,AMBUSH51,1,1,48,2,1,1,225,2,1,0,0,9,1,225,2,1,-141793.28478343776,-4794277.533277002,4194201.010829304,2.28675,2.66546,-0.461868,-97.9875,49.1619,53.98,0.0139679,-7.85448,7.10819,0.00261843,0.0198166,-0.00304911,4,0,41.35886190376676,-91.69405905314515,8845.404646198594,-53.84660432510804,0.2443743248433492,-6.3699570646162185,211.45,8907.031340764672,11074.134321271986,150,True,12.859720522608423,False,174.2836949934298,178.69461196880047,False,4.771514915208702,True,False
2,1970-07-23 10:13:45.866274134,2025-09-11,2025-09-26 14:56:26.627,HA,C,2128094428,JASSM,3,114,76,2,2,1,225,9,2,0,1,26,0,0,0,0,-162007.60095389312,-4785848.165010299,4203558.474089146,-2.36559,-0.397109,0.382441,73.75,-30.75,-32.0,0.0,0.0,0.0,0.0,0.0,0.0,2,0,41.46836379053175,-91.93880129492749,9999.999974995086,119.86387989579003,-0.0058725519576427,0.0009247708221802,,8907.031340764672,11074.134321271986,150,2,2025-09-11,2025-09-26 14:56:26.630,HA,C,3710262310,AMBUSH51,1,1,48,2,1,1,225,2,1,0,0,9,1,225,2,1,-141894.36328496516,-4794227.3241021335,4194256.2101915134,2.28109,2.67447,-0.457883,-98.7484,48.2771,53.6391,-0.135697,-7.97498,7.08151,0.00174666,0.00834631,-0.0114818,4,0,41.35951549361229,-91.6952837164367,8848.844712065411,-54.34196066872233,0.3914012100996671,-6.468299270557362,211.376,8907.031340764672,11074.134321271986,150,True,12.748317028336634,False,174.77548709363754,178.70607544537694,False,4.258742366148817,True,False
2,1970-07-23 10:13:45.879328177,2025-09-11,2025-09-26 14:56:27.932,HA,C,2129168170,JASSM,3,114,76,2,2,1,225,9,2,0,1,26,0,0,0,0,-161941.24157889312,-4785876.002900924,4203529.530729771,-2.36559,-0.397109,0.382441,73.75,-30.75,-32.0,0.0,0.0,0.0,0.0,0.0,0.0,2,0,41.46801617801883,-91.93799649075386,9999.997682273164,119.86441284055276,-0.0051764823740098,0.000923608441835,,8907.031340764672,11074.134321271986,150,2,2025-09-11,2025-09-26 14:56:27.812,HA,C,3711654142,AMBUSH51,1,1,48,2,1,1,225,2,1,0,0,9,1,225,2,1,-142010.48357280402,-4794171.278619161,4194319.286224945,2.27643,2.68839,-0.45598,-99.3865,46.8333,53.7397,-0.00370374,-7.81025,6.98217,0.00114953,-0.00266628,-0.011952,4,0,41.360254325983945,-91.69669007672552,8856.100153449888,-54.94087299181948,0.8013223493301891,-6.38951416773482,211.205,8907.031340764672,11074.134321271986,150,True,12.629596888961052,False,175.14171661383662,178.7199497536457,False,3.8070387149904406,True,False
2,1970-07-23 10:13:45.885716908,2025-09-11,2025-09-26 14:56:28.571,HA,C,2130241912,JASSM,3,114,76,2,2,1,225,9,2,0,1,26,0,0,0,0,-161874.88025076812,-4785903.842744674,4203500.587370396,-2.36559,-0.397109,0.382441,73.75,-30.75,-32.0,0.0,0.0,0.0,0.0,0.0,0.0,2,0,41.46766854861468,-91.93719167103212,10000.003117671104,119.86494579193857,-0.0044803914610404,0.0009224452995518,,8907.031340764672,11074.134321271986,150,2,2025-09-11,2025-09-26 14:56:28.530,HA,C,3712529008,AMBUSH51,1,1,48,2,1,1,225,2,1,0,0,9,1,225,2,1,-142083.49725733246,-4794137.106773688,4194358.433258764,2.27001,2.6982,-0.454418,-99.7892,46.0966,53.441,-0.0740921,-7.85754,6.95251,0.000670992,0.000198697,-0.00672344,4,0,41.36070905678788,-91.6975740004992,8862.18331192083,-55.37011231825815,1.0830263975042913,-6.517220112141017,211.132,8907.031340764672,11074.134321271986,150,True,12.539779834682191,False,175.4468218276996,178.72652010758932,False,3.469543475986415,True,False
2,1970-07-23 10:13:45.895381843,2025-09-11,2025-09-26 14:56:29.538,HA,C,2131375306,JASSM,3,114,76,2,2,1,225,9,2,0,1,26,0,0,0,0,-161804.83288748687,-4785933.225557174,4203470.034636021,-2.36549,-0.397109,0.382441,73.75,-30.75,-32.0,0.0,0.0,0.0,0.0,0.0,0.0,2,0,41.46730161265323,-91.9363421583574,10000.0001386182,119.86550833499948,-0.0037456413694508,0.0064126965834652,,8907.031340764672,11074.134321271986,150,2,2025-09-11,2025-09-26 14:56:29.664,HA,C,3713881074,AMBUSH51,1,1,48,2,1,1,225,2,1,0,0,9,1,225,2,1,-142196.3798870804,-4794085.796767199,4194418.304449151,2.27011,2.70831,-0.451494,-100.399,44.6966,53.2649,-0.0857357,-7.82929,7.08837,0.0044223,0.00240205,-0.0116815,4,0,41.36139863021263,-91.69894007311028,8873.927247261641,-55.86432946883908,1.321911162407645,-6.268114174064908,210.753,8907.031340764672,11074.134321271986,150,True,12.421811724012608,False,175.77842602145722,178.7379178305835,False,3.059268841226442,True,False
2,1970-07-23 10:13:45.903294288,2025-09-11,2025-09-26 14:56:30.329,HA,C,2132508700,JASSM,3,114,76,2,2,1,225,9,2,0,1,26,0,0,0,0,-161734.78601248687,-4785962.610322799,4203439.479948521,-2.36549,-0.397109,0.382441,73.75,-30.75,-32.0,0.0,0.0,0.0,0.0,0.0,0.0,2,0,41.466934645492245,-91.9354926603116,10000.001200512355,119.86607086428216,-0.0030108821112885,0.0064114522678477,,8907.031340764672,11074.134321271986,150,2,2025-09-11,2025-09-26 14:56:30.331,HA,C,3714676406,AMBUSH51,1,1,48,2,1,1,225,2,1,0,0,9,1,225,2,1,-142263.5349992031,-4794056.212523535,4194453.423970741,2.26838,2.71649,-0.450482,-100.759,44.1096,52.776,-0.14014,-7.81564,6.98087,0.00691694,-0.000598171,-0.00850651,4,0,41.3617998974524,-91.69975244430417,8882.152948687528,-56.20965885645043,1.5724434286912252,-6.171665731993879,210.57,8907.031340764672,11074.134321271986,150,True,12.3340825278092,False,176.08216818567757,178.7423697133248,False,2.7314521987075517,True,False
2,1970-07-23 10:13:45.913364915,2025-09-11,2025-09-26 14:56:31.336,HA,C,2133642090,JASSM,3,114,76,2,2,1,225,9,2,0,1,26,0,0,0,0,-161664.73913748687,-4785991.993135299,4203408.925261021,-2.36549,-0.397109,0.382441,73.75,-30.75,-32.0,0.0,0.0,0.0,0.0,0.0,0.0,2,0,41.46656768366737,-91.93464317263482,10000.000908230446,119.86663338260514,-0.0022761291118795,0.0064102177183018,,8907.031340764672,11074.134321271986,150,2,2025-09-11,2025-09-26 14:56:31.330,HA,C,3715869406,AMBUSH51,1,1,48,2,1,1,225,2,1,0,0,9,1,225,2,1,-142365.46481008478,-4794012.364820426,4194506.283017404,2.27323,2.72176,-0.448352,-101.272,43.0258,52.4869,-0.145228,-7.65999,6.90522,0.0113174,0.00930338,-0.00604517,4,0,41.36239964704051,-91.70098512622693,8896.276326365296,-56.49097214057244,1.6741104910712823,-5.771027175695887,210.191,8907.031340764672,11074.134321271986,150,True,12.224023817010274,False,176.30668365888778,178.75089015754702,False,2.4635309550666644,True,False
2,1970-07-23 10:13:45.923314641,2025-09-11,2025-09-26 14:56:32.331,HA,C,2134715836,JASSM,3,114,76,2,2,1,225,9,2,0,1,26,0,0,0,0,-161598.37829764312,-4786019.827119674,4203379.977995396,-2.36549,-0.397109,0.382441,73.75,-30.75,-32.0,0.0,0.0,0.0,0.0,0.0,0.0,2,0,41.46622003917279,-91.9338383969444,9999.996382995632,119.86716628952868,-0.0015800475680106,0.0064090587457992,,8907.031340764672,11074.134321271986,150,2,2025-09-11,2025-09-26 14:56:32.396,HA,C,3717141938,AMBUSH51,1,1,48,2,1,1,225,2,1,0,0,9,1,225,2,1,-142472.92384896148,-4793967.024527675,4194561.513020738,2.26787,2.72527,-0.441178,-101.602,42.45,51.8198,-0.0941821,-7.03402,6.35781,-0.00125148,-0.000354741,-0.00115993,4,0,41.36302329490322,-91.7022843838358,8912.278579344926,-56.908371916410125,1.5060851909373651,-6.002600999647519,209.25,8907.031340764672,11074.134321271986,150,True,12.11297648339927,False,176.62310917985454,178.7597628832461,False,2.1404958896908375,True,False
2,1970-07-23 10:13:45.931402985,2025-09-11,2025-09-26 14:56:33.140,HA,C,2135849230,JASSM,3,114,76,2,2,1,225,9,2,0,1,26,0,0,0,0,-161528.33142264312,-4786049.209932174,4203349.423307896,-2.36549,-0.397013,0.382441,73.75,-30.75,-32.0,0.0,0.0,0.0,0.0,0.0,0.0,2,0,41.46585306508625,-91.9329889279226,10000.002798861166,119.86409144324575,-0.0044149364228692,0.0043580141515274,,8907.031340764672,11074.134321271986,150,2,2025-09-11,2025-09-26 14:56:33.175,HA,C,3718056570,AMBUSH51,1,1,48,2,1,1,225,2,1,0,0,9,1,225,2,1,-142550.92904620885,-4793934.527717349,4194600.947419104,2.26393,2.732,-0.439499,-101.881,41.9405,51.4311,-0.220142,-7.55414,6.84758,-0.00563737,0.00471359,-0.0113528,4,0,41.36346908112493,-91.70322738975406,8923.498630018434,-57.22649123220006,1.6807637545311314,-6.0732249624725805,209.067,8907.031340764672,11074.134321271986,150,True,12.018832859391717,False,176.79282003588685,178.7636444199563,False,1.9712618515065676,True,False
2,1970-07-23 10:13:45.940341071,2025-09-11,2025-09-26 14:56:34.034,HA,C,2136922974,JASSM,3,114,76,2,2,1,225,9,2,0,1,26,0,0,0,0,-161461.97058279935,-4786077.043916549,4203320.474089146,-2.36549,-0.397013,0.382441,73.75,-30.75,-32.0,0.0,0.0,0.0,0.0,0.0,0.0,2,0,41.465505395803845,-91.93218416990489,10000.00038560202,119.8646243309924,-0.0037188483084613,0.0043567995162801,,8907.031340764672,11074.134321271986,150,2,2025-09-11,2025-09-26 14:56:33.898,HA,C,3718931436,AMBUSH51,1,1,48,2,1,1,225,2,1,0,0,9,1,225,2,1,-142625.8697538137,-4793903.959402616,4194638.254554052,2.25731,2.73806,-0.434876,-102.213,41.452,50.8738,-0.22274,-7.44249,6.67025,-0.00835463,-0.0112903,-0.0121871,4,0,41.36388956664613,-91.70413312860896,8934.633155638308,-57.6373294903556,1.7115368164657916,-6.317285541078401,208.712,8907.031340764672,11074.134321271986,150,True,11.92922179325667,False,177.01973982799353,178.76645647030978,False,1.7616260511429551,True,False
2,1970-07-23 10:13:45.950314379,2025-09-11,2025-09-26 14:56:35.031,HA,C,2138056368,JASSM,3,114,76,2,2,1,225,9,2,0,1,26,0,0,0,0,-161391.92321951812,-4786106.422822799,4203289.917448521,-2.36549,-0.397013,0.382441,73.75,-30.75,-32.0,0.0,0.0,0.0,0.0,0.0,0.0,2,0,41.465138419647886,-91.93133471527518,9999.99962795825,119.86518681157094,-0.0029840975110764,0.0043555286443074,,8907.031340764672,11074.134321271986,150,2,2025-09-11,2025-09-26 14:56:35.197,HA,C,3720482334,AMBUSH51,1,1,48,2,1,1,225,2,1,0,0,9,1,225,2,1,-142759.7280327912,-4793850.498086674,4194703.886378904,2.24734,2.74875,-0.42903,-102.71,40.3147,50.1194,-0.191928,-7.48039,6.79921,-0.00367329,0.00157397,-0.0145527,4,0,41.36462704621619,-91.70575057093905,8955.15553425904,-58.27016566915173,1.8633870040994207,-6.652009725821179,208.431,8907.031340764672,11074.134321271986,150,True,11.800068252803657,False,177.17081742904378,178.77271242348303,False,1.7278360046318004,True,False
2,1970-07-23 10:13:45.959403392,2025-09-11,2025-09-26 14:56:35.940,HA,C,2139130110,JASSM,3,114,76,2,2,1,225,9,2,0,1,26,0,0,0,0,-161325.56286795562,-4786134.254854049,4203260.968229771,-2.36549,-0.397013,0.382441,73.75,-30.75,-32.0,0.0,0.0,0.0,0.0,0.0,0.0,2,0,41.46479075028418,-91.93052998155622,9999.998811199326,119.86571967567538,-0.0022880193595547,0.004354321488655,,8907.031340764672,11074.134321271986,150,2,2025-09-11,2025-09-26 14:56:35.964,HA,C,3721396966,AMBUSH51,1,1,48,2,1,1,225,2,1,0,0,9,1,225,2,1,-142838.83670646232,-4793819.668469114,4194741.980494557,2.24018,2.75539,-0.425396,-102.97,39.6842,49.5619,-0.121783,-7.33689,6.70603,-0.00773253,-0.00414559,-0.0142573,4,0,41.36505364158573,-91.70670620374098,8967.670208097545,-58.66377626899232,1.9596062137925792,-6.91791755377499,208.113,8907.031340764672,11074.134321271986,150,True,11.70834097897751,False,177.2382193143119,178.7736506160848,False,1.7810663197635124,True,False
2,1970-07-23 10:13:45.969402115,2025-09-11,2025-09-26 14:56:36.940,HA,C,2140323154,JASSM,3,114,76,2,2,1,225,9,2,0,1,26,0,0,0,0,-161251.82898123687,-4786165.178682174,4203228.802214146,-2.36549,-0.397013,0.382536,73.75,-30.75,-32.0,0.0,0.0,0.0,0.0,0.0,0.0,2,0,41.46440444681053,-91.9296358413789,9999.999445045634,119.87015941359763,-0.0054351104139625,0.0043527495732717,,8907.031340764672,11074.134321271986,150,2,2025-09-11,2025-09-26 14:56:36.764,HA,C,3722351364,AMBUSH51,1,1,48,2,1,1,225,2,1,0,0,9,1,225,2,1,-142921.03944442316,-4793788.288735681,4194780.899344541,2.23313,2.7638,-0.422761,-103.308,39.2099,48.6925,-0.110879,-7.50683,6.72331,0.00334456,0.00279528,-0.00918271,4,0,41.36548852147797,-91.7076989914211,8980.850578033009,-59.082651978300014,2.162968931023755,-7.138474872540319,207.722,8907.031340764672,11074.134321271986,150,True,11.6102882710956,False,177.4051622484924,178.7730330800261,False,1.803119287451055,True,False
2,1970-07-23 10:13:45.980615289,2025-09-11,2025-09-26 14:56:38.061,HA,C,2141456548,JASSM,3,114,76,2,2,1,225,9,2,0,1,26,0,0,0,0,-161181.78161795562,-4786194.557588424,4203198.243620396,-2.36549,-0.397013,0.382536,73.75,-30.75,-32.0,0.0,0.0,0.0,0.0,0.0,0.0,2,0,41.46403743859516,-91.92878641548684,10000.004778517528,119.8707218629506,-0.0047003528322417,0.0043515165391097,,8907.031340764672,11074.134321271986,150,2,2025-09-11,2025-09-26 14:56:38.030,HA,C,3723862496,AMBUSH51,1,1,48,2,1,1,225,2,1,0,0,9,1,225,2,1,-143052.48246852087,-4793739.204476887,4194842.237837349,2.22587,2.77452,-0.415776,-103.777,38.2077,47.7307,-0.151002,-7.39231,6.63752,0.00706674,-0.00182572,-0.00420592,4,0,41.36617135319622,-91.70928610478488,9002.687705104394,-59.7637896964898,2.278328369810676,-7.330745459411816,206.696,8907.031340764672,11074.134321271986,150,True,11.483980142821563,False,177.29639018027535,178.7732679066011,False,2.209748456114273,True,False
2,1970-07-23 10:13:45.987374770,2025-09-11,2025-09-26 14:56:38.737,HA,C,2142530292,JASSM,3,114,76,2,2,1,225,9,2,0,1,26,0,0,0,0,-161115.42077811187,-4786222.387666549,4203169.290495396,-2.36549,-0.397013,0.382536,73.75,-30.75,-32.0,0.0,0.0,0.0,0.0,0.0,0.0,2,0,41.46368973672468,-91.92798170394084,10000.000426475715,119.87125470081868,-0.00400426390666,0.0043503452638775,,8907.031340764672,11074.134321271986,150,2,2025-09-11,2025-09-26 14:56:38.764,HA,C,3724737362,AMBUSH51,1,1,48,2,1,1,225,2,1,0,0,9,1,225,2,1,-143128.5186477719,-4793711.385564889,4194877.19852638,2.22123,2.78327,-0.412505,-103.986,37.3874,47.4721,-0.189884,-7.49245,6.74502,-0.0141512,0.00268085,-0.0118792,4,0,41.36655939791377,-91.71020401490613,9015.60881189798,-60.22096607924277,2.472784368899001,-7.413697860607925,206.256,8907.031340764672,11074.134321271986,150,True,11.394890887264287,False,177.00118770723765,178.7706899690613,False,2.608502988767785,True,False
2,1970-07-23 10:13:45.996433387,2025-09-11,2025-09-26 14:56:39.643,HA,C,2143604048,JASSM,3,114,76,2,2,1,225,9,2,0,1,26,0,0,0,0,-161049.05944998687,-4786250.217744674,4203140.339323521,-2.36549,-0.397013,0.382536,73.75,-30.75,-32.0,0.0,0.0,0.0,0.0,0.0,0.0,2,0,41.46334204247378,-91.92717699515347,10000.003368715712,119.87178753318555,-0.0033081777539315,0.0043491876502075,,8907.031340764672,11074.134321271986,150,2,2025-09-11,2025-09-26 14:56:39.664,HA,C,3725811062,AMBUSH51,1,1,48,2,1,1,225,2,1,0,0,9,1,225,2,1,-143222.05918481038,-4793677.869346449,4194919.577642184,2.19043,2.78616,-0.406263,-104.276,36.7474,46.6691,-0.19197,-7.01835,6.63329,-0.0573048,-0.00370242,-0.0128404,4,0,41.367028306444105,-91.71133299914358,9031.883992193463,-60.58344661898944,2.3306812971173243,-9.12755685180505,205.718,8907.031340764672,11074.134321271986,150,True,11.295164852196226,False,176.83830955698105,178.76706357934748,False,2.9571474024859232,True,False
2,1970-07-23 10:13:46.009734918,2025-09-11,2025-09-26 14:56:40.973,HA,C,2144797080,JASSM,3,114,76,2,2,1,225,9,2,0,1,26,0,0,0,0,-160975.32605154935,-4786281.137666549,4203108.169401646,-2.36549,-0.397013,0.382536,73.75,-30.75,-32.0,0.0,0.0,0.0,0.0,0.0,0.0,2,0,41.46295570966391,-91.92628290218896,10000.000271866387,119.87237954636008,-0.0025347606100445,0.0043478953911211,,8907.031340764672,11074.134321271986,150,2,2025-09-11,2025-09-26 14:56:40.963,HA,C,3727361960,AMBUSH51,1,1,48,2,1,1,225,2,1,0,0,9,1,225,2,1,-143358.2893506283,-4793630.162211332,4194978.527172041,2.11626,2.78712,-0.38589,-105.119,36.4548,44.348,0.00329579,-6.41913,5.84589,-0.0550182,-0.00701056,-0.0139077,4,0,41.36768590962516,-91.71297685556624,9052.3102377486,-61.45105032090675,1.5478331064044708,-13.385612818282484,205.181,8907.031340764672,11074.134321271986,150,False,11.165121510039663,False,176.74173823645015,178.7562954901132,False,3.5158433753266864,True,False
2,1970-07-23 10:13:46.015401830,2025-09-11,2025-09-26 14:56:41.540,HA,C,2145870822,JASSM,3,114,76,2,2,1,225,9,2,0,1,26,0,0,0,0,-160908.96667654935,-4786308.965791549,4203079.216276646,-2.36549,-0.397013,0.382536,73.75,-30.75,-32.0,0.0,0.0,0.0,0.0,0.0,0.0,2,0,41.462608001553946,-91.9254782356907,10000.000860176277,119.87291234297098,-0.0018386890928585,0.0043467270408876,,8907.031340764672,11074.134321271986,150,2,2025-09-11,2025-09-26 14:56:41.697,HA,C,3728236826,AMBUSH51,1,1,48,2,1,1,225,2,1,0,0,9,1,225,2,1,-143434.85797184656,-4793603.945709756,4195009.6216220325,2.0632,2.7904,-0.370423,-105.873,36.3431,42.4302,-0.204408,-6.59167,5.9938,-0.0691808,-0.0107619,-0.0241484,4,0,41.36803818687637,-91.71390059021697,9060.847063336423,-62.2055733249688,1.050731964322554,-16.373125524109327,204.789,8907.031340764672,11074.134321271986,150,False,11.076906914170822,False,176.40257403448072,178.74331853169318,False,4.1541940450251476,True,False
2,1970-07-23 10:13:46.028136382,2025-09-11,2025-09-26 14:56:42.813,HA,C,2147063868,JASSM,3,114,76,2,2,1,225,9,2,0,1,26,0,0,0,0,-160835.23083670562,-4786339.885713424,4203047.044401646,-2.36549,-0.396918,0.382536,73.75,-30.75,-32.0,0.0,0.0,0.0,0.0,0.0,0.0,2,0,41.46222164280783,-91.92458413369938,10000.000570806278,119.8698672780154,-0.0046348817647768,0.0022951499836874,,8907.031340764672,11074.134321271986,150,2,2025-09-11,2025-09-26 14:56:42.763,HA,C,3729509358,AMBUSH51,1,1,48,2,1,1,225,2,1,0,0,9,1,225,2,1,-143549.61614107026,-4793565.227082309,4195053.723182404,1.99838,2.7967,-0.348651,-107.155,35.5868,39.7368,0.0358556,-6.79372,5.94525,-0.0219804,-0.00109751,-0.0238863,4,0,41.368545844519495,-91.71528486105724,9069.636526145789,-63.33266346337274,0.4178401241926062,-19.974542319022877,204.679,8907.031340764672,11074.134321271986,150,False,10.961497486050204,False,175.32594367440737,178.71863809221412,False,5.474196863689491,True,False
2,1970-07-23 10:13:46.035416668,2025-09-11,2025-09-26 14:56:43.541,HA,C,2148256914,JASSM,3,114,76,2,2,1,225,9,2,0,1,26,0,0,0,0,-160761.49694998687,-4786370.803682174,4203014.872526646,-2.36549,-0.396918,0.382536,73.75,-30.75,-32.0,0.0,0.0,0.0,0.0,0.0,0.0,2,0,41.46183528832763,-91.9236900664603,9999.999460329347,119.87045926108786,-0.0038614605507807,0.0022938091761061,,8907.031340764672,11074.134321271986,150,2,2025-09-11,2025-09-26 14:56:43.564,HA,C,3730463756,AMBUSH51,1,1,48,2,1,1,225,2,1,0,0,9,1,225,2,1,-143635.81814638572,-4793536.962249243,4195084.363708033,1.97933,2.80296,-0.326245,-108.247,35.0883,37.3573,0.0248874,-6.64558,5.77559,-0.0234202,-0.00382101,-0.022665,4,0,41.36890549889964,-91.71632439333833,9072.867998054511,-64.48737228038316,-0.2378498125789612,-20.949128636726066,204.46,8907.031340764672,11074.134321271986,150,False,10.863953393761287,False,174.29016086384286,178.69196937036523,False,6.654091234242043,True,False
2,1970-07-23 10:13:46.045390967,2025-09-11,2025-09-26 14:56:44.539,HA,C,2149390308,JASSM,3,114,76,2,2,1,225,9,2,0,1,26,0,0,0,0,-160691.44909842435,-4786400.174775924,4202984.310026646,-2.36549,-0.396918,0.382536,73.75,-30.75,-32.0,0.0,0.0,0.0,0.0,0.0,0.0,2,0,41.46146825632777,-91.922840704924,10000.001183768103,119.8710216392545,-0.0031267110685223,0.0022925479028385,,8907.031340764672,11074.134321271986,150,2,2025-09-11,2025-09-26 14:56:44.564,HA,C,3731656756,AMBUSH51,1,1,48,2,1,1,225,2,1,0,0,9,1,225,2,1,-143744.14456423852,-4793502.466832583,4195119.805478181,1.95629,2.81412,-0.301084,-109.765,34.3487,34.2124,-0.116077,-6.98463,6.11981,-0.0182874,0.0103582,-0.028578,4,0,41.369330673098034,-91.71763037877834,9072.813786321813,-65.94526665727813,-0.8071851238313239,-22.05871567942545,204.826,8907.031340764672,11074.134321271986,150,False,10.756431582445922,False,172.76909370001198,178.65121933298678,False,8.306841079373298,True,False
2,1970-07-23 10:13:46.054293687,2025-09-11,2025-09-26 14:56:45.429,HA,C,2150523704,JASSM,3,114,76,2,2,1,225,9,2,0,1,26,0,0,0,0,-160621.40173514312,-4786429.545869674,4202953.745573521,-2.36549,-0.396918,0.382536,73.75,-30.75,-32.0,0.0,0.0,0.0,0.0,0.0,0.0,2,0,41.46110120476327,-91.92199135880456,10000.002149422537,119.8715840031203,-0.0023919587242073,0.002291272915948,,8907.031340764672,11074.134321271986,150,2,2025-09-11,2025-09-26 14:56:45.629,HA,C,3732929288,AMBUSH51,1,1,48,2,1,1,225,2,1,0,0,9,1,225,2,1,-143862.06061157797,-4793466.522795803,4195154.752609145,1.93727,2.82764,-0.274237,-111.401,33.0222,31.2031,-0.0798731,-7.277,6.21892,-0.0232891,0.00352349,-0.0292376,4,0,41.36975939340068,-91.71905142103722,9068.837478212276,-67.56887579160693,-1.3407228577972523,-22.897888003101976,205.364,8907.031340764672,11074.134321271986,150,False,10.644371504457325,False,171.06522019749576,178.59651286860662,False,10.10152949816672,True,False
2,1970-07-23 10:13:46.064915492,2025-09-11,2025-09-26 14:56:46.491,HA,C,2151716748,JASSM,3,114,76,2,2,1,225,9,2,0,1,26,0,0,0,0,-160547.66736014312,-4786460.461885299,4202921.569792271,-2.36549,-0.396918,0.382632,73.75,-30.75,-32.0,0.0,0.0,0.0,0.0,0.0,0.0,2,0,41.46071481544101,-91.9210973172896,9999.99878269132,119.8760237737365,-0.0055388993962978,0.002289680897116,,8907.031340764672,11074.134321271986,150,2,2025-09-11,2025-09-26 14:56:46.630,HA,C,3734122286,AMBUSH51,1,1,48,2,1,1,225,2,1,0,0,9,1,225,2,1,-143974.33367642804,-4793434.13021134,4195184.464744765,1.93366,2.84596,-0.25306,-113.08,31.4118,28.3499,-0.0754307,-7.564,6.77656,-0.00851067,-0.00168008,-0.0262727,4,0,41.37013262990375,-91.72040381895248,9061.841208074902,-69.14739879898372,-1.4464709848187212,-22.792873256367173,205.902,8907.031340764672,11074.134321271986,150,False,10.534366698180698,False,169.33517813978133,178.53285369110117,False,11.911189547100557,True,False
2,1970-07-23 10:13:46.075312172,2025-09-11,2025-09-26 14:56:47.531,HA,C,2152850144,JASSM,3,114,76,2,2,1,225,9,2,0,1,26,0,0,0,0,-160477.61999686187,-4786489.831025924,4202891.005339146,-2.36549,-0.396918,0.382632,73.75,-30.75,-32.0,0.0,0.0,0.0,0.0,0.0,0.0,2,0,41.46034776258822,-91.92024799161469,10000.002019657642,119.87658611574422,-0.0048041531746742,0.0022884649912962,,8907.031340764672,11074.134321271986,150,2,2025-09-11,2025-09-26 14:56:47.632,HA,C,3735315284,AMBUSH51,1,1,48,2,1,1,225,2,1,0,0,9,1,225,2,1,-144088.37446667446,-4793403.648581546,4195211.144839213,1.91868,2.86111,-0.227843,-114.738,29.5765,25.3761,-0.196297,-7.57946,6.74533,-0.00941781,0.00371698,-0.0328474,4,0,41.37047369380864,-91.7217766578702,9053.111382621566,-70.77777040177354,-1.8269992259243768,-23.398074086817577,206.219,8907.031340764672,11074.134321271986,150,False,10.426907060811196,False,167.51729214985946,178.4572083126079,False,13.816329875754263,True,False
2,1970-07-23 10:13:46.084439157,2025-09-11,2025-09-26 14:56:48.443,HA,C,2154043188,JASSM,3,114,76,2,2,1,225,9,2,0,1,26,0,0,0,0,-160403.88562186187,-4786520.745088424,4202858.829557896,-2.36549,-0.396918,0.382632,73.75,-30.75,-32.0,0.0,0.0,0.0,0.0,0.0,0.0,2,0,41.459961371297794,-91.91935397157846,10000.001296415974,119.87717804565033,-0.0040307273576734,0.0022871749841526,,8907.031340764672,11074.134321271986,150,2,2025-09-11,2025-09-26 14:56:48.630,HA,C,3736508284,AMBUSH51,1,1,48,2,1,1,225,2,1,0,0,9,1,225,2,1,-144204.01598290092,-4793375.170000847,4195234.906836018,1.91024,2.88094,-0.205168,-116.327,27.3321,22.4442,0.06248,-7.83197,6.69448,0.00660485,0.0081112,-0.0308958,4,0,41.37078283632502,-91.72316790900284,9043.109449738571,-72.48607106339675,-1.905922925864161,-23.58162833111147,206.513,8907.031340764672,11074.134321271986,150,False,10.31743625745992,False,165.63084945147955,178.36876702646362,False,15.794172332218535,True,False
2,1970-07-23 10:13:46.093273074,2025-09-11,2025-09-26 14:56:49.327,HA,C,2155176584,JASSM,3,114,76,2,2,1,225,9,2,0,1,26,0,0,0,0,-160333.83777029935,-4786550.112275924,4202828.261198521,-2.36549,-0.396918,0.382632,73.75,-30.75,-32.0,0.0,0.0,0.0,0.0,0.0,0.0,2,0,41.45959429090905,-91.91850466050852,9999.998279089625,119.87774036958666,-0.0032959704732524,0.0022859482354668,,8907.031340764672,11074.134321271986,150,2,2025-09-11,2025-09-26 14:56:49.196,HA,C,3737184316,AMBUSH51,1,1,48,2,1,1,225,2,1,0,0,9,1,225,2,1,-144270.98228737016,-4793359.8735142015,4195247.193847334,1.91015,2.89327,-0.189361,-117.19,26.1398,20.5711,-0.0549271,-7.81646,6.80097,-0.00661941,0.00537106,-0.0213625,4,0,41.37094479291054,-91.72397313919215,9037.067381746489,-73.62207340940759,-2.0152838393833443,-23.40957836018372,206.757,8907.031340764672,11074.134321271986,150,False,10.237413169207917,False,164.51602728593065,178.30947271107166,False,16.97517678953412,True,False
2,1970-07-23 10:13:46.103351920,2025-09-11,2025-09-26 14:56:50.335,HA,C,2156369630,JASSM,3,114,76,2,2,1,225,9,2,0,1,26,0,0,0,0,-160260.10339529935,-4786581.026338424,4202796.083464146,-2.36549,-0.396918,0.382632,73.75,-30.75,-32.0,0.0,0.0,0.0,0.0,0.0,0.0,2,0,41.45920787284679,-91.917610661168,10000.000756190808,119.87833227694598,-0.0025225379926421,0.0022846467471912,,8907.031340764672,11074.134321271986,150,2,2025-09-11,2025-09-26 14:56:50.196,HA,C,3738377314,AMBUSH51,1,1,48,2,1,1,225,2,1,0,0,9,1,225,2,1,-144388.74833101346,-4793334.956182946,4195266.177967474,1.91103,2.91475,-0.164504,-118.509,23.8689,17.5766,-0.0627276,-7.76769,6.70799,0.0210379,0.00321972,-0.0253156,4,0,41.371200083927405,-91.72538850368932,9025.638523772346,-75.49246631132395,-2.089946717326692,-23.075420138225727,207.014,8907.031340764672,11074.134321271986,150,False,10.128749046087473,False,162.65279689455667,178.19966409805036,False,18.954468414319543,True,False
2,1970-07-23 10:13:46.113338076,2025-09-11,2025-09-26 14:56:51.333,HA,C,2157503024,JASSM,3,114,76,2,2,1,225,9,2,0,1,26,0,0,0,0,-160190.05554373687,-4786610.391572799,4202765.515104771,-2.36549,-0.396918,0.382632,73.75,-30.75,-32.0,0.0,0.0,0.0,0.0,0.0,0.0,2,0,41.45884079117052,-91.91676137054051,10000.000010124402,119.87889457894448,-0.001787787313958,0.0022834297357627,,8907.031340764672,11074.134321271986,150,2,2025-09-11,2025-09-26 14:56:51.431,HA,C,3739848680,AMBUSH51,1,1,48,2,1,1,225,2,1,0,0,9,1,225,2,1,-144534.91784532732,-4793307.59939843,4195285.263451452,1.95113,2.94235,-0.134963,-119.935,20.8839,14.2436,-0.0254978,-8.1876,6.72784,0.0508945,0.0167623,-0.0373685,4,0,41.37146545514972,-91.72714396555222,9010.54120958691,-77.79937218811601,-2.075552411598811,-20.458451811251177,207.722,8907.031340764672,11074.134321271986,150,False,10.009099723401516,False,160.47229406038196,178.0475802843797,False,21.2895927794751,True,False
2,1970-07-23 10:13:46.123370696,2025-09-11,2025-09-26 14:56:52.337,HA,C,2158696070,JASSM,3,114,76,2,2,1,225,9,2,0,1,26,0,0,0,0,-160116.32116873687,-4786641.301729049,4202733.337370396,-2.36549,-0.396822,0.382632,73.75,-30.75,-32.0,0.0,0.0,0.0,0.0,0.0,0.0,2,0,41.45845438277239,-91.91586739345853,10000.000330984596,119.87584965610992,-0.0045839958046171,0.0002313713154885,,8907.031340764672,11074.134321271986,150,2,2025-09-11,2025-09-26 14:56:52.401,HA,C,3741001912,AMBUSH51,1,1,48,2,1,1,225,2,1,0,0,9,1,225,2,1,-144652.2245405035,-4793288.676335448,4195297.705660094,1.99446,2.97714,-0.124468,-121.021,17.6495,12.259,-0.359802,-9.61267,8.36327,0.027596,0.0181293,-0.0239841,4,0,41.37164096446513,-91.728551711151,8999.661041168485,-79.57208083094726,-1.0108095912086947,-17.66965353207654,207.967,8907.031340764672,11074.134321271986,150,False,9.903349790962627,False,158.75017263370816,177.91028828139696,False,23.132037477931544,True,False
2,1970-07-23 10:13:46.132412899,2025-09-11,2025-09-26 14:56:53.241,HA,C,2159829464,JASSM,3,114,76,2,2,1,225,9,2,0,1,26,0,0,0,0,-160046.27331717435,-4786670.666963424,4202702.767057896,-2.36549,-0.396822,0.382632,73.75,-30.75,-32.0,0.0,0.0,0.0,0.0,0.0,0.0,2,0,41.45808727500502,-91.91501812249108,10000.002413126163,119.87641193676956,-0.0038492385464813,0.0002300961877162,,8907.031340764672,11074.134321271986,150,2,2025-09-11,2025-09-26 14:56:53.212,HA,C,3741956312,AMBUSH51,1,1,48,2,1,1,225,2,1,0,0,9,1,225,2,1,-144749.3251233,-4793275.774820885,4195307.021936541,2.00987,3.00145,-0.12189,-121.67,14.4832,11.3117,-0.204637,-9.47871,8.23953,0.0147317,0.0273775,-0.0222488,4,0,41.37176316894082,-91.72971598287464,8995.326697804656,-80.60554955229017,-0.0785092181421407,-16.605718042233057,208.077,8907.031340764672,11074.134321271986,150,False,9.810968378581585,False,157.43481822189943,177.78830066355073,False,24.542424843541102,True,False
2,1970-07-23 10:13:46.142276081,2025-09-11,2025-09-26 14:56:54.227,HA,C,2161022510,JASSM,3,114,76,2,2,1,225,9,2,0,1,26,0,0,0,0,-159972.53894217435,-4786701.575166549,4202670.585417271,-2.3654,-0.396822,0.382632,73.75,-30.75,-32.0,0.0,0.0,0.0,0.0,0.0,0.0,2,0,41.45770083829391,-91.9141241668845,9999.9968922531,119.87700379756656,-0.0030758117273551,0.0057202241172234,,8907.031340764672,11074.134321271986,150,2,2025-09-11,2025-09-26 14:56:54.397,HA,C,3743387910,AMBUSH51,1,1,48,2,1,1,225,2,1,0,0,9,1,225,2,1,-144895.47497119423,-4793261.5060602,4195319.097315665,1.98451,3.0402,-0.115207,-122.133,9.49498,9.7391,-0.142888,-9.43913,8.34661,-0.0202099,0.0206551,-0.01159,4,0,41.37190331175994,-91.73146652332882,8997.263834335623,-82.35763010727771,1.3159460278334585,-17.815057929511518,207.612,8907.031340764672,11074.134321271986,150,False,9.693404609672188,False,155.31667654113517,177.59487946743386,False,26.817164508654148,True,False
2,1970-07-23 10:13:46.152312172,2025-09-11,2025-09-26 14:56:55.231,HA,C,2162155904,JASSM,3,114,76,2,2,1,225,9,2,0,1,26,0,0,0,0,-159902.49206717435,-4786730.938447799,4202640.015104771,-2.3654,-0.396822,0.382632,73.75,-30.75,-32.0,0.0,0.0,0.0,0.0,0.0,0.0,2,0,41.45733372904586,-91.91327492803389,10000.00132566647,119.87756604855812,-0.0023410681647703,0.0057189541995177,,8907.031340764672,11074.134321271986,150,2,2025-09-11,2025-09-26 14:56:55.068,HA,C,3744183242,AMBUSH51,1,1,48,2,1,1,225,2,1,0,0,9,1,225,2,1,-144976.93950422516,-4793255.986438347,4195325.166898269,1.97858,3.06011,-0.106231,-122.239,6.83486,8.90044,-0.192958,-9.10878,7.9165,-0.00233339,0.021452,-0.0324604,4,0,41.37196247864837,-91.73244140584222,9002.903997873793,-83.49492005062888,1.8256796938691435,-18.06028516442248,206.794,8907.031340764672,11074.134321271986,150,False,9.610383657748327,False,154.16954057666567,177.47593865353394,False,28.065756075215514,True,False
2,1970-07-23 10:13:46.161351476,2025-09-11,2025-09-26 14:56:56.135,HA,C,2163289300,JASSM,3,114,76,2,2,1,225,9,2,0,1,26,0,0,0,0,-159832.44275076812,-4786760.299775924,4202609.442839146,-2.3654,-0.396822,0.382728,73.75,-30.75,-32.0,0.0,0.0,0.0,0.0,0.0,0.0,2,0,41.45696661244807,-91.91242567035074,9999.9999612483,119.88197626685664,-0.0055265395733386,0.005717454425322,,8907.031340764672,11074.134321271986,150,2,2025-09-11,2025-09-26 14:56:56.129,HA,C,3745455774,AMBUSH51,1,1,48,2,1,1,225,2,1,0,0,9,1,225,2,1,-145106.6861610757,-4793250.567314788,4195333.1063130535,1.98646,3.08735,-0.0897066,-122.263,3.13475,7.00808,-0.0609447,-8.86582,7.64771,0.0391807,0.020963,-0.0226088,4,0,41.372024979216526,-91.73399286194224,9016.4459874517,-85.23438283938351,2.366688464422376,-17.51949367475369,205.828,8907.031340764672,11074.134321271986,150,False,9.505409257630246,False,152.31963536391243,177.28014780159896,False,30.10277609968055,False,False
2,1970-07-23 10:13:46.173469604,2025-09-11,2025-09-26 14:56:57.346,HA,C,2164482346,JASSM,3,114,76,2,2,1,225,9,2,0,1,26,0,0,0,0,-159758.70837576812,-4786791.207979049,4202577.259245396,-2.3654,-0.396822,0.382728,73.75,-30.75,-32.0,0.0,0.0,0.0,0.0,0.0,0.0,2,0,41.45658014234267,-91.91153174552062,10000.001266982146,119.8825680942093,-0.004753105951337,0.0057161506952708,,8907.031340764672,11074.134321271986,150,2,2025-09-11,2025-09-26 14:56:57.429,HA,C,3747006672,AMBUSH51,1,1,48,2,1,1,225,2,1,0,0,9,1,225,2,1,-145265.45670429943,-4793248.912216934,4195340.244981883,2.02784,3.11966,-0.074123,-121.892,-0.91289,4.97479,-0.0646201,-8.65472,7.40877,0.0353524,0.0306087,-0.0157678,4,0,41.37205444053516,-91.73588957374464,9039.68767342217,-87.12614692933128,3.164655613350124,-15.088037171963132,204.325,8907.031340764672,11074.134321271986,150,False,9.386257033654035,False,150.29374792180127,177.02222335112538,False,32.3812608079946,False,False
2,1970-07-23 10:13:46.181271501,2025-09-11,2025-09-26 14:56:58.127,HA,C,2165675392,JASSM,3,114,76,2,2,1,225,9,2,0,1,26,0,0,0,0,-159684.97351248687,-4786822.112275924,4202545.077604771,-2.3654,-0.396822,0.382728,73.75,-30.75,-32.0,0.0,0.0,0.0,0.0,0.0,0.0,2,0,41.45619370179677,-91.91063782702363,10000.0009923642,119.88315991283017,-0.0039796876975604,0.0057148802076727,,8907.031340764672,11074.134321271986,150,2,2025-09-11,2025-09-26 14:56:58.129,HA,C,3747841772,AMBUSH51,1,1,48,2,1,1,225,2,1,0,0,9,1,225,2,1,-145350.64095461395,-4793250.074725379,4195343.175829109,2.05151,3.13599,-0.0690537,-121.518,-2.90851,4.12871,-0.125274,-8.52756,7.70075,0.0411781,0.0149605,-0.0208361,4,0,41.37205196890159,-91.73690646205952,9055.258951999162,-87.9622541459887,3.6754594556737743,-13.715057667653808,203.384,8907.031340764672,11074.134321271986,150,False,9.301585644869785,False,149.33514976354465,176.86827434320574,False,33.48967966600276,False,False
2,1970-07-23 10:13:46.191292177,2025-09-11,2025-09-26 14:56:59.129,HA,C,2166808788,JASSM,3,114,76,2,2,1,225,9,2,0,1,26,0,0,0,0,-159614.92566092435,-4786851.471650924,4202514.501432896,-2.3654,-0.396822,0.382728,73.75,-30.75,-32.0,0.0,0.0,0.0,0.0,0.0,0.0,2,0,41.45582655065104,-91.90978861737484,9999.997160530842,119.8837221277642,-0.0032449292803524,0.0057136493713835,,8907.031340764672,11074.134321271986,150,2,2025-09-11,2025-09-26 14:56:59.196,HA,C,3749114304,AMBUSH51,1,1,48,2,1,1,225,2,1,0,0,9,1,225,2,1,-145480.4124324351,-4793254.516896022,4195346.3347136,2.13288,-3.12749,-0.0600177,-120.679,-5.37178,2.84164,0.0464748,-8.27108,6.86269,0.206352,0.0115046,-0.0157865,4,0,41.37202348288668,-91.73845463983449,9082.729205974503,-89.09794775471453,4.181959668868081,-9.05752426963753,201.808,8907.031340764672,11074.134321271986,150,True,9.200142395723201,False,148.0601223274055,176.62927457580034,False,35.00650052858369,False,False
2,1970-07-23 10:13:46.201329730,2025-09-11,2025-09-26 14:57:00.132,HA,C,2168001834,JASSM,3,114,76,2,2,1,225,9,2,0,1,26,0,0,0,0,-159541.19079764312,-4786882.375947799,4202482.317839146,-2.3654,-0.396822,0.382728,73.75,-30.75,-32.0,0.0,0.0,0.0,0.0,0.0,0.0,2,0,41.45544008333588,-91.90889471957136,10000.000086475746,119.88431392384032,-0.0024715043613896,0.0057123674026913,,8907.031340764672,11074.134321271986,150,2,2025-09-11,2025-09-26 14:57:00.163,HA,C,3750267536,AMBUSH51,1,1,48,2,1,1,225,2,1,0,0,9,1,225,2,1,-145595.8028815728,-4793259.992406267,4195348.484029486,2.40426,-3.11261,-0.0608094,-119.851,-6.15239,2.94699,-0.824244,-7.89467,7.12685,0.212806,0.02326,-0.00512346,4,0,41.37198461083699,-91.73983069352796,9109.486801766949,-89.62751917163433,4.852581146570424,6.501037367970791,200.158,8907.031340764672,11074.134321271986,150,True,9.103381008971438,False,147.80716684134168,176.4039026229952,False,35.48697188749829,False,False
2,1970-07-23 10:13:46.211350368,2025-09-11,2025-09-26 14:57:01.135,HA,C,2169194880,JASSM,3,114,76,2,2,1,225,9,2,0,1,26,0,0,0,0,-159467.45642264312,-4786913.280244674,4202450.132292271,-2.3654,-0.396726,0.382728,73.75,-30.75,-32.0,0.0,0.0,0.0,0.0,0.0,0.0,2,0,41.45505359577832,-91.90800083821816,10000.002627040089,119.88126916673558,-0.005267698210753,0.0036598500802034,,8907.031340764672,11074.134321271986,150,2,2025-09-11,2025-09-26 14:57:01.130,HA,C,3751420768,AMBUSH51,1,1,48,2,1,1,225,2,1,0,0,9,1,225,2,1,-145712.16594677628,-4793265.15134367,4195351.759202508,2.52321,-3.13115,-0.0746636,-118.986,-5.15876,4.29646,-0.290379,-7.34363,6.38177,0.160714,-0.0166645,0.0333738,4,0,41.37195503295816,-91.7412184723254,9137.986287201287,-88.32867787643508,4.579992378197051,13.351357711321883,198.679,8907.031340764672,11074.134321271986,150,False,9.006035315840062,False,148.58398431310908,176.1731680481152,False,34.947399893103544,False,False
2,1970-07-23 10:13:46.220398134,2025-09-11,2025-09-26 14:57:02.039,HA,C,2170328274,JASSM,3,114,76,2,2,1,225,9,2,0,1,26,0,0,0,0,-159397.40759451812,-4786942.637666549,4202419.556120396,-2.3654,-0.396726,0.382728,73.75,-30.75,-32.0,0.0,0.0,0.0,0.0,0.0,0.0,2,0,41.4546864369181,-91.90715164741262,10000.004612251389,119.88183135656058,-0.0045329385362756,0.0036585868455793,,8907.031340764672,11074.134321271986,150,2,2025-09-11,2025-09-26 14:57:02.129,HA,C,3752613766,AMBUSH51,1,1,48,2,1,1,225,2,1,0,0,9,1,225,2,1,-145829.84343241277,-4793269.062427949,4195356.0237095095,2.66064,3.12845,-0.081609,-118.105,-2.80196,5.37809,-0.369081,-6.48518,5.72408,0.0810028,-0.00217526,0.00242077,4,0,41.37193930210899,-91.74262239671366,9165.665575187704,-87.13937596363259,3.8301532776787983,21.20776201375069,197.445,8907.031340764672,11074.134321271986,150,False,8.91010434638123,False,149.78494092379714,175.9381387587662,False,34.01153937278497,False,False
2,1970-07-23 10:13:46.230276868,2025-09-11,2025-09-26 14:57:03.027,HA,C,2171521320,JASSM,3,114,76,2,2,1,225,9,2,0,1,26,0,0,0,0,-159323.67321951812,-4786973.538057174,4202387.368620396,-2.3654,-0.396726,0.382728,73.75,-30.75,-32.0,0.0,0.0,0.0,0.0,0.0,0.0,2,0,41.45429994585271,-91.90625778830837,10000.000753712782,119.88242311371825,-0.0037595167651615,0.0036572501772963,,8907.031340764672,11074.134321271986,150,2,2025-09-11,2025-09-26 14:57:03.037,HA,C,3753687466,AMBUSH51,1,1,48,2,1,1,225,2,1,0,0,9,1,225,2,1,-145936.66252845846,-4793269.792373435,4195360.914960666,2.68195,3.10239,-0.10262,-117.199,0.123062,6.58964,-0.229409,-6.80708,5.95834,0.0152955,0.00165927,0.056046,4,0,41.37194866735405,-91.74389779920328,9186.068902179924,-85.25101016759719,3.506701586616992,22.412129583459556,196.431,8907.031340764672,11074.134321271986,150,False,8.815972086662335,False,151.2492621712731,175.72218846424337,False,32.796945438395326,False,False
2,1970-07-23 10:13:46.240310632,2025-09-11,2025-09-26 14:57:04.031,HA,C,2172714366,JASSM,3,114,76,2,2,1,225,9,2,0,1,26,0,0,0,0,-159249.93786795562,-4787004.438447799,4202355.181120396,-2.3654,-0.396726,0.382728,73.75,-30.75,-32.0,0.0,0.0,0.0,0.0,0.0,0.0,2,0,41.45391344800943,-91.90536392814008,10000.000632167235,119.88301486704292,-0.0029860874509147,0.0036559180063312,,8907.031340764672,11074.134321271986,150,2,2025-09-11,2025-09-26 14:57:03.999,HA,C,3754840698,AMBUSH51,1,1,48,2,1,1,225,2,1,0,0,9,1,225,2,1,-146048.5864877851,-4793267.541744703,4195367.866146447,2.69982,3.07325,-0.115002,-116.417,3.6665,8.24819,-0.31914,-6.93685,6.10003,0.0169933,0.00436197,0.0119478,4,0,41.37198872827765,-91.74523524790467,9203.992789752436,-83.6209882729807,2.728774678556217,23.3435553877646,196.052,8907.031340764672,11074.134321271986,150,False,8.718634583684794,False,153.09305994681532,175.49967276070694,False,31.212104818585253,False,False
2,1970-07-23 10:13:46.251311362,2025-09-11,2025-09-26 14:57:05.131,HA,C,2173847762,JASSM,3,114,76,2,2,1,225,9,2,0,1,26,0,0,0,0,-159179.89001639312,-4787033.793916549,4202324.601042271,-2.3654,-0.396726,0.382728,73.75,-30.75,-32.0,0.0,0.0,0.0,0.0,0.0,0.0,2,0,41.45354625470062,-91.9045147795274,10000.00010986881,119.8835770162209,-0.0022513282935863,0.0036546371080077,,8907.031340764672,11074.134321271986,150,2,2025-09-11,2025-09-26 14:57:04.963,HA,C,3755993930,AMBUSH51,1,1,48,2,1,1,225,2,1,0,0,9,1,225,2,1,-146160.78707685976,-4793262.232215613,4195376.555996806,2.69675,3.05541,-0.124222,-115.632,6.81164,9.94842,-0.183212,-6.71417,5.94272,-0.0279726,0.00515051,0.0247788,4,0,41.37205865391576,-91.74657711346792,9218.18642415556,-82.55354948127072,2.317524877043648,23.092579199076443,195.184,8907.031340764672,11074.134321271986,150,False,8.622571325853842,False,154.81680455127616,175.2806531521475,False,29.73661200614181,True,False
2,1970-07-23 10:13:46.263311234,2025-09-11,2025-09-26 14:57:06.331,HA,C,2175040808,JASSM,3,114,76,2,2,1,225,9,2,0,1,26,0,0,0,0,-159106.15564139312,-4787064.692354049,4202292.413542271,-2.3654,-0.396726,0.382728,73.75,-30.75,-32.0,0.0,0.0,0.0,0.0,0.0,0.0,2,0,41.45315975470047,-91.90362095250424,10000.002711033289,119.88416873875528,-0.0014779126679032,0.0036533101441112,,8907.031340764672,11074.134321271986,150,2,2025-09-11,2025-09-26 14:57:06.329,HA,C,3757624362,AMBUSH51,1,1,48,2,1,1,225,2,1,0,0,9,1,225,2,1,-146318.81545061804,-4793249.616622381,4195391.839135054,2.67362,3.01306,-0.159303,-114.289,10.8654,12.7258,-0.226504,-7.46722,6.66153,-0.0435396,0.0154723,0.0225505,4,0,41.3722082184312,-91.74846893212916,9232.146468094392,-79.45561753976442,1.853284580126268,21.537170311669783,194.5,8907.031340764672,11074.134321271986,150,False,8.501300292240236,False,157.27265206407276,174.9868931180558,False,27.603356402604533,True,False
2,1970-07-23 10:13:46.270511079,2025-09-11,2025-09-26 14:57:07.051,HA,C,2176174202,JASSM,3,114,76,2,2,1,225,9,2,0,1,26,0,0,0,0,-159036.10681326812,-4787094.045869674,4202261.831511021,-2.3654,-0.396726,0.382824,73.75,-30.75,-32.0,0.0,0.0,0.0,0.0,0.0,0.0,2,0,41.45279254712712,-91.90277181265073,10000.00013767099,119.88857897398924,-0.0046632409353235,0.0036518505366052,,8907.031340764672,11074.134321271986,150,2,2025-09-11,2025-09-26 14:57:07.063,HA,C,3758499228,AMBUSH51,1,1,48,2,1,1,225,2,1,0,0,9,1,225,2,1,-146402.32072838175,-4793240.764576827,4195401.797192331,2.6295,3.00066,-0.176125,-113.515,12.7892,14.5594,-0.21322,-7.51298,6.72208,-0.0606962,-0.0211836,0.0323917,4,0,41.37231294638219,-91.74946940578666,9238.23103532216,-78.269828956968,1.97175172928552,18.93024304423971,194.353,8907.031340764672,11074.134321271986,150,False,8.416924678022674,False,158.63645529892,174.82431574057117,False,26.407569960770594,True,False
2,1970-07-23 10:13:46.283310955,2025-09-11,2025-09-26 14:57:08.331,HA,C,2177367248,JASSM,3,114,76,2,2,1,225,9,2,0,1,26,0,0,0,0,-158962.37146170562,-4787124.942354049,4202229.642057896,-2.3654,-0.396726,0.382824,73.75,-30.75,-32.0,0.0,0.0,0.0,0.0,0.0,0.0,2,0,41.45240603218291,-91.9018779954205,10000.001059857588,119.88917068127978,-0.0038898173648101,0.0036505783571976,,8907.031340764672,11074.134321271986,150,2,2025-09-11,2025-09-26 14:57:08.340,HA,C,3760010358,AMBUSH51,1,1,48,2,1,1,225,2,1,0,0,9,1,225,2,1,-146544.26400978246,-4793222.419794671,4195421.432043036,2.5915,2.97254,-0.192143,-112.388,15.75,16.6441,0.0765183,-7.15183,6.35037,-0.0380759,0.00781575,0.0153704,4,0,41.37252884301599,-91.75117123318284,9246.33844573327,-76.52977583161447,1.4053869317893406,16.50944998235743,194.158,8907.031340764672,11074.134321271986,150,False,8.300698908291693,False,160.48574985441292,174.57016274620392,False,24.834453702637816,True,False
