Subject_cm,Timestamp,SampleDate_cm,SampleTime_cm,Configuration_cm,Scenario_cm,DisTime_cm,MarkingTxt_cm,Application_cm,EntId_cm,Site_cm,ExerciseId_cm,ForceId_cm,Category_cm,Country_cm,Domain_cm,Kind_cm,Extra_cm,Specific_cm,Subcategory_cm,AltCategory_cm,AltCountry_cm,AltDomain_cm,AltKind_cm,ECEF_X_cm,ECEF_Y_cm,ECEF_Z_cm,OriPhi_cm,OriPsi_cm,OriTheta_cm,LinVelX_cm,LinVelY_cm,LinVelZ_cm,LinAccX_cm,LinAccY_cm,LinAccZ_cm,AngVelX_cm,AngVelY_cm,AngVelZ_cm,DrAlg_cm,Appearance_cm,Latitude_cm,Longitude_cm,Altitude_cm,Heading_cm,Pitch_cm,Roll_cm,CalibratedAirspeed_cm,CM_Altitude_Lead_cm,CM_Altitude_Wing_cm,CM_Airspeed_cm,Subject_ac,SampleDate_ac,SampleTime_ac,Configuration_ac,Scenario_ac,DisTime_ac,MarkingTxt_ac,Application_ac,EntId_ac,Site_ac,ExerciseId_ac,ForceId_ac,Category_ac,Country_ac,Domain_ac,Kind_ac,Extra_ac,Specific_ac,Subcategory_ac,AltCategory_ac,AltCountry_ac,AltDomain_ac,AltKind_ac,ECEF_X_ac,ECEF_Y_ac,ECEF_Z_ac,OriPhi_ac,OriPsi_ac,OriTheta_ac,LinVelX_ac,LinVelY_ac,LinVelZ_ac,LinAccX_ac,LinAccY_ac,LinAccZ_ac,AngVelX_ac,AngVelY_ac,AngVelZ_ac,DrAlg_ac,Appearance_ac,Latitude_ac,Longitude_ac,Altitude_ac,Heading_ac,Pitch_ac,Roll_ac,CalibratedAirspeed_ac,CM_Altitude_Lead_ac,CM_Altitude_Wing_ac,CM_Airspeed_ac,Bank_Angle_Condition,distance_nm,Distance_Condition,angle_between_vel,angle_between_pos,Cone_Condition,angle_between_pos_nose,Nose_Cone_Condition,Intercept_Criteria
2,1970-07-23 11:43:00.609366680,2025-09-17,2025-09-26 19:41:00.936,HA,C,2118009082,JASSM,3,114,76,2,2,1,225,9,2,0,1,26,0,0,0,0,-172952.85778983062,-4770539.325166549,4221748.433073521,-2.51458,-0.703426,0.607456,57.125,-48.375,-52.0,0.0,0.0,0.0,0.0,0.0,0.0,2,0,41.679888980728336,-92.07631254104962,12992.12845005555,139.8321174890496,-0.0045679165204751,0.0009595374739272,,11984.602822301664,13940.560558617632,150,2,2025-09-17,2025-09-26 19:41:01.038,HA,C,1929251086,HAWK11,1,1,73,2,1,1,225,2,1,0,0,12,1,225,2,1,-144107.49060233062,-4791770.725557174,4199316.399870396,2.3978,3.02559,-0.115816,-113.25,12.0,10.625,-0.03125,-7.65625,6.40625,-0.0410156,0.00195312,0.0195312,4,0,41.40789796410633,-91.72259141302004,13942.152316244616,-81.77421475182672,0.7152516241482546,5.741931203599606,179.371,11984.602822301664,13940.560558617632,150,True,22.750402266471443,False,136.82317851987108,175.75132311345425,False,38.9379735815799,False,False
2,1970-07-23 11:43:00.619404742,2025-09-17,2025-09-26 19:41:01.940,HA,C,2119261794,JASSM,3,114,76,2,2,1,225,9,2,0,1,26,0,0,0,0,-172892.85925467435,-4770590.219697799,4221693.745573521,-2.51458,-0.703426,0.607456,57.125,-48.375,-52.0,0.0,0.0,0.0,0.0,0.0,0.0,2,0,41.67923014630789,-92.0755707601919,12992.123396188215,139.83261074669258,-0.0037071052376261,0.0009579306554871,,11984.602822301664,13940.560558617632,150,2,2025-09-17,2025-09-26 19:41:01.944,HA,C,1930404318,HAWK11,1,1,73,2,1,1,225,2,1,0,0,12,1,225,2,1,-144216.59216483062,-4791758.658174361,4199327.226042271,2.41391,3.01485,-0.130388,-112.625,12.875,11.375,-0.046875,-7.65625,6.53125,0.0625,0.00390625,0.00585938,4,0,41.40802328592908,-91.72389911260272,13944.037649529304,-80.74535313918959,0.8153066847830224,6.603015857743128,179.078,11984.602822301664,13940.560558617632,150,True,22.652799230513295,False,137.43618690305524,175.83489081725705,False,38.408223705743524,False,False
2,1970-07-23 11:43:00.630424793,2025-09-17,2025-09-26 19:41:03.042,HA,C,2120572628,JASSM,3,114,76,2,2,1,225,9,2,0,1,26,0,0,0,0,-172830.07751639312,-4770643.477510299,4221636.522917271,-2.51458,-0.703426,0.607456,57.125,-48.375,-52.0,0.0,0.0,0.0,0.0,0.0,0.0,2,0,41.67854074174335,-92.07479458487424,12992.132688963662,139.8331268685704,-0.0028063598508896,0.0009562479132011,,11984.602822301664,13940.560558617632,150,2,2025-09-17,2025-09-26 19:41:03.240,HA,C,1931875682,HAWK11,1,1,73,2,1,1,225,2,1,0,0,12,1,225,2,1,-144353.93982108062,-4791742.291963424,4199342.272917271,2.43395,3.00852,-0.138058,-111.75,14.0,12.75,-0.203125,-7.57812,6.25,-0.00390625,-0.00390625,0.00976562,4,0,41.4081975880111,-91.72554580154566,13946.607642258605,-80.17927283035051,0.8408713728276402,7.710801736984408,177.342,11984.602822301664,13940.560558617632,150,True,22.540193626313705,False,138.3894381085606,175.94138396208837,False,37.56213814857773,False,False
2,1970-07-23 11:43:00.641307492,2025-09-17,2025-09-26 19:41:04.130,HA,C,2121885348,JASSM,3,114,76,2,2,1,225,9,2,0,1,26,0,0,0,0,-172767.20495779935,-4770696.809541549,4221579.210417271,-2.51448,-0.703426,0.607456,57.125,-48.375,-52.0,0.0,0.0,0.0,0.0,0.0,0.0,2,0,41.67785030395253,-92.0740173045688,12992.124848379264,139.83364371819945,-0.0019042885453061,0.0064460143640601,,11984.602822301664,13940.560558617632,150,2,2025-09-17,2025-09-26 19:41:04.240,HA,C,1933148214,HAWK11,1,1,73,2,1,1,225,2,1,0,0,12,1,225,2,1,-144473.19177420562,-4791726.709932174,4199356.569792271,2.41621,2.988,-0.155411,-110.875,15.125,13.625,-0.15625,-7.34375,6.125,0.00976562,-0.0117188,0.0195312,4,0,41.40836538593908,-91.72697603845076,13948.14678684086,-78.66372922871952,0.638244327477429,6.54228694381499,176.585,11984.602822301664,13940.560558617632,150,True,22.43459049212634,False,139.16647674427438,176.03172477098002,False,36.87473496073477,False,False
2,1970-07-23 11:43:00.652345127,2025-09-17,2025-09-26 19:41:05.234,HA,C,2123199050,JASSM,3,114,76,2,2,1,225,9,2,0,1,26,0,0,0,0,-172704.28552420562,-4770750.180635299,4221521.858854771,-2.51448,-0.70333,0.607456,57.125,-48.375,-52.0,0.0,0.0,0.0,0.0,0.0,0.0,2,0,41.67715937488389,-92.07323946169456,12992.128481347134,139.8305096028865,-0.0036472067449417,0.0033100474565454,,11984.602822301664,13940.560558617632,150,2,2025-09-17,2025-09-26 19:41:05.240,HA,C,1934261680,HAWK11,1,1,73,2,1,1,225,2,1,0,0,12,1,225,2,1,-144575.52771170562,-4791712.351533736,4199369.440886021,2.36233,2.98033,-0.156754,-110.375,15.875,14.125,0.0,-7.125,6.10938,-0.0449219,0.0,0.0,4,0,41.40851930129085,-91.72820375608924,13948.353665017328,-78.31723583209967,0.3675963074359408,3.3898914619670024,176.108,11984.602822301664,13940.560558617632,150,True,22.335886526815337,False,139.64981567632157,176.10757002731785,False,36.46660633991028,False,False
2,1970-07-23 11:43:00.664344771,2025-09-17,2025-09-26 19:41:06.434,HA,C,2124568820,JASSM,3,114,76,2,2,1,225,9,2,0,1,26,0,0,0,0,-172638.68054373687,-4770805.829072799,4221462.058073521,-2.51448,-0.70333,0.607456,57.125,-48.375,-52.0,0.0,0.0,0.0,0.0,0.0,0.0,2,0,41.676438944723614,-92.07242843669324,12992.133306679878,139.8310488761898,-0.0027059510649344,0.0033082234919713,,11984.602822301664,13940.560558617632,150,2,2025-09-17,2025-09-26 19:41:06.538,HA,C,1935852346,HAWK11,1,1,73,2,1,1,225,2,1,0,0,12,1,225,2,1,-144722.77380545562,-4791690.455049361,4199388.737761021,2.32187,2.97985,-0.162314,-109.625,16.5,14.5,0.03125,-7.375,6.375,0.0136719,-0.00195312,0.0136719,4,0,41.40875334314945,-91.72997071439116,13947.305659032669,-78.06335376536968,0.5618078234835903,1.0695266173784832,175.436,11984.602822301664,13940.560558617632,150,True,22.214742988332375,False,140.07208958332444,176.22028164813844,False,36.156511020564686,False,False
2,1970-07-23 11:43:00.675385645,2025-09-17,2025-09-26 19:41:07.538,HA,C,2125881608,JASSM,3,114,76,2,2,1,225,9,2,0,1,26,0,0,0,0,-172575.80505545562,-4770859.157197799,4221404.741667271,-2.51448,-0.70333,0.607456,57.125,-48.375,-52.0,0.0,0.0,0.0,0.0,0.0,0.0,2,0,41.6757484884148,-92.07165117352172,12992.1229076869,139.8315656931281,-0.0018038616966501,0.0033064778974566,,11984.602822301664,13940.560558617632,150,2,2025-09-17,2025-09-26 19:41:07.444,HA,C,1936886278,HAWK11,1,1,73,2,1,1,225,2,1,0,0,12,1,225,2,1,-144817.71911795562,-4791675.987275924,4199401.413542271,2.38323,2.96614,-0.156945,-109.375,17.0,14.625,-0.34375,-6.57812,5.60938,0.126953,-0.0195312,0.00390625,4,0,41.40890788790146,-91.73111019422151,13946.28389263767,-77.77341752001632,-0.21936590319469,4.461180417164509,174.825,11984.602822301664,13940.560558617632,150,True,22.11887351543032,False,140.31088498415357,176.29023940290298,False,35.986839583579886,False,False
2,1970-07-23 11:43:00.686405017,2025-09-17,2025-09-26 19:41:08.640,HA,C,2127193932,JASSM,3,114,76,2,2,1,225,9,2,0,1,26,0,0,0,0,-172512.95153983062,-4770912.469697799,4221347.444792271,-2.51448,-0.70333,0.607456,57.125,-48.375,-52.0,0.0,0.0,0.0,0.0,0.0,0.0,2,0,41.67505824670234,-92.07087419727362,12992.123982710626,139.83208231226607,-0.0009020705178178,0.0033047198527253,,11984.602822301664,13940.560558617632,150,2,2025-09-17,2025-09-26 19:41:08.740,HA,C,1938476942,HAWK11,1,1,73,2,1,1,225,2,1,0,0,12,1,225,2,1,-144963.03357108062,-4791651.533174361,4199420.520964146,2.61275,2.95473,-0.165478,-108.75,19.75,15.125,-0.046875,-6.71875,6.42188,0.150391,0.0117188,0.0332031,4,0,41.40915616909441,-91.7328550218712,13938.409547229963,-76.97914713287102,-0.3684106881129743,17.502858874425627,174.654,11984.602822301664,13940.560558617632,150,False,22.000289839507495,False,141.469809816876,176.40220352737384,False,34.935151952054206,False,False
2,1970-07-23 11:43:00.696284860,2025-09-17,2025-09-26 19:41:09.628,HA,C,2128448034,JASSM,3,114,76,2,2,1,225,9,2,0,1,26,0,0,0,0,-172452.88611014312,-4770963.415010299,4221292.690886021,-2.51448,-0.70333,0.607552,57.125,-48.375,-52.0,0.0,0.0,0.0,0.0,0.0,0.0,2,0,41.67439864116857,-92.07013170302764,12992.127137957052,139.83580018149814,-0.0044898412570134,0.0033029266239542,,11984.602822301664,13940.560558617632,150,2,2025-09-17,2025-09-26 19:41:09.646,HA,C,1939431342,HAWK11,1,1,73,2,1,1,225,2,1,0,0,12,1,225,2,1,-145049.98669608062,-4791635.006807174,4199432.929167271,2.71332,2.92358,-0.195487,-108.5,22.0,16.875,-0.140625,-7.25,7.26562,0.115234,0.0292969,0.0566406,4,0,41.40932256513923,-91.73389978194837,13931.161124354358,-74.52596844375643,-0.5067828102366849,22.92594844398196,175.522,11984.602822301664,13940.560558617632,150,False,21.909317557938294,False,142.88934856763777,176.46484114432351,False,33.57720103591354,False,False
2,1970-07-23 11:43:00.708304819,2025-09-17,2025-09-26 19:41:10.830,HA,C,2129819720,JASSM,3,114,76,2,2,1,225,9,2,0,1,26,0,0,0,0,-172387.18933279935,-4771019.137666549,4221232.800261021,-2.51448,-0.70333,0.607552,57.125,-48.375,-52.0,0.0,0.0,0.0,0.0,0.0,0.0,2,0,41.6736771609928,-92.06931961421498,12992.13125730571,139.83634013295122,-0.0035472537261449,0.0033011394407687,,11984.602822301664,13940.560558617632,150,2,2025-09-17,2025-09-26 19:41:10.740,HA,C,1940862940,HAWK11,1,1,73,2,1,1,225,2,1,0,0,12,1,225,2,1,-145179.35388358062,-4791606.543916549,4199455.366667271,2.84678,2.87823,-0.239301,-107.625,26.25,21.0,-0.03125,-7.82812,8.0,0.046875,0.0351562,0.0371094,4,0,41.40961999971872,-91.73545556982036,13919.483352878557,-70.96116215302095,-0.6598156359235293,29.975543287945275,176.707,11984.602822301664,13940.560558617632,150,False,21.79209565033967,False,145.90065743221734,176.5570045340025,False,30.657192802860266,False,False
2,1970-07-23 11:43:00.719345035,2025-09-17,2025-09-26 19:41:11.934,HA,C,2131131782,JASSM,3,114,76,2,2,1,225,9,2,0,1,26,0,0,0,0,-172324.34802420562,-4771072.434541549,4221175.511198521,-2.51448,-0.70333,0.607552,57.125,-48.375,-52.0,0.0,0.0,0.0,0.0,0.0,0.0,2,0,41.67298704656032,-92.06854284095913,12992.12774222287,139.83685659619368,-0.002645645420416,0.0032994370317987,,11984.602822301664,13940.560558617632,150,2,2025-09-17,2025-09-26 19:41:11.834,HA,C,1942175238,HAWK11,1,1,73,2,1,1,225,2,1,0,0,12,1,225,2,1,-145298.31872733062,-4791575.207002486,4199481.270964146,2.8997,2.83288,-0.282444,-106.375,30.5,25.875,0.03125,-8.23438,8.4375,0.0449219,0.0371094,0.0625,4,0,41.40995978305255,-91.73688814197853,13907.493619704355,-67.44095944033666,-0.7791493910004781,32.29318034431828,177.905,11984.602822301664,13940.560558617632,150,False,21.679314375775526,False,149.20302932799487,176.63532408412306,False,27.43294050777235,True,False
2,1970-07-23 11:43:00.730365263,2025-09-17,2025-09-26 19:41:13.036,HA,C,2132442926,JASSM,3,114,76,2,2,1,225,9,2,0,1,26,0,0,0,0,-172261.55114920562,-4771125.692354049,4221118.261198521,-2.51448,-0.70333,0.607552,57.125,-48.375,-52.0,0.0,0.0,0.0,0.0,0.0,0.0,2,0,41.6722974132865,-92.06776663411358,12992.122879096394,139.8373726758319,-0.0017446736699566,0.0032977345023015,,11984.602822301664,13940.560558617632,150,2,2025-09-17,2025-09-26 19:41:13.148,HA,C,1943606838,HAWK11,1,1,73,2,1,1,225,2,1,0,0,12,1,225,2,1,-145425.11169608062,-4791535.651338424,4199516.161589146,2.96998,2.7789,-0.339585,-104.0,35.375,32.25,-0.296875,-8.9375,9.10938,0.0351562,0.0410156,0.0449219,4,0,41.410407672206645,-91.7384172308365,13895.383807586808,-63.04268955552602,-0.5956711456241351,35.319916958115165,180.165,11984.602822301664,13940.560558617632,150,False,21.55892111433091,False,153.38502451258822,176.71109553320056,False,23.327088501613183,True,False
2,1970-07-23 11:43:00.741728152,2025-09-17,2025-09-26 19:41:14.172,HA,C,2133695626,JASSM,3,114,76,2,2,1,225,9,2,0,1,26,0,0,0,0,-172201.55261404935,-4771176.575166549,4221063.565886021,-2.51448,-0.703234,0.607552,57.125,-48.375,-52.0,0.0,0.0,0.0,0.0,0.0,0.0,2,0,41.67163854040607,-92.0670250326487,12992.126501947436,139.83421252709482,-0.0035311867218717,0.0001594616486921,,11984.602822301664,13940.560558617632,150,2,2025-09-17,2025-09-26 19:41:14.038,HA,C,1944799836,HAWK11,1,1,73,2,1,1,225,2,1,0,0,12,1,225,2,1,-145528.36755545562,-4791497.519502486,4199551.804167271,3.01293,2.73423,-0.383879,-101.375,39.875,38.25,-0.140625,-9.23438,9.45312,0.0292969,0.0410156,0.0644531,4,0,41.41085639874685,-91.73966463308014,13886.658999258176,-59.55672928218,-0.4741540030925641,36.84210000075947,180.825,11984.602822301664,13940.560558617632,150,False,21.449563068021313,False,157.31353601429973,176.76325109862358,False,19.45140823048946,True,False
2,1970-07-23 11:43:00.752524722,2025-09-17,2025-09-26 19:41:15.252,HA,C,2134948744,JASSM,3,114,76,2,2,1,225,9,2,0,1,26,0,0,0,0,-172141.53454764312,-4771227.477510299,4221008.847136021,-2.51448,-0.703234,0.607552,57.125,-48.375,-52.0,0.0,0.0,0.0,0.0,0.0,0.0,2,0,41.67097939258208,-92.06628320361936,12992.12983235768,139.834705736957,-0.0026700668640541,0.0001577659334436,,11984.602822301664,13940.560558617632,150,2,2025-09-17,2025-09-26 19:41:15.334,HA,C,1946350734,HAWK11,1,1,73,2,1,1,225,2,1,0,0,12,1,225,2,1,-145658.51794608062,-4791441.075166549,4199607.813932896,3.08742,2.6605,-0.448785,-96.875,45.875,46.875,-0.265625,-10.0156,10.2656,0.015625,0.0625,0.0449219,4,0,41.4115466356261,-91.74124000945362,13879.113267957586,-54.196277419546426,-0.4211068395570568,39.35856358618453,182.402,11984.602822301664,13940.560558617632,150,False,21.319578242241185,False,162.8828395715723,176.818246714119,False,13.94093879308189,True,False
2,1970-07-23 11:43:00.761329974,2025-09-17,2025-09-26 19:41:16.132,HA,C,2136201864,JASSM,3,114,76,2,2,1,225,9,2,0,1,26,0,0,0,0,-172081.51648123687,-4771278.375947799,4220954.128386021,-2.51448,-0.703234,0.607552,57.125,-48.375,-52.0,0.0,0.0,0.0,0.0,0.0,0.0,2,0,41.67032026324786,-92.06554139141495,12992.128322123968,139.83519892923235,-0.001808965567876,0.0001560842881418,,11984.602822301664,13940.560558617632,150,2,2025-09-17,2025-09-26 19:41:16.240,HA,C,1947384666,HAWK11,1,1,73,2,1,1,225,2,1,0,0,12,1,225,2,1,-145740.11950858062,-4791400.218721236,4199651.017057896,3.12117,2.6094,-0.504488,-92.625,49.5,53.0,-0.1875,-10.2969,10.5938,0.0136719,0.0605469,0.0605469,4,0,41.412066480693696,-91.74222974162656,13878.49114006094,-50.13077071863238,0.2254600087456294,39.94122957006338,182.854,11984.602822301664,13940.560558617632,150,False,21.215004593564778,False,166.86956980128005,176.840626102373,False,9.990622059065265,True,False
2,1970-07-23 11:43:00.772367196,2025-09-17,2025-09-26 19:41:17.236,HA,C,2137455866,JASSM,3,114,76,2,2,1,225,9,2,0,1,26,0,0,0,0,-172021.45544608062,-4771329.305635299,4220899.370573521,-2.51448,-0.703234,0.607552,57.125,-48.375,-52.0,0.0,0.0,0.0,0.0,0.0,0.0,2,0,41.66966068893503,-92.06479906551886,12992.119076449368,139.83569245662767,-0.0009472730519484,0.0001544206278354,,11984.602822301664,13940.560558617632,150,2,2025-09-17,2025-09-26 19:41:17.146,HA,C,1948458366,HAWK11,1,1,73,2,1,1,225,2,1,0,0,12,1,225,2,1,-145822.64294608062,-4791353.166963424,4199702.489714146,-3.11379,2.54679,-0.550699,-87.625,53.25,59.125,-0.03125,-9.875,10.1562,0.0253906,0.0644531,0.0703125,4,0,41.4126788119909,-91.74323275599384,13880.653187740634,-46.05572212695619,0.2463043663294298,40.91428025673538,182.891,11984.602822301664,13940.560558617632,150,False,21.105937199061064,False,171.02722755776398,176.85406454982086,False,5.898888014125639,True,False
2,1970-07-23 11:43:00.783384752,2025-09-17,2025-09-26 19:41:18.338,HA,C,2138827594,JASSM,3,114,76,2,2,1,225,9,2,0,1,26,0,0,0,0,-171955.75622733062,-4771385.020479049,4220839.472136021,-2.51448,-0.703234,0.607648,57.125,-48.375,-52.0,0.0,0.0,0.0,0.0,0.0,0.0,2,0,41.66893916521294,-92.06398706990036,12992.123993071897,139.83945472058744,-0.004451267564723,0.00015245919989,,11984.602822301664,13940.560558617632,150,2,2025-09-17,2025-09-26 19:41:18.334,HA,C,1949889964,HAWK11,1,1,73,2,1,1,225,2,1,0,0,12,1,225,2,1,-145923.86755545562,-4791284.376924361,4199778.569792271,-3.04754,2.46098,-0.608895,-80.25,58.75,66.625,-0.265625,-10.0625,10.3281,-0.00195312,0.0664062,0.0546875,4,0,41.41358312735391,-91.74446712542564,13884.16386095988,-40.76392503879678,0.3422265941638397,42.04155673731688,183.758,11984.602822301664,13940.560558617632,150,False,20.97215167199726,False,176.51610977068364,176.85501053815972,False,1.4719282137774397,True,False
2,1970-07-23 11:43:00.794406800,2025-09-17,2025-09-26 19:41:19.440,HA,C,2140080602,JASSM,3,114,76,2,2,1,225,9,2,0,1,26,0,0,0,0,-171895.7432878775,-4771435.911104049,4220784.757292271,-2.51448,-0.703234,0.607648,57.125,-48.375,-52.0,0.0,0.0,0.0,0.0,0.0,0.0,2,0,41.6682800926821,-92.06324536939964,12992.12694970339,139.83994781891664,-0.0035902520326385,0.000150835211171,,11984.602822301664,13940.560558617632,150,2,2025-09-17,2025-09-26 19:41:19.538,HA,C,1951082962,HAWK11,1,1,73,2,1,1,225,2,1,0,0,12,1,225,2,1,-146000.26599295562,-4791222.727510299,4199848.083464146,-3.00938,2.38256,-0.651654,-73.375,62.625,72.375,-0.171875,-9.79688,10.0,-0.00390625,0.0644531,0.0527344,4,0,41.41440513753252,-91.74540232056604,13889.134599575438,-36.38707963470503,0.2409276175160377,41.60039433252135,183.514,11984.602822301664,13940.560558617632,150,False,20.856009167901956,False,177.89931877407045,176.8389570459913,False,4.876279853609073,True,False
2,1970-07-23 11:43:00.805423451,2025-09-17,2025-09-26 19:41:20.542,HA,C,2141390982,JASSM,3,114,76,2,2,1,225,9,2,0,1,26,0,0,0,0,-171832.98230154935,-4771489.133760299,4220727.534636021,-2.51439,-0.703234,0.607648,57.125,-48.375,-52.0,0.0,0.0,0.0,0.0,0.0,0.0,2,0,41.667590809307406,-92.06246972120988,12992.13409870131,139.84046347955135,-0.0026897894009514,0.0056405924993055,,11984.602822301664,13940.560558617632,150,2,2025-09-17,2025-09-26 19:41:20.444,HA,C,1952275962,HAWK11,1,1,73,2,1,1,225,2,1,0,0,12,1,225,2,1,-146069.50427420562,-4791156.948213424,4199922.685026646,-2.94352,2.29436,-0.694797,-65.875,66.375,77.25,-0.296875,-9.79688,9.96875,0.00585938,0.0546875,0.0546875,4,0,41.41528734180721,-91.7462534969184,13894.461728704511,-31.72831226832248,0.2058021044604192,42.23937743888196,183.831,11984.602822301664,13940.560558617632,150,False,20.737445266340604,False,173.8069004901823,176.8079389940402,False,9.340839273776048,True,False
2,1970-07-23 11:43:00.816322670,2025-09-17,2025-09-26 19:41:21.632,HA,C,2142703126,JASSM,3,114,76,2,2,1,225,9,2,0,1,26,0,0,0,0,-171770.136842565,-4771542.422822799,4220670.233854771,-2.51439,-0.703234,0.607648,57.125,-48.375,-52.0,0.0,0.0,0.0,0.0,0.0,0.0,2,0,41.66690061668669,-92.06169304788024,12992.13121645646,139.84097981469995,-0.0017881339805035,0.0056388894271188,,11984.602822301664,13940.560558617632,150,2,2025-09-17,2025-09-26 19:41:21.646,HA,C,1953787094,HAWK11,1,1,73,2,1,1,225,2,1,0,0,12,1,225,2,1,-146146.13318045562,-4791068.240205611,4200023.216276646,-2.86653,2.17883,-0.735927,-56.0,71.0,82.375,-0.328125,-9.34375,9.5,-0.00390625,0.0488281,0.0566406,4,0,41.41647958366513,-91.74720135323524,13900.240531107218,-26.21691898593289,-0.1297838613921743,42.30890251855967,183.709,11984.602822301664,13940.560558617632,150,False,20.602281699458654,False,168.2935766392655,176.75007759445876,False,14.951848679700076,True,False
2,1970-07-23 11:43:00.826365412,2025-09-17,2025-09-26 19:41:22.636,HA,C,2143956092,JASSM,3,114,76,2,2,1,225,9,2,0,1,26,0,0,0,0,-171710.12634451812,-4771593.305635299,4220615.515104771,-2.51439,-0.703234,0.607648,57.125,-48.25,-52.0,0.0,0.0,0.0,0.0,0.0,0.0,2,0,41.66624154904053,-92.06095142682324,12992.121348280696,139.84147284042692,-0.0009271490976007,0.0056372595582594,,11984.602822301664,13940.560558617632,150,2,2025-09-17,2025-09-26 19:41:22.538,HA,C,1954661958,HAWK11,1,1,73,2,1,1,225,2,1,0,0,12,1,225,2,1,-146184.97693045562,-4791013.791963424,4200084.448698521,-2.81342,2.10616,-0.753376,-50.25,73.375,85.0,-0.15625,-9.1875,9.21875,0.0,0.0449219,0.0625,4,0,41.41720966397728,-91.74768529808846,13902.152770845832,-23.021136942870424,-0.5244855360673968,42.51122760811668,183.831,11984.602822301664,13940.560558617632,150,False,20.504016977393356,False,165.1618122925327,176.72914407279836,False,18.10903110502162,True,False
2,1970-07-23 11:43:00.836403304,2025-09-17,2025-09-26 19:41:23.640,HA,C,2145149156,JASSM,3,114,76,2,2,1,225,9,2,0,1,26,0,0,0,0,-171652.98327811187,-4771641.758760299,4220563.413542271,-2.51439,-0.703138,0.607648,57.125,-48.25,-52.0,0.0,0.0,0.0,0.0,0.0,0.0,2,0,41.665613976494704,-92.06024525539463,12992.125956879272,139.83829173916752,-0.002752998321871,0.0025005131190109,,11984.602822301664,13940.560558617632,150,2,2025-09-17,2025-09-26 19:41:23.746,HA,C,1956212858,HAWK11,1,1,73,2,1,1,225,2,1,0,0,12,1,225,2,1,-146242.55310233062,-4790913.429658736,4200196.466276646,-2.70843,1.96906,-0.785782,-39.25,77.375,88.5,-0.109375,-9.26562,9.46875,0.0,0.0585938,0.0527344,4,0,41.418552199710206,-91.74840981438513,13902.791610021906,-17.09166336748814,-0.8079996465380923,42.98622434525496,184.491,11984.602822301664,13940.560558617632,150,False,20.37408494566421,False,159.56617607326194,176.63315453716427,False,23.79796899453369,True,False
2,1970-07-23 11:43:00.846444102,2025-09-17,2025-09-26 19:41:24.644,HA,C,2146342442,JASSM,3,114,76,2,2,1,225,9,2,0,1,26,0,0,0,0,-171595.83044608062,-4771690.219697799,4220511.300261021,-2.51439,-0.703138,0.607648,57.125,-48.25,-52.0,0.0,0.0,0.0,0.0,0.0,0.0,2,0,41.66498627616776,-92.05953897720342,12992.1275660874,139.83876125747096,-0.0019330064818093,0.0024989035700218,,11984.602822301664,13940.560558617632,150,2,2025-09-17,2025-09-26 19:41:24.646,HA,C,1957405856,HAWK11,1,1,73,2,1,1,225,2,1,0,0,12,1,225,2,1,-146276.41638358062,-4790833.014619674,4200285.153776646,-2.6209,1.8541,-0.803231,-30.25,79.875,90.75,-0.09375,-9.39062,9.48438,0.0078125,0.0683594,0.0703125,4,0,41.41962293373542,-91.74884375303796,13900.077451942016,-12.380279717230229,-1.100696675500004,43.220839312062445,184.895,11984.602822301664,13940.560558617632,150,False,20.264999404179626,False,155.16819161446327,176.54087358986428,False,28.285285794591637,True,False
2,1970-07-23 11:43:00.857321857,2025-09-17,2025-09-26 19:41:25.732,HA,C,2147595822,JASSM,3,114,76,2,2,1,225,9,2,0,1,26,0,0,0,0,-171535.79919608062,-4771741.118135299,4220456.561979771,-2.51439,-0.703138,0.607744,57.125,-48.25,-52.0,0.0,0.0,0.0,0.0,0.0,0.0,2,0,41.664326974172624,-92.05879714449138,12992.125268449146,139.84247907849715,-0.0055209173758996,0.0024970371302359,,11984.602822301664,13940.560558617632,150,2,2025-09-17,2025-09-26 19:41:25.834,HA,C,1958638622,HAWK11,1,1,73,2,1,1,225,2,1,0,0,12,1,225,2,1,-146302.58044608062,-4790749.062471236,4200378.794401646,-2.52043,1.7263,-0.818187,-21.0,81.375,93.0,-0.265625,-9.76562,9.9375,0.0117188,0.0605469,0.0625,4,0,41.42074953195432,-91.74918700246398,13898.84609075629,-7.265053415099923,-1.1936794822808887,43.56458914898369,185.86,11984.602822301664,13940.560558617632,150,False,20.153867025190422,False,150.76195097253895,176.4321688072136,False,32.80002879693064,False,False
2,1970-07-23 11:43:00.867365563,2025-09-17,2025-09-26 19:41:26.736,HA,C,2148789048,JASSM,3,114,76,2,2,1,225,9,2,0,1,26,0,0,0,0,-171478.64904959625,-4771789.575166549,4220404.448698521,-2.51439,-0.703138,0.607744,57.125,-48.25,-52.0,0.0,0.0,0.0,0.0,0.0,0.0,2,0,41.66369928758044,-92.05809092831709,12992.126333056603,139.8429485437965,-0.0047009589940896,0.0024954690168692,,11984.602822301664,13940.560558617632,150,2,2025-09-17,2025-09-26 19:41:26.740,HA,C,1959752086,HAWK11,1,1,73,2,1,1,225,2,1,0,0,12,1,225,2,1,-146317.62146170562,-4790671.712861861,4200465.833464146,-2.43481,1.608,-0.825569,-11.75,82.375,94.5,-0.03125,-9.9375,10.1094,-0.00390625,0.0625,0.0625,4,0,41.4217943214948,-91.7493949479436,13898.6942672542,-2.631182000554588,-1.2097464241359863,43.405286338106215,186.386,11984.602822301664,13940.560558617632,150,False,20.053015394046913,False,146.47155511707396,176.31976028214555,False,37.202391360106745,False,False
2,1970-07-23 11:43:00.878382073,2025-09-17,2025-09-26 19:41:27.838,HA,C,2150100014,JASSM,3,114,76,2,2,1,225,9,2,0,1,26,0,0,0,0,-171415.859498815,-4771842.809541549,4220347.194792271,-2.51439,-0.703138,0.607744,57.125,-48.25,-52.0,0.0,0.0,0.0,0.0,0.0,0.0,2,0,41.66300969489817,-92.05731504250345,12992.12586380201,139.8434643160968,-0.0038001188096807,0.0024937690903229,,11984.602822301664,13940.560558617632,150,2,2025-09-17,2025-09-26 19:41:27.944,HA,C,1961422286,HAWK11,1,1,73,2,1,1,225,2,1,0,0,12,1,225,2,1,-146323.66443045562,-4790554.441377486,4200598.589323521,-2.29167,1.42114,-0.826816,2.375,82.625,96.25,-0.046875,-10.3281,10.6875,-0.00390625,0.0605469,0.0625,4,0,41.42338675292269,-91.7495099535372,13898.942141332,4.617026593153896,-0.9973311844219434,43.5835269553548,187.314,11984.602822301664,13940.560558617632,150,False,19.92656809312505,False,140.03132090331857,176.13153529870536,False,43.83196286127569,False,False
2,1970-07-23 11:43:00.888425493,2025-09-17,2025-09-26 19:41:28.842,HA,C,2151294560,JASSM,3,114,76,2,2,1,225,9,2,0,1,26,0,0,0,0,-171358.64611990875,-4771891.317354049,4220295.022917271,-2.51439,-0.703138,0.607744,57.125,-48.25,-52.0,0.0,0.0,0.0,0.0,0.0,0.0,2,0,41.66238131520792,-92.0566080749998,12992.126958622452,139.84393426865765,-0.0029792617462587,0.0024922053621354,,11984.602822301664,13940.560558617632,150,2,2025-09-17,2025-09-26 19:41:28.834,HA,C,1962177850,HAWK11,1,1,73,2,1,1,225,2,1,0,0,12,1,225,2,1,-146319.13903983062,-4790500.268525924,4200660.132292271,-2.2306,1.3407,-0.821734,9.25,82.375,96.625,-0.140625,-10.3438,10.5938,0.0214844,0.0664062,0.0605469,4,0,41.42412516212713,-91.74947565084248,13898.984046345364,7.759186809114604,-0.9132132346504576,43.64638664887495,187.583,11984.602822301664,13940.560558617632,150,False,19.846645619673904,False,136.93148623555774,176.0303661313551,False,47.03336554724133,False,False
2,1970-07-23 11:43:00.898308894,2025-09-17,2025-09-26 19:41:29.830,HA,C,2152547064,JASSM,3,114,76,2,2,1,225,9,2,0,1,26,0,0,0,0,-171298.65686209625,-4771942.176729049,4220240.319792271,-2.51439,-0.703138,0.607744,57.125,-48.25,-52.0,0.0,0.0,0.0,0.0,0.0,0.0,2,0,41.66172245481005,-92.05586682244252,12992.128022517974,139.84442700576466,-0.0021185876340631,0.0024905728469888,,11984.602822301664,13940.560558617632,150,2,2025-09-17,2025-09-26 19:41:29.740,HA,C,1963569682,HAWK11,1,1,73,2,1,1,225,2,1,0,0,12,1,225,2,1,-146299.52771170562,-4790402.753877486,4200770.962370396,-2.19177,1.1967,-0.800738,21.5,81.375,96.5,-0.15625,-10.2969,10.5156,-0.195312,0.0585938,0.0664062,4,0,41.42545675891904,-91.7492768981049,13898.313018175942,13.564449717996188,-0.9467743749974704,39.788752538048975,187.143,11984.602822301664,13940.560558617632,150,False,19.743960811452016,False,131.42371230251604,175.84100618188018,False,52.73099911397927,False,False
2,1970-07-23 11:43:00.909344114,2025-09-17,2025-09-26 19:41:30.934,HA,C,2153798458,JASSM,3,114,76,2,2,1,225,9,2,0,1,26,0,0,0,0,-171238.72058279935,-4771992.989229049,4220185.663542271,-2.51439,-0.703138,0.607744,57.125,-48.25,-52.0,0.0,0.0,0.0,0.0,0.0,0.0,2,0,41.66106417348883,-92.05512624044512,12992.125871226925,139.8449192907425,-0.001258675497328,0.0024889425954542,,11984.602822301664,13940.560558617632,150,2,2025-09-17,2025-09-26 19:41:30.944,HA,C,1964961514,HAWK11,1,1,73,2,1,1,225,2,1,0,0,12,1,225,2,1,-146266.25427420562,-4790306.863252486,4200881.854948521,-2.28755,1.07168,-0.791534,31.75,78.5,97.0,-0.015625,-10.5469,10.6406,-0.207031,0.0507812,0.0234375,4,0,41.426781595042726,-91.74891428743766,13900.75652962926,18.504987935046888,0.034482831597731,29.13934725152397,187.828,11984.602822301664,13940.560558617632,150,False,19.646961595672824,False,126.75696192530398,175.63502846009357,False,57.606767583314436,False,False
2,1970-07-23 11:43:00.919382290,2025-09-17,2025-09-26 19:41:31.938,HA,C,2154992768,JASSM,3,114,76,2,2,1,225,9,2,0,1,26,0,0,0,0,-171181.51819022125,-4772041.485322799,4220133.499479771,-2.51439,-0.703138,0.607744,57.125,-48.25,-52.0,0.0,0.0,0.0,0.0,0.0,0.0,2,0,41.66043590033316,-92.05441945227976,12992.129560269705,139.8453891060908,-0.0004379759288079,0.0024873782030786,,11984.602822301664,13940.560558617632,150,2,2025-09-17,2025-09-26 19:41:31.944,HA,C,1965995446,HAWK11,1,1,73,2,1,1,225,2,1,0,0,12,1,225,2,1,-146233.65857108062,-4790237.631807174,4200964.310026646,-2.34555,1.01952,-0.802655,38.125,76.25,97.25,-0.078125,-10.0156,10.1094,-0.09375,0.0371094,0.0195312,4,0,41.4277558022034,-91.74855003571116,13907.078134098008,20.229870962150144,1.3741539084863312,23.69937545120533,187.388,11984.602822301664,13940.560558617632,150,False,19.567616608736934,False,123.83318287889297,175.47030286679583,False,60.69633400554805,False,False
2,1970-07-23 11:43:00.929421967,2025-09-17,2025-09-26 19:41:32.942,HA,C,2156186040,JASSM,3,114,76,2,2,1,225,9,2,0,1,26,0,0,0,0,-171124.36560233062,-4772089.934541549,4220081.378386021,-2.51439,-0.703043,0.607744,57.125,-48.25,-52.0,0.0,0.0,0.0,0.0,0.0,0.0,2,0,41.65980818112374,-92.05371329521884,12992.120800230345,139.84220606079552,-0.0022653588344518,-0.0006517921567124,,11984.602822301664,13940.560558617632,150,2,2025-09-17,2025-09-26 19:41:32.834,HA,C,1967148680,HAWK11,1,1,73,2,1,1,225,2,1,0,0,12,1,225,2,1,-146191.92614920562,-4790162.419893111,4201056.821745396,-2.3677,0.959026,-0.798533,43.375,73.375,97.875,0.015625,-9.14062,9.26562,-0.0878906,0.0292969,0.0371094,4,0,41.42883510414234,-91.74807877072789,13919.847992239822,22.5433832815712,2.1057917297887148,20.0124793558612,186.752,11984.602822301664,13940.560558617632,150,False,19.48736471301143,False,121.36171367185975,175.28100352778142,False,63.35695448166583,False,False
2,1970-07-23 11:43:00.939334538,2025-09-17,2025-09-26 19:41:33.933,HA,C,2157437250,JASSM,3,114,76,2,2,1,225,9,2,0,1,26,0,0,0,0,-171064.43811209625,-4772140.739229049,4220026.726042271,-2.51439,-0.703043,0.607744,57.125,-48.25,-52.0,0.0,0.0,0.0,0.0,0.0,0.0,2,0,41.65914995678123,-92.05297286583188,12992.122507291511,139.8426982258541,-0.0014055532307669,-0.0006534935666306,,11984.602822301664,13940.560558617632,150,2,2025-09-17,2025-09-26 19:41:34.036,HA,C,1968580278,HAWK11,1,1,73,2,1,1,225,2,1,0,0,12,1,225,2,1,-146132.07263358062,-4790073.580049361,4201167.757292271,-2.35936,0.897762,-0.790575,49.5,71.0,96.625,0.09375,-8.25,8.28125,-0.134766,0.00976562,0.00976562,4,0,41.43012308917484,-91.74739590832976,13937.756731996842,24.961345997925815,2.755798428942882,18.087925587099168,185.872,11984.602822301664,13940.560558617632,150,False,19.40277286770414,False,118.4172646830897,175.0435008872418,False,66.53847943009704,False,False
2,1970-07-23 11:43:00.949361812,2025-09-17,2025-09-26 19:41:34.936,HA,C,2158630780,JASSM,3,114,76,2,2,1,225,9,2,0,1,26,0,0,0,0,-171007.27307303375,-4772189.200166549,4219974.593229771,-2.51439,-0.703043,0.60784,57.125,-48.25,-52.0,0.0,0.0,0.0,0.0,0.0,0.0,2,0,41.65852208238677,-92.05226658253116,12992.124584122586,139.84639060157178,-0.0050316365234061,-0.0006552668864506,,11984.602822301664,13940.560558617632,150,2,2025-09-17,2025-09-26 19:41:34.943,HA,C,1969614210,HAWK11,1,1,73,2,1,1,225,2,1,0,0,12,1,225,2,1,-146086.84997733062,-4790010.982393111,4201248.921354771,-2.45667,0.863344,-0.784919,52.375,69.5,96.125,-0.046875,-7.78125,7.90625,-0.128906,0.00585938,0.0351562,4,0,41.43105139074828,-91.74687830122797,13956.66170187276,26.347741518566902,3.109179179234523,11.185532168355044,185.225,11984.602822301664,13940.560558617632,150,False,19.330861499568208,False,116.99123529885418,174.86522804584547,False,68.14220772049764,False,False
2,1970-07-23 11:43:00.960383434,2025-09-17,2025-09-26 19:41:36.038,HA,C,2159883658,JASSM,3,114,76,2,2,1,225,9,2,0,1,26,0,0,0,0,-170947.26550467435,-4772240.067354049,4219919.870573521,-2.51439,-0.703043,0.60784,57.125,-48.25,-52.0,0.0,0.0,0.0,0.0,0.0,0.0,2,0,41.65786301947593,-92.05152519557171,12992.128241699616,139.84688339076948,-0.0041707214046826,-0.0006568909747185,,11984.602822301664,13940.560558617632,150,2,2025-09-17,2025-09-26 19:41:36.146,HA,C,1971085574,HAWK11,1,1,73,2,1,1,225,2,1,0,0,12,1,225,2,1,-146020.44568045562,-4789924.085908736,4201364.591276646,-2.56175,0.850784,-0.784823,54.5,68.5,95.375,0.03125,-7.01562,7.14062,-0.105469,0.00195312,0.00195312,4,0,41.43236092515966,-91.74611640015657,13989.157100994946,26.799829178607744,3.34712272468782,4.68195310802729,184.369,11984.602822301664,13940.560558617632,150,True,19.24840319549009,False,115.90602708759225,174.61334689231057,False,69.47912844132706,False,False
2,1970-07-23 11:43:00.970420410,2025-09-17,2025-09-26 19:41:37.042,HA,C,2161136360,JASSM,3,114,76,2,2,1,225,9,2,0,1,26,0,0,0,0,-170887.26623709625,-4772290.926729049,4219865.151823521,-2.51429,-0.703043,0.60784,57.125,-48.25,-52.0,0.0,0.0,0.0,0.0,0.0,0.0,2,0,41.65720402288642,-92.050783926615,12992.126731771456,139.8473760951387,-0.0033099101586357,0.0048329441461352,,11984.602822301664,13940.560558617632,150,2,2025-09-17,2025-09-26 19:41:37.036,HA,C,1972278574,HAWK11,1,1,73,2,1,1,225,2,1,0,0,12,1,225,2,1,-145965.07263358062,-4789854.464814986,4201458.612761021,-2.607,0.848196,-0.789425,55.25,68.0,94.875,0.109375,-6.73438,6.875,-0.0214844,-0.0117188,0.00976562,4,0,41.43341959377149,-91.74548001214784,14017.964029150577,26.76591883663768,3.62990180562791,1.9820929008123933,183.355,11984.602822301664,13940.560558617632,150,True,19.17284379569794,False,115.47091277637293,174.40322963886456,False,70.12432798157705,False,False
2,1970-07-23 11:43:00.981402739,2025-09-17,2025-09-26 19:41:38.140,HA,C,2162389484,JASSM,3,114,76,2,2,1,225,9,2,0,1,26,0,0,0,0,-170827.24694998687,-4772341.805635299,4219810.413542271,-2.51429,-0.703043,0.60784,57.125,-48.25,-52.0,0.0,0.0,0.0,0.0,0.0,0.0,2,0,41.65654477768454,-92.05004242434536,12992.133443787188,139.84786894818868,-0.0024487928176278,0.0048312918353227,,11984.602822301664,13940.560558617632,150,2,2025-09-17,2025-09-26 19:41:38.239,HA,C,1973710172,HAWK11,1,1,73,2,1,1,225,2,1,0,0,12,1,225,2,1,-145898.82849295562,-4789771.747041549,4201570.063932896,-2.62033,0.843977,-0.778783,55.875,68.5,94.125,0.078125,-6.1875,6.45312,-0.0664062,-0.00976562,0.00976562,4,0,41.43467575228638,-91.74471845251604,14051.60897633348,27.21028300390576,3.178781255638138,1.0742623666297393,182.658,11984.602822301664,13940.560558617632,150,True,19.093281645515464,False,115.20159089065865,174.15415350129192,False,70.64355641442694,False,False
2,1970-07-23 11:43:00.991343436,2025-09-17,2025-09-26 19:41:39.134,HA,C,2163582530,JASSM,3,114,76,2,2,1,225,9,2,0,1,26,0,0,0,0,-170770.10486014312,-4772390.239229049,4219758.296354771,-2.51429,-0.703043,0.60784,57.125,-48.25,-52.0,0.0,0.0,0.0,0.0,0.0,0.0,2,0,41.6559171485646,-92.04933648487128,12992.122409496526,139.8483381578293,-0.0016289704130908,0.0048297286318736,,11984.602822301664,13940.560558617632,150,2,2025-09-17,2025-09-26 19:41:39.146,HA,C,1974545272,HAWK11,1,1,73,2,1,1,225,2,1,0,0,12,1,225,2,1,-145859.94958670562,-4789723.859346236,4201633.935026646,-2.65858,0.84321,-0.78281,56.0,68.75,93.0,0.0,-6.0625,6.1875,-0.0253906,-0.00390625,0.0078125,4,0,41.43539867723997,-91.74427123802846,14069.639140553623,27.12661344071378,3.3967776629332644,-1.1532189782212725,182.243,11984.602822301664,13940.560558617632,150,True,19.02863110217371,False,115.0439261137822,174.0029027254125,False,70.95298623985916,False,False
2,1970-07-23 11:43:01.001381842,2025-09-17,2025-09-26 19:41:40.138,HA,C,2164834398,JASSM,3,114,76,2,2,1,225,9,2,0,1,26,0,0,0,0,-170710.14538748687,-4772441.063447799,4219703.612761021,-2.51429,-0.703043,0.60784,57.125,-48.25,-52.0,0.0,0.0,0.0,0.0,0.0,0.0,2,0,41.65525857560053,-92.048595752765,12992.128870354596,139.84883048650033,-0.0007687307721028,0.0048280928742583,,11984.602822301664,13940.560558617632,150,2,2025-09-17,2025-09-26 19:41:40.036,HA,C,1975618970,HAWK11,1,1,73,2,1,1,225,2,1,0,0,12,1,225,2,1,-145809.84997733062,-4789661.348604049,4201715.897917271,-2.67891,0.848291,-0.777824,56.0,69.5,92.0,-0.078125,-5.76562,5.9375,-0.101562,-0.015625,-0.00976562,4,0,41.43633270823823,-91.7436952329732,14090.16418071286,27.08277388396286,3.047871042850274,-2.115393857141964,181.791,11984.602822301664,13940.560558617632,150,True,18.957088364091785,False,115.02443275627986,173.810160520223,False,71.16539299965345,False,False
2,1970-07-23 11:43:01.012401832,2025-09-17,2025-09-26 19:41:41.240,HA,C,2166088490,JASSM,3,114,76,2,2,1,225,9,2,0,1,26,0,0,0,0,-170650.07971365875,-4772491.977510299,4219648.827604771,-2.51429,-0.703043,0.60784,57.125,-48.25,-52.0,0.0,0.0,0.0,0.0,0.0,0.0,2,0,41.65459880071878,-92.04785372386984,12992.129376541265,139.8493236706811,9.305597580835209e-05,0.0048264344291435,,11984.602822301664,13940.560558617632,150,2,2025-09-17,2025-09-26 19:41:41.240,HA,C,1977010802,HAWK11,1,1,73,2,1,1,225,2,1,0,0,12,1,225,2,1,-145745.14880545562,-4789578.466768111,4201822.358854771,-2.75072,0.869671,-0.768524,55.5,71.375,90.75,0.21875,-5.42188,5.75,0.0117188,-0.0136719,-0.00390625,4,0,41.43755588071813,-91.74295211086464,14112.714231467417,26.56201440744797,2.1652644069593445,-5.397865150025893,181.754,11984.602822301664,13940.560558617632,150,True,18.879118199594036,False,115.33397955413082,173.56221024880097,False,71.10251330160914,False,False
2,1970-07-23 11:43:01.022443049,2025-09-17,2025-09-26 19:41:42.244,HA,C,2167281760,JASSM,3,114,76,2,2,1,225,9,2,0,1,26,0,0,0,0,-170592.92663748687,-4772540.418916549,4219596.698698521,-2.51429,-0.702947,0.60784,57.125,-48.25,-52.0,0.0,0.0,0.0,0.0,0.0,0.0,2,0,41.653971034813374,-92.04714769181732,12992.124247887015,139.84614314742834,-0.0017326995585278,0.0016887395115518,,11984.602822301664,13940.560558617632,150,2,2025-09-17,2025-09-26 19:41:42.146,HA,C,1978124268,HAWK11,1,1,73,2,1,1,225,2,1,0,0,12,1,225,2,1,-145694.21716483062,-4789511.699189986,4201905.124479771,-2.85014,0.889613,-0.764114,55.0,72.875,89.75,0.078125,-5.40625,5.65625,-0.0996094,-0.015625,-0.00390625,4,0,41.43852080354136,-91.74236767375096,14124.470587412918,25.947601480204487,1.56308060220042,-10.32185658615452,181.913,11984.602822301664,13940.560558617632,150,False,18.809465088113253,False,115.61638586781783,173.36255421914456,False,71.017214856497,False,False
2,1970-07-23 11:43:01.033322669,2025-09-17,2025-09-26 19:41:43.332,HA,C,2168592278,JASSM,3,114,76,2,2,1,225,9,2,0,1,26,0,0,0,0,-170530.15808279935,-4772593.620088424,4219539.448698521,-2.51429,-0.702947,0.607936,57.125,-48.25,-52.0,0.0,0.0,0.0,0.0,0.0,0.0,2,0,41.65328158733747,-92.046372305479,12992.125755987974,139.84988365168584,-0.0052809871668155,0.0016867930764698,,11984.602822301664,13940.560558617632,150,2,2025-09-17,2025-09-26 19:41:43.334,HA,C,1979675166,HAWK11,1,1,73,2,1,1,225,2,1,0,0,12,1,225,2,1,-145623.93982108062,-4789415.017549361,4202020.472136021,-2.95953,0.927771,-0.750884,53.625,75.875,88.625,-0.03125,-5.375,5.54688,-0.126953,-0.0195312,-0.0332031,4,0,41.43988705587999,-91.74156287333936,14131.995990810188,24.8593318317785,0.1816782406886844,-15.103768755154702,182.487,11984.602822301664,13940.560558617632,150,False,18.725980248515775,False,116.43433285265962,173.0855683391374,False,70.46883215942384,False,False
2,1970-07-23 11:43:01.043342188,2025-09-17,2025-09-26 19:41:44.334,HA,C,2169845514,JASSM,3,114,76,2,2,1,225,9,2,0,1,26,0,0,0,0,-170470.13318045562,-4772644.493135299,4219484.702604771,-2.51429,-0.702947,0.607936,57.125,-48.25,-52.0,0.0,0.0,0.0,0.0,0.0,0.0,2,0,41.65262229692316,-92.04563082836832,12992.128707452584,139.85037645014165,-0.0044198255619825,0.0016851607199182,,11984.602822301664,13940.560558617632,150,2,2025-09-17,2025-09-26 19:41:44.240,HA,C,1980828398,HAWK11,1,1,73,2,1,1,225,2,1,0,0,12,1,225,2,1,-145572.76794608062,-4789339.693330611,4202106.522917271,-3.04677,0.961039,-0.7505,51.875,78.125,88.5,0.0625,-5.92188,6.01562,0.0078125,-0.0078125,-0.0195312,4,0,41.44092510434479,-91.74097863325446,14129.850184623669,23.60459513160859,-0.4236166765296258,-18.79954187599917,183.11,11984.602822301664,13940.560558617632,150,False,18.65143604605061,False,117.41937455335685,172.87219045763817,False,69.69109538773246,False,False
2,1970-07-23 11:43:01.054361315,2025-09-17,2025-09-26 19:41:45.436,HA,C,2171098828,JASSM,3,114,76,2,2,1,225,9,2,0,1,26,0,0,0,0,-170410.10412772125,-4772695.370088424,4219429.948698521,-2.51429,-0.702947,0.607936,57.125,-48.25,-52.0,0.0,0.0,0.0,0.0,0.0,0.0,2,0,41.65196292666551,-92.0448893149454,12992.128557567088,139.85086926633224,-0.0035585817627806,0.0016835093622488,,11984.602822301664,13940.560558617632,150,2,2025-09-17,2025-09-26 19:41:45.535,HA,C,1982379296,HAWK11,1,1,73,2,1,1,225,2,1,0,0,12,1,225,2,1,-145508.03357108062,-4789237.674775924,4202219.880339146,-3.0298,1.01444,-0.760759,49.25,80.75,88.25,-0.0625,-6.26562,6.35938,0.0332031,0.0117188,-0.0292969,4,0,41.44230868723265,-91.74024196453708,14120.373234846156,21.326540995764216,-0.7581986442381983,-15.705279944647089,184.528,11984.602822301664,13940.560558617632,150,False,18.56811967252541,False,118.77646421463483,172.59614495162418,False,68.60089488018653,False,False
2,1970-07-23 11:43:01.065380450,2025-09-17,2025-09-26 19:41:46.538,HA,C,2172411336,JASSM,3,114,76,2,2,1,225,9,2,0,1,26,0,0,0,0,-170347.24011404935,-4772748.649385299,4219372.608854771,-2.51429,-0.702947,0.607936,57.125,-48.25,-52.0,0.0,0.0,0.0,0.0,0.0,0.0,2,0,41.651272413133306,-92.04411279883386,12992.132273984276,139.85138533874886,-0.0026566657024741,0.0016817809676712,,11984.602822301664,13940.560558617632,150,2,2025-09-17,2025-09-26 19:41:46.740,HA,C,1983810894,HAWK11,1,1,73,2,1,1,225,2,1,0,0,12,1,225,2,1,-145450.30896170562,-4789140.120088424,4202325.878386021,-2.93498,1.04033,-0.77025,47.5,82.375,88.75,0.0,-6.71875,6.90625,0.0527344,0.0,0.00976562,4,0,41.443614788658046,-91.73958742886693,14106.425723661838,20.13242853689867,-0.6446436254448259,-9.230185765584018,185.946,11984.602822301664,13940.560558617632,150,True,18.483239850019554,False,119.73680946266374,172.33500244605372,False,67.89778817642004,False,False
2,1970-07-23 11:43:01.075419780,2025-09-17,2025-09-26 19:41:47.541,HA,C,2173664980,JASSM,3,114,76,2,2,1,225,9,2,0,1,26,0,0,0,0,-170287.195436315,-4772799.536104049,4219317.835417271,-2.51429,-0.702947,0.607936,57.125,-48.25,-52.0,0.0,0.0,0.0,0.0,0.0,0.0,2,0,41.65061284658242,-92.0433711248606,12992.121775919102,139.8518782485348,-0.0017951869961892,0.0016801187856118,,11984.602822301664,13940.560558617632,150,2,2025-09-17,2025-09-26 19:41:47.444,HA,C,1984526694,HAWK11,1,1,73,2,1,1,225,2,1,0,0,12,1,225,2,1,-145422.35388358062,-4789090.889619674,4202378.983854771,-2.91897,1.04282,-0.777824,46.75,82.75,89.125,-0.125,-6.89062,7.03125,0.0078125,0.0,0.00585938,4,0,41.44427108986894,-91.73927115921144,14098.641621813407,19.88165300564859,-0.2754856391343163,-8.21096581563799,186.838,11984.602822301664,13940.560558617632,150,True,18.416090819427126,False,120.12894637283364,172.19364538484973,False,67.64728819848627,False,False
2,1970-07-23 11:43:01.086304264,2025-09-17,2025-09-26 19:41:48.630,HA,C,2174975034,JASSM,3,114,76,2,2,1,225,9,2,0,1,26,0,0,0,0,-170224.44885428375,-4772852.711885299,4219260.601042271,-2.51429,-0.702947,0.607936,57.125,-48.25,-52.0,0.0,0.0,0.0,0.0,0.0,0.0,2,0,41.64992362533917,-92.04259609335747,12992.122243358715,139.8523933205886,-0.0008949661218704,0.0016784008289009,,11984.602822301664,13940.560558617632,150,2,2025-09-17,2025-09-26 19:41:48.646,HA,C,1985998060,HAWK11,1,1,73,2,1,1,225,2,1,0,0,12,1,225,2,1,-145365.46325858062,-4788987.990205611,4202490.185026646,-2.9812,1.05346,-0.78233,45.375,83.625,90.125,-0.015625,-6.96875,7.0625,-0.0605469,0.00195312,-0.00976562,4,0,41.4456439478956,-91.7386284908747,14082.936068009389,19.38528206306738,-0.1861705504134473,-11.345176037151123,187.999,11984.602822301664,13940.560558617632,150,False,18.328839540408367,False,120.89844627443395,171.92035104976824,False,67.15214717811027,False,False
2,1970-07-23 11:43:01.097319656,2025-09-17,2025-09-26 19:41:49.731,HA,C,2176228722,JASSM,3,114,76,2,2,1,225,9,2,0,1,26,0,0,0,0,-170164.40173514312,-4772903.600557174,4219205.827604771,-2.51429,-0.702947,0.607936,57.125,-48.25,-52.0,0.0,0.0,0.0,0.0,0.0,0.0,2,0,41.64926403769487,-92.0418544202194,12992.125990324996,139.85288621672214,-3.3464183903012505e-05,0.0016767485947986,,11984.602822301664,13940.560558617632,150,2,2025-09-17,2025-09-26 19:41:49.740,HA,C,1987389892,HAWK11,1,1,73,2,1,1,225,2,1,0,0,12,1,225,2,1,-145314.14294608062,-4788890.602510299,4202595.362761021,-3.07841,1.08654,-0.789041,43.375,84.75,91.125,0.203125,-7.10938,7.15625,-0.0214844,0.00976562,-0.0175781,4,0,41.446942360321465,-91.7380503790436,14068.126773518998,17.995059507671492,-0.2783584515930505,-15.569069128184344,189.306,11984.602822301664,13940.560558617632,150,False,18.245117017357046,False,121.93975589161552,171.66194472579767,False,66.36915964473341,False,False
2,1970-07-23 11:43:01.107402169,2025-09-17,2025-09-26 19:41:50.740,HA,C,2177421770,JASSM,3,114,76,2,2,1,225,9,2,0,1,26,0,0,0,0,-170107.26037772125,-4772952.024385299,4219153.702604771,-2.51429,-0.702947,0.608032,57.125,-48.25,-52.0,0.0,0.0,0.0,0.0,0.0,0.0,2,0,41.64863636317703,-92.04114865267344,12992.123752730777,139.8565784038993,-0.0036597184221082,0.0016750944608701,,11984.602822301664,13940.560558617632,150,2,2025-09-17,2025-09-26 19:41:50.740,HA,C,1988503356,HAWK11,1,1,73,2,1,1,225,2,1,0,0,12,1,225,2,1,-145274.78161795562,-4788810.752900924,4202681.499479771,-3.07151,1.11146,-0.796999,41.25,85.625,92.125,-0.15625,-7.28125,7.3125,0.078125,0.0117188,-0.0214844,4,0,41.44800578130839,-91.7376088359467,14055.978610306593,16.899955068171536,-0.1662952851902738,-14.151700424246146,190.406,11984.602822301664,13940.560558617632,150,False,18.16898977965681,False,122.99764354166265,171.44827112286865,False,65.52578773365153,False,False
2,1970-07-23 11:43:01.116301933,2025-09-17,2025-09-26 19:41:51.630,HA,C,2178554172,JASSM,3,114,76,2,2,1,225,9,2,0,1,26,0,0,0,0,-170053.02136404935,-4772997.987275924,4219104.226042271,-2.51429,-0.702851,0.608032,57.125,-48.25,-52.0,0.0,0.0,0.0,0.0,0.0,0.0,2,0,41.64804057984124,-92.0404787459819,12992.124149120376,139.85337218176502,-0.0055287872252816,-0.0014650490715822,,11984.602822301664,13940.560558617632,150,2,2025-09-17,2025-09-26 19:41:51.739,HA,C,1989815656,HAWK11,1,1,73,2,1,1,225,2,1,0,0,12,1,225,2,1,-145230.88122733062,-4788717.034150924,4202782.995573521,-3.0369,1.14157,-0.808408,39.25,86.25,93.375,0.203125,-7.46875,7.45312,0.0195312,0.00585938,-0.0078125,4,0,41.4492561787502,-91.73711804722126,14042.766619890956,15.560630907233602,0.0969549569953248,-10.927226138829662,191.42,11984.602822301664,13940.560558617632,150,False,18.089844891755718,False,123.99612331453794,171.20278218275303,False,64.77575266489623,False,False
2,1970-07-23 11:43:01.125340919,2025-09-17,2025-09-26 19:41:52.534,HA,C,2179628696,JASSM,3,114,76,2,2,1,225,9,2,0,1,26,0,0,0,0,-170001.5557878775,-4773041.600557174,4219057.276823521,-2.51429,-0.702851,0.608032,57.125,-48.25,-52.0,0.0,0.0,0.0,0.0,0.0,0.0,2,0,41.64747523628154,-92.03984310518928,12992.124053232035,139.85379459653493,-0.0047903995288799,-0.0014664767699887,,11984.602822301664,13940.560558617632,150,2,2025-09-17,2025-09-26 19:41:52.441,HA,C,1990491688,HAWK11,1,1,73,2,1,1,225,2,1,0,0,12,1,225,2,1,-145209.07849295562,-4788668.362275924,4202836.157682896,-3.0229,1.14464,-0.815503,38.25,86.125,94.125,-0.03125,-7.70312,7.625,0.0292969,0.00390625,-0.00195312,4,0,41.44990842233495,-91.73687506528827,14036.96345526835,15.327123050342,0.4515642365812283,-9.998791647890323,192.129,11984.602822301664,13940.560558617632,150,True,18.02858348135848,False,124.46536534993884,171.06515867407927,False,64.44777193873031,False,False
2,1970-07-23 11:43:01.135381331,2025-09-17,2025-09-26 19:41:53.538,HA,C,2180761308,JASSM,3,114,76,2,2,1,225,9,2,0,1,26,0,0,0,0,-169947.3077410025,-4773087.569307174,4219007.792448521,-2.51419,-0.702851,0.608032,57.125,-48.25,-52.0,0.0,0.0,0.0,0.0,0.0,0.0,2,0,41.646879359595104,-92.03917311175648,12992.128506090738,139.8542398352396,-0.0040121189719955,0.0040371733140799,,11984.602822301664,13940.560558617632,150,2,2025-09-17,2025-09-26 19:41:53.443,HA,C,1991803986,HAWK11,1,1,73,2,1,1,225,2,1,0,0,12,1,225,2,1,-145167.31872733062,-4788573.290010299,4202941.290495396,-3.00306,1.15432,-0.821351,37.0,86.0,95.625,0.140625,-7.32812,7.42188,-0.0332031,0.00585938,-0.00976562,4,0,41.451191017012746,-91.7364103270096,14028.498986776687,14.868345911278764,0.6656999510194138,-8.461126190177568,192.936,11984.602822301664,13940.560558617632,150,True,17.94781105030176,False,125.099199111775,170.81371475627427,False,64.07141562863451,False,False
2,1970-07-23 11:43:01.144438242,2025-09-17,2025-09-26 19:41:54.443,HA,C,2181835414,JASSM,3,114,76,2,2,1,225,9,2,0,1,26,0,0,0,0,-169895.86194022125,-4773131.163057174,4218960.858854771,-2.51419,-0.702851,0.608032,57.125,-48.25,-52.0,0.0,0.0,0.0,0.0,0.0,0.0,2,0,41.646314226268295,-92.03853773920608,12992.123485186356,139.85466206208991,-0.003274015672865,0.0040357456606452,,11984.602822301664,13940.560558617632,150,2,2025-09-17,2025-09-26 19:41:54.333,HA,C,1992877686,HAWK11,1,1,73,2,1,1,225,2,1,0,0,12,1,225,2,1,-145134.98864920562,-4788496.354463424,4203026.899870396,-3.06326,1.16851,-0.826624,35.75,86.25,96.375,0.171875,-7.20312,7.25,-0.0859375,0.00195312,-0.0078125,4,0,41.45223226038969,-91.73605172453355,14022.923060885165,14.254142770888103,0.8038479133628267,-11.322090930390903,193.632,11984.602822301664,13940.560558617632,150,False,17.875580692652107,False,125.69552927904144,170.60627210432662,False,63.68434420128946,False,False
2,1970-07-23 11:43:01.153340415,2025-09-17,2025-09-26 19:41:55.334,HA,C,2182969064,JASSM,3,114,76,2,2,1,225,9,2,0,1,26,0,0,0,0,-169841.56408865875,-4773177.172822799,4218911.327604771,-2.51419,-0.702851,0.608032,57.125,-48.25,-52.0,0.0,0.0,0.0,0.0,0.0,0.0,2,0,41.64571779216545,-92.0378671552486,12992.129414609994,139.8551076830274,-0.00249501867523,0.004034259896245,,11984.602822301664,13940.560558617632,150,2,2025-09-17,2025-09-26 19:41:55.443,HA,C,1994150218,HAWK11,1,1,73,2,1,1,225,2,1,0,0,12,1,225,2,1,-145097.85583670562,-4788403.655244674,4203130.677214146,3.12434,1.19238,-0.832856,33.5,86.875,97.125,-0.140625,-7.10938,7.03125,-0.0625,0.00585938,-0.03125,4,0,41.45349074811418,-91.73564140636024,14017.712080530266,13.26944957729478,0.905659038792999,-15.804322861052778,194.475,11984.602822301664,13940.560558617632,150,False,17.794486197392462,False,126.72938330590863,170.3591147710814,False,62.89829293096429,False,False
2,1970-07-23 11:43:01.162400334,2025-09-17,2025-09-26 19:41:56.240,HA,C,2184044370,JASSM,3,114,76,2,2,1,225,9,2,0,1,26,0,0,0,0,-169790.0607927603,-4773220.813447799,4218864.339323521,-2.51419,-0.702851,0.608032,57.125,-48.25,-52.0,0.0,0.0,0.0,0.0,0.0,0.0,2,0,41.64515201590468,-92.03723109625685,12992.12214216294,139.8555303563652,-0.0017560876492789,0.0040328275730606,,11984.602822301664,13940.560558617632,150,2,2025-09-17,2025-09-26 19:41:56.145,HA,C,1994945550,HAWK11,1,1,73,2,1,1,225,2,1,0,0,12,1,225,2,1,-145076.03943045562,-4788345.622041549,4203195.640104771,3.08043,1.21731,-0.833814,32.0,87.375,97.625,-0.390625,-7.15625,7.04688,-0.0195312,-0.00585938,-0.0234375,4,0,41.45427831227792,-91.73540162036268,14014.549502453434,12.325339705922568,0.7225895398550795,-17.276446757905283,194.83,11984.602822301664,13940.560558617632,150,False,17.7284877467837,False,127.42144754255322,170.19653645176197,False,62.3689350189006,False,False
2,1970-07-23 11:43:01.172437603,2025-09-17,2025-09-26 19:41:57.243,HA,C,2185177792,JASSM,3,114,76,2,2,1,225,9,2,0,1,26,0,0,0,0,-169735.77392752594,-4773266.813447799,4218814.815886021,-2.51419,-0.702851,0.608032,57.125,-48.25,-52.0,0.0,0.0,0.0,0.0,0.0,0.0,2,0,41.64455568261064,-92.03656067227146,12992.12967045788,139.85597586079598,-0.0009772389339972,0.0040313341334914,,11984.602822301664,13940.560558617632,150,2,2025-09-17,2025-09-26 19:41:57.441,HA,C,1996575982,HAWK11,1,1,73,2,1,1,225,2,1,0,0,12,1,225,2,1,-145034.93396170562,-4788225.809541549,4203329.319792271,2.95761,1.27435,-0.840813,27.875,88.25,98.625,-0.0625,-7.48438,7.45312,-0.128906,0.0,-0.0195312,4,0,41.455900603747736,-91.7349536016497,14007.371691134653,10.102757034683584,0.6392909266996404,-21.911374199754547,195.746,11984.602822301664,13940.560558617632,150,False,17.635236012386002,False,129.25250274227278,169.887772170028,False,60.847464532535845,False,False
2,1970-07-23 11:43:01.182318592,2025-09-17,2025-09-26 19:41:58.231,HA,C,2186369754,JASSM,3,114,76,2,2,1,225,9,2,0,1,26,0,0,0,0,-169678.68310721344,-4773315.186494674,4218762.729948521,-2.51419,-0.702851,0.608032,57.125,-48.25,-52.0,0.0,0.0,0.0,0.0,0.0,0.0,2,0,41.64392853044604,-92.03585563497978,12992.12470452842,139.85644436051888,-0.0001581522792219,0.0040297540946845,,11984.602822301664,13940.560558617632,150,2,2025-09-17,2025-09-26 19:41:58.252,HA,C,1996933882,HAWK11,1,1,73,2,1,1,225,2,1,0,0,12,1,225,2,1,-145026.96716483062,-4788199.850557174,4203358.294401646,2.89664,1.28912,-0.840717,26.75,88.75,98.75,0.09375,-7.375,7.40625,-0.216797,0.0117188,-0.0390625,4,0,41.45625200035039,-91.7348677582537,14005.91288131582,9.5501595928713,0.526055597825965,-24.78027450648487,196.052,11984.602822301664,13940.560558617632,150,False,17.576383469192653,False,129.7574499729525,169.79890385865488,False,60.43022206104867,False,False
2,1970-07-23 11:43:01.191381122,2025-09-17,2025-09-26 19:41:59.138,HA,C,2187443598,JASSM,3,114,76,2,2,1,225,9,2,0,1,26,0,0,0,0,-169627.24963553375,-4773358.764619674,4218715.808073521,-2.51419,-0.702851,0.608128,57.125,-48.25,-52.0,0.0,0.0,0.0,0.0,0.0,0.0,2,0,41.64336354803877,-92.03522047486668,12992.126151366198,139.860091829732,-0.0038689072476951,0.0040282548238509,,11984.602822301664,13940.560558617632,150,2,2025-09-17,2025-09-26 19:41:59.035,HA,C,1998484780,HAWK11,1,1,73,2,1,1,225,2,1,0,0,12,1,225,2,1,-144996.48083670562,-4788083.202119674,4203487.165495396,2.63164,1.36937,-0.840621,20.25,90.625,99.125,0.171875,-7.21875,7.125,-0.0214844,0.0292969,-0.0488281,4,0,41.45782110911442,-91.73454552256553,13996.877900467069,6.523192380100038,0.0403789577016389,-36.55180206862905,197.103,11984.602822301664,13940.560558617632,150,False,17.48389538383098,False,132.58010280037607,169.50667723836145,False,57.89479223942063,False,False
2,1970-07-23 11:43:01.200420312,2025-09-17,2025-09-26 19:42:00.042,HA,C,2188576468,JASSM,3,114,76,2,2,1,225,9,2,0,1,26,0,0,0,0,-169572.98901541656,-4773404.739229049,4218666.304167271,-2.51419,-0.702851,0.608128,57.125,-48.25,-52.0,0.0,0.0,0.0,0.0,0.0,0.0,2,0,41.642767480311925,-92.03455041339924,12992.127926030753,139.86053707768937,-0.0030904271141296,0.0040267981142447,,11984.602822301664,13940.560558617632,150,2,2025-09-17,2025-09-26 19:41:59.944,HA,C,1999598246,HAWK11,1,1,73,2,1,1,225,2,1,0,0,12,1,225,2,1,-144980.17419608062,-4787998.858369674,4203578.841276646,2.586,1.46361,-0.831418,14.625,92.375,98.875,0.125,-7.92188,7.6875,0.113281,0.0175781,-0.0566406,4,0,41.45894448042514,-91.7343811037633,13987.511358953756,2.968250200808188,-0.8187800767484485,-35.13451228010901,197.934,11984.602822301664,13940.560558617632,150,False,17.40094230518893,False,134.98665861681224,169.29259721608042,False,55.693437121780924,False,False
2,1970-07-23 11:43:01.209324244,2025-09-17,2025-09-26 19:42:00.932,HA,C,2189650210,JASSM,3,114,76,2,2,1,225,9,2,0,1,26,0,0,0,0,-169521.56042654935,-4773448.311494674,4218619.382292271,-2.51419,-0.702755,0.608128,57.125,-48.25,-52.0,0.0,0.0,0.0,0.0,0.0,0.0,2,0,41.64220252455373,-92.03391533711884,12992.122572560482,139.8573103187931,-0.0049981919780406,0.0008882019600147,,11984.602822301664,13940.560558617632,150,2,2025-09-17,2025-09-26 19:42:00.833,HA,C,2000433344,HAWK11,1,1,73,2,1,1,225,2,1,0,0,12,1,225,2,1,-144971.30896170562,-4787933.801729049,4203648.796354771,2.66328,1.52008,-0.834869,10.625,92.625,99.25,-0.078125,-8.32812,7.76562,0.246094,0.0136719,-0.0175781,4,0,41.45980519412695,-91.73429866504058,13978.924210782045,0.7864821345676419,-0.6996935897898825,-28.28343770344977,198.765,11984.602822301664,13940.560558617632,150,False,17.327722578125154,False,136.68040477119203,169.12597687811746,False,54.1672272652087,False,False
2,1970-07-23 11:43:01.220520642,2025-09-17,2025-09-26 19:42:02.052,HA,C,2190782898,JASSM,3,114,76,2,2,1,225,9,2,0,1,26,0,0,0,0,-169467.30847342435,-4773494.276338424,4218569.886198521,-2.51419,-0.702755,0.608128,57.125,-48.25,-52.0,0.0,0.0,0.0,0.0,0.0,0.0,2,0,41.64160655814554,-92.03324540776129,12992.125727733575,139.85775546885267,-0.0042198472007642,0.0008867042015953,,11984.602822301664,13940.560558617632,150,2,2025-09-17,2025-09-26 19:42:02.145,HA,C,2002222842,HAWK11,1,1,73,2,1,1,225,2,1,0,0,12,1,225,2,1,-144959.96911795562,-4787796.129854049,4203798.854948521,3.00468,1.56984,-0.860084,5.5,91.125,100.5,-0.34375,-8.70312,7.5625,0.126953,0.0117188,0.0,4,0,41.46163891295918,-91.73421292376275,13965.709592029183,-1.0955275161204707,0.7528464601688487,-6.585749012205898,198.056,11984.602822301664,13940.560558617632,150,True,17.21570851309315,False,138.8297004438163,168.80559331759844,False,52.35173957461252,False,False
2,1970-07-23 11:43:01.228403009,2025-09-17,2025-09-26 19:42:02.840,HA,C,2191916294,JASSM,3,114,76,2,2,1,225,9,2,0,1,26,0,0,0,0,-169413.0227068228,-4773540.268525924,4218520.354948521,-2.51419,-0.702755,0.608128,57.125,-48.25,-52.0,0.0,0.0,0.0,0.0,0.0,0.0,2,0,41.64101019515483,-92.0325750737706,12992.12016393045,139.8582008825482,-0.0034410013126249,0.000885191524098,,11984.602822301664,13940.560558617632,150,2,2025-09-17,2025-09-26 19:42:02.740,HA,C,2002819342,HAWK11,1,1,73,2,1,1,225,2,1,0,0,12,1,225,2,1,-144957.34411795562,-4787750.864229049,4203849.144011021,3.03441,1.56888,-0.867754,5.0,90.375,100.875,0.0,-8.625,7.25,0.0253906,0.015625,0.00976562,4,0,41.462248040258565,-91.73419792478272,13963.516868724822,-1.0503470387511902,1.1920362124457404,-4.923888621029815,197.445,11984.602822301664,13940.560558617632,150,True,17.147594576839648,False,139.03118522912376,168.6789247953903,False,52.281088081894694,False,False
2,1970-07-23 11:43:01.238439521,2025-09-17,2025-09-26 19:42:03.843,HA,C,2193050460,JASSM,3,114,76,2,2,1,225,9,2,0,1,26,0,0,0,0,-169358.69983084625,-4773586.291963424,4218470.792448521,-2.51419,-0.702755,0.608128,57.125,-48.25,-52.0,0.0,0.0,0.0,0.0,0.0,0.0,2,0,41.64041343919981,-92.031904293998,12992.12368917595,139.85864658720976,-0.0026616372488468,0.0008836897864113,,11984.602822301664,13940.560558617632,150,2,2025-09-17,2025-09-26 19:42:03.833,HA,C,2004211174,HAWK11,1,1,73,2,1,1,225,2,1,0,0,12,1,225,2,1,-144952.63513358062,-4787647.401338424,4203966.247526646,3.00056,1.55728,-0.881655,3.75,88.625,101.25,-0.0625,-8.35938,6.9375,-0.0195312,0.00585938,-0.00585938,4,0,41.46365463519399,-91.73417907580352,13963.299318941848,-0.6105621349752242,1.9826228482660428,-7.360885794968612,196.7,11984.602822301664,13940.560558617632,150,True,17.049865656597795,False,139.5305212573449,168.42550659004038,False,52.04104733326853,False,False
