Subject_cm,Timestamp,SampleDate_cm,SampleTime_cm,Configuration_cm,Scenario_cm,DisTime_cm,MarkingTxt_cm,Application_cm,EntId_cm,Site_cm,ExerciseId_cm,ForceId_cm,Category_cm,Country_cm,Domain_cm,Kind_cm,Extra_cm,Specific_cm,Subcategory_cm,AltCategory_cm,AltCountry_cm,AltDomain_cm,AltKind_cm,ECEF_X_cm,ECEF_Y_cm,ECEF_Z_cm,OriPhi_cm,OriPsi_cm,OriTheta_cm,LinVelX_cm,LinVelY_cm,LinVelZ_cm,LinAccX_cm,LinAccY_cm,LinAccZ_cm,AngVelX_cm,AngVelY_cm,AngVelZ_cm,DrAlg_cm,Appearance_cm,Latitude_cm,Longitude_cm,Altitude_cm,Heading_cm,Pitch_cm,Roll_cm,CalibratedAirspeed_cm,CM_Altitude_Lead_cm,CM_Altitude_Wing_cm,CM_Airspeed_cm,Subject_ac,SampleDate_ac,SampleTime_ac,Configuration_ac,Scenario_ac,DisTime_ac,MarkingTxt_ac,Application_ac,EntId_ac,Site_ac,ExerciseId_ac,ForceId_ac,Category_ac,Country_ac,Domain_ac,Kind_ac,Extra_ac,Specific_ac,Subcategory_ac,AltCategory_ac,AltCountry_ac,AltDomain_ac,AltKind_ac,ECEF_X_ac,ECEF_Y_ac,ECEF_Z_ac,OriPhi_ac,OriPsi_ac,OriTheta_ac,LinVelX_ac,LinVelY_ac,LinVelZ_ac,LinAccX_ac,LinAccY_ac,LinAccZ_ac,AngVelX_ac,AngVelY_ac,AngVelZ_ac,DrAlg_ac,Appearance_ac,Latitude_ac,Longitude_ac,Altitude_ac,Heading_ac,Pitch_ac,Roll_ac,CalibratedAirspeed_ac,CM_Altitude_Lead_ac,CM_Altitude_Wing_ac,CM_Airspeed_ac,Bank_Angle_Condition,distance_nm,Distance_Condition,angle_between_vel,angle_between_pos,Cone_Condition,angle_between_pos_nose,Nose_Cone_Condition,Intercept_Criteria
2,1970-07-23 11:43:07.979402687,2025-09-17,2025-09-26 19:53:17.940,AA,D,2997284252,JASSM,3,125,76,2,2,1,225,9,2,0,1,26,0,0,0,0,-188366.08435233065,-4786759.399385299,4202813.940886021,-2.30155,-0.153302,0.128183,92.875,-14.25,-12.0,0.0,0.0,0.0,0.0,0.0,0.0,2,0,41.45217260485455,-92.25351119514656,12992.127401660682,99.81566427627698,-0.0049454620297848,0.0023914248113191,,12143.848679953908,13948.384352032976,150,2,2025-09-17,2025-09-26 19:53:17.934,AA,D,2808371864,HAWK11,1,1,73,2,1,1,225,2,1,0,0,12,1,225,2,1,-144969.64489920562,-4791582.539033736,4199503.165495396,2.42829,2.73288,-0.435171,-96.0,34.75,36.25,0.0,-6.9375,7.07812,-0.0839844,-0.00585938,0.0136719,4,0,41.41012314298924,-91.73295894134527,13948.554753205775,-57.45261039662859,1.5788188853184844,3.332386621134029,168.324,12143.848679953908,13948.384352032976,150,True,23.54506715632081,False,163.62356969356358,176.2231767600205,False,20.152320202844347,True,False
2,1970-07-23 11:43:07.990421113,2025-09-17,2025-09-26 19:53:19.042,AA,D,2998654952,JASSM,3,125,76,2,2,1,225,9,2,0,1,26,0,0,0,0,-188259.3558367056,-4786775.901338424,4202800.020964146,-2.30155,-0.153302,0.128183,92.875,-14.25,-12.0,0.0,0.0,0.0,0.0,0.0,0.0,2,0,41.45200549265899,-92.25222791111275,12992.12529724437,99.8165138020669,-0.0039692192580543,0.0023907384900622,,12143.848679953908,13948.384352032976,150,2,2025-09-17,2025-09-26 19:53:19.042,AA,D,2809723928,HAWK11,1,1,73,2,1,1,225,2,1,0,0,12,1,225,2,1,-145079.41443045562,-4791542.893525924,4199544.710417271,2.3793,2.73077,-0.44217,-96.25,35.0,37.0,0.046875,-7.01562,7.28125,-0.0078125,0.0,-0.0117188,4,0,41.41061959032938,-91.7342846597837,13949.37565060008,-57.09539731484072,1.7912458597684289,0.4847022025546463,169.216,12143.848679953908,13948.384352032976,150,True,23.424223530318184,False,163.33826062912252,176.1573651306756,False,20.50403255020567,True,False
2,1970-07-23 11:43:08.001460089,2025-09-17,2025-09-26 19:53:20.146,AA,D,2999908058,JASSM,3,125,76,2,2,1,225,9,2,0,1,26,0,0,0,0,-188161.78357108065,-4786790.987275924,4202787.294401646,-2.30155,-0.153302,0.128183,92.875,-14.25,-12.0,0.0,0.0,0.0,0.0,0.0,0.0,2,0,41.45185270074713,-92.25105472605416,12992.1261270687,99.8172904405774,-0.0030767278934532,0.0023901072783588,,12143.848679953908,13948.384352032976,150,2,2025-09-17,2025-09-26 19:53:20.231,AA,D,2811115760,HAWK11,1,1,73,2,1,1,225,2,1,0,0,12,1,225,2,1,-145191.29333670562,-4791501.987275924,4199587.683073521,2.3769,2.73212,-0.439773,-96.5,35.375,37.5,0.140625,-6.73438,7.09375,-0.0117188,0.0,-0.00390625,4,0,41.411132777101614,-91.73563605502495,13950.359285802962,-57.241936821963485,1.7423489818308913,0.3758279045145173,169.705,12143.848679953908,13948.384352032976,150,True,23.307166091676855,False,163.1098543188539,176.08958713430746,False,20.8002752083587,True,False
2,1970-07-23 11:43:08.012479034,2025-09-17,2025-09-26 19:53:21.247,AA,D,3001220608,JASSM,3,125,76,2,2,1,225,9,2,0,1,26,0,0,0,0,-188059.5823992056,-4786806.786104049,4202773.964323521,-2.30155,-0.153302,0.128183,92.875,-14.25,-12.0,0.0,0.0,0.0,0.0,0.0,0.0,2,0,41.45169266572437,-92.24982589137706,12992.12610270398,99.8181039161354,-0.002141900089809,0.0023894639292667,,12143.848679953908,13948.384352032976,150,2,2025-09-17,2025-09-26 19:53:21.340,AA,D,2812467826,HAWK11,1,1,73,2,1,1,225,2,1,0,0,12,1,225,2,1,-145301.97693045562,-4791461.614229049,4199630.120573521,2.33318,2.72646,-0.441211,-97.125,35.5,37.75,-0.046875,-6.90625,7.1875,-0.0761719,-0.00195312,-0.00195312,4,0,41.41163938008938,-91.7369729979471,13951.412007249966,-56.974902326559416,1.5985129030603715,-2.2593077460759883,170.194,12143.848679953908,13948.384352032976,150,True,23.18829714398392,False,163.13687481865855,176.02147335248247,False,20.841475831307573,True,False
2,1970-07-23 11:43:08.021379460,2025-09-17,2025-09-26 19:53:22.137,AA,D,3002294348,JASSM,3,125,76,2,2,1,225,9,2,0,1,26,0,0,0,0,-187975.9769304556,-4786819.709932174,4202763.058073521,-2.30155,-0.153302,0.128183,92.875,-14.25,-12.0,0.0,0.0,0.0,0.0,0.0,0.0,2,0,41.45156173100981,-92.24882065023972,12992.125831224052,99.81876937321452,-0.0013771646745315,0.0023889290921718,,12143.848679953908,13948.384352032976,150,2,2025-09-17,2025-09-26 19:53:22.042,AA,D,2813342692,HAWK11,1,1,73,2,1,1,225,2,1,0,0,12,1,225,2,1,-145373.42224295562,-4791435.414033736,4199657.700651646,2.30922,2.72636,-0.440924,-97.5,35.5,37.75,-0.109375,-6.98438,7.17188,-0.0117188,-0.00976562,-0.00390625,4,0,41.41196847316594,-91.73783604477372,13952.158030719043,-56.9833650145962,1.583938899674516,-3.635085964379839,170.988,12143.848679953908,13948.384352032976,150,True,23.101924235605097,False,163.2281899527881,175.97510196565557,False,20.796549859793664,True,False
2,1970-07-23 11:43:08.031442547,2025-09-17,2025-09-26 19:53:23.144,AA,D,3003545808,JASSM,3,125,76,2,2,1,225,9,2,0,1,26,0,0,0,0,-187878.5316179556,-4786834.772432174,4202750.345182896,-2.30155,-0.153302,0.128183,92.875,-14.25,-12.0,0.0,0.0,0.0,0.0,0.0,0.0,2,0,41.45140910639379,-92.24764900938963,12992.125783897098,99.81954498264344,-0.0004858363451783,0.0023883014945653,,12143.848679953908,13948.384352032976,150,2,2025-09-17,2025-09-26 19:53:23.339,AA,D,2814774290,HAWK11,1,1,73,2,1,1,225,2,1,0,0,12,1,225,2,1,-145490.52185233062,-4791392.998018111,4199702.575651646,2.29512,2.73432,-0.433925,-98.375,35.125,38.0,0.03125,-6.89062,7.14062,-0.00585938,0.00195312,0.00195312,4,0,41.41250249414071,-91.73925041523982,13953.968544060388,-57.56016476916707,1.5850203013668784,-4.265254058954834,171.611,12143.848679953908,13948.384352032976,150,True,22.982080708011953,False,163.45322739605348,175.903081150534,False,20.64364122303241,True,False
2,1970-07-23 11:43:08.041478962,2025-09-17,2025-09-26 19:53:24.147,AA,D,3004739500,JASSM,3,125,76,2,2,1,225,9,2,0,1,26,0,0,0,0,-187785.5863054556,-4786849.137666549,4202738.218229771,-2.30145,-0.153206,0.128279,92.875,-14.25,-12.0,0.0,0.0,0.0,0.0,0.0,0.0,2,0,41.451263521147496,-92.24653148052631,12992.123853877663,99.82073891836016,-0.0073590329905979,0.0071766811541554,,12143.848679953908,13948.384352032976,150,2,2025-09-17,2025-09-26 19:53:24.041,AA,D,2815609390,HAWK11,1,1,73,2,1,1,225,2,1,0,0,12,1,225,2,1,-145560.35778983062,-4791367.893525924,4199729.247526646,2.31967,2.73423,-0.437856,-98.75,35.0,38.0,-0.140625,-6.89062,7.15625,0.0703125,0.00585938,0.0078125,4,0,41.41281921360567,-91.74009385974466,13955.326944881774,-57.399971481541286,1.7436180131680112,-2.8565768773826585,172.051,12143.848679953908,13948.384352032976,150,True,22.89159073060807,False,163.5769529618566,175.85649400091503,False,20.56641318377118,True,False
2,1970-07-23 11:43:08.052921000,2025-09-17,2025-09-26 19:53:25.292,AA,D,3005993334,JASSM,3,125,76,2,2,1,225,9,2,0,1,26,0,0,0,0,-187687.9573992056,-4786864.225557174,4202725.479948521,-2.30145,-0.153206,0.128279,92.875,-14.25,-12.0,0.0,0.0,0.0,0.0,0.0,0.0,2,0,41.45111059368218,-92.24535764438131,12992.123277022922,99.82151597652512,-0.0064660276987111,0.0071760671486572,,12143.848679953908,13948.384352032976,150,2,2025-09-17,2025-09-26 19:53:25.339,AA,D,2817239822,HAWK11,1,1,73,2,1,1,225,2,1,0,0,12,1,225,2,1,-145694.69568045562,-4791319.913057174,4199780.433073521,2.38189,2.73854,-0.442553,-99.125,35.125,38.375,-0.109375,-6.82812,7.10938,0.0253906,0.00390625,0.00390625,4,0,41.41342577694554,-91.741716237209,13958.451313004343,-57.37314268411892,2.093792487642534,0.8148921355972726,172.796,12143.848679953908,13948.384352032976,150,True,22.761966614908733,False,163.49526179467478,175.7746786459672,False,20.72973186780403,True,False
2,1970-07-23 11:43:08.063379465,2025-09-17,2025-09-26 19:53:26.337,AA,D,3007304864,JASSM,3,125,76,2,2,1,225,9,2,0,1,26,0,0,0,0,-187585.8363054556,-4786880.006807174,4202712.155729771,-2.30145,-0.153206,0.128279,92.875,-14.25,-12.0,0.0,0.0,0.0,0.0,0.0,0.0,2,0,41.45095062325299,-92.24412980296184,12992.126373856969,99.82232878267516,-0.00553193404394,0.0071754311850131,,12143.848679953908,13948.384352032976,150,2,2025-09-17,2025-09-26 19:53:26.339,AA,D,2818472586,HAWK11,1,1,73,2,1,1,225,2,1,0,0,12,1,225,2,1,-145797.44763358062,-4791282.879854049,4199819.642057896,2.3769,2.73336,-0.453483,-99.25,35.5,38.5,-0.359375,-7.03125,7.25,-0.0625,0.00390625,0.00585938,4,0,41.41389208870362,-91.74295729779082,13960.154108946876,-56.74482719993566,2.356391669620345,0.4253024013815977,173.407,12143.848679953908,13948.384352032976,150,True,22.647824063931136,False,163.3777149822065,175.70821647683812,False,20.913975047033198,True,False
2,1970-07-23 11:43:08.073421559,2025-09-17,2025-09-26 19:53:27.342,AA,D,3008498446,JASSM,3,125,76,2,2,1,225,9,2,0,1,26,0,0,0,0,-187492.89685233065,-4786894.368135299,4202700.026823521,-2.30145,-0.153206,0.128279,92.875,-14.25,-12.0,0.0,0.0,0.0,0.0,0.0,0.0,2,0,41.45080501252109,-92.24301236169092,12992.125704948565,99.82306850392152,-0.0046818224711835,0.0071748407217709,,12143.848679953908,13948.384352032976,150,2,2025-09-17,2025-09-26 19:53:27.230,AA,D,2819426986,HAWK11,1,1,73,2,1,1,225,2,1,0,0,12,1,225,2,1,-145876.70153983062,-4791254.386689986,4199850.294401646,2.32264,2.72924,-0.45751,-99.5,35.375,38.875,-0.140625,-6.95312,7.17188,-0.0703125,0.00585938,0.00195312,4,0,41.41425409554029,-91.74391452997212,13962.53659007216,-56.4322671870012,2.374736766046879,-2.774720218430979,173.713,12143.848679953908,13948.384352032976,150,True,22.55204377291037,False,163.33512347536046,175.65458822082326,False,21.009730939734254,True,False
2,1970-07-23 11:43:08.083459418,2025-09-17,2025-09-26 19:53:28.345,AA,D,3009691664,JASSM,3,125,76,2,2,1,225,9,2,0,1,26,0,0,0,0,-187399.9886492056,-4786908.723604049,4202687.901823521,-2.30145,-0.153206,0.128279,92.875,-14.25,-12.0,0.0,0.0,0.0,0.0,0.0,0.0,2,0,41.45065944487093,-92.24189530162626,12992.12674403326,99.8238079706812,-0.0038319979235703,0.0071742552547821,,12143.848679953908,13948.384352032976,150,2,2025-09-17,2025-09-26 19:53:28.337,AA,D,2820779050,HAWK11,1,1,73,2,1,1,225,2,1,0,0,12,1,225,2,1,-145990.26794608062,-4791214.095674361,4199893.692839146,2.27787,2.73557,-0.456168,-100.125,35.125,38.625,-0.171875,-6.78125,7.0,-0.00390625,0.0,-0.00585938,4,0,41.41476607531104,-91.74528601230443,13966.1424183216,-56.72024249962453,2.547688052326759,-5.192294021264448,174.19,12143.848679953908,13948.384352032976,150,True,22.43689206306902,False,163.639631138076,175.582402263226,False,20.7772569683782,True,False
2,1970-07-23 11:43:08.093498819,2025-09-17,2025-09-26 19:53:29.349,AA,D,3010943224,JASSM,3,125,76,2,2,1,225,9,2,0,1,26,0,0,0,0,-187302.5355242056,-4786923.780244674,4202675.181120396,-2.30145,-0.153206,0.128279,92.875,-14.25,-12.0,0.0,0.0,0.0,0.0,0.0,0.0,2,0,41.45050673370502,-92.24072360262554,12992.124573529096,99.82458360480108,-0.0029405997929499,0.0071736302810991,,12143.848679953908,13948.384352032976,150,2,2025-09-17,2025-09-26 19:53:29.338,AA,D,2821932282,HAWK11,1,1,73,2,1,1,225,2,1,0,0,12,1,225,2,1,-146086.66052420562,-4791179.819307174,4199929.946745396,2.27489,2.72425,-0.436513,-100.75,35.625,37.75,0.03125,-5.71875,5.92188,0.0507812,-0.0136719,0.0,4,0,41.41519715950595,-91.7464501403019,13967.75461658533,-57.08603683436035,1.333399249093545,-5.654646383539823,174.141,12143.848679953908,13948.384352032976,150,True,22.32903499958607,False,163.96242403076556,175.5190173232047,False,20.51842834956284,True,False
2,1970-07-23 11:43:08.103380793,2025-09-17,2025-09-26 19:53:30.338,AA,D,3012137352,JASSM,3,125,76,2,2,1,225,9,2,0,1,26,0,0,0,0,-187209.5550554556,-4786938.143525924,4202663.046354771,-2.30145,-0.153206,0.128279,92.875,-14.25,-12.0,0.0,0.0,0.0,0.0,0.0,0.0,2,0,41.45036104828028,-92.2396056855036,12992.1261067831,99.82532363453042,-0.0020901183718477,0.0071730615167692,,12143.848679953908,13948.384352032976,150,2,2025-09-17,2025-09-26 19:53:30.339,AA,D,2823244582,HAWK11,1,1,73,2,1,1,225,2,1,0,0,12,1,225,2,1,-146197.50427420562,-4791139.687471236,4199970.130339146,2.44325,2.72397,-0.436418,-101.125,36.625,37.0,-0.078125,-6.35938,6.5625,0.205078,-0.00390625,-0.00390625,4,0,41.415686962664175,-91.74778907444168,13964.58587872918,-57.079984898963176,1.3201770154652988,3.9846815127369504,175.045,12143.848679953908,13948.384352032976,150,True,22.215493478113533,False,164.02486060904423,175.4485700393762,False,20.522550719800343,True,False
2,1970-07-23 11:43:08.114422552,2025-09-17,2025-09-26 19:53:31.442,AA,D,3013389446,JASSM,3,125,76,2,2,1,225,9,2,0,1,26,0,0,0,0,-187112.06091483065,-4786953.204072799,4202650.317839146,-2.30145,-0.153206,0.128279,92.875,-14.25,-12.0,0.0,0.0,0.0,0.0,0.0,0.0,2,0,41.45020824738744,-92.23843350524426,12992.122545091352,99.82609958263563,-0.001198345505375,0.0071724339617956,,12143.848679953908,13948.384352032976,150,2,2025-09-17,2025-09-26 19:53:31.340,AA,D,2824358046,HAWK11,1,1,73,2,1,1,225,2,1,0,0,12,1,225,2,1,-146291.91443045562,-4791104.889619674,4200004.860807896,2.621,2.71006,-0.444087,-101.0,35.75,39.25,-0.21875,-6.39062,6.60938,0.167969,0.00195312,0.0195312,4,0,41.41611120433,-91.74892974030011,13961.47336211758,-56.25643288428679,1.139047522030726,13.847350112224246,175.656,12143.848679953908,13948.384352032976,150,False,22.108760906736187,False,163.45238898439035,175.38477921027197,False,21.162178078740855,True,False
2,1970-07-23 11:43:08.124459223,2025-09-17,2025-09-26 19:53:32.445,AA,D,3014641140,JASSM,3,125,76,2,2,1,225,9,2,0,1,26,0,0,0,0,-187014.5980242056,-4786968.258760299,4202637.595182896,-2.30145,-0.15311,0.128279,92.875,-14.25,-12.0,0.0,0.0,0.0,0.0,0.0,0.0,2,0,41.45005550167457,-92.2372617066865,12992.12539022691,99.82323900105996,-0.0043637943225891,0.0064692431823365,,12143.848679953908,13948.384352032976,150,2,2025-09-17,2025-09-26 19:53:32.541,AA,D,2825749878,HAWK11,1,1,73,2,1,1,225,2,1,0,0,12,1,225,2,1,-146409.80700858062,-4791057.473604049,4200049.007292271,2.8022,2.66395,-0.465563,-99.5,41.0,39.5,-0.328125,-6.82812,7.03125,0.15625,0.0117188,0.0390625,4,0,41.41666977615928,-91.75035558960452,13949.536691024325,-53.68361491352265,0.4160209872048078,23.103550681007743,176.976,12143.848679953908,13948.384352032976,150,False,21.988565919153064,False,161.52545366876114,175.30286333690506,False,23.155824223081652,True,False
2,1970-07-23 11:43:08.135499731,2025-09-17,2025-09-26 19:53:33.549,AA,D,3015894346,JASSM,3,125,76,2,2,1,225,9,2,0,1,26,0,0,0,0,-186917.01794608065,-4786983.331025924,4202624.854948521,-2.30145,-0.15311,0.128279,92.875,-14.25,-12.0,0.0,0.0,0.0,0.0,0.0,0.0,2,0,41.44990254807492,-92.2360885049328,12992.127084836831,99.8240156207016,-0.0034712369285223,0.0064685640560831,,12143.848679953908,13948.384352032976,150,2,2025-09-17,2025-09-26 19:53:33.431,AA,D,2826823578,HAWK11,1,1,73,2,1,1,225,2,1,0,0,12,1,225,2,1,-146499.41052420562,-4791018.415986861,4200085.159636021,2.9045,2.64631,-0.46192,-98.0,44.0,41.75,0.0625,-6.92188,7.10938,0.0722656,0.00976562,0.0332031,4,0,41.417129805960144,-91.7514404179603,13938.686319389582,-53.15650885609672,-0.3460594233890783,28.513091900086597,177.648,12143.848679953908,13948.384352032976,150,False,21.884157843312586,False,159.55782082907064,175.23165858810938,False,25.188628372900578,True,False
2,1970-07-23 11:43:08.145381411,2025-09-17,2025-09-26 19:53:34.538,AA,D,3017146538,JASSM,3,125,76,2,2,1,225,9,2,0,1,26,0,0,0,0,-186819.5159929556,-4786998.389619674,4202612.124479771,-2.30145,-0.15311,0.128375,92.875,-14.25,-12.0,0.0,0.0,0.0,0.0,0.0,0.0,2,0,41.44974971159996,-92.23491624872678,12992.128973493687,99.8288821769811,-0.0062457702112721,0.0064675768240993,,12143.848679953908,13948.384352032976,150,2,2025-09-17,2025-09-26 19:53:34.339,AA,D,2827976810,HAWK11,1,1,73,2,1,1,225,2,1,0,0,12,1,225,2,1,-146593.53552420562,-4790973.434541549,4200126.349089146,2.97017,2.60738,-0.471699,-95.875,48.0,44.5,-0.140625,-7.35938,7.54688,0.0585938,0.0253906,0.0585938,4,0,41.41765823687879,-91.75258145067124,13924.546621419826,-51.29557915139442,-1.2479143603504128,31.246319097072604,179.004,12143.848679953908,13948.384352032976,150,False,21.7769458615801,False,157.00234805616486,175.14973571229893,False,27.816368982645233,True,False
2,1970-07-23 11:43:08.155418681,2025-09-17,2025-09-26 19:53:35.541,AA,D,3018339584,JASSM,3,125,76,2,2,1,225,9,2,0,1,26,0,0,0,0,-186726.61950858065,-4787012.735322799,4202599.993620396,-2.30145,-0.15311,0.128375,92.875,-14.25,-12.0,0.0,0.0,0.0,0.0,0.0,0.0,2,0,41.44960408119719,-92.23379936947664,12992.127845585012,99.82962150864236,-0.0053960550136033,0.0064669949433322,,12143.848679953908,13948.384352032976,150,2,2025-09-17,2025-09-26 19:53:35.729,AA,D,2829607242,HAWK11,1,1,73,2,1,1,225,2,1,0,0,12,1,225,2,1,-146723.56091483062,-4790902.868135299,4200190.786589146,3.04716,2.56012,-0.4926,-92.125,53.625,49.75,-0.171875,-8.125,8.28125,0.0136719,0.0371094,0.046875,4,0,41.41848921105232,-91.75416080385128,13900.658232503596,-48.692511096148856,-1.8901247375536812,34.33016168342202,181.204,12143.848679953908,13948.384352032976,150,False,21.65108494234313,False,152.87453829913687,175.02477044760582,False,32.06715948046807,False,False
2,1970-07-23 11:43:08.165460912,2025-09-17,2025-09-26 19:53:36.546,AA,D,3019473182,JASSM,3,125,76,2,2,1,225,9,2,0,1,26,0,0,0,0,-186638.35388358065,-4787026.364229049,4202588.466276646,-2.30145,-0.15311,0.128375,92.875,-14.25,-12.0,0.0,0.0,0.0,0.0,0.0,0.0,2,0,41.449465702183865,-92.23273817169752,12992.124332656316,99.83032397930418,-0.0045886987040552,0.006466443715341,,12143.848679953908,13948.384352032976,150,2,2025-09-17,2025-09-26 19:53:36.729,AA,D,2830760474,HAWK11,1,1,73,2,1,1,225,2,1,0,0,12,1,225,2,1,-146811.45935233062,-4790848.594697799,4200240.858854771,3.09001,2.51956,-0.512541,-88.875,57.625,54.125,-0.140625,-8.46875,8.67188,0.0390625,0.0390625,0.0585938,4,0,41.4191339757024,-91.75523089241484,13882.494874163694,-46.39122209675365,-2.2884134494816037,35.58231977309581,182.939,12143.848679953908,13948.384352032976,150,False,21.551621548792518,False,149.66615005057056,174.92303706556908,False,35.38025374223085,False,False
2,1970-07-23 11:43:08.174517936,2025-09-17,2025-09-26 19:53:37.451,AA,D,3020606372,JASSM,3,125,76,2,2,1,225,9,2,0,1,26,0,0,0,0,-186550.1175554556,-4787039.989229049,4202576.942839146,-2.30145,-0.15311,0.128375,92.875,-14.25,-12.0,0.0,0.0,0.0,0.0,0.0,0.0,2,0,41.44932735617908,-92.23167733036836,12992.126673157409,99.83102621208266,-0.0037816096028027,0.0064658895812569,,12143.848679953908,13948.384352032976,150,2,2025-09-17,2025-09-26 19:53:37.339,AA,D,2831516040,HAWK11,1,1,73,2,1,1,225,2,1,0,0,12,1,225,2,1,-146868.12927420562,-4790810.099580611,4200276.825651646,3.13095,2.48956,-0.527306,-86.5,60.5,57.375,-0.0625,-8.9375,9.0625,0.0371094,0.0390625,0.0507812,4,0,41.419595371152845,-91.75592209606911,13870.168197934165,-44.69390154646791,-2.542052651334998,37.00211568394219,183.721,12143.848679953908,13948.384352032976,150,False,21.470135985029845,False,147.3694237934081,174.8455157356594,False,37.75684118463452,False,False
2,1970-07-23 11:43:08.184410807,2025-09-17,2025-09-26 19:53:38.441,AA,D,3021739804,JASSM,3,125,76,2,2,1,225,9,2,0,1,26,0,0,0,0,-186461.86169608065,-4787053.614229049,4202565.415495396,-2.30145,-0.15311,0.128375,92.875,-14.25,-12.0,0.0,0.0,0.0,0.0,0.0,0.0,2,0,41.4491889785705,-92.23061626013356,12992.12282117595,99.8317285944582,-0.0029743443728445,0.0064653437862004,,12143.848679953908,13948.384352032976,150,2,2025-09-17,2025-09-26 19:53:38.541,AA,D,2832709038,HAWK11,1,1,73,2,1,1,225,2,1,0,0,12,1,225,2,1,-146952.50818045562,-4790746.850557174,4200337.011198521,-3.09135,2.43366,-0.568532,-81.5,64.5,62.75,-0.15625,-9.45312,9.625,0.0253906,0.0527344,0.0488281,4,0,41.42036240734035,-91.7569534601129,13851.63026657132,-41.08827786337218,-2.2814826450201044,38.66960301432961,185.261,12143.848679953908,13948.384352032976,150,False,21.371941114135506,False,143.4726408442177,174.72215889631522,False,41.78346394076243,False,False
2,1970-07-23 11:43:08.193458525,2025-09-17,2025-09-26 19:53:39.345,AA,D,3022814116,JASSM,3,125,76,2,2,1,225,9,2,0,1,26,0,0,0,0,-186378.2113054556,-4787066.530244674,4202554.489714146,-2.30145,-0.15311,0.128375,92.875,-14.25,-12.0,0.0,0.0,0.0,0.0,0.0,0.0,2,0,41.44905780113307,-92.2296105631128,12992.12801782164,99.83239432039316,-0.0022092020661692,0.0064648149591071,,12143.848679953908,13948.384352032976,150,2,2025-09-17,2025-09-26 19:53:39.431,AA,D,2833862270,HAWK11,1,1,73,2,1,1,225,2,1,0,0,12,1,225,2,1,-147028.40271170562,-4790681.833955611,4200400.272917271,-3.0229,2.36262,-0.610333,-75.625,68.625,68.0,-0.0625,-9.9375,10.0469,0.0390625,0.0664062,0.0410156,4,0,41.42116225825439,-91.75788412221335,13834.79007257206,-36.94120531405122,-2.229662024262951,40.16458693778807,186.63,12143.848679953908,13948.384352032976,150,False,21.280721218905875,False,139.3512305339452,174.59201826308507,False,46.038807645032776,False,False
2,1970-07-23 11:43:08.202498201,2025-09-17,2025-09-26 19:53:40.249,AA,D,3023889264,JASSM,3,125,76,2,2,1,225,9,2,0,1,26,0,0,0,0,-186294.49450858065,-4787079.452119674,4202543.554167271,-2.30145,-0.15311,0.128375,92.875,-14.25,-12.0,0.0,0.0,0.0,0.0,0.0,0.0,2,0,41.44892652954184,-92.22860407381552,12992.123792904757,99.8330605690438,-0.0014434570484085,0.0064643039280891,,12143.848679953908,13948.384352032976,150,2,2025-09-17,2025-09-26 19:53:40.337,AA,D,2835174568,HAWK11,1,1,73,2,1,1,225,2,1,0,0,12,1,225,2,1,-147107.63318045562,-4790603.213838424,4200479.233854771,-2.94285,2.27202,-0.665268,-67.875,72.125,74.5,-0.21875,-10.5781,10.7188,0.0078125,0.0625,0.0625,4,0,41.42214836425031,-91.75885966022618,13818.834721130175,-31.73752311481246,-1.746219219916585,41.477336224452365,187.754,12143.848679953908,13948.384352032976,150,False,21.186714440574665,False,134.48178539772368,174.43114999788443,False,51.07716600270548,False,False
2,1970-07-23 11:43:08.211398925,2025-09-17,2025-09-26 19:53:41.139,AA,D,3025021782,JASSM,3,125,76,2,2,1,225,9,2,0,1,26,0,0,0,0,-186206.31091483065,-4787093.065400924,4202532.034636021,-2.30145,-0.153015,0.128375,92.875,-14.25,-12.0,0.0,0.0,0.0,0.0,0.0,0.0,2,0,41.44878822928982,-92.22754388571714,12992.127074145566,99.8301261823864,-0.0046937788354697,0.0057606683469615,,12143.848679953908,13948.384352032976,150,2,2025-09-17,2025-09-26 19:53:41.041,AA,D,2835890368,HAWK11,1,1,73,2,1,1,225,2,1,0,0,12,1,225,2,1,-147146.80896170562,-4790559.290986861,4200525.028776646,-2.90565,2.21593,-0.698728,-63.0,73.75,78.0,-0.265625,-10.9062,11.0938,0.00195312,0.0742188,0.0585938,4,0,41.42271154737102,-91.75934388288658,13813.191065388904,-28.62544519693944,-1.280599922486739,41.50027595470982,188.463,12143.848679953908,13948.384352032976,150,False,21.114342873697588,False,131.6667978846803,174.33186820447943,False,53.99487653488427,False,False
2,1970-07-23 11:43:08.221439585,2025-09-17,2025-09-26 19:53:42.143,AA,D,3026155982,JASSM,3,125,76,2,2,1,225,9,2,0,1,26,0,0,0,0,-186117.9964617056,-4787106.696260299,4202520.495573521,-2.30145,-0.153015,0.128375,92.875,-14.25,-12.0,0.0,0.0,0.0,0.0,0.0,0.0,2,0,41.44864971318968,-92.22648213009316,12992.122786556904,99.83082901098362,-0.0038859772667498,0.0057600622559535,,12143.848679953908,13948.384352032976,150,2,2025-09-17,2025-09-26 19:53:42.041,AA,D,2837083366,HAWK11,1,1,73,2,1,1,225,2,1,0,0,12,1,225,2,1,-147204.92224295562,-4790483.476533736,4200606.011198521,-2.83767,2.12082,-0.745898,-53.875,76.5,83.75,-0.171875,-11.2812,11.4375,0.0,0.0800781,0.0625,4,0,41.42369844849601,-91.76006610765268,13806.941764284997,-23.765675628499952,-0.656038904411015,41.70766490539881,189.575,12143.848679953908,13948.384352032976,150,False,21.029463343316895,False,126.64004000251032,174.16528693404751,False,59.19180485667227,False,False
2,1970-07-23 11:43:08.230499896,2025-09-17,2025-09-26 19:53:43.049,AA,D,3027289166,JASSM,3,125,76,2,2,1,225,9,2,0,1,26,0,0,0,0,-186029.7620867056,-4787120.315400924,4202508.968229771,-2.30145,-0.153015,0.128375,92.875,-14.25,-12.0,0.0,0.0,0.0,0.0,0.0,0.0,2,0,41.448511317554015,-92.22542134141682,12992.126967122913,99.83153119758012,-0.0030789087184278,0.00575946130258,,12143.848679953908,13948.384352032976,150,2,2025-09-17,2025-09-26 19:53:42.933,AA,D,2838196832,HAWK11,1,1,73,2,1,1,225,2,1,0,0,12,1,225,2,1,-147250.84607108062,-4790409.511689986,4200687.575651646,-2.76443,2.01805,-0.793643,-44.625,78.25,88.875,-0.375,-11.7969,11.9062,-0.00195312,0.0820312,0.0605469,4,0,41.42468049587604,-91.76064202075638,13805.590604518247,-18.818454936824896,0.2750862987921136,41.78664745526266,190.162,12143.848679953908,13948.384352032976,150,False,20.95139263426527,False,121.85392280078725,173.9968219149083,False,64.14864192513886,False,False
2,1970-07-23 11:43:08.240378036,2025-09-17,2025-09-26 19:53:44.037,AA,D,3028422366,JASSM,3,125,76,2,2,1,225,9,2,0,1,26,0,0,0,0,-185941.5238054556,-4787133.932588424,4202497.438932896,-2.30145,-0.153015,0.128471,92.875,-14.25,-12.0,0.0,0.0,0.0,0.0,0.0,0.0,2,0,41.448372911488384,-92.22436051147416,12992.125893944718,99.83632401984538,-0.0059381300285213,0.0057585724623447,,12143.848679953908,13948.384352032976,150,2,2025-09-17,2025-09-26 19:53:44.135,AA,D,2839429598,HAWK11,1,1,73,2,1,1,225,2,1,0,0,12,1,225,2,1,-147290.49646170562,-4790328.100557174,4200781.948698521,-2.66826,1.89101,-0.836882,-33.75,78.875,94.0,-0.125,-11.4375,11.6562,0.00585938,0.0605469,0.0546875,4,0,41.42579441645061,-91.76114572331322,13813.267528086935,-13.315487456733898,1.1296810955320598,42.06126470932168,189.893,12143.848679953908,13948.384352032976,150,False,20.87622915179563,False,116.53991338592213,173.8048034280525,False,69.65511671711307,False,False
2,1970-07-23 11:43:08.250916918,2025-09-17,2025-09-26 19:53:45.091,AA,D,3029615238,JASSM,3,125,76,2,2,1,225,9,2,0,1,26,0,0,0,0,-185848.6409929556,-4787148.266572799,4202485.302214146,-2.30145,-0.153015,0.128471,92.875,-14.25,-12.0,0.0,0.0,0.0,0.0,0.0,0.0,2,0,41.44822720564468,-92.22324384828656,12992.128132965869,99.83706318836404,-0.0050885439386453,0.0057580019809711,,12143.848679953908,13948.384352032976,150,2,2025-09-17,2025-09-26 19:53:45.337,AA,D,2841020262,HAWK11,1,1,73,2,1,1,225,2,1,0,0,12,1,225,2,1,-147323.93005545562,-4790219.039033736,4200910.448698521,-2.53615,1.73474,-0.866603,-18.75,80.5,97.875,-0.265625,-10.6406,10.6719,-0.0136719,0.0605469,0.0683594,4,0,41.42730425937797,-91.76158531621348,13826.579767143256,-7.198096563409791,1.6056173334487536,43.03320996223095,188.549,12143.848679953908,13948.384352032976,150,False,20.800202561692352,False,109.56169723189605,173.54500396259996,False,76.89277126336972,False,False
2,1970-07-23 11:43:08.259477483,2025-09-17,2025-09-26 19:53:45.947,AA,D,3030688980,JASSM,3,125,76,2,2,1,225,9,2,0,1,26,0,0,0,0,-185765.0355242056,-4787161.166963424,4202474.374479771,-2.30145,-0.153015,0.128471,92.875,-14.25,-12.0,0.0,0.0,0.0,0.0,0.0,0.0,2,0,41.44809603318758,-92.22223872507094,12992.122386833733,99.8377285218386,-0.0043238152010204,0.0057574777236959,,12143.848679953908,13948.384352032976,150,2,2025-09-17,2025-09-26 19:53:46.229,AA,D,2842014428,HAWK11,1,1,73,2,1,1,225,2,1,0,0,12,1,225,2,1,-147336.26013358062,-4790151.388643111,4200992.827604771,-2.45082,1.62132,-0.873506,-10.625,80.5,99.5,-0.1875,-10.1094,10.1406,0.0,0.0527344,0.0546875,4,0,41.42826036505648,-91.76175752175494,13840.007201193075,-2.98942413158336,1.5675700676638735,43.06935273600909,187.705,12143.848679953908,13948.384352032976,150,False,20.743547709369835,False,105.87625097227605,173.3742565972428,False,80.74838445796712,False,False
2,1970-07-23 11:43:08.269517576,2025-09-17,2025-09-26 19:53:46.951,AA,D,3031882782,JASSM,3,125,76,2,2,1,225,9,2,0,1,26,0,0,0,0,-185672.0784929556,-4787175.510713424,4202462.226042271,-2.30145,-0.153015,0.128471,92.875,-14.25,-12.0,0.0,0.0,0.0,0.0,0.0,0.0,2,0,41.44795018671093,-92.22112117989262,12992.124859415802,99.83846827012098,-0.0034735501677825,0.00575690307729,,12143.848679953908,13948.384352032976,150,2,2025-09-17,2025-09-26 19:53:46.852,AA,D,2842571162,HAWK11,1,1,73,2,1,1,225,2,1,0,0,12,1,225,2,1,-147339.09997733062,-4790112.947236861,4201038.132292271,-2.39608,1.56524,-0.874369,-5.75,80.875,99.875,-0.25,-10.0781,10.1094,0.0078125,0.0527344,0.0546875,4,0,41.4287942607426,-91.76180558722342,13844.055322858369,-0.9260647213938304,1.5351974331879816,43.79726123134397,187.632,12143.848679953908,13948.384352032976,150,False,20.688953415438057,False,103.69503733457479,173.26985954752348,False,83.03419060888572,False,False
2,1970-07-23 11:43:08.279398574,2025-09-17,2025-09-26 19:53:47.939,AA,D,3033075556,JASSM,3,125,76,2,2,1,225,9,2,0,1,26,0,0,0,0,-185579.2034929556,-4787189.840791549,4202450.087370396,-2.30145,-0.153015,0.128471,92.875,-14.25,-12.0,0.0,0.0,0.0,0.0,0.0,0.0,2,0,41.44780445768786,-92.22000462637716,12992.127375493206,99.8392073598436,-0.0026240357194364,0.0057563284368254,,12143.848679953908,13948.384352032976,150,2,2025-09-17,2025-09-26 19:53:48.041,AA,D,2844122060,HAWK11,1,1,73,2,1,1,225,2,1,0,0,12,1,225,2,1,-147337.73278983062,-4790006.341768111,4201167.294401646,-2.27988,1.39707,-0.867274,7.0,80.75,100.25,-0.3125,-9.53125,9.67188,-0.015625,0.0527344,0.0488281,4,0,41.43030031774576,-91.76182843473192,13862.241288602276,5.290391995751819,1.4050824168334315,43.238017221760174,187.107,12143.848679953908,13948.384352032976,150,False,20.632554020215785,False,98.01907389887351,173.0035338492602,False,88.9765870244883,False,False
2,1970-07-23 11:43:08.289357470,2025-09-17,2025-09-26 19:53:48.935,AA,D,3034268896,JASSM,3,125,76,2,2,1,225,9,2,0,1,26,0,0,0,0,-185486.28357108065,-4787204.174775924,4202437.940886021,-2.30145,-0.153015,0.128471,92.875,-14.25,-12.0,0.0,0.0,0.0,0.0,0.0,0.0,2,0,41.44765865224081,-92.21888753920786,12992.122856277769,99.8399468006733,-0.0017741122295121,0.0057557581358452,,12143.848679953908,13948.384352032976,150,2,2025-09-17,2025-09-26 19:53:48.931,AA,D,2845275292,HAWK11,1,1,73,2,1,1,225,2,1,0,0,12,1,225,2,1,-147325.59997733062,-4789926.985322799,4201262.933073521,-2.18669,1.27713,-0.853852,16.25,80.125,99.875,-0.171875,-9.76562,9.89062,0.0195312,0.0566406,0.0585938,4,0,41.43142001743659,-91.76171261301612,13873.8430113175,9.83542163116728,1.323614180081267,43.47256200851785,187.107,12143.848679953908,13948.384352032976,150,False,20.58389442212345,False,93.89763321082549,172.79916066904045,False,93.30245243170567,False,False
2,1970-07-23 11:43:08.299717257,2025-09-17,2025-09-26 19:53:49.971,AA,D,3035461310,JASSM,3,125,76,2,2,1,225,9,2,0,1,26,0,0,0,0,-185393.43591483065,-4787218.498994674,4202425.804167271,-2.30145,-0.152919,0.128471,92.875,-14.25,-12.0,0.0,0.0,0.0,0.0,0.0,0.0,2,0,41.447512943276806,-92.21777132517524,12992.127038386812,99.83704957709467,-0.0049817701427971,0.0050515957081774,,12143.848679953908,13948.384352032976,150,2,2025-09-17,2025-09-26 19:53:49.837,AA,D,2846229690,HAWK11,1,1,73,2,1,1,225,2,1,0,0,12,1,225,2,1,-147308.37341483062,-4789861.512666549,4201341.304167271,-2.10107,1.1804,-0.837937,24.25,79.5,99.0,-0.171875,-9.85938,9.8125,0.0078125,0.0546875,0.0664062,4,0,41.43234152991636,-91.76153081125716,13881.71352857986,13.621840300231634,1.2814055549883958,44.31355110730579,187.155,12143.848679953908,13948.384352032976,150,False,20.53902618036613,False,90.32126323007434,172.62649562635525,False,97.05172709287145,False,False
2,1970-07-23 11:43:08.309457341,2025-09-17,2025-09-26 19:53:50.945,AA,D,3036655054,JASSM,3,125,76,2,2,1,225,9,2,0,1,26,0,0,0,0,-185300.4847429556,-4787232.836885299,4202413.651823521,-2.30145,-0.152919,0.128471,92.875,-14.25,-12.0,0.0,0.0,0.0,0.0,0.0,0.0,2,0,41.4473670605663,-92.21665387274533,12992.125644928976,99.83778925546986,-0.0041315600065549,0.0050509646931047,,12143.848679953908,13948.384352032976,150,2,2025-09-17,2025-09-26 19:53:51.041,AA,D,2847939656,HAWK11,1,1,73,2,1,1,225,2,1,0,0,12,1,225,2,1,-147261.76208670562,-4789746.265596236,4201481.280729771,-1.99034,1.00092,-0.79767,38.875,76.75,96.75,-0.328125,-10.6719,10.7812,-0.0078125,0.0683594,0.0566406,4,0,41.43398024594641,-91.76101612300268,13898.746636746451,21.01732442633542,1.3937869477896274,43.31711081378721,187.828,12143.848679953908,13948.384352032976,150,False,20.50751747449725,False,83.65278410429636,172.33151471389147,False,104.01502480381279,False,False
2,1970-07-23 11:43:08.318502837,2025-09-17,2025-09-26 19:53:51.850,AA,D,3037788590,JASSM,3,125,76,2,2,1,225,9,2,0,1,26,0,0,0,0,-185212.22107108065,-4787246.450166549,4202402.112761021,-2.30145,-0.152919,0.128471,92.875,-14.25,-12.0,0.0,0.0,0.0,0.0,0.0,0.0,2,0,41.44722853685755,-92.21559277846212,12992.125737190414,99.83849162655773,-0.0033242283154799,0.005050377419891,,12143.848679953908,13948.384352032976,150,2,2025-09-17,2025-09-26 19:53:51.931,AA,D,2848894054,HAWK11,1,1,73,2,1,1,225,2,1,0,0,12,1,225,2,1,-147225.75818045562,-4789684.255830611,4201557.009245396,-1.93435,0.917608,-0.77466,47.0,74.5,95.125,-0.3125,-10.2969,10.3438,0.0078125,0.0507812,0.0605469,4,0,41.434866753605625,-91.76060862375355,13907.98963517216,24.63461066716828,1.5811007399335515,43.23990238640738,187.546,12143.848679953908,13948.384352032976,150,False,20.4758689890381,False,79.86030894403517,172.16289663437297,False,107.97569897942545,False,False
2,1970-07-23 11:43:08.329717662,2025-09-17,2025-09-26 19:53:52.971,AA,D,3038979288,JASSM,3,125,76,2,2,1,225,9,2,0,1,26,0,0,0,0,-185119.50622733065,-4787260.748994674,4202389.989714146,-2.30145,-0.152919,0.128471,92.875,-14.25,-12.0,0.0,0.0,0.0,0.0,0.0,0.0,2,0,41.44708300868337,-92.21447817808722,12992.12343383528,99.83922941290128,-0.0024761814933426,0.0050497524347684,,12143.848679953908,13948.384352032976,150,2,2025-09-17,2025-09-26 19:53:53.135,AA,D,2850325654,HAWK11,1,1,73,2,1,1,225,2,1,0,0,12,1,225,2,1,-147161.09216483062,-4789594.601533736,4201667.481901646,-1.84509,0.801026,-0.727395,58.125,71.25,91.625,-0.265625,-9.84375,9.875,0.0,0.0683594,0.0546875,4,0,41.43615741231252,-91.75986871833078,13922.546232519198,30.21744282592499,1.4998110880441191,43.94213939018422,187.033,12143.848679953908,13948.384352032976,150,False,20.456131654777767,False,74.51181467732413,171.923648424763,False,113.56348673616914,False,False
2,1970-07-23 11:43:08.338436330,2025-09-17,2025-09-26 19:53:53.843,AA,D,3040172334,JASSM,3,125,76,2,2,1,225,9,2,0,1,26,0,0,0,0,-185026.6097429556,-4787275.077119674,4202377.843229771,-2.30145,-0.152919,0.128567,92.875,-14.25,-12.0,0.0,0.0,0.0,0.0,0.0,0.0,2,0,41.44693717903856,-92.21336139846616,12992.129567166014,99.844059295307,-0.0052927449557676,0.0050488738133987,,12143.848679953908,13948.384352032976,150,2,2025-09-17,2025-09-26 19:53:53.729,AA,D,2851041452,HAWK11,1,1,73,2,1,1,225,2,1,0,0,12,1,225,2,1,-147123.55505545562,-4789551.193330611,4201720.538542271,-1.81,0.747432,-0.701509,63.5,69.5,89.375,-0.15625,-9.65625,9.79688,-0.0195312,0.0488281,0.0566406,4,0,41.43678054167477,-91.7594360378562,13928.192008739654,32.97103976922534,1.4393141130231284,44.01095261347167,186.948,12143.848679953908,13948.384352032976,150,False,20.42399795266321,False,71.82861365512044,171.79700691616392,False,116.37355739379575,False,False
2,1970-07-23 11:43:08.348517828,2025-09-17,2025-09-26 19:53:54.851,AA,D,3041306482,JASSM,3,125,76,2,2,1,225,9,2,0,1,26,0,0,0,0,-184938.29919608065,-4787288.694307174,4202366.294401646,-2.30145,-0.152919,0.128567,92.875,-14.25,-12.0,0.0,0.0,0.0,0.0,0.0,0.0,2,0,41.44679854661243,-92.2122997562102,12992.126518160028,99.84476202315108,-0.0044849847287455,0.0050483389020231,,12143.848679953908,13948.384352032976,150,2,2025-09-17,2025-09-26 19:53:54.935,AA,D,2852433284,HAWK11,1,1,73,2,1,1,225,2,1,0,0,12,1,225,2,1,-147041.79919608062,-4789470.031221236,4201819.737761021,-1.7567,0.655106,-0.642642,73.125,65.875,84.75,-0.046875,-9.28125,9.32812,0.0,0.0507812,0.0566406,4,0,41.43794772141949,-91.75848872167956,13937.87675399751,38.28805338357832,0.94984956190175,43.87975017527916,186.752,12143.848679953908,13948.384352032976,150,False,20.416714009229366,False,66.85537984254894,171.57783316924363,False,121.56631877627639,False,False
2,1970-07-23 11:43:08.357417044,2025-09-17,2025-09-26 19:53:55.741,AA,D,3042440306,JASSM,3,125,76,2,2,1,225,9,2,0,1,26,0,0,0,0,-184850.0120867056,-4787302.307588424,4202354.747526646,-2.30145,-0.152919,0.128567,92.875,-14.25,-12.0,0.0,0.0,0.0,0.0,0.0,0.0,2,0,41.44665993542243,-92.21123840036546,12992.12450270519,99.84546455948043,-0.0036774379752553,0.0050477984024105,,12143.848679953908,13948.384352032976,150,2,2025-09-17,2025-09-26 19:53:55.839,AA,D,2853626282,HAWK11,1,1,73,2,1,1,225,2,1,0,0,12,1,225,2,1,-146960.95349295562,-4789402.606416549,4201898.575651646,-1.71221,0.592596,-0.591733,81.375,63.25,79.625,0.0,-9.09375,9.125,-0.00195312,0.0429688,0.0605469,4,0,41.43889561283025,-91.7575472124778,13937.202054244552,42.371113554924456,0.3431389115091701,44.40082051191753,186.874,12143.848679953908,13948.384352032976,150,False,20.409777363908486,False,62.477579514773666,171.3954242655167,False,126.1269719521385,False,False
2,1970-07-23 11:43:08.367457332,2025-09-17,2025-09-26 19:53:56.745,AA,D,3043632532,JASSM,3,125,76,2,2,1,225,9,2,0,1,26,0,0,0,0,-184757.1800554556,-4787316.622041549,4202342.606901646,-2.30145,-0.152919,0.128567,92.875,-14.25,-12.0,0.0,0.0,0.0,0.0,0.0,0.0,2,0,41.44651418040539,-92.21012241180578,12992.129253678791,99.84620325640113,-0.0028283198581591,0.0050472323133186,,12143.848679953908,13948.384352032976,150,2,2025-09-17,2025-09-26 19:53:56.731,AA,D,2854461382,HAWK11,1,1,73,2,1,1,225,2,1,0,0,12,1,225,2,1,-146901.58239920562,-4789358.606416549,4201951.040495396,-1.67405,0.539961,-0.55463,86.75,60.875,75.75,-0.1875,-9.60938,9.70312,0.0078125,0.0625,0.0507812,4,0,41.43952224922761,-91.75685375200152,13938.475975098045,45.67732779793073,0.2468183546104262,44.96816999999051,187.229,12143.848679953908,13948.384352032976,150,False,20.389819033745837,False,59.40476030660424,171.26639010670206,False,129.3284072084672,False,False
2,1970-07-23 11:43:08.377498134,2025-09-17,2025-09-26 19:53:57.749,AA,D,3044766534,JASSM,3,125,76,2,2,1,225,9,2,0,1,26,0,0,0,0,-184668.8792742056,-4787330.235322799,4202331.056120396,-2.30145,-0.152823,0.128567,92.875,-14.25,-12.0,0.0,0.0,0.0,0.0,0.0,0.0,2,0,41.44637552591266,-92.20906090184543,12992.126003879286,99.84326990169568,-0.0060775650756214,0.004342650413167,,12143.848679953908,13948.384352032976,150,2,2025-09-17,2025-09-26 19:53:57.641,AA,D,2855773680,HAWK11,1,1,73,2,1,1,225,2,1,0,0,12,1,225,2,1,-146799.70349295562,-4789292.753877486,4202030.114714146,-1.63081,0.46192,-0.492312,94.875,56.0,70.0,-0.375,-9.85938,9.85938,-0.00585938,0.0644531,0.0605469,4,0,41.44046620014824,-91.75566022970064,13940.609582779536,50.9397814043505,0.02479632483215,45.22101828991712,187.595,12143.848679953908,13948.384352032976,150,False,20.394565854197417,False,54.53635695076259,171.08362364650228,False,134.37932237961175,False,False
2,1970-07-23 11:43:08.386378625,2025-09-17,2025-09-26 19:53:58.637,AA,D,3045900020,JASSM,3,125,76,2,2,1,225,9,2,0,1,26,0,0,0,0,-184580.61950858065,-4787343.840791549,4202319.511198521,-2.30145,-0.152823,0.128567,92.875,-14.25,-12.0,0.0,0.0,0.0,0.0,0.0,0.0,2,0,41.446236938229056,-92.2079998901582,12992.124332546317,99.84397220436658,-0.0052702714192126,0.0043420688256291,,12143.848679953908,13948.384352032976,150,2,2025-09-17,2025-09-26 19:53:58.547,AA,D,2856569014,HAWK11,1,1,73,2,1,1,225,2,1,0,0,12,1,225,2,1,-146734.47693045562,-4789256.183564986,4202073.974089146,-1.61164,0.413312,-0.453195,99.75,52.625,65.75,-0.296875,-10.2188,10.2188,-0.0195312,0.0566406,0.0546875,4,0,41.44099162213725,-91.75489402815532,13941.031639071578,54.282379102212026,0.0180881799125593,45.05239032510581,188.035,12143.848679953908,13948.384352032976,150,False,20.380698282298106,False,51.33808271118058,170.97215319463342,False,137.68859928752627,False,False
2,1970-07-23 11:43:08.396421145,2025-09-17,2025-09-26 19:53:59.642,AA,D,3047094250,JASSM,3,125,76,2,2,1,225,9,2,0,1,26,0,0,0,0,-184487.63122733065,-4787358.176729049,4202307.347136021,-2.30145,-0.152823,0.128567,92.875,-14.25,-12.0,0.0,0.0,0.0,0.0,0.0,0.0,2,0,41.44609090166959,-92.20688203895408,12992.129548429562,99.8447121280444,-0.0044197241667164,0.0043414428755572,,12143.848679953908,13948.384352032976,150,2,2025-09-17,2025-09-26 19:53:59.437,AA,D,2857762012,HAWK11,1,1,73,2,1,1,225,2,1,0,0,12,1,225,2,1,-146630.73083670562,-4789205.888643111,4202135.644011021,-1.59035,0.344283,-0.394137,106.375,46.875,59.625,-0.46875,-10.4219,10.4688,-0.00585938,0.0605469,0.0625,4,0,41.44172589082678,-91.7536724403632,13943.4939298905,59.22702362448028,0.0409646723162142,44.64733463023922,188.267,12143.848679953908,13948.384352032976,150,False,20.384662091522813,False,46.64345126041544,170.82335268724114,False,142.532260216262,False,False
2,1970-07-23 11:43:08.406454907,2025-09-17,2025-09-26 19:54:00.645,AA,D,3048287296,JASSM,3,125,76,2,2,1,225,9,2,0,1,26,0,0,0,0,-184394.73278983065,-4787372.495088424,4202295.192839146,-2.30145,-0.152823,0.128567,92.875,-14.25,-12.0,0.0,0.0,0.0,0.0,0.0,0.0,2,0,41.44594500413752,-92.20576527452164,12992.125899053548,99.84545133022812,-0.0035700014460906,0.0043408259185593,,12143.848679953908,13948.384352032976,150,2,2025-09-17,2025-09-26 19:54:00.635,AA,D,2859352676,HAWK11,1,1,73,2,1,1,225,2,1,0,0,12,1,225,2,1,-146482.75232108062,-4789148.553682174,4202208.698698521,-1.55133,0.250518,-0.314178,113.875,38.125,51.25,-0.09375,-10.375,10.5156,-0.00195312,0.0625,0.0488281,4,0,41.44258689844021,-91.75192471258674,13950.054520294998,66.0281122026696,0.3878733154816755,45.04287896616979,188.475,12143.848679953908,13948.384352032976,150,False,20.412397323149378,False,40.40554454968221,170.65249227751565,False,148.94194323523064,False,False
2,1970-07-23 11:43:08.416496777,2025-09-17,2025-09-26 19:54:01.649,AA,D,3049418926,JASSM,3,125,76,2,2,1,225,9,2,0,1,26,0,0,0,0,-184306.6175554556,-4787386.077119674,4202283.663542271,-2.30145,-0.152823,0.128567,92.875,-14.25,-12.0,0.0,0.0,0.0,0.0,0.0,0.0,2,0,41.44580659781615,-92.20470601484595,12992.127166202285,99.84615246722169,-0.0027640275148862,0.0043402300858718,,12143.848679953908,13948.384352032976,150,2,2025-09-17,2025-09-26 19:54:01.541,AA,D,2860426376,HAWK11,1,1,73,2,1,1,225,2,1,0,0,12,1,225,2,1,-146378.44372733062,-4789116.629854049,4202250.538542271,-1.53734,0.199897,-0.257709,118.25,32.375,44.75,-0.328125,-10.1094,10.1406,-0.015625,0.0585938,0.0605469,4,0,41.44307812583,-91.7506896274224,13954.593747402438,70.290950755773,0.1786926038926102,45.04749391164723,188.39,12143.848679953908,13948.384352032976,150,False,20.420010403306197,False,36.13903641838125,170.54593210953786,False,153.31502633534774,False,False
2,1970-07-23 11:43:08.425397577,2025-09-17,2025-09-26 19:54:02.539,AA,D,3050492842,JASSM,3,125,76,2,2,1,225,9,2,0,1,26,0,0,0,0,-184222.9964617056,-4787398.963838424,4202272.722136021,-2.30145,-0.152823,0.128567,92.875,-14.125,-12.0,0.0,0.0,0.0,0.0,0.0,0.0,2,0,41.44567525608231,-92.20370078593751,12992.12554538929,99.84681783880448,-0.0019991640024194,0.0043396787157235,,12143.848679953908,13948.384352032976,150,2,2025-09-17,2025-09-26 19:54:02.431,AA,D,2861301242,HAWK11,1,1,73,2,1,1,225,2,1,0,0,12,1,225,2,1,-146290.44958670562,-4789094.224580611,4202280.392057896,-1.58959,0.15685,-0.217346,121.125,27.625,39.25,-0.203125,-10.1719,10.1562,-0.103516,0.0566406,0.0625,4,0,41.44342886457175,-91.74964605016858,13957.734850270832,73.61725216302362,0.364761670485073,41.489032578699565,188.316,12143.848679953908,13948.384352032976,150,False,20.421565008814728,False,32.658723246926826,170.5115523385432,False,156.8295418627539,False,False
2,1970-07-23 11:43:08.435717432,2025-09-17,2025-09-26 19:54:03.571,AA,D,3051625580,JASSM,3,125,76,2,2,1,225,9,2,0,1,26,0,0,0,0,-184134.79528983065,-4787412.557588424,4202261.181120396,-2.30145,-0.152823,0.128663,92.875,-14.125,-12.0,0.0,0.0,0.0,0.0,0.0,0.0,2,0,41.44553670162901,-92.20264050266968,12992.130125672358,99.85161035069122,-0.0048586279375545,0.0043388719338362,,12143.848679953908,13948.384352032976,150,2,2025-09-17,2025-09-26 19:54:03.636,AA,D,2862931674,HAWK11,1,1,73,2,1,1,225,2,1,0,0,12,1,225,2,1,-146121.16443045562,-4789061.865205611,4202327.741667271,-1.88114,0.0832185,-0.160493,124.625,18.625,32.875,0.109375,-9.4375,9.57812,-0.347656,0.0273438,0.0234375,4,0,41.44397162676231,-91.74763444301372,13968.306357799223,78.81491678144609,1.249389059265511,24.064800248029783,188.158,12143.848679953908,13948.384352032976,150,False,20.46416517470548,False,27.72859550270779,170.39570265991878,False,161.86481845631994,False,False
2,1970-07-23 11:43:08.443497735,2025-09-17,2025-09-26 19:54:04.349,AA,D,3052699588,JASSM,3,125,76,2,2,1,225,9,2,0,1,26,0,0,0,0,-184051.16638358065,-4787425.444307174,4202250.235807896,-2.30145,-0.152823,0.128663,92.875,-14.125,-12.0,0.0,0.0,0.0,0.0,0.0,0.0,2,0,41.44540531728096,-92.20163518873126,12992.126961503807,99.85227577502307,-0.0040936911989636,0.0043383628795974,,12143.848679953908,13948.384352032976,150,2,2025-09-17,2025-09-26 19:54:04.229,AA,D,2863528172,HAWK11,1,1,73,2,1,1,225,2,1,0,0,12,1,225,2,1,-146058.66247733062,-4789052.817354049,4202343.483854771,-2.04384,0.0649066,-0.154069,125.25,16.125,32.0,0.15625,-9.125,9.17188,-0.279297,0.0253906,0.0175781,4,0,41.44414301591331,-91.74689067040866,13975.563228027517,79.78058042206654,1.777563157304115,14.60411037152654,188.158,12143.848679953908,13948.384352032976,150,False,20.452368519029598,False,26.715142127864954,170.34451032283442,False,162.9109814001387,False,False
2,1970-07-23 11:43:08.453374261,2025-09-17,2025-09-26 19:54:05.337,AA,D,3053833202,JASSM,3,125,76,2,2,1,225,9,2,0,1,26,0,0,0,0,-183962.89685233065,-4787439.045869674,4202238.683073521,-2.30145,-0.152823,0.128663,92.875,-14.125,-12.0,0.0,0.0,0.0,0.0,0.0,0.0,2,0,41.44526663387711,-92.2005740937514,12992.126935519664,99.85297811933472,-0.0032863078503384,0.0043378265946042,,12143.848679953908,13948.384352032976,150,2,2025-09-17,2025-09-26 19:54:05.431,AA,D,2864920004,HAWK11,1,1,73,2,1,1,225,2,1,0,0,12,1,225,2,1,-145912.38513358062,-4789035.768525924,4202376.319792271,-2.15074,0.0428556,-0.183407,125.875,12.0,30.375,-0.109375,-8.73438,8.76562,-0.0234375,0.0136719,-0.00585938,4,0,41.44449252221358,-91.74514845545492,13993.998490960888,79.35092890264676,3.826207878333173,8.246069508014775,187.559,12143.848679953908,13948.384352032976,150,True,20.48295823485799,False,25.058695535829813,170.2614729885944,False,164.5940220766495,False,False
2,1970-07-23 11:43:08.462434361,2025-09-17,2025-09-26 19:54:06.243,AA,D,3054908520,JASSM,3,125,76,2,2,1,225,9,2,0,1,26,0,0,0,0,-183879.16638358065,-4787451.946260299,4202227.724089146,-2.30145,-0.152727,0.128663,92.875,-14.125,-12.0,0.0,0.0,0.0,0.0,0.0,0.0,2,0,41.44513508109455,-92.19956756817506,12992.125775262197,99.85000844832936,-0.0065773557247165,0.0036327958198642,,12143.848679953908,13948.384352032976,150,2,2025-09-17,2025-09-26 19:54:06.337,AA,D,2866152770,HAWK11,1,1,73,2,1,1,225,2,1,0,0,12,1,225,2,1,-145782.27575858062,-4789024.366182174,4202405.706511021,-2.10529,0.0232973,-0.181297,126.0,9.25,29.75,0.046875,-7.84375,7.98438,0.0976562,0.00585938,0.0273438,4,0,41.44478219447512,-91.74359742473384,14020.044874457948,80.17362786511976,4.574102215883532,10.706873375137414,186.715,12143.848679953908,13948.384352032976,150,False,20.507447365217843,False,24.171730777502635,170.18983167552588,False,165.4798515810055,False,False
2,1970-07-23 11:43:08.472474009,2025-09-17,2025-09-26 19:54:07.247,AA,D,3056101616,JASSM,3,125,76,2,2,1,225,9,2,0,1,26,0,0,0,0,-183786.26403983065,-4787466.258760299,4202215.563932896,-2.30145,-0.152727,0.128663,92.875,-14.125,-12.0,0.0,0.0,0.0,0.0,0.0,0.0,2,0,41.44498910877961,-92.19845079253275,12992.124838589376,99.85074764398983,-0.0057275997281068,0.0036321872764926,,12143.848679953908,13948.384352032976,150,2,2025-09-17,2025-09-26 19:54:07.229,AA,D,2867107168,HAWK11,1,1,73,2,1,1,225,2,1,0,0,12,1,225,2,1,-145680.51208670562,-4789016.990205611,4202428.604948521,-2.00041,0.00776578,-0.166149,126.25,7.25,28.75,-0.109375,-7.53125,7.57812,0.0996094,0.00390625,0.0195312,4,0,41.44499898201816,-91.74238373475858,14044.027326645562,81.40896871028234,4.660621472564977,16.662015400566936,185.836,12143.848679953908,13948.384352032976,150,False,20.511841348348607,False,23.326856332941542,170.12818571355507,False,166.3263671717503,False,False
2,1970-07-23 11:43:08.482507219,2025-09-17,2025-09-26 19:54:08.250,AA,D,3057294566,JASSM,3,125,76,2,2,1,225,9,2,0,1,26,0,0,0,0,-183693.37439139312,-4787480.569307174,4202203.405729771,-2.30145,-0.152727,0.128663,92.875,-14.125,-12.0,0.0,0.0,0.0,0.0,0.0,0.0,2,0,41.44484314751922,-92.1973341745042,12992.129152504402,99.851486733184,-0.0048779601636821,0.0036315806956757,,12143.848679953908,13948.384352032976,150,2,2025-09-17,2025-09-26 19:54:08.135,AA,D,2868180868,HAWK11,1,1,73,2,1,1,225,2,1,0,0,12,1,225,2,1,-145566.80896170562,-4789010.407197799,4202451.282682896,-1.9819,0.00124636,-0.148604,126.375,5.75,25.875,0.0,-6.20312,6.40625,-0.0703125,-0.0234375,0.0273438,4,0,41.44521170764296,-91.74102703945398,14068.59319259942,82.41169993175133,4.275575912484349,17.741774862971596,184.662,12143.848679953908,13948.384352032976,150,False,20.522697013171612,False,21.91365623711012,170.06720901968103,False,167.7992231929773,False,False
2,1970-07-23 11:43:08.491395355,2025-09-17,2025-09-26 19:54:09.139,AA,D,3058427790,JASSM,3,125,76,2,2,1,225,9,2,0,1,26,0,0,0,0,-183605.13415701807,-4787494.161104049,4202191.852995396,-2.30145,-0.152727,0.128663,92.875,-14.125,-12.0,0.0,0.0,0.0,0.0,0.0,0.0,2,0,41.44470447586672,-92.19627345242458,12992.12476475884,99.85218882288063,-0.0040708474455306,0.0036309982204403,,12143.848679953908,13948.384352032976,150,2,2025-09-17,2025-09-26 19:54:09.041,AA,D,2869334100,HAWK11,1,1,73,2,1,1,225,2,1,0,0,12,1,225,2,1,-145445.80114920562,-4789004.255830611,4202473.069792271,-1.95956,-0.010642,-0.117541,126.5,5.25,22.625,0.015625,-5.78125,5.9375,0.00195312,-0.00195312,0.0253906,4,0,41.44541716092628,-91.73958286882028,14091.747547431783,84.19940838817197,3.60879899935741,19.0542183384148,184.504,12143.848679953908,13948.384352032976,150,False,20.540019333734953,False,20.583176458274203,170.00877180731052,False,169.24815333390166,False,False
2,1970-07-23 11:43:08.501415553,2025-09-17,2025-09-26 19:54:10.141,AA,D,3059560786,JASSM,3,125,76,2,2,1,225,9,2,0,1,26,0,0,0,0,-183516.91247733065,-4787507.750947799,4202180.302214146,-2.30145,-0.152727,0.128663,92.875,-14.125,-12.0,0.0,0.0,0.0,0.0,0.0,0.0,2,0,41.44456581499611,-92.19521295748864,12992.12572709803,99.85289076029984,-0.0032639026458245,0.0036304074132237,,12143.848679953908,13948.384352032976,150,2,2025-09-17,2025-09-26 19:54:10.229,AA,D,2870725932,HAWK11,1,1,73,2,1,1,225,2,1,0,0,12,1,225,2,1,-145297.48474295562,-4788997.060518111,4202495.481901646,-1.97471,-0.00882039,-0.0948192,126.75,5.25,18.125,0.0625,-5.42188,5.51562,-0.09375,-0.0078125,0.0214844,4,0,41.44563795842397,-91.7378126501934,14111.663909022496,85.11052540388026,2.671964353424114,18.247309262903773,184.051,12143.848679953908,13948.384352032976,150,False,20.572039675425042,False,18.925440048600493,169.94796271523197,False,171.07249811785817,False,False
2,1970-07-23 11:43:08.510480514,2025-09-17,2025-09-26 19:54:11.048,AA,D,3060634528,JASSM,3,125,76,2,2,1,225,9,2,0,1,26,0,0,0,0,-183433.3050554556,-4787520.627900924,4202169.354948521,-2.30145,-0.152727,0.128663,92.875,-14.125,-12.0,0.0,0.0,0.0,0.0,0.0,0.0,2,0,41.44443440576942,-92.19420793474065,12992.123957083975,99.8535559791128,-0.002499165585092,0.0036298555174731,,12143.848679953908,13948.384352032976,150,2,2025-09-17,2025-09-26 19:54:11.135,AA,D,2871799630,HAWK11,1,1,73,2,1,1,225,2,1,0,0,12,1,225,2,1,-145182.65271170562,-4788991.609346236,4202509.976042271,-1.99609,-0.0102585,-0.0537852,127.375,5.5,15.125,0.0,-5.35938,5.5,-0.0078125,-0.015625,0.0351562,4,0,41.44578889928321,-91.73644203234102,14121.179267928364,86.92986369308764,1.1791656242339397,17.07740824005473,184.418,12143.848679953908,13948.384352032976,150,False,20.588584119659004,False,17.89676677424874,169.90027573193422,False,172.19757088439994,False,False
2,1970-07-23 11:43:08.520514751,2025-09-17,2025-09-26 19:54:12.051,AA,D,3061827472,JASSM,3,125,76,2,2,1,225,9,2,0,1,26,0,0,0,0,-183340.4144304556,-4787534.934541549,4202157.192839146,-2.30145,-0.152727,0.128663,92.875,-14.125,-12.0,0.0,0.0,0.0,0.0,0.0,0.0,2,0,41.444288400437294,-92.19309132585208,12992.127616161268,99.85429505411938,-0.0016495181498297,0.0036292472119026,,12143.848679953908,13948.384352032976,150,2,2025-09-17,2025-09-26 19:54:12.041,AA,D,2872873330,HAWK11,1,1,73,2,1,1,225,2,1,0,0,12,1,225,2,1,-145068.62536795562,-4788986.018525924,4202521.536589146,-2.1121,-0.00383495,-0.03346,127.875,6.125,12.125,0.140625,-5.39062,5.57812,-0.222656,-0.00390625,0.0078125,4,0,41.44592072394352,-91.73508107845888,14124.047477620235,87.56013772438459,0.1336134445821409,10.45402173745304,184.748,12143.848679953908,13948.384352032976,150,False,20.599692526016568,False,17.03507287478852,169.85341297972096,False,173.09092149932687,False,False
2,1970-07-23 11:43:08.530396627,2025-09-17,2025-09-26 19:54:13.039,AA,D,3063020608,JASSM,3,125,76,2,2,1,225,9,2,0,1,26,0,0,0,0,-183247.51013358065,-4787549.241182174,4202145.026823521,-2.30145,-0.152727,0.128759,92.875,-14.125,-12.0,0.0,0.0,0.0,0.0,0.0,0.0,2,0,41.44414236103006,-92.19197455858932,12992.126117309368,99.85912497839192,-0.0044659177626313,0.0036284489591197,,12143.848679953908,13948.384352032976,150,2,2025-09-17,2025-09-26 19:54:12.931,AA,D,2873787962,HAWK11,1,1,73,2,1,1,225,2,1,0,0,12,1,225,2,1,-144969.77185233062,-4788981.015596236,4202530.060026646,-2.20328,-0.00575243,-0.0158192,128.25,6.375,10.625,0.0625,-5.51562,5.70312,-0.0195312,-0.0195312,0.0078125,4,0,41.446025814296746,-91.73390128153328,14122.901103841836,88.39104434580305,-0.4524952734558645,5.225076708610992,185.518,12143.848679953908,13948.384352032976,150,True,20.602650820696862,False,16.606427793093975,169.81102384862507,False,173.51374597134932,False,False
2,1970-07-23 11:43:08.540438384,2025-09-17,2025-09-26 19:54:14.043,AA,D,3064213642,JASSM,3,125,76,2,2,1,225,9,2,0,1,26,0,0,0,0,-183154.61267264312,-4787563.545869674,4202132.860807896,-2.30145,-0.152727,0.128759,92.875,-14.125,-12.0,0.0,0.0,0.0,0.0,0.0,0.0,2,0,41.44399632084607,-92.190857878918,12992.125073372505,99.85986409599892,-0.0036162083174918,0.0036278986307584,,12143.848679953908,13948.384352032976,150,2,2025-09-17,2025-09-26 19:54:14.227,AA,D,2875497926,HAWK11,1,1,73,2,1,1,225,2,1,0,0,12,1,225,2,1,-144785.47497733062,-4788970.807588424,4202542.796354771,-2.17691,0.00862864,-0.00699879,129.125,7.375,7.625,0.125,-6.01562,6.14062,-0.0253906,-0.00976562,0.0136719,4,0,41.44620567583113,-91.7317020430211,14111.76223197953,88.2255286822449,-1.4028771368984914,6.747931292886588,186.202,12143.848679953908,13948.384352032976,150,True,20.651502081384702,False,15.96626707444765,169.75691125986066,False,173.96509472949725,False,False
2,1970-07-23 11:43:08.550475043,2025-09-17,2025-09-26 19:54:15.047,AA,D,3065406102,JASSM,3,125,76,2,2,1,225,9,2,0,1,26,0,0,0,0,-183061.76013358065,-4787577.844697799,4202120.698698521,-2.30145,-0.152631,0.128759,92.875,-14.125,-12.0,0.0,0.0,0.0,0.0,0.0,0.0,2,0,41.4438503208173,-92.18974174375369,12992.126945022332,99.85696705271135,-0.0068238121243542,0.0029222925885321,,12143.848679953908,13948.384352032976,150,2,2025-09-17,2025-09-26 19:54:14.931,AA,D,2876412560,HAWK11,1,1,73,2,1,1,225,2,1,0,0,12,1,225,2,1,-144686.41052420562,-4788965.126924361,4202548.169401646,-2.16684,-0.00325971,0.00814927,129.625,7.25,6.625,-0.125,-6.54688,6.51562,-0.0507812,-0.0078125,0.0234375,4,0,41.44629355611663,-91.7305199579817,14102.107205736253,89.32807270439461,-1.4662005938226184,7.297590971752088,187.082,12143.848679953908,13948.384352032976,150,True,20.6546094943819,False,15.616402356266944,169.7176267822742,False,174.25774678934974,False,False
2,1970-07-23 11:43:08.561716602,2025-09-17,2025-09-26 19:54:16.171,AA,D,3066598828,JASSM,3,125,76,2,2,1,225,9,2,0,1,26,0,0,0,0,-182968.8870867056,-4787592.143525924,4202108.534636021,-2.30145,-0.152631,0.128759,92.875,-14.125,-12.0,0.0,0.0,0.0,0.0,0.0,0.0,2,0,41.44370430144671,-92.18862536852312,12992.127256272914,99.85770596457547,-0.0059743273935793,0.0029216923385448,,12143.848679953908,13948.384352032976,150,2,2025-09-17,2025-09-26 19:54:16.227,AA,D,2877764624,HAWK11,1,1,73,2,1,1,225,2,1,0,0,12,1,225,2,1,-144539.20544608062,-4788957.182588424,4202554.882292271,-2.25965,-0.0140934,0.018216,130.5,7.0,5.375,-0.15625,-6.875,6.78125,-0.0117188,0.0117188,-0.00390625,4,0,41.44641258815789,-91.72876324853232,14086.230383856368,90.17266200918732,-1.3813569075602312,1.967545721471162,188.793,12143.848679953908,13948.384352032976,150,True,20.683573991351572,False,15.151138779760748,169.67367390662625,False,174.62462456798676,False,False
2,1970-07-23 11:43:08.570422189,2025-09-17,2025-09-26 19:54:17.042,AA,D,3067791360,JASSM,3,125,76,2,2,1,225,9,2,0,1,26,0,0,0,0,-182876.02966483065,-4787606.438447799,4202096.370573521,-2.30145,-0.152631,0.128759,92.875,-14.125,-12.0,0.0,0.0,0.0,0.0,0.0,0.0,2,0,41.44355829093532,-92.18750918680158,12992.124043445205,99.85844474621818,-0.0051249852306045,0.0029210872589925,,12143.848679953908,13948.384352032976,150,2,2025-09-17,2025-09-26 19:54:16.931,AA,D,2878758790,HAWK11,1,1,73,2,1,1,225,2,1,0,0,12,1,225,2,1,-144430.23669608062,-4788951.713838424,4202559.429167271,-2.25179,-0.0117925,0.0115049,131.125,6.875,5.0,-0.109375,-7.0,6.92188,0.0136719,0.0,-0.00585938,4,0,41.446495383009605,-91.72746268768984,14074.580416317203,89.7979216003551,-1.2247163837900077,2.424661471851103,189.709,12143.848679953908,13948.384352032976,150,True,20.69202536324484,False,14.987068383465397,169.63540989033302,False,174.77889917556092,False,False
2,1970-07-23 11:43:08.580454659,2025-09-17,2025-09-26 19:54:18.045,AA,D,3068985236,JASSM,3,125,76,2,2,1,225,9,2,0,1,26,0,0,0,0,-182783.0667742056,-4787620.748994674,4202084.192839146,-2.30145,-0.152631,0.128759,92.875,-14.125,-12.0,0.0,0.0,0.0,0.0,0.0,0.0,2,0,41.443412108343146,-92.18639174259702,12992.124252974456,99.85918436133169,-0.004274679346878,0.0029204859582291,,12143.848679953908,13948.384352032976,150,2,2025-09-17,2025-09-26 19:54:18.042,AA,D,2880031322,HAWK11,1,1,73,2,1,1,225,2,1,0,0,12,1,225,2,1,-144291.05310233062,-4788945.295869674,4202564.446745396,-2.20596,-0.0232015,0.0165862,131.75,6.125,4.5,-0.03125,-7.23438,7.26562,0.0664062,0.0078125,0.015625,4,0,41.44659240900476,-91.72580129629824,14059.387445036804,90.449978751579,-0.9261762981996856,5.047454010364977,190.65,12143.848679953908,13948.384352032976,150,True,20.716665246834534,False,14.580933081467402,169.5951450344183,False,175.20573022580106,False,False
