Subject_cm,Timestamp,SampleDate_cm,SampleTime_cm,Configuration_cm,Scenario_cm,DisTime_cm,MarkingTxt_cm,Application_cm,EntId_cm,Site_cm,ExerciseId_cm,ForceId_cm,Category_cm,Country_cm,Domain_cm,Kind_cm,Extra_cm,Specific_cm,Subcategory_cm,AltCategory_cm,AltCountry_cm,AltDomain_cm,AltKind_cm,ECEF_X_cm,ECEF_Y_cm,ECEF_Z_cm,OriPhi_cm,OriPsi_cm,OriTheta_cm,LinVelX_cm,LinVelY_cm,LinVelZ_cm,LinAccX_cm,LinAccY_cm,LinAccZ_cm,AngVelX_cm,AngVelY_cm,AngVelZ_cm,DrAlg_cm,Appearance_cm,Latitude_cm,Longitude_cm,Altitude_cm,Heading_cm,Pitch_cm,Roll_cm,CalibratedAirspeed_cm,CM_Altitude_Lead_cm,CM_Altitude_Wing_cm,CM_Airspeed_cm,Subject_ac,SampleDate_ac,SampleTime_ac,Configuration_ac,Scenario_ac,DisTime_ac,MarkingTxt_ac,Application_ac,EntId_ac,Site_ac,ExerciseId_ac,ForceId_ac,Category_ac,Country_ac,Domain_ac,Kind_ac,Extra_ac,Specific_ac,Subcategory_ac,AltCategory_ac,AltCountry_ac,AltDomain_ac,AltKind_ac,ECEF_X_ac,ECEF_Y_ac,ECEF_Z_ac,OriPhi_ac,OriPsi_ac,OriTheta_ac,LinVelX_ac,LinVelY_ac,LinVelZ_ac,LinAccX_ac,LinAccY_ac,LinAccZ_ac,AngVelX_ac,AngVelY_ac,AngVelZ_ac,DrAlg_ac,Appearance_ac,Latitude_ac,Longitude_ac,Altitude_ac,Heading_ac,Pitch_ac,Roll_ac,CalibratedAirspeed_ac,CM_Altitude_Lead_ac,CM_Altitude_Wing_ac,CM_Airspeed_ac,Bank_Angle_Condition,distance_nm,Distance_Condition,angle_between_vel,angle_between_pos,Cone_Condition,angle_between_pos_nose,Nose_Cone_Condition,Intercept_Criteria
2,1970-07-23 09:44:55.075112190,2025-09-09,2025-09-26 14:51:47.511,HH,B,2016707120,JASSM,3,107,76,2,2,1,225,9,2,0,1,26,0,0,0,0,-111018.26824342164,-4806883.789442358,4181302.811979771,2.36214,2.75369,-0.386851,-74.875,30.625,33.0,0.0,0.0,0.0,0.0,0.0,0.0,2,0,41.20160777837577,-91.323049999326,10000.00055562034,-59.90043572616294,-0.0048813499303433,-0.0007800145135493,,8714.375071090433,10952.218357409804,150,2,2025-09-09,2025-09-26 14:51:47.621,HH,B,2699287328,HAWK11,1,1,73,2,1,1,225,2,1,0,0,12,1,225,2,1,-150025.94763358062,-4786141.020479049,4204009.905729771,-2.86327,-1.3338,0.734585,22.75,-80.625,-80.875,-0.09375,-7.34375,7.3125,-0.0429688,-0.0078125,0.00390625,4,0,41.47199004842689,-91.79540049221686,10740.68762167852,168.60360154949836,5.2932386283136585,4.438642772458604,189.954,8714.375071090433,10952.218357409804,150,True,26.79334592560277,False,132.25943308274447,172.75972053630457,False,40.53073012707585,False,False
2,1970-07-23 09:44:55.083474244,2025-09-09,2025-09-26 14:51:48.347,HH,B,2017780862,JASSM,3,107,76,2,2,1,225,9,2,0,1,26,0,0,0,0,-111085.87957154664,-4806856.262159643,4181332.462004185,2.36166,2.75493,-0.3857,-75.0,30.625,32.875,0.0,0.0,0.0,0.0,0.0,0.0,2,0,41.20196244719129,-91.32386304303544,10000.000357369014,-59.99435110904619,-0.0045505549723771,-0.0013436175105267,,8714.375071090433,10952.218357409804,150,2,2025-09-09,2025-09-26 14:51:48.742,HH,B,2694038134,HAWK11,1,1,73,2,1,1,225,2,1,0,0,12,1,225,2,1,-150150.75232108062,-4785797.756807174,4204378.759245396,-2.2841,-1.17503,0.775907,39.625,-72.625,-84.875,-0.3125,-9.39062,8.48438,-0.136719,0.0585938,0.0332031,4,0,41.47649868268166,-91.79702188295572,10708.37608143854,162.7961963769656,1.3111638179258611,31.04407158037604,189.172,8714.375071090433,10952.218357409804,150,False,26.973781998828983,False,140.4162840034621,172.2878787287564,False,31.87304341026896,False,False
2,1970-07-23 09:44:55.093489086,2025-09-09,2025-09-26 14:51:49.348,HH,B,2019047100,JASSM,3,107,76,2,2,1,225,9,2,0,1,26,0,0,0,0,-111165.61199342164,-4806823.798963842,4181367.426847935,2.36166,2.75493,-0.3857,-75.0,30.625,32.875,0.0,0.0,0.0,0.0,0.0,0.0,2,0,41.202380692867415,-91.3248218575694,10000.00037081636,-59.99498269731292,-0.0037166791814772,-0.0013450500673938,,8714.375071090433,10952.218357409804,150,2,2025-09-09,2025-09-26 14:51:49.433,HH,B,2701116592,HAWK11,1,1,73,2,1,1,225,2,1,0,0,12,1,225,2,1,-149991.76989920562,-4786263.659150924,4203884.270964146,-2.94016,-1.32737,0.755486,22.0,-79.875,-81.375,-0.078125,-6.09375,6.07812,-0.0605469,-0.0214844,0.0,4,0,41.47041873721861,-91.79494578268952,10766.421246848024,168.58032550967806,4.06738641949752,-0.2183322919211261,188.927,8714.375071090433,10952.218357409804,150,True,26.6280355194965,False,131.8312656375024,172.77322984391722,False,40.970446649764554,False,False
2,1970-07-23 09:44:55.114347025,2025-09-09,2025-09-26 14:51:51.434,HH,B,2021673644,JASSM,3,107,76,2,2,1,225,9,2,0,1,26,0,0,0,0,-111331.00261842164,-4806756.457777319,4181439.951017857,2.36166,2.75493,-0.3857,-75.0,30.625,32.875,0.0,0.0,0.0,0.0,0.0,0.0,2,0,41.20324822750867,-91.3268107860553,10000.000421241612,-59.996292856905306,-0.0019869608274836,-0.0013480078678518,,8714.375071090433,10952.218357409804,150,2,2025-09-09,2025-09-26 14:51:51.324,HH,B,2703701422,HAWK11,1,1,73,2,1,1,225,2,1,0,0,12,1,225,2,1,-149943.79528983062,-4786434.457979049,4203703.644011021,-2.97976,-1.3129,0.787987,22.5,-78.375,-83.125,0.09375,-5.78125,5.73438,0.00390625,-0.0234375,0.0,4,0,41.46819230874833,-91.79430805934513,10789.971986798168,168.3879580788743,2.1244255551931364,-3.0759311872546045,188.891,8714.375071090433,10952.218357409804,150,True,26.421297998811134,False,132.0647456383543,172.93837385835388,False,40.88741392954176,False,False
2,1970-07-23 09:44:55.126110065,2025-09-09,2025-09-26 14:51:52.611,HH,B,2022984442,JASSM,3,107,76,2,2,1,225,9,2,0,1,26,0,0,0,0,-111413.54168092164,-4806722.8488906,4181476.1434006696,2.36166,2.75493,-0.3857,-75.0,30.625,32.875,0.0,0.0,0.0,0.0,0.0,0.0,2,0,41.2036811656487,-91.3278033914696,10000.00030305714,-59.99694672075077,-0.0011237338735307,-0.0013494865814322,,8714.375071090433,10952.218357409804,150,2,2025-09-09,2025-09-26 14:51:52.432,HH,B,2704934188,HAWK11,1,1,73,2,1,1,225,2,1,0,0,12,1,225,2,1,-149920.33825858062,-4786513.985322799,4203616.239714146,-2.98704,-1.29104,0.810134,22.875,-77.0,-84.75,-0.015625,-5.51562,5.53125,-0.0195312,-0.00195312,-0.0136719,4,0,41.4671335895199,-91.79399775527745,10793.69172638034,167.8174918125213,0.6946187478162063,-4.405136507483175,188.536,8714.375071090433,10952.218357409804,150,True,26.32038313697285,False,132.21844171898422,173.01678190055748,False,40.80312671573668,False,False
2,1970-07-23 09:44:55.126229320,2025-09-09,2025-09-26 14:51:52.622,HH,B,2020361514,JASSM,3,107,76,2,2,1,225,9,2,0,1,26,0,0,0,0,-111248.37957154664,-4806790.099623022,4181403.720915318,2.36166,2.75493,-0.3857,-75.0,30.625,32.875,0.0,0.0,0.0,0.0,0.0,0.0,2,0,41.20281484153792,-91.32581718409986,10000.00031398979,-59.99563834227729,-0.0028510653218972,-0.0013465285998659,,8714.375071090433,10952.218357409804,150,2,2025-09-09,2025-09-26 14:51:52.432,HH,B,2704934188,HAWK11,1,1,73,2,1,1,225,2,1,0,0,12,1,225,2,1,-149920.33825858062,-4786513.985322799,4203616.239714146,-2.98704,-1.29104,0.810134,22.875,-77.0,-84.75,-0.015625,-5.51562,5.53125,-0.0195312,-0.00195312,-0.0136719,4,0,41.4671335895199,-91.79399775527745,10793.69172638034,167.8174918125213,0.6946187478162063,-4.405136507483175,188.536,8714.375071090433,10952.218357409804,150,True,26.423518435766788,False,132.21844171898422,173.04425037436192,False,40.83058128565032,False,False
2,1970-07-23 09:44:55.137151822,2025-09-09,2025-09-26 14:51:53.715,HH,B,2024298592,JASSM,3,107,76,2,2,1,225,9,2,0,1,26,0,0,0,0,-111496.29168092164,-4806689.153028783,4181512.427336216,2.36166,2.75493,-0.385604,-75.0,30.625,32.875,0.0,0.0,0.0,0.0,0.0,0.0,2,0,41.20411520164215,-91.3287985470277,10000.000249133316,-60.00146515803012,-0.004163824963451,-0.0013508199003386,,8714.375071090433,10952.218357409804,150,2,2025-09-09,2025-09-26 14:51:53.432,HH,B,2706087420,HAWK11,1,1,73,2,1,1,225,2,1,0,0,12,1,225,2,1,-149897.69177420562,-4786587.850557174,4203532.636198521,-2.9926,-1.27675,0.822118,23.625,-76.0,-86.125,0.140625,-5.875,5.875,-0.0078125,0.0,0.0,4,0,41.46613407379551,-91.79369927459804,10791.825084388936,167.43359550999,-0.1033099250604548,-5.322006322061098,189.954,8714.375071090433,10952.218357409804,150,True,26.22194339399591,False,132.53239646920244,173.090261536017,False,40.55882935967322,False,False
2,1970-07-23 09:44:55.147289053,2025-09-09,2025-09-26 14:51:54.728,HH,B,2025608864,JASSM,3,107,76,2,2,1,225,9,2,0,1,26,0,0,0,0,-111578.79754029664,-4806655.555555639,4181548.603361607,2.36166,2.75484,-0.385604,-75.0,30.625,32.875,0.0,0.0,0.0,0.0,0.0,0.0,2,0,41.204547948741805,-91.32979077991487,10000.000563152198,-59.99850110144549,-0.006879007936705,-0.0034181259896408,,8714.375071090433,10952.218357409804,150,2,2025-09-09,2025-09-26 14:51:54.824,HH,B,2707797386,HAWK11,1,1,73,2,1,1,225,2,1,0,0,12,1,225,2,1,-149862.93396170562,-4786695.801729049,4203407.397917271,-2.99423,-1.25738,0.829308,24.875,-75.125,-87.625,-0.171875,-6.375,6.26562,-0.015625,-0.00976562,-0.0117188,4,0,41.46465302605407,-91.79324321243938,10782.344525030509,166.8062319775343,-0.68643810097407,-6.226681620969022,190.504,8714.375071090433,10952.218357409804,150,True,26.10071608946002,False,133.05276679668768,173.2059616960058,False,40.15324598191937,False,False
2,1970-07-23 09:44:55.158327919,2025-09-09,2025-09-26 14:51:55.832,HH,B,2026861872,JASSM,3,107,76,2,2,1,225,9,2,0,1,26,0,0,0,0,-111657.69793092164,-4806623.425306615,4181583.197355748,2.36176,2.75484,-0.385604,-75.0,30.625,32.875,0.0,0.0,0.0,0.0,0.0,0.0,2,0,41.20496177488975,-91.33073966517088,10000.000416068617,-59.999126181250354,-0.006053836230233,0.0020719310029586,,8714.375071090433,10952.218357409804,150,2,2025-09-09,2025-09-26 14:51:56.102,HH,B,2705411388,HAWK11,1,1,73,2,1,1,225,2,1,0,0,12,1,225,2,1,-149911.02380545562,-4786544.743135299,4203581.659636021,-2.98829,-1.28442,0.815407,23.125,-76.375,-85.5,-0.140625,-5.65625,5.64062,-0.00976562,-0.015625,-0.00195312,4,0,41.46671893516024,-91.79387484840612,10793.428296070912,167.6340896877838,0.3407626970718956,-4.753458178706272,191.909,8714.375071090433,10952.218357409804,150,True,26.148548779045644,False,132.31971966123774,173.01213874409706,False,40.69463982578557,False,False
2,1970-07-23 09:44:55.169349923,2025-09-09,2025-09-26 14:51:56.934,HH,B,2028114662,JASSM,3,107,76,2,2,1,225,9,2,0,1,26,0,0,0,0,-111736.58269654664,-4806591.299696264,4181617.784513951,2.36176,2.75484,-0.385604,-75.0,30.625,32.875,0.0,0.0,0.0,0.0,0.0,0.0,2,0,41.20537552156056,-91.3316883749446,10000.00038958642,-59.99975115063029,-0.0052288225243763,0.0020705074592834,,8714.375071090433,10952.218357409804,150,2,2025-09-09,2025-09-26 14:51:56.825,HH,B,2710143616,HAWK11,1,1,73,2,1,1,225,2,1,0,0,12,1,225,2,1,-149812.09997733062,-4786842.661104049,4203232.954557896,-2.98148,-1.22527,0.833719,26.75,-74.625,-89.0,0.046875,-6.5625,6.4375,-0.0117188,-0.00390625,-0.00390625,4,0,41.46261140669263,-91.79258037377068,10760.364463650183,165.67769673156138,-1.2560053384354966,-6.836832657418297,192.422,8714.375071090433,10952.218357409804,150,True,25.90501714831716,False,133.83971181848713,173.35815128358436,False,39.519874773455456,False,False
2,1970-07-23 09:44:55.180114693,2025-09-09,2025-09-26 14:51:58.011,HH,B,2029426612,JASSM,3,107,76,2,2,1,225,9,2,0,1,26,0,0,0,0,-111819.19402467164,-4806557.655958471,4181654.0039963727,2.36176,2.75484,-0.385604,-75.0,30.625,32.875,0.0,0.0,0.0,0.0,0.0,0.0,2,0,41.20580879760016,-91.33268191527212,10000.00035256268,-60.0004056580074,-0.0043648385907362,0.0020690235586617,,8714.375071090433,10952.218357409804,150,2,2025-09-09,2025-09-26 14:51:57.730,HH,B,2711336614,HAWK11,1,1,73,2,1,1,225,2,1,0,0,12,1,225,2,1,-149784.44958670562,-4786916.373994674,4203143.706511021,-2.98484,-1.21654,0.836882,28.125,-74.25,-89.875,-0.078125,-6.51562,6.375,0.00390625,-0.00390625,0.0,4,0,41.46157565730322,-91.7922221575968,10745.507309322253,165.40631681751813,-1.522545759075821,-7.393159417677499,193.278,8714.375071090433,10952.218357409804,150,True,25.80340799240012,False,134.4167848901578,173.4345474097213,False,39.021214965308815,False,False
2,1970-07-23 09:44:55.190150649,2025-09-09,2025-09-26 14:51:59.015,HH,B,2030679336,JASSM,3,107,76,2,2,1,225,9,2,0,1,26,0,0,0,0,-111898.07683717164,-4806525.529981908,4181688.5874924655,2.36176,2.75484,-0.385604,-75.0,30.625,32.875,0.0,0.0,0.0,0.0,0.0,0.0,2,0,41.20622250585312,-91.33363062634518,10000.000286166223,-60.00103063883755,-0.0035398512800536,0.002067610731886,,8714.375071090433,10952.218357409804,150,2,2025-09-09,2025-09-26 14:51:59.122,HH,B,2712927280,HAWK11,1,1,73,2,1,1,225,2,1,0,0,12,1,225,2,1,-149746.26403983062,-4787015.217744674,4203023.095182896,-2.95502,-1.2035,0.832664,29.5,-74.25,-90.625,-0.109375,-7.125,6.90625,0.015625,0.0078125,0.00390625,4,0,41.46018068024132,-91.79172857953044,10723.477853035403,164.85670373755988,-1.4331888643867998,-6.224302661397567,195.05,8714.375071090433,10952.218357409804,150,True,25.68646737484667,False,134.97562879091976,173.54286839918416,False,38.5723656159432,False,False
2,1970-07-23 09:44:55.201171012,2025-09-09,2025-09-26 14:52:00.117,HH,B,2031993828,JASSM,3,107,76,2,2,1,225,9,2,0,1,26,0,0,0,0,-111980.84832154664,-4806491.818922338,4181724.8753342633,2.36176,2.75484,-0.385604,-75.0,30.625,32.875,0.0,0.0,0.0,0.0,0.0,0.0,2,0,41.206656604861855,-91.33462611908848,10000.000389959194,-60.00168644351429,-0.0026741921887665,0.002066124376735,,8714.375071090433,10952.218357409804,150,2,2025-09-09,2025-09-26 14:52:00.231,HH,B,2714239578,HAWK11,1,1,73,2,1,1,225,2,1,0,0,12,1,225,2,1,-149713.06286795562,-4787097.887666549,4202922.544401646,-2.92578,-1.20389,0.831801,30.5,-74.875,-90.75,-0.078125,-7.1875,6.95312,0.0292969,0.0,0.0,4,0,41.45901638602822,-91.79130066821476,10705.671828872872,164.85676393341123,-1.3803790955550457,-4.532626279002557,196.113,8714.375071090433,10952.218357409804,150,True,25.577769025429685,False,135.38416127789134,173.6304221887569,False,38.25038646411283,False,False
2,1970-07-23 09:44:55.212338733,2025-09-09,2025-09-26 14:52:01.233,HH,B,2033365616,JASSM,3,107,76,2,2,1,225,9,2,0,1,26,0,0,0,0,-112067.22722779664,-4806456.637281713,4181762.7438645368,2.36176,2.75484,-0.385604,-75.0,30.625,32.875,0.0,0.0,0.0,0.0,0.0,0.0,2,0,41.2071096162929,-91.3356650127064,10000.000434902842,-60.00237084563084,-0.0017708038145383,0.0020645714000495,,8714.375071090433,10952.218357409804,150,2,2025-09-09,2025-09-26 14:52:00.932,HH,B,2715154210,HAWK11,1,1,73,2,1,1,225,2,1,0,0,12,1,225,2,1,-149689.76989920562,-4787155.555635299,4202852.620573521,-2.90661,-1.19478,0.830075,30.875,-75.5,-90.875,-0.078125,-7.21875,6.96875,0.015625,0.00585938,-0.00976562,4,0,41.4582056984259,-91.7910005905736,10693.718135649877,164.49150878553615,-1.388393973544956,-3.8105823229266353,196.651,8714.375071090433,10952.218357409804,150,True,25.484068652710885,False,135.50419310368133,173.68721214345499,False,38.186167936529046,False,False
2,1970-07-23 09:44:55.224682212,2025-09-09,2025-09-26 14:52:02.468,HH,B,2034677752,JASSM,3,107,76,2,2,1,225,9,2,0,1,26,0,0,0,0,-112149.85027467164,-4806422.984327612,4181798.964689732,2.36176,2.75484,-0.385604,-75.0,30.625,32.875,0.0,0.0,0.0,0.0,0.0,0.0,2,0,41.207542919993095,-91.33665874767482,10000.00029574528,-60.00302550394735,-0.0009066964572659,0.002063087346721,,8714.375071090433,10952.218357409804,150,2,2025-09-09,2025-09-26 14:52:02.324,HH,B,2716784642,HAWK11,1,1,73,2,1,1,225,2,1,0,0,12,1,225,2,1,-149647.52575858062,-4787259.065400924,4202727.811979771,-2.89692,-1.19986,0.809367,31.5,-76.5,-90.875,-0.140625,-9.03125,8.76562,-0.00976562,0.0644531,-0.00585938,4,0,41.45675536825778,-91.79045679029792,10673.759482177204,164.3314805846123,-0.1945845389537174,-3.0407415638888105,198.386,8714.375071090433,10952.218357409804,150,True,25.361217047174666,False,135.72442694504906,173.80051997714077,False,38.07773886112915,False,False
2,1970-07-23 09:44:55.235109950,2025-09-09,2025-09-26 14:52:03.510,HH,B,2035988472,JASSM,3,107,76,2,2,1,225,9,2,0,1,26,0,0,0,0,-112232.38347779664,-4806389.366773901,4181835.145475865,2.36176,2.75474,-0.385604,-75.0,30.625,32.875,0.0,0.0,0.0,0.0,0.0,0.0,2,0,41.20797574658331,-91.33765141548452,10000.00055698616,-60.00006164891629,-0.0036214590514726,-3.961377574982218e-06,,8714.375071090433,10952.218357409804,150,2,2025-09-09,2025-09-26 14:52:03.526,HH,B,2718017408,HAWK11,1,1,73,2,1,1,225,2,1,0,0,12,1,225,2,1,-149614.98864920562,-4787339.633760299,4202636.175261021,-2.92521,-1.206,0.761238,32.125,-80.0,-87.875,-0.296875,-10.4062,10.125,-0.0195312,0.0253906,-0.00585938,4,0,41.45566357693924,-91.7900376472978,10670.228568958904,163.76604350721962,2.516922256969205,-4.424041542224671,199.205,8714.375071090433,10952.218357409804,150,True,25.255726069286645,False,136.04864205898946,173.882798570663,False,37.83772075302211,False,False
2,1970-07-23 09:44:55.245127944,2025-09-09,2025-09-26 14:52:04.512,HH,B,2037241546,JASSM,3,107,76,2,2,1,225,9,2,0,1,26,0,0,0,0,-112311.28777467164,-4806357.226637182,4181869.734098912,2.36176,2.75474,-0.385509,-75.0,30.625,32.875,0.0,0.0,0.0,0.0,0.0,0.0,2,0,41.20838952941241,-91.3386004490689,10000.000616651305,-60.00454947451854,-0.0067020485561753,-5.004177486759921e-06,,8714.375071090433,10952.218357409804,150,2,2025-09-09,2025-09-26 14:52:04.620,HH,B,2719568306,HAWK11,1,1,73,2,1,1,225,2,1,0,0,12,1,225,2,1,-149572.71325858062,-4787446.797822799,4202524.136198521,-2.90565,-1.20619,0.731709,32.875,-83.375,-84.125,-0.21875,-8.65625,8.4375,0.03125,0.0136719,-0.015625,4,0,41.45427761120976,-91.7894921495001,10687.009426476166,163.28340124153937,4.140117935719909,-3.324023886398725,198.386,8714.375071090433,10952.218357409804,150,True,25.13757881634125,False,136.41710114341575,173.99122039120644,False,37.60329508184033,False,False
2,1970-07-23 09:44:55.256182066,2025-09-09,2025-09-26 14:52:05.618,HH,B,2038613070,JASSM,3,107,76,2,2,1,225,9,2,0,1,26,0,0,0,0,-112397.65105592164,-4806322.047193822,4181907.591276646,2.36176,2.75474,-0.385509,-75.0,30.625,32.875,0.0,0.0,0.0,0.0,0.0,0.0,2,0,41.20884241712744,-91.33963921073163,10000.00056415441,-60.00523381323215,-0.0057988260130224,-6.555125776512742e-06,,8714.375071090433,10952.218357409804,150,2,2025-09-09,2025-09-26 14:52:05.432,HH,B,2720482938,HAWK11,1,1,73,2,1,1,225,2,1,0,0,12,1,225,2,1,-149547.44763358062,-4787510.643525924,4202460.044401646,-2.89548,-1.19651,0.719629,33.125,-83.75,-83.125,-0.1875,-8.14062,8.01562,-0.00390625,0.015625,-0.00390625,4,0,41.45346983151826,-91.78916622241051,10702.781028670968,162.68211112939412,4.680992402445906,-3.1562112264585864,197.555,8714.375071090433,10952.218357409804,150,True,25.043208697060045,False,136.5730877704126,174.04831926645292,False,37.51268188089681,False,False
2,1970-07-23 09:44:55.267307694,2025-09-09,2025-09-26 14:52:06.730,HH,B,2039867952,JASSM,3,107,76,2,2,1,225,9,2,0,1,26,0,0,0,0,-112476.66863404664,-4806289.858473119,4181942.227995396,2.36176,2.75474,-0.385509,-75.0,30.625,32.875,0.0,0.0,0.0,0.0,0.0,0.0,2,0,41.20925678143342,-91.34058963259476,10000.000340306988,-60.00585995890295,-0.0049724248389771,-7.978800408407837e-06,,8714.375071090433,10952.218357409804,150,2,2025-09-09,2025-09-26 14:52:06.526,HH,B,2721636170,HAWK11,1,1,73,2,1,1,225,2,1,0,0,12,1,225,2,1,-149515.36364920562,-4787591.313447799,4202380.739714146,-2.89414,-1.2037,0.711959,33.5,-84.375,-82.0,-0.234375,-7.75,7.5625,0.0195312,0.0,-0.00195312,4,0,41.4524605267654,-91.78875250215904,10726.343332442617,162.85078999826484,5.1935258728853855,-2.794459285713186,196.687,8714.375071090433,10952.218357409804,150,True,24.943171288769665,False,136.76610120359442,174.1241306694086,False,37.40765315054856,False,False
2,1970-07-23 09:44:55.278310428,2025-09-09,2025-09-26 14:52:07.831,HH,B,2041180070,JASSM,3,107,76,2,2,1,225,9,2,0,1,26,0,0,0,0,-112559.28972779664,-4806256.200636205,4181978.443571568,2.36176,2.75474,-0.385509,-75.0,30.625,32.875,0.0,0.0,0.0,0.0,0.0,0.0,2,0,41.20969003614981,-91.34158341062772,10000.000303674356,-60.0065146735238,-0.0041083352500901,-9.469120120114392e-06,,8714.375071090433,10952.218357409804,150,2,2025-09-09,2025-09-26 14:52:07.824,HH,B,2723346136,HAWK11,1,1,73,2,1,1,225,2,1,0,0,12,1,225,2,1,-149467.39294608062,-4787712.354463424,4202263.948698521,-2.8812,-1.19008,0.699975,33.625,-84.875,-80.375,-0.03125,-7.45312,7.29688,0.00390625,-0.00195312,0.00585938,4,0,41.45096093691422,-91.7881337904744,10766.505069747656,162.07711591488066,5.674661770630358,-2.6322819005774893,195.502,8714.375071090433,10952.218357409804,150,True,24.816240851593317,False,136.8910853818583,174.2426590387679,False,37.41869612416159,False,False
2,1970-07-23 09:44:55.289369499,2025-09-09,2025-09-26 14:52:08.936,HH,B,2042490738,JASSM,3,107,76,2,2,1,225,9,2,0,1,26,0,0,0,0,-112641.81902467164,-4806222.578932104,4182014.618132115,2.36176,2.75474,-0.385509,-75.0,30.625,32.875,0.0,0.0,0.0,0.0,0.0,0.0,2,0,41.21012280311992,-91.34257609795732,10000.000225077203,-60.00716867524053,-0.0032452044414324,-1.0959535816721697e-05,,8714.375071090433,10952.218357409804,150,2,2025-09-09,2025-09-26 14:52:09.120,HH,B,2724817500,HAWK11,1,1,73,2,1,1,225,2,1,0,0,12,1,225,2,1,-149425.88708670562,-4787816.522432174,4202164.979948521,-2.86087,-1.18088,0.694702,33.75,-84.625,-79.625,-0.171875,-7.125,7.01562,0.0117188,-0.00390625,-0.00390625,4,0,41.44968083094188,-91.78759869454132,10804.41196858835,161.597961532513,5.840548664606731,-1.8544964015791696,194.39,8714.375071090433,10952.218357409804,150,True,24.70020714080106,False,137.03045319739968,174.3425620082732,False,37.385331211436146,False,False
2,1970-07-23 09:44:55.300130363,2025-09-09,2025-09-26 14:52:10.013,HH,B,2043803204,JASSM,3,107,76,2,2,1,225,9,2,0,1,26,0,0,0,0,-112724.46355592164,-4806188.909986791,4182050.8415207863,2.36176,2.75474,-0.385509,-75.0,30.625,32.875,0.0,0.0,0.0,0.0,0.0,0.0,2,0,41.21055615611409,-91.3435701845534,10000.00054472741,-60.00782360449664,-0.0023808732840678,-1.244361973814936e-05,,8714.375071090433,10952.218357409804,150,2,2025-09-09,2025-09-26 14:52:10.142,HH,B,2725692366,HAWK11,1,1,73,2,1,1,225,2,1,0,0,12,1,225,2,1,-149401.23278983062,-4787878.141572799,4202106.522917271,-2.85292,-1.17215,0.695948,33.625,-84.125,-79.5,-0.265625,-6.57812,6.48438,-0.00976562,-0.00976562,-0.00390625,4,0,41.4489242055959,-91.78728095636431,10827.02087664292,161.25384510320197,5.6541220791315965,-1.753302538140421,193.156,8714.375071090433,10952.218357409804,150,True,24.610407484248395,False,137.0388289660558,174.39707704533228,False,37.429641554786414,False,False
2,1970-07-23 09:44:55.311146784,2025-09-09,2025-09-26 14:52:11.114,HH,B,2045115172,JASSM,3,107,76,2,2,1,225,9,2,0,1,26,0,0,0,0,-112807.07488404664,-4806155.252638158,4182087.050016881,2.36176,2.75474,-0.385509,-75.0,30.625,32.875,0.0,0.0,0.0,0.0,0.0,0.0,2,0,41.21098933553891,-91.34456388541766,10000.000131749392,-60.008478285298,-0.0015168845225344,-1.393478506059286e-05,,8714.375071090433,10952.218357409804,150,2,2025-09-09,2025-09-26 14:52:11.230,HH,B,2727362564,HAWK11,1,1,73,2,1,1,225,2,1,0,0,12,1,225,2,1,-149353.85974295562,-4787995.022432174,4201994.870573521,-2.84352,-1.17119,0.701509,33.75,-83.125,-79.5,-0.171875,-6.71875,6.59375,0.0117188,0.00195312,-0.00195312,4,0,41.44748394245947,-91.78667101425916,10868.199412014916,161.31467172393562,5.339946284547064,-1.2445520718338914,192.655,8714.375071090433,10952.218357409804,150,True,24.48611887486757,False,137.20772799476876,174.5121748437123,False,37.37017558590372,False,False
2,1970-07-23 09:44:55.321291657,2025-09-09,2025-09-26 14:52:12.129,HH,B,2046369784,JASSM,3,107,76,2,2,1,225,9,2,0,1,26,0,0,0,0,-112886.07683717164,-4806123.06587058,4182121.67477274,2.36176,2.75474,-0.385509,-75.0,30.625,32.875,0.0,0.0,0.0,0.0,0.0,0.0,2,0,41.21140356864658,-91.3455141827022,10000.000541519115,-60.00910437578927,-0.0006906505026124,-1.535019934009902e-05,,8714.375071090433,10952.218357409804,150,2,2025-09-09,2025-09-26 14:52:11.824,HH,B,2728157898,HAWK11,1,1,73,2,1,1,225,2,1,0,0,12,1,225,2,1,-149331.08630545562,-4788050.377900924,4201941.602995396,-2.83595,-1.16247,0.704577,33.75,-82.875,-79.5,0.3125,-6.45312,6.45312,-0.00585938,0.0,0.0,4,0,41.44679926890213,-91.786378120183,10886.837625207503,161.00773325180364,5.05297492254282,-1.161611023806117,192.349,8714.375071090433,10952.218357409804,150,True,24.402084786940147,False,137.23559990366223,174.56152560368972,False,37.39072105453023,False,False
2,1970-07-23 09:44:55.332306022,2025-09-09,2025-09-26 14:52:13.230,HH,B,2047680224,JASSM,3,107,76,2,2,1,225,9,2,0,1,26,0,0,0,0,-112968.59246217164,-4806089.445631322,4182157.839323521,2.36176,2.75465,-0.385509,-75.0,30.625,32.875,0.0,0.0,0.0,0.0,0.0,0.0,2,0,41.21183622705294,-91.34650675852345,10000.000469699107,-60.006140239917166,-0.0034056034266213,-0.0020818999922531,,8714.375071090433,10952.218357409804,150,2,2025-09-09,2025-09-26 14:52:13.120,HH,B,2729589496,HAWK11,1,1,73,2,1,1,225,2,1,0,0,12,1,225,2,1,-149290.24255545562,-4788148.815400924,4201845.458464146,-2.84927,-1.15739,0.725094,33.875,-81.625,-80.25,-0.21875,-5.53125,5.48438,-0.00976562,-0.0214844,0.0078125,4,0,41.445572215040606,-91.7858531503308,10916.87973112906,161.17851386530967,3.870476177822495,-2.102772258873309,191.335,8714.375071090433,10952.218357409804,150,True,24.288517540898937,False,137.36933321229637,174.65902415242175,False,37.341509137637516,False,False
2,1970-07-23 09:44:55.345846701,2025-09-09,2025-09-26 14:52:14.584,HH,B,2048994424,JASSM,3,107,76,2,2,1,225,9,2,0,1,26,0,0,0,0,-113051.34441529664,-4806055.727857885,4182194.1066575055,2.36176,2.75465,-0.385413,-75.0,30.625,32.875,0.0,0.0,0.0,0.0,0.0,0.0,2,0,41.21227011799032,-91.34750219060604,10000.000384162871,-60.01065854163569,-0.0064460875150662,-0.0020830353811222,,8714.375071090433,10952.218357409804,150,2,2025-09-09,2025-09-26 14:52:14.730,HH,B,2731617594,HAWK11,1,1,73,2,1,1,225,2,1,0,0,12,1,225,2,1,-149231.87927420562,-4788284.741182174,4201706.972136021,-2.86001,-1.13735,0.73957,34.5,-79.125,-82.0,-0.0625,-5.92188,5.84375,0.0,-0.00195312,-0.00195312,4,0,41.443839592322064,-91.7851048009732,10945.793829503968,160.6455857984503,2.807755785398936,-3.516758145194623,190.944,8714.375071090433,10952.218357409804,150,True,24.149167513396296,False,137.76198171800914,174.8025136751437,False,37.0685359317078,False,False
2,1970-07-23 09:44:55.355346904,2025-09-09,2025-09-26 14:52:15.534,HH,B,2050306724,JASSM,3,107,76,2,2,1,225,9,2,0,1,26,0,0,0,0,-113133.97722779664,-4806022.057691869,4182230.3207688336,2.36176,2.75465,-0.385413,-75.0,30.625,32.875,0.0,0.0,0.0,0.0,0.0,0.0,2,0,41.21270337435714,-91.3484962029215,10000.00057769342,-60.011313449894416,-0.0055818744046014,-0.0020845286188415,,8714.375071090433,10952.218357409804,150,2,2025-09-09,2025-09-26 14:52:15.342,HH,B,2731895960,HAWK11,1,1,73,2,1,1,225,2,1,0,0,12,1,225,2,1,-149223.48669608062,-4788303.957979049,4201686.919401646,-2.85944,-1.13371,0.742447,34.5,-78.75,-82.375,-0.25,-5.875,5.76562,-0.0117188,-0.0136719,-0.0078125,4,0,41.44359146816214,-91.78499731520664,10948.843333567587,160.55620071518524,2.6009172450904665,-3.6289275422413234,190.944,8714.375071090433,10952.218357409804,150,True,24.084874874957094,False,137.76346526305628,174.81359481014394,False,37.07466765224443,False,False
2,1970-07-23 09:44:55.367053753,2025-09-09,2025-09-26 14:52:16.705,HH,B,2051619174,JASSM,3,107,76,2,2,1,225,9,2,0,1,26,0,0,0,0,-113216.61980592164,-4805988.382643041,4182266.537809849,2.36176,2.75465,-0.385413,-75.0,30.625,32.875,0.0,0.0,0.0,0.0,0.0,0.0,2,0,41.21313666952836,-91.34949034608222,10000.000389421422,-60.0119684500392,-0.0047175609520803,-0.0020860186224827,,8714.375071090433,10952.218357409804,150,2,2025-09-09,2025-09-26 14:52:16.435,HH,B,2733526392,HAWK11,1,1,73,2,1,1,225,2,1,0,0,12,1,225,2,1,-149175.78161795562,-4788411.045869674,4201573.358854771,-2.85263,-1.12172,0.747049,35.25,-77.875,-83.125,0.078125,-6.57812,6.46875,0.0,-0.0117188,-0.00390625,4,0,41.442196700402754,-91.7843871594583,10961.833589723175,160.17229919886915,2.181700999199847,-3.720399925349759,191.249,8714.375071090433,10952.218357409804,150,True,23.96249348360512,False,138.1196348119804,174.92816373411034,False,36.826629970070144,False,False
2,1970-07-23 09:44:55.377146318,2025-09-09,2025-09-26 14:52:17.714,HH,B,2052929998,JASSM,3,107,76,2,2,1,225,9,2,0,1,26,0,0,0,0,-113299.15886842164,-4805954.748243627,4182302.709196568,2.36176,2.75465,-0.385413,-75.0,30.625,32.875,0.0,0.0,0.0,0.0,0.0,0.0,2,0,41.213569420481086,-91.3504832575334,10000.000554887016,-60.01262264432817,-0.0038543263427825,-0.0020875127211354,,8714.375071090433,10952.218357409804,150,2,2025-09-09,2025-09-26 14:52:17.527,HH,B,2734918224,HAWK11,1,1,73,2,1,1,225,2,1,0,0,12,1,225,2,1,-149134.93005545562,-4788501.270479049,4201476.399870396,-2.83873,-1.11741,0.754623,35.625,-77.375,-83.625,-0.078125,-6.60938,6.125,0.00390625,0.0,0.00195312,4,0,41.44101304772569,-91.78386523312426,10969.956929836051,160.15418610762234,1.713219851093476,-3.093203796305419,191.09,8714.375071090433,10952.218357409804,150,True,23.850786639463507,False,138.28792872152349,175.0244505815025,False,36.75125679659098,False,False
2,1970-07-23 09:44:55.388672316,2025-09-09,2025-09-26 14:52:18.867,HH,B,2054184402,JASSM,3,107,76,2,2,1,225,9,2,0,1,26,0,0,0,0,-113378.14714967164,-4805922.560499487,4182337.322721959,2.36176,2.75465,-0.385413,-75.0,30.625,32.875,0.0,0.0,0.0,0.0,0.0,0.0,2,0,41.21398353622043,-91.35143346685796,10000.0006141305,-60.01324870899823,-0.003028232819165,-0.0020889334043242,,8714.375071090433,10952.218357409804,150,2,2025-09-09,2025-09-26 14:52:18.620,HH,B,2736230522,HAWK11,1,1,73,2,1,1,225,2,1,0,0,12,1,225,2,1,-149095.43200858062,-4788586.725557174,4201383.333464146,-2.81936,-1.10782,0.762964,35.875,-76.875,-84.0,-0.140625,-6.65625,6.04688,0.0136719,-0.00390625,-0.0078125,4,0,41.43988379633984,-91.78336128048768,10974.921080612226,159.94985861235227,1.1266817198780987,-2.3666429470201917,191.335,8714.375071090433,10952.218357409804,150,True,23.743903365972127,False,138.40999952018447,175.1167814791788,False,36.718845272396734,False,False
2,1970-07-23 09:44:55.398344970,2025-09-09,2025-09-26 14:52:19.834,HH,B,2055496488,JASSM,3,107,76,2,2,1,225,9,2,0,1,26,0,0,0,0,-113460.76629029664,-4805888.891432104,4182373.5270676618,2.36176,2.75465,-0.385413,-75.0,30.625,32.875,0.0,0.0,0.0,0.0,0.0,0.0,2,0,41.21441668780799,-91.35242736783042,10000.000458470073,-60.01390356634565,-0.0021641616547769,-0.002090426606282,,8714.375071090433,10952.218357409804,150,2,2025-09-09,2025-09-26 14:52:19.825,HH,B,2737622354,HAWK11,1,1,73,2,1,1,225,2,1,0,0,12,1,225,2,1,-149053.76208670562,-4788675.194307174,4201285.466276646,-2.82463,-1.09986,0.764977,36.125,-76.125,-84.375,0.03125,-6.71875,6.0625,-0.0195312,-0.00585938,0.00585938,4,0,41.43870461728565,-91.78283026326876,10976.712646849064,159.68410356057822,0.9022979444866362,-2.988915072647837,190.858,8714.375071090433,10952.218357409804,150,True,23.632097004783947,False,138.55359336824233,175.21381729925662,False,36.669120842311415,False,False
2,1970-07-23 09:44:55.409125281,2025-09-09,2025-09-26 14:52:20.912,HH,B,2056807256,JASSM,3,107,76,2,2,1,225,9,2,0,1,26,0,0,0,0,-113543.30339967164,-4805855.255201635,4182409.694059849,2.36185,2.75465,-0.385413,-75.0,30.625,32.875,0.0,0.0,0.0,0.0,0.0,0.0,2,0,41.21484939471688,-91.3534202952336,10000.00055661644,-60.014557787898255,-0.0013009513739785,0.0034132194524187,,8714.375071090433,10952.218357409804,150,2,2025-09-09,2025-09-26 14:52:20.932,HH,B,2738934652,HAWK11,1,1,73,2,1,1,225,2,1,0,0,12,1,225,2,1,-149013.68200858062,-4788758.862275924,4201191.558073521,-2.83297,-1.09421,0.770825,36.5,-75.0,-85.0,-0.25,-7.04688,6.0,-0.00976562,-0.00585938,0.0,4,0,41.43758042881686,-91.78232005449378,10975.429566434705,159.58867230300956,0.5066610185529072,-3.693162907321603,190.626,8714.375071090433,10952.218357409804,150,True,23.523058658270557,False,138.75661481913457,175.3065083794885,False,36.55471242889228,False,False
2,1970-07-23 09:44:55.420146410,2025-09-09,2025-09-26 14:52:22.014,HH,B,2058119372,JASSM,3,107,76,2,2,1,225,9,2,0,1,26,0,0,0,0,-113625.92449342164,-4805821.583326635,4182445.897184849,2.36185,2.75455,-0.385413,-75.0,30.625,32.875,0.0,0.0,0.0,0.0,0.0,0.0,2,0,41.21528253719744,-91.3544142464805,10000.000471844083,-60.011594332752345,-0.0040148084817337,0.0013471150441977,,8714.375071090433,10952.218357409804,150,2,2025-09-09,2025-09-26 14:52:22.120,HH,B,2740445784,HAWK11,1,1,73,2,1,1,225,2,1,0,0,12,1,225,2,1,-148967.31677420562,-4788853.872041549,4201083.819792271,-2.84745,-1.08289,0.770634,37.0,-74.5,-84.875,-0.09375,-7.25,6.20312,-0.015625,0.0,-0.00195312,4,0,41.43629658080343,-91.7817305205459,10971.529630524798,159.15265615307592,0.3470258868773349,-4.977495555339599,190.43,8714.375071090433,10952.218357409804,150,True,23.405651875124327,False,139.04556394052582,175.41446718315504,False,36.37303303259621,False,False
2,1970-07-23 09:44:55.430284789,2025-09-09,2025-09-26 14:52:23.028,HH,B,2059374070,JASSM,3,107,76,2,2,1,225,9,2,0,1,26,0,0,0,0,-113704.92839967164,-4805789.383863744,4182480.515104771,2.36185,2.75455,-0.385413,-75.0,30.625,32.875,0.0,0.0,0.0,0.0,0.0,0.0,2,0,41.21569671740904,-91.35536469486831,10000.00004296208,-60.012220576310334,-0.003188543163994,0.0013457338718909,,8714.375071090433,10952.218357409804,150,2,2025-09-09,2025-09-26 14:52:23.230,HH,B,2741718316,HAWK11,1,1,73,2,1,1,225,2,1,0,0,12,1,225,2,1,-148927.74646170562,-4788933.641572799,4200993.462370396,-2.86509,-1.08174,0.766223,37.625,-74.625,-84.25,-0.0625,-7.90625,6.78125,-0.00195312,0.0136719,-0.0195312,4,0,41.43521945415906,-91.78122789152944,10968.429909913008,159.0149342699549,0.5650511176801759,-6.035185615465351,189.991,8714.375071090433,10952.218357409804,150,True,23.300842720562233,False,139.3955513840274,175.50419112574113,False,36.11430724696102,False,False
2,1970-07-23 09:44:55.441325809,2025-09-09,2025-09-26 14:52:24.132,HH,B,2060686082,JASSM,3,107,76,2,2,1,225,9,2,0,1,26,0,0,0,0,-113787.54363404664,-4805755.712477026,4182516.7135910993,2.36185,2.75455,-0.385317,-75.0,30.625,32.875,0.0,0.0,0.0,0.0,0.0,0.0,2,0,41.216129809566525,-91.35635860181104,10000.000112557667,-60.0167377819409,-0.0062305986481048,0.0013445884585119,,8714.375071090433,10952.218357409804,150,2,2025-09-09,2025-09-26 14:52:24.143,HH,B,2742195516,HAWK11,1,1,73,2,1,1,225,2,1,0,0,12,1,225,2,1,-148913.09802420562,-4788963.072236861,4200960.296354771,-2.85455,-1.07695,0.765648,37.875,-74.375,-84.125,-0.109375,-7.54688,6.64062,0.0078125,0.00390625,-0.00390625,4,0,41.434823214573264,-91.7810418655004,10967.655907508472,158.81914242571813,0.5219656007603488,-5.623197939744789,189.844,8714.375071090433,10952.218357409804,150,True,23.228682232191595,False,139.54888498514376,175.53082575175975,False,35.98734051064418,False,False
2,1970-07-23 09:44:55.455866544,2025-09-09,2025-09-26 14:52:25.586,HH,B,2062058724,JASSM,3,107,76,2,2,1,225,9,2,0,1,26,0,0,0,0,-113873.97527467164,-4805720.483961401,4182554.5839524274,2.36185,2.75455,-0.385317,-75.0,30.625,32.875,0.0,0.0,0.0,0.0,0.0,0.0,2,0,41.2165829070288,-91.35739843673916,10000.000461702812,-60.01742293341223,-0.0053266524242498,0.0013430209430749,,8714.375071090433,10952.218357409804,150,2,2025-09-09,2025-09-26 14:52:25.526,HH,B,2744422446,HAWK11,1,1,73,2,1,1,225,2,1,0,0,12,1,225,2,1,-148841.34216483062,-4789102.146455611,4200803.542448521,-2.86327,-1.05135,0.756061,39.25,-73.625,-83.375,-0.25,-7.32812,6.25,-0.00195312,-0.00976562,0.00195312,4,0,41.43295106252436,-91.78013253510991,10963.758362323244,157.6279737814341,0.6232413915789136,-7.146415863853632,188.573,8714.375071090433,10952.218357409804,150,True,23.07726276959704,False,140.34530741540473,175.69311928530325,False,35.35320303375165,False,False
2,1970-07-23 09:44:55.465870264,2025-09-09,2025-09-26 14:52:26.587,HH,B,2063371062,JASSM,3,107,76,2,2,1,225,9,2,0,1,26,0,0,0,0,-113956.61199342164,-4805686.801954565,4182590.789274693,2.36185,2.75455,-0.385317,-75.0,30.625,32.875,0.0,0.0,0.0,0.0,0.0,0.0,2,0,41.21701608778663,-91.35839262951411,10000.000110788522,-60.01807801689112,-0.0044624024013117,0.0013415343657646,,8714.375071090433,10952.218357409804,150,2,2025-09-09,2025-09-26 14:52:26.322,HH,B,2745456380,HAWK11,1,1,73,2,1,1,225,2,1,0,0,12,1,225,2,1,-148807.20153983062,-4789166.234346236,4200731.681120396,-2.8579,-1.04244,0.749158,39.875,-73.5,-82.625,-0.203125,-7.65625,6.67188,0.0,0.0,-0.0292969,4,0,41.43209105839561,-91.7797006774492,10962.70001615215,157.12941562182456,0.8401698845683968,-7.194402357501763,188.536,8714.375071090433,10952.218357409804,150,True,22.980314107005007,False,140.74091120211162,175.762479298196,False,35.028365363624125,False,False
2,1970-07-23 09:44:55.473145948,2025-09-09,2025-09-26 14:52:27.314,HH,B,2064444804,JASSM,3,107,76,2,2,1,225,9,2,0,1,26,0,0,0,0,-114024.22136842164,-4805659.242872533,4182620.411589146,2.36185,2.75455,-0.385317,-75.0,30.625,32.875,0.0,0.0,0.0,0.0,0.0,0.0,2,0,41.21737050722697,-91.3592060404076,10000.00008738629,-60.01861398561643,-0.0037553052829759,0.0013403025543524,,8714.375071090433,10952.218357409804,150,2,2025-09-09,2025-09-26 14:52:27.230,HH,B,2746490312,HAWK11,1,1,73,2,1,1,225,2,1,0,0,12,1,225,2,1,-148772.24841483062,-4789230.113252486,4200660.276823521,-2.8511,-1.02288,0.745323,40.75,-73.375,-82.0,-0.15625,-7.5625,6.40625,-0.0136719,-0.00390625,-0.0117188,4,0,41.43123553022794,-91.77925919779172,10962.063391540842,156.28891469346,0.7098728347171717,-7.577404971910303,188.17,8714.375071090433,10952.218357409804,150,True,22.892615846331342,False,141.23655807021925,175.83297880489144,False,34.60448847511207,False,False
2,1970-07-23 09:44:55.482290587,2025-09-09,2025-09-26 14:52:28.229,HH,B,2065518546,JASSM,3,107,76,2,2,1,225,9,2,0,1,26,0,0,0,0,-114091.83269654664,-4805631.68305808,4182650.0331711774,2.36185,2.75455,-0.385317,-75.0,30.625,32.875,0.0,0.0,0.0,0.0,0.0,0.0,2,0,41.217724920008834,-91.36001948356297,9999.99997820338,-60.01914997940032,-0.0030481933547381,0.0013390803660641,,8714.375071090433,10952.218357409804,150,2,2025-09-09,2025-09-26 14:52:28.324,HH,B,2747842376,HAWK11,1,1,73,2,1,1,225,2,1,0,0,12,1,225,2,1,-148725.68005545562,-4789313.717744674,4200568.138151646,-2.85685,-1.01339,0.73516,41.375,-76.0,-79.0,-0.078125,-7.5625,6.5,-0.00976562,0.00585938,-0.00585938,4,0,41.430124839849874,-91.7786715859238,10964.030383026487,155.68298359517877,1.0753674481147573,-8.283278479787144,187.62,8714.375071090433,10952.218357409804,150,True,22.790921734430853,False,141.59655826874393,175.9266017164044,False,34.35985686340193,False,False
2,1970-07-23 09:44:55.491343987,2025-09-09,2025-09-26 14:52:29.134,HH,B,2066592286,JASSM,3,107,76,2,2,1,225,9,2,0,1,26,0,0,0,0,-114159.44402467164,-4805604.122633276,4182679.654264928,2.36185,2.75455,-0.385317,-75.0,30.625,32.875,0.0,0.0,0.0,0.0,0.0,0.0,2,0,41.218079327335786,-91.3608329356728,10000.00049792906,-60.01968598288447,-0.0023410812012788,0.0013378579968996,,8714.375071090433,10952.218357409804,150,2,2025-09-09,2025-09-26 14:52:29.323,HH,B,2748955842,HAWK11,1,1,73,2,1,1,225,2,1,0,0,12,1,225,2,1,-148686.28943045562,-4789380.831025924,4200492.540495396,-2.8348,-1.00188,0.735064,42.75,-72.625,-80.75,0.0625,-7.45312,6.45312,0.00195312,0.00195312,-0.0117188,4,0,41.42922258255655,-91.77817589790484,10961.91631215882,155.2371648857587,0.8760574983880761,-7.469587660050967,187.021,8714.375071090433,10952.218357409804,150,True,22.69971025166989,False,142.4033120090596,176.00077636081465,False,33.606981067441694,False,False
2,1970-07-23 09:44:55.501126254,2025-09-09,2025-09-26 14:52:30.112,HH,B,2067783050,JASSM,3,107,76,2,2,1,225,9,2,0,1,26,0,0,0,0,-114234.42449342164,-4805573.557569799,4182712.5026535993,2.36185,2.75455,-0.385317,-75.0,30.625,32.875,0.0,0.0,0.0,0.0,0.0,0.0,2,0,41.21847235215363,-91.36173505860062,10000.000377569058,-60.02028041818245,-0.001556900688156,0.0013365056024985,,8714.375071090433,10952.218357409804,150,2,2025-09-09,2025-09-26 14:52:30.120,HH,B,2749950008,HAWK11,1,1,73,2,1,1,225,2,1,0,0,12,1,225,2,1,-148650.59997733062,-4789441.342744674,4200425.395964146,-2.82828,-0.990568,0.72912,43.375,-72.125,-80.375,-0.21875,-7.5625,6.3125,-0.00390625,0.0,-0.00976562,4,0,41.42841596745426,-91.77772690648987,10962.209936707906,154.65602440873923,0.9791168116322364,-7.538769900861054,186.496,8714.375071090433,10952.218357409804,150,True,22.608861357576856,False,142.79924048078146,176.06556602727966,False,33.27553953145619,False,False
2,1970-07-23 09:44:55.510324768,2025-09-09,2025-09-26 14:52:31.032,HH,B,2068916488,JASSM,3,107,76,2,2,1,225,9,2,0,1,26,0,0,0,0,-114305.79363404664,-4805544.463087377,4182743.769011021,2.36185,2.75445,-0.385317,-75.0,30.625,32.875,0.0,0.0,0.0,0.0,0.0,0.0,2,0,41.218846450478885,-91.36259374252442,10000.000243801433,-60.01722760723774,-0.0043884399914117,-0.0007289387985763,,8714.375071090433,10952.218357409804,150,2,2025-09-09,2025-09-26 14:52:31.026,HH,B,2750983940,HAWK11,1,1,73,2,1,1,225,2,1,0,0,12,1,225,2,1,-148612.98278983062,-4789503.939424361,4200355.919401646,-2.81505,-0.981173,0.727586,44.0,-71.875,-79.75,0.078125,-7.40625,6.4375,0.0,0.0,-0.00390625,4,0,41.427581561947854,-91.77725411413635,10962.42530760237,154.25612715786525,0.8851898252125427,-7.145600516030336,186.007,8714.375071090433,10952.218357409804,150,True,22.518487632206433,False,143.20361128417318,176.13327487469041,False,32.94003971948128,False,False
2,1970-07-23 09:44:55.521084349,2025-09-09,2025-09-26 14:52:32.108,HH,B,2070111846,JASSM,3,107,76,2,2,1,225,9,2,0,1,26,0,0,0,0,-114381.06316529664,-4805513.778272924,4182776.7428879743,2.36185,2.75445,-0.385317,-75.0,30.625,32.875,0.0,0.0,0.0,0.0,0.0,0.0,2,0,41.21924098015802,-91.3634993650167,10000.000606357256,-60.01782435758587,-0.0036012341980613,-0.0007302495399345,,8714.375071090433,10952.218357409804,150,2,2025-09-09,2025-09-26 14:52:32.232,HH,B,2752495072,HAWK11,1,1,73,2,1,1,225,2,1,0,0,12,1,225,2,1,-148556.22497733062,-4789595.026338424,4200254.509245396,-2.83566,-0.969572,0.725094,45.25,-70.875,-79.375,0.015625,-7.375,6.45312,-0.0214844,0.00390625,-0.00585938,4,0,41.42636564888443,-91.77654202110811,10961.916631625694,153.74743493043758,0.7963401488020476,-8.775597807717283,185.322,8714.375071090433,10952.218357409804,150,True,22.404011661800883,False,143.9505877321151,176.23450371148067,False,32.2925202392673,False,False
2,1970-07-23 09:44:55.531150829,2025-09-09,2025-09-26 14:52:33.115,HH,B,2071303048,JASSM,3,107,76,2,2,1,225,9,2,0,1,26,0,0,0,0,-114456.07097779664,-4805483.199293432,4182809.601042271,2.36185,2.75445,-0.385317,-75.0,30.625,32.875,0.0,0.0,0.0,0.0,0.0,0.0,2,0,41.21963412876188,-91.36440184965134,10000.000469861052,-60.01841904496023,-0.0028167665572694,-0.000731553739487,,8714.375071090433,10952.218357409804,150,2,2025-09-09,2025-09-26 14:52:33.120,HH,B,2753529004,HAWK11,1,1,73,2,1,1,225,2,1,0,0,12,1,225,2,1,-148516.79724295562,-4789656.665010299,4200185.698698521,-2.91073,-0.94359,0.715506,46.375,-70.625,-78.625,-0.3125,-7.84375,6.875,-0.152344,0.00195312,-0.0273438,4,0,41.425541768009865,-91.77604797614052,10961.097020327408,152.5013004071809,0.7829615867979741,-14.075935169096896,184.882,8714.375071090433,10952.218357409804,150,False,22.31098626598162,False,144.6080839243656,176.30043385601252,False,31.702394842721386,False,False
2,1970-07-23 09:44:55.540304234,2025-09-09,2025-09-26 14:52:34.030,HH,B,2072497002,JASSM,3,107,76,2,2,1,225,9,2,0,1,26,0,0,0,0,-114531.25066529664,-4805452.548658666,4182842.534391881,2.36185,2.75445,-0.385221,-75.0,30.625,32.875,0.0,0.0,0.0,0.0,0.0,0.0,2,0,41.22002817985975,-91.36530641356062,10000.00015167444,-60.02287728753526,-0.0059367206774737,-0.0007325997770421,,8714.375071090433,10952.218357409804,150,2,2025-09-09,2025-09-26 14:52:33.822,HH,B,2754403870,HAWK11,1,1,73,2,1,1,225,2,1,0,0,12,1,225,2,1,-148482.14880545562,-4789708.207002486,4200128.413542271,-3.01351,-0.922881,0.705344,48.25,-69.875,-77.625,-0.09375,-7.96875,6.875,-0.140625,0.0,-0.0195312,4,0,41.42485486385242,-91.77561480043542,10960.838865373877,151.43442609023103,0.8811627322192556,-20.753967793108696,184.675,8714.375071090433,10952.218357409804,150,False,22.224715972596275,False,145.71311295095126,176.35313625960987,False,30.650657174050274,False,False
2,1970-07-23 09:44:55.550364244,2025-09-09,2025-09-26 14:52:35.036,HH,B,2073689046,JASSM,3,107,76,2,2,1,225,9,2,0,1,26,0,0,0,0,-114606.31121217164,-4805421.946363744,4182875.414274693,2.36185,2.75445,-0.385221,-75.0,30.625,32.875,0.0,0.0,0.0,0.0,0.0,0.0,2,0,41.22042159211957,-91.36620955486596,10000.000434652293,-60.02347241689584,-0.0051517006368484,-0.0007339588362105,,8714.375071090433,10952.218357409804,150,2,2025-09-09,2025-09-26 14:52:35.230,HH,B,2755994534,HAWK11,1,1,73,2,1,1,225,2,1,0,0,12,1,225,2,1,-148415.37536795562,-4789800.141572799,4200026.960417271,-3.0903,-0.860467,0.683197,52.875,-68.125,-75.375,0.0,-7.78125,6.76562,-0.0722656,0.00976562,-0.0585938,4,0,41.42363545233117,-91.77478276140307,10961.583393886844,148.41721690526612,0.6459854856395431,-27.48291105564241,183.783,8714.375071090433,10952.218357409804,150,False,22.1058959261569,False,148.41215012004523,176.4495493456568,False,28.049179707258816,True,False
2,1970-07-23 09:44:55.561123927,2025-09-09,2025-09-26 14:52:36.112,HH,B,2074883692,JASSM,3,107,76,2,2,1,225,9,2,0,1,26,0,0,0,0,-114681.53386842164,-4805391.276197729,4182908.3652024274,2.36185,2.75445,-0.385221,-75.0,30.625,32.875,0.0,0.0,0.0,0.0,0.0,0.0,2,0,41.22081585767975,-91.3671146580639,10000.00034745385,-60.02406884375272,-0.0043649795175968,-0.0007353299431411,,8714.375071090433,10952.218357409804,150,2,2025-09-09,2025-09-26 14:52:35.932,HH,B,2756869400,HAWK11,1,1,73,2,1,1,225,2,1,0,0,12,1,225,2,1,-148375.74841483062,-4789850.021455611,4199971.917448521,-3.10391,-0.824706,0.677444,55.875,-66.625,-74.375,-0.078125,-7.75,6.70312,-0.0351562,0.00976562,-0.0332031,4,0,41.42297448284799,-91.77429073152372,10961.736270156252,146.88318985172324,0.1069439215275844,-29.56202141683493,183.453,8714.375071090433,10952.218357409804,150,False,22.01829388311249,False,150.14459999368475,176.49613513970797,False,26.361129482739695,True,False
2,1970-07-23 09:44:55.570205433,2025-09-09,2025-09-26 14:52:37.020,HH,B,2076075254,JASSM,3,107,76,2,2,1,225,9,2,0,1,26,0,0,0,0,-114756.56511842164,-4805360.684400854,4182941.2301926618,2.36185,2.75445,-0.385221,-75.0,30.625,32.875,0.0,0.0,0.0,0.0,0.0,0.0,2,0,41.221209096793125,-91.3680174689366,10000.000478969558,-60.02466376474532,-0.0035802683983637,-0.0007366836076973,,8714.375071090433,10952.218357409804,150,2,2025-09-09,2025-09-26 14:52:36.932,HH,B,2758102166,HAWK11,1,1,73,2,1,1,225,2,1,0,0,12,1,225,2,1,-148315.09021170562,-4789918.307588424,4199895.597136021,-3.09711,-0.786069,0.664501,60.375,-64.125,-72.625,-0.1875,-7.75,6.84375,0.0136719,0.0195312,-0.0507812,4,0,41.42206426767816,-91.77354057035672,10959.367035738367,145.02252607737705,-0.1952690425451592,-30.54715306788216,183.049,8714.375071090433,10952.218357409804,150,False,21.912872800895325,False,152.83463786166658,176.55911855439805,False,23.730616403383596,True,False
2,1970-07-23 09:44:55.580644551,2025-09-09,2025-09-26 14:52:38.064,HH,B,2077209148,JASSM,3,107,76,2,2,1,225,9,2,0,1,26,0,0,0,0,-114827.96355592164,-4805331.572096166,4182972.5038743024,2.36185,2.75445,-0.385221,-75.0,30.625,32.875,0.0,0.0,0.0,0.0,0.0,0.0,2,0,41.22158329918994,-91.36887657864224,9999.999946499303,-60.025229892531904,-0.0028335459015225,-0.0007379797235365,,8714.375071090433,10952.218357409804,150,2,2025-09-09,2025-09-26 14:52:38.120,HH,B,2759493998,HAWK11,1,1,73,2,1,1,225,2,1,0,0,12,1,225,2,1,-148242.06286795562,-4789991.415010299,4199812.513151646,-3.03556,-0.725956,0.650312,65.25,-61.375,-70.75,-0.265625,-7.57812,6.5,0.0292969,0.00585938,-0.0371094,4,0,41.42108199123841,-91.77264083407825,10953.238373572189,142.31037294827675,-1.0513101350269916,-29.096148423302992,182.671,8714.375071090433,10952.218357409804,150,False,21.801743429158964,False,155.75052491804564,176.6229784896988,False,20.87498504869254,True,False
2,1970-07-23 09:44:55.590344436,2025-09-09,2025-09-26 14:52:39.034,HH,B,2078401414,JASSM,3,107,76,2,2,1,225,9,2,0,1,26,0,0,0,0,-114903.03777467164,-4805300.960523901,4183005.386930943,2.36185,2.75445,-0.385221,-75.0,30.625,32.875,0.0,0.0,0.0,0.0,0.0,0.0,2,0,41.22197675789484,-91.36977992830047,10000.000553860362,-60.02582517770378,-0.0020483809510315,-0.0007393410233562,,8714.375071090433,10952.218357409804,150,2,2025-09-09,2025-09-26 14:52:39.026,HH,B,2760448396,HAWK11,1,1,73,2,1,1,225,2,1,0,0,12,1,225,2,1,-148188.55896170562,-4790040.003877486,4199756.491667271,-3.00421,-0.698632,0.635739,68.375,-59.625,-69.375,-0.03125,-7.96875,7.07812,0.0195312,0.0332031,-0.0351562,4,0,41.42042464627208,-91.77198349271436,10947.05146787142,140.80583154884835,-1.101673091139363,-28.21042096375343,182.341,8714.375071090433,10952.218357409804,150,False,21.70817228187087,False,157.65090267551193,176.65990531947742,False,19.010035108679396,True,False
2,1970-07-23 09:44:55.600149081,2025-09-09,2025-09-26 14:52:40.014,HH,B,2079595088,JASSM,3,107,76,2,2,1,225,9,2,0,1,26,0,0,0,0,-114978.19988404664,-4805270.31184226,4183038.307829381,2.36185,2.75436,-0.385221,-75.0,30.625,32.875,0.0,0.0,0.0,0.0,0.0,0.0,2,0,41.22237067321007,-91.37068434673505,10000.000548586531,-60.02280227419707,-0.0048402589678058,-0.0028043961311463,,8714.375071090433,10952.218357409804,150,2,2025-09-09,2025-09-26 14:52:40.122,HH,B,2761879996,HAWK11,1,1,73,2,1,1,225,2,1,0,0,12,1,225,2,1,-148103.00036795562,-4790110.862275924,4199674.481901646,-2.9742,-0.65779,0.606306,73.125,-57.5,-66.625,0.109375,-8.21875,7.4375,-0.00390625,0.0253906,-0.0449219,4,0,41.419465294721526,-91.77093488614044,10936.786331258056,138.27239518303307,-0.8877044913362347,-27.808989021076467,182.06,8714.375071090433,10952.218357409804,150,False,21.58985626581188,False,160.59828359510723,176.71190849627484,False,16.11440563788714,True,False
2,1970-07-23 09:44:55.610162942,2025-09-09,2025-09-26 14:52:41.016,HH,B,2080787262,JASSM,3,107,76,2,2,1,225,9,2,0,1,26,0,0,0,0,-115053.26824342164,-4805239.700514135,4183071.1867356314,2.36185,2.75436,-0.385221,-75.0,30.625,32.875,0.0,0.0,0.0,0.0,0.0,0.0,2,0,41.22276408896817,-91.371587648168,10000.000310509551,-60.02339753688237,-0.0040551539253977,-0.0028057091728735,,8714.375071090433,10952.218357409804,150,2,2025-09-09,2025-09-26 14:52:41.026,HH,B,2762675328,HAWK11,1,1,73,2,1,1,225,2,1,0,0,12,1,225,2,1,-148053.76208670562,-4790148.061494674,4199631.313932896,-2.95924,-0.630466,0.592021,75.75,-56.0,-65.0,0.046875,-7.9375,7.10938,0.00195312,0.0175781,-0.0390625,4,0,41.41896167252029,-91.77033275699036,10930.82424596012,136.74948999402918,-1.0335167658986295,-27.80947077604865,181.73,8714.375071090433,10952.218357409804,150,False,21.503445162050333,False,162.31075182868548,176.7326616550287,False,14.422204100181483,True,False
2,1970-07-23 09:44:55.619322948,2025-09-09,2025-09-26 14:52:41.932,HH,B,2081920656,JASSM,3,107,76,2,2,1,225,9,2,0,1,26,0,0,0,0,-115124.63347779664,-4805210.598463354,4183102.443083287,2.36185,2.75436,-0.385221,-75.0,30.625,32.875,0.0,0.0,0.0,0.0,0.0,0.0,2,0,41.22313809120698,-91.37244639996902,10000.000419405244,-60.02396344634167,-0.0033087779042437,-0.0028069575807648,,8714.375071090433,10952.218357409804,150,2,2025-09-09,2025-09-26 14:52:41.934,HH,B,2763987626,HAWK11,1,1,73,2,1,1,225,2,1,0,0,12,1,225,2,1,-147968.26013358062,-4790208.687471236,4199560.938932896,-2.9231,-0.590774,0.567094,79.75,-53.75,-62.5,-0.09375,-8.0,7.0625,0.0175781,0.0117188,-0.0234375,4,0,41.41814170112908,-91.769288650442,10920.668129298612,134.3721091195021,-1.1142170844577908,-26.939665681226703,181.607,8714.375071090433,10952.218357409804,150,False,21.39228198504257,False,164.91189762026522,176.7675029969643,False,11.85561100154388,True,False
2,1970-07-23 09:44:55.629124118,2025-09-09,2025-09-26 14:52:42.912,HH,B,2082994682,JASSM,3,107,76,2,2,1,225,9,2,0,1,26,0,0,0,0,-115192.26433717164,-4805183.01887351,4183132.062712193,2.36185,2.75436,-0.385221,-75.0,30.625,32.875,0.0,0.0,0.0,0.0,0.0,0.0,2,0,41.22349251134591,-91.37326022444576,10000.00038203012,-60.02449975301791,-0.002601460712757,-0.0028081358234325,,8714.375071090433,10952.218357409804,150,2,2025-09-09,2025-09-26 14:52:42.822,HH,B,2765140858,HAWK11,1,1,73,2,1,1,225,2,1,0,0,12,1,225,2,1,-147889.70739920562,-4790259.900361861,4199501.317839146,-2.89318,-0.556164,0.546385,83.125,-51.375,-60.375,-0.21875,-8.09375,7.0,0.00585938,0.00585938,-0.0332031,4,0,41.41744903006527,-91.76833108133206,10911.23979804129,132.31989331231827,-1.2851938743624511,-26.23082572190635,181.277,8714.375071090433,10952.218357409804,150,False,21.290916758354555,False,167.18927060885764,176.7915652800175,False,9.604510467578457,True,False
2,1970-07-23 09:44:55.638728112,2025-09-09,2025-09-26 14:52:43.872,HH,B,2084129974,JASSM,3,107,76,2,2,1,225,9,2,0,1,26,0,0,0,0,-115263.75066529664,-4805153.865797338,4183163.370573521,2.36185,2.75436,-0.385125,-75.0,30.625,32.875,0.0,0.0,0.0,0.0,0.0,0.0,2,0,41.22386713509452,-91.37412045296036,10000.000079790269,-60.02892868268758,-0.0057601821882978,-0.0028091290243383,,8714.375071090433,10952.218357409804,150,2,2025-09-09,2025-09-26 14:52:43.728,HH,B,2766174790,HAWK11,1,1,73,2,1,1,225,2,1,0,0,12,1,225,2,1,-147815.53747733062,-4790304.240205611,4199449.114714146,-2.89309,-0.527498,0.525484,86.0,-49.5,-58.25,-0.15625,-8.14062,6.9375,-0.0136719,0.015625,-0.0273438,4,0,41.41684650527478,-91.76742843789236,10901.348091374592,130.46860464123577,-1.302606469769668,-27.02231742947632,181.192,8714.375071090433,10952.218357409804,150,False,21.192166061557753,False,169.18271112016478,176.8069197078991,False,7.630899791195608,True,False
2,1970-07-23 09:44:55.647323224,2025-09-09,2025-09-26 14:52:44.732,HH,B,2085261186,JASSM,3,107,76,2,2,1,225,9,2,0,1,26,0,0,0,0,-115334.97918092164,-4805124.816725072,4183194.56539774,2.36195,2.75436,-0.385125,-75.0,30.625,32.875,0.0,0.0,0.0,0.0,0.0,0.0,2,0,41.22424040723784,-91.3749775891865,10000.00025109496,-60.02949353986317,-0.0050152330994371,0.0026810426097857,,8714.375071090433,10952.218357409804,150,2,2025-09-09,2025-09-26 14:52:44.620,HH,B,2767129190,HAWK11,1,1,73,2,1,1,225,2,1,0,0,12,1,225,2,1,-147745.67810233062,-4790342.552705611,4199403.216276646,-2.89012,-0.499694,0.518006,88.5,-47.125,-56.625,0.09375,-7.375,6.25,0.00195312,0.0078125,-0.0273438,4,0,41.41632159585329,-91.76657953966766,10890.649495178606,129.15186206208188,-1.899245500012792,-27.60921207747099,181.07,8714.375071090433,10952.218357409804,150,False,21.09815436865697,False,170.96022368423462,176.81546959002603,False,5.891911037236152,True,False
2,1970-07-23 09:44:55.658684573,2025-09-09,2025-09-26 14:52:45.868,HH,B,2086335160,JASSM,3,107,76,2,2,1,225,9,2,0,1,26,0,0,0,0,-115402.60418092164,-4805097.236891088,4183224.180876256,2.36195,2.75436,-0.385125,-75.0,30.625,32.875,0.0,0.0,0.0,0.0,0.0,0.0,2,0,41.22459478360692,-91.3757913712383,10000.00021906394,-60.030029830317865,-0.0043079744709687,0.0026798129207167,,8714.375071090433,10952.218357409804,150,2,2025-09-09,2025-09-26 14:52:45.824,HH,B,2768560788,HAWK11,1,1,73,2,1,1,225,2,1,0,0,12,1,225,2,1,-147637.31091483062,-4790396.978486861,4199337.159636021,-2.88139,-0.458469,0.47122,92.375,-44.0,-53.25,0.03125,-8.39062,7.40625,-0.00390625,0.0175781,-0.0371094,4,0,41.41557181795512,-91.76526458126024,10872.91257532443,125.8074651735492,-1.3282415053217922,-28.136776246394355,181.229,8714.375071090433,10952.218357409804,150,False,20.981418989278165,False,173.83858136419684,176.82430942186667,False,3.1565429630808235,True,False
2,1970-07-23 09:44:55.666162790,2025-09-09,2025-09-26 14:52:46.616,HH,B,2087410900,JASSM,3,107,76,2,2,1,225,9,2,0,1,26,0,0,0,0,-115470.34050904664,-4805069.610914526,4183253.844694615,2.36195,2.75436,-0.385125,-75.0,30.625,32.875,0.0,0.0,0.0,0.0,0.0,0.0,2,0,41.22494973915767,-91.37660650200438,10000.000666340176,-60.03056701339887,-0.0035995506326471,0.0026785799483708,,8714.375071090433,10952.218357409804,150,2,2025-09-09,2025-09-26 14:52:46.432,HH,B,2769236820,HAWK11,1,1,73,2,1,1,225,2,1,0,0,12,1,225,2,1,-147585.04919608062,-4790421.250947799,4199307.778776646,-2.87832,-0.440732,0.459331,94.125,-42.5,-51.5,-0.265625,-8.125,7.07812,-0.00390625,0.0136719,-0.0332031,4,0,41.41523868335157,-91.76463115978768,10864.878269563926,124.67935712577292,-1.4540260748959424,-28.389565289798394,181.021,8714.375071090433,10952.218357409804,150,False,20.904031590187785,False,175.19114100462124,176.82135236478993,False,2.0566722134024835,True,False
2,1970-07-23 09:44:55.675323430,2025-09-09,2025-09-26 14:52:47.532,HH,B,2088542810,JASSM,3,107,76,2,2,1,225,9,2,0,1,26,0,0,0,0,-115541.61394654664,-4805040.541578588,4183285.056608677,2.36195,2.75436,-0.385125,-75.0,30.625,32.875,0.0,0.0,0.0,0.0,0.0,0.0,2,0,41.225323222155886,-91.37746420765328,10000.000734866331,-60.03113225806685,-0.0028541344846011,0.0026772841305419,,8714.375071090433,10952.218357409804,150,2,2025-09-09,2025-09-26 14:52:47.342,HH,B,2769992386,HAWK11,1,1,73,2,1,1,225,2,1,0,0,12,1,225,2,1,-147524.45153983062,-4790447.600557174,4199275.511198521,-2.86519,-0.424529,0.439869,96.0,-40.625,-49.625,-0.140625,-8.125,7.0,0.0214844,0.0234375,-0.03125,4,0,41.41487523064016,-91.76389737304326,10855.057993752116,123.30476601669994,-1.2238578245059546,-28.0083519576105,181.143,8714.375071090433,10952.218357409804,150,False,20.8196366946679,False,176.56584351301075,176.81550706295505,False,1.7526352522537272,True,False
2,1970-07-23 09:44:55.684122032,2025-09-09,2025-09-26 14:52:48.412,HH,B,2089618114,JASSM,3,107,76,2,2,1,225,9,2,0,1,26,0,0,0,0,-115609.32293092164,-4805012.92512351,4183314.7069993024,2.36195,2.75436,-0.385125,-75.0,30.625,32.875,0.0,0.0,0.0,0.0,0.0,0.0,2,0,41.22567802237016,-91.37827902791796,10000.0005861236,-60.031669244344855,-0.0021459964915686,0.002676052028766,,8714.375071090433,10952.218357409804,150,2,2025-09-09,2025-09-26 14:52:48.322,HH,B,2771662584,HAWK11,1,1,73,2,1,1,225,2,1,0,0,12,1,225,2,1,-147387.65271170562,-4790501.591768111,4199208.651823521,-2.82051,-0.376496,0.402766,99.75,-36.75,-45.75,-0.125,-8.01562,6.95312,0.0273438,0.0117188,-0.0371094,4,0,41.4141277929261,-91.76224290097234,10832.378293098083,120.02335652358995,-1.4593976991000877,-26.497512484543023,180.899,8714.375071090433,10952.218357409804,150,False,20.690094374358384,False,177.81014284395084,176.80124586858287,False,4.120808759573316,True,False
2,1970-07-23 09:44:55.694160685,2025-09-09,2025-09-26 14:52:49.416,HH,B,2090750386,JASSM,3,107,76,2,2,1,225,9,2,0,1,26,0,0,0,0,-115680.61980592164,-4804983.844801244,4183345.927458287,2.36195,2.75426,-0.385125,-75.0,30.625,32.875,0.0,0.0,0.0,0.0,0.0,0.0,2,0,41.22605161250197,-91.37913703506406,10000.000333930117,-60.02861552797605,-0.004978308501982,0.0006115482330438,,8714.375071090433,10952.218357409804,150,2,2025-09-09,2025-09-26 14:52:49.526,HH,B,2773054416,HAWK11,1,1,73,2,1,1,225,2,1,0,0,12,1,225,2,1,-147269.64294608062,-4790542.413057174,4199156.829557896,-2.75187,-0.346967,0.380715,102.5,-33.75,-42.75,-0.21875,-7.71875,6.73438,0.0585938,0.00195312,-0.0332031,4,0,41.41355674281898,-91.76081780887226,10811.37741530248,118.02521749228514,-1.6772584326924884,-23.15570584385986,180.654,8714.375071090433,10952.218357409804,150,False,20.572755787824352,False,176.26918654537002,176.77739303288843,False,6.500695333105535,True,False
2,1970-07-23 09:44:55.703341517,2025-09-09,2025-09-26 14:52:50.334,HH,B,2091883912,JASSM,3,107,76,2,2,1,225,9,2,0,1,26,0,0,0,0,-115751.99480592164,-4804954.731764135,4183377.181608677,2.36195,2.75426,-0.385125,-75.0,30.625,32.875,0.0,0.0,0.0,0.0,0.0,0.0,2,0,41.22642560709856,-91.37999599241576,10000.00041712277,-60.02918160994026,-0.0042318306207876,0.0006102994804351,,8714.375071090433,10952.218357409804,150,2,2025-09-09,2025-09-26 14:52:50.228,HH,B,2773889516,HAWK11,1,1,73,2,1,1,225,2,1,0,0,12,1,225,2,1,-147197.35778983062,-4790565.196260299,4199127.161589146,-2.70805,-0.330094,0.367005,103.875,-32.125,-41.25,-0.03125,-7.64062,6.6875,0.046875,0.0117188,-0.0175781,4,0,41.41323416644049,-91.75994571599878,10797.558618053698,116.83439537036708,-1.7709000360941012,-20.962577587608056,180.52,8714.375071090433,10952.218357409804,150,False,20.48441809966941,False,175.14077175249912,176.75612971841787,False,7.774181392830725,True,False
