Subject_cm,Timestamp,SampleDate_cm,SampleTime_cm,Configuration_cm,Scenario_cm,DisTime_cm,MarkingTxt_cm,Application_cm,EntId_cm,Site_cm,ExerciseId_cm,ForceId_cm,Category_cm,Country_cm,Domain_cm,Kind_cm,Extra_cm,Specific_cm,Subcategory_cm,AltCategory_cm,AltCountry_cm,AltDomain_cm,AltKind_cm,ECEF_X_cm,ECEF_Y_cm,ECEF_Z_cm,OriPhi_cm,OriPsi_cm,OriTheta_cm,LinVelX_cm,LinVelY_cm,LinVelZ_cm,LinAccX_cm,LinAccY_cm,LinAccZ_cm,AngVelX_cm,AngVelY_cm,AngVelZ_cm,DrAlg_cm,Appearance_cm,Latitude_cm,Longitude_cm,Altitude_cm,Heading_cm,Pitch_cm,Roll_cm,CalibratedAirspeed_cm,CM_Altitude_Lead_cm,CM_Altitude_Wing_cm,CM_Airspeed_cm,Subject_ac,SampleDate_ac,SampleTime_ac,Configuration_ac,Scenario_ac,DisTime_ac,MarkingTxt_ac,Application_ac,EntId_ac,Site_ac,ExerciseId_ac,ForceId_ac,Category_ac,Country_ac,Domain_ac,Kind_ac,Extra_ac,Specific_ac,Subcategory_ac,AltCategory_ac,AltCountry_ac,AltDomain_ac,AltKind_ac,ECEF_X_ac,ECEF_Y_ac,ECEF_Z_ac,OriPhi_ac,OriPsi_ac,OriTheta_ac,LinVelX_ac,LinVelY_ac,LinVelZ_ac,LinAccX_ac,LinAccY_ac,LinAccZ_ac,AngVelX_ac,AngVelY_ac,AngVelZ_ac,DrAlg_ac,Appearance_ac,Latitude_ac,Longitude_ac,Altitude_ac,Heading_ac,Pitch_ac,Roll_ac,CalibratedAirspeed_ac,CM_Altitude_Lead_ac,CM_Altitude_Wing_ac,CM_Airspeed_ac,Bank_Angle_Condition,distance_nm,Distance_Condition,angle_between_vel,angle_between_pos,Cone_Condition,angle_between_pos_nose,Nose_Cone_Condition,Intercept_Criteria
2,1970-07-23 10:13:52.751378512,2025-09-11,2025-09-26 15:07:55.137,HA,D,2949447274,JASSM,3,130,76,2,2,1,225,9,2,0,1,26,0,0,0,0,-121118.13543092164,-4791455.800855932,4198577.921354771,2.29618,-3.09845,0.0772743,-85.75,-3.625,-6.5,0.0,0.0,0.0,0.0,0.0,0.0,2,0,41.40857301159803,-91.44801095347488,9999.99878868014,-95.91083165447986,0.003402613262369,0.000948802086281,,9077.867462759696,10906.843150451044,150,2,2025-09-11,2025-09-26 15:07:55.396,HA,D,3853566784,HAWK11,1,1,73,2,1,1,225,2,1,0,0,12,1,225,2,1,-142676.32068045562,-4791572.164033736,4198191.186979771,2.42657,2.55561,-0.597006,-92.0,41.0,45.375,-0.3125,-7.07812,7.14062,-0.0234375,0.0078125,-0.00585938,4,0,41.401739341086106,-91.70556468595755,10906.843150451044,-44.6719380354989,2.536599447890624,-1.3513856182924449,197.482,9077.867462759696,10906.843150451044,150,True,11.5973554382468,False,38.4613401907441,176.08098112183634,False,145.4145008419078,False,False
2,1970-07-23 10:13:52.763303155,2025-09-11,2025-09-26 15:07:56.330,HA,D,2950759622,JASSM,3,130,76,2,2,1,225,9,2,0,1,26,0,0,0,0,-121212.56902467164,-4791459.870191869,4198570.601042271,2.29618,-3.09845,0.0772743,-85.75,-3.625,-6.5,0.0,0.0,0.0,0.0,0.0,0.0,2,0,41.40848517462219,-91.44913822967771,9999.997873524297,-95.91157726145424,0.0042526350818675,0.0009490994003277,,9077.867462759696,10906.843150451044,150,2,2025-09-11,2025-09-26 15:07:56.396,HA,D,3854640484,HAWK11,1,1,73,2,1,1,225,2,1,0,0,12,1,225,2,1,-142760.34021170562,-4791534.422822799,4198232.095182896,2.39531,2.56012,-0.595856,-92.375,40.875,45.5,-0.140625,-7.04688,7.20312,0.0,0.00585938,0.0,4,0,41.402225115241954,-91.70658190280513,10908.922413616088,-44.87928819835255,2.6231529476260684,-3.0062368708306804,197.482,9077.867462759696,10906.843150451044,150,True,11.591255162399598,False,38.36082620438643,175.9135554550763,False,145.6857989299144,False,False
2,1970-07-23 10:13:52.783304095,2025-09-11,2025-09-26 15:07:58.330,HA,D,2952012322,JASSM,3,130,76,2,2,1,225,9,2,0,1,26,0,0,0,0,-121302.70964967164,-4791463.753980932,4198563.614714146,2.29618,-3.09845,0.0772743,-85.75,-3.625,-6.5,0.0,0.0,0.0,0.0,0.0,0.0,2,0,41.40840133183604,-91.45021425702927,10000.002549011266,-95.9122889700216,0.0050640137132506,0.0009493718772384,,9077.867462759696,10906.843150451044,150,2,2025-09-11,2025-09-26 15:07:58.207,HA,D,3856748114,HAWK11,1,1,73,2,1,1,225,2,1,0,0,12,1,225,2,1,-142924.83825858062,-4791461.473604049,4198312.442839146,2.41899,2.5605,-0.594609,-93.25,40.375,46.0,-0.109375,-6.96875,7.07812,0.0253906,0.0,0.0,4,0,41.40317228006133,-91.7085731731108,10915.881016331285,-44.94030062711886,2.5816135836444687,-1.6394388841622285,197.262,9077.867462759696,10906.843150451044,150,True,11.630602166830956,False,38.14169162156633,175.6055484342221,False,146.2218524093709,False,False
2,1970-07-23 10:13:52.784500840,2025-09-11,2025-09-26 15:07:58.450,HA,D,2953265022,JASSM,3,130,76,2,2,1,225,9,2,0,1,26,0,0,0,0,-121392.85027467164,-4791467.635816869,4198556.626432896,2.29618,-3.09845,0.0772743,-85.75,-3.625,-6.5,0.0,0.0,0.0,0.0,0.0,0.0,2,0,41.40831747742506,-91.4512902822046,10000.00238613981,-95.91300067596448,0.0058753929579167,0.0009496458993614,,9077.867462759696,10906.843150451044,150,2,2025-09-11,2025-09-26 15:07:58.505,HA,D,3857185548,HAWK11,1,1,73,2,1,1,225,2,1,0,0,12,1,225,2,1,-142958.40075858062,-4791446.587861861,4198328.927214146,2.43078,2.55916,-0.596623,-93.25,40.375,46.125,-0.015625,-6.92188,7.0625,0.0253906,0.00976562,0.0,4,0,41.40336615170685,-91.70897945917773,10917.496067598531,-44.8177333653207,2.629959428446352,-1.0012524065350918,197.262,9077.867462759696,10906.843150451044,150,True,11.600050580790002,False,38.18326232431294,175.52748089298947,False,146.2593976948816,False,False
2,1970-07-23 10:13:52.794220201,2025-09-11,2025-09-26 15:07:59.422,HA,D,2954637018,JASSM,3,130,76,2,2,1,225,9,2,0,1,26,0,0,0,0,-121491.57293092164,-4791471.886793432,4198548.970182896,2.29618,-3.09845,0.0772743,-85.75,-3.625,-6.5,0.0,0.0,0.0,0.0,0.0,0.0,2,0,41.40822561275187,-91.4524687496186,10000.000237736223,-95.91378013802198,0.0067640229773336,0.000949961139878,,9077.867462759696,10906.843150451044,150,2,2025-09-11,2025-09-26 15:07:59.505,HA,D,3858458080,HAWK11,1,1,73,2,1,1,225,2,1,0,0,12,1,225,2,1,-143058.83630545562,-4791402.461885299,4198378.061979771,2.45734,2.55427,-0.600458,-93.5,40.5,46.25,-0.1875,-7.01562,7.10938,0.0175781,0.00585938,0.0078125,4,0,41.403942493137386,-91.71019513180482,10922.943667932548,-44.49977596070123,2.652485526766352,0.3774364515068413,197.188,9077.867462759696,10906.843150451044,150,True,11.600783304204143,False,38.188238817627756,175.33063468474288,False,146.4525380782163,False,False
2,1970-07-23 10:13:52.805698102,2025-09-11,2025-09-26 15:08:00.569,HA,D,2955889722,JASSM,3,130,76,2,2,1,225,9,2,0,1,26,0,0,0,0,-121581.71355592164,-4791475.766676244,4198541.979948521,2.29618,-3.09845,0.0773702,-85.75,-3.625,-6.5,0.0,0.0,0.0,0.0,0.0,0.0,2,0,41.40814173569405,-91.45354476958704,9999.999841270235,-95.91860215100404,0.0039311813891353,0.0009498240164987,,9077.867462759696,10906.843150451044,150,2,2025-09-11,2025-09-26 15:08:00.505,HA,D,3859611312,HAWK11,1,1,73,2,1,1,225,2,1,0,0,12,1,225,2,1,-143148.58044608062,-4791363.046846236,4198422.395964146,2.47853,2.55159,-0.606306,-93.375,40.625,46.625,-0.234375,-7.125,7.23438,0.0136719,0.00390625,0.0,4,0,41.40446029009436,-91.71128140831556,10928.783613265325,-44.18912434377455,2.8311776990539017,1.519263351783534,197.152,9077.867462759696,10906.843150451044,150,True,11.600516174686625,False,38.381434342077775,175.1533051653871,False,146.4388400100898,False,False
2,1970-07-23 10:13:52.815378292,2025-09-11,2025-09-26 15:08:01.537,HA,D,2957142422,JASSM,3,130,76,2,2,1,225,9,2,0,1,26,0,0,0,0,-121671.85418092164,-4791479.645582494,4198534.989714146,2.29618,-3.09845,0.0773702,-85.75,-3.625,-6.5,0.0,0.0,0.0,0.0,0.0,0.0,2,0,41.40805785438365,-91.4546207870837,10000.001247005152,-95.91931384822156,0.004742560912142,0.0009500356535567,,9077.867462759696,10906.843150451044,150,2,2025-09-11,2025-09-26 15:08:01.529,HA,D,3860446410,HAWK11,1,1,73,2,1,1,225,2,1,0,0,12,1,225,2,1,-143213.99646170562,-4791334.258760299,4198454.841276646,2.48735,2.54689,-0.608223,-93.25,40.625,47.0,-0.21875,-7.09375,7.10938,0.00585938,-0.0117188,0.0,4,0,41.40483893249679,-91.71207324468736,10933.183073847054,-43.94885051418169,2.7762921709755237,1.882992933319693,197.115,9077.867462759696,10906.843150451044,150,True,11.587249228711341,False,38.54098456538802,175.01784475973855,False,146.4172281652202,False,False
2,1970-07-23 10:13:52.835298858,2025-09-11,2025-09-26 15:08:03.529,HA,D,2958395122,JASSM,3,130,76,2,2,1,225,9,2,0,1,26,0,0,0,0,-121761.99480592164,-4791483.524488744,4198527.997526646,2.29618,-3.09855,0.0773702,-85.75,-3.625,-6.5,0.0,0.0,0.0,0.0,0.0,0.0,2,0,41.40797394982612,-91.45569680181192,10000.002618894072,-95.91639336754169,0.0014571855676812,0.0013749349748179,,9077.867462759696,10906.843150451044,150,2,2025-09-11,2025-09-26 15:08:03.506,HA,D,3863230074,HAWK11,1,1,73,2,1,1,225,2,1,0,0,12,1,225,2,1,-143431.77771170562,-4791237.207979049,4198565.526823521,2.48534,2.5304,-0.614263,-92.375,40.625,47.625,-0.265625,-7.59375,6.45312,0.0,0.0,0.00976562,4,0,41.40612467685312,-91.71470990189069,10950.668192702278,-43.13102081005528,2.5589179578064134,1.2640856278395944,197.042,9077.867462759696,10906.843150451044,150,True,11.656413294050706,False,38.9982851782537,174.61058292219403,False,146.37206700230692,False,False
2,1970-07-23 10:13:52.837422119,2025-09-11,2025-09-26 15:08:03.742,HA,D,2959707472,JASSM,3,130,76,2,2,1,225,9,2,0,1,26,0,0,0,0,-121856.42449342164,-4791487.586012182,4198520.671354771,2.29618,-3.09855,0.0773702,-85.75,-3.625,-6.5,0.0,0.0,0.0,0.0,0.0,0.0,2,0,41.40788604507309,-91.45682401299104,10000.000988471464,-95.91713892267836,0.0023071736441323,0.0013752214172162,,9077.867462759696,10906.843150451044,150,2,2025-09-11,2025-09-26 15:08:03.895,HA,D,3863667508,HAWK11,1,1,73,2,1,1,225,2,1,0,0,12,1,225,2,1,-143465.01403983062,-4791222.452119674,4198582.540495396,2.48745,2.5281,-0.615126,-92.125,40.5,47.625,0.0625,-7.53125,6.32812,0.0175781,0.0,0.00585938,4,0,41.40632138420596,-91.71511227994468,10953.73982614291,-43.01626972757948,2.530249399532929,1.3141001673471422,197.005,9077.867462759696,10906.843150451044,150,True,11.623661718358125,False,39.03722964506402,174.52784733216717,False,146.41667140516665,False,False
2,1970-07-23 10:13:52.848419684,2025-09-11,2025-09-26 15:08:04.841,HA,D,2961019822,JASSM,3,130,76,2,2,1,225,9,2,0,1,26,0,0,0,0,-121950.85808717164,-4791491.646559057,4198513.345182896,2.29618,-3.09855,0.0773702,-85.75,-3.625,-6.5,0.0,0.0,0.0,0.0,0.0,0.0,2,0,41.40779813449552,-91.4579512681083,10000.00181445195,-95.91788450557536,0.0031571962413885,0.0013754990770988,,9077.867462759696,10906.843150451044,150,2,2025-09-11,2025-09-26 15:08:04.896,HA,D,3864900272,HAWK11,1,1,73,2,1,1,225,2,1,0,0,12,1,225,2,1,-143560.18396170562,-4791179.836885299,4198632.042448521,2.51544,2.52436,-0.620304,-91.25,40.25,47.625,-0.21875,-7.73438,6.39062,0.0839844,0.00195312,-0.00390625,4,0,41.406892087776896,-91.71626460428668,10963.349621448086,-42.69485050856716,2.65334600838398,2.8088437128179584,196.993,9077.867462759696,10906.843150451044,150,True,11.624553587772366,False,39.22513975071741,174.3335355639837,False,146.42492020642348,False,False
2,1970-07-23 10:13:52.859462784,2025-09-11,2025-09-26 15:08:05.946,HA,D,2962332174,JASSM,3,130,76,2,2,1,225,9,2,0,1,26,0,0,0,0,-122045.29168092164,-4791495.706129369,4198506.017057896,2.29618,-3.09855,0.0773702,-85.75,-3.625,-6.5,0.0,0.0,0.0,0.0,0.0,0.0,2,0,41.40771020550064,-91.45907852048325,10000.000614387163,-95.91863008535664,0.0040072198333751,0.0013757840890254,,9077.867462759696,10906.843150451044,150,2,2025-09-11,2025-09-26 15:08:06.009,HA,D,3866172804,HAWK11,1,1,73,2,1,1,225,2,1,0,0,12,1,225,2,1,-143655.93200858062,-4791136.648408736,4198682.653776646,2.59703,2.51765,-0.626631,-89.75,40.375,47.875,0.015625,-7.5,6.28125,0.0410156,-0.0136719,0.0234375,4,0,41.40747357453398,-91.71742406051357,10974.006266272354,-42.22494888214857,2.7430695435320347,7.281417916116237,197.225,9077.867462759696,10906.843150451044,150,True,11.625900089165206,False,39.78634141861874,174.13595582444876,False,146.0621237216791,False,False
2,1970-07-23 10:13:52.869219868,2025-09-11,2025-09-26 15:08:06.921,HA,D,2963584872,JASSM,3,130,76,2,2,1,225,9,2,0,1,26,0,0,0,0,-122135.42839967164,-4791499.581129369,4198499.020964146,2.29618,-3.09855,0.0773702,-85.75,-3.625,-6.5,0.0,0.0,0.0,0.0,0.0,0.0,2,0,41.40762625672146,-91.4601544782464,10000.001074181868,-95.9193417369812,0.0048185670834289,0.0013760665071293,,9077.867462759696,10906.843150451044,150,2,2025-09-11,2025-09-26 15:08:07.099,HA,D,3867524870,HAWK11,1,1,73,2,1,1,225,2,1,0,0,12,1,225,2,1,-143757.30896170562,-4791089.876924361,4198737.505339146,2.61726,2.49205,-0.636123,-88.0,40.75,48.125,-0.09375,-7.42188,6.1875,-0.0683594,-0.00195312,0.00976562,4,0,41.40810398145653,-91.7186520752326,10985.473929978338,-40.957135383149,2.44202531767224,7.632389076941878,197.005,9077.867462759696,10906.843150451044,150,True,11.632784528421249,False,40.50235000275995,173.9252590898774,False,145.5563559378964,False,False
2,1970-07-23 10:13:52.880236848,2025-09-11,2025-09-26 15:08:08.023,HA,D,2964897222,JASSM,3,130,76,2,2,1,225,9,2,0,1,26,0,0,0,0,-122229.86199342164,-4791503.638746557,4198491.690886021,2.29618,-3.09855,0.0773702,-85.75,-3.5,-6.5,0.0,0.0,0.0,0.0,0.0,0.0,2,0,41.4075383045781,-91.46128172527445,9999.999850342076,-95.92008731068113,0.0056685913057067,0.0013763531079895,,9077.867462759696,10906.843150451044,150,2,2025-09-11,2025-09-26 15:08:08.100,HA,D,3868757636,HAWK11,1,1,73,2,1,1,225,2,1,0,0,12,1,225,2,1,-143846.62341483062,-4791047.069307174,4198787.233854771,2.57143,2.47556,-0.635452,-86.625,41.25,48.25,-0.140625,-7.21875,5.8125,-0.0449219,-0.0136719,0.0078125,4,0,41.40867836751412,-91.71973456564318,10994.69091434845,-40.37689180275284,1.950649522701695,4.468091239980662,197.225,9077.867462759696,10906.843150451044,150,True,11.630951998744573,False,41.054546930417885,173.77750954677057,False,145.14521914049578,False,False
2,1970-07-23 10:13:52.891358053,2025-09-11,2025-09-26 15:08:09.135,HA,D,2966149922,JASSM,3,130,76,2,2,1,225,9,2,0,1,26,0,0,0,0,-122320.00261842164,-4791507.510816869,4198484.694792271,2.29618,-3.09855,0.0773702,-85.75,-3.5,-6.5,0.0,0.0,0.0,0.0,0.0,0.0,2,0,41.407454352034016,-91.46235772493785,10000.001957297529,-95.92079898759172,0.0064799723333646,0.0013766151736703,,9077.867462759696,10906.843150451044,150,2,2025-09-11,2025-09-26 15:08:09.101,HA,D,3869910868,HAWK11,1,1,73,2,1,1,225,2,1,0,0,12,1,225,2,1,-143930.06286795562,-4791005.639619674,4198834.360807896,2.61122,2.46587,-0.620879,-85.5,42.5,47.75,-0.140625,-6.29688,5.15625,0.0820312,-0.015625,-0.00195312,4,0,41.40922803546152,-91.72074638360158,11001.223634728456,-40.52111110993239,1.0145111856220477,6.418222844865578,197.188,9077.867462759696,10906.843150451044,150,True,11.628364589298078,False,41.58427492252962,173.59085068572543,False,144.79131210569125,False,False
2,1970-07-23 10:13:52.901298798,2025-09-11,2025-09-26 15:08:10.129,HA,D,2967223664,JASSM,3,130,76,2,2,1,225,9,2,0,1,26,0,0,0,0,-122397.26433717164,-4791510.829176244,4198478.696745396,2.29618,-3.09855,0.0773702,-85.75,-3.5,-6.5,0.0,0.0,0.0,0.0,0.0,0.0,2,0,41.407382378859175,-91.46327998832317,10000.002604435347,-95.92140898084936,0.0071754275999829,0.0013768471771471,,9077.867462759696,10906.843150451044,150,2,2025-09-11,2025-09-26 15:08:10.207,HA,D,3871183400,HAWK11,1,1,73,2,1,1,225,2,1,0,0,12,1,225,2,1,-144019.77185233062,-4790959.001924361,4198884.989714146,2.77085,2.44871,-0.619057,-84.0,44.5,47.5,-0.265625,-6.35938,5.79688,0.1875,-0.00195312,0.0253906,4,0,41.40983119543769,-91.72183499904638,11003.01584001821,-39.94079308630242,0.4553217765418116,15.00072377185959,197.262,9077.867462759696,10906.843150451044,150,False,11.636304242949484,False,42.54321197655936,173.39308128106254,False,144.01276053753656,False,False
2,1970-07-23 10:13:52.911440007,2025-09-11,2025-09-26 15:08:11.144,HA,D,2968536012,JASSM,3,130,76,2,2,1,225,9,2,0,1,26,0,0,0,0,-122491.69793092164,-4791514.883863744,4198471.364714146,2.29618,-3.09855,0.077466,-85.75,-3.5,-6.5,0.0,0.0,0.0,0.0,0.0,0.0,2,0,41.4072944003418,-91.4644072278138,10000.00273015779,-95.92626488607466,0.0043812612503308,0.0013766845756965,,9077.867462759696,10906.843150451044,150,2,2025-09-11,2025-09-26 15:08:11.302,HA,D,3872535464,HAWK11,1,1,73,2,1,1,225,2,1,0,0,12,1,225,2,1,-144114.46521170562,-4790906.573213424,4198939.436979771,2.96921,2.39713,-0.636602,-81.625,47.25,48.375,-0.234375,-6.65625,6.65625,0.105469,0.00976562,0.0429688,4,0,41.41049368000509,-91.72298527140806,10999.226703827437,-37.40962991163797,-0.1090401922602622,24.637741230590205,197.225,9077.867462759696,10906.843150451044,150,False,11.638012028340924,False,44.38653818577473,173.17332372211953,False,142.37195916929272,False,False
2,1970-07-23 10:13:52.921219109,2025-09-11,2025-09-26 15:08:12.121,HA,D,2969788714,JASSM,3,130,76,2,2,1,225,9,2,0,1,26,0,0,0,0,-122581.83464967164,-4791518.753004369,4198464.364714146,2.29618,-3.09864,0.077466,-85.75,-3.5,-6.5,0.0,0.0,0.0,0.0,0.0,0.0,2,0,41.40721041022702,-91.46548317364352,10000.001120952717,-95.92333537153104,0.001085665240461,0.0018031342512061,,9077.867462759696,10906.843150451044,150,2,2025-09-11,2025-09-26 15:08:12.210,HA,D,3873450096,HAWK11,1,1,73,2,1,1,225,2,1,0,0,12,1,225,2,1,-144176.28747733062,-4790869.426729049,4198977.056120396,3.05262,2.35658,-0.643217,-79.5,49.5,49.75,0.015625,-6.95312,7.01562,0.0664062,0.0214844,0.0488281,4,0,41.4109575337891,-91.72373730933246,10994.0786595989,-35.65061608546067,-0.8307317452160862,28.014936519555725,196.932,9077.867462759696,10906.843150451044,150,False,11.62404196638119,False,46.17123613708562,173.01146422274445,False,140.74043250436722,False,False
2,1970-07-23 10:13:52.932240068,2025-09-11,2025-09-26 15:08:13.224,HA,D,2971101064,JASSM,3,130,76,2,2,1,225,9,2,0,1,26,0,0,0,0,-122676.26824342164,-4791522.805738744,4198457.030729771,2.29618,-3.09864,0.077466,-85.75,-3.5,-6.5,0.0,0.0,0.0,0.0,0.0,0.0,2,0,41.40712240856151,-91.4666104077862,10000.00122293682,-95.9240809305908,0.0019356903614506,0.001803411300342,,9077.867462759696,10906.843150451044,150,2,2025-09-11,2025-09-26 15:08:13.099,HA,D,3874643096,HAWK11,1,1,73,2,1,1,225,2,1,0,0,12,1,225,2,1,-144255.80700858062,-4790817.241182174,4199028.925261021,3.13536,2.32034,-0.644847,-76.375,52.625,52.125,-0.21875,-7.23438,7.39062,0.0566406,0.0292969,0.0449219,4,0,41.41160387118147,-91.72470622722749,10984.18147236756,-34.199991020637334,-1.6425647652120092,31.477619853796455,196.846,9077.867462759696,10906.843150451044,150,False,11.617870768787409,False,48.84529656669191,172.7956342962052,False,138.27522264284588,False,False
2,1970-07-23 10:13:52.943258148,2025-09-11,2025-09-26 15:08:14.325,HA,D,2972413416,JASSM,3,130,76,2,2,1,225,9,2,0,1,26,0,0,0,0,-122770.70183717164,-4791526.857496557,4198449.694792271,2.29618,-3.09864,0.077466,-85.75,-3.5,-6.5,0.0,0.0,0.0,0.0,0.0,0.0,2,0,41.40703438847887,-91.46773763918544,9999.999298933708,-95.92482648653292,0.0027857164793911,0.001803695701527,,9077.867462759696,10906.843150451044,150,2,2025-09-11,2025-09-26 15:08:14.395,HA,D,3876193994,HAWK11,1,1,73,2,1,1,225,2,1,0,0,12,1,225,2,1,-144354.22888358062,-4790744.328096236,4199100.522917271,-3.07927,2.29455,-0.635164,-72.0,57.375,56.25,-0.203125,-7.85938,7.95312,0.0527344,0.0371094,0.0449219,4,0,41.41250329353621,-91.72590848798582,10967.528129952423,-33.477298757525524,-2.732107513263233,34.49536281373383,196.773,9077.867462759696,10906.843150451044,150,False,11.622783795078211,False,52.85069010183596,172.5071291567881,False,134.5537050330206,False,False
2,1970-07-23 10:13:52.954377489,2025-09-11,2025-09-26 15:08:15.437,HA,D,2973666116,JASSM,3,130,76,2,2,1,225,9,2,0,1,26,0,0,0,0,-122860.83855592164,-4791530.723707494,4198442.692839146,2.29618,-3.09864,0.077466,-85.75,-3.5,-6.5,0.0,0.0,0.0,0.0,0.0,0.0,2,0,41.406950371467325,-91.46881357733244,9999.999257901123,-95.9255381156712,0.0035970645143545,0.0018039588945976,,9077.867462759696,10906.843150451044,150,2,2025-09-11,2025-09-26 15:08:15.395,HA,D,3877386992,HAWK11,1,1,73,2,1,1,225,2,1,0,0,12,1,225,2,1,-144424.28552420562,-4790684.198213424,4199158.811979771,-3.00689,2.24786,-0.647532,-67.375,61.0,59.625,-0.109375,-8.07812,8.125,0.0351562,0.0273438,0.0507812,4,0,41.41324191024434,-91.72676724273347,10951.337788486531,-31.26487224492193,-3.192016250828405,36.92775872715683,196.7,9077.867462759696,10906.843150451044,150,False,11.614528497008262,False,56.406459450303785,172.26487874935327,False,131.23932028046974,False,False
2,1970-07-23 10:13:52.965338735,2025-09-11,2025-09-26 15:08:16.533,HA,D,2974918814,JASSM,3,130,76,2,2,1,225,9,2,0,1,26,0,0,0,0,-122950.97918092164,-4791534.589918432,4198435.688932896,2.29618,-3.09864,0.077466,-85.75,-3.5,-6.5,0.0,0.0,0.0,0.0,0.0,0.0,2,0,41.40686633061348,-91.46988955938605,9999.999429364703,-95.92624977266144,0.0044084488074975,0.0018042322175534,,9077.867462759696,10906.843150451044,150,2,2025-09-11,2025-09-26 15:08:16.395,HA,D,3878540224,HAWK11,1,1,73,2,1,1,225,2,1,0,0,12,1,225,2,1,-144486.89099295562,-4790622.734346236,4199218.183073521,-2.9463,2.18899,-0.665939,-62.0,64.75,63.0,-0.171875,-8.67188,8.64062,0.0332031,0.0488281,0.0546875,4,0,41.4139970990255,-91.72753746412651,10933.668423321344,-28.407605812008075,-3.5190405752352247,38.17258154377788,196.773,9077.867462759696,10906.843150451044,150,False,11.602538641966394,False,60.243927190627765,172.01663596279812,False,127.64821216985106,False,False
2,1970-07-23 10:13:52.975421991,2025-09-11,2025-09-26 15:08:17.542,HA,D,2976231164,JASSM,3,130,76,2,2,1,225,9,2,0,1,26,0,0,0,0,-123045.41277467164,-4791538.637769994,4198428.352995396,2.29618,-3.09864,0.077466,-85.75,-3.5,-6.5,0.0,0.0,0.0,0.0,0.0,0.0,2,0,41.4067783016463,-91.47101678313042,10000.00132003209,-95.92699531975154,0.0052584734566913,0.0018044935281995,,9077.867462759696,10906.843150451044,150,2,2025-09-11,2025-09-26 15:08:17.599,HA,D,3880051356,HAWK11,1,1,73,2,1,1,225,2,1,0,0,12,1,225,2,1,-144560.86364920562,-4790537.122041549,4199301.647917271,-2.84467,2.08794,-0.701029,-53.75,68.75,67.875,-0.28125,-9.3125,9.35938,0.0332031,0.0507812,0.0585938,4,0,41.41505654175552,-91.7284522416873,10909.750499118973,-23.481744450262312,-3.5946593728796024,40.03100185928593,196.736,9077.867462759696,10906.843150451044,150,False,11.59574534840134,False,65.62341597564576,171.67825997029323,False,122.61679657913007,False,False
2,1970-07-23 10:13:52.986898482,2025-09-11,2025-09-26 15:08:18.689,HA,D,2977483864,JASSM,3,130,76,2,2,1,225,9,2,0,1,26,0,0,0,0,-123135.54949342164,-4791542.502027807,4198421.347136021,2.29618,-3.09864,0.077466,-85.75,-3.5,-6.5,0.0,0.0,0.0,0.0,0.0,0.0,2,0,41.40669423922287,-91.47209271342584,10000.000811037398,-95.92770694007676,0.006069823497084,0.0018047714578877,,9077.867462759696,10906.843150451044,150,2,2025-09-11,2025-09-26 15:08:18.802,HA,D,3881323888,HAWK11,1,1,73,2,1,1,225,2,1,0,0,12,1,225,2,1,-144613.58435233062,-4790461.398408736,4199376.290495396,-2.74563,1.99092,-0.728449,-45.625,71.875,72.125,-0.4375,-9.875,9.82812,0.0195312,0.0546875,0.0644531,4,0,41.41600141486922,-91.72910953324264,10889.436347286672,-18.99163490047726,-3.636998095675402,41.776701010638696,196.858,9077.867462759696,10906.843150451044,150,False,11.579751031482932,False,70.58637275738577,171.3717672372417,False,117.97034208203434,False,False
2,1970-07-23 10:13:52.999768154,2025-09-11,2025-09-26 15:08:19.976,HA,D,2978796216,JASSM,3,130,76,2,2,1,225,9,2,0,1,26,0,0,0,0,-123229.98308717164,-4791546.547926244,4198414.007292271,2.29618,-3.09864,0.077466,-85.75,-3.5,-6.5,0.0,0.0,0.0,0.0,0.0,0.0,2,0,41.40660617392423,-91.473219931821,9999.998439831385,-95.92845248108,0.0069198501418611,0.0018050474706847,,9077.867462759696,10906.843150451044,150,2,2025-09-11,2025-09-26 15:08:20.012,HA,D,3882755488,HAWK11,1,1,73,2,1,1,225,2,1,0,0,12,1,225,2,1,-144662.05505545562,-4790372.213838424,4199466.052214146,-2.64966,1.86225,-0.760471,-35.0,74.625,76.75,-0.234375,-10.4375,10.3906,0.0,0.0742188,0.0566406,4,0,41.41712918535647,-91.72972091653004,10868.524716972095,-13.26439170679892,-3.4102635674562305,41.92383481340618,196.968,9077.867462759696,10906.843150451044,150,False,11.560334788053636,False,76.6317414308004,171.00795123869642,False,112.3025050044584,False,False
2,1970-07-23 10:13:53.009325242,2025-09-11,2025-09-26 15:08:20.932,HA,D,2980168218,JASSM,3,130,76,2,2,1,225,9,2,0,1,26,0,0,0,0,-123328.70574342164,-4791550.777418432,4198406.333464146,2.29618,-3.09874,0.077466,-85.75,-3.5,-6.5,0.0,0.0,0.0,0.0,0.0,0.0,2,0,41.40651409381745,-91.474398343943,9999.99914620352,-95.92559979344836,0.003711704378149,0.0022306815808207,,9077.867462759696,10906.843150451044,150,2,2025-09-11,2025-09-26 15:08:21.012,HA,D,3884067786,HAWK11,1,1,73,2,1,1,225,2,1,0,0,12,1,225,2,1,-144694.60778983062,-4790287.343721236,4199553.669401646,-2.5744,1.73848,-0.789233,-24.375,75.75,80.875,-0.578125,-11.5,10.7344,-0.00976562,0.0742188,0.0527344,4,0,41.41821966911143,-91.73014054624764,10852.39548876412,-7.969088330343986,-2.7705997528196216,40.98521276313622,197.152,9077.867462759696,10906.843150451044,150,False,11.530359738739314,False,82.3535544339664,170.64902312450505,False,106.95757119980625,False,False
2,1970-07-23 10:13:53.019467870,2025-09-11,2025-09-26 15:08:21.946,HA,D,2981420918,JASSM,3,130,76,2,2,1,225,9,2,0,1,26,0,0,0,0,-123418.84636842164,-4791554.637769994,4198399.325651646,2.29618,-3.09874,0.0775619,-85.75,-3.5,-6.5,0.0,0.0,0.0,0.0,0.0,0.0,2,0,41.40643000923132,-91.47547431340008,9999.998250719116,-95.93042183037582,0.000878959608104,0.0022308041736944,,9077.867462759696,10906.843150451044,150,2,2025-09-11,2025-09-26 15:08:22.012,HA,D,3885260784,HAWK11,1,1,73,2,1,1,225,2,1,0,0,12,1,225,2,1,-144712.85778983062,-4790210.390596236,4199635.745573521,-2.48217,1.6195,-0.809654,-13.75,75.875,83.625,-0.203125,-11.5781,10.4219,0.00585938,0.078125,0.0585938,4,0,41.41922821758823,-91.73038641299628,10842.654157383697,-3.1186934289774446,-2.0987297002879317,41.17290096261227,197.347,9077.867462759696,10906.843150451044,150,False,11.497280151125626,False,87.83447748665715,170.31346016481913,False,101.82485612971428,False,False
2,1970-07-23 10:13:53.029729845,2025-09-11,2025-09-26 15:08:22.972,HA,D,2982675828,JASSM,3,130,76,2,2,1,225,9,2,0,1,26,0,0,0,0,-123509.14324342164,-4791558.503980932,4198392.306120396,2.29618,-3.09874,0.0775619,-85.75,-3.5,-6.5,0.0,0.0,0.0,0.0,0.0,0.0,2,0,41.40634577664871,-91.47655214541992,10000.00045208709,-95.93113470360812,0.0016917502790433,0.0022310549921898,,9077.867462759696,10906.843150451044,150,2,2025-09-11,2025-09-26 15:08:22.898,HA,D,3886414016,HAWK11,1,1,73,2,1,1,225,2,1,0,0,12,1,225,2,1,-144720.22302420562,-4790136.030244674,4199717.269011021,-2.38524,1.50512,-0.821255,-3.625,75.125,85.25,-0.15625,-11.2656,10.0,0.0,0.0722656,0.0527344,4,0,41.42021956368559,-91.73050127527542,10837.28698278206,1.3849464821373727,-1.5069177868048358,41.81118896521463,197.457,9077.867462759696,10906.843150451044,150,False,11.45856368839322,False,92.96558774454515,169.97860977949142,False,97.03812805985888,False,False
2,1970-07-23 10:13:53.041727519,2025-09-11,2025-09-26 15:08:24.172,HA,D,2984045620,JASSM,3,130,76,2,2,1,225,9,2,0,1,26,0,0,0,0,-123607.70964967164,-4791562.723707494,4198384.642057896,2.29618,-3.09874,0.0775619,-85.75,-3.5,-6.5,0.0,0.0,0.0,0.0,0.0,0.0,2,0,41.40625381042399,-91.4777286840015,10000.002671604854,-95.93191285955348,0.0025789785751192,0.0022313367301826,,9077.867462759696,10906.843150451044,150,2,2025-09-11,2025-09-26 15:08:24.100,HA,D,3887766082,HAWK11,1,1,73,2,1,1,225,2,1,0,0,12,1,225,2,1,-144716.96521170562,-4790050.483369674,4199814.270964146,-2.25629,1.35163,-0.82231,8.125,73.625,85.875,-0.28125,-11.5625,10.2031,0.00390625,0.0761719,0.0507812,4,0,41.42138384575224,-91.73049322948934,10837.225713093723,7.345346969711994,-0.943164494870606,42.62538724074447,197.567,9077.867462759696,10906.843150451044,150,False,11.41116114907588,False,98.91498879241283,169.58328033143013,False,91.49107844867846,False,False
2,1970-07-23 10:13:53.052927108,2025-09-11,2025-09-26 15:08:25.292,HA,D,2985357970,JASSM,3,130,76,2,2,1,225,9,2,0,1,26,0,0,0,0,-123702.13933717164,-4791566.764723119,4198377.296354771,2.29618,-3.09874,0.0775619,-85.75,-3.5,-6.5,0.0,0.0,0.0,0.0,0.0,0.0,2,0,41.406165680009295,-91.4788558419966,9999.9983986613,-95.9326583541256,0.0034289726086315,0.0022316192024188,,9077.867462759696,10906.843150451044,150,2,2025-09-11,2025-09-26 15:08:25.305,HA,D,3889237446,HAWK11,1,1,73,2,1,1,225,2,1,0,0,12,1,225,2,1,-144695.72888358062,-4789957.665986861,4199920.104948521,-2.14278,1.20839,-0.810517,22.0,71.875,84.875,-0.171875,-11.0312,9.6875,-0.00585938,0.0683594,0.0546875,4,0,41.422654228507504,-91.73027295190364,10837.130265647178,12.988251350472552,-0.5189106918099453,43.0721542000477,197.824,9077.867462759696,10906.843150451044,150,False,11.357541561841222,False,106.00078410247725,169.15082027227794,False,84.84018086003158,False,False
2,1970-07-23 10:13:53.062404081,2025-09-11,2025-09-26 15:08:26.240,HA,D,2986610670,JASSM,3,130,76,2,2,1,225,9,2,0,1,26,0,0,0,0,-123792.27996217164,-4791570.621168432,4198370.286589146,2.29618,-3.09874,0.0775619,-85.75,-3.5,-6.5,0.0,0.0,0.0,0.0,0.0,0.0,2,0,41.406081563795496,-91.4799318011612,10000.001074236869,-95.93336998492664,0.0042403573380486,0.0022318674168796,,9077.867462759696,10906.843150451044,150,2,2025-09-11,2025-09-26 15:08:26.210,HA,D,3890152080,HAWK11,1,1,73,2,1,1,225,2,1,0,0,12,1,225,2,1,-144676.06872733062,-4789903.087861861,4199984.888151646,-2.07768,1.11271,-0.794506,29.125,69.75,84.0,-0.3125,-10.8125,9.53125,-0.00195312,0.0722656,0.0488281,4,0,41.42341973820366,-91.73005769922564,10842.083852716434,16.90200992972913,-0.339455479345071,42.82890251983267,198.239,9077.867462759696,10906.843150451044,150,False,11.30424772228134,False,109.75695396975378,168.8685266874015,False,81.36968335050885,False,False
2,1970-07-23 10:13:53.073425750,2025-09-11,2025-09-26 15:08:27.342,HA,D,2987863368,JASSM,3,130,76,2,2,1,225,9,2,0,1,26,0,0,0,0,-123882.42058717164,-4791574.476637182,4198363.274870396,2.29618,-3.09874,0.0775619,-85.75,-3.5,-6.5,0.0,0.0,0.0,0.0,0.0,0.0,2,0,41.40599743014618,-91.4810077578516,10000.001313902716,-95.9340816129022,0.0050517430663407,0.0022321229796395,,9077.867462759696,10906.843150451044,150,2,2025-09-11,2025-09-26 15:08:27.398,HA,D,3891702978,HAWK11,1,1,73,2,1,1,225,2,1,0,0,12,1,225,2,1,-144626.55114920562,-4789810.990205611,4200090.712370396,-1.97529,0.986541,-0.760279,42.0,67.25,80.625,-0.296875,-10.3594,8.9375,0.0,0.0546875,0.0507812,4,0,41.42469085277319,-91.72949915409342,10841.653775717068,22.412987831013545,-0.350469295611556,43.587676518427024,198.581,9077.867462759696,10906.843150451044,150,False,11.238843283121096,False,116.62077057088918,168.42308409204102,False,74.95027661907653,False,False
2,1970-07-23 10:13:53.085357361,2025-09-11,2025-09-26 15:08:28.535,HA,D,2989175718,JASSM,3,130,76,2,2,1,225,9,2,0,1,26,0,0,0,0,-123976.85027467164,-4791578.514723119,4198355.927214146,2.29608,-3.09874,0.0775619,-85.75,-3.5,-6.5,0.0,0.0,0.0,0.0,0.0,0.0,2,0,41.40590927185464,-91.48213490788916,9999.999019249706,-95.93482709841636,0.0059017373737964,-0.003259070814996,,9077.867462759696,10906.843150451044,150,2,2025-09-11,2025-09-26 15:08:28.600,HA,D,3893214110,HAWK11,1,1,73,2,1,1,225,2,1,0,0,12,1,225,2,1,-144565.23474295562,-4789726.929658736,4200188.620573521,-1.87836,0.857208,-0.714356,53.125,63.75,76.5,-0.28125,-10.2969,9.03125,-0.0078125,0.0605469,0.0566406,4,0,41.42586283414823,-91.72879667603075,10842.937944975274,28.49451435462657,-0.3325633499921593,44.11792411410561,198.948,9077.867462759696,10906.843150451044,150,False,11.164788812001666,False,122.89611284567579,167.9964831326069,False,69.10128579084864,False,False
2,1970-07-23 10:13:53.095356137,2025-09-11,2025-09-26 15:08:29.535,HA,D,2990428418,JASSM,3,130,76,2,2,1,225,9,2,0,1,26,0,0,0,0,-124066.99089967164,-4791582.368238744,4198348.913542271,2.29608,-3.09874,0.0775619,-85.75,-3.5,-6.5,0.0,0.0,0.0,0.0,0.0,0.0,2,0,41.40582511603943,-91.48321085949856,9999.998825300552,-95.93553872059692,0.0067131237383918,-0.0032588136670443,,9077.867462759696,10906.843150451044,150,2,2025-09-11,2025-09-26 15:08:29.506,HA,D,3894049208,HAWK11,1,1,73,2,1,1,225,2,1,0,0,12,1,225,2,1,-144523.95349295562,-4789681.722627486,4200240.231901646,-1.83752,0.797574,-0.688278,59.375,61.625,73.75,-0.21875,-9.98438,8.9375,-0.00195312,0.0585938,0.0546875,4,0,41.426487568408085,-91.72831961240686,10840.752827044407,31.502206662909312,-0.3531924444766074,44.23487921332753,199.4,9077.867462759696,10906.843150451044,150,False,11.099988850044115,False,126.52220696332753,167.7404419747707,False,65.73043788740883,False,False
2,1970-07-23 10:13:53.105223489,2025-09-11,2025-09-26 15:08:30.522,HA,D,2991740768,JASSM,3,130,76,2,2,1,225,9,2,0,1,26,0,0,0,0,-124161.42058717164,-4791586.404371557,4198341.565886021,2.29608,-3.09883,0.0775619,-85.75,-3.5,-6.5,0.0,0.0,0.0,0.0,0.0,0.0,2,0,41.405736947785606,-91.4843380041843,10000.00074477844,-95.93265217094628,0.003466340708649,-0.002832695184935,,9077.867462759696,10906.843150451044,150,2,2025-09-11,2025-09-26 15:08:30.710,HA,D,3895600106,HAWK11,1,1,73,2,1,1,225,2,1,0,0,12,1,225,2,1,-144438.81677420562,-4789603.439424361,4200330.522917271,-1.74816,0.678978,-0.627878,70.375,57.375,68.125,-0.328125,-10.0469,9.76562,0.00585938,0.0683594,0.0625,4,0,41.427578034184044,-91.7273303189005,10837.956718463314,37.893652205768525,-0.3688692075188478,45.15343236311819,199.547,9077.867462759696,10906.843150451044,150,False,11.013549887531566,False,133.1223375299834,167.3212733231948,False,59.54698900962254,False,False
2,1970-07-23 10:13:53.116249896,2025-09-11,2025-09-26 15:08:31.624,HA,D,2992993468,JASSM,3,130,76,2,2,1,225,9,2,0,1,26,0,0,0,0,-124251.56121217164,-4791590.255934057,4198334.550261021,2.29608,-3.09883,0.0775619,-85.75,-3.5,-6.5,0.0,0.0,0.0,0.0,0.0,0.0,2,0,41.40565276980463,-91.4854139507122,10000.000117217336,-95.93336378734604,0.0042777276921278,-0.0028323850172551,,9077.867462759696,10906.843150451044,150,2,2025-09-11,2025-09-26 15:08:31.600,HA,D,3896793106,HAWK11,1,1,73,2,1,1,225,2,1,0,0,12,1,225,2,1,-144363.50427420562,-4789547.729463424,4200395.835417271,-1.70243,0.586077,-0.576969,78.75,53.125,63.75,-0.34375,-10.3281,10.3438,-0.0175781,0.0722656,0.0644531,4,0,41.42836383060334,-91.72645027788693,10837.177355631084,43.15473193626976,-0.1287572675300577,44.732210675252745,199.73,9077.867462759696,10906.843150451044,150,False,10.93255290770196,False,138.31322047404996,166.99598221276915,False,54.68291791801283,False,False
2,1970-07-23 10:13:53.127266092,2025-09-11,2025-09-26 15:08:32.726,HA,D,2994305818,JASSM,3,130,76,2,2,1,225,9,2,0,1,26,0,0,0,0,-124345.99480592164,-4791594.290113744,4198327.198698521,2.29608,-3.09883,0.0776578,-85.75,-3.5,-6.5,0.0,0.0,0.0,0.0,0.0,0.0,2,0,41.40556456461762,-91.4865411367233,9999.998024020892,-95.93821971323275,0.0014836593040607,-0.0028322898318426,,9077.867462759696,10906.843150451044,150,2,2025-09-11,2025-09-26 15:08:32.804,HA,D,3898065638,HAWK11,1,1,73,2,1,1,225,2,1,0,0,12,1,225,2,1,-144274.53357108062,-4789493.790010299,4200460.899870396,-1.65929,0.491928,-0.516952,87.125,47.5,59.0,-0.34375,-10.3438,10.4844,0.00195312,0.0703125,0.0546875,4,0,41.42913985733646,-91.72540633581062,10839.207839088078,48.89785659191506,0.1150699151122859,44.39515144062524,199.767,9077.867462759696,10906.843150451044,150,False,10.842272508607984,False,143.8253745749919,166.66087926868062,False,49.51091593109834,False,False
2,1970-07-23 10:13:53.139324078,2025-09-11,2025-09-26 15:08:33.932,HA,D,2995618170,JASSM,3,130,76,2,2,1,225,9,2,0,1,26,0,0,0,0,-124440.42449342164,-4791598.323316869,4198319.849089146,2.29608,-3.09883,0.0776578,-85.75,-3.5,-6.5,0.0,0.0,0.0,0.0,0.0,0.0,2,0,41.405476367985536,-91.48766827331085,10000.002131584408,-95.93896518348204,0.0023336531642581,-0.0028320343274271,,9077.867462759696,10906.843150451044,150,2,2025-09-11,2025-09-26 15:08:34.010,HA,D,3899457470,HAWK11,1,1,73,2,1,1,225,2,1,0,0,12,1,225,2,1,-144165.50622733062,-4789440.792939986,4200524.114714146,-1.61653,0.406217,-0.453962,95.875,41.375,52.125,-0.28125,-10.0312,10.2031,-0.0175781,0.0625,0.0722656,4,0,41.42990137883021,-91.72412231088468,10838.063257134036,54.54137208487814,0.3105155944123655,44.572363104272384,199.804,9077.867462759696,10906.843150451044,150,False,10.74155147975849,False,150.06694066078603,166.3170795943807,False,43.613895473881435,False,False
2,1970-07-23 10:13:53.149427254,2025-09-11,2025-09-26 15:08:34.942,HA,D,2996930520,JASSM,3,130,76,2,2,1,225,9,2,0,1,26,0,0,0,0,-124534.85418092164,-4791602.355543432,4198312.495573521,2.29608,-3.09883,0.0776578,-85.75,-3.5,-6.5,0.0,0.0,0.0,0.0,0.0,0.0,2,0,41.40538813975377,-91.48879540715248,9999.999974857586,-95.93971065060882,0.0031836493905671,-0.0028317583577766,,9077.867462759696,10906.843150451044,150,2,2025-09-11,2025-09-26 15:08:34.898,HA,D,3900650468,HAWK11,1,1,73,2,1,1,225,2,1,0,0,12,1,225,2,1,-144065.30700858062,-4789401.123018111,4200571.624479771,-1.58029,0.34064,-0.390398,102.375,36.0,46.0,-0.21875,-9.90625,10.0781,0.0,0.0683594,0.0644531,4,0,41.43047601222351,-91.72293898038536,10836.253694646182,59.53501366759872,0.0363644226902226,45.12309558908053,199.547,9077.867462759696,10906.843150451044,150,False,10.644121425928631,False,155.12899924526127,166.02970713621912,False,38.83974613762207,False,False
2,1970-07-23 10:13:53.159464579,2025-09-11,2025-09-26 15:08:35.946,HA,D,2998183220,JASSM,3,130,76,2,2,1,225,9,2,0,1,26,0,0,0,0,-124624.99480592164,-4791606.202223119,4198305.477995396,2.29608,-3.09883,0.0776578,-85.75,-3.5,-6.5,0.0,0.0,0.0,0.0,0.0,0.0,2,0,41.40530393595717,-91.48987134368718,10000.000516152184,-95.9404222554923,0.0039950359316467,-0.0028315221434497,,9077.867462759696,10906.843150451044,150,2,2025-09-11,2025-09-26 15:08:36.118,HA,D,3902002534,HAWK11,1,1,73,2,1,1,225,2,1,0,0,12,1,225,2,1,-143945.78357108062,-4789362.973604049,4200617.845182896,-1.56485,0.269501,-0.320219,108.625,29.625,39.125,-0.3125,-9.92188,10.1406,0.0117188,0.0722656,0.0664062,4,0,41.43103634264922,-91.72152411302164,10833.963099541534,65.08063876798118,-0.0976794627782715,44.58519908809751,199.4,9077.867462759696,10906.843150451044,150,False,10.538775829512923,False,160.5355633868271,165.73655852403166,False,33.72762432446355,False,False
2,1970-07-23 10:13:53.169225902,2025-09-11,2025-09-26 15:08:36.922,HA,D,2999376266,JASSM,3,130,76,2,2,1,225,9,2,0,1,26,0,0,0,0,-124710.84246217164,-4791609.866285619,4198298.792448521,2.29608,-3.09883,0.0776578,-85.75,-3.5,-6.5,0.0,0.0,0.0,0.0,0.0,0.0,2,0,41.40522371483678,-91.49089603572386,10000.001635966784,-95.94109996708816,0.0047677817545074,-0.0028312790320206,,9077.867462759696,10906.843150451044,150,2,2025-09-11,2025-09-26 15:08:37.012,HA,D,3903036466,HAWK11,1,1,73,2,1,1,225,2,1,0,0,12,1,225,2,1,-143848.42028983062,-4789338.739229049,4200647.690886021,-1.54165,0.211785,-0.266625,113.0,24.25,32.75,-0.53125,-10.2188,10.4375,-0.00195312,0.0703125,0.046875,4,0,41.43139938157611,-91.72036909368497,10831.980529907016,69.48820688716359,0.0662729726167492,44.95630163135387,198.985,9077.867462759696,10906.843150451044,150,False,10.445728786902814,False,165.02356895910742,165.51423718100853,False,29.462089155002218,True,False
2,1970-07-23 10:13:53.181348152,2025-09-11,2025-09-26 15:08:38.134,HA,D,3000569312,JASSM,3,130,76,2,2,1,225,9,2,0,1,26,0,0,0,0,-124796.69011842164,-4791613.528394994,4198292.104948521,2.29608,-3.09883,0.0776578,-85.75,-3.5,-6.5,0.0,0.0,0.0,0.0,0.0,0.0,2,0,41.40514348302739,-91.49192072584734,9999.99752669829,-95.94177767633904,0.0055405282031686,-0.0028310343789632,,9077.867462759696,10906.843150451044,150,2,2025-09-11,2025-09-26 15:08:37.915,HA,D,3904229464,HAWK11,1,1,73,2,1,1,225,2,1,0,0,12,1,225,2,1,-143733.57458670562,-4789317.171846236,4200675.860807896,-1.55038,0.143523,-0.204211,116.75,17.5,26.0,-0.453125,-10.2344,10.4844,-0.0800781,0.0625,0.0566406,4,0,41.43173835041504,-91.7190041461822,10831.632646625216,74.69669389924438,0.4261035182664154,43.56577686200256,198.948,9077.867462759696,10906.843150451044,150,False,10.343285825048321,False,169.8590002918721,165.28771650946248,False,24.84879284907057,True,False
2,1970-07-23 10:13:53.189385193,2025-09-11,2025-09-26 15:08:38.938,HA,D,3001762360,JASSM,3,130,76,2,2,1,225,9,2,0,1,26,0,0,0,0,-124882.53386842164,-4791617.190504369,4198285.419401646,2.29608,-3.09883,0.0776578,-85.75,-3.5,-6.5,0.0,0.0,0.0,0.0,0.0,0.0,2,0,41.40506325588143,-91.49294536677264,10000.001218616317,-95.9424553519729,0.006313238412867,-0.0028307997823829,,9077.867462759696,10906.843150451044,150,2,2025-09-11,2025-09-26 15:08:39.116,HA,D,3905501996,HAWK11,1,1,73,2,1,1,225,2,1,0,0,12,1,225,2,1,-143606.41443045562,-4789301.238252486,4200698.458464146,-1.72343,0.0743981,-0.139401,120.0,10.0,20.0,-0.28125,-10.5312,10.7969,-0.185547,0.0722656,0.046875,4,0,41.4320083694609,-91.71748997616284,10832.138364457916,80.06866191999043,0.8361702141895555,33.032113670092954,198.472,9077.867462759696,10906.843150451044,150,False,10.233725626779762,False,174.36100448753783,165.07350321309937,False,20.446611453091688,True,False
2,1970-07-23 10:13:53.199423247,2025-09-11,2025-09-26 15:08:39.942,HA,D,3002955406,JASSM,3,130,76,2,2,1,225,9,2,0,1,26,0,0,0,0,-124968.38152467164,-4791620.851637182,4198278.731901646,2.29608,-3.09893,0.0776578,-85.75,-3.5,-6.5,0.0,0.0,0.0,0.0,0.0,0.0,2,0,41.40498301163044,-91.49397005215816,10000.002334043187,-95.93950108455758,0.0029892112953813,-0.0024042145006507,,9077.867462759696,10906.843150451044,150,2,2025-09-11,2025-09-26 15:08:40.012,HA,D,3906814296,HAWK11,1,1,73,2,1,1,225,2,1,0,0,12,1,225,2,1,-143473.70544608062,-4789293.782197799,4200715.884245396,-1.91134,0.0122718,-0.128183,121.75,2.25,16.0,0.03125,-10.2031,10.4219,-0.191406,0.0527344,0.0292969,4,0,41.43219400057586,-91.7159064352348,10841.859183082146,82.89331265892824,3.0499203812093647,21.88631133850676,198.362,9077.867462759696,10906.843150451044,150,False,10.120411612072836,False,176.5990967618029,164.87959210942424,False,17.035138065320265,True,False
2,1970-07-23 10:13:53.209466002,2025-09-11,2025-09-26 15:08:40.946,HA,D,3004148452,JASSM,3,130,76,2,2,1,225,9,2,0,1,26,0,0,0,0,-125054.22918092164,-4791624.511793432,4198272.042448521,2.29608,-3.09893,0.0776578,-85.75,-3.5,-6.5,0.0,0.0,0.0,0.0,0.0,0.0,2,0,41.40490275087976,-91.49499473532649,10000.000622710402,-95.94017878598412,0.0037619583751285,-0.0024039192523466,,9077.867462759696,10906.843150451044,150,2,2025-09-11,2025-09-26 15:08:40.914,HA,D,3907768694,HAWK11,1,1,73,2,1,1,225,2,1,0,0,12,1,225,2,1,-143375.52771170562,-4789292.974580611,4200725.845182896,-2.03924,-0.0229138,-0.125403,122.375,-2.25,14.625,0.109375,-9.65625,9.8125,-0.130859,0.0332031,0.0214844,4,0,41.43228351639301,-91.71473324648898,10854.270348812795,84.33711438149605,4.447687366671019,14.39782266640161,198.545,9077.867462759696,10906.843150451044,150,False,10.024485023101636,False,175.81073712192992,164.73077790930228,False,15.65454891128103,True,False
2,1970-07-23 10:13:53.219727278,2025-09-11,2025-09-26 15:08:41.972,HA,D,3005341498,JASSM,3,130,76,2,2,1,225,9,2,0,1,26,0,0,0,0,-125140.07683717164,-4791628.170973119,4198265.352995396,2.29608,-3.09893,0.0776578,-85.75,-3.5,-6.5,0.0,0.0,0.0,0.0,0.0,0.0,2,0,41.4048224868135,-91.49601941627758,10000.000322655247,-95.94085648486406,0.0045347050916238,-0.0024036297725391,,9077.867462759696,10906.843150451044,150,2,2025-09-11,2025-09-26 15:08:42.116,HA,D,3909160526,HAWK11,1,1,73,2,1,1,225,2,1,0,0,12,1,225,2,1,-143233.16443045562,-4789297.702119674,4200739.085417271,-2.12044,-0.0562779,-0.133265,122.0,-7.125,13.875,-0.203125,-8.48438,8.70312,-0.0820312,0.0117188,0.00585938,4,0,41.43237006510594,-91.71302994447356,10884.165614125966,85.25057177052156,6.172690463653134,9.582954379212076,198.765,9077.867462759696,10906.843150451044,150,True,9.90507430618148,False,173.95231329519578,164.55651142775955,False,14.74876369086704,True,False
2,1970-07-23 10:13:53.229263822,2025-09-11,2025-09-26 15:08:42.926,HA,D,3006534544,JASSM,3,130,76,2,2,1,225,9,2,0,1,26,0,0,0,0,-125225.92058717164,-4791631.829176244,4198258.663542271,2.29608,-3.09893,0.0777537,-85.75,-3.5,-6.625,0.0,0.0,0.0,0.0,0.0,0.0,2,0,41.40474222003915,-91.49704404833447,10000.001182744503,-95.94564459925984,0.0016633484772259,-0.0024035930857299,,9077.867462759696,10906.843150451044,150,2,2025-09-11,2025-09-26 15:08:43.010,HA,D,3910273992,HAWK11,1,1,73,2,1,1,225,2,1,0,0,12,1,225,2,1,-143119.28161795562,-4789304.209932174,4200747.001432896,-2.1678,-0.0699879,-0.139209,121.625,-9.375,12.375,-0.015625,-7.78125,7.98438,-0.0195312,0.00976562,0.0253906,4,0,41.43240500287851,-91.7116664228836,10908.981622429275,85.50721009474792,6.984335272866739,6.791897383310259,198.911,9077.867462759696,10906.843150451044,150,True,9.800302816537855,False,173.14196363871534,164.34610932172424,False,13.969473993957939,True,False
2,1970-07-23 10:13:53.239403416,2025-09-11,2025-09-26 15:08:43.940,HA,D,3007667938,JASSM,3,130,76,2,2,1,225,9,2,0,1,26,0,0,0,0,-125307.47527467164,-4791635.303785619,4198252.308073521,2.29608,-3.09893,0.0777537,-85.75,-3.5,-6.625,0.0,0.0,0.0,0.0,0.0,0.0,2,0,41.40466595843635,-91.4980174840074,10000.00299175311,-95.94628840376016,0.0023974523867516,-0.0024033765240421,,9077.867462759696,10906.843150451044,150,2,2025-09-11,2025-09-26 15:08:43.920,HA,D,3911427224,HAWK11,1,1,73,2,1,1,225,2,1,0,0,12,1,225,2,1,-143001.46911795562,-4789313.146455611,4200755.724089146,-2.14038,-0.0784248,-0.133456,121.25,-11.0,11.25,-0.140625,-6.84375,7.1875,0.0292969,-0.00585938,0.0117188,4,0,41.4324316084636,-91.7102550662808,10941.238479552265,86.07537341978136,7.130606951611927,8.366893028964393,199.254,9077.867462759696,10906.843150451044,150,True,9.695616131184229,False,172.45614743295806,164.20141696349202,False,13.460513031851322,True,False
2,1970-07-23 10:13:53.253325944,2025-09-11,2025-09-26 15:08:45.332,HA,D,3008801332,JASSM,3,130,76,2,2,1,225,9,2,0,1,26,0,0,0,0,-125389.02996217164,-4791638.777418432,4198245.950651646,2.29608,-3.09893,0.0777537,-85.75,-3.5,-6.625,0.0,0.0,0.0,0.0,0.0,0.0,2,0,41.40458968122383,-91.49899091770894,10000.001602160508,-95.94693220598164,0.0031315572975509,-0.002403152620982,,9077.867462759696,10906.843150451044,150,2,2025-09-11,2025-09-26 15:08:45.412,HA,D,3913256488,HAWK11,1,1,73,2,1,1,225,2,1,0,0,12,1,225,2,1,-142816.03747733062,-4789327.984346236,4200767.413542271,-2.09935,-0.0823556,-0.115816,120.625,-11.625,8.125,-0.15625,-6.07812,6.32812,0.0332031,-0.015625,0.03125,4,0,41.43245509133765,-91.7080333849294,10989.494297832804,86.99249380425941,6.637137602698511,10.799642143592637,199.584,9077.867462759696,10906.843150451044,150,False,9.555051847135507,False,172.1569454505143,164.01581012114812,False,12.170861006535533,True,False
2,1970-07-23 10:13:53.258223709,2025-09-11,2025-09-26 15:08:45.822,HA,D,3009934728,JASSM,3,130,76,2,2,1,225,9,2,0,1,26,0,0,0,0,-125470.58464967164,-4791642.250074682,4198239.593229771,2.29608,-3.09893,0.0777537,-85.75,-3.5,-6.625,0.0,0.0,0.0,0.0,0.0,0.0,2,0,41.40451340158579,-91.49996434943915,10000.001251970374,-95.94757600592476,0.0038656618439549,-0.0024029344897888,,9077.867462759696,10906.843150451044,150,2,2025-09-11,2025-09-26 15:08:45.710,HA,D,3913534854,HAWK11,1,1,73,2,1,1,225,2,1,0,0,12,1,225,2,1,-142787.08630545562,-4789330.462861861,4200769.003386021,-2.1027,-0.0829308,-0.108146,120.625,-11.625,7.625,-0.09375,-5.89062,6.17188,-0.0117188,-0.0117188,0.0253906,4,0,41.43245620311881,-91.70768646014352,10996.91739983887,87.34768579459366,6.373181725545521,10.643892447144196,199.694,9077.867462759696,10906.843150451044,150,False,9.497383030352365,False,172.13497359229743,163.92501649210283,False,12.022414311959594,True,False
2,1970-07-23 10:13:53.268267498,2025-09-11,2025-09-26 15:08:46.826,HA,D,3011187426,JASSM,3,130,76,2,2,1,225,9,2,0,1,26,0,0,0,0,-125560.72497733062,-4791646.087861861,4198232.565886021,2.29608,-3.09893,0.0777537,-85.75,-3.5,-6.625,0.0,0.0,0.0,0.0,0.0,0.0,2,0,41.40442908037707,-91.501040256334,10000.002355010169,-95.94828757888048,0.0046770492708852,-0.0024026917014929,,9077.867462759696,10906.843150451044,150,2,2025-09-11,2025-09-26 15:08:46.914,HA,D,3914966454,HAWK11,1,1,73,2,1,1,225,2,1,0,0,12,1,225,2,1,-142642.07849295562,-4789343.140596236,4200774.729948521,-2.13262,-0.0791918,-0.0773702,120.625,-11.25,4.625,-0.140625,-5.35938,5.71875,-0.03125,-0.0195312,0.015625,4,0,41.43244509727999,-91.70594872672052,11029.896545817974,88.54119839187673,5.052683328269199,9.068527357861132,200.024,9077.867462759696,10906.843150451044,150,True,9.373573055252573,False,172.0299508634634,163.76029483395143,False,10.8329803486309,True,False
2,1970-07-23 10:13:53.278403775,2025-09-11,2025-09-26 15:08:47.840,HA,D,3012380472,JASSM,3,130,76,2,2,1,225,9,2,0,1,26,0,0,0,0,-125646.56872733062,-4791649.742158736,4198225.870573521,2.29608,-3.09893,0.0777537,-85.75,-3.5,-6.625,0.0,0.0,0.0,0.0,0.0,0.0,2,0,41.40434875257756,-91.50206487725102,9999.99957737411,-95.94896523170053,0.0054497634117842,-0.002402444108386,,9077.867462759696,10906.843150451044,150,2,2025-09-11,2025-09-26 15:08:47.820,HA,D,3915881086,HAWK11,1,1,73,2,1,1,225,2,1,0,0,12,1,225,2,1,-142550.17614920562,-4789350.687471236,4200776.522917271,-2.13453,-0.0687415,-0.0633726,120.75,-10.625,2.75,0.046875,-5.15625,5.5,0.0136719,-0.0195312,0.0136719,4,0,41.43242855952175,-91.70484757124336,11045.616907232798,88.75109839976002,4.075520217468955,9.017368159127978,200.512,9077.867462759696,10906.843150451044,150,True,9.2801773817963,False,172.0119590148941,163.6302486402698,False,10.17047325626665,True,False
2,1970-07-23 10:13:53.289422364,2025-09-11,2025-09-26 15:08:48.942,HA,D,3013633172,JASSM,3,130,76,2,2,1,225,9,2,0,1,26,0,0,0,0,-125736.70935233062,-4791653.577119674,4198218.841276646,2.29608,-3.09893,0.0777537,-85.75,-3.5,-6.625,0.0,0.0,0.0,0.0,0.0,0.0,2,0,41.4042644153112,-91.5031407831525,9999.997717763034,-95.9496768016738,0.0062611538015624,-0.002402205156998,,9077.867462759696,10906.843150451044,150,2,2025-09-11,2025-09-26 15:08:48.820,HA,D,3917272918,HAWK11,1,1,73,2,1,1,225,2,1,0,0,12,1,225,2,1,-142409.17224295562,-4789361.421846236,4200776.862761021,-2.16473,-0.0570449,-0.0383495,121.0,-9.375,0.0,-0.109375,-5.14062,5.40625,-0.00585938,-0.0234375,0.0136719,4,0,41.4323919256693,-91.70315839516483,11062.433543283165,89.38728436967612,2.627108960393065,7.358166539327517,200.622,9077.867462759696,10906.843150451044,150,True,9.158372831195347,False,171.92558704377066,163.47042307920285,False,9.281841582830573,True,False
2,1970-07-23 10:13:53.299224126,2025-09-11,2025-09-26 15:08:49.922,HA,D,3014826218,JASSM,3,130,76,2,2,1,225,9,2,0,1,26,0,0,0,0,-125822.55700858062,-4791657.229463424,4198212.145964146,2.29608,-3.09902,0.0777537,-85.75,-3.5,-6.625,0.0,0.0,0.0,0.0,0.0,0.0,2,0,41.40418407981558,-91.5041654461847,9999.998205197971,-95.94672256653568,0.0029371322867464,-0.0019751041643114,,9077.867462759696,10906.843150451044,150,2,2025-09-11,2025-09-26 15:08:50.012,HA,D,3918704516,HAWK11,1,1,73,2,1,1,225,2,1,0,0,12,1,225,2,1,-142263.91833670562,-4789370.529268111,4200774.354948521,-2.23252,-0.0450607,-0.0143811,121.375,-7.625,-2.625,0.1875,-4.98438,5.28125,-0.0351562,-0.0195312,0.0078125,4,0,41.432346489687305,-91.7014190029408,11068.767475270177,89.96473618607664,1.2052740589194648,3.511829337606995,200.769,9077.867462759696,10906.843150451044,150,True,9.036541499772383,False,171.8107560584322,163.31179341379482,False,8.680059194084897,True,False
2,1970-07-23 10:13:53.309723770,2025-09-11,2025-09-26 15:08:50.972,HA,D,3016019264,JASSM,3,130,76,2,2,1,225,9,2,0,1,26,0,0,0,0,-125908.40075858062,-4791660.880830611,4198205.450651646,2.29608,-3.09902,0.0777537,-85.75,-3.5,-6.625,0.0,0.0,0.0,0.0,0.0,0.0,2,0,41.40410374161541,-91.50519006032272,9999.9998514054,-95.94740021159164,0.0037098453230483,-0.0019748248934958,,9077.867462759696,10906.843150451044,150,2,2025-09-11,2025-09-26 15:08:51.010,HA,D,3919937282,HAWK11,1,1,73,2,1,1,225,2,1,0,0,12,1,225,2,1,-142137.93005545562,-4789377.061494674,4200769.907682896,-2.27997,-0.0260777,-0.00297209,122.125,-6.0,-4.75,0.03125,-5.14062,5.51562,-0.130859,-0.0195312,0.0,4,0,41.43229986746452,-91.69991080129664,11065.975723549447,89.73616340350932,-0.0415873254520304,0.7997600917591386,200.916,9077.867462759696,10906.843150451044,150,True,8.924985093840876,False,171.60012497073382,163.1624913056883,False,8.437658619910035,True,False
2,1970-07-23 10:13:53.318926631,2025-09-11,2025-09-26 15:08:51.892,HA,D,3017152658,JASSM,3,130,76,2,2,1,225,9,2,0,1,26,0,0,0,0,-125989.95544608062,-4791664.348604049,4198199.089323521,2.29608,-3.09902,0.0777537,-85.75,-3.5,-6.625,0.0,0.0,0.0,0.0,0.0,0.0,2,0,41.4040274122117,-91.50616347907877,10000.000931822118,-95.94804399675598,0.0044439507799779,-0.0019745628182319,,9077.867462759696,10906.843150451044,150,2,2025-09-11,2025-09-26 15:08:51.616,HA,D,3920533780,HAWK11,1,1,73,2,1,1,225,2,1,0,0,12,1,225,2,1,-142076.87146170562,-4789379.597627486,4200767.087370396,-2.32398,-0.0222427,0.00316384,122.375,-5.25,-5.5,0.0,-5.21875,5.5,-0.0625,-0.0175781,0.0195312,4,0,41.43227652651333,-91.69918009472428,11061.633873416818,89.85482547441286,-0.4384184949550188,-1.722145635459427,201.062,9077.867462759696,10906.843150451044,150,True,8.850313631133904,False,171.53008089040588,163.0484232280819,False,8.508617862960463,True,False
2,1970-07-23 10:13:53.328928967,2025-09-11,2025-09-26 15:08:52.892,HA,D,3018286054,JASSM,3,130,76,2,2,1,225,9,2,0,1,26,0,0,0,0,-126071.51013358062,-4791667.816377486,4198192.726042271,2.29608,-3.09902,0.0777537,-85.75,-3.5,-6.625,0.0,0.0,0.0,0.0,0.0,0.0,2,0,41.40395106138784,-91.50713689555614,10000.00121602829,-95.94868777943609,0.0051780576128624,-0.0019742875984027,,9077.867462759696,10906.843150451044,150,2,2025-09-11,2025-09-26 15:08:52.820,HA,D,3922084680,HAWK11,1,1,73,2,1,1,225,2,1,0,0,12,1,225,2,1,-141917.14685233062,-4789385.185518111,4200758.081511021,-2.33098,-0.0111214,0.0115049,123.375,-3.5,-7.0,-0.015625,-5.95312,6.20312,0.00195312,-0.00390625,-0.015625,4,0,41.43221069013186,-91.69726899390784,11044.177379629611,89.7927616203268,-1.230958376038844,-2.126967258945794,201.062,9077.867462759696,10906.843150451044,150,True,8.72306991727334,False,171.37712380357573,162.88241760923023,False,8.773275193368393,True,False
2,1970-07-23 10:13:53.337483215,2025-09-11,2025-09-26 15:08:53.748,HA,D,3019419448,JASSM,3,130,76,2,2,1,225,9,2,0,1,26,0,0,0,0,-126153.06482108062,-4791671.282197799,4198186.362761021,2.29608,-3.09902,0.0778495,-85.75,-3.5,-6.625,0.0,0.0,0.0,0.0,0.0,0.0,2,0,41.40387471394919,-91.5081103103688,10000.000137298215,-95.95344203627997,0.0022681264250795,-0.0019743173860798,,9077.867462759696,10906.843150451044,150,2,2025-09-11,2025-09-26 15:08:53.710,HA,D,3923158378,HAWK11,1,1,73,2,1,1,225,2,1,0,0,12,1,225,2,1,-141805.67224295562,-4789388.145479049,4200751.167448521,-2.30174,-0.0036432,0.00977913,124.25,-2.875,-7.5,-0.15625,-6.3125,6.5,0.0507812,0.0,0.0,4,0,41.43216607578409,-91.69593553613204,11028.32601147483,89.43590730766337,-1.485762196721231,-0.4476797562393008,201.319,9077.867462759696,10906.843150451044,150,True,8.621639781099304,False,171.32283320944424,162.73705675720183,False,9.007237077489995,True,False
2,1970-07-23 10:13:53.347265963,2025-09-11,2025-09-26 15:08:54.726,HA,D,3020612494,JASSM,3,130,76,2,2,1,225,9,2,0,1,26,0,0,0,0,-126238.90857108062,-4791674.930635299,4198179.663542271,2.29608,-3.09902,0.0778495,-85.75,-3.5,-6.625,0.0,0.0,0.0,0.0,0.0,0.0,2,0,41.40379433168011,-91.50913491570716,10000.000782092457,-95.9541196713716,0.0030408411345898,-0.0019740846002894,,9077.867462759696,10906.843150451044,150,2,2025-09-11,2025-09-26 15:08:54.616,HA,D,3924192310,HAWK11,1,1,73,2,1,1,225,2,1,0,0,12,1,225,2,1,-141696.48278983062,-4789390.642549361,4200744.171354771,-2.25198,-0.00747816,0.0116966,125.0,-2.75,-7.75,-0.03125,-6.6875,6.82812,0.0527344,0.00585938,0.015625,4,0,41.432123245354695,-91.69462955541287,11011.331062100868,89.66460265651462,-1.392748467303091,2.399854910712305,201.209,9077.867462759696,10906.843150451044,150,True,8.519291520348846,False,171.26495206296298,162.58455419411163,False,9.149412413615416,True,False
2,1970-07-23 10:13:53.357282158,2025-09-11,2025-09-26 15:08:55.728,HA,D,3021745888,JASSM,3,130,76,2,2,1,225,9,2,0,1,26,0,0,0,0,-126320.46325858062,-4791678.395479049,4198173.298307896,2.29608,-3.09902,0.0778495,-85.75,-3.5,-6.625,0.0,0.0,0.0,0.0,0.0,0.0,2,0,41.4037179599629,-91.51010832614904,10000.000127578603,-95.95476344709992,0.0037749482622611,-0.0019738662469628,,9077.867462759696,10906.843150451044,150,2,2025-09-11,2025-09-26 15:08:55.820,HA,D,3925623908,HAWK11,1,1,73,2,1,1,225,2,1,0,0,12,1,225,2,1,-141546.51599295562,-4789394.322236861,4200734.046354771,-2.23606,-0.0113131,0.0192706,126.125,-3.25,-8.5,-0.265625,-6.96875,7.125,-0.0566406,-0.00195312,0.00585938,4,0,41.43205942414245,-91.69283576071628,10987.493476799098,90.13669895083792,-1.5137881631275591,3.303118983158944,201.099,9077.867462759696,10906.843150451044,150,True,8.397458638239774,False,170.89595064311933,162.41179944460984,False,8.961207633602523,True,False
2,1970-07-23 10:13:53.369323369,2025-09-11,2025-09-26 15:08:56.932,HA,D,3022879282,JASSM,3,130,76,2,2,1,225,9,2,0,1,26,0,0,0,0,-126402.01794608062,-4791681.859346236,4198166.933073521,2.29608,-3.09902,0.0778495,-85.75,-3.5,-6.625,0.0,0.0,0.0,0.0,0.0,0.0,2,0,41.40364158582047,-91.51108173461913,10000.000512470282,-95.95540722054848,0.0045090550264072,-0.0019736536654898,,9077.867462759696,10906.843150451044,150,2,2025-09-11,2025-09-26 15:08:56.710,HA,D,3926777140,HAWK11,1,1,73,2,1,1,225,2,1,0,0,12,1,225,2,1,-141423.48669608062,-4789397.859346236,4200725.569792271,-2.26511,-0.0211881,0.0204211,126.875,-4.375,-8.0,-0.296875,-7.3125,7.375,0.0078125,0.00585938,-0.00390625,4,0,41.43200281139727,-91.69136398959392,10968.851250541073,90.56146421234368,-1.1321028003123428,1.6400775731217023,201.062,9077.867462759696,10906.843150451044,150,True,8.289977994413075,False,170.89588091792496,162.25116572346099,False,8.905490179730938,True,False
2,1970-07-23 10:13:53.379323244,2025-09-11,2025-09-26 15:08:57.932,HA,D,3024012676,JASSM,3,130,76,2,2,1,225,9,2,0,1,26,0,0,0,0,-126483.57263358062,-4791685.322236861,4198160.567839146,2.29608,-3.09902,0.0778495,-85.75,-3.5,-6.625,0.0,0.0,0.0,0.0,0.0,0.0,2,0,41.4035652092528,-91.51205514111736,10000.001936755263,-95.95605099171743,0.005243161427046,-0.0019734468558544,,9077.867462759696,10906.843150451044,150,2,2025-09-11,2025-09-26 15:08:58.116,HA,D,3928367806,HAWK11,1,1,73,2,1,1,225,2,1,0,0,12,1,225,2,1,-141253.20935233062,-4789404.058564986,4200713.876432896,-2.32599,-0.0231056,0.009875,128.125,-4.875,-8.0,-0.15625,-7.67188,7.78125,-0.00976562,0.0078125,-0.0078125,4,0,41.43191692554127,-91.68932654129564,10946.35168505548,90.18237483635669,-0.648407844253913,-1.8405734673379568,201.136,9077.867462759696,10906.843150451044,150,True,8.157300050118893,False,170.82859366632061,162.06151108391919,False,8.97047108204785,True,False
2,1970-07-23 10:13:53.386246913,2025-09-11,2025-09-26 15:08:58.624,HA,D,3025205722,JASSM,3,130,76,2,2,1,225,9,2,0,1,26,0,0,0,0,-126569.42028983062,-4791688.966768111,4198153.864714146,2.29608,-3.09912,0.0778495,-85.75,-3.5,-6.625,0.0,0.0,0.0,0.0,0.0,0.0,2,0,41.40348478811176,-91.51307978463792,9999.9994316869,-95.9530967921238,0.0019191459180339,-0.0015458856241735,,9077.867462759696,10906.843150451044,150,2,2025-09-11,2025-09-26 15:08:58.710,HA,D,3929123372,HAWK11,1,1,73,2,1,1,225,2,1,0,0,12,1,225,2,1,-141172.31677420562,-4789407.499971236,4200708.784636021,-2.3189,-0.0291456,0.00297209,128.5,-5.25,-7.625,-0.0625,-7.42188,7.64062,0.0273438,0.00976562,0.0,4,0,41.431876282773885,-91.68835844911725,10937.894485304529,90.11547254321584,-0.1265071197381366,-1.4314405939580706,201.209,9077.867462759696,10906.843150451044,150,True,8.070124964239488,False,170.9010596347915,161.91279784349547,False,9.127224530291373,True,False
