Subject_cm,Timestamp,SampleDate_cm,SampleTime_cm,Configuration_cm,Scenario_cm,DisTime_cm,MarkingTxt_cm,Application_cm,EntId_cm,Site_cm,ExerciseId_cm,ForceId_cm,Category_cm,Country_cm,Domain_cm,Kind_cm,Extra_cm,Specific_cm,Subcategory_cm,AltCategory_cm,AltCountry_cm,AltDomain_cm,AltKind_cm,ECEF_X_cm,ECEF_Y_cm,ECEF_Z_cm,OriPhi_cm,OriPsi_cm,OriTheta_cm,LinVelX_cm,LinVelY_cm,LinVelZ_cm,LinAccX_cm,LinAccY_cm,LinAccZ_cm,AngVelX_cm,AngVelY_cm,AngVelZ_cm,DrAlg_cm,Appearance_cm,Latitude_cm,Longitude_cm,Altitude_cm,Heading_cm,Pitch_cm,Roll_cm,CalibratedAirspeed_cm,CM_Altitude_Lead_cm,CM_Altitude_Wing_cm,CM_Airspeed_cm,Subject_ac,SampleDate_ac,SampleTime_ac,Configuration_ac,Scenario_ac,DisTime_ac,MarkingTxt_ac,Application_ac,EntId_ac,Site_ac,ExerciseId_ac,ForceId_ac,Category_ac,Country_ac,Domain_ac,Kind_ac,Extra_ac,Specific_ac,Subcategory_ac,AltCategory_ac,AltCountry_ac,AltDomain_ac,AltKind_ac,ECEF_X_ac,ECEF_Y_ac,ECEF_Z_ac,OriPhi_ac,OriPsi_ac,OriTheta_ac,LinVelX_ac,LinVelY_ac,LinVelZ_ac,LinAccX_ac,LinAccY_ac,LinAccZ_ac,AngVelX_ac,AngVelY_ac,AngVelZ_ac,DrAlg_ac,Appearance_ac,Latitude_ac,Longitude_ac,Altitude_ac,Heading_ac,Pitch_ac,Roll_ac,CalibratedAirspeed_ac,CM_Altitude_Lead_ac,CM_Altitude_Wing_ac,CM_Airspeed_ac,Bank_Angle_Condition,distance_nm,Distance_Condition,angle_between_vel,angle_between_pos,Cone_Condition,angle_between_pos_nose,Nose_Cone_Condition,Intercept_Criteria
2,1970-07-23 11:42:53.606205694,2025-09-17,2025-09-26 19:29:20.620,HH,C,1282518004,JASSM,3,105,76,2,2,1,225,9,2,0,1,26,0,0,0,0,-188263.2269304556,-4786088.123994674,4202200.292448521,-2.30155,-0.153302,0.128183,88.875,-13.625,-11.5,0.0,0.0,0.0,0.0,0.0,0.0,2,0,41.45205362339015,-92.252597501148,9999.999946086808,99.81626913612564,-0.0042503809666686,0.0023909364656629,,9031.630405181751,11029.86252269048,150,2,2025-09-17,2025-09-26 19:29:20.742,HH,C,1781187820,AMBUSH51,1,1,48,2,1,1,225,2,1,0,0,9,1,225,2,1,-146013.78874066702,-4792726.415112175,4195903.591624996,2.30301,2.978,-0.140276,-117.28,20.1368,18.9224,-0.167894,-7.11897,6.28371,5.20149e-06,-0.00697311,0.00500903,4,0,41.37883079137705,-91.74501656117631,9031.563731270951,-78.94216703070778,-0.3552394765596242,0.0026924270276413,200.219,9031.630405181751,11029.86252269048,150,True,23.245169987225008,False,177.97913452745829,178.89273384312276,False,1.039983851899001,True,False
2,1970-07-23 11:42:53.616248781,2025-09-17,2025-09-26 19:29:21.624,HH,C,1283770738,JASSM,3,105,76,2,2,1,225,9,2,0,1,26,0,0,0,0,-188169.8831804556,-4786102.555635299,4202188.118620396,-2.30155,-0.153302,0.128183,88.875,-13.625,-11.5,0.0,0.0,0.0,0.0,0.0,0.0,2,0,41.45190744712925,-92.25147499702518,10000.000445823272,99.81701222504635,-0.0033964479669313,0.0023903434163896,,9031.630405181751,11029.86252269048,150,2,2025-09-17,2025-09-26 19:29:21.542,HH,C,1782142218,AMBUSH51,1,1,48,2,1,1,225,2,1,0,0,9,1,225,2,1,-146106.08154556726,-4792710.206582634,4195918.442857648,2.30583,2.97389,-0.141743,-117.167,20.5018,18.7691,-0.118576,-6.95272,6.10357,0.00320932,-0.00893511,0.00973406,4,0,41.3790107468914,-91.74612477510176,9030.809834447018,-78.72441804876772,-0.4716404190063112,0.1295750632873798,200.256,9031.630405181751,11029.86252269048,150,True,23.14301321729374,False,177.93850862803325,178.89222953150832,False,1.1495624504517565,True,False
2,1970-07-23 11:42:53.627265830,2025-09-17,2025-09-26 19:29:22.726,HH,C,1285081978,JASSM,3,105,76,2,2,1,225,9,2,0,1,26,0,0,0,0,-188072.18200858065,-4786117.661104049,4202175.374479771,-2.30155,-0.153302,0.128183,88.875,-13.625,-11.5,0.0,0.0,0.0,0.0,0.0,0.0,2,0,41.451754420960974,-92.25030009811267,10000.001907923372,99.81778999659866,-0.002502649598831,0.0023897084061672,,9031.630405181751,11029.86252269048,150,2,2025-09-17,2025-09-26 19:29:22.643,HH,C,1783454516,AMBUSH51,1,1,48,2,1,1,225,2,1,0,0,9,1,225,2,1,-146234.83111079238,-4792687.176624761,4195938.901433762,2.30771,2.96958,-0.141564,-117.169,20.992,18.5833,-0.0907954,-6.94387,6.07668,0.00328838,0.000714684,0.00178827,4,0,41.37926251045811,-91.7476709097494,9028.173321377371,-78.56927024388287,-0.6591696323979148,0.2012631988144832,200.476,9031.630405181751,11029.86252269048,150,True,23.018313905969116,False,177.86749624788692,178.89207465768337,False,1.3164155193298206,True,False
2,1970-07-23 11:42:53.638288361,2025-09-17,2025-09-26 19:29:23.828,HH,C,1286335420,JASSM,3,105,76,2,2,1,225,9,2,0,1,26,0,0,0,0,-187978.7855242056,-4786132.098604049,4202163.190886021,-2.30155,-0.153302,0.128183,88.875,-13.625,-11.5,0.0,0.0,0.0,0.0,0.0,0.0,2,0,41.45160813385212,-92.24917697123392,10000.000036890762,99.81853349336431,-0.0016482339291566,0.0023891090576496,,9031.630405181751,11029.86252269048,150,2,2025-09-17,2025-09-26 19:29:23.742,HH,C,1784766816,AMBUSH51,1,1,48,2,1,1,225,2,1,0,0,9,1,225,2,1,-146363.95508770217,-4792663.523927511,4195959.173926503,2.30852,2.96403,-0.139417,-117.19,21.634,18.2698,-0.165454,-7.0602,6.03508,0.00663606,-0.00611799,0.00668807,4,0,41.37951663189842,-91.74922175573604,9023.638042243618,-78.45095475310532,-0.9740300303397073,0.2012496440902843,200.732,9031.630405181751,11029.86252269048,150,True,22.89573967049724,False,177.75982131614367,178.891818526952,False,1.5595527228556998,True,False
2,1970-07-23 11:42:53.649306253,2025-09-17,2025-09-26 19:29:24.930,HH,C,1287647978,JASSM,3,105,76,2,2,1,225,9,2,0,1,26,0,0,0,0,-187880.9847429556,-4786147.215791549,4202150.433073521,-2.30155,-0.153302,0.128183,88.875,-13.625,-11.5,0.0,0.0,0.0,0.0,0.0,0.0,2,0,41.45145494550026,-92.24800088701932,10000.000970831949,99.81931204494906,-0.0007535284926995,0.0023884901738378,,9031.630405181751,11029.86252269048,150,2,2025-09-17,2025-09-26 19:29:24.910,HH,C,1786158648,AMBUSH51,1,1,48,2,1,1,225,2,1,0,0,9,1,225,2,1,-146501.4640828736,-4792637.729366018,4195980.495957142,2.30896,2.95919,-0.137994,-117.297,21.9769,18.2452,0.0319411,-7.02141,5.94214,0.00261219,-0.0045617,0.00472607,4,0,41.37978903322927,-91.7508735453734,9016.748424524822,-78.3285031074179,-1.2311871480107308,0.1857271372874763,201.062,9031.630405181751,11029.86252269048,150,True,22.766085395154327,False,177.6555921043338,178.89133927507254,False,1.7076492309658533,True,False
2,1970-07-23 11:42:53.660185614,2025-09-17,2025-09-26 19:29:26.018,HH,C,1288960416,JASSM,3,105,76,2,2,1,225,9,2,0,1,26,0,0,0,0,-187783.1917742056,-4786162.331025924,4202137.675261021,-2.30145,-0.153206,0.128183,88.875,-13.625,-11.5,0.0,0.0,0.0,0.0,0.0,0.0,2,0,41.45130175492336,-92.24682490263544,10000.002970798352,99.8164541583617,-0.0039158319917479,0.0071772536472263,,9031.630405181751,11029.86252269048,150,2,2025-09-17,2025-09-26 19:29:26.109,HH,C,1787590246,AMBUSH51,1,1,48,2,1,1,225,2,1,0,0,9,1,225,2,1,-146641.35424390493,-4792610.923022116,4196001.84939533,2.30154,2.95715,-0.135126,-117.425,22.5693,17.9144,-0.0845844,-7.18278,6.04032,-0.00774918,0.0032322,0.0121351,4,0,41.38006720669951,-91.7525541599,9007.62688807792,-78.37375366821512,-1.4260491390316237,-0.2543472638134274,201.282,9031.630405181751,11029.86252269048,150,True,22.635096600114103,False,177.52795593128573,178.89052742809068,False,1.9551205527112077,True,False
2,1970-07-23 11:42:53.672183384,2025-09-17,2025-09-26 19:29:27.218,HH,C,1290271422,JASSM,3,105,76,2,2,1,225,9,2,0,1,26,0,0,0,0,-187685.50622733065,-4786177.428682174,4202124.929167271,-2.30145,-0.153206,0.128279,88.875,-13.625,-11.5,0.0,0.0,0.0,0.0,0.0,0.0,2,0,41.45114871093477,-92.24565021600742,10000.002691658234,99.82132229965389,-0.0066886042795088,0.0071762200031155,,9031.630405181751,11029.86252269048,150,2,2025-09-17,2025-09-26 19:29:27.276,HH,C,1788982078,AMBUSH51,1,1,48,2,1,1,225,2,1,0,0,9,1,225,2,1,-146779.1828038705,-4792583.853091603,4196022.777316454,2.30188,2.95123,-0.134221,-117.65,23.1366,17.683,-0.0499416,-7.12124,6.18714,0.00874994,-0.00190062,0.00624283,4,0,41.38034442524776,-91.75421026309758,8996.789194554902,-78.1876749124436,-1.7087938069157167,-0.2857139527746625,201.576,9031.630405181751,11029.86252269048,150,True,22.50525949517134,False,177.37129176081302,178.88962919268963,False,2.2009021391200925,True,False
2,1970-07-23 11:42:53.681225249,2025-09-17,2025-09-26 19:29:28.122,HH,C,1291524844,JASSM,3,105,76,2,2,1,225,9,2,0,1,26,0,0,0,0,-187592.11169608065,-4786191.860322799,4202112.741667271,-2.30145,-0.153206,0.128279,88.875,-13.625,-11.5,0.0,0.0,0.0,0.0,0.0,0.0,2,0,41.451002386491055,-92.24452713611608,9999.997428680254,99.82206575645782,-0.005834209162755,0.0071756318748691,,9031.630405181751,11029.86252269048,150,2,2025-09-17,2025-09-26 19:29:27.975,HH,C,1789817176,AMBUSH51,1,1,48,2,1,1,225,2,1,0,0,9,1,225,2,1,-146861.4249129271,-4792567.572056631,4196035.193241205,2.30529,2.95073,-0.133563,-117.765,23.3222,17.6684,-0.188145,-7.27404,6.52757,-0.00957386,0.0020421,-0.0150937,4,0,41.38051010933928,-91.75519851208756,8989.85565547264,-78.19708378992003,-1.7545262437360112,-0.0938429839085562,201.795,9031.630405181751,11029.86252269048,150,True,22.408532385936763,False,177.30931676390824,178.88809880377394,False,2.280841819606561,True,False
2,1970-07-23 11:42:53.692246273,2025-09-17,2025-09-26 19:29:29.224,HH,C,1292836800,JASSM,3,105,76,2,2,1,225,9,2,0,1,26,0,0,0,0,-187494.3558367056,-4786206.967744674,4202099.985807896,-2.30145,-0.153206,0.128279,88.875,-13.625,-11.5,0.0,0.0,0.0,0.0,0.0,0.0,2,0,41.450849211421264,-92.2433516152946,10000.003143896634,99.82284392581464,-0.0049399139314257,0.007175010599372,,9031.630405181751,11029.86252269048,150,2,2025-09-17,2025-09-26 19:29:29.109,HH,C,1791169242,AMBUSH51,1,1,48,2,1,1,225,2,1,0,0,9,1,225,2,1,-146994.03260947968,-4792541.225269049,4196055.28290412,2.29024,2.95742,-0.142479,-117.96,23.0005,18.1007,-0.130578,-8.10944,7.09137,-0.0128612,0.0222218,0.00247071,4,0,41.38077828128325,-91.7567920178023,8978.601767083668,-78.07425716394722,-1.12889385281661,-0.9063126803637496,202.382,9031.630405181751,11029.86252269048,150,True,22.28152296445094,False,177.37363718674365,178.88703158464205,False,2.128278430384446,True,False
2,1970-07-23 11:42:53.703284025,2025-09-17,2025-09-26 19:29:30.328,HH,C,1294150040,JASSM,3,105,76,2,2,1,225,9,2,0,1,26,0,0,0,0,-187396.5042742056,-4786222.086885299,4202087.216276646,-2.30145,-0.153206,0.128279,88.875,-13.625,-11.5,0.0,0.0,0.0,0.0,0.0,0.0,2,0,41.45069588465797,-92.24217495061346,10000.003861259482,99.82362285001238,-0.0040447459792393,0.0071743986332177,,9031.630405181751,11029.86252269048,150,2,2025-09-17,2025-09-26 19:29:30.343,HH,C,1792640608,AMBUSH51,1,1,48,2,1,1,225,2,1,0,0,9,1,225,2,1,-147139.45229132377,-4792513.226604539,4196078.255967935,2.28126,2.96879,-0.148831,-118.059,22.0047,18.9693,-0.141485,-8.3974,7.29157,-0.0206135,0.0145964,-0.00531904,4,0,41.38107338772101,-91.75853917050122,8970.514408686835,-78.23748623477688,-0.4050263445597377,-1.324285174240863,202.309,9031.630405181751,11029.86252269048,150,True,22.147370325161784,False,177.5154656487756,178.88715851833516,False,1.7576835975233887,True,False
2,1970-07-23 11:42:53.715323047,2025-09-17,2025-09-26 19:29:31.532,HH,C,1295461176,JASSM,3,105,76,2,2,1,225,9,2,0,1,26,0,0,0,0,-187298.8089617056,-4786237.180635299,4202074.464323521,-2.30145,-0.153206,0.128279,88.875,-13.625,-11.5,0.0,0.0,0.0,0.0,0.0,0.0,2,0,41.45054277917792,-92.24100017095024,10000.000507297287,99.82440052400936,-0.0031510058755886,0.0071737761532789,,9031.630405181751,11029.86252269048,150,2,2025-09-17,2025-09-26 19:29:31.476,HH,C,1793992672,AMBUSH51,1,1,48,2,1,1,225,2,1,0,0,9,1,225,2,1,-147274.0192420061,-4792488.677173909,4196100.213899734,2.27366,2.97459,-0.152201,-118.068,21.03,19.532,-0.276152,-7.966,6.94932,-0.0213105,0.00398746,-0.00586624,4,0,41.38134308369496,-91.76015544867984,8967.903240770489,-78.31470736699113,-0.0306784273687942,-1.709524074128938,202.333,9031.630405181751,11029.86252269048,150,True,22.01937042281153,False,177.60772710605963,178.8877864367032,False,1.483224031643852,True,False
2,1970-07-23 11:42:53.725185093,2025-09-17,2025-09-26 19:29:32.518,HH,C,1296715246,JASSM,3,105,76,2,2,1,225,9,2,0,1,26,0,0,0,0,-187205.36560233065,-4786251.616182174,4202062.267057896,-2.30145,-0.153206,0.128279,88.875,-13.625,-11.5,0.0,0.0,0.0,0.0,0.0,0.0,2,0,41.45039633156541,-92.2398765265109,9999.9982425731,99.82514434558914,-0.0022961650247155,0.0071731861130898,,9031.630405181751,11029.86252269048,150,2,2025-09-17,2025-09-26 19:29:32.343,HH,C,1795026604,AMBUSH51,1,1,48,2,1,1,225,2,1,0,0,9,1,225,2,1,-147375.2977823165,-4792470.74093658,4196117.200076722,2.27125,2.98254,-0.15315,-117.908,20.4763,19.7967,-0.191584,-7.8498,6.9875,0.0152352,0.0111093,-0.00881652,4,0,41.38154594267633,-91.761371711738,8968.271757525978,-78.57593243941992,0.3413360032497521,-1.779057335100631,201.783,9031.630405181751,11029.86252269048,150,True,21.912124379365007,False,177.61425907537088,178.88827673226044,False,1.39285466598427,True,False
2,1970-07-23 11:42:53.735226224,2025-09-17,2025-09-26 19:29:33.522,HH,C,1297968326,JASSM,3,105,76,2,2,1,225,9,2,0,1,26,0,0,0,0,-187111.9964617056,-4786266.040010299,4202050.079557896,-2.30145,-0.153206,0.128279,88.875,-13.625,-11.5,0.0,0.0,0.0,0.0,0.0,0.0,2,0,41.4502499913368,-92.23875377970889,10000.0001876593,99.82588757079876,-0.0014420035558459,0.0071725984859747,,9031.630405181751,11029.86252269048,150,2,2025-09-17,2025-09-26 19:29:33.475,HH,C,1796378670,AMBUSH51,1,1,48,2,1,1,225,2,1,0,0,9,1,225,2,1,-147509.58271461935,-4792447.433993056,4196139.874747677,2.29935,2.9823,-0.149362,-117.735,20.354,19.7738,-0.257769,-7.26654,6.35153,0.0239986,0.00515675,-0.00314066,4,0,41.38181310168322,-91.76298418859903,8970.268183566424,-78.72950069217683,0.1875852686054264,-0.1721119733432149,201.38,9031.630405181751,11029.86252269048,150,True,21.78669245515797,False,177.6306377290082,178.88985847179944,False,1.3692811203484587,True,False
2,1970-07-23 11:42:53.746254996,2025-09-17,2025-09-26 19:29:34.625,HH,C,1299278924,JASSM,3,105,76,2,2,1,225,9,2,0,1,26,0,0,0,0,-187014.3402117056,-4786281.123994674,4202037.331511021,-2.30145,-0.15311,0.128279,88.875,-13.625,-11.5,0.0,0.0,0.0,0.0,0.0,0.0,2,0,41.45009692630667,-92.23757948759408,9999.999926479531,99.82302864050637,-0.0046055568426643,0.0064694240013525,,9031.630405181751,11029.86252269048,150,2,2025-09-17,2025-09-26 19:29:34.611,HH,C,1797730736,AMBUSH51,1,1,48,2,1,1,225,2,1,0,0,9,1,225,2,1,-147642.0636358775,-4792424.259182617,4196162.124895138,2.32839,2.9761,-0.145817,-117.515,20.6056,19.7686,-0.0827945,-6.89896,5.97398,0.0246332,-0.00320308,0.00143041,4,0,41.38207691595314,-91.7645750823441,8971.54203416128,-78.64701285512054,-0.2080246289965025,1.4395656214237154,201.013,9031.630405181751,11029.86252269048,150,True,21.659900680686583,False,177.5562657300617,178.89114661691056,False,1.4747552643136026,True,False
2,1970-07-23 11:42:53.757265130,2025-09-17,2025-09-26 19:29:35.726,HH,C,1300532200,JASSM,3,105,76,2,2,1,225,9,2,0,1,26,0,0,0,0,-186920.95544608065,-4786295.547822799,4202025.140104771,-2.30145,-0.15311,0.128279,88.875,-13.625,-11.5,0.0,0.0,0.0,0.0,0.0,0.0,2,0,41.44995054093562,-92.2364565643589,10000.001420855097,99.82377197813852,-0.0037512535634389,0.006468783578559,,9031.630405181751,11029.86252269048,150,2,2025-09-17,2025-09-26 19:29:35.676,HH,C,1799003268,AMBUSH51,1,1,48,2,1,1,225,2,1,0,0,9,1,225,2,1,-147767.88561906654,-4792401.455791252,4196183.419006422,2.35794,2.97527,-0.149142,-117.216,21.3024,19.8862,-0.146631,-7.3604,6.31092,0.0256028,-0.00865007,0.0169121,4,0,41.38233326434656,-91.76608631633404,8971.16055444318,-78.4745966572661,-0.1148505053502033,3.1253526411777464,200.793,9031.630405181751,11029.86252269048,150,True,21.539053267105782,False,177.30864896094585,178.8927117554938,False,1.789503878632547,True,False
2,1970-07-23 11:42:53.767304410,2025-09-17,2025-09-26 19:29:36.730,HH,C,1301784926,JASSM,3,105,76,2,2,1,225,9,2,0,1,26,0,0,0,0,-186827.61169608065,-4786309.963838424,4202012.952604771,-2.30145,-0.15311,0.128375,88.875,-13.625,-11.5,0.0,0.0,0.0,0.0,0.0,0.0,2,0,41.4498042079262,-92.23533414005908,10000.000796404513,99.82860554823404,-0.0065637002564922,0.0064678046166667,,9031.630405181751,11029.86252269048,150,2,2025-09-17,2025-09-26 19:29:36.809,HH,C,1800355332,AMBUSH51,1,1,48,2,1,1,225,2,1,0,0,9,1,225,2,1,-147899.71371614357,-4792377.115845026,4196205.868055496,2.37719,2.96804,-0.156403,-116.896,21.8004,20.3387,-0.184936,-7.39775,6.25543,0.0101211,0.00265796,0.00216278,4,0,41.38260542775206,-91.76766986704057,8969.968054911433,-77.89256353803769,-0.1393867833377886,4.163973853058442,200.427,9031.630405181751,11029.86252269048,150,True,21.41485530048263,False,176.9694880165866,178.89473791073016,False,2.1404913309613116,True,False
2,1970-07-23 11:42:53.778343796,2025-09-17,2025-09-26 19:29:37.834,HH,C,1303096894,JASSM,3,105,76,2,2,1,225,9,2,0,1,26,0,0,0,0,-186729.8558367056,-4786325.061494674,4202000.186979771,-2.30145,-0.15311,0.128375,88.875,-13.625,-11.5,0.0,0.0,0.0,0.0,0.0,0.0,2,0,41.44965093115083,-92.23415866706384,10000.00124786681,99.82938366751344,-0.0056694068846523,0.0064671818623216,,9031.630405181751,11029.86252269048,150,2,2025-09-17,2025-09-26 19:29:37.943,HH,C,1801707398,AMBUSH51,1,1,48,2,1,1,225,2,1,0,0,9,1,225,2,1,-148032.7388541733,-4792351.860203654,4196229.09994188,2.40093,2.96412,-0.166856,-116.513,22.3436,21.0439,-0.192119,-7.73169,6.7026,0.0187347,-0.0092909,0.00256225,4,0,41.38288808161089,-91.76926806676002,8968.320894451861,-77.30059788010519,0.0986439328233125,5.487816357763632,200.133,9031.630405181751,11029.86252269048,150,True,21.28747216058485,False,176.51475447862492,178.89761435200504,False,2.5921592857706046,True,False
2,1970-07-23 11:42:53.790163671,2025-09-17,2025-09-26 19:29:39.016,HH,C,1304351006,JASSM,3,105,76,2,2,1,225,9,2,0,1,26,0,0,0,0,-186636.40857108065,-4786339.491182174,4201987.983854771,-2.30145,-0.15311,0.128375,88.875,-13.625,-11.5,0.0,0.0,0.0,0.0,0.0,0.0,2,0,41.4495044129563,-92.23303500944878,9999.99989938929,99.83012748473011,-0.0048145327966297,0.0064666002863798,,9031.630405181751,11029.86252269048,150,2,2025-09-17,2025-09-26 19:29:39.109,HH,C,1803099230,AMBUSH51,1,1,48,2,1,1,225,2,1,0,0,9,1,225,2,1,-148167.7267359345,-4792325.48968148,4196254.033880559,2.41289,2.95744,-0.177636,-116.084,22.8346,22.2226,-0.222579,-7.68889,6.66393,0.00480305,0.00966124,-0.00156149,4,0,41.38318847646061,-91.77089013591706,8967.781261345424,-76.5906342398551,0.2343056168177376,6.109418768701132,199.694,9031.630405181751,11029.86252269048,150,True,21.161197005381794,False,175.88935465671645,178.90273336216458,False,3.1904793898966726,True,False
2,1970-07-23 11:42:53.800203437,2025-09-17,2025-09-26 19:29:40.020,HH,C,1305722498,JASSM,3,105,76,2,2,1,225,9,2,0,1,26,0,0,0,0,-186534.2152117056,-4786355.270479049,4201974.638151646,-2.30145,-0.15311,0.128375,88.875,-13.625,-11.5,0.0,0.0,0.0,0.0,0.0,0.0,2,0,41.44934417150036,-92.23180619055644,10000.000547614878,99.83094091210704,-0.0038796484328859,0.0064659666542033,,9031.630405181751,11029.86252269048,150,2,2025-09-17,2025-09-26 19:29:40.075,HH,C,1804252462,AMBUSH51,1,1,48,2,1,1,225,2,1,0,0,9,1,225,2,1,-148280.73040232743,-4792302.629649565,4196276.063436509,2.38443,2.95257,-0.178989,-115.763,23.6514,22.8927,-0.116867,-7.43648,6.45498,-0.0408639,-0.00135759,0.0214561,4,0,41.38345240395887,-91.77224833519853,8967.91579057786,-76.34954532607848,0.0836479487327859,4.4297680378219,199.351,9031.630405181751,11029.86252269048,150,True,21.042192859857398,False,175.38161105023943,178.90815863369076,False,3.7217224889148897,True,False
2,1970-07-23 11:42:53.812202309,2025-09-17,2025-09-26 19:29:41.220,HH,C,1307035312,JASSM,3,105,76,2,2,1,225,9,2,0,1,26,0,0,0,0,-186436.3948992056,-4786370.373994674,4201961.860807896,-2.30145,-0.15311,0.128375,88.875,-13.625,-11.5,0.0,0.0,0.0,0.0,0.0,0.0,2,0,41.4491907596804,-92.23062996106935,9999.99910617926,99.8317195250468,-0.0029847671253811,0.0064653451785653,,9031.630405181751,11029.86252269048,150,2,2025-09-17,2025-09-26 19:29:41.209,HH,C,1805604528,AMBUSH51,1,1,48,2,1,1,225,2,1,0,0,9,1,225,2,1,-148411.0595844867,-4792275.856047542,4196301.924174867,2.36944,2.94471,-0.180625,-115.454,24.0133,23.4503,0.0128925,-7.29793,6.09451,0.031262,-0.00572684,0.00429747,4,0,41.38376227050602,-91.77381493591344,8968.058076208994,-75.9833379685389,-0.1802961710458047,3.490220450788104,198.985,9031.630405181751,11029.86252269048,150,True,20.915863306535933,False,175.03725983768655,178.91567947255535,False,4.071821143752658,True,False
2,1970-07-23 11:42:53.822243116,2025-09-17,2025-09-26 19:29:42.224,HH,C,1308348238,JASSM,3,105,76,2,2,1,225,9,2,0,1,26,0,0,0,0,-186338.56482108065,-4786385.477510299,4201949.083464146,-2.30145,-0.15311,0.128375,88.875,-13.625,-11.5,0.0,0.0,0.0,0.0,0.0,0.0,2,0,41.44903733809343,-92.22945362040122,10000.00184453966,99.83249820921228,-0.0020897999763479,0.0064647408272409,,9031.630405181751,11029.86252269048,150,2,2025-09-17,2025-09-26 19:29:42.342,HH,C,1806956592,AMBUSH51,1,1,48,2,1,1,225,2,1,0,0,9,1,225,2,1,-148542.6092905653,-4792247.879350526,4196328.827181492,2.37026,2.94056,-0.183695,-115.162,24.6929,23.8732,-0.091372,-7.34523,6.33973,-0.00459707,0.00727896,0.0124222,4,0,41.38408608394752,-91.7753965753965,8967.603417722532,-75.69718692588194,-0.2333517811237062,3.4930617425184622,198.569,9031.630405181751,11029.86252269048,150,True,20.788707763633788,False,174.65747431291484,178.9245822344704,False,4.480417214646872,True,False
2,1970-07-23 11:42:53.834243173,2025-09-17,2025-09-26 19:29:43.424,HH,C,1309718080,JASSM,3,105,76,2,2,1,225,9,2,0,1,26,0,0,0,0,-186236.49450858065,-4786401.233369674,4201935.749479771,-2.30145,-0.153015,0.128375,88.875,-13.625,-11.5,0.0,0.0,0.0,0.0,0.0,0.0,2,0,41.44887724843972,-92.22822630074828,9999.998382369266,99.82967445708248,-0.0052129693729782,0.0057610550338985,,9031.630405181751,11029.86252269048,150,2,2025-09-17,2025-09-26 19:29:43.543,HH,C,1808388190,AMBUSH51,1,1,48,2,1,1,225,2,1,0,0,9,1,225,2,1,-148680.0083907128,-4792217.698718099,4196357.591805869,2.37255,2.93042,-0.184918,-114.931,25.5869,24.2011,-0.219396,-7.26132,6.42839,0.00148867,-0.00483842,-0.00663606,4,0,41.38443447468559,-91.77704891548154,8966.220188017733,-75.26139137116286,-0.6070889500858375,3.5144186561462685,198.239,9031.630405181751,11029.86252269048,150,True,20.655828353307463,False,174.25376244671156,178.93496411051575,False,4.926931049455333,True,False
2,1970-07-23 11:42:53.844284126,2025-09-17,2025-09-26 19:29:44.428,HH,C,1310970780,JASSM,3,105,76,2,2,1,225,9,2,0,1,26,0,0,0,0,-186143.15466483065,-4786415.641572799,4201923.556120396,-2.30145,-0.153015,0.128375,88.875,-13.625,-11.5,0.0,0.0,0.0,0.0,0.0,0.0,2,0,41.44873084118217,-92.22710396377444,10000.000354258496,99.83041738872768,-0.0043590796765132,0.0057604198139039,,9031.630405181751,11029.86252269048,150,2,2025-09-17,2025-09-26 19:29:44.509,HH,C,1809541422,AMBUSH51,1,1,48,2,1,1,225,2,1,0,0,9,1,225,2,1,-148790.97755798438,-4792192.472430322,4196381.242569004,2.36759,2.92445,-0.183914,-114.754,26.1374,24.5918,-0.286573,-7.22416,6.38477,-0.0123972,-0.00211701,0.00365665,4,0,41.384723725387175,-91.77838374202771,8963.925957708572,-75.07776273635186,-0.8929139457638735,3.165051121922241,198.056,9031.630405181751,11029.86252269048,150,True,20.54242845198161,False,173.93099469530287,178.9437400539283,False,5.27115727306261,True,False
2,1970-07-23 11:42:53.856307378,2025-09-17,2025-09-26 19:29:45.630,HH,C,1312224018,JASSM,3,105,76,2,2,1,225,9,2,0,1,26,0,0,0,0,-186049.77185233065,-4786430.055635299,4201911.354948521,-2.30145,-0.153015,0.128375,88.875,-13.625,-11.5,0.0,0.0,0.0,0.0,0.0,0.0,2,0,41.44858434533391,-92.2259811155456,10000.00030966012,99.83116065663847,-0.0035047953910436,0.0057597741318562,,9031.630405181751,11029.86252269048,150,2,2025-09-17,2025-09-26 19:29:45.742,HH,C,1811012788,AMBUSH51,1,1,48,2,1,1,225,2,1,0,0,9,1,225,2,1,-148932.4535617645,-4792159.179287954,4196412.094057368,2.3535,2.91406,-0.189072,-114.64,26.9772,25.0734,-0.0536206,-7.45832,6.32798,-0.0250764,-0.00631981,-0.00186317,4,0,41.38510392267686,-91.7800859671157,8959.742135177674,-74.4657436113394,-1.1224535976637793,2.2365675860989334,198.313,9031.630405181751,11029.86252269048,150,True,20.411754568599523,False,173.49836519883095,178.9566659791626,False,5.738715447581964,True,False
2,1970-07-23 11:42:53.865181755,2025-09-17,2025-09-26 19:29:46.518,HH,C,1313477374,JASSM,3,105,76,2,2,1,225,9,2,0,1,26,0,0,0,0,-185956.38122733065,-4786444.469697799,4201899.153776646,-2.30145,-0.153015,0.128471,88.875,-13.625,-11.5,0.0,0.0,0.0,0.0,0.0,0.0,2,0,41.44843784032945,-92.2248581789908,10000.004179751646,99.8359945911212,-0.0063167662424906,0.0057588220345243,,9031.630405181751,11029.86252269048,150,2,2025-09-17,2025-09-26 19:29:46.408,HH,C,1811808120,AMBUSH51,1,1,48,2,1,1,225,2,1,0,0,9,1,225,2,1,-149008.66973973138,-4792140.985968197,4196428.884443024,2.33992,2.91226,-0.187528,-114.533,27.2138,25.2729,-0.0706856,-7.122,6.08392,-0.0215851,-0.00421216,-0.00225224,4,0,41.38531141282594,-91.78100309669536,8957.227949862414,-74.46276495958395,-1.256241333357762,1.4392908161584228,198.276,9031.630405181751,11029.86252269048,150,True,20.317699435554257,False,173.3438391319212,178.96273268756065,False,5.905446751972965,True,False
2,1970-07-23 11:42:53.877183011,2025-09-17,2025-09-26 19:29:47.718,HH,C,1314730210,JASSM,3,105,76,2,2,1,225,9,2,0,1,26,0,0,0,0,-185863.02966483065,-4786458.875947799,4201886.954557896,-2.30145,-0.153015,0.128471,88.875,-13.625,-11.5,0.0,0.0,0.0,0.0,0.0,0.0,2,0,41.44829137501207,-92.2237357180046,10000.001482381054,99.83673759841044,-0.005462769360905,0.0057582406520668,,9031.630405181751,11029.86252269048,150,2,2025-09-17,2025-09-26 19:29:47.643,HH,C,1813279486,AMBUSH51,1,1,48,2,1,1,225,2,1,0,0,9,1,225,2,1,-149150.48105438869,-4792106.712699511,4196460.069417747,2.31795,2.91167,-0.188033,-114.484,27.6613,25.3085,-0.0246432,-7.11849,6.27288,-0.0113985,-0.00167384,-0.00305951,4,0,41.38569959056372,-91.78270972300342,8951.39915325259,-74.42015539075986,-1.2597233769948124,0.1733725000629684,198.459,9031.630405181751,11029.86252269048,150,True,20.186762399425067,False,173.18698299461826,178.97595401181835,False,6.1001011045660505,True,False
2,1970-07-23 11:42:53.887223224,2025-09-17,2025-09-26 19:29:48.722,HH,C,1316042118,JASSM,3,105,76,2,2,1,225,9,2,0,1,26,0,0,0,0,-185765.27575858065,-4786473.959932174,4201874.181120396,-2.30145,-0.153015,0.128471,88.875,-13.625,-11.5,0.0,0.0,0.0,0.0,0.0,0.0,2,0,41.44813800792455,-92.22256032932778,10000.001952075643,99.83751563859686,-0.0045685025084096,0.0057576485531686,,9031.630405181751,11029.86252269048,150,2,2025-09-17,2025-09-26 19:29:48.842,HH,C,1814711084,AMBUSH51,1,1,48,2,1,1,225,2,1,0,0,9,1,225,2,1,-149287.09107087154,-4792073.240863368,4196490.172233323,2.29946,2.90888,-0.185752,-114.582,28.0664,25.1557,-0.251425,-7.31603,6.53704,-0.012986,-0.00597235,0.00930338,4,0,41.38607663308935,-91.78435394399924,8944.807636288815,-74.41079854957304,-1.462628078800453,-0.916280302188336,198.313,9031.630405181751,11029.86252269048,150,True,20.056295904496594,False,173.12287953482752,178.98841918947346,False,6.207710327225052,True,False
2,1970-07-23 11:42:53.898265236,2025-09-17,2025-09-26 19:29:49.826,HH,C,1317354184,JASSM,3,105,76,2,2,1,225,9,2,0,1,26,0,0,0,0,-185667.51013358065,-4786489.045869674,4201861.403776646,-2.30145,-0.153015,0.128471,88.875,-13.625,-11.5,0.0,0.0,0.0,0.0,0.0,0.0,2,0,41.447984593553095,-92.22138480521564,10000.002727936428,99.8382937660668,-0.0036741254930537,0.0057570397110201,,9031.630405181751,11029.86252269048,150,2,2025-09-17,2025-09-26 19:29:49.808,HH,C,1815864316,AMBUSH51,1,1,48,2,1,1,225,2,1,0,0,9,1,225,2,1,-149397.90799337908,-4792046.046088977,4196514.238675771,2.28795,2.90832,-0.182057,-114.745,28.054,25.0399,-0.321755,-7.46653,6.44325,-0.0170328,-0.00172793,-0.0114048,4,0,41.386380341998034,-91.7856877531702,8938.598347440906,-74.54585738636193,-1.6284781699783375,-1.5782637407947464,198.459,9031.630405181751,11029.86252269048,150,True,19.9403591876133,False,173.18769411609418,178.99737765559527,False,6.165203819413885,True,False
2,1970-07-23 11:42:53.909261719,2025-09-17,2025-09-26 19:29:50.926,HH,C,1318667478,JASSM,3,105,76,2,2,1,225,9,2,0,1,26,0,0,0,0,-185569.65466483065,-4786504.143525924,4201848.612761021,-2.30145,-0.153015,0.128471,88.875,-13.625,-11.5,0.0,0.0,0.0,0.0,0.0,0.0,2,0,41.447831025914965,-92.22020820737164,9999.999158220884,99.83907260191164,-0.0027789272387943,0.0057564298886126,,9031.630405181751,11029.86252269048,150,2,2025-09-17,2025-09-26 19:29:51.042,HH,C,1817335682,AMBUSH51,1,1,48,2,1,1,225,2,1,0,0,9,1,225,2,1,-149539.17261678417,-4792011.302608779,4196544.6548281945,2.2703,2.91358,-0.174901,-114.874,28.176,24.5861,-0.27541,-7.39103,6.41083,-0.0199435,-0.0013451,-0.00401659,4,0,41.386766157382375,-91.78738808320878,8929.934454723852,-75.04980758820432,-1.686480259239446,-2.5211143161549154,198.679,9031.630405181751,11029.86252269048,150,True,19.807264041853703,False,173.3081409272921,179.00886062052254,False,6.092632133478768,True,False
2,1970-07-23 11:42:53.921282674,2025-09-17,2025-09-26 19:29:52.128,HH,C,1319979558,JASSM,3,105,76,2,2,1,225,9,2,0,1,26,0,0,0,0,-185471.8870867056,-4786519.227510299,4201835.833464146,-2.30145,-0.153015,0.128471,88.875,-13.625,-11.5,0.0,0.0,0.0,0.0,0.0,0.0,2,0,41.447677586402776,-92.21903267190304,10000.000928179938,99.8398507321586,-0.0018845334159295,0.0057558227466204,,9031.630405181751,11029.86252269048,150,2,2025-09-17,2025-09-26 19:29:52.142,HH,C,1818647980,AMBUSH51,1,1,48,2,1,1,225,2,1,0,0,9,1,225,2,1,-149665.47785114383,-4791980.515835561,4196571.143162932,2.25319,2.91961,-0.167547,-115.093,28.0019,24.1018,-0.156662,-7.30263,6.439,-0.00765763,-0.00758689,0.0033508,4,0,41.387104671825135,-91.78890826941324,8921.34711794709,-75.5917337815184,-1.7195430074326965,-3.4269747690281265,198.985,9031.630405181751,11029.86252269048,150,True,19.682706178159044,False,173.54514877281218,179.01756339461747,False,5.892172383717011,True,False
2,1970-07-23 11:42:53.930185370,2025-09-17,2025-09-26 19:29:53.018,HH,C,1321232262,JASSM,3,105,76,2,2,1,225,9,2,0,1,26,0,0,0,0,-185378.5472429556,-4786533.625947799,4201823.632292271,-2.30145,-0.152919,0.128471,88.875,-13.625,-11.5,0.0,0.0,0.0,0.0,0.0,0.0,2,0,41.44753109485663,-92.21791038080964,10000.000078262508,99.83695753146456,-0.0050875697011861,0.0050516730065016,,9031.630405181751,11029.86252269048,150,2,2025-09-17,2025-09-26 19:29:53.142,HH,C,1819840978,AMBUSH51,1,1,48,2,1,1,225,2,1,0,0,9,1,225,2,1,-149780.8302091664,-4791952.4624067405,4196594.994932959,2.2383,2.93118,-0.15721,-115.154,27.6456,23.7176,-0.0559994,-7.19784,6.19631,0.0102209,-0.00700224,-0.00204002,4,0,41.38741114272542,-91.7902966199664,8912.932251847064,-76.471682855191,-1.635468283333399,-4.147026673226667,199.205,9031.630405181751,11029.86252269048,150,True,19.56676031106092,False,173.78957023132782,179.02468123543045,False,5.671391534258646,True,False
2,1970-07-23 11:42:53.941180569,2025-09-17,2025-09-26 19:29:54.118,HH,C,1322483678,JASSM,3,105,76,2,2,1,225,9,2,0,1,26,0,0,0,0,-185285.29919608065,-4786548.008760299,4201811.442839146,-2.30145,-0.152919,0.128471,88.875,-13.625,-11.5,0.0,0.0,0.0,0.0,0.0,0.0,2,0,41.4473847432689,-92.21678919917444,9999.99966985249,99.8376996785855,-0.0042345255105223,0.0050510561978714,,9031.630405181751,11029.86252269048,150,2,2025-09-17,2025-09-26 19:29:54.042,HH,C,1820914678,AMBUSH51,1,1,48,2,1,1,225,2,1,0,0,9,1,225,2,1,-149884.46784419203,-4791927.421850309,4196615.970719099,2.26558,2.93533,-0.152788,-115.356,27.5104,23.3479,-0.10741,-7.55774,6.40946,0.015903,0.00212949,-0.00164887,4,0,41.3876824373702,-91.79154392604453,8904.797447877085,-76.81817169743968,-1.6316534393608042,-2.537625114676973,199.498,9031.630405181751,11029.86252269048,150,True,19.457489697776744,False,173.974292898021,179.0299707698679,False,5.516957953759384,True,False
2,1970-07-23 11:42:53.951221911,2025-09-17,2025-09-26 19:29:55.122,HH,C,1323677390,JASSM,3,105,76,2,2,1,225,9,2,0,1,26,0,0,0,0,-185196.3519304556,-4786561.729463424,4201799.813932896,-2.30145,-0.152919,0.128471,88.875,-13.625,-11.5,0.0,0.0,0.0,0.0,0.0,0.0,2,0,41.447245112890734,-92.21571973273272,10000.003099191315,99.83840759170543,-0.0034208217459914,0.0050504495224413,,9031.630405181751,11029.86252269048,150,2,2025-09-17,2025-09-26 19:29:55.108,HH,C,1822187210,AMBUSH51,1,1,48,2,1,1,225,2,1,0,0,9,1,225,2,1,-150007.7535249599,-4791897.785781717,4196640.6301097,2.2867,2.94179,-0.150461,-115.498,27.329,23.2219,-0.43243,-7.64347,6.69358,0.0278893,0.00118074,-0.00744957,4,0,41.38800226616375,-91.79302765950808,8894.866008366445,-77.16423701178668,-1.4496191376948833,-1.262014327896685,199.791,9031.630405181751,11029.86252269048,150,True,19.33959113270968,False,174.09371462808758,179.03615232244283,False,5.416166205704248,True,False
2,1970-07-23 11:42:53.961259549,2025-09-17,2025-09-26 19:29:56.125,HH,C,1324930766,JASSM,3,105,76,2,2,1,225,9,2,0,1,26,0,0,0,0,-185102.95935233065,-4786576.133760299,4201787.601042271,-2.30145,-0.152919,0.128471,88.875,-13.625,-11.5,0.0,0.0,0.0,0.0,0.0,0.0,2,0,41.44709848722275,-92.21459682354502,9999.99993208947,99.83915087813055,-0.0025664511843409,0.0050498061659433,,9031.630405181751,11029.86252269048,150,2,2025-09-17,2025-09-26 19:29:56.111,HH,C,1823380208,AMBUSH51,1,1,48,2,1,1,225,2,1,0,0,9,1,225,2,1,-150123.199437085,-4791870.436833056,4196663.780656403,2.31853,2.94779,-0.15483,-115.58,26.8499,23.6698,-0.0124419,-8.02473,6.73874,0.0356208,0.00137007,0.00396665,4,0,41.38829974572442,-91.79441690578489,8886.69278299103,-77.20828105726648,-1.0287791352860731,0.6144640556238554,200.06,9031.630405181751,11029.86252269048,150,True,19.223679585580246,False,174.12912883183188,179.0416217551996,False,5.3534314172857895,True,False
2,1970-07-23 11:42:53.972519029,2025-09-17,2025-09-26 19:29:57.251,HH,C,1326183938,JASSM,3,105,76,2,2,1,225,9,2,0,1,26,0,0,0,0,-185009.5823992056,-4786590.534150924,4201775.392057896,-2.30145,-0.152919,0.128567,88.875,-13.625,-11.5,0.0,0.0,0.0,0.0,0.0,0.0,2,0,41.44695189659906,-92.21347410797136,10000.00179450857,99.84398468992306,-0.0053785008499159,0.0050489308225081,,9031.630405181751,11029.86252269048,150,2,2025-09-17,2025-09-26 19:29:57.242,HH,C,1824732274,AMBUSH51,1,1,48,2,1,1,225,2,1,0,0,9,1,225,2,1,-150253.05035853086,-4791840.177326212,4196690.517461506,2.39082,2.9514,-0.163169,-115.551,26.6448,24.6085,-0.30811,-8.29954,7.32335,0.0736999,0.00968621,0.0029326,4,0,41.388636049044784,-91.79597932663604,8880.256843905261,-76.9925442024518,-0.5554247516085279,4.78630523113871,199.987,9031.630405181751,11029.86252269048,150,True,19.09969469835765,False,173.88553688919413,179.0490197636103,False,5.561742905068115,True,False
2,1970-07-23 11:42:53.982299321,2025-09-17,2025-09-26 19:29:58.229,HH,C,1327434816,JASSM,3,105,76,2,2,1,225,9,2,0,1,26,0,0,0,0,-184916.3753679556,-4786604.907197799,4201763.202604771,-2.30145,-0.152919,0.128567,88.875,-13.625,-11.5,0.0,0.0,0.0,0.0,0.0,0.0,2,0,41.446805550461626,-92.21235344101606,9999.99966932694,99.84472648786806,-0.0045258302381472,0.0050483593282101,,9031.630405181751,11029.86252269048,150,2,2025-09-17,2025-09-26 19:29:58.242,HH,C,1825925272,AMBUSH51,1,1,48,2,1,1,225,2,1,0,0,9,1,225,2,1,-150368.26506197493,-4791813.4348358335,4196715.804604559,2.45119,2.95313,-0.184023,-115.159,26.4155,26.4801,-0.301279,-8.68567,7.55687,0.0587217,0.00909324,0.0203472,4,0,41.388944356444895,-91.79736561280087,8878.208387816427,-76.17362258445738,0.3203188544499996,8.26035142310776,199.718,9031.630405181751,11029.86252269048,150,True,18.983899712474912,False,173.2410811623867,179.05761440683673,False,6.141993160718508,True,False
2,1970-07-23 11:42:53.993179963,2025-09-17,2025-09-26 19:29:59.317,HH,C,1328688148,JASSM,3,105,76,2,2,1,225,9,2,0,1,26,0,0,0,0,-184822.98669608065,-4786619.307588424,4201750.989714146,-2.30145,-0.152919,0.128567,88.875,-13.625,-11.5,0.0,0.0,0.0,0.0,0.0,0.0,2,0,41.446658914279816,-92.21123059547864,10000.001248016531,99.84546972571108,-0.0036714992024491,0.0050477926543259,,9031.630405181751,11029.86252269048,150,2,2025-09-17,2025-09-26 19:29:59.242,HH,C,1827118272,AMBUSH51,1,1,48,2,1,1,225,2,1,0,0,9,1,225,2,1,-150482.7000456903,-4791786.682539968,4196743.2375668455,2.51244,2.94704,-0.205693,-114.354,26.7513,28.6585,0.00481266,-8.04329,7.08953,0.0463088,0.0120414,0.00248943,4,0,41.389267340285166,-91.79874260202662,8880.737784388952,-75.02489978051786,0.9020840192051502,11.714702239606332,199.205,9031.630405181751,11029.86252269048,150,False,18.868257196658515,False,172.22770573339784,179.06956118294949,False,7.1270937675211625,True,False
2,1970-07-23 11:42:54.004178425,2025-09-17,2025-09-26 19:30:00.417,HH,C,1330000468,JASSM,3,105,76,2,2,1,225,9,2,0,1,26,0,0,0,0,-184725.20153983065,-4786634.383760299,4201738.200651646,-2.30145,-0.152919,0.128567,88.875,-13.625,-11.5,0.0,0.0,0.0,0.0,0.0,0.0,2,0,41.4465053676693,-92.210054895842,9999.99995884055,99.84624794660634,-0.002776950075771,0.0050472036164248,,9031.630405181751,11029.86252269048,150,2,2025-09-17,2025-09-26 19:30:00.442,HH,C,1828549870,AMBUSH51,1,1,48,2,1,1,225,2,1,0,0,9,1,225,2,1,-150618.79046693566,-4791753.775414392,4196778.90908147,2.54663,2.93092,-0.236763,-113.076,27.6601,31.3758,-0.334273,-8.07198,7.17008,0.0276563,0.00702513,0.0148211,4,0,41.38967849531673,-91.8003805972562,8887.678398504155,-73.10258362186231,1.435604204187399,13.509977553091424,198.533,9031.630405181751,11029.86252269048,150,False,18.737700493016384,False,170.7763006929075,179.08830911170665,False,8.580634741171371,True,False
2,1970-07-23 11:42:54.014219879,2025-09-17,2025-09-26 19:30:01.421,HH,C,1331194988,JASSM,3,105,76,2,2,1,225,9,2,0,1,26,0,0,0,0,-184636.19372733065,-4786648.106416549,4201726.558073521,-2.30145,-0.152823,0.128567,88.875,-13.625,-11.5,0.0,0.0,0.0,0.0,0.0,0.0,2,0,41.44636558471489,-92.20898473372334,9999.999383278291,99.8433203188058,-0.0060196122980741,0.0043426159713542,,9031.630405181751,11029.86252269048,150,2,2025-09-17,2025-09-26 19:30:01.442,HH,C,1829742868,AMBUSH51,1,1,48,2,1,1,225,2,1,0,0,9,1,225,2,1,-150731.19582663226,-4791724.9773452245,4196811.16755564,2.56412,2.917,-0.251471,-111.941,29.0329,33.3729,-0.350481,-7.77321,6.92539,0.00757649,0.00162807,0.0169163,4,0,41.390046573140616,-91.8017341399392,8895.501882065293,-71.95926252837008,1.4353758335644355,14.34776207206051,197.897,9031.630405181751,11029.86252269048,150,False,18.625012333995276,False,169.50991762478048,179.10710111831546,False,9.88071517850794,True,False
2,1970-07-23 11:42:54.024242579,2025-09-17,2025-09-26 19:30:02.424,HH,C,1332445616,JASSM,3,105,76,2,2,1,225,9,2,0,1,26,0,0,0,0,-184543.00622733065,-4786662.473604049,4201714.368620396,-2.30145,-0.152823,0.128567,88.875,-13.625,-11.5,0.0,0.0,0.0,0.0,0.0,0.0,2,0,41.4462192252272,-92.2078643230879,10000.003309258342,99.84406193850374,-0.0051671212342298,0.0043419898857026,,9031.630405181751,11029.86252269048,150,2,2025-09-17,2025-09-26 19:30:02.442,HH,C,1830935868,AMBUSH51,1,1,48,2,1,1,225,2,1,0,0,9,1,225,2,1,-150842.47071188514,-4791694.86505502,4196845.204343449,2.56998,2.89846,-0.26263,-110.773,30.5851,35.0879,6.07669e-05,-7.37314,6.166,0.0060202,-0.011255,0.0336984,4,0,41.39043467061809,-91.80307468703694,8903.86969923844,-70.79320615564949,1.1145711501008986,14.439818031225382,197.408,9031.630405181751,11029.86252269048,150,False,18.510394698146296,False,168.2979307070739,179.12775109858674,False,11.138664842503484,True,False
2,1970-07-23 11:42:54.035259227,2025-09-17,2025-09-26 19:30:03.525,HH,C,1333698334,JASSM,3,105,76,2,2,1,225,9,2,0,1,26,0,0,0,0,-184449.66247733065,-4786676.862275924,4201702.157682896,-2.30145,-0.152823,0.128567,88.875,-13.625,-11.5,0.0,0.0,0.0,0.0,0.0,0.0,2,0,41.44607261784493,-92.2067420400788,10000.003220214368,99.84480479539836,-0.0043132030858332,0.0043413708832327,,9031.630405181751,11029.86252269048,150,2,2025-09-17,2025-09-26 19:30:03.508,HH,C,1832208400,AMBUSH51,1,1,48,2,1,1,225,2,1,0,0,9,1,225,2,1,-150961.06813069247,-4791660.503365114,4196883.4973645285,2.56048,2.88068,-0.277214,-109.615,32.3395,36.6269,-0.0627285,-7.46071,6.32276,-0.021117,-0.000477496,0.0213916,4,0,41.39087539346204,-91.80450431977737,8911.591325048543,-69.513300179846,0.9659194718770974,13.64676201774243,196.81,9031.630405181751,11029.86252269048,150,False,18.39118845549599,False,167.0969722045607,179.15114134611974,False,12.398349120350884,True,False
2,1970-07-23 11:42:54.045302307,2025-09-17,2025-09-26 19:30:04.530,HH,C,1334891790,JASSM,3,105,76,2,2,1,225,9,2,0,1,26,0,0,0,0,-184360.7347429556,-4786690.569307174,4201690.522917271,-2.30145,-0.152823,0.128567,88.875,-13.625,-11.5,0.0,0.0,0.0,0.0,0.0,0.0,2,0,41.44593293141581,-92.20567285647638,10000.001899493192,99.8455125029443,-0.0034996825836121,0.0043407764074866,,9031.630405181751,11029.86252269048,150,2,2025-09-17,2025-09-26 19:30:04.508,HH,C,1833401398,AMBUSH51,1,1,48,2,1,1,225,2,1,0,0,9,1,225,2,1,-151069.94475613546,-4791626.515226394,4196920.35750689,2.54541,2.8576,-0.280124,-108.572,34.4979,37.3593,-0.15998,-6.5297,5.75734,-0.0254946,0.00105174,0.0253073,4,0,41.39130602443719,-91.8058177093162,8916.378197378366,-68.52186321073746,0.1550002760981937,12.429343504539,196.284,9031.630405181751,11029.86252269048,150,False,18.279666230623604,False,166.09313218750867,179.17263324111238,False,13.480093111346434,True,False
2,1970-07-23 11:42:54.055181490,2025-09-17,2025-09-26 19:30:05.518,HH,C,1336145650,JASSM,3,105,76,2,2,1,225,9,2,0,1,26,0,0,0,0,-184267.3050554556,-4786704.969697799,4201678.298307896,-2.30145,-0.152823,0.128567,88.875,-13.625,-11.5,0.0,0.0,0.0,0.0,0.0,0.0,2,0,41.44578616035409,-92.20454955081246,10000.001881425902,99.84625603252417,-0.002644977499974,0.0043401494762466,,9031.630405181751,11029.86252269048,150,2,2025-09-17,2025-09-26 19:30:05.508,HH,C,1834594396,AMBUSH51,1,1,48,2,1,1,225,2,1,0,0,9,1,225,2,1,-151177.92414120783,-4791590.4558109455,4196957.803561967,2.53167,2.84421,-0.287934,-107.667,36.3854,38.145,-0.255175,-7.06988,6.24717,-0.0265473,0.00515259,0.0103562,4,0,41.39175308458231,-91.80712117810027,8917.278318637504,-67.69120736012755,-0.0697756036358832,11.427402476886703,196.174,9031.630405181751,11029.86252269048,150,False,18.16594905806173,False,165.1435364990623,179.19194763184723,False,14.502042537805984,True,False
2,1970-07-23 11:42:54.067201625,2025-09-17,2025-09-26 19:30:06.720,HH,C,1337517506,JASSM,3,105,76,2,2,1,225,9,2,0,1,26,0,0,0,0,-184165.08435233065,-4786720.723604049,4201664.923307896,-2.30145,-0.152823,0.128663,88.875,-13.625,-11.5,0.0,0.0,0.0,0.0,0.0,0.0,2,0,41.445625574324445,-92.20332055718492,10000.00331820796,99.85116021686416,-0.0053760754667912,0.0043392179853996,,9031.630405181751,11029.86252269048,150,2,2025-09-17,2025-09-26 19:30:06.575,HH,C,1835866928,AMBUSH51,1,1,48,2,1,1,225,2,1,0,0,9,1,225,2,1,-151291.60320057214,-4791550.624193332,4196998.458522692,2.50327,2.83131,-0.298215,-106.877,37.8906,39.17,-0.204592,-7.41921,6.59926,-0.0161673,0.00752447,0.00543763,4,0,41.392243163025206,-91.80849417433426,8916.309837920318,-66.77703690089722,-0.1729299632605936,9.585008963584588,196.321,9031.630405181751,11029.86252269048,150,True,18.04388790936573,False,164.23000549513523,179.21007123637438,False,15.482175705411251,True,False
2,1970-07-23 11:42:54.078218258,2025-09-17,2025-09-26 19:30:07.821,HH,C,1338829500,JASSM,3,105,76,2,2,1,225,9,2,0,1,26,0,0,0,0,-184067.32361014312,-4786735.788057174,4201652.128386021,-2.30145,-0.152823,0.128663,88.875,-13.625,-11.5,0.0,0.0,0.0,0.0,0.0,0.0,2,0,41.445471971491685,-92.20214519204588,9999.997195262942,99.85193820047644,-0.0044817498751929,0.0043386218988813,,9031.630405181751,11029.86252269048,150,2,2025-09-17,2025-09-26 19:30:07.842,HH,C,1837378060,AMBUSH51,1,1,48,2,1,1,225,2,1,0,0,9,1,225,2,1,-151426.35303503403,-4791501.269334864,4197049.137605367,2.4818,2.82015,-0.312711,-105.976,39.2457,40.8108,-0.219479,-7.6036,6.70733,-0.0216912,0.00681707,0.00457211,4,0,41.3928535914216,-91.81012249468898,8915.30596164589,-65.75692335724051,-0.0343323495768805,8.16021043998399,196.663,9031.630405181751,11029.86252269048,150,True,17.911712685200637,False,163.1306389344094,179.2293047474947,False,16.652720615059998,True,False
2,1970-07-23 11:42:54.088243356,2025-09-17,2025-09-26 19:30:08.824,HH,C,1340082864,JASSM,3,105,76,2,2,1,225,9,2,0,1,26,0,0,0,0,-183973.93103201807,-4786750.178682174,4201639.907682896,-2.30145,-0.152823,0.128663,88.875,-13.625,-11.5,0.0,0.0,0.0,0.0,0.0,0.0,2,0,41.44532524196571,-92.20102235030164,9999.999816914684,99.85268141621638,-0.0036273885599151,0.0043380732639323,,9031.630405181751,11029.86252269048,150,2,2025-09-17,2025-09-26 19:30:08.942,HH,C,1838690360,AMBUSH51,1,1,48,2,1,1,225,2,1,0,0,9,1,225,2,1,-151543.13132766425,-4791457.148729149,4197095.118376082,2.4452,2.81057,-0.3294,-105.293,39.7519,42.2959,-0.154726,-7.8797,6.89794,-0.0398049,0.00524622,0.00406444,4,0,41.39340452153975,-91.8115341806296,8915.59955288675,-64.70882985868657,0.2586683409414071,5.891970244002192,196.736,9031.630405181751,11029.86252269048,150,True,17.79217995475335,False,162.35751970188545,179.24211779200542,False,17.481461259278113,True,False
2,1970-07-23 11:42:54.099261491,2025-09-17,2025-09-26 19:30:09.926,HH,C,1341395810,JASSM,3,105,76,2,2,1,225,9,2,0,1,26,0,0,0,0,-183876.09900076807,-4786765.252900924,4201627.102995396,-2.30145,-0.152823,0.128663,88.875,-13.625,-11.5,0.0,0.0,0.0,0.0,0.0,0.0,2,0,41.44517150793676,-92.19984613947344,9999.999743078037,99.85345995495612,-0.0027324119149519,0.0043374808405729,,9031.630405181751,11029.86252269048,150,2,2025-09-17,2025-09-26 19:30:10.042,HH,C,1840002658,AMBUSH51,1,1,48,2,1,1,225,2,1,0,0,9,1,225,2,1,-151657.90683693788,-4791413.249311924,4197141.951958024,2.39988,2.80941,-0.338285,-104.776,40.0522,43.3627,-0.0599228,-7.76093,6.88536,-0.0389706,-0.000546156,0.00512346,4,0,41.39396025363827,-91.81292188139376,8918.140502210632,-64.3012196403135,0.5699221292005211,3.276724207719496,196.663,9031.630405181751,11029.86252269048,150,True,17.671249372756975,False,161.81060682727102,179.25035574592965,False,18.089454078082067,True,False
2,1970-07-23 11:42:54.110281175,2025-09-17,2025-09-26 19:30:11.028,HH,C,1342706426,JASSM,3,105,76,2,2,1,225,9,2,0,1,26,0,0,0,0,-183778.44079764312,-4786780.299775924,4201614.319792271,-2.30145,-0.152727,0.128663,88.875,-13.625,-11.5,0.0,0.0,0.0,0.0,0.0,0.0,2,0,41.44501802985028,-92.19867202433385,10000.00064357655,99.85060121046143,-0.005895936142087,0.0036323110157581,,9031.630405181751,11029.86252269048,150,2,2025-09-17,2025-09-26 19:30:11.141,HH,C,1841314956,AMBUSH51,1,1,48,2,1,1,225,2,1,0,0,9,1,225,2,1,-151773.5299048421,-4791368.679708198,4197190.395580414,2.39098,2.80411,-0.341988,-104.403,40.0809,44.1633,-0.307239,-7.47811,6.70768,0.00759937,0.011205,0.00425586,4,0,41.39453066608377,-91.81431998411514,8922.600603559886,-63.95059995199237,0.5145212859143069,2.668771508606336,196.663,9031.630405181751,11029.86252269048,150,True,17.54982789315073,False,161.45146366532256,179.2531056911639,False,18.512765379427453,True,False
2,1970-07-23 11:42:54.121296899,2025-09-17,2025-09-26 19:30:12.129,HH,C,1344018168,JASSM,3,105,76,2,2,1,225,9,2,0,1,26,0,0,0,0,-183680.6995867056,-4786795.356416549,4201601.524870396,-2.30145,-0.152727,0.128663,88.875,-13.625,-11.5,0.0,0.0,0.0,0.0,0.0,0.0,2,0,41.444864421552,-92.19749691814424,9999.99736404683,99.85137901334258,-0.0050017927380063,0.003631669019784,,9031.630405181751,11029.86252269048,150,2,2025-09-17,2025-09-26 19:30:12.042,HH,C,1842388656,AMBUSH51,1,1,48,2,1,1,225,2,1,0,0,9,1,225,2,1,-151866.41558569527,-4791332.674611459,4197229.767596575,2.39412,2.80491,-0.344231,-104.027,40.424,44.3876,-0.321932,-7.29772,6.48115,-0.000575284,-0.00809039,-0.000452529,4,0,41.3949931555816,-91.81544324165849,8926.6846886356,-63.8892236048517,0.6358425654480088,2.864724183097481,196.284,9031.630405181751,11029.86252269048,150,True,17.441678769548652,False,161.20294569269362,179.24977235430492,False,18.824618770174034,True,False
2,1970-07-23 11:42:54.132317179,2025-09-17,2025-09-26 19:30:13.231,HH,C,1345272954,JASSM,3,105,76,2,2,1,225,9,2,0,1,26,0,0,0,0,-183587.20056326807,-4786809.760713424,4201589.284636021,-2.30145,-0.152727,0.128663,88.875,-13.625,-11.5,0.0,0.0,0.0,0.0,0.0,0.0,2,0,41.44471745780409,-92.1963728188565,10000.000435018952,99.85212305253262,-0.0041464548403562,0.0036310439197253,,9031.630405181751,11029.86252269048,150,2,2025-09-17,2025-09-26 19:30:13.208,HH,C,1843780488,AMBUSH51,1,1,48,2,1,1,225,2,1,0,0,9,1,225,2,1,-151988.11911791205,-4791284.931731386,4197281.830309331,2.40726,2.79657,-0.34714,-103.638,40.6751,44.8795,-0.197379,-7.03556,6.24691,0.0324042,-0.0186973,0.000319371,4,0,41.39560570002428,-91.81691522906128,8931.681160241656,-63.45681031071308,0.4326499856006637,3.459444949847497,196.211,9031.630405181751,11029.86252269048,150,True,17.318887283522518,False,160.88529814866746,179.23822931255057,False,19.221978389134605,True,False
2,1970-07-23 11:42:54.143180545,2025-09-17,2025-09-26 19:30:14.318,HH,C,1346583342,JASSM,3,105,76,2,2,1,225,9,2,0,1,26,0,0,0,0,-183489.55993826807,-4786824.799775924,4201576.501432896,-2.30145,-0.152727,0.128663,88.875,-13.625,-11.5,0.0,0.0,0.0,0.0,0.0,0.0,2,0,41.44456398675073,-92.19519893376092,9999.9988702442,99.8529000425367,-0.003253232711652,0.0036304049617918,,9031.630405181751,11029.86252269048,150,2,2025-09-17,2025-09-26 19:30:14.208,HH,C,1844973486,AMBUSH51,1,1,48,2,1,1,225,2,1,0,0,9,1,225,2,1,-152090.66545893543,-4791243.497709147,4197326.25388179,2.42119,2.78857,-0.3458,-103.224,41.8207,44.8176,-0.0209756,-6.82351,5.90967,-0.00322388,-0.00293884,0.00410813,4,0,41.396132739033725,-91.81815599124164,8934.13789675401,-63.2098570232318,0.0724741889629706,4.103122014719246,196.174,9031.630405181751,11029.86252269048,150,True,17.204976560425806,False,160.51761819649224,179.21972315351778,False,19.67938257099109,True,False
2,1970-07-23 11:42:54.153218252,2025-09-17,2025-09-26 19:30:15.321,HH,C,1347837910,JASSM,3,105,76,2,2,1,225,9,2,0,1,26,0,0,0,0,-183396.07751639312,-4786839.198213424,4201564.261198521,-2.30145,-0.152727,0.128663,88.875,-13.5,-11.5,0.0,0.0,0.0,0.0,0.0,0.0,2,0,41.44441703163327,-92.19407504594828,9999.998655844449,99.853643937315,-0.0023980486136445,0.0036297846110104,,9031.630405181751,11029.86252269048,150,2,2025-09-17,2025-09-26 19:30:15.241,HH,C,1846206252,AMBUSH51,1,1,48,2,1,1,225,2,1,0,0,9,1,225,2,1,-152197.76958772755,-4791199.055862332,4197372.937283029,2.40886,2.77495,-0.347794,-102.917,42.7941,44.9781,-0.166091,-6.98459,5.99506,-0.0216871,-0.00569563,0.00794059,4,0,41.396692052524834,-91.8194523641686,8934.4619248459,-62.61302306063523,-0.3670088002942363,3.129619000811643,196.284,9031.630405181751,11029.86252269048,150,True,17.09058364789239,False,160.0912425692194,179.26492126257466,False,20.145581637738996,True,False
2,1970-07-23 11:42:54.165240413,2025-09-17,2025-09-26 19:30:16.524,HH,C,1349208614,JASSM,3,105,76,2,2,1,225,9,2,0,1,26,0,0,0,0,-183293.9417742056,-4786854.928682174,4201550.888151646,-2.30145,-0.152727,0.128663,88.875,-13.5,-11.5,0.0,0.0,0.0,0.0,0.0,0.0,2,0,41.44425646699362,-92.19284713017257,10000.002325860503,99.85445668511356,-0.0014637045885499,0.0036291127745551,,9031.630405181751,11029.86252269048,150,2,2025-09-17,2025-09-26 19:30:16.541,HH,C,1847757150,AMBUSH51,1,1,48,2,1,1,225,2,1,0,0,9,1,225,2,1,-152331.1332094332,-4791142.441726899,4197431.152239423,2.37552,2.77342,-0.349505,-102.666,43.7079,45.0233,-0.275277,-7.40291,6.66601,-0.0237614,0.00379188,-0.00379396,4,0,41.39739664739043,-91.82106709395202,8931.923711596888,-62.48650455456429,-0.3547153033005274,1.1885894981875136,196.431,9031.630405181751,11029.86252269048,150,True,16.955909992884393,False,159.77554033980377,179.2217692017923,False,20.572346242996055,True,False
2,1970-07-23 11:42:54.175257876,2025-09-17,2025-09-26 19:30:17.525,HH,C,1350461896,JASSM,3,105,76,2,2,1,225,9,2,0,1,26,0,0,0,0,-183200.5550554556,-4786869.309541549,4201538.657682896,-2.30145,-0.152727,0.128759,88.875,-13.5,-11.5,0.0,0.0,0.0,0.0,0.0,0.0,2,0,41.44410963760382,-92.1917244048445,9999.998893542544,99.8592905525047,-0.0042755683006619,0.003628316679789,,9031.630405181751,11029.86252269048,150,2,2025-09-17,2025-09-26 19:30:17.708,HH,C,1849148982,AMBUSH51,1,1,48,2,1,1,225,2,1,0,0,9,1,225,2,1,-152450.04321444235,-4791091.544217349,4197483.347922524,2.35994,2.76945,-0.348286,-102.613,43.9007,45.2054,-0.0939263,-7.12693,6.21308,0.000323532,-0.000802069,-0.00170089,4,0,41.398029311244784,-91.82250701239576,8929.269302940347,-62.38571281683961,-0.5541828008225723,0.2173050616601394,196.553,9031.630405181751,11029.86252269048,150,True,16.834551606030633,False,159.6552839035619,179.17342382565838,False,20.784503924313505,True,False
2,1970-07-23 11:42:54.186282182,2025-09-17,2025-09-26 19:30:18.628,HH,C,1351714680,JASSM,3,105,76,2,2,1,225,9,2,0,1,26,0,0,0,0,-183107.20544608065,-4786883.684541549,4201526.433073521,-2.30145,-0.152727,0.128759,88.875,-13.5,-11.5,0.0,0.0,0.0,0.0,0.0,0.0,2,0,41.443962863209634,-92.19060213078248,10000.001934790564,99.86003337248778,-0.0034216010792664,0.0036277636295098,,9031.630405181751,11029.86252269048,150,2,2025-09-17,2025-09-26 19:30:18.707,HH,C,1850341980,AMBUSH51,1,1,48,2,1,1,225,2,1,0,0,9,1,225,2,1,-152553.1552418549,-4791046.942338942,4197528.682895673,2.3665,2.76993,-0.347261,-102.58,44.171,45.2704,-0.231813,-7.22802,6.46313,0.00385014,0.00388135,0.00762434,4,0,41.39858118018991,-91.82375582852414,8925.988479980984,-62.446358953972165,-0.5763613168058737,0.603208710842057,196.81,9031.630405181751,11029.86252269048,150,True,16.722526590577196,False,159.55565064890897,179.1239715875132,False,20.968135750041025,True,False
2,1970-07-23 11:42:54.197319003,2025-09-17,2025-09-26 19:30:19.731,HH,C,1353026902,JASSM,3,105,76,2,2,1,225,9,2,0,1,26,0,0,0,0,-183009.42810233065,-4786898.739229049,4201513.626432896,-2.30145,-0.152631,0.128759,88.875,-13.5,-11.5,0.0,0.0,0.0,0.0,0.0,0.0,2,0,41.44380911324827,-92.18942663171302,10000.000075216154,99.85717562081666,-0.0065840351676953,0.0029221302713179,,9031.630405181751,11029.86252269048,150,2,2025-09-17,2025-09-26 19:30:19.808,HH,C,1851654278,AMBUSH51,1,1,48,2,1,1,225,2,1,0,0,9,1,225,2,1,-152665.15686308924,-4790998.219026923,4197577.916335127,2.36531,2.76739,-0.350433,-102.566,44.4954,45.3186,-0.111365,-7.28544,6.4692,-0.00891639,0.00475104,0.00296589,4,0,41.3991821875865,-91.82511243831324,8921.732340063465,-62.22190020767081,-0.5434190157737142,0.4831014317315777,196.956,9031.630405181751,11029.86252269048,150,True,16.602846936398507,False,159.45139888633148,179.06392070626893,False,21.16571162455784,True,False
2,1970-07-23 11:42:54.208182214,2025-09-17,2025-09-26 19:30:20.818,HH,C,1354398802,JASSM,3,105,76,2,2,1,225,9,2,0,1,26,0,0,0,0,-182907.20251639312,-4786914.477510299,4201500.235807896,-2.30145,-0.152631,0.128759,88.875,-13.5,-11.5,0.0,0.0,0.0,0.0,0.0,0.0,2,0,41.44364835432421,-92.18819766150028,9999.99744170899,99.85798905681143,-0.0056488706010634,0.00292146141187,,9031.630405181751,11029.86252269048,150,2,2025-09-17,2025-09-26 19:30:20.907,HH,C,1852966578,AMBUSH51,1,1,48,2,1,1,225,2,1,0,0,9,1,225,2,1,-152778.57485805475,-4790948.569190507,4197628.119968571,2.36478,2.76495,-0.349179,-102.636,44.6406,45.646,-0.259463,-7.32765,6.73152,-0.011282,0.00689613,0.002943,4,0,41.399794972170966,-91.82648634808116,8917.42217071476,-62.18063890447081,-0.6858470894564415,0.404117990027272,197.298,9031.630405181751,11029.86252269048,150,True,16.479888073511948,False,159.3308448917045,178.99683062105908,False,21.37770932017686,True,False
2,1970-07-23 11:42:54.219199204,2025-09-17,2025-09-26 19:30:21.919,HH,C,1355652646,JASSM,3,105,76,2,2,1,225,9,2,0,1,26,0,0,0,0,-182813.7738054556,-4786928.862275924,4201487.997526646,-2.30145,-0.152631,0.128759,88.875,-13.5,-11.5,0.0,0.0,0.0,0.0,0.0,0.0,2,0,41.443501413134896,-92.18707445347434,10000.002004548094,99.85873248821336,-0.0047941791728687,0.0029208455272907,,9031.630405181751,11029.86252269048,150,2,2025-09-17,2025-09-26 19:30:22.074,HH,C,1854358410,AMBUSH51,1,1,48,2,1,1,225,2,1,0,0,9,1,225,2,1,-152897.57891300757,-4790896.586624544,4197680.908364526,2.35221,2.767,-0.354286,-102.743,44.4773,46.0554,0.0334304,-7.55225,6.74258,-0.0111281,0.00432244,0.00368785,4,0,41.400438007211946,-91.82792791103012,8913.429894969171,-62.05298398489396,-0.3995453596711704,-0.276745102798808,197.555,9031.630405181751,11029.86252269048,150,True,16.35850663111839,False,159.27548669379362,178.92177927186302,False,21.525519897794716,True,False
2,1970-07-23 11:42:54.230198652,2025-09-17,2025-09-26 19:30:23.019,HH,C,1356963788,JASSM,3,105,76,2,2,1,225,9,2,0,1,26,0,0,0,0,-182716.07653983065,-4786943.901338424,4201475.198698521,-2.30145,-0.152631,0.128759,88.875,-13.5,-11.5,0.0,0.0,0.0,0.0,0.0,0.0,2,0,41.44334775463315,-92.18589993526524,10000.00155542938,99.85950987859232,-0.0039004410528048,0.0029202090170528,,9031.630405181751,11029.86252269048,150,2,2025-09-17,2025-09-26 19:30:23.141,HH,C,1855630942,AMBUSH51,1,1,48,2,1,1,225,2,1,0,0,9,1,225,2,1,-153007.79969318057,-4790848.591614424,4197730.442779777,2.35146,2.77114,-0.357661,-102.85,44.3003,46.4863,-0.209763,-7.75344,6.97726,-0.00358174,-0.00155733,-0.00922016,4,0,41.40103700353824,-91.82926304549936,8911.505728996839,-62.074254829387286,-0.1045129983299137,-0.2368736797874051,197.751,9031.630405181751,11029.86252269048,150,True,16.239974782974272,False,159.21556820081864,178.8475827125579,False,21.67250074097376,True,False
2,1970-07-23 11:42:54.241239780,2025-09-17,2025-09-26 19:30:24.123,HH,C,1358275414,JASSM,3,105,76,2,2,1,225,9,2,0,1,26,0,0,0,0,-182618.34216483065,-4786958.944307174,4201462.394011021,-2.30145,-0.152631,0.128759,88.875,-13.5,-11.5,0.0,0.0,0.0,0.0,0.0,0.0,2,0,41.44319402978314,-92.18472497729522,9999.999604271856,99.86028755766766,-0.0030063647275508,0.0029195760732268,,9031.630405181751,11029.86252269048,150,2,2025-09-17,2025-09-26 19:30:24.307,HH,C,1857022774,AMBUSH51,1,1,48,2,1,1,225,2,1,0,0,9,1,225,2,1,-153126.8287001049,-4790797.007361306,4197784.66420131,2.3543,2.77729,-0.361762,-102.824,43.9917,47.0474,-0.0387932,-7.66767,6.82561,0.0141782,-0.00196928,0.0123473,4,0,41.40168730401438,-91.83070481020572,8911.623879387404,-62.14157399002604,0.2961476736404878,0.049293789699066,197.861,9031.630405181751,11029.86252269048,150,True,16.116252929529175,False,159.11345477967703,178.76365959878987,False,21.867983144192458,True,False
2,1970-07-23 11:42:54.252258726,2025-09-17,2025-09-26 19:30:25.225,HH,C,1359589326,JASSM,3,105,76,2,2,1,225,9,2,0,1,26,0,0,0,0,-182520.4378679556,-4786974.012666549,4201449.565886021,-2.30145,-0.152631,0.128759,88.875,-13.5,-11.5,0.0,0.0,0.0,0.0,0.0,0.0,2,0,41.44304002224549,-92.18354798244104,9999.998340340584,99.86106658253313,-0.00211073360624,0.0029189386032994,,9031.630405181751,11029.86252269048,150,2,2025-09-17,2025-09-26 19:30:25.107,HH,C,1857977172,AMBUSH51,1,1,48,2,1,1,225,2,1,0,0,9,1,225,2,1,-153209.0967841758,-4790761.736757441,4197822.304176872,2.36186,2.77555,-0.363765,-102.843,43.7999,47.403,-0.14684,-7.57927,6.77287,0.00608678,-0.0025352,-0.00134927,4,0,41.40213558948702,-91.83170117094308,8913.008457911941,-61.99535910669624,0.3120950019208436,0.4480143010581728,197.897,9031.630405181751,11029.86252269048,150,True,16.01414272678128,False,159.05487823712468,178.70236251802854,False,21.99355732112234,True,False
2,1970-07-23 11:42:54.263275876,2025-09-17,2025-09-26 19:30:26.327,HH,C,1360901740,JASSM,3,105,76,2,2,1,225,9,2,0,1,26,0,0,0,0,-182422.6448992056,-4786989.063447799,4201436.751432896,-2.30145,-0.152631,0.128759,88.875,-13.5,-11.5,0.0,0.0,0.0,0.0,0.0,0.0,2,0,41.44288617427396,-92.18237233172016,9999.999113995282,99.86184471537123,-0.0012161204379103,0.0029182983058552,,9031.630405181751,11029.86252269048,150,2,2025-09-17,2025-09-26 19:30:26.241,HH,C,1859329238,AMBUSH51,1,1,48,2,1,1,225,2,1,0,0,9,1,225,2,1,-153326.07838575367,-4790711.672699895,4197876.210435481,2.36927,2.77666,-0.366616,-102.737,43.7579,47.7384,-0.357315,-7.35215,7.07651,0.00899337,-0.000130037,0.0116607,4,0,41.40277507751846,-91.83311794139156,8916.037896107555,-61.92251194087256,0.4707686229040463,0.8958357887362398,197.934,9031.630405181751,11029.86252269048,150,True,15.891689806763146,False,158.93324369085616,178.6138865578504,False,22.215565987895197,True,False
