Subject_cm,Timestamp,SampleDate_cm,SampleTime_cm,Configuration_cm,Scenario_cm,DisTime_cm,MarkingTxt_cm,Application_cm,EntId_cm,Site_cm,ExerciseId_cm,ForceId_cm,Category_cm,Country_cm,Domain_cm,Kind_cm,Extra_cm,Specific_cm,Subcategory_cm,AltCategory_cm,AltCountry_cm,AltDomain_cm,AltKind_cm,ECEF_X_cm,ECEF_Y_cm,ECEF_Z_cm,OriPhi_cm,OriPsi_cm,OriTheta_cm,LinVelX_cm,LinVelY_cm,LinVelZ_cm,LinAccX_cm,LinAccY_cm,LinAccZ_cm,AngVelX_cm,AngVelY_cm,AngVelZ_cm,DrAlg_cm,Appearance_cm,Latitude_cm,Longitude_cm,Altitude_cm,Heading_cm,Pitch_cm,Roll_cm,CalibratedAirspeed_cm,CM_Altitude_Lead_cm,CM_Altitude_Wing_cm,CM_Airspeed_cm,Subject_ac,SampleDate_ac,SampleTime_ac,Configuration_ac,Scenario_ac,DisTime_ac,MarkingTxt_ac,Application_ac,EntId_ac,Site_ac,ExerciseId_ac,ForceId_ac,Category_ac,Country_ac,Domain_ac,Kind_ac,Extra_ac,Specific_ac,Subcategory_ac,AltCategory_ac,AltCountry_ac,AltDomain_ac,AltKind_ac,ECEF_X_ac,ECEF_Y_ac,ECEF_Z_ac,OriPhi_ac,OriPsi_ac,OriTheta_ac,LinVelX_ac,LinVelY_ac,LinVelZ_ac,LinAccX_ac,LinAccY_ac,LinAccZ_ac,AngVelX_ac,AngVelY_ac,AngVelZ_ac,DrAlg_ac,Appearance_ac,Latitude_ac,Longitude_ac,Altitude_ac,Heading_ac,Pitch_ac,Roll_ac,CalibratedAirspeed_ac,CM_Altitude_Lead_ac,CM_Altitude_Wing_ac,CM_Airspeed_ac,Bank_Angle_Condition,distance_nm,Distance_Condition,angle_between_vel,angle_between_pos,Cone_Condition,angle_between_pos_nose,Nose_Cone_Condition,Intercept_Criteria
2,1970-07-23 09:44:55.074704697,2025-09-09,2025-09-26 14:51:47.470,HH,B,2016707120,JASSM,3,106,76,2,2,1,225,9,2,0,1,26,0,0,0,0,-103381.30730592164,-4798591.081129369,4190947.6274094586,2.29982,3.002,-0.133073,-83.375,11.75,11.25,0.0,0.0,0.0,0.0,0.0,0.0,2,0,41.31707783278949,-91.23419485277982,9999.998696690644,-79.82099674257871,-0.004446643338127,0.0013147007818723,,8714.375071090433,10952.218357409804,150,2,2025-09-09,2025-09-26 14:51:47.325,HH,B,2698810128,HAWK11,1,1,73,2,1,1,225,2,1,0,0,12,1,225,2,1,-150035.08044608062,-4786108.944307174,4204042.831511021,-2.84055,-1.33082,0.732188,23.25,-80.5,-81.0,-0.125,-7.54688,7.4375,-0.0449219,-0.00390625,0.0078125,4,0,41.47240143423851,-91.79552174098458,10734.117973602531,168.45137125868433,5.401975507892415,5.612339914744349,190.076,8714.375071090433,10952.218357409804,150,True,26.957779419688656,False,112.54444706966939,169.82183487568642,False,57.30251595003735,False,False
2,1970-07-23 09:44:55.084169431,2025-09-09,2025-09-26 14:51:48.416,HH,B,2018033870,JASSM,3,106,76,2,2,1,225,9,2,0,1,26,0,0,0,0,-103474.19207154664,-4798578.076246557,4190960.1430344586,2.29972,3.00248,-0.132593,-83.375,11.75,11.25,0.0,0.0,0.0,0.0,0.0,0.0,2,0,41.31722779477438,-91.23530674036904,10000.002584351414,-79.8603448565002,-0.0015942914185797,-0.0005385144878765,,8714.375071090433,10952.218357409804,150,2,2025-09-09,2025-09-26 14:51:48.742,HH,B,2694038134,HAWK11,1,1,73,2,1,1,225,2,1,0,0,12,1,225,2,1,-150150.75232108062,-4785797.756807174,4204378.759245396,-2.2841,-1.17503,0.775907,39.625,-72.625,-84.875,-0.3125,-9.39062,8.48438,-0.136719,0.0585938,0.0332031,4,0,41.47649868268166,-91.79702188295572,10708.37608143854,162.7961963769656,1.3111638179258611,31.04407158037604,189.172,8714.375071090433,10952.218357409804,150,False,27.05688176467522,False,120.51202977265343,169.36351225693645,False,48.85312564745805,False,False
2,1970-07-23 09:44:55.095151722,2025-09-09,2025-09-26 14:51:49.515,HH,B,2019345982,JASSM,3,106,76,2,2,1,225,9,2,0,1,26,0,0,0,0,-103566.04949342164,-4798565.212965307,4190972.5180344586,2.29972,3.00248,-0.132498,-83.375,11.75,11.25,0.0,0.0,0.0,0.0,0.0,0.0,2,0,41.31737608599423,-91.23640633561212,10000.000678213928,-79.86516810588584,-0.0044141015671677,-0.0005389177756941,,8714.375071090433,10952.218357409804,150,2,2025-09-09,2025-09-26 14:51:49.464,HH,B,2701076826,HAWK11,1,1,73,2,1,1,225,2,1,0,0,12,1,225,2,1,-149992.72497733062,-4786260.198213424,4203887.806120396,-2.93777,-1.32785,0.754719,22.0,-80.125,-81.125,0.09375,-6.10938,6.04688,-0.0605469,-0.0234375,-0.00195312,4,0,41.470463012635165,-91.79495850167804,10765.671626078163,168.5909757364044,4.114438379681496,-0.0614217654974249,188.927,8714.375071090433,10952.218357409804,150,True,26.794074515805352,False,111.95638858456975,169.99792995454666,False,58.064778826816855,False,False
2,1970-07-23 09:44:55.105190319,2025-09-09,2025-09-26 14:51:50.519,HH,B,2020600160,JASSM,3,106,76,2,2,1,225,9,2,0,1,26,0,0,0,0,-103653.85418092164,-4798552.916090307,4190984.347136021,2.29972,3.00248,-0.132498,-83.375,11.75,11.25,0.0,0.0,0.0,0.0,0.0,0.0,2,0,41.31751783202942,-91.2374574218416,10000.000483901167,-79.86586206492625,-0.0036120450872445,-0.0005395443362207,,8714.375071090433,10952.218357409804,150,2,2025-09-09,2025-09-26 14:51:50.324,HH,B,2702468658,HAWK11,1,1,73,2,1,1,225,2,1,0,0,12,1,225,2,1,-149966.88903983062,-4786353.018525924,4203790.337370396,-2.98177,-1.31654,0.769579,22.125,-79.125,-82.25,0.015625,-6.23438,6.17188,-0.00976562,-0.00585938,-0.00195312,4,0,41.469257690661806,-91.79461474563648,10779.988784132733,168.30858302498655,3.1854947217955,-3.048344179907565,188.805,8714.375071090433,10952.218357409804,150,True,26.707323260645264,False,112.00155536688635,170.11422576164566,False,58.12725571282151,False,False
2,1970-07-23 09:44:55.118268998,2025-09-09,2025-09-26 14:51:51.826,HH,B,2021910988,JASSM,3,106,76,2,2,1,225,9,2,0,1,26,0,0,0,0,-103745.62371217164,-4798540.063551244,4190996.7094407086,2.29972,3.00248,-0.132498,-83.375,11.75,11.25,0.0,0.0,0.0,0.0,0.0,0.0,2,0,41.317665964357175,-91.23855597511528,10000.001654327409,-79.86658736524717,-0.002773772190201,-0.0005401951737007,,8714.375071090433,10952.218357409804,150,2,2025-09-09,2025-09-26 14:51:52.027,HH,B,2704456988,HAWK11,1,1,73,2,1,1,225,2,1,0,0,12,1,225,2,1,-149929.46716483062,-4786483.477510299,4203650.241667271,-2.98052,-1.29602,0.80256,22.75,-77.375,-84.25,0.109375,-5.54688,5.57812,-0.0117188,-0.0214844,-0.00976562,4,0,41.4675428907027,-91.79411835118545,10793.300320749366,167.9111693316824,1.1617675322879988,-3.823920582738136,188.646,8714.375071090433,10952.218357409804,150,True,26.6017187633219,False,112.26461161625207,170.2873977530115,False,58.02700711458928,False,False
2,1970-07-23 09:44:55.128349604,2025-09-09,2025-09-26 14:51:52.834,HH,B,2023282546,JASSM,3,106,76,2,2,1,225,9,2,0,1,26,0,0,0,0,-103841.64324342164,-4798526.614332494,4191009.6430344586,2.29972,3.00238,-0.132498,-83.375,11.75,11.25,0.0,0.0,0.0,0.0,0.0,0.0,2,0,41.3178209460552,-91.23970540992391,10000.00142903778,-79.86372054800324,-0.0059567444766461,-0.0012666046586711,,8714.375071090433,10952.218357409804,150,2,2025-09-09,2025-09-26 14:51:53.102,HH,B,2704138856,HAWK11,1,1,73,2,1,1,225,2,1,0,0,12,1,225,2,1,-149935.66833670562,-4786462.457979049,4203673.419401646,-2.97861,-1.30245,0.796615,22.625,-77.875,-83.625,0.125,-5.3125,5.39062,-0.0195312,-0.0214844,-0.015625,4,0,41.46782323035573,-91.794200382451,10792.483035447618,168.08505850039103,1.5507866569946007,-3.44601988912704,188.805,8714.375071090433,10952.218357409804,150,True,26.55894637892156,False,112.22065725514767,170.23668719589432,False,58.022733386958045,False,False
2,1970-07-23 09:44:55.139129424,2025-09-09,2025-09-26 14:51:53.912,HH,B,2024596970,JASSM,3,106,76,2,2,1,225,9,2,0,1,26,0,0,0,0,-103933.66472779664,-4798513.723707494,4191022.036589146,2.29972,3.00238,-0.132498,-83.375,11.75,11.25,0.0,0.0,0.0,0.0,0.0,0.0,2,0,41.31796946198661,-91.24080699021044,9999.9990921422,-79.8644478512141,-0.005116169847135,-0.0012672023790028,,8714.375071090433,10952.218357409804,150,2,2025-09-09,2025-09-26 14:51:54.026,HH,B,2706922520,HAWK11,1,1,73,2,1,1,225,2,1,0,0,12,1,225,2,1,-149880.96325858062,-4786640.629854049,4203471.671354771,-2.99606,-1.26946,0.826145,24.125,-75.625,-86.875,-0.15625,-6.45312,6.28125,-0.0136719,-0.015625,-0.00976562,4,0,41.46541171027175,-91.7934794664201,10787.787259338358,167.21448166384263,-0.3950682328372654,-5.825213416090292,190.149,8714.375071090433,10952.218357409804,150,True,26.429829947151244,False,112.82208432925412,170.48930643660324,False,57.66722211581681,False,False
2,1970-07-23 09:44:55.151151510,2025-09-09,2025-09-26 14:51:55.115,HH,B,2025967154,JASSM,3,106,76,2,2,1,225,9,2,0,1,26,0,0,0,0,-104029.58855592164,-4798500.286207494,4191034.9555344586,2.29972,3.00238,-0.132498,-83.375,11.75,11.25,0.0,0.0,0.0,0.0,0.0,0.0,2,0,41.3181242648927,-91.24195529045808,10000.00051506442,-79.8652060029279,-0.0042399490348499,-0.0012678254985567,,8714.375071090433,10952.218357409804,150,2,2025-09-09,2025-09-26 14:51:55.120,HH,B,2708234818,HAWK11,1,1,73,2,1,1,225,2,1,0,0,12,1,225,2,1,-149853.92419608062,-4786722.776338424,4203375.651823521,-2.99519,-1.25355,0.831226,25.25,-75.0,-87.875,0.03125,-6.26562,6.25,-0.00976562,-0.0117188,0.0,4,0,41.46427995800156,-91.79312537471355,10778.971332575527,166.69091142252068,-0.8300412523451601,-6.44226580489997,190.98,8714.375071090433,10952.218357409804,150,True,26.340186234515528,False,113.30989387701646,170.59790682627533,False,57.28859398195293,False,False
2,1970-07-23 09:44:55.161289118,2025-09-09,2025-09-26 14:51:56.128,HH,B,2027220252,JASSM,3,106,76,2,2,1,225,9,2,0,1,26,0,0,0,0,-104117.31707154664,-4798487.995191869,4191046.769987584,2.29972,3.00238,-0.132498,-83.375,11.75,11.25,0.0,0.0,0.0,0.0,0.0,0.0,2,0,41.31826583623486,-91.243005490113,10000.00064026131,-79.86589938692889,-0.0034385876902228,-0.0012683993772995,,8714.375071090433,10952.218357409804,150,2,2025-09-09,2025-09-26 14:51:56.102,HH,B,2705411388,HAWK11,1,1,73,2,1,1,225,2,1,0,0,12,1,225,2,1,-149911.02380545562,-4786544.743135299,4203581.659636021,-2.98829,-1.28442,0.815407,23.125,-76.375,-85.5,-0.140625,-5.65625,5.64062,-0.00976562,-0.015625,-0.00195312,4,0,41.46671893516024,-91.79387484840612,10793.428296070912,167.6340896877838,0.3407626970718956,-4.753458178706272,191.909,8714.375071090433,10952.218357409804,150,True,26.373591796682202,False,112.40898678015019,170.30534623959485,False,57.897354333622495,False,False
2,1970-07-23 09:44:55.172370123,2025-09-09,2025-09-26 14:51:57.237,HH,B,2028531826,JASSM,3,106,76,2,2,1,225,9,2,0,1,26,0,0,0,0,-104209.13738404664,-4798475.129957494,4191059.134245396,2.29972,3.00238,-0.132498,-83.375,11.75,11.25,0.0,0.0,0.0,0.0,0.0,0.0,2,0,41.31841399766172,-91.24410467785556,10000.000146055338,-79.86662511692934,-0.0025998499093376,-0.0012689972332608,,8714.375071090433,10952.218357409804,150,2,2025-09-09,2025-09-26 14:51:57.143,HH,B,2706524854,HAWK11,1,1,73,2,1,1,225,2,1,0,0,12,1,225,2,1,-149889.14099295562,-4786615.014619674,4203501.335417271,-2.99539,-1.27359,0.82346,23.875,-75.75,-86.5,0.125,-6.17188,6.125,-0.00976562,-0.00195312,0.00976562,4,0,41.46576279571192,-91.79358684942083,10789.916477554028,167.33250142639315,-0.2072449247604256,-5.6139063383804,192.618,8714.375071090433,10952.218357409804,150,True,26.29235562257416,False,112.7258265430521,170.39490777760025,False,57.6691354201263,False,False
2,1970-07-23 09:44:55.182350812,2025-09-09,2025-09-26 14:51:58.235,HH,B,2029784782,JASSM,3,106,76,2,2,1,225,9,2,0,1,26,0,0,0,0,-104296.85613404664,-4798462.838941869,4191070.9457688336,2.29972,3.00238,-0.132498,-83.375,11.75,11.25,0.0,0.0,0.0,0.0,0.0,0.0,2,0,41.318555530844456,-91.24515477026048,10000.001795293838,-79.867318434124,-0.0017985780379178,-0.0012695681840142,,8714.375071090433,10952.218357409804,150,2,2025-09-09,2025-09-26 14:51:58.432,HH,B,2712052414,HAWK11,1,1,73,2,1,1,225,2,1,0,0,12,1,225,2,1,-149767.62536795562,-4786960.823213424,4203089.624479771,-2.97094,-1.20897,0.834965,28.75,-74.25,-90.25,-0.046875,-6.71875,6.57812,0.0195312,-0.0078125,-0.0117188,4,0,41.46094933487369,-91.79200435240978,10735.964553957829,165.09615159356218,-1.4993691430707032,-6.910447963069101,194.084,8714.375071090433,10952.218357409804,150,True,26.081716965745684,False,114.7782484710399,170.92220481378303,False,56.14892625453413,False,False
2,1970-07-23 09:44:55.194253552,2025-09-09,2025-09-26 14:51:59.425,HH,B,2031099128,JASSM,3,106,76,2,2,1,225,9,2,0,1,26,0,0,0,0,-104388.87175904664,-4798449.944410619,4191083.3344407086,2.29972,3.00238,-0.132498,-83.375,11.75,11.25,0.0,0.0,0.0,0.0,0.0,0.0,2,0,41.31870398556383,-91.24625630636416,10000.00126483106,-79.86804571881356,-0.0009580560610953,-0.0012701659087317,,8714.375071090433,10952.218357409804,150,2,2025-09-09,2025-09-26 14:51:59.432,HH,B,2713364712,HAWK11,1,1,73,2,1,1,225,2,1,0,0,12,1,225,2,1,-149735.20935233062,-4787043.036104049,4202989.202604771,-2.94956,-1.20676,0.832185,29.875,-74.625,-90.5,-0.125,-7.25,7.01562,0.03125,0.00195312,0.00390625,4,0,41.45978848814492,-91.79158599082736,10717.369613316456,164.969186225134,-1.370065816661301,-5.775816371118295,195.355,8714.375071090433,10952.218357409804,150,True,25.99126996919758,False,115.24797135193789,171.03608079221698,False,55.79289364158159,False,False
2,1970-07-23 09:44:55.205133303,2025-09-09,2025-09-26 14:52:00.513,HH,B,2032470006,JASSM,3,106,76,2,2,1,225,9,2,0,1,26,0,0,0,0,-104484.84441529664,-4798436.494215307,4191096.255339146,2.29972,3.00238,-0.132402,-83.375,11.75,11.25,0.0,0.0,0.0,0.0,0.0,0.0,2,0,41.31885881639145,-91.2474052184468,10000.001529793562,-79.87290150414074,-0.0037403249733686,-0.0012706557707458,,8714.375071090433,10952.218357409804,150,2,2025-09-09,2025-09-26 14:52:00.620,HH,B,2714716778,HAWK11,1,1,73,2,1,1,225,2,1,0,0,12,1,225,2,1,-149701.27185233062,-4787127.467744674,4202886.679167271,-2.91169,-1.19766,0.83113,30.75,-75.0,-91.0,0.09375,-7.14062,6.96875,0.00585938,-0.00195312,-0.00585938,4,0,41.45860053379037,-91.79114862136252,10699.55472168552,164.61549683866326,-1.4136260172376625,-3.9830843499273114,196.418,8714.375071090433,10952.218357409804,150,True,25.897444056434264,False,115.57374226859272,171.15279601618886,False,55.58406906847195,False,False
2,1970-07-23 09:44:55.215289892,2025-09-09,2025-09-26 14:52:01.528,HH,B,2033723716,JASSM,3,106,76,2,2,1,225,9,2,0,1,26,0,0,0,0,-104572.61394654664,-4798424.192457494,4191108.0707688336,2.29972,3.00238,-0.132402,-83.375,11.75,11.25,0.0,0.0,0.0,0.0,0.0,0.0,2,0,41.319000403098045,-91.24845593399075,10000.00079047986,-79.87359523887132,-0.002938588342339,-0.0012712858472904,,8714.375071090433,10952.218357409804,150,2,2025-09-09,2025-09-26 14:52:01.620,HH,B,2715989310,HAWK11,1,1,73,2,1,1,225,2,1,0,0,12,1,225,2,1,-149668.17224295562,-4787208.256807174,4202788.772917271,-2.90114,-1.19535,0.825665,31.25,-75.75,-91.0,0.015625,-7.20312,7.0625,0.0117188,-0.00195312,0.00390625,4,0,41.45746525249802,-91.79072264729338,10682.890918225898,164.43799198739765,-1.139703125402456,-3.472009084717582,197.555,8714.375071090433,10952.218357409804,150,True,25.809680567151613,False,115.75020942264537,171.26560127630623,False,55.51901821050066,False,False
2,1970-07-23 09:44:55.227309031,2025-09-09,2025-09-26 14:52:02.730,HH,B,2035093582,JASSM,3,106,76,2,2,1,225,9,2,0,1,26,0,0,0,0,-104668.51629029664,-4798410.750074682,4191120.979948521,2.29972,3.00229,-0.132402,-83.375,11.75,11.25,0.0,0.0,0.0,0.0,0.0,0.0,2,0,41.31915509545173,-91.24960401527711,10000.000534292809,-79.87072744996176,-0.0061226353199686,-0.0019971882239411,,8714.375071090433,10952.218357409804,150,2,2025-09-09,2025-09-26 14:52:02.324,HH,B,2716784642,HAWK11,1,1,73,2,1,1,225,2,1,0,0,12,1,225,2,1,-149647.52575858062,-4787259.065400924,4202727.811979771,-2.89692,-1.19986,0.809367,31.5,-76.5,-90.875,-0.140625,-9.03125,8.76562,-0.00976562,0.0644531,-0.00585938,4,0,41.45675536825778,-91.79045679029792,10673.759482177204,164.3314805846123,-0.1945845389537174,-3.0407415638888105,198.386,8714.375071090433,10952.218357409804,150,True,25.732618997841723,False,115.82417148884232,171.32895325037651,False,55.50706489508861,False,False
2,1970-07-23 09:44:55.237349604,2025-09-09,2025-09-26 14:52:03.734,HH,B,2036346282,JASSM,3,106,76,2,2,1,225,9,2,0,1,26,0,0,0,0,-104756.21550904664,-4798398.456129369,4191132.784636021,2.29972,3.00229,-0.132402,-83.375,11.75,11.25,0.0,0.0,0.0,0.0,0.0,0.0,2,0,41.31929655217774,-91.25065389912773,10000.00057954201,-79.87142063962202,-0.005321539957056,-0.0019977704022565,,8714.375071090433,10952.218357409804,150,2,2025-09-09,2025-09-26 14:52:03.526,HH,B,2718017408,HAWK11,1,1,73,2,1,1,225,2,1,0,0,12,1,225,2,1,-149614.98864920562,-4787339.633760299,4202636.175261021,-2.92521,-1.206,0.761238,32.125,-80.0,-87.875,-0.296875,-10.4062,10.125,-0.0195312,0.0253906,-0.00585938,4,0,41.45566357693924,-91.7900376472978,10670.228568958904,163.76604350721962,2.516922256969205,-4.424041542224671,199.205,8714.375071090433,10952.218357409804,150,True,25.6461765621687,False,116.13973333676626,171.43775986564603,False,55.29981514536097,False,False
2,1970-07-23 09:44:55.249477782,2025-09-09,2025-09-26 14:52:04.947,HH,B,2037600558,JASSM,3,106,76,2,2,1,225,9,2,0,1,26,0,0,0,0,-104844.02605592164,-4798386.146559057,4191144.602995396,2.29972,3.00229,-0.132402,-83.375,11.75,11.25,0.0,0.0,0.0,0.0,0.0,0.0,2,0,41.319438170109215,-91.251705120287,10000.001839828046,-79.87211471420443,-0.004519429216549,-0.0019983446523219,,8714.375071090433,10952.218357409804,150,2,2025-09-09,2025-09-26 14:52:05.026,HH,B,2720005740,HAWK11,1,1,73,2,1,1,225,2,1,0,0,12,1,225,2,1,-149560.85193045562,-4787476.852510299,4202493.819792271,-2.89616,-1.199,0.728449,33.0,-83.75,-83.625,-0.21875,-8.20312,7.9375,0.0117188,0.0117188,-0.0117188,4,0,41.453896367581706,-91.78933910666257,10694.118816768165,162.93440853361176,4.229413209062145,-3.0804487928617648,197.861,8714.375071090433,10952.218357409804,150,True,25.534995579233236,False,116.61769977282528,171.62449170642296,False,55.03045272430767,False,False
2,1970-07-23 09:44:55.259131127,2025-09-09,2025-09-26 14:52:05.913,HH,B,2038913496,JASSM,3,106,76,2,2,1,225,9,2,0,1,26,0,0,0,0,-104935.94207154664,-4798373.259840307,4191156.973112584,2.29972,3.00229,-0.132402,-83.375,11.75,11.25,0.0,0.0,0.0,0.0,0.0,0.0,2,0,41.31958640323295,-91.2528054952347,10000.00182326407,-79.87284124494613,-0.0036798157717874,-0.0019989499043771,,8714.375071090433,10952.218357409804,150,2,2025-09-09,2025-09-26 14:52:05.824,HH,B,2720920372,HAWK11,1,1,73,2,1,1,225,2,1,0,0,12,1,225,2,1,-149535.51403983062,-4787540.860322799,4202430.110807896,-2.89903,-1.20034,0.716273,33.25,-84.0,-82.75,-0.125,-7.95312,7.79688,-0.0078125,0.0136719,0.0,4,0,41.4530902181505,-91.78901225905848,10711.1168846337,162.78388274728468,4.913952481495727,-3.206417166039667,197.176,8714.375071090433,10952.218357409804,150,True,25.455854657876912,False,116.78682793519873,171.7006503621284,False,54.942865449822484,False,False
2,1970-07-23 09:44:55.270170073,2025-09-09,2025-09-26 14:52:07.017,HH,B,2040224638,JASSM,3,106,76,2,2,1,225,9,2,0,1,26,0,0,0,0,-105027.73308717164,-4798360.389723119,4191169.325651646,2.29972,3.00229,-0.132402,-83.375,11.75,11.25,0.0,0.0,0.0,0.0,0.0,0.0,2,0,41.31973442464717,-91.25390437895892,10000.00238749646,-79.87356679323892,-0.0028413439251506,-0.0019995546350097,,8714.375071090433,10952.218357409804,150,2,2025-09-09,2025-09-26 14:52:07.120,HH,B,2722511036,HAWK11,1,1,73,2,1,1,225,2,1,0,0,12,1,225,2,1,-149490.77966483062,-4787653.231416549,4202320.729948521,-2.88024,-1.19334,0.704864,33.625,-84.75,-81.0,-0.203125,-7.71875,7.48438,0.00390625,0.0078125,-0.0136719,4,0,41.45169163333915,-91.7884354636686,10746.305060037652,162.29808644641705,5.449506759652548,-2.435227607406188,196.345,8714.375071090433,10952.218357409804,150,True,25.3550097972178,False,117.044339488055,171.8455370362401,False,54.8440830854493,False,False
2,1970-07-23 09:44:55.283049732,2025-09-09,2025-09-26 14:52:08.304,HH,B,2041536590,JASSM,3,106,76,2,2,1,225,9,2,0,1,26,0,0,0,0,-105119.58074342164,-4798347.509840307,4191181.684050084,2.29972,3.00229,-0.132402,-83.375,11.75,11.25,0.0,0.0,0.0,0.0,0.0,0.0,2,0,41.31988252581551,-91.25500394621476,9999.999133706444,-79.87429279498286,-0.0020023545496248,-0.0020001585725016,,8714.375071090433,10952.218357409804,150,2,2025-09-09,2025-09-26 14:52:08.230,HH,B,2723783568,HAWK11,1,1,73,2,1,1,225,2,1,0,0,12,1,225,2,1,-149454.82849295562,-4787743.942354049,4202233.808073521,-2.87641,-1.1896,0.698537,33.625,-84.75,-80.125,0.03125,-7.40625,7.3125,0.0136719,0.0078125,-0.00390625,4,0,41.450571880924166,-91.78797178599363,10777.71950153006,162.0320954731135,5.747285337214163,-2.3797849568381246,195.16,8714.375071090433,10952.218357409804,150,True,25.264332903376957,False,117.1225648967394,171.95906238214,False,54.885480921060626,False,False
2,1970-07-23 09:44:55.292327503,2025-09-09,2025-09-26 14:52:09.232,HH,B,2042848386,JASSM,3,106,76,2,2,1,225,9,2,0,1,26,0,0,0,0,-105211.41668092164,-4798334.630934057,4191194.041471959,2.29972,3.00229,-0.132402,-83.375,11.75,11.25,0.0,0.0,0.0,0.0,0.0,0.0,2,0,41.3200306056004,-91.25610337832993,10000.000032255535,-79.87501870964141,-0.0011634707028941,-0.0020007702628649,,8714.375071090433,10952.218357409804,150,2,2025-09-09,2025-09-26 14:52:09.142,HH,B,2724459602,HAWK11,1,1,73,2,1,1,225,2,1,0,0,12,1,225,2,1,-149435.77380545562,-4787791.731416549,4202188.462370396,-2.86778,-1.18529,0.69566,33.625,-84.875,-79.625,-0.125,-7.10938,7.09375,0.0,0.00195312,-0.0214844,4,0,41.44998500211738,-91.7877261444512,10795.235413183049,161.80047772763848,5.847414122745163,-2.067517668943189,194.39,8714.375071090433,10952.218357409804,150,True,25.192986546197282,False,117.1551804234996,172.0111819896192,False,54.90946723355445,False,False
2,1970-07-23 09:44:55.303346212,2025-09-09,2025-09-26 14:52:10.334,HH,B,2044102748,JASSM,3,106,76,2,2,1,225,9,2,0,1,26,0,0,0,0,-105299.23308717164,-4798322.315504369,4191205.855925084,2.29972,3.00229,-0.132402,-83.375,11.75,11.25,0.0,0.0,0.0,0.0,0.0,0.0,2,0,41.32017218138746,-91.2571546945417,10000.00001193327,-79.87571285713997,-0.0003613058863233,-0.0020013424103114,,8714.375071090433,10952.218357409804,150,2,2025-09-09,2025-09-26 14:52:10.230,HH,B,2726169566,HAWK11,1,1,73,2,1,1,225,2,1,0,0,12,1,225,2,1,-149387.53943045562,-4787912.293916549,4202074.093229771,-2.85388,-1.17234,0.699879,33.625,-84.0,-79.375,-0.078125,-6.45312,6.4375,0.00390625,-0.00390625,0.00585938,4,0,41.44850465046501,-91.78710451018404,10839.486339984724,161.33298550309308,5.443356357338022,-1.7935412904904386,193.046,8714.375071090433,10952.218357409804,150,True,25.0912283421442,False,117.2623591566147,172.16862344753147,False,54.95734289367932,False,False
2,1970-07-23 09:44:55.314106979,2025-09-09,2025-09-26 14:52:11.410,HH,B,2045473088,JASSM,3,106,76,2,2,1,225,9,2,0,1,26,0,0,0,0,-105395.16863404664,-4798308.860426244,4191218.762175084,2.29972,3.00219,-0.132306,-83.375,11.75,11.25,0.0,0.0,0.0,0.0,0.0,0.0,2,0,41.32032683823066,-91.2583032165556,10000.001063105608,-79.87694245075387,-0.0072040438595672,-0.0027266393127623,,8714.375071090433,10952.218357409804,150,2,2025-09-09,2025-09-26 14:52:11.528,HH,B,2727720464,HAWK11,1,1,73,2,1,1,225,2,1,0,0,12,1,225,2,1,-149343.25232108062,-4788020.526338424,4201970.343229771,-2.83815,-1.16621,0.702755,33.75,-83.125,-79.5,-0.171875,-6.67188,6.54688,0.0136719,-0.00195312,-0.0117188,4,0,41.44716861290481,-91.78653469334895,10876.809089115704,161.12964944863057,5.2036045782845655,-1.1384258781456706,192.618,8714.375071090433,10952.218357409804,150,True,24.990106739977307,False,117.39316237727746,172.30868793303378,False,54.9618551397262,False,False
2,1970-07-23 09:44:55.325134111,2025-09-09,2025-09-26 14:52:12.513,HH,B,2046726336,JASSM,3,106,76,2,2,1,225,9,2,0,1,26,0,0,0,0,-105482.90691529664,-4798296.552809057,4191230.5649094586,2.29972,3.00219,-0.132306,-83.375,11.75,11.25,0.0,0.0,0.0,0.0,0.0,0.0,2,0,41.32046827849969,-91.25935360780872,9999.999269952095,-79.87763599154991,-0.0064025902704823,-0.0027272277044992,,8714.375071090433,10952.218357409804,150,2,2025-09-09,2025-09-26 14:52:12.526,HH,B,2728913464,HAWK11,1,1,73,2,1,1,225,2,1,0,0,12,1,225,2,1,-149309.21911795562,-4788103.051729049,4201890.509245396,-2.84227,-1.16094,0.711384,33.875,-82.375,-79.75,-0.109375,-6.21875,6.07812,-0.00976562,-0.0214844,0.0,4,0,41.446145057389806,-91.78609706636452,10903.677751358931,161.06993872526974,4.66282963510683,-1.576074437244105,191.726,8714.375071090433,10952.218357409804,150,True,24.9049453762526,False,117.49999673888163,172.4143257154793,False,54.955874296768805,False,False
2,1970-07-23 09:44:55.337046034,2025-09-09,2025-09-26 14:52:13.704,HH,B,2047979670,JASSM,3,106,76,2,2,1,225,9,2,0,1,26,0,0,0,0,-105570.64910279664,-4798284.244215307,4191242.3676438336,2.29972,3.00219,-0.132306,-83.375,11.75,11.25,0.0,0.0,0.0,0.0,0.0,0.0,2,0,41.320609714471,-91.26040405048168,9999.999384711333,-79.8783295682527,-0.0056011011126536,-0.002727815080908,,8714.375071090433,10952.218357409804,150,2,2025-09-09,2025-09-26 14:52:13.432,HH,B,2730066696,HAWK11,1,1,73,2,1,1,225,2,1,0,0,12,1,225,2,1,-149276.54333670562,-4788181.106416549,4201813.145964146,-2.85234,-1.15355,0.7296,34.0,-80.875,-80.75,-0.046875,-5.54688,5.46875,-0.00390625,-0.0078125,-0.00195312,4,0,41.44516453471309,-91.78567734769256,10925.033771188548,161.10697237813176,3.573447576644698,-2.429307613990065,191.371,8714.375071090433,10952.218357409804,150,True,24.821415058286455,False,117.60535418557703,172.51558387439638,False,54.939772216530415,False,False
2,1970-07-23 09:44:55.345864438,2025-09-09,2025-09-26 14:52:14.586,HH,B,2049232934,JASSM,3,106,76,2,2,1,225,9,2,0,1,26,0,0,0,0,-105658.38933717164,-4798271.935621557,4191254.169401646,2.29972,3.00219,-0.132306,-83.375,11.75,11.25,0.0,0.0,0.0,0.0,0.0,0.0,2,0,41.32075113450734,-91.26145447438556,10000.001380271677,-79.87902313451863,-0.0047996303243231,-0.0027283992504633,,8714.375071090433,10952.218357409804,150,2,2025-09-09,2025-09-26 14:52:14.730,HH,B,2731617594,HAWK11,1,1,73,2,1,1,225,2,1,0,0,12,1,225,2,1,-149231.87927420562,-4788284.741182174,4201706.972136021,-2.86001,-1.13735,0.73957,34.5,-79.125,-82.0,-0.0625,-5.92188,5.84375,0.0,-0.00195312,-0.00195312,4,0,41.443839592322064,-91.7851048009732,10945.793829503968,160.6455857984503,2.807755785398936,-3.516758145194623,190.944,8714.375071090433,10952.218357409804,150,True,24.725213760008785,False,117.87532148515633,172.65840650379766,False,54.80086866757877,False,False
2,1970-07-23 09:44:55.356345562,2025-09-09,2025-09-26 14:52:15.634,HH,B,2050545202,JASSM,3,106,76,2,2,1,225,9,2,0,1,26,0,0,0,0,-105750.25847779664,-4798259.045973119,4191266.524870396,2.29972,3.00219,-0.132306,-83.375,11.75,11.25,0.0,0.0,0.0,0.0,0.0,0.0,2,0,41.32089919892586,-91.2625543348012,9999.999754630957,-79.87974934446099,-0.0039604434058897,-0.0027290104846631,,8714.375071090433,10952.218357409804,150,2,2025-09-09,2025-09-26 14:52:15.342,HH,B,2731895960,HAWK11,1,1,73,2,1,1,225,2,1,0,0,12,1,225,2,1,-149223.48669608062,-4788303.957979049,4201686.919401646,-2.85944,-1.13371,0.742447,34.5,-78.75,-82.375,-0.25,-5.875,5.76562,-0.0117188,-0.0136719,-0.0078125,4,0,41.44359146816214,-91.78499731520664,10948.843333567587,160.55620071518524,2.6009172450904665,-3.6289275422413234,190.944,8714.375071090433,10952.218357409804,150,True,24.66614199733466,False,117.8715147605925,172.672964472815,False,54.81676364211615,False,False
2,1970-07-23 09:44:55.367106196,2025-09-09,2025-09-26 14:52:16.710,HH,B,2051798016,JASSM,3,106,76,2,2,1,225,9,2,0,1,26,0,0,0,0,-105837.96550904664,-4798246.740309057,4191278.319792271,2.29982,3.00219,-0.132306,-83.375,11.75,11.25,0.0,0.0,0.0,0.0,0.0,0.0,2,0,41.32104054007336,-91.26360437094412,10000.000751656416,-79.88044265869983,-0.0031592766295116,0.0027618834564457,,8714.375071090433,10952.218357409804,150,2,2025-09-09,2025-09-26 14:52:16.435,HH,B,2733526392,HAWK11,1,1,73,2,1,1,225,2,1,0,0,12,1,225,2,1,-149175.78161795562,-4788411.045869674,4201573.358854771,-2.85263,-1.12172,0.747049,35.25,-77.875,-83.125,0.078125,-6.57812,6.46875,0.0,-0.0117188,-0.00390625,4,0,41.442196700402754,-91.7843871594583,10961.833589723175,160.17229919886915,2.181700999199847,-3.720399925349759,191.249,8714.375071090433,10952.218357409804,150,True,24.567273072438294,False,118.2184140857469,172.8255109287156,False,54.61780293463369,False,False
2,1970-07-23 09:44:55.379149757,2025-09-09,2025-09-26 14:52:17.914,HH,B,2053170342,JASSM,3,106,76,2,2,1,225,9,2,0,1,26,0,0,0,0,-105934.03972779664,-4798233.258863744,4191291.239714146,2.29982,3.00219,-0.132306,-83.375,11.75,11.25,0.0,0.0,0.0,0.0,0.0,0.0,2,0,41.32119536340319,-91.26475458546642,10000.001548685845,-79.88120212061457,-0.0022816771469197,0.0027612410646774,,8714.375071090433,10952.218357409804,150,2,2025-09-09,2025-09-26 14:52:17.932,HH,B,2735395424,HAWK11,1,1,73,2,1,1,225,2,1,0,0,12,1,225,2,1,-149120.43396170562,-4788532.698213424,4201442.302214146,-2.83288,-1.11655,0.757882,35.75,-77.25,-83.625,0.140625,-6.46875,6.29688,0.0136719,-0.00195312,-0.00585938,4,0,41.44059861085258,-91.7836802522728,10972.064582021,160.1859223655471,1.5261017897537357,-2.7911549690978896,191.249,8714.375071090433,10952.218357409804,150,True,24.45627933970217,False,118.45138597587892,173.0022890515129,False,54.55900360101555,False,False
2,1970-07-23 09:44:55.390167035,2025-09-09,2025-09-26 14:52:19.016,HH,B,2054482630,JASSM,3,106,76,2,2,1,225,9,2,0,1,26,0,0,0,0,-106025.91082154664,-4798220.365309057,4191303.593229771,2.29982,3.00219,-0.132306,-83.375,11.75,11.25,0.0,0.0,0.0,0.0,0.0,0.0,2,0,41.32134340602578,-91.2658544851592,9999.999669501103,-79.8819283629217,-0.0014424705852298,0.0027606235656202,,8714.375071090433,10952.218357409804,150,2,2025-09-09,2025-09-26 14:52:18.620,HH,B,2736230522,HAWK11,1,1,73,2,1,1,225,2,1,0,0,12,1,225,2,1,-149095.43200858062,-4788586.725557174,4201383.333464146,-2.81936,-1.10782,0.762964,35.875,-76.875,-84.0,-0.140625,-6.65625,6.04688,0.0136719,-0.00390625,-0.0078125,4,0,41.43988379633984,-91.78336128048768,10974.921080612226,159.94985861235227,1.1266817198780987,-2.3666429470201917,191.335,8714.375071090433,10952.218357409804,150,True,24.379950979330843,False,118.50189332813372,173.0741682402155,False,54.578807380232455,False,False
2,1970-07-23 09:44:55.400325421,2025-09-09,2025-09-26 14:52:20.032,HH,B,2055795004,JASSM,3,106,76,2,2,1,225,9,2,0,1,26,0,0,0,0,-106117.78777467164,-4798207.470777807,4191315.946745396,2.29982,3.00219,-0.132306,-83.375,11.75,11.25,0.0,0.0,0.0,0.0,0.0,0.0,2,0,41.321491443166174,-91.26695446002088,10000.000201314422,-79.88265465700498,-0.0006032112665282,0.0027600104134505,,8714.375071090433,10952.218357409804,150,2,2025-09-09,2025-09-26 14:52:20.120,HH,B,2738059786,HAWK11,1,1,73,2,1,1,225,2,1,0,0,12,1,225,2,1,-149040.26403983062,-4788703.528291549,4201253.831511021,-2.83058,-1.09929,0.768429,36.25,-75.625,-84.625,0.03125,-6.60938,5.98438,-0.0078125,0.0,0.00976562,4,0,41.43832502659926,-91.7826583765124,10976.645589384903,159.73347307303283,0.7097103163445951,-3.351677020453332,190.858,8714.375071090433,10952.218357409804,150,True,24.272432397172228,False,118.71790896929107,173.24894479109352,False,54.53429440138781,False,False
2,1970-07-23 09:44:55.410109055,2025-09-09,2025-09-26 14:52:21.010,HH,B,2056928398,JASSM,3,106,76,2,2,1,225,9,2,0,1,26,0,0,0,0,-106197.13347779664,-4798196.334059057,4191326.613737584,2.29982,3.0021,-0.132306,-83.375,11.75,11.25,0.0,0.0,0.0,0.0,0.0,0.0,2,0,41.32161927526335,-91.2679044117291,9999.998596802629,-79.87965593385924,-0.0039384531099185,0.0020349296295054,,8714.375071090433,10952.218357409804,150,2,2025-09-09,2025-09-26 14:52:20.932,HH,B,2738934652,HAWK11,1,1,73,2,1,1,225,2,1,0,0,12,1,225,2,1,-149013.68200858062,-4788758.862275924,4201191.558073521,-2.83297,-1.09421,0.770825,36.5,-75.0,-85.0,-0.25,-7.04688,6.0,-0.00976562,-0.00585938,0.0,4,0,41.43758042881686,-91.78232005449378,10975.429566434705,159.58867230300956,0.5066610185529072,-3.693162907321603,190.626,8714.375071090433,10952.218357409804,150,True,24.201716854370407,False,118.846075006988,173.32753896536943,False,54.483435909012094,False,False
2,1970-07-23 09:44:55.421131504,2025-09-09,2025-09-26 14:52:22.113,HH,B,2058238792,JASSM,3,106,76,2,2,1,225,9,2,0,1,26,0,0,0,0,-106288.87175904664,-4798183.457105932,4191338.946745396,2.29982,3.0021,-0.13221,-83.375,11.75,11.25,0.0,0.0,0.0,0.0,0.0,0.0,2,0,41.32176706801294,-91.26900273613188,9999.998819122293,-79.88447822106697,-0.0067595540955677,0.0020347244826359,,8714.375071090433,10952.218357409804,150,2,2025-09-09,2025-09-26 14:52:22.120,HH,B,2740445784,HAWK11,1,1,73,2,1,1,225,2,1,0,0,12,1,225,2,1,-148967.31677420562,-4788853.872041549,4201083.819792271,-2.84745,-1.08289,0.770634,37.0,-74.5,-84.875,-0.09375,-7.25,6.20312,-0.015625,0.0,-0.00195312,4,0,41.43629658080343,-91.7817305205459,10971.529630524798,159.15265615307592,0.3470258868773349,-4.977495555339599,190.43,8714.375071090433,10952.218357409804,150,True,24.104201999722168,False,119.13552865869408,173.47069497918898,False,54.33673142232571,False,False
2,1970-07-23 09:44:55.432170525,2025-09-09,2025-09-26 14:52:23.217,HH,B,2059493400,JASSM,3,106,76,2,2,1,225,9,2,0,1,26,0,0,0,0,-106376.70379029664,-4798171.128004369,4191350.754362584,2.29982,3.0021,-0.13221,-83.375,11.75,11.25,0.0,0.0,0.0,0.0,0.0,0.0,2,0,41.32190855889842,-91.27005429824474,10000.001581810742,-79.88517255480161,-0.0059572432014726,0.0020341322179573,,8714.375071090433,10952.218357409804,150,2,2025-09-09,2025-09-26 14:52:23.230,HH,B,2741718316,HAWK11,1,1,73,2,1,1,225,2,1,0,0,12,1,225,2,1,-148927.74646170562,-4788933.641572799,4200993.462370396,-2.86509,-1.08174,0.766223,37.625,-74.625,-84.25,-0.0625,-7.90625,6.78125,-0.00195312,0.0136719,-0.0195312,4,0,41.43521945415906,-91.78122789152944,10968.429909913008,159.0149342699549,0.5650511176801759,-6.035185615465351,189.991,8714.375071090433,10952.218357409804,150,True,24.016234820808872,False,119.48480941937085,173.58985058699162,False,54.10744458295669,False,False
2,1970-07-23 09:44:55.442305464,2025-09-09,2025-09-26 14:52:24.230,HH,B,2060803734,JASSM,3,106,76,2,2,1,225,9,2,0,1,26,0,0,0,0,-106468.43816529664,-4798158.249098119,4191363.085417271,2.29982,3.0021,-0.13221,-83.375,11.75,11.25,0.0,0.0,0.0,0.0,0.0,0.0,2,0,41.32205633004372,-91.27115258625528,10000.001326207295,-79.88589774317147,-0.005119284838025,0.002033509679825,,8714.375071090433,10952.218357409804,150,2,2025-09-09,2025-09-26 14:52:24.143,HH,B,2742195516,HAWK11,1,1,73,2,1,1,225,2,1,0,0,12,1,225,2,1,-148913.09802420562,-4788963.072236861,4200960.296354771,-2.85455,-1.07695,0.765648,37.875,-74.375,-84.125,-0.109375,-7.54688,6.64062,0.0078125,0.00390625,-0.00390625,4,0,41.434823214573264,-91.7810418655004,10967.655907508472,158.81914242571813,0.5219656007603488,-5.623197939744789,189.844,8714.375071090433,10952.218357409804,150,True,23.951444579456197,False,119.63825084439904,173.6251629521406,False,53.989152358690035,False,False
2,1970-07-23 09:44:55.455865829,2025-09-09,2025-09-26 14:52:25.586,HH,B,2062058724,JASSM,3,106,76,2,2,1,225,9,2,0,1,26,0,0,0,0,-106556.29754029664,-4798145.913160619,4191374.894011021,2.29982,3.0021,-0.13221,-83.375,11.75,11.25,0.0,0.0,0.0,0.0,0.0,0.0,2,0,41.322197844887,-91.27220448583569,9999.999265035764,-79.88659230373733,-0.0043167236998692,0.00203291783998,,8714.375071090433,10952.218357409804,150,2,2025-09-09,2025-09-26 14:52:25.526,HH,B,2744422446,HAWK11,1,1,73,2,1,1,225,2,1,0,0,12,1,225,2,1,-148841.34216483062,-4789102.146455611,4200803.542448521,-2.86327,-1.05135,0.756061,39.25,-73.625,-83.375,-0.25,-7.32812,6.25,-0.00195312,-0.00976562,0.00195312,4,0,41.43295106252436,-91.78013253510991,10963.758362323244,157.6279737814341,0.6232413915789136,-7.146415863853632,188.573,8714.375071090433,10952.218357409804,150,True,23.832665265856658,False,120.43479518533618,173.8432893940517,False,53.4106858807595,False,False
2,1970-07-23 09:44:55.465436410,2025-09-09,2025-09-26 14:52:26.543,HH,B,2063430248,JASSM,3,106,76,2,2,1,225,9,2,0,1,26,0,0,0,0,-106652.31511842164,-4798132.431715307,4191387.798307896,2.29982,3.0021,-0.13221,-83.375,11.75,11.25,0.0,0.0,0.0,0.0,0.0,0.0,2,0,41.32235248411587,-91.27335406501952,9999.999885541672,-79.88735136357604,-0.00343964144919,0.0020322760224359,,8714.375071090433,10952.218357409804,150,2,2025-09-09,2025-09-26 14:52:26.322,HH,B,2745456380,HAWK11,1,1,73,2,1,1,225,2,1,0,0,12,1,225,2,1,-148807.20153983062,-4789166.234346236,4200731.681120396,-2.8579,-1.04244,0.749158,39.875,-73.5,-82.625,-0.203125,-7.65625,6.67188,0.0,0.0,-0.0292969,4,0,41.43209105839561,-91.7797006774492,10962.70001615215,157.12941562182456,0.8401698845683968,-7.194402357501763,188.536,8714.375071090433,10952.218357409804,150,True,23.747235757669532,False,120.83005453421373,173.93595862990236,False,53.10886776465216,False,False
2,1970-07-23 09:44:55.476653980,2025-09-09,2025-09-26 14:52:27.665,HH,B,2064742636,JASSM,3,106,76,2,2,1,225,9,2,0,1,26,0,0,0,0,-106744.19402467164,-4798119.530348119,4191400.145964146,2.29982,3.0021,-0.13221,-83.375,11.75,11.25,0.0,0.0,0.0,0.0,0.0,0.0,2,0,41.32250045031192,-91.27445409893625,10000.001658550134,-79.88807771117995,-0.0026003635790945,0.0020316588180886,,8714.375071090433,10952.218357409804,150,2,2025-09-09,2025-09-26 14:52:27.526,HH,B,2746848212,HAWK11,1,1,73,2,1,1,225,2,1,0,0,12,1,225,2,1,-148760.36755545562,-4789251.600557174,4200636.300261021,-2.85225,-1.01914,0.7412,41.0,-73.125,-81.875,-0.046875,-7.45312,6.54688,-0.00195312,0.00390625,0.0,4,0,41.430948057901794,-91.77910922157712,10961.932418851602,156.04804088106167,0.8605667499144847,-7.791604150229871,187.974,8714.375071090433,10952.218357409804,150,True,23.65253875566916,False,121.48354830474442,174.06457331804287,False,52.58448979487084,False,False
2,1970-07-23 09:44:55.489062827,2025-09-09,2025-09-26 14:52:28.906,HH,B,2066053444,JASSM,3,106,76,2,2,1,225,9,2,0,1,26,0,0,0,0,-106835.95964967164,-4798106.642652807,4191412.4770188336,2.29982,3.0021,-0.13221,-83.375,11.75,11.25,0.0,0.0,0.0,0.0,0.0,0.0,2,0,41.32264822754271,-91.27555278213694,9999.999429942198,-79.88880316905032,-0.0017621193755388,0.0020310385894016,,8714.375071090433,10952.218357409804,150,2,2025-09-09,2025-09-26 14:52:28.932,HH,B,2748438876,HAWK11,1,1,73,2,1,1,225,2,1,0,0,12,1,225,2,1,-148704.44568045562,-4789349.727510299,4200527.048307896,-2.8439,-1.0107,0.736886,42.375,-72.75,-81.0,0.109375,-7.48438,6.39062,0.015625,-0.00195312,-0.00195312,4,0,41.42963718949299,-91.77840443555483,10961.741991443952,155.62078328482082,0.9384831606629092,-7.646071371650893,187.253,8714.375071090433,10952.218357409804,150,True,23.550364548046673,False,122.27251026200021,174.2143937670844,False,51.946100229561466,False,False
2,1970-07-23 09:44:55.497184147,2025-09-09,2025-09-26 14:52:29.718,HH,B,2067306280,JASSM,3,106,76,2,2,1,225,9,2,0,1,26,0,0,0,0,-106923.66863404664,-4798094.324293432,4191424.263151646,2.29982,3.0021,-0.13221,-83.375,11.75,11.25,0.0,0.0,0.0,0.0,0.0,0.0,2,0,41.32278946582576,-91.2766029010984,10000.000961323169,-79.88949656206802,-0.0009609303630946,0.0020304423080639,,8714.375071090433,10952.218357409804,150,2,2025-09-09,2025-09-26 14:52:29.730,HH,B,2749472808,HAWK11,1,1,73,2,1,1,225,2,1,0,0,12,1,225,2,1,-148667.60778983062,-4789412.835908736,4200457.032682896,-2.82856,-0.995554,0.731325,43.0,-72.5,-80.5,-0.046875,-7.48438,6.46875,0.0,0.00195312,-0.00585938,4,0,41.42879595999074,-91.77794074957023,10962.097129392734,154.90235074538307,0.9558264324217246,-7.360543592303745,186.813,8714.375071090433,10952.218357409804,150,True,23.468651001302078,False,122.65609239505466,174.3070237451917,False,51.65557516484258,False,False
2,1970-07-23 09:44:55.508344405,2025-09-09,2025-09-26 14:52:30.834,HH,B,2068618388,JASSM,3,106,76,2,2,1,225,9,2,0,1,26,0,0,0,0,-107015.52605592164,-4798081.421949682,4191436.604948521,2.29982,3.002,-0.13221,-83.375,11.75,11.25,0.0,0.0,0.0,0.0,0.0,0.0,2,0,41.32293737000763,-91.27770269354396,9999.999739805571,-79.8865966973193,-0.0041818853816818,0.001305771621485,,8714.375071090433,10952.218357409804,150,2,2025-09-09,2025-09-26 14:52:31.026,HH,B,2750983940,HAWK11,1,1,73,2,1,1,225,2,1,0,0,12,1,225,2,1,-148612.98278983062,-4789503.939424361,4200355.919401646,-2.81505,-0.981173,0.727586,44.0,-71.875,-79.75,0.078125,-7.40625,6.4375,0.0,0.0,-0.00390625,4,0,41.427581561947854,-91.77725411413635,10962.42530760237,154.25612715786525,0.8851898252125427,-7.145600516030336,186.007,8714.375071090433,10952.218357409804,150,True,23.36903459648097,False,123.29303728230063,174.44593372983434,False,51.15773567200896,False,False
2,1970-07-23 09:44:55.522651112,2025-09-09,2025-09-26 14:52:32.265,HH,B,2069990212,JASSM,3,106,76,2,2,1,225,9,2,0,1,26,0,0,0,0,-107111.56511842164,-4798067.931715307,4191449.507292271,2.29982,3.002,-0.13221,-83.375,11.75,11.25,0.0,0.0,0.0,0.0,0.0,0.0,2,0,41.32309199047012,-91.27885255748356,9999.999156036189,-79.88735595633132,-0.0033046055425632,0.0013051840399226,,8714.375071090433,10952.218357409804,150,2,2025-09-09,2025-09-26 14:52:32.232,HH,B,2752495072,HAWK11,1,1,73,2,1,1,225,2,1,0,0,12,1,225,2,1,-148556.22497733062,-4789595.026338424,4200254.509245396,-2.83566,-0.969572,0.725094,45.25,-70.875,-79.375,0.015625,-7.375,6.45312,-0.0214844,0.00390625,-0.00585938,4,0,41.42636564888443,-91.77654202110811,10961.916631625694,153.74743493043758,0.7963401488020476,-8.775597807717283,185.322,8714.375071090433,10952.218357409804,150,True,23.266143845768692,False,124.03970715028618,174.58496634471493,False,50.54903725931528,False,False
2,1970-07-23 09:44:55.531149911,2025-09-09,2025-09-26 14:52:33.114,HH,B,2071303048,JASSM,3,106,76,2,2,1,225,9,2,0,1,26,0,0,0,0,-107203.47332154664,-4798055.020582494,4191461.853971959,2.29982,3.002,-0.132114,-83.375,11.75,11.25,0.0,0.0,0.0,0.0,0.0,0.0,2,0,41.32323995162752,-91.27995296854456,9999.998854190497,-79.89217959596965,-0.0061242048475251,0.0013049269053687,,8714.375071090433,10952.218357409804,150,2,2025-09-09,2025-09-26 14:52:33.120,HH,B,2753529004,HAWK11,1,1,73,2,1,1,225,2,1,0,0,12,1,225,2,1,-148516.79724295562,-4789656.665010299,4200185.698698521,-2.91073,-0.94359,0.715506,46.375,-70.625,-78.625,-0.3125,-7.84375,6.875,-0.152344,0.00195312,-0.0273438,4,0,41.425541768009865,-91.77604797614052,10961.097020327408,152.5013004071809,0.7829615867979741,-14.075935169096896,184.882,8714.375071090433,10952.218357409804,150,False,23.181343723390125,False,124.69728024420941,174.67613771281484,False,49.98340515093266,False,False
2,1970-07-23 09:44:55.542658155,2025-09-09,2025-09-26 14:52:34.265,HH,B,2072614894,JASSM,3,106,76,2,2,1,225,9,2,0,1,26,0,0,0,0,-107295.31316529664,-4798042.118238744,4191474.190886021,2.29982,3.002,-0.132114,-83.375,11.75,11.25,0.0,0.0,0.0,0.0,0.0,0.0,2,0,41.32338779312175,-91.28105256633266,9999.999781840366,-79.89290566836013,-0.0052852824397262,0.0013043022905504,,8714.375071090433,10952.218357409804,150,2,2025-09-09,2025-09-26 14:52:34.322,HH,B,2754920836,HAWK11,1,1,73,2,1,1,225,2,1,0,0,12,1,225,2,1,-148461.23669608062,-4789738.040986861,4200095.444792271,-3.05454,-0.911376,0.699399,49.625,-69.5,-76.875,0.0,-7.92188,6.75,-0.0898438,0.0078125,-0.0253906,4,0,41.424458700247314,-91.77535383309912,10961.037273498196,150.83002890771252,0.9428139412344488,-23.54053995730148,184.43,8714.375071090433,10952.218357409804,150,False,23.083852358739648,False,126.59562825558754,174.79929689648426,False,48.20907452166863,False,False
2,1970-07-23 09:44:55.552361754,2025-09-09,2025-09-26 14:52:35.236,HH,B,2073927892,JASSM,3,106,76,2,2,1,225,9,2,0,1,26,0,0,0,0,-107387.23308717164,-4798029.203199682,4191486.5375657086,2.29982,3.002,-0.132114,-83.375,11.75,11.25,0.0,0.0,0.0,0.0,0.0,0.0,2,0,41.32353575488845,-91.28215312825816,9999.999502681916,-79.89363237952011,-0.0044456279537205,0.001303675364878,,8714.375071090433,10952.218357409804,150,2,2025-09-09,2025-09-26 14:52:35.230,HH,B,2755994534,HAWK11,1,1,73,2,1,1,225,2,1,0,0,12,1,225,2,1,-148415.37536795562,-4789800.141572799,4200026.960417271,-3.0903,-0.860467,0.683197,52.875,-68.125,-75.375,0.0,-7.78125,6.76562,-0.0722656,0.00976562,-0.0585938,4,0,41.42363545233117,-91.77478276140307,10961.583393886844,148.41721690526612,0.6459854856395431,-27.48291105564241,183.783,8714.375071090433,10952.218357409804,150,False,22.995846422743323,False,128.501550368157,174.88962375764734,False,46.393427510055396,False,False
2,1970-07-23 09:44:55.564342836,2025-09-09,2025-09-26 14:52:36.434,HH,B,2075239596,JASSM,3,106,76,2,2,1,225,9,2,0,1,26,0,0,0,0,-107479.06316529664,-4798016.299879369,4191498.871550084,2.29982,3.002,-0.132114,-83.375,11.75,11.25,0.0,0.0,0.0,0.0,0.0,0.0,2,0,41.323683562657074,-91.283252619693,10000.000131779943,-79.89435838596553,-0.0036067938012809,0.0013030480087106,,8714.375071090433,10952.218357409804,150,2,2025-09-09,2025-09-26 14:52:36.322,HH,B,2757346600,HAWK11,1,1,73,2,1,1,225,2,1,0,0,12,1,225,2,1,-148352.49646170562,-4789877.113252486,4199941.735807896,-3.11063,-0.813585,0.674568,57.625,-65.875,-73.625,-0.140625,-7.79688,6.875,-0.03125,0.0117188,-0.0351562,4,0,41.42261387416359,-91.77400283273344,10961.069309498584,146.37434335997773,-0.0155835656243116,-30.34566252905265,183.172,8714.375071090433,10952.218357409804,150,False,22.89577190790021,False,131.25715887546988,175.0033098403864,False,43.7501382153225,False,False
2,1970-07-23 09:44:55.575124210,2025-09-09,2025-09-26 14:52:37.512,HH,B,2076551948,JASSM,3,106,76,2,2,1,225,9,2,0,1,26,0,0,0,0,-107570.93816529664,-4798003.389723119,4191511.210417271,2.29982,3.002,-0.132114,-83.375,11.75,11.25,0.0,0.0,0.0,0.0,0.0,0.0,2,0,41.323831427551234,-91.28435265409456,10000.001474534478,-79.89508475307902,-0.0027675500407573,0.0013024249978586,,8714.375071090433,10952.218357409804,150,2,2025-09-09,2025-09-26 14:52:37.432,HH,B,2758619132,HAWK11,1,1,73,2,1,1,225,2,1,0,0,12,1,225,2,1,-148288.84997733062,-4789945.578096236,4199864.849089146,-3.07592,-0.766032,0.661242,62.125,-63.375,-71.875,0.015625,-7.45312,6.6875,0.0253906,0.0136719,-0.0429688,4,0,41.42169932181255,-91.7732169029359,10957.685462939116,144.1647102643343,-0.537766582344145,-30.03419774395263,183.0,8714.375071090433,10952.218357409804,150,False,22.79715673570435,False,133.95070896235566,175.10229980530625,False,41.153911114081495,False,False
2,1970-07-23 09:44:55.586122911,2025-09-09,2025-09-26 14:52:38.612,HH,B,2077865716,JASSM,3,106,76,2,2,1,225,9,2,0,1,26,0,0,0,0,-107662.91277467164,-4797990.463941869,4191523.561979771,2.29982,3.002,-0.132114,-83.375,11.75,11.25,0.0,0.0,0.0,0.0,0.0,0.0,2,0,41.32397944728524,-91.2854538865524,10000.001835550318,-79.89581191342904,-0.0019273951975276,0.0013017964269736,,8714.375071090433,10952.218357409804,150,2,2025-09-09,2025-09-26 14:52:38.728,HH,B,2759971198,HAWK11,1,1,73,2,1,1,225,2,1,0,0,12,1,225,2,1,-148215.18591483062,-4790016.277314986,4199783.919401646,-3.02002,-0.711959,0.64456,66.75,-60.625,-70.125,0.046875,-7.71875,6.76562,0.0136719,0.0175781,-0.0273438,4,0,41.42074602864648,-91.77231045805132,10950.265837598832,141.59810920577902,-1.1528913474043114,-28.676294879869847,182.353,8714.375071090433,10952.218357409804,150,False,22.69271212026334,False,136.73950443206405,175.20439557963408,False,38.46564384926643,False,False
2,1970-07-23 09:44:55.596303349,2025-09-09,2025-09-26 14:52:39.630,HH,B,2079119204,JASSM,3,106,76,2,2,1,225,9,2,0,1,26,0,0,0,0,-107750.66668092164,-4797978.129957494,4191535.345182896,2.29982,3.002,-0.132114,-83.375,11.75,11.25,0.0,0.0,0.0,0.0,0.0,0.0,2,0,41.32412066223965,-91.2865045886046,9999.999665253932,-79.89650570979279,-0.001125795114768,0.0013011990982528,,8714.375071090433,10952.218357409804,150,2,2025-09-09,2025-09-26 14:52:39.730,HH,B,2761402796,HAWK11,1,1,73,2,1,1,225,2,1,0,0,12,1,225,2,1,-148132.48083670562,-4790087.279268111,4199701.753386021,-2.98177,-0.673513,0.616756,71.625,-58.125,-67.625,-0.0625,-8.32812,7.42188,-0.0117188,0.0214844,-0.0332031,4,0,41.419784246613176,-91.77129588797868,10940.228373869322,139.22177501900825,-0.9199247796787228,-27.74069682547301,182.267,8714.375071090433,10952.218357409804,150,False,22.58580752470674,False,139.75003941659025,175.30610601433827,False,35.55642302288179,False,False
2,1970-07-23 09:44:55.613058232,2025-09-09,2025-09-26 14:52:41.305,HH,B,2080489002,JASSM,3,106,76,2,2,1,225,9,2,0,1,26,0,0,0,0,-107846.56316529664,-4797964.651441869,4191548.2211594586,2.29982,3.0019,-0.132114,-83.375,11.75,11.25,0.0,0.0,0.0,0.0,0.0,0.0,2,0,41.32427496594656,-91.28765278922896,10000.000551825386,-79.89363773123824,-0.004309859752146,0.0005770132656566,,8714.375071090433,10952.218357409804,150,2,2025-09-09,2025-09-26 14:52:41.322,HH,B,2763152528,HAWK11,1,1,73,2,1,1,225,2,1,0,0,12,1,225,2,1,-148023.11755545562,-4790170.312471236,4199605.493620396,-2.94659,-0.614359,0.582721,77.25,-55.125,-64.0,-0.390625,-8.07812,7.17188,0.0136719,0.0078125,-0.046875,4,0,41.41866065108035,-91.76995834577004,10927.170756695848,135.8167061516159,-1.094392586435832,-27.57849117630892,181.607,8714.375071090433,10952.218357409804,150,False,22.457990498139218,False,143.4220991839621,175.42256190036983,False,32.00073451143357,False,False
2,1970-07-23 09:44:55.618342768,2025-09-09,2025-09-26 14:52:41.834,HH,B,2081742008,JASSM,3,106,76,2,2,1,225,9,2,0,1,26,0,0,0,0,-107934.28386842164,-4797952.320387182,4191559.9985032086,2.29982,3.0019,-0.132114,-83.375,11.75,11.25,0.0,0.0,0.0,0.0,0.0,0.0,2,0,41.32441610825119,-91.2887031036862,9999.99965182492,-79.89433127571284,-0.0035085624789954,0.0005764661761036,,8714.375071090433,10952.218357409804,150,2,2025-09-09,2025-09-26 14:52:41.934,HH,B,2763987626,HAWK11,1,1,73,2,1,1,225,2,1,0,0,12,1,225,2,1,-147968.26013358062,-4790208.687471236,4199560.938932896,-2.9231,-0.590774,0.567094,79.75,-53.75,-62.5,-0.09375,-8.0,7.0625,0.0175781,0.0117188,-0.0234375,4,0,41.41814170112908,-91.769288650442,10920.668129298612,134.3721091195021,-1.1142170844577908,-26.939665681226703,181.607,8714.375071090433,10952.218357409804,150,False,22.372968336215955,False,145.0277413445199,175.4704633371999,False,30.4428841923,False,False
2,1970-07-23 09:44:55.629123600,2025-09-09,2025-09-26 14:52:42.912,HH,B,2083054360,JASSM,3,106,76,2,2,1,225,9,2,0,1,26,0,0,0,0,-108026.15886842164,-4797939.404371557,4191572.333464146,2.29982,3.0019,-0.132114,-83.375,11.75,11.25,0.0,0.0,0.0,0.0,0.0,0.0,2,0,41.3245639294468,-91.2898031642968,10000.000384752588,-79.895057670698,-0.0026693161508506,0.0005758884068314,,8714.375071090433,10952.218357409804,150,2,2025-09-09,2025-09-26 14:52:42.822,HH,B,2765140858,HAWK11,1,1,73,2,1,1,225,2,1,0,0,12,1,225,2,1,-147889.70739920562,-4790259.900361861,4199501.317839146,-2.89318,-0.556164,0.546385,83.125,-51.375,-60.375,-0.21875,-8.09375,7.0,0.00585938,0.00585938,-0.0332031,4,0,41.41744903006527,-91.76833108133206,10911.23979804129,132.31989331231827,-1.2851938743624511,-26.23082572190635,181.277,8714.375071090433,10952.218357409804,150,False,22.270521829636316,False,147.3252038747963,175.53595377745617,False,28.210752513470446,True,False
2,1970-07-23 09:44:55.641502812,2025-09-09,2025-09-26 14:52:44.150,HH,B,2084366400,JASSM,3,106,76,2,2,1,225,9,2,0,1,26,0,0,0,0,-108118.01043092164,-4797926.491285619,4191584.663542271,2.29982,3.0019,-0.132018,-83.375,11.75,11.25,0.0,0.0,0.0,0.0,0.0,0.0,2,0,41.32471169285549,-91.29090294934764,10000.000952786044,-79.89988087162028,-0.0054894835899511,0.0005755819574429,,8714.375071090433,10952.218357409804,150,2,2025-09-09,2025-09-26 14:52:44.026,HH,B,2766532690,HAWK11,1,1,73,2,1,1,225,2,1,0,0,12,1,225,2,1,-147789.58239920562,-4790319.036104049,4199431.735807896,-2.8904,-0.516185,0.521553,87.0,-48.75,-57.625,-0.09375,-7.48438,6.53125,-0.00976562,-0.00390625,-0.03125,4,0,41.41664594256846,-91.76711283549812,10898.045831736905,129.89866323868506,-1.5047585770085838,-27.178589565652555,181.106,8714.375071090433,10952.218357409804,150,False,22.15509246609896,False,150.0165971262824,175.6111918724155,False,25.594767577809876,True,False
2,1970-07-23 09:44:55.650281816,2025-09-09,2025-09-26 14:52:45.028,HH,B,2085619102,JASSM,3,106,76,2,2,1,225,9,2,0,1,26,0,0,0,0,-108205.70769654664,-4797914.160230932,4191596.4360032086,2.29982,3.0019,-0.132018,-83.375,11.75,11.25,0.0,0.0,0.0,0.0,0.0,0.0,2,0,41.32485277563067,-91.29195299808492,10000.000860591828,-79.90057424662776,-0.0046883984823525,0.0005749702433826,,8714.375071090433,10952.218357409804,150,2,2025-09-09,2025-09-26 14:52:44.932,HH,B,2767606390,HAWK11,1,1,73,2,1,1,225,2,1,0,0,12,1,225,2,1,-147710.00622733062,-4790361.136689986,4199380.632292271,-2.88417,-0.485888,0.500653,89.75,-46.125,-55.75,-0.09375,-8.20312,7.125,0.0,0.0449219,-0.0410156,4,0,41.41606514485489,-91.76614643760654,10884.630905578824,127.97215614382633,-1.6260296112619417,-27.618045195271243,181.192,8714.375071090433,10952.218357409804,150,False,22.0562748680268,False,152.06535349831873,175.66140585870534,False,23.597827769785674,True,False
2,1970-07-23 09:44:55.660344791,2025-09-09,2025-09-26 14:52:46.034,HH,B,2086753662,JASSM,3,106,76,2,2,1,225,9,2,0,1,26,0,0,0,0,-108285.13738404664,-4797902.991285619,4191607.097136021,2.29982,3.0019,-0.132018,-83.375,11.75,11.25,0.0,0.0,0.0,0.0,0.0,0.0,2,0,41.324980541928845,-91.29290405846838,10000.000126185289,-79.90120225868564,-0.0039628362281143,0.000574423882896,,8714.375071090433,10952.218357409804,150,2,2025-09-09,2025-09-26 14:52:46.120,HH,B,2768799388,HAWK11,1,1,73,2,1,1,225,2,1,0,0,12,1,225,2,1,-147618.76403983062,-4790405.760713424,4199326.575651646,-2.88072,-0.451949,0.466426,93.0,-43.5,-52.625,-0.09375,-8.25,7.28125,-0.0117188,0.0214844,-0.0253906,4,0,41.41545153186036,-91.7650397271257,10870.13386941369,125.37652729385584,-1.3553631638591306,-28.25700552649601,180.984,8714.375071090433,10952.218357409804,150,False,21.955385464749245,False,154.65312756486802,175.71391829179987,False,21.063497304444002,True,False
2,1970-07-23 09:44:55.675848088,2025-09-09,2025-09-26 14:52:47.584,HH,B,2087887990,JASSM,3,106,76,2,2,1,225,9,2,0,1,26,0,0,0,0,-108364.54949342164,-4797891.824293432,4191617.755339146,2.29982,3.0019,-0.132018,-83.375,11.75,11.25,0.0,0.0,0.0,0.0,0.0,0.0,2,0,41.32510827131981,-91.29385491223206,10000.000239612316,-79.90183013590571,-0.0032374345923316,0.0005738784534064,,8714.375071090433,10952.218357409804,150,2,2025-09-09,2025-09-26 14:52:47.728,HH,B,2770907020,HAWK11,1,1,73,2,1,1,225,2,1,0,0,12,1,225,2,1,-147450.39294608062,-4790477.809541549,4199238.341276646,-2.84036,-0.398643,0.417722,98.0,-38.625,-47.375,0.03125,-8.14062,7.0,0.0195312,0.0253906,-0.03125,4,0,41.414458188322136,-91.76300132913128,10843.07332762982,121.45325602309008,-1.2516795337945872,-27.16233048377748,181.021,8714.375071090433,10952.218357409804,150,False,21.808228293254547,False,158.96460846575553,175.79816695347023,False,16.841335795055006,True,False
2,1970-07-23 09:44:55.679160616,2025-09-09,2025-09-26 14:52:47.916,HH,B,2089021382,JASSM,3,106,76,2,2,1,225,9,2,0,1,26,0,0,0,0,-108443.89519654664,-4797880.666090307,4191628.403776646,2.29982,3.0019,-0.132018,-83.375,11.75,11.25,0.0,0.0,0.0,0.0,0.0,0.0,2,0,41.32523588354957,-91.2948049747266,10000.000508730323,-79.90245749222392,-0.0025126398998049,0.0005733359939227,,8714.375071090433,10952.218357409804,150,2,2025-09-09,2025-09-26 14:52:48.027,HH,B,2771344452,HAWK11,1,1,73,2,1,1,225,2,1,0,0,12,1,225,2,1,-147414.89489920562,-4790491.461885299,4199221.386198521,-2.82809,-0.385509,0.408135,99.0,-37.625,-46.375,-0.28125,-8.07812,6.76562,0.0175781,0.0078125,-0.0390625,4,0,41.41426902466518,-91.76257214194196,10837.16440543444,120.576749759801,-1.3436210192952496,-26.741348628848318,181.07,8714.375071090433,10952.218357409804,150,False,21.74327634233365,False,159.81163411347814,175.8063285341245,False,16.004584535752315,True,False
2,1970-07-23 09:44:55.688344619,2025-09-09,2025-09-26 14:52:48.834,HH,B,2090154432,JASSM,3,106,76,2,2,1,225,9,2,0,1,26,0,0,0,0,-108523.21746217164,-4797869.509840307,4191639.048307896,2.29982,3.0019,-0.132018,-83.375,11.75,11.25,0.0,0.0,0.0,0.0,0.0,0.0,2,0,41.32536345307935,-91.29575476065506,9999.99917494069,-79.9030846675119,-0.0017880585515175,0.0005727909805842,,8714.375071090433,10952.218357409804,150,2,2025-09-09,2025-09-26 14:52:48.620,HH,B,2771781884,HAWK11,1,1,73,2,1,1,225,2,1,0,0,12,1,225,2,1,-147377.67224295562,-4790505.316377486,4199204.104948521,-2.81629,-0.372853,0.400465,99.75,-37.5,-45.0,-0.125,-8.01562,6.95312,0.0273438,0.0117188,-0.0371094,4,0,41.41407677082891,-91.7621222753846,10830.915153765794,119.79422958315403,-1.501657057063603,-26.331494565388944,180.862,8714.375071090433,10952.218357409804,150,False,21.677389026857597,False,160.5118996830764,175.81442389177644,False,15.307719799384335,True,False
2,1970-07-23 09:44:55.698121975,2025-09-09,2025-09-26 14:52:49.812,HH,B,2091286184,JASSM,3,106,76,2,2,1,225,9,2,0,1,26,0,0,0,0,-108602.44793092164,-4797858.366285619,4191649.681120396,2.29982,3.00181,-0.132018,-83.375,11.75,11.25,0.0,0.0,0.0,0.0,0.0,0.0,2,0,41.32549087248452,-91.29670345118608,10000.001958418905,-79.90007584557833,-0.0051344635757177,-0.0001526237663438,,8714.375071090433,10952.218357409804,150,2,2025-09-09,2025-09-26 14:52:49.824,HH,B,2773491850,HAWK11,1,1,73,2,1,1,225,2,1,0,0,12,1,225,2,1,-147232.58825858062,-4790554.307588424,4199141.470182896,-2.72847,-0.338435,0.374387,103.25,-32.875,-41.875,-0.109375,-7.625,6.78125,0.0566406,0.0,-0.0332031,4,0,41.41338908389563,-91.76037067812942,10804.49529826894,117.44821670006536,-1.7475896830241937,-21.978346896410265,180.605,8714.375071090433,10952.218357409804,150,False,21.547402313691403,False,163.58472104303144,175.86155386257582,False,12.307548152265673,True,False
2,1970-07-23 09:44:55.707280924,2025-09-09,2025-09-26 14:52:50.728,HH,B,2092359970,JASSM,3,106,76,2,2,1,225,9,2,0,1,26,0,0,0,0,-108677.62175904664,-4797847.792066869,4191659.7680344586,2.29982,3.00181,-0.132018,-83.375,11.75,11.25,0.0,0.0,0.0,0.0,0.0,0.0,2,0,41.32561175787593,-91.29760357202208,10000.001452831117,-79.90067022829984,-0.0044477760887753,-0.0001530987835702,,8714.375071090433,10952.218357409804,150,2,2025-09-09,2025-09-26 14:52:50.526,HH,B,2774326948,HAWK11,1,1,73,2,1,1,225,2,1,0,0,12,1,225,2,1,-147159.89294608062,-4790576.674775924,4199112.087370396,-2.68303,-0.321561,0.361061,104.5,-31.375,-40.5,-0.046875,-7.53125,6.89062,0.0722656,0.0117188,-0.0351562,4,0,41.41307097876513,-91.7594938409436,10790.242987684824,116.27187574895244,-1.861405518449024,-19.685092738494813,180.654,8714.375071090433,10952.218357409804,150,False,21.46328762617083,False,164.72209908417088,175.8775526542971,False,11.19911358364861,True,False
2,1970-07-23 09:44:55.716343074,2025-09-09,2025-09-26 14:52:51.634,HH,B,2093493290,JASSM,3,106,76,2,2,1,225,9,2,0,1,26,0,0,0,0,-108756.96355592164,-4797836.630934057,4191670.413542271,2.29982,3.00181,-0.132018,-83.375,11.75,11.25,0.0,0.0,0.0,0.0,0.0,0.0,2,0,41.32573933728465,-91.29855360330916,10000.001177049016,-79.90129757027151,-0.003723015640595,-0.0001535993336615,,8714.375071090433,10952.218357409804,150,2,2025-09-09,2025-09-26 14:52:51.728,HH,B,2775679014,HAWK11,1,1,73,2,1,1,225,2,1,0,0,12,1,225,2,1,-147040.02575858062,-4790611.268525924,4199066.581511021,-2.55034,-0.317822,0.337668,106.0,-29.875,-38.375,-0.203125,-8.375,7.42188,0.09375,0.03125,-0.0078125,4,0,41.412579916410486,-91.7580488804795,10767.51189000678,115.16874687457766,-1.073562229838281,-12.127578652490024,181.143,8714.375071090433,10952.218357409804,150,False,21.349536488109432,False,166.19018089206452,175.90373567844003,False,9.765379206302311,True,False
2,1970-07-23 09:44:55.726102584,2025-09-09,2025-09-26 14:52:52.610,HH,B,2094568500,JASSM,3,106,76,2,2,1,225,9,2,0,1,26,0,0,0,0,-108832.23504029664,-4797826.042066869,4191680.512175084,2.29982,3.00181,-0.132018,-83.375,11.75,11.25,0.0,0.0,0.0,0.0,0.0,0.0,2,0,41.32586036127516,-91.2994549005634,10000.001624083863,-79.90189273277298,-0.0030354366356446,-0.0001540709981878,,8714.375071090433,10952.218357409804,150,2,2025-09-09,2025-09-26 14:52:52.822,HH,B,2776991312,HAWK11,1,1,73,2,1,1,225,2,1,0,0,12,1,225,2,1,-146923.35193045562,-4790644.232393111,4199025.849089146,-2.47096,-0.330381,0.306892,107.125,-30.25,-35.5,-0.15625,-9.03125,8.23438,0.0761719,0.0136719,-0.00195312,4,0,41.41213016706642,-91.75664269238072,10751.381398668078,114.3788069136052,0.6450413494955989,-7.348305002558162,182.06,8714.375071090433,10952.218357409804,150,True,21.240315963882754,False,167.40920607509196,175.92518243127975,False,8.528742511498823,True,False
