Subject_cm,Timestamp,SampleDate_cm,SampleTime_cm,Configuration_cm,Scenario_cm,DisTime_cm,MarkingTxt_cm,Application_cm,EntId_cm,Site_cm,ExerciseId_cm,ForceId_cm,Category_cm,Country_cm,Domain_cm,Kind_cm,Extra_cm,Specific_cm,Subcategory_cm,AltCategory_cm,AltCountry_cm,AltDomain_cm,AltKind_cm,ECEF_X_cm,ECEF_Y_cm,ECEF_Z_cm,OriPhi_cm,OriPsi_cm,OriTheta_cm,LinVelX_cm,LinVelY_cm,LinVelZ_cm,LinAccX_cm,LinAccY_cm,LinAccZ_cm,AngVelX_cm,AngVelY_cm,AngVelZ_cm,DrAlg_cm,Appearance_cm,Latitude_cm,Longitude_cm,Altitude_cm,Heading_cm,Pitch_cm,Roll_cm,CalibratedAirspeed_cm,CM_Altitude_Lead_cm,CM_Altitude_Wing_cm,CM_Airspeed_cm,Subject_ac,SampleDate_ac,SampleTime_ac,Configuration_ac,Scenario_ac,DisTime_ac,MarkingTxt_ac,Application_ac,EntId_ac,Site_ac,ExerciseId_ac,ForceId_ac,Category_ac,Country_ac,Domain_ac,Kind_ac,Extra_ac,Specific_ac,Subcategory_ac,AltCategory_ac,AltCountry_ac,AltDomain_ac,AltKind_ac,ECEF_X_ac,ECEF_Y_ac,ECEF_Z_ac,OriPhi_ac,OriPsi_ac,OriTheta_ac,LinVelX_ac,LinVelY_ac,LinVelZ_ac,LinAccX_ac,LinAccY_ac,LinAccZ_ac,AngVelX_ac,AngVelY_ac,AngVelZ_ac,DrAlg_ac,Appearance_ac,Latitude_ac,Longitude_ac,Altitude_ac,Heading_ac,Pitch_ac,Roll_ac,CalibratedAirspeed_ac,CM_Altitude_Lead_ac,CM_Altitude_Wing_ac,CM_Airspeed_ac,Bank_Angle_Condition,distance_nm,Distance_Condition,angle_between_vel,angle_between_pos,Cone_Condition,angle_between_pos_nose,Nose_Cone_Condition,Intercept_Criteria
10,1970-07-23 11:28:58.601261876,2025-09-16,2025-09-26 20:17:40.126,AA,C,2350416218,JASSM,3,113,76,2,2,1,225,9,2,0,1,26,0,0,0,0,-155694.82263358062,-4777472.065400924,4213706.558073521,-2.71093,-1.01118,0.751842,34.625,-55.25,-60.875,0.0,0.0,0.0,0.0,0.0,0.0,2,0,41.58793109127525,-91.86657295018188,10997.381834242711,155.9386914186435,-0.0031307191660805,-0.0006582732070916,,10029.28805283672,11950.90527396306,150,10,2025-09-16,2025-09-26 20:17:40.430,AA,C,258515584,HAWK11,1,1,73,2,1,1,225,2,1,0,0,12,1,225,2,1,-148659.95739920562,-4790769.533174361,4199375.866667271,2.46674,2.66836,-0.506981,-80.75,45.25,47.75,-0.078125,-7.29688,6.4375,0.0175781,0.0,0.0117188,4,0,41.41342815127422,-91.7773461700889,11950.90527396306,-52.257871144319886,2.3275100518947576,4.050432859309823,162.666,10029.28805283672,11950.90527396306,150,True,11.209725050795873,False,151.9922146199204,176.8948284409551,False,31.043927678190084,False,False
10,1970-07-23 11:28:58.610422213,2025-09-16,2025-09-26 20:17:41.042,AA,C,2351490698,JASSM,3,113,76,2,2,1,225,9,2,0,1,26,0,0,0,0,-155663.61462576812,-4777521.895479049,4213651.581511021,-2.71093,-1.01118,0.751842,34.625,-55.25,-60.875,0.0,0.0,0.0,0.0,0.0,0.0,2,0,41.58726964424287,-91.86617962154368,10997.377016114886,155.93895249622736,-0.0024068013503656,-0.0006593278047611,,10029.28805283672,11950.90527396306,150,10,2025-09-16,2025-09-26 20:17:40.836,AA,C,259072316,HAWK11,1,1,73,2,1,1,225,2,1,0,0,12,1,225,2,1,-148698.12341483062,-4790748.189424361,4199398.569792271,2.45744,2.66596,-0.51072,-80.375,45.375,47.75,-0.203125,-7.5,6.48438,-0.0429688,0.00195312,0.0,4,0,41.41370131136067,-91.77781009728592,11950.598865248194,-52.02456465133777,2.404103824991935,3.4603281927255543,162.482,10029.28805283672,11950.90527396306,150,True,11.14363218355361,False,152.15724088839448,176.81378667610664,False,30.95970447833778,False,False
10,1970-07-23 11:28:58.619203300,2025-09-16,2025-09-26 20:17:41.920,AA,C,2352565110,JASSM,3,113,76,2,2,1,225,9,2,0,1,26,0,0,0,0,-155632.40759451812,-4777571.723604049,4213596.604948521,-2.71083,-1.01118,0.751842,34.625,-55.125,-60.875,0.0,0.0,0.0,0.0,0.0,0.0,2,0,41.58660820725851,-91.86578631339572,10997.370822459015,155.93921355680132,-0.0016828977244054,0.0048447462217987,,10029.28805283672,11950.90527396306,150,10,2025-09-16,2025-09-26 20:17:41.836,AA,C,260225548,HAWK11,1,1,73,2,1,1,225,2,1,0,0,12,1,225,2,1,-148775.43591483062,-4790704.424775924,4199445.554167271,2.46933,2.65848,-0.515993,-79.5,45.5,48.25,-0.15625,-7.46875,6.5625,0.0136719,-0.00390625,-0.00195312,4,0,41.41426450381724,-91.77875007795303,11950.840633314672,-51.5455159984938,2.375067009576896,3.951050096480055,161.92,10029.28805283672,11950.90527396306,150,True,11.053725679113683,False,152.68110878130457,176.6290031103238,False,30.61322106160097,False,False
10,1970-07-23 11:28:58.629243599,2025-09-16,2025-09-26 20:17:42.924,AA,C,2353696670,JASSM,3,113,76,2,2,1,225,9,2,0,1,26,0,0,0,0,-155599.54040701812,-4777624.202119674,4213538.706511021,-2.71083,-1.01118,0.751842,34.625,-55.125,-60.875,0.0,0.0,0.0,0.0,0.0,0.0,2,0,41.58591160242991,-91.86537209080866,10997.373036971836,155.9394884957697,-0.0009205028186323,0.0048436398842944,,10029.28805283672,11950.90527396306,150,10,2025-09-16,2025-09-26 20:17:42.930,AA,C,261299248,HAWK11,1,1,73,2,1,1,225,2,1,0,0,12,1,225,2,1,-148846.90271170562,-4790663.538057174,4199489.276823521,2.49023,2.6534,-0.515993,-78.875,45.75,48.5,-0.09375,-7.21875,6.40625,0.0253906,0.0,0.0136719,4,0,41.41478963380263,-91.77961915989712,11950.63956806096,-51.3589400601083,2.205141734824229,5.012383606648522,161.175,10029.28805283672,11950.90527396306,150,True,10.964850493578393,False,153.05322110260786,176.48428096079027,False,30.387632292735542,False,False
10,1970-07-23 11:28:58.638382600,2025-09-16,2025-09-26 20:17:43.838,AA,C,2354770728,JASSM,3,113,76,2,2,1,225,9,2,0,1,26,0,0,0,0,-155568.34411795562,-4777674.012666549,4213483.749479771,-2.71083,-1.01118,0.751842,34.625,-55.125,-60.875,0.0,0.0,0.0,0.0,0.0,0.0,2,0,41.58525039683943,-91.86497893468876,10997.373969846643,155.9397494484373,-0.0001968543100015,0.0048425843679081,,10029.28805283672,11950.90527396306,150,10,2025-09-16,2025-09-26 20:17:43.632,AA,C,262372946,HAWK11,1,1,73,2,1,1,225,2,1,0,0,12,1,225,2,1,-148917.53552420562,-4790622.225557174,4199533.323698521,2.50672,2.64928,-0.521458,-78.0,46.25,48.875,-0.0625,-7.26562,6.45312,0.00585938,0.0078125,0.00976562,4,0,41.41531963282095,-91.78047844918802,11950.03578095886,-50.99681207146427,2.2996234668836286,5.854359878902395,160.613,10029.28805283672,11950.90527396306,150,True,10.87824614494994,False,153.62595036507327,176.3405139629586,False,29.95871937975562,True,False
10,1970-07-23 11:28:58.646444048,2025-09-16,2025-09-26 20:17:44.644,AA,C,2355845354,JASSM,3,113,76,2,2,1,225,9,2,0,1,26,0,0,0,0,-155537.13122733062,-4777723.848604049,4213428.765104771,-2.71083,-1.01118,0.751842,34.625,-55.125,-60.875,0.0,0.0,0.0,0.0,0.0,0.0,2,0,41.58458885742936,-91.86458557780904,10997.37964367906,155.9400105309473,0.0005271614688558,0.0048415359185203,,10029.28805283672,11950.90527396306,150,10,2025-09-16,2025-09-26 20:17:44.430,AA,C,263327346,HAWK11,1,1,73,2,1,1,225,2,1,0,0,12,1,225,2,1,-148979.53747733062,-4790585.064424361,4199573.038542271,2.53385,2.63634,-0.528456,-77.0,46.75,49.25,-0.015625,-7.28125,6.46875,0.0273438,0.00195312,0.0214844,4,0,41.41579728711661,-91.78123308381606,11949.583444573149,-50.25166910542143,2.168197261337576,7.066310784191533,160.087,10029.28805283672,11950.90527396306,150,True,10.796263160673833,False,154.2473671775991,176.21168018960955,False,29.46556038803284,True,False
10,1970-07-23 11:28:58.656293951,2025-09-16,2025-09-26 20:17:45.629,AA,C,2356979402,JASSM,3,113,76,2,2,1,225,9,2,0,1,26,0,0,0,0,-155504.19177420562,-4777776.438447799,4213370.737761021,-2.71083,-1.01118,0.751842,34.625,-55.125,-60.875,0.0,0.0,0.0,0.0,0.0,0.0,2,0,41.58389072980614,-91.86417047192482,10997.379174778907,155.9402860452117,0.0012912201931093,0.0048404315003044,,10029.28805283672,11950.90527396306,150,10,2025-09-16,2025-09-26 20:17:45.836,AA,C,264957778,HAWK11,1,1,73,2,1,1,225,2,1,0,0,12,1,225,2,1,-149083.40857108062,-4790521.167939986,4199640.966276646,2.56376,2.62109,-0.538715,-75.5,47.75,50.0,-0.21875,-7.15625,6.5625,0.0117188,-0.00195312,0.0078125,4,0,41.41661665475821,-91.78249794875404,11947.823616979567,-49.29936564877758,2.1083226067196312,8.371473505068131,159.721,10029.28805283672,11950.90527396306,150,True,10.684815746906821,False,155.31232145770772,176.00321067254745,False,28.607210406673193,True,False
10,1970-07-23 11:28:58.665262380,2025-09-16,2025-09-26 20:17:46.526,AA,C,2358053144,JASSM,3,113,76,2,2,1,225,9,2,0,1,26,0,0,0,0,-155473.00427420562,-4777826.231416549,4213315.792448521,-2.71083,-1.01118,0.751938,34.625,-55.125,-60.875,0.0,0.0,0.0,0.0,0.0,0.0,2,0,41.583229701981566,-91.86377745246187,10997.373402836787,155.94283950765194,-0.0029753416539654,0.0048393543756164,,10029.28805283672,11950.90527396306,150,10,2025-09-16,2025-09-26 20:17:46.228,AA,C,265474744,HAWK11,1,1,73,2,1,1,225,2,1,0,0,12,1,225,2,1,-149116.58044608062,-4790500.179658736,4199663.159636021,2.57239,2.61553,-0.541495,-75.0,48.125,50.375,0.0,-7.04688,6.79688,0.00976562,0.0,0.0292969,4,0,41.41688516382636,-91.78290211459084,11946.9168084483,-48.98910830418988,2.0474956563243016,8.713283820599257,159.672,10029.28805283672,11950.90527396306,150,True,10.6201772856987,False,155.71906958021404,175.92554352623713,False,28.278066122029784,True,False
10,1970-07-23 11:28:58.675402384,2025-09-16,2025-09-26 20:17:47.540,AA,C,2359186538,JASSM,3,113,76,2,2,1,225,9,2,0,1,26,0,0,0,0,-155440.08435233062,-4777878.790010299,4213257.796354771,-2.71083,-1.01109,0.751938,34.625,-55.125,-60.875,0.0,0.0,0.0,0.0,0.0,0.0,2,0,41.582531964378994,-91.86336261013442,10997.373126278586,155.9394703591649,-0.0038862818719543,0.0010874854921797,,10029.28805283672,11950.90527396306,150,10,2025-09-16,2025-09-26 20:17:47.132,AA,C,266548442,HAWK11,1,1,73,2,1,1,225,2,1,0,0,12,1,225,2,1,-149183.77185233062,-4790456.492158736,4199709.126432896,2.53864,2.59837,-0.550412,-74.375,49.0,51.375,0.09375,-6.82812,7.20312,-0.0625,0.00195312,0.0195312,4,0,41.41744286395278,-91.78372122149254,11944.39321774639,-48.01997435630373,1.8810751389256688,6.302349155484261,159.855,10029.28805283672,11950.90527396306,150,True,10.530505966480694,False,156.49864518199664,175.78341815601533,False,27.6422191087469,True,False
10,1970-07-23 11:28:58.684468224,2025-09-16,2025-09-26 20:17:48.446,AA,C,2360379388,JASSM,3,113,76,2,2,1,225,9,2,0,1,26,0,0,0,0,-155405.43786795562,-4777934.104463424,4213196.757292271,-2.71083,-1.01109,0.751938,34.625,-55.125,-60.875,0.0,0.0,0.0,0.0,0.0,0.0,2,0,41.58179762649458,-91.86292602034702,10997.372456832409,155.93976012099935,-0.003082603159652,0.0010862940158033,,10029.28805283672,11950.90527396306,150,10,2025-09-16,2025-09-26 20:17:48.070,AA,C,267065408,HAWK11,1,1,73,2,1,1,225,2,1,0,0,12,1,225,2,1,-149215.53747733062,-4790435.663057174,4199731.085417271,2.52781,2.59272,-0.55578,-74.25,49.125,51.875,-0.046875,-6.82812,7.375,0.0,0.0,0.00390625,4,0,41.41770910061744,-91.78410853527885,11943.264631276414,-47.61027197359821,1.934347437141254,5.525012255062872,161.224,10029.28805283672,11950.90527396306,150,True,10.461508229234608,False,156.73459446107805,175.70485815812043,False,27.48965326057761,True,False
10,1970-07-23 11:28:58.695222718,2025-09-16,2025-09-26 20:17:49.522,AA,C,2361575836,JASSM,3,113,76,2,2,1,225,9,2,0,1,26,0,0,0,0,-155370.68591483062,-4777989.584932174,4213135.534636021,-2.71083,-1.01109,0.751938,34.625,-55.125,-60.875,0.0,0.0,0.0,0.0,0.0,0.0,2,0,41.581061080494464,-91.86248811237962,10997.37493399165,155.94005075347957,-0.0022765046605826,0.0010851101187005,,10029.28805283672,11950.90527396306,150,10,2025-09-16,2025-09-26 20:17:49.336,AA,C,269133272,HAWK11,1,1,73,2,1,1,225,2,1,0,0,12,1,225,2,1,-149344.14099295562,-4790349.453096236,4199822.602995396,2.49512,2.58974,-0.561437,-73.875,50.375,53.625,-0.03125,-6.75,7.5,-0.0253906,0.0,0.00585938,4,0,41.41881581055896,-91.78567731406127,11939.753694164096,-47.290415056625406,2.0877716956913406,3.57283235404702,162.299,10029.28805283672,11950.90527396306,150,True,10.327096239258102,False,157.72790003507856,175.4434279792063,False,26.764767493934677,True,False
10,1970-07-23 11:28:58.705242727,2025-09-16,2025-09-26 20:17:50.524,AA,C,2362823476,JASSM,3,113,76,2,2,1,225,9,2,0,1,26,0,0,0,0,-155334.44763358062,-4778047.438447799,4213071.690886021,-2.71083,-1.01109,0.751938,34.625,-55.125,-60.875,0.0,0.0,0.0,0.0,0.0,0.0,2,0,41.58029301215701,-91.86203148578528,10997.376622918304,155.94035380470933,-0.0014359124578164,0.001083868006699,,10029.28805283672,11950.90527396306,150,10,2025-09-16,2025-09-26 20:17:50.524,AA,C,270604638,HAWK11,1,1,73,2,1,1,225,2,1,0,0,12,1,225,2,1,-149435.87732108062,-4790286.699189986,4199889.755339146,2.50815,2.58188,-0.569586,-73.875,51.0,54.75,-0.265625,-6.75,7.40625,0.00976562,0.00390625,0.0,4,0,41.41962535093237,-91.7867968677518,11938.225556103933,-46.69830658145259,2.1969543578189885,4.100679085805751,163.692,10029.28805283672,11950.90527396306,150,True,10.214328561956158,False,158.21635843923204,175.2471585994627,False,26.479299725408968,True,False
10,1970-07-23 11:28:58.715400518,2025-09-16,2025-09-26 20:17:51.540,AA,C,2364018818,JASSM,3,113,76,2,2,1,225,9,2,0,1,26,0,0,0,0,-155299.72790701812,-4778102.866182174,4213010.519011021,-2.71083,-1.01109,0.751938,34.625,-55.125,-60.875,0.0,0.0,0.0,0.0,0.0,0.0,2,0,41.57955711291936,-91.86159400470976,10997.371338527237,155.94064414524274,-0.0006305315945037,0.0010826715172462,,10029.28805283672,11950.90527396306,150,10,2025-09-16,2025-09-26 20:17:51.726,AA,C,272076002,HAWK11,1,1,73,2,1,1,225,2,1,0,0,12,1,225,2,1,-149526.52185233062,-4790223.622041549,4199957.583464146,2.5303,2.57795,-0.578023,-73.625,51.5,56.125,0.0,-6.9375,7.54688,0.0234375,0.00585938,0.0,4,0,41.42044156685105,-91.78790352372911,11937.29423326424,-46.24157074470906,2.444114696302301,5.26583746323753,165.256,10029.28805283672,11950.90527396306,150,True,10.103598813289695,False,158.83297288604908,175.0511187051658,False,26.069395075873746,True,False
10,1970-07-23 11:28:58.725422069,2025-09-16,2025-09-26 20:17:52.542,AA,C,2365210966,JASSM,3,113,76,2,2,1,225,9,2,0,1,26,0,0,0,0,-155265.10095389312,-4778158.145479049,4212949.515104771,-2.71083,-1.01109,0.751938,34.625,-55.125,-60.875,0.0,0.0,0.0,0.0,0.0,0.0,2,0,41.5788232106592,-91.86115770263466,10997.379197185037,155.94093369911286,0.0001726677545798,0.001081491312974,,10029.28805283672,11950.90527396306,150,10,2025-09-16,2025-09-26 20:17:52.636,AA,C,273030402,HAWK11,1,1,73,2,1,1,225,2,1,0,0,12,1,225,2,1,-149585.10193045562,-4790182.437471236,4200002.651823521,2.56328,2.57402,-0.585405,-73.5,50.5,58.375,-0.296875,-6.89062,7.46875,0.0371094,0.00585938,0.0,4,0,41.42097987537994,-91.78861888457514,11938.341303663845,-45.82476236088441,2.6462070055357745,7.050257573099744,166.124,10029.28805283672,11950.90527396306,150,True,10.014591956410104,False,159.2349403470071,174.91445435951601,False,25.834108259452382,True,False
10,1970-07-23 11:28:58.735462633,2025-09-16,2025-09-26 20:17:53.546,AA,C,2366402698,JASSM,3,113,76,2,2,1,225,9,2,0,1,26,0,0,0,0,-155230.48669608062,-4778213.403291549,4212888.526823521,-2.71083,-1.01109,0.752034,34.625,-55.125,-60.875,0.0,0.0,0.0,0.0,0.0,0.0,2,0,41.57808953761042,-91.86072157086892,10997.37349540072,155.94351749998765,-0.0040173554637427,0.001080234762961,,10029.28805283672,11950.90527396306,150,10,2025-09-16,2025-09-26 20:17:53.523,AA,C,274183634,HAWK11,1,1,73,2,1,1,225,2,1,0,0,12,1,225,2,1,-149655.91247733062,-4790131.412080611,4200057.899870396,2.52877,2.55715,-0.593938,-72.875,52.75,58.125,0.078125,-6.90625,7.45312,-0.046875,0.00195312,0.0078125,4,0,41.42164315641462,-91.789484079365,11938.229144167875,-44.894453754152856,2.5061585297036606,4.576899118056176,167.163,10029.28805283672,11950.90527396306,150,True,9.91639084034673,False,159.98622835031682,174.75268825535224,False,25.22297796404929,True,False
10,1970-07-23 11:28:58.745502311,2025-09-16,2025-09-26 20:17:54.550,AA,C,2367536600,JASSM,3,113,76,2,2,1,225,9,2,0,1,26,0,0,0,0,-155197.55114920562,-4778265.979463424,4212830.499479771,-2.71083,-1.01109,0.752034,34.625,-55.125,-60.875,0.0,0.0,0.0,0.0,0.0,0.0,2,0,41.57739147610098,-91.86030660033052,10997.374404586082,155.94379288929673,-0.0032533855774218,0.00107914014469,,10029.28805283672,11950.90527396306,150,10,2025-09-16,2025-09-26 20:17:54.430,AA,C,275297100,HAWK11,1,1,73,2,1,1,225,2,1,0,0,12,1,225,2,1,-149723.92614920562,-4790082.066377486,4200112.331511021,2.4885,2.55743,-0.59902,-72.75,52.75,59.25,-0.1875,-7.04688,7.45312,-0.0371094,0.00390625,0.00195312,4,0,41.42229144675397,-91.79031524266988,11940.265665241424,-44.71934696241289,2.739771182090181,2.2870487602423752,168.116,10029.28805283672,11950.90527396306,150,True,9.821937986577584,False,160.33396863654062,174.59533050713074,False,25.044195267040056,True,False
10,1970-07-23 11:28:58.755284941,2025-09-16,2025-09-26 20:17:55.528,AA,C,2368729058,JASSM,3,113,76,2,2,1,225,9,2,0,1,26,0,0,0,0,-155162.91540701812,-4778321.268525924,4212769.476042271,-2.71083,-1.01109,0.752034,34.625,-55.125,-60.875,0.0,0.0,0.0,0.0,0.0,0.0,2,0,41.576657380613405,-91.85987021833074,10997.375114905954,155.9440824839227,-0.002449980886541,0.0010779899059817,,10029.28805283672,11950.90527396306,150,10,2025-09-16,2025-09-26 20:17:55.632,AA,C,276728698,HAWK11,1,1,73,2,1,1,225,2,1,0,0,12,1,225,2,1,-149811.29724295562,-4790018.259736861,4200183.310026646,2.44564,2.56712,-0.594993,-72.625,52.75,59.75,-0.0625,-7.32812,6.78125,-0.0078125,0.00585938,0.0117188,4,0,41.4231338367709,-91.7913831437132,11944.155068959051,-45.22075370830344,2.857831445969281,0.1190346496839084,168.287,10029.28805283672,11950.90527396306,150,True,9.710792173476348,False,160.51210042030496,174.39557338921588,False,25.070863135786386,True,False
10,1970-07-23 11:28:58.765420892,2025-09-16,2025-09-26 20:17:56.542,AA,C,2369924624,JASSM,3,113,76,2,2,1,225,9,2,0,1,26,0,0,0,0,-155128.18884451812,-4778376.702119674,4212708.288542271,-2.71083,-1.01109,0.752034,34.625,-55.125,-60.875,0.0,0.0,0.0,0.0,0.0,0.0,2,0,41.57592133385277,-91.85943270216409,10997.370043973538,155.944372826997,-0.001644447026454,0.0010768264884581,,10029.28805283672,11950.90527396306,150,10,2025-09-16,2025-09-26 20:17:56.524,AA,C,277762630,HAWK11,1,1,73,2,1,1,225,2,1,0,0,12,1,225,2,1,-149874.29724295562,-4789972.173799361,4200235.089323521,2.46875,2.56424,-0.604484,-72.375,52.5,60.0,-0.078125,-7.4375,6.82812,0.0351562,0.0,0.00390625,4,0,41.42374575078637,-91.7921532126856,11948.07568778708,-44.76709219449539,3.188143986837093,1.3737987043012974,168.153,10029.28805283672,11950.90527396306,150,True,9.61696150607701,False,160.61078484444315,174.24093965464343,False,25.131346192303436,True,False
10,1970-07-23 11:28:58.774461841,2025-09-16,2025-09-26 20:17:57.446,AA,C,2371116884,JASSM,3,113,76,2,2,1,225,9,2,0,1,26,0,0,0,0,-155093.55896170562,-4778431.981416549,4212647.272917271,-2.71083,-1.01109,0.752034,34.625,-55.125,-60.875,0.0,0.0,0.0,0.0,0.0,0.0,2,0,41.57518734460671,-91.85899641393456,10997.372504593248,155.9446623509883,-0.0008411649035162,0.0010756704168832,,10029.28805283672,11950.90527396306,150,10,2025-09-16,2025-09-26 20:17:57.226,AA,C,278518196,HAWK11,1,1,73,2,1,1,225,2,1,0,0,12,1,225,2,1,-149920.53161795562,-4789938.415986861,4200273.317839146,2.48227,2.56472,-0.603046,-72.0,52.375,60.125,-0.0625,-7.29688,6.65625,0.0273438,0.0,-0.00195312,4,0,41.42419598284918,-91.7927183353036,11951.609027788258,-44.83780202827789,3.1400941910207347,2.1600262146333487,167.664,10029.28805283672,11950.90527396306,150,True,9.535420327274846,False,160.75820214753384,174.11778854030487,False,25.109334768716135,True,False
10,1970-07-23 11:28:58.784260782,2025-09-16,2025-09-26 20:17:58.426,AA,C,2372250278,JASSM,3,113,76,2,2,1,225,9,2,0,1,26,0,0,0,0,-155060.63903983062,-4778484.530244674,4212589.269011021,-2.71083,-1.01109,0.752034,34.625,-55.125,-60.875,0.0,0.0,0.0,0.0,0.0,0.0,2,0,41.57448959447868,-91.85858167832812,10997.37405762258,155.9449375686132,-7.754528759481847e-05,0.0010745702368534,,10029.28805283672,11950.90527396306,150,10,2025-09-16,2025-09-26 20:17:58.430,AA,C,280069094,HAWK11,1,1,73,2,1,1,225,2,1,0,0,12,1,225,2,1,-150012.95349295562,-4789870.248018111,4200350.651823521,2.60096,2.55964,-0.606689,-70.75,52.75,60.25,-0.328125,-7.34375,6.78125,0.109375,0.0078125,0.00976562,4,0,41.42510624620172,-91.79384828737564,11958.979034875703,-44.52045604366858,3.1480614858403264,8.812407368122084,167.028,10029.28805283672,11950.90527396306,150,True,9.42220176407446,False,161.38280519206504,173.89875504299613,False,24.70279738657144,True,False
10,1970-07-23 11:28:58.794380320,2025-09-16,2025-09-26 20:17:59.438,AA,C,2373443968,JASSM,3,113,76,2,2,1,225,9,2,0,1,26,0,0,0,0,-155025.96716483062,-4778539.873994674,4212528.179167271,-2.71074,-1.01099,0.752034,34.625,-55.125,-60.875,0.0,0.0,0.0,0.0,0.0,0.0,2,0,41.57375472561389,-91.85814488135608,10997.377718615682,155.94157884609723,-0.0009500393140817,0.0028088653089121,,10029.28805283672,11950.90527396306,150,10,2025-09-16,2025-09-26 20:17:59.132,AA,C,280904194,HAWK11,1,1,73,2,1,1,225,2,1,0,0,12,1,225,2,1,-150062.57653983062,-4789832.628877486,4200393.200651646,2.65149,2.54583,-0.61551,-69.625,53.0,60.75,-0.1875,-7.25,6.39062,0.0332031,0.0,0.0273438,4,0,41.42560796787456,-91.79445537394722,11962.66479194436,-43.6983062455937,3.125397487748708,11.298431997626537,165.99,10029.28805283672,11950.90527396306,150,False,9.337208324187717,False,162.0241750935175,173.76472978027195,False,24.197993100616564,True,False
10,1970-07-23 11:28:58.805401276,2025-09-16,2025-09-26 20:18:00.540,AA,C,2374753940,JASSM,3,113,76,2,2,1,225,9,2,0,1,26,0,0,0,0,-154987.91736014312,-4778600.608369674,4212461.134245396,-2.71074,-1.01099,0.752034,34.625,-55.125,-60.875,0.0,0.0,0.0,0.0,0.0,0.0,2,0,41.57294824464624,-91.85766554104951,10997.376030367352,155.9418969259524,-6.742833995907697e-05,0.0028075377911538,,10029.28805283672,11950.90527396306,150,10,2025-09-16,2025-09-26 20:18:00.524,AA,C,282335792,HAWK11,1,1,73,2,1,1,225,2,1,0,0,12,1,225,2,1,-150144.61364920562,-4789768.501924361,4200465.327604771,2.63605,2.50595,-0.636794,-67.5,54.0,61.25,-0.125,-7.35938,6.51562,-0.0917969,0.0078125,0.0175781,4,0,41.426460967700926,-91.79545975780448,11967.882167677526,-41.48872940007956,2.9177474699829204,9.19116916825358,165.354,10029.28805283672,11950.90527396306,150,True,9.222099869558898,False,163.2696739607985,173.55886845590882,False,23.155399270077048,True,False
10,1970-07-23 11:28:58.815442914,2025-09-16,2025-09-26 20:18:01.544,AA,C,2376006640,JASSM,3,113,76,2,2,1,225,9,2,0,1,26,0,0,0,0,-154951.53161795562,-4778658.684541549,4212397.020964146,-2.71074,-1.01099,0.75213,34.625,-55.125,-60.875,0.0,0.0,0.0,0.0,0.0,0.0,2,0,41.5721770411749,-91.8572071760682,10997.372942696811,155.9444943484957,-0.004213134636271,0.0028062026600127,,10029.28805283672,11950.90527396306,150,10,2025-09-16,2025-09-26 20:18:01.524,AA,C,283727624,HAWK11,1,1,73,2,1,1,225,2,1,0,0,12,1,225,2,1,-150222.68396170562,-4789705.124971236,4200536.702604771,2.46012,2.49885,-0.642546,-66.375,54.125,61.5,0.046875,-7.375,6.4375,-0.128906,0.0,0.00390625,4,0,41.42730516152968,-91.79641648104548,11973.01359055671,-41.02879979424974,2.977413947823405,-1.1077662883727797,164.951,10029.28805283672,11950.90527396306,150,True,9.110556770449625,False,163.83212366469795,173.36128083767028,False,22.792464293113177,True,False
10,1970-07-23 11:28:58.826462286,2025-09-16,2025-09-26 20:18:02.646,AA,C,2377260006,JASSM,3,113,76,2,2,1,225,9,2,0,1,26,0,0,0,0,-154915.12634451812,-4778716.791963424,4212332.872526646,-2.71074,-1.01099,0.75213,34.625,-55.125,-60.875,0.0,0.0,0.0,0.0,0.0,0.0,2,0,41.57140541635942,-91.856748575927,10997.372964357395,155.94479865635356,-0.0033686737452796,0.0028049672072732,,10029.28805283672,11950.90527396306,150,10,2025-09-16,2025-09-26 20:18:02.521,AA,C,284960390,HAWK11,1,1,73,2,1,1,225,2,1,0,0,12,1,225,2,1,-150291.33239920562,-4789649.089814986,4200599.815886021,2.37268,2.51304,-0.628932,-66.375,54.0,60.875,-0.265625,-7.14062,6.3125,-0.0351562,0.0,-0.0273438,4,0,41.4280516691652,-91.7972578777864,11977.542252585305,-42.02688553900692,2.7691406869099384,-5.684815896422157,164.352,10029.28805283672,11950.90527396306,150,True,9.006227138543984,False,163.64998668791694,173.17931761090477,False,23.15226232224513,True,False
10,1970-07-23 11:28:58.837219159,2025-09-16,2025-09-26 20:18:03.721,AA,C,2378514050,JASSM,3,113,76,2,2,1,225,9,2,0,1,26,0,0,0,0,-154878.70153983062,-4778774.930635299,4212268.688932896,-2.71074,-1.01099,0.75213,34.625,-55.125,-60.875,0.0,0.0,0.0,0.0,0.0,0.0,2,0,41.57063337019692,-91.85628974064323,10997.376102743465,155.94510311559995,-0.0025237547152584,0.0028037288774164,,10029.28805283672,11950.90527396306,150,10,2025-09-16,2025-09-26 20:18:03.836,AA,C,286431754,HAWK11,1,1,73,2,1,1,225,2,1,0,0,12,1,225,2,1,-150373.85778983062,-4789582.609346236,4200674.128386021,2.34872,2.52886,-0.622604,-66.75,53.375,59.625,-0.15625,-7.34375,6.59375,0.0,0.00976562,-0.00390625,4,0,41.42893330470952,-91.79826905297956,11981.778736914812,-42.82880462294749,2.945510736547585,-6.567197966012438,163.423,10029.28805283672,11950.90527396306,150,True,8.891975590189807,False,163.02673745103144,172.9614262280461,False,23.98748185945092,True,False
10,1970-07-23 11:28:58.847277019,2025-09-16,2025-09-26 20:18:04.727,AA,C,2379765970,JASSM,3,113,76,2,2,1,225,9,2,0,1,26,0,0,0,0,-154842.33825858062,-4778832.967744674,4212204.614714146,-2.71074,-1.01099,0.75213,34.625,-55.125,-60.875,0.0,0.0,0.0,0.0,0.0,0.0,2,0,41.56986265270369,-91.85583169256032,10997.377620735142,155.94540704786854,-0.0016802873476429,0.0028025025613238,,10029.28805283672,11950.90527396306,150,10,2025-09-16,2025-09-26 20:18:04.521,AA,C,287346386,HAWK11,1,1,73,2,1,1,225,2,1,0,0,12,1,225,2,1,-150424.69958670562,-4789542.245088424,4200719.317839146,2.3561,2.53107,-0.622221,-67.0,53.0,59.125,-0.03125,-7.1875,6.35938,0.0175781,-0.00195312,0.00195312,4,0,41.42946892776983,-91.7988918032934,11984.56372635344,-42.92303361706964,2.9935753517476957,-6.075455407739488,163.057,10029.28805283672,11950.90527396306,150,True,8.802862641283575,False,162.701464189807,172.80791369591557,False,24.465232251603556,True,False
10,1970-07-23 11:28:58.858281842,2025-09-16,2025-09-26 20:18:05.828,AA,C,2381019142,JASSM,3,113,76,2,2,1,225,9,2,0,1,26,0,0,0,0,-154805.93786795562,-4778891.063447799,4212140.472136021,-2.71074,-1.01099,0.75213,34.625,-55.125,-60.875,0.0,0.0,0.0,0.0,0.0,0.0,2,0,41.56909113053387,-91.85537318818209,10997.375654700292,155.94571127827177,-0.0008359443616715,0.002801268199484,,10029.28805283672,11950.90527396306,150,10,2025-09-16,2025-09-26 20:18:06.022,AA,C,289056352,HAWK11,1,1,73,2,1,1,225,2,1,0,0,12,1,225,2,1,-150521.76599295562,-4789466.157197799,4200803.321745396,2.40806,2.53778,-0.607648,-67.375,52.75,57.75,0.0,-6.84375,6.125,0.0351562,0.00390625,0.0,4,0,41.43047039576169,-91.8000804107598,11987.35622207504,-43.69444451628288,2.543984755358706,-2.913585522630588,161.847,10029.28805283672,11950.90527396306,150,True,8.679698178004289,False,162.11793386307622,172.54344628804114,False,25.299897268923186,True,False
10,1970-07-23 11:28:58.868464224,2025-09-16,2025-09-26 20:18:06.846,AA,C,2382270132,JASSM,3,113,76,2,2,1,225,9,2,0,1,26,0,0,0,0,-154769.60193045562,-4778949.055635299,4212076.442839146,-2.71074,-1.01099,0.75213,34.625,-55.125,-60.875,0.0,0.0,0.0,0.0,0.0,0.0,2,0,41.56832097443127,-91.85491550679644,10997.375991042803,155.94601495797164,6.901888617752499e-06,0.0028000366019197,,10029.28805283672,11950.90527396306,150,10,2025-09-16,2025-09-26 20:18:06.930,AA,C,290090284,HAWK11,1,1,73,2,1,1,225,2,1,0,0,12,1,225,2,1,-150580.32263358062,-4789420.661104049,4200852.800261021,2.41487,2.54123,-0.607361,-67.375,52.5,57.25,-0.265625,-7.32812,6.32812,0.0117188,-0.00585938,0.0,4,0,41.43106404594317,-91.80079731986082,11987.44119891638,-43.83134823934748,2.634559570882191,-2.41687538274068,161.37,10029.28805283672,11950.90527396306,150,True,8.58626012357273,False,161.9210968318092,172.36173417997205,False,25.6756746673641,True,False
10,1970-07-23 11:28:58.878439264,2025-09-16,2025-09-26 20:18:07.843,AA,C,2383465492,JASSM,3,113,76,2,2,1,225,9,2,0,1,26,0,0,0,0,-154734.88122733062,-4779004.469697799,4212015.259245396,-2.71074,-1.01099,0.75213,34.625,-55.125,-60.875,0.0,0.0,0.0,0.0,0.0,0.0,2,0,41.567585049483576,-91.85447818087066,10997.378764391968,155.9463051271464,0.0008122837554568,0.0027988586023654,,10029.28805283672,11950.90527396306,150,10,2025-09-16,2025-09-26 20:18:07.836,AA,C,291004916,HAWK11,1,1,73,2,1,1,225,2,1,0,0,12,1,225,2,1,-150631.73474295562,-4789380.791963424,4200896.013151646,2.40452,2.53212,-0.608415,-67.375,52.0,57.25,0.0,-7.0,6.26562,-0.0253906,0.0,0.0,4,0,41.431583265607735,-91.80142674066433,11987.209342854048,-43.46079911099383,2.4121243288751093,-3.291859014803215,160.625,10029.28805283672,11950.90527396306,150,True,8.50052319710781,False,161.80011631871415,172.19514787524864,False,25.971002527208338,True,False
10,1970-07-23 11:28:58.889461683,2025-09-16,2025-09-26 20:18:08.946,AA,C,2384777460,JASSM,3,113,76,2,2,1,225,9,2,0,1,26,0,0,0,0,-154696.77380545562,-4779065.286104049,4211948.104948521,-2.71074,-1.01099,0.752226,34.625,-55.125,-60.875,0.0,0.0,0.0,0.0,0.0,0.0,2,0,41.566777337555095,-91.85399820992784,10997.373609698572,155.94891827988445,-0.0032965865231702,0.0027975322541343,,10029.28805283672,11950.90527396306,150,10,2025-09-16,2025-09-26 20:18:09.021,AA,C,292635348,HAWK11,1,1,73,2,1,1,225,2,1,0,0,12,1,225,2,1,-150724.78747733062,-4789308.711885299,4200973.042448521,2.30797,2.53279,-0.594897,-68.0,52.375,55.375,-0.03125,-6.98438,6.28125,-0.00976562,-0.00195312,-0.0195312,4,0,41.43251454870697,-91.8025659485702,11984.426692055698,-43.9733624143117,1.8308720274780637,-8.8206940709373,160.295,10029.28805283672,11950.90527396306,150,True,8.38010440747544,False,161.09450668239865,171.9173292848272,False,26.920267508669895,True,False
10,1970-07-23 11:28:58.899499484,2025-09-16,2025-09-26 20:18:09.949,AA,C,2385970508,JASSM,3,113,76,2,2,1,225,9,2,0,1,26,0,0,0,0,-154662.12048514312,-4779120.590791549,4211887.038542271,-2.71074,-1.01099,0.752226,34.625,-55.125,-60.875,0.0,0.0,0.0,0.0,0.0,0.0,2,0,41.56604283763146,-91.85356175420377,10997.37714538173,155.94920786294614,-0.0024927680657897,0.0027963884135077,,10029.28805283672,11950.90527396306,150,10,2025-09-16,2025-09-26 20:18:09.929,AA,C,293709046,HAWK11,1,1,73,2,1,1,225,2,1,0,0,12,1,225,2,1,-150786.30700858062,-4789261.993135299,4201022.331511021,2.29416,2.55322,-0.578311,-68.75,51.875,54.5,-0.109375,-7.01562,6.53125,-0.00195312,0.00585938,-0.03125,4,0,41.43311362706751,-91.8033187740495,11981.33788290571,-45.33035565901238,1.7122322650940254,-9.005964983902993,160.014,10029.28805283672,11950.90527396306,150,True,8.28853602644207,False,160.40622785002006,171.71461228131326,False,27.806832318122712,True,False
10,1970-07-23 11:28:58.910257342,2025-09-16,2025-09-26 20:18:11.025,AA,C,2387282910,JASSM,3,113,76,2,2,1,225,9,2,0,1,26,0,0,0,0,-154623.99939139312,-4779181.426729049,4211819.860807896,-2.71074,-1.01089,0.752226,34.625,-55.125,-60.875,0.0,0.0,0.0,0.0,0.0,0.0,2,0,41.565234849941845,-91.85308163478454,10997.377305662105,155.9458831317418,-0.0032831197396405,-0.0009568433198654,,10029.28805283672,11950.90527396306,150,10,2025-09-16,2025-09-26 20:18:11.021,AA,C,295100878,HAWK11,1,1,73,2,1,1,225,2,1,0,0,12,1,225,2,1,-150867.25232108062,-4789201.850557174,4201085.593229771,2.31075,2.56309,-0.573709,-69.875,51.375,53.75,-0.09375,-6.98438,7.07812,0.0488281,0.00390625,-0.0078125,4,0,41.43388322534922,-91.80430883758152,11977.091509045407,-45.86478145148005,1.813475391246256,-7.763907427623937,160.344,10029.28805283672,11950.90527396306,150,True,8.179587689409447,False,159.59939975913124,171.4497990840678,False,28.876980643801474,True,False
10,1970-07-23 11:28:58.922258095,2025-09-16,2025-09-26 20:18:12.225,AA,C,2388655074,JASSM,3,113,76,2,2,1,225,9,2,0,1,26,0,0,0,0,-154584.14294608062,-4779245.030244674,4211749.624479771,-2.71074,-1.01089,0.752226,34.625,-55.125,-60.875,0.0,0.0,0.0,0.0,0.0,0.0,2,0,41.5643900859247,-91.85257967281908,10997.37724003564,155.9462161669261,-0.0023586318790806,-0.0009582093109416,,10029.28805283672,11950.90527396306,150,10,2025-09-16,2025-09-26 20:18:12.022,AA,C,296214344,HAWK11,1,1,73,2,1,1,225,2,1,0,0,12,1,225,2,1,-150933.07458670562,-4789154.244111861,4201135.688932896,2.34776,2.57316,-0.574859,-71.0,51.0,53.625,-0.0625,-7.5,7.98438,0.0585938,0.0390625,-0.00585938,4,0,41.43449221113437,-91.80511345511997,11973.914958785928,-46.19416147008679,2.1760492988557965,-5.341693766405223,161.566,10029.28805283672,11950.90527396306,150,True,8.079920371083169,False,159.01604632563854,171.21414664292425,False,29.702628006668142,True,False
10,1970-07-23 11:28:58.933378666,2025-09-16,2025-09-26 20:18:13.337,AA,C,2389965778,JASSM,3,113,76,2,2,1,225,9,2,0,1,26,0,0,0,0,-154546.07263358062,-4779305.784150924,4211682.530729771,-2.71074,-1.01089,0.752226,34.625,-55.125,-60.875,0.0,0.0,0.0,0.0,0.0,0.0,2,0,41.56358313909402,-91.8521002177816,10997.373154856868,155.94653426431626,-0.0014755392133468,-0.0009595294151817,,10029.28805283672,11950.90527396306,150,10,2025-09-16,2025-09-26 20:18:13.335,AA,C,297844776,HAWK11,1,1,73,2,1,1,225,2,1,0,0,12,1,225,2,1,-151030.34021170562,-4789087.797822799,4201210.360807896,2.41621,2.63068,-0.609086,-71.875,47.875,56.0,-0.296875,-8.60938,9.4375,0.171875,0.0117188,0.0136719,4,0,41.4353732297525,-91.80630099653912,11980.223146202015,-46.97256103432213,5.451772521021717,0.3683842870693767,163.888,10029.28805283672,11950.90527396306,150,True,7.962628265359952,False,158.5274196444787,170.8848351647806,False,30.582742454001817,False,False
10,1970-07-23 11:28:58.944423407,2025-09-16,2025-09-26 20:18:14.442,AA,C,2391279524,JASSM,3,113,76,2,2,1,225,9,2,0,1,26,0,0,0,0,-154507.91247733062,-4779366.678682174,4211615.282682896,-2.71074,-1.01089,0.752226,34.625,-55.125,-60.875,0.0,0.0,0.0,0.0,0.0,0.0,2,0,41.56277432941516,-91.8516196442949,10997.376088736955,155.94685309865767,-0.0005904025321638,-0.0009608356021963,,10029.28805283672,11950.90527396306,150,10,2025-09-16,2025-09-26 20:18:14.335,AA,C,298958242,HAWK11,1,1,73,2,1,1,225,2,1,0,0,12,1,225,2,1,-151097.33630545562,-4789043.994111861,4201263.770964146,2.57987,2.62464,-0.622988,-71.25,47.125,57.625,-0.125,-7.6875,8.42188,0.126953,0.0078125,0.0273438,4,0,41.435981706661465,-91.80711824693078,11993.694196604092,-46.2275456057166,5.857291559109054,9.61868217033319,162.959,10029.28805283672,11950.90527396306,150,True,7.865511650744619,False,158.980180449575,170.63184849735876,False,30.387826733429392,False,False
10,1970-07-23 11:28:58.954420758,2025-09-16,2025-09-26 20:18:15.442,AA,C,2392589986,JASSM,3,113,76,2,2,1,225,9,2,0,1,26,0,0,0,0,-154469.84900076812,-4779427.420869674,4211548.200651646,-2.71074,-1.01089,0.752226,34.625,-55.125,-60.875,0.0,0.0,0.0,0.0,0.0,0.0,2,0,41.56196752587021,-91.85114029954411,10997.379242202018,155.9471711127229,0.0002925293263681,-0.0009621546534634,,10029.28805283672,11950.90527396306,150,10,2025-09-16,2025-09-26 20:18:15.631,AA,C,300509140,HAWK11,1,1,73,2,1,1,225,2,1,0,0,12,1,225,2,1,-151189.36560233062,-4788982.399385299,4201340.925261021,2.72857,2.57766,-0.648011,-69.125,47.875,60.125,-0.296875,-6.78125,7.5,0.0546875,0.00390625,0.046875,4,0,41.4368515558264,-91.80824142468336,12016.929763427555,-43.64113451248466,5.513172164608792,16.79686964854053,162.311,10029.28805283672,11950.90527396306,150,False,7.75006921689135,False,160.65325823845166,170.3016485224297,False,29.037811805432597,True,False
10,1970-07-23 11:28:58.965457808,2025-09-16,2025-09-26 20:18:16.545,AA,C,2393842850,JASSM,3,113,76,2,2,1,225,9,2,0,1,26,0,0,0,0,-154433.45739920562,-4779485.491182174,4211484.065886021,-2.71074,-1.01089,0.752322,34.625,-55.125,-60.875,0.0,0.0,0.0,0.0,0.0,0.0,2,0,41.56119618635952,-91.85068202186562,10997.379128723049,155.94976873989827,-0.0038529046063421,-0.0009634595595016,,10029.28805283672,11950.90527396306,150,10,2025-09-16,2025-09-26 20:18:16.522,AA,C,301384006,HAWK11,1,1,73,2,1,1,225,2,1,0,0,12,1,225,2,1,-151239.20153983062,-4788947.129854049,4201384.308073521,2.75752,2.54852,-0.660283,-67.625,48.75,61.125,0.171875,-6.46875,7.21875,-0.0292969,0.0,0.0429688,4,0,41.43734479735858,-91.8088503849078,12028.287892570945,-42.16815840264257,5.200030789300198,17.577188851925328,161.981,10029.28805283672,11950.90527396306,150,False,7.664722981166335,False,161.75139839954747,170.0930135312069,False,28.145409291541895,True,False
10,1970-07-23 11:28:58.976220560,2025-09-16,2025-09-26 20:18:17.622,AA,C,2395155036,JASSM,3,113,76,2,2,1,225,9,2,0,1,26,0,0,0,0,-154395.34314139312,-4779546.309541549,4211416.892057896,-2.71064,-1.01089,0.752322,34.625,-55.125,-60.875,0.0,0.0,0.0,0.0,0.0,0.0,2,0,41.56038831584061,-91.85020206285748,10997.37506441348,155.9500871516611,-0.0029688074504303,0.00452673130735,,10029.28805283672,11950.90527396306,150,10,2025-09-16,2025-09-26 20:18:17.725,AA,C,303054204,HAWK11,1,1,73,2,1,1,225,2,1,0,0,12,1,225,2,1,-151332.43982108062,-4788876.495088424,4201470.233854771,2.60671,2.51314,-0.68243,-65.375,50.375,62.875,-0.171875,-6.89062,7.59375,-0.0761719,0.00390625,0.0253906,4,0,41.43832738325116,-91.80999147023503,12048.454161086316,-40.12869233157573,5.186980973382274,7.860097870085415,162.592,10029.28805283672,11950.90527396306,150,True,7.542873513658969,False,163.5375829257921,169.75237120736642,False,26.694426667016288,True,False
10,1970-07-23 11:28:58.987240405,2025-09-16,2025-09-26 20:18:18.724,AA,C,2396408352,JASSM,3,113,76,2,2,1,225,9,2,0,1,26,0,0,0,0,-154358.93884451812,-4779604.397432174,4211352.733854771,-2.71064,-1.01089,0.752322,34.625,-55.125,-60.875,0.0,0.0,0.0,0.0,0.0,0.0,2,0,41.55961671211934,-91.84974364866724,10997.375352313777,155.95039126553277,-0.0021243968963379,0.0045255169885592,,10029.28805283672,11950.90527396306,150,10,2025-09-16,2025-09-26 20:18:18.835,AA,C,304326736,HAWK11,1,1,73,2,1,1,225,2,1,0,0,12,1,225,2,1,-151402.06286795562,-4788821.432588424,4201537.642057896,2.55475,2.51381,-0.677348,-64.375,51.125,63.5,0.015625,-6.375,7.09375,-0.00585938,-0.00195312,-0.0117188,4,0,41.43909678532933,-91.8108444403542,12064.868727727446,-40.33473962521678,4.97878416090291,4.888767213879736,162.873,10029.28805283672,11950.90527396306,150,True,7.439096861194635,False,164.30461948658683,169.4785950951386,False,26.200192760610467,True,False
10,1970-07-23 11:28:58.998259203,2025-09-16,2025-09-26 20:18:19.825,AA,C,2397722226,JASSM,3,113,76,2,2,1,225,9,2,0,1,26,0,0,0,0,-154320.77575858062,-4779665.293916549,4211285.472136021,-2.71064,-1.01089,0.752322,34.625,-55.125,-60.875,0.0,0.0,0.0,0.0,0.0,0.0,2,0,41.55880778888396,-91.8492630981131,10997.377552982034,155.95071005978147,-0.0012391544284537,0.0045242285945356,,10029.28805283672,11950.90527396306,150,10,2025-09-16,2025-09-26 20:18:20.021,AA,C,305837868,HAWK11,1,1,73,2,1,1,225,2,1,0,0,12,1,225,2,1,-151483.66052420562,-4788754.764619674,4201618.040495396,2.58207,2.50058,-0.673993,-63.75,52.375,63.875,-0.09375,-6.28125,6.90625,0.0507812,0.0,0.015625,4,0,41.44002063973119,-91.81184494578903,12081.898297225636,-39.98909954447533,4.462554930847598,6.008684248182119,163.191,10029.28805283672,11950.90527396306,150,True,7.322540969643696,False,165.00531867061687,169.1594626600542,False,25.826179233137655,True,False
10,1970-07-23 11:28:59.009277154,2025-09-16,2025-09-26 20:18:20.927,AA,C,2399032438,JASSM,3,113,76,2,2,1,225,9,2,0,1,26,0,0,0,0,-154282.71814139312,-4779726.016572799,4211218.397917271,-2.71064,-1.01089,0.752322,34.625,-55.125,-60.875,0.0,0.0,0.0,0.0,0.0,0.0,2,0,41.55800114297699,-91.84878388969776,10997.374652245171,155.95102795858818,-0.0003563990401518,0.0045229601610316,,10029.28805283672,11950.90527396306,150,10,2025-09-16,2025-09-26 20:18:20.929,AA,C,306911566,HAWK11,1,1,73,2,1,1,225,2,1,0,0,12,1,225,2,1,-151540.31286795562,-4788707.161104049,4201674.653776646,2.64823,2.48447,-0.676294,-63.0,53.5,64.25,-0.1875,-6.25,6.89062,0.0839844,0.00195312,0.00585938,4,0,41.44067524650041,-91.8125400993395,12092.21343361328,-39.33772466466511,4.125990651710923,9.270967368316043,163.558,10029.28805283672,11950.90527396306,150,True,7.225180133306057,False,165.71434358765177,168.90891592138033,False,25.372383557588897,True,False
10,1970-07-23 11:28:59.019418172,2025-09-16,2025-09-26 20:18:21.941,AA,C,2400285338,JASSM,3,113,76,2,2,1,225,9,2,0,1,26,0,0,0,0,-154246.32556326812,-4779784.082979049,4211154.257292271,-2.71064,-1.01089,0.752322,34.625,-55.125,-60.875,0.0,0.0,0.0,0.0,0.0,0.0,2,0,41.557229777582975,-91.84832565787477,10997.375453182613,155.95133193713608,0.000487743445857,0.0045217437802635,,10029.28805283672,11950.90527396306,150,10,2025-09-16,2025-09-26 20:18:21.869,AA,C,307349000,HAWK11,1,1,73,2,1,1,225,2,1,0,0,12,1,225,2,1,-151563.91638358062,-4788687.364229049,4201697.974089146,2.67095,2.47738,-0.676486,-62.75,53.875,64.375,0.015625,-6.10938,6.76562,0.0527344,-0.00195312,0.0214844,4,0,41.44094596081136,-91.8128297167724,12096.022676279925,-39.07884079032452,3.942435209085225,10.336608982753656,163.753,10029.28805283672,11950.90527396306,150,False,7.156728228780576,False,165.94881470028608,168.7581450503832,False,25.289909401413674,True,False
10,1970-07-23 11:28:59.030440368,2025-09-16,2025-09-26 20:18:23.044,AA,C,2401597706,JASSM,3,113,76,2,2,1,225,9,2,0,1,26,0,0,0,0,-154208.20642264312,-4779844.905244674,4211087.069792271,-2.71064,-1.0108,0.752322,34.625,-55.125,-60.875,0.0,0.0,0.0,0.0,0.0,0.0,2,0,41.556421782239546,-91.8478456975786,10997.375266294766,155.94800748190815,-0.0003027190244406,0.0007679039080621,,10029.28805283672,11950.90527396306,150,10,2025-09-16,2025-09-26 20:18:23.131,AA,C,309496398,HAWK11,1,1,73,2,1,1,225,2,1,0,0,12,1,225,2,1,-151675.37536795562,-4788586.653291549,4201813.347136021,2.58917,2.41938,-0.685498,-61.0,56.75,65.0,0.171875,-6.04688,6.73438,-0.09375,0.0,0.0273438,4,0,41.4423027474685,-91.8142000967959,12107.657878004744,-36.68967873835477,2.830318773171046,3.6994733764032097,164.755,10029.28805283672,11950.90527396306,150,True,7.0118004423946605,False,167.5700307858316,168.32826590776037,False,24.099252904457803,True,False
10,1970-07-23 11:28:59.041457926,2025-09-16,2025-09-26 20:18:24.145,AA,C,2402910538,JASSM,3,113,76,2,2,1,225,9,2,0,1,26,0,0,0,0,-154170.07263358062,-4779905.747041549,4211019.858854771,-2.71064,-1.0108,0.752418,34.625,-55.125,-60.875,0.0,0.0,0.0,0.0,0.0,0.0,2,0,41.55561351323744,-91.84736556628889,10997.37581637704,155.95062132656176,-0.0044107050509415,0.0007664983590569,,10029.28805283672,11950.90527396306,150,10,2025-09-16,2025-09-26 20:18:24.269,AA,C,310808696,HAWK11,1,1,73,2,1,1,225,2,1,0,0,12,1,225,2,1,-151742.89685233062,-4788522.463838424,4201884.751432896,2.55724,2.41976,-0.674952,-60.875,58.0,65.125,-0.109375,-6.07812,6.625,0.0,-0.0136719,-0.0136719,4,0,41.44315379802553,-91.81503149970504,12110.183434985947,-37.05412722204888,2.3484046725103376,1.8676168380522828,165.721,10029.28805283672,11950.90527396306,150,True,6.901990885686515,False,167.93714844349685,168.0265867350942,False,24.023812828050218,True,False
10,1970-07-23 11:28:59.053897599,2025-09-16,2025-09-26 20:18:25.389,AA,C,2404164664,JASSM,3,113,76,2,2,1,225,9,2,0,1,26,0,0,0,0,-154133.64489920562,-4779963.868135299,4210955.651823521,-2.71064,-1.0108,0.752418,34.625,-55.125,-60.875,0.0,0.0,0.0,0.0,0.0,0.0,2,0,41.55484137516397,-91.84690692610954,10997.37755374286,155.95092556178614,-0.0035657272727821,0.0007652517294343,,10029.28805283672,11950.90527396306,150,10,2025-09-16,2025-09-26 20:18:25.270,AA,C,312001694,HAWK11,1,1,73,2,1,1,225,2,1,0,0,12,1,225,2,1,-151803.13611014312,-4788463.715791549,4201948.899870396,2.62378,2.41631,-0.673322,-60.625,59.25,65.125,-0.265625,-6.29688,6.875,0.0996094,0.00390625,0.0136719,4,0,41.44392487894548,-91.8157738149436,12109.767645945038,-36.982405540306615,2.183884529868946,5.559269980304861,166.442,10029.28805283672,11950.90527396306,150,True,6.800212089354374,False,168.31010488346362,167.74470034775365,False,23.911806686242606,True,False
10,1970-07-23 11:28:59.063258546,2025-09-16,2025-09-26 20:18:26.325,AA,C,2405474888,JASSM,3,113,76,2,2,1,225,9,2,0,1,26,0,0,0,0,-154095.58728201812,-4780024.586885299,4210888.571745396,-2.71064,-1.0108,0.752418,34.625,-55.125,-60.875,0.0,0.0,0.0,0.0,0.0,0.0,2,0,41.55403470272984,-91.84642777779489,10997.376712652826,155.95124339595486,-0.0026829570152065,0.000763954830641,,10029.28805283672,11950.90527396306,150,10,2025-09-16,2025-09-26 20:18:26.335,AA,C,313313994,HAWK11,1,1,73,2,1,1,225,2,1,0,0,12,1,225,2,1,-151869.80603201812,-4788397.297822799,4202020.669401646,2.7232,2.39004,-0.687895,-59.75,60.625,65.875,-0.09375,-6.53125,7.14062,0.0546875,0.00585938,0.0214844,4,0,41.44479180892762,-91.8165959245572,12107.55560237158,-35.544858325900684,2.203383535946573,10.363524126702645,167.933,10029.28805283672,11950.90527396306,150,False,6.6900335305314655,False,169.1340675350276,167.43001047872636,False,23.386197286344025,True,False
10,1970-07-23 11:28:59.074417555,2025-09-16,2025-09-26 20:18:27.441,AA,C,2406787240,JASSM,3,113,76,2,2,1,225,9,2,0,1,26,0,0,0,0,-154057.46716483062,-4780085.403291549,4210821.382292271,-2.71064,-1.0108,0.752418,34.625,-55.125,-61.0,0.0,0.0,0.0,0.0,0.0,0.0,2,0,41.55322672100939,-91.84594785533868,10997.377504530648,155.95156173855526,-0.0017987532066195,0.00076266240601,,10029.28805283672,11950.90527396306,150,10,2025-09-16,2025-09-26 20:18:27.131,AA,C,314268392,HAWK11,1,1,73,2,1,1,225,2,1,0,0,12,1,225,2,1,-151917.10486014312,-4788348.434541549,4202073.358854771,2.76529,2.37,-0.698537,-58.75,61.5,66.875,-0.09375,-6.65625,7.20312,0.0,0.00390625,0.0195312,4,0,41.44542918232066,-91.81717984287542,12105.5554425922,-34.47138443912622,2.2160127406654557,12.08277119570445,168.605,10029.28805283672,11950.90527396306,150,False,6.595573483864379,False,169.93987179273165,167.19064101832498,False,22.813635909996297,True,False
10,1970-07-23 11:28:59.084739112,2025-09-16,2025-09-26 20:18:28.473,AA,C,2408040276,JASSM,3,113,76,2,2,1,225,9,2,0,1,26,0,0,0,0,-154021.07068045562,-4780143.469697799,4210757.227995396,-2.71064,-1.0108,0.752418,34.625,-55.125,-61.0,0.0,0.0,0.0,0.0,0.0,0.0,2,0,41.55245525235547,-91.84548964418218,10997.37632581784,155.9518656748519,-0.0009545123925908,0.000761420817677,,10029.28805283672,11950.90527396306,150,10,2025-09-16,2025-09-26 20:18:28.521,AA,C,315978356,HAWK11,1,1,73,2,1,1,225,2,1,0,0,12,1,225,2,1,-151999.99157889312,-4788258.559541549,4202170.030729771,2.64708,2.33779,-0.713397,-57.0,63.0,68.5,0.21875,-6.82812,7.5,-0.107422,0.0078125,0.0214844,4,0,41.44660065917482,-91.818204743771,12101.04306932568,-32.82930366749636,2.1642659050340107,4.174937278545028,169.986,10029.28805283672,11950.90527396306,150,True,6.468354815372026,False,171.3401308174857,166.8124905762242,False,21.791030652474632,True,False
10,1970-07-23 11:28:59.095256129,2025-09-16,2025-09-26 20:18:29.525,AA,C,2409297694,JASSM,3,113,76,2,2,1,225,9,2,0,1,26,0,0,0,0,-153984.54724295562,-4780201.737275924,4210692.849089146,-2.71064,-1.0108,0.752418,34.625,-55.125,-61.0,0.0,0.0,0.0,0.0,0.0,0.0,2,0,41.55168109336423,-91.84502984623796,10997.374531848503,155.95217065902204,-0.0001073291741912,0.0007601755526263,,10029.28805283672,11950.90527396306,150,10,2025-09-16,2025-09-26 20:18:29.337,AA,C,316932756,HAWK11,1,1,73,2,1,1,225,2,1,0,0,12,1,225,2,1,-152045.72204764312,-4788207.739229049,4202225.128386021,2.60777,2.33069,-0.712726,-56.875,63.375,69.25,-0.015625,-6.92188,7.32812,-0.046875,-0.00585938,-0.015625,4,0,41.44726621594271,-91.8187706891476,12099.350754334348,-32.59046592748236,1.9679279220845056,1.6654502547205778,171.086,10029.28805283672,11950.90527396306,150,True,6.3748801359137985,False,171.6209148332861,166.55139438031307,False,21.78182802361845,True,False
10,1970-07-23 11:28:59.106297951,2025-09-16,2025-09-26 20:18:30.629,AA,C,2410604986,JASSM,3,113,76,2,2,1,225,9,2,0,1,26,0,0,0,0,-153946.57458670562,-4780262.315400924,4210625.915495396,-2.71064,-1.0108,0.752418,34.625,-55.125,-61.0,0.0,0.0,0.0,0.0,0.0,0.0,2,0,41.550876221797886,-91.84455181610107,10997.373519099336,155.9524877316643,0.0007734626942276,0.000758883509813,,10029.28805283672,11950.90527396306,150,10,2025-09-16,2025-09-26 20:18:30.524,AA,C,318324588,HAWK11,1,1,73,2,1,1,225,2,1,0,0,12,1,225,2,1,-152112.59997733062,-4788132.911104049,4202306.685026646,2.59003,2.34114,-0.709562,-57.0,63.5,70.25,-0.015625,-6.9375,7.48438,0.0546875,-0.00390625,0.0078125,4,0,41.44824917076159,-91.81959856199798,12097.765599540187,-33.07139353731549,2.0594272747314872,1.0231373217333717,172.014,10029.28805283672,11950.90527396306,150,True,6.258732581835659,False,171.79292070249952,166.20313738609636,False,21.98022282753086,True,False
10,1970-07-23 11:28:59.117417929,2025-09-16,2025-09-26 20:18:31.741,AA,C,2411918518,JASSM,3,113,76,2,2,1,225,9,2,0,1,26,0,0,0,0,-153908.42028983062,-4780323.182588424,4210558.661589146,-2.71064,-1.0108,0.752513,34.625,-55.125,-61.0,0.0,0.0,0.0,0.0,0.0,0.0,2,0,41.55006750135276,-91.84407151154468,10997.375431806193,155.95510023065168,-0.0033309423448543,0.0007575529478472,,10029.28805283672,11950.90527396306,150,10,2025-09-16,2025-09-26 20:18:31.725,AA,C,319716420,HAWK11,1,1,73,2,1,1,225,2,1,0,0,12,1,225,2,1,-152178.70642264312,-4788058.623994674,4202388.595182896,2.69549,2.32849,-0.716273,-56.625,63.875,71.375,-0.3125,-6.92188,7.42188,0.117188,-0.00390625,0.00195312,4,0,41.4492314289532,-91.82041703184088,12098.22629610459,-32.40233893501347,2.091332992055733,6.615604618915663,173.371,10029.28805283672,11950.90527396306,150,True,6.1426904058972385,False,172.24312801516027,165.84459396308839,False,21.90219107974773,True,False
10,1970-07-23 11:28:59.128717953,2025-09-16,2025-09-26 20:18:32.871,AA,C,2413229690,JASSM,3,113,76,2,2,1,225,9,2,0,1,26,0,0,0,0,-153870.33532889312,-4780383.938447799,4210491.526823521,-2.71064,-1.0108,0.752513,34.625,-55.125,-61.0,0.0,0.0,0.0,0.0,0.0,0.0,2,0,41.54926023199983,-91.84359209203792,10997.37385945375,155.95541821480882,-0.0024475333882312,0.0007562866843603,,10029.28805283672,11950.90527396306,150,10,2025-09-16,2025-09-26 20:18:33.271,AA,C,320949184,HAWK11,1,1,73,2,1,1,225,2,1,0,0,12,1,225,2,1,-152236.86169608062,-4787992.260713424,4202462.829557896,2.80258,2.31085,-0.726052,-55.875,62.5,74.25,-0.125,-6.8125,7.26562,0.078125,0.00585938,0.0195312,4,0,41.45011623725024,-91.82113746228868,12100.879383401356,-31.461692839423385,2.167571471154616,12.119063239190986,174.19,10029.28805283672,11950.90527396306,150,False,6.03348570237865,False,172.6825183252388,165.50424483329343,False,21.759527289025353,True,False
10,1970-07-23 11:28:59.138477886,2025-09-16,2025-09-26 20:18:33.847,AA,C,2414484362,JASSM,3,113,76,2,2,1,225,9,2,0,1,26,0,0,0,0,-153833.89099295562,-4780442.075166549,4210427.284636021,-2.71064,-1.0108,0.752513,34.625,-55.125,-61.0,0.0,0.0,0.0,0.0,0.0,0.0,2,0,41.54848775123287,-91.8431333368774,10997.3735349086,155.95572248819147,-0.0016021937450126,0.0007550805602497,,10029.28805283672,11950.90527396306,150,10,2025-09-16,2025-09-26 20:18:33.927,AA,C,322341016,HAWK11,1,1,73,2,1,1,225,2,1,0,0,12,1,225,2,1,-152300.07361014312,-4787914.920869674,4202547.327604771,2.88858,2.26895,-0.746857,-53.125,66.125,74.0,-0.046875,-6.9375,7.39062,0.0,0.0136719,0.03125,4,0,41.45113466266038,-91.82192253641716,12099.2474327874,-29.322811461518683,2.282670547780339,15.516939123672914,174.703,10029.28805283672,11950.90527396306,150,False,5.918326926635463,False,174.66890873164394,165.14229879163008,False,20.18564996726631,True,False
10,1970-07-23 11:28:59.149919519,2025-09-16,2025-09-26 20:18:34.991,AA,C,2415796900,JASSM,3,113,76,2,2,1,225,9,2,0,1,26,0,0,0,0,-153795.76599295562,-4780502.893525924,4210360.079557896,-2.71054,-1.0107,0.752513,34.625,-55.125,-61.0,0.0,0.0,0.0,0.0,0.0,0.0,2,0,41.54767963904082,-91.84265343725374,10997.3789082092,155.95239870188743,-0.0023924869957007,0.0024920999532664,,10029.28805283672,11950.90527396306,150,10,2025-09-16,2025-09-26 20:18:34.927,AA,C,323613548,HAWK11,1,1,73,2,1,1,225,2,1,0,0,12,1,225,2,1,-152355.96228201812,-4787842.872041549,4202626.968229771,2.89136,2.2307,-0.761813,-50.75,67.375,75.25,-0.03125,-7.01562,7.4375,-0.0253906,0.0078125,0.0273438,4,0,41.452090205665314,-91.82261807425076,12099.505841877726,-27.50969746207016,2.249357751962096,14.246883579909968,175.693,10029.28805283672,11950.90527396306,150,False,5.805500352993355,False,176.15298532343238,164.79316026303434,False,19.052355769575414,True,False
10,1970-07-23 11:28:59.160716925,2025-09-16,2025-09-26 20:18:36.071,AA,C,2417107090,JASSM,3,113,76,2,2,1,225,9,2,0,1,26,0,0,0,0,-153757.70837576812,-4780563.600557174,4210292.991667271,-2.71054,-1.0107,0.752513,34.625,-55.125,-61.0,0.0,0.0,0.0,0.0,0.0,0.0,2,0,41.54687296517568,-91.84217439921105,10997.37635827052,155.95271641807275,-0.0015097328403248,0.002490786079099,,10029.28805283672,11950.90527396306,150,10,2025-09-16,2025-09-26 20:18:36.270,AA,C,323176116,HAWK11,1,1,73,2,1,1,225,2,1,0,0,12,1,225,2,1,-152336.82458670562,-4787868.104463424,4202599.085417271,2.89213,2.24067,-0.757499,-51.625,66.875,74.875,-0.046875,-6.9375,7.45312,0.0,0.0175781,0.0253906,4,0,41.45175553666551,-91.82237968878532,12099.466663836838,-27.99197389106318,2.2316790600481133,14.66540070190355,176.585,10029.28805283672,11950.90527396306,150,False,5.775852672389817,False,175.61354160618333,164.73031181133166,False,19.65508729968282,True,False
10,1970-07-23 11:28:59.171258419,2025-09-16,2025-09-26 20:18:37.125,AA,C,2418361828,JASSM,3,113,76,2,2,1,225,9,2,0,1,26,0,0,0,0,-153721.26208670562,-4780621.737275924,4210228.743620396,-2.71054,-1.0107,0.752513,34.625,-55.125,-61.0,0.0,0.0,0.0,0.0,0.0,0.0,2,0,41.54610043934406,-91.84171565441726,10997.37719089065,155.95302067025585,-0.0006643500969966,0.0024895262213429,,10029.28805283672,11950.90527396306,150,10,2025-09-16,2025-09-26 20:18:37.131,AA,C,326198380,HAWK11,1,1,73,2,1,1,225,2,1,0,0,12,1,225,2,1,-152461.65857108062,-4787694.481416549,4202792.388151646,2.84266,2.18247,-0.785015,-46.875,68.875,78.0,-0.125,-7.0625,7.42188,-0.0390625,0.00195312,0.0078125,4,0,41.45406939492952,-91.82393814544784,12102.351587814768,-25.140461497694453,2.510648688897458,9.624258089975497,177.22,10029.28805283672,11950.90527396306,150,True,5.579270408799869,False,178.46365827009944,164.09720252990797,False,17.372372452245337,True,False
10,1970-07-23 11:28:59.182399211,2025-09-16,2025-09-26 20:18:38.239,AA,C,2419672328,JASSM,3,113,76,2,2,1,225,9,2,0,1,26,0,0,0,0,-153683.19665701812,-4780682.456025924,4210161.638151646,-2.71054,-1.0107,0.752513,34.625,-55.125,-61.0,0.0,0.0,0.0,0.0,0.0,0.0,2,0,41.545293574552616,-91.84123654164183,10997.374249878974,155.95333842608335,0.0002186047887294,0.0024882032060413,,10029.28805283672,11950.90527396306,150,10,2025-09-16,2025-09-26 20:18:38.225,AA,C,327510678,HAWK11,1,1,73,2,1,1,225,2,1,0,0,12,1,225,2,1,-152512.24939139312,-4787618.356416549,4202878.030729771,2.89117,2.16943,-0.792876,-45.125,69.625,79.125,-0.078125,-7.07812,7.4375,-0.0078125,0.0,0.0234375,4,0,41.45509068022082,-91.82457195880714,12105.236619573125,-24.4681253455302,2.6799895106278453,11.904117946533049,177.905,10029.28805283672,11950.90527396306,150,False,5.463664853286858,False,179.22376736124482,163.73892925705832,False,16.678887615221885,True,False
10,1970-07-23 11:28:59.192436747,2025-09-16,2025-09-26 20:18:39.243,AA,C,2420926366,JASSM,3,113,76,2,2,1,225,9,2,0,1,26,0,0,0,0,-153646.76989920562,-4780740.559541549,4210097.423307896,-2.71054,-1.0107,0.752609,34.625,-55.125,-61.0,0.0,0.0,0.0,0.0,0.0,0.0,2,0,41.54452146271443,-91.8407780657857,10997.376682641505,155.9559381676108,-0.0039288284196073,0.0024868876591384,,10029.28805283672,11950.90527396306,150,10,2025-09-16,2025-09-26 20:18:39.225,AA,C,328743444,HAWK11,1,1,73,2,1,1,225,2,1,0,0,12,1,225,2,1,-152558.30017264312,-4787545.098604049,4202960.677214146,2.93997,2.13425,-0.801409,-43.125,70.5,80.25,-0.078125,-6.9375,7.40625,0.119141,0.0117188,0.0351562,4,0,41.45607554401813,-91.8251504209366,12108.3129232269,-22.985297403743807,2.514150022295655,13.325093784875918,179.163,10029.28805283672,11950.90527396306,150,False,5.352956909507722,False,178.8685232398026,163.3955274620765,False,15.847333571520462,True,False
10,1970-07-23 11:28:59.203898772,2025-09-16,2025-09-26 20:18:40.389,AA,C,2422237190,JASSM,3,113,76,2,2,1,225,9,2,0,1,26,0,0,0,0,-153608.69470389312,-4780801.291963424,4210030.300261021,-2.71054,-1.0107,0.752609,34.625,-55.125,-61.0,0.0,0.0,0.0,0.0,0.0,0.0,2,0,41.54371439571921,-91.84029885414692,10997.37799302891,155.9562559791946,-0.0030456550925834,0.0024856027901097,,10029.28805283672,11950.90527396306,150,10,2025-09-16,2025-09-26 20:18:40.333,AA,C,330055742,HAWK11,1,1,73,2,1,1,225,2,1,0,0,12,1,225,2,1,-152604.69275076812,-4787466.055635299,4203049.757292271,3.06365,2.10357,-0.800546,-40.375,72.0,81.5,-0.3125,-6.70312,7.0625,0.0332031,-0.00195312,0.0136719,4,0,41.45713817685712,-91.82573519153708,12111.180347552265,-21.88985857455019,1.9673944545882511,19.191909224386244,179.457,10029.28805283672,11950.90527396306,150,False,5.235582065352304,False,177.45881680420976,163.03347003160422,False,14.588855227045388,True,False
10,1970-07-23 11:28:59.214216959,2025-09-16,2025-09-26 20:18:41.421,AA,C,2423491446,JASSM,3,113,76,2,2,1,225,9,2,0,1,26,0,0,0,0,-153572.26208670562,-4780859.401338424,4209966.071745396,-2.71054,-1.0107,0.752609,34.625,-55.125,-61.0,0.0,0.0,0.0,0.0,0.0,0.0,2,0,41.54294215401717,-91.83984032819868,10997.373894017795,155.95656006734788,-0.0022005916527552,0.0024843766516427,,10029.28805283672,11950.90527396306,150,10,2025-09-16,2025-09-26 20:18:41.340,AA,C,331208974,HAWK11,1,1,73,2,1,1,225,2,1,0,0,12,1,225,2,1,-152642.19372733062,-4787395.793916549,4203127.905729771,3.07812,2.05256,-0.806011,-37.625,73.5,82.125,0.015625,-6.5625,6.85938,-0.00195312,0.00390625,0.0429688,4,0,41.45807648143085,-91.82621032638954,12111.194530147211,-19.89606780619288,1.4763311685925948,17.97803590910473,179.958,10029.28805283672,11950.90527396306,150,False,5.1285973185185085,False,176.0030955146199,162.70807884615652,False,13.360197006511562,True,False
10,1970-07-23 11:28:59.224265548,2025-09-16,2025-09-26 20:18:42.426,AA,C,2424744640,JASSM,3,113,76,2,2,1,225,9,2,0,1,26,0,0,0,0,-153535.86071951812,-4780917.461885299,4209901.897917271,-2.71054,-1.0107,0.752609,34.625,-55.125,-61.0,0.0,0.0,0.0,0.0,0.0,0.0,2,0,41.54217056399556,-91.83938220605631,10997.37595108882,155.95686388306518,-0.0013562448147381,0.0024831482381092,,10029.28805283672,11950.90527396306,150,10,2025-09-16,2025-09-26 20:18:42.428,AA,C,332521272,HAWK11,1,1,73,2,1,1,225,2,1,0,0,12,1,225,2,1,-152682.14489920562,-4787313.278291549,4203219.102995396,3.10957,2.00731,-0.814736,-34.625,74.875,83.375,-0.109375,-6.875,7.34375,-0.00976562,0.0,0.0195312,4,0,41.459175288763966,-91.82671944222976,12109.637723893418,-18.047609775984665,1.3134240831786252,17.946055903251484,181.326,10029.28805283672,11950.90527396306,150,False,5.012080512702889,False,174.33003354857496,162.36403243198274,False,12.029611018388684,True,False
10,1970-07-23 11:28:59.235276916,2025-09-16,2025-09-26 20:18:43.527,AA,C,2426055658,JASSM,3,113,76,2,2,1,225,9,2,0,1,26,0,0,0,0,-153497.77868826812,-4780978.200166549,4209834.761198521,-2.71054,-1.0107,0.752609,34.625,-55.125,-61.0,0.0,0.0,0.0,0.0,0.0,0.0,2,0,41.5413633651256,-91.83890294504008,10997.375823792789,155.95718171261956,-0.0004729306635794,0.0024818695698438,,10029.28805283672,11950.90527396306,150,10,2025-09-16,2025-09-26 20:18:43.631,AA,C,333992638,HAWK11,1,1,73,2,1,1,225,2,1,0,0,12,1,225,2,1,-152723.16638358062,-4787219.600557174,4203322.622526646,2.97842,1.97356,-0.823077,-31.75,76.125,84.5,0.0,-7.0625,7.39062,-0.130859,0.0,0.0234375,4,0,41.460423459314775,-91.82724562989532,12107.51006431396,-16.643279977146996,1.3343607637406316,9.051495731673876,181.827,10029.28805283672,11950.90527396306,150,True,4.884529970199904,False,172.75943741635692,161.99716714504652,False,10.82972526500032,True,False
