Subject_cm,Timestamp,SampleDate_cm,SampleTime_cm,Configuration_cm,Scenario_cm,DisTime_cm,MarkingTxt_cm,Application_cm,EntId_cm,Site_cm,ExerciseId_cm,ForceId_cm,Category_cm,Country_cm,Domain_cm,Kind_cm,Extra_cm,Specific_cm,Subcategory_cm,AltCategory_cm,AltCountry_cm,AltDomain_cm,AltKind_cm,ECEF_X_cm,ECEF_Y_cm,ECEF_Z_cm,OriPhi_cm,OriPsi_cm,OriTheta_cm,LinVelX_cm,LinVelY_cm,LinVelZ_cm,LinAccX_cm,LinAccY_cm,LinAccZ_cm,AngVelX_cm,AngVelY_cm,AngVelZ_cm,DrAlg_cm,Appearance_cm,Latitude_cm,Longitude_cm,Altitude_cm,Heading_cm,Pitch_cm,Roll_cm,CalibratedAirspeed_cm,CM_Altitude_Lead_cm,CM_Altitude_Wing_cm,CM_Airspeed_cm,Subject_ac,SampleDate_ac,SampleTime_ac,Configuration_ac,Scenario_ac,DisTime_ac,MarkingTxt_ac,Application_ac,EntId_ac,Site_ac,ExerciseId_ac,ForceId_ac,Category_ac,Country_ac,Domain_ac,Kind_ac,Extra_ac,Specific_ac,Subcategory_ac,AltCategory_ac,AltCountry_ac,AltDomain_ac,AltKind_ac,ECEF_X_ac,ECEF_Y_ac,ECEF_Z_ac,OriPhi_ac,OriPsi_ac,OriTheta_ac,LinVelX_ac,LinVelY_ac,LinVelZ_ac,LinAccX_ac,LinAccY_ac,LinAccZ_ac,AngVelX_ac,AngVelY_ac,AngVelZ_ac,DrAlg_ac,Appearance_ac,Latitude_ac,Longitude_ac,Altitude_ac,Heading_ac,Pitch_ac,Roll_ac,CalibratedAirspeed_ac,CM_Altitude_Lead_ac,CM_Altitude_Wing_ac,CM_Airspeed_ac,Bank_Angle_Condition,distance_nm,Distance_Condition,angle_between_vel,angle_between_pos,Cone_Condition,angle_between_pos_nose,Nose_Cone_Condition,Intercept_Criteria
10,1970-07-23 11:28:58.602259820,2025-09-16,2025-09-26 20:17:40.225,AA,C,2350536624,JASSM,3,116,76,2,2,1,225,9,2,0,1,26,0,0,0,0,-180563.29821951807,-4778218.774385299,4211879.519011021,-2.36693,-0.400848,0.381002,77.125,-32.625,-33.5,0.0,0.0,0.0,0.0,0.0,0.0,2,0,41.56595239626292,-92.1641107650997,10997.376699388811,119.7988596813164,-0.0027626973531377,0.0045527602576713,,10029.28805283672,11950.90527396306,150,10,2025-09-16,2025-09-26 20:17:40.251,AA,C,943623692,AMBUSH51,1,1,48,2,1,1,225,2,1,0,0,9,1,225,2,1,-148213.962291504,-4791695.581350136,4197456.1912162565,2.32161,2.71583,-0.449044,-77.7641,42.8068,46.0649,-0.121649,-6.48782,6.86879,-0.00326133,-0.00872706,-0.00932627,4,0,41.39504349767093,-91.7716751104286,10029.28805283672,-56.28952072036619,1.552655646732531,-3.1372511420917357,161.126,10029.28805283672,11950.90527396306,150,True,20.384202878344418,False,172.23006410063002,179.36304528525463,False,7.569545930990839,True,False
10,1970-07-23 11:28:58.612403324,2025-09-16,2025-09-26 20:17:41.240,AA,C,2351670674,JASSM,3,116,76,2,2,1,225,9,2,0,1,26,0,0,0,0,-180489.91150076807,-4778249.883760299,4211847.585417271,-2.36693,-0.400848,0.381098,77.125,-32.625,-33.5,0.0,0.0,0.0,0.0,0.0,0.0,2,0,41.56556831873469,-92.1632179662318,10997.37346805687,119.80329405560909,-0.0059182183563808,0.004551166817625,,10029.28805283672,11950.90527396306,150,10,2025-09-16,2025-09-26 20:17:41.051,AA,C,944578090,AMBUSH51,1,1,48,2,1,1,225,2,1,0,0,9,1,225,2,1,-148276.33228043412,-4791661.090577397,4197492.787703803,2.32418,2.71572,-0.44427,-78.2073,43.0328,45.7885,-0.11445,-6.68009,6.46327,0.00511098,-0.00852108,-0.014147,4,0,41.39548425042325,-91.77243292433812,10028.582120446898,-56.47542931105554,1.3521341614451636,-2.997475967017838,161.737,10029.28805283672,11950.90527396306,150,True,20.29535760270503,False,172.42597705882167,179.3652985519761,False,7.404919199510432,True,False
10,1970-07-23 11:28:58.622443626,2025-09-16,2025-09-26 20:17:42.244,AA,C,2352922060,JASSM,3,116,76,2,2,1,225,9,2,0,1,26,0,0,0,0,-180408.93103201807,-4778284.213838424,4211812.347136021,-2.36693,-0.400848,0.381098,77.125,-32.625,-33.5,0.0,0.0,0.0,0.0,0.0,0.0,2,0,41.56514447839888,-92.1622327958128,10997.3775858961,119.80394769064362,-0.0050679473459512,0.0045497480001132,,10029.28805283672,11950.90527396306,150,10,2025-09-16,2025-09-26 20:17:42.352,AA,C,946128988,AMBUSH51,1,1,48,2,1,1,225,2,1,0,0,9,1,225,2,1,-148378.62133754572,-4791604.566782141,4197551.967741504,2.30986,2.7256,-0.437089,-78.5907,43.0056,45.3376,0.00717519,-7.08973,6.39961,-0.0182458,-0.00134719,-0.00772421,4,0,41.39620117055826,-91.773675773411,10025.714269039234,-57.13065018513555,1.4124311973775787,-3.592080499928079,162.25,10029.28805283672,11950.90527396306,150,True,20.174586320151004,False,172.72685857408064,179.36798527134138,False,7.14261440406697,True,False
10,1970-07-23 11:28:58.632462741,2025-09-16,2025-09-26 20:17:43.246,AA,C,2354056750,JASSM,3,116,76,2,2,1,225,9,2,0,1,26,0,0,0,0,-180335.50232108065,-4778315.340791549,4211780.394011021,-2.36693,-0.400848,0.381098,77.125,-32.625,-33.5,0.0,0.0,0.0,0.0,0.0,0.0,2,0,41.564760159308655,-92.16133950844149,10997.379041267945,119.80454035892582,-0.0042969698658168,0.0045484644159332,,10029.28805283672,11950.90527396306,150,10,2025-09-16,2025-09-26 20:17:43.184,AA,C,947123154,AMBUSH51,1,1,48,2,1,1,225,2,1,0,0,9,1,225,2,1,-148444.22524903322,-4791568.620763101,4197589.440640232,2.30221,2.72994,-0.436134,-78.8403,42.8737,44.9573,-0.191357,-7.34592,6.8015,-0.0115483,-0.000275679,-0.00107671,4,0,41.396655887288624,-91.77447278600032,10023.585052397157,-57.331320685814106,1.530921285403249,-3.930485674985523,162.25,10029.28805283672,11950.90527396306,150,True,20.083774696515484,False,172.98364121816488,179.3684799772112,False,6.909642369642793,True,False
10,1970-07-23 11:28:58.642241159,2025-09-16,2025-09-26 20:17:44.224,AA,C,2355247804,JASSM,3,116,76,2,2,1,225,9,2,0,1,26,0,0,0,0,-180258.4261492056,-4778348.010713424,4211746.852995396,-2.36693,-0.400848,0.381098,77.125,-32.625,-33.5,0.0,0.0,0.0,0.0,0.0,0.0,2,0,41.56435675694704,-92.16040186120294,10997.37530842428,119.805162453753,-0.0034877034291609,0.0045471292501192,,10029.28805283672,11950.90527396306,150,10,2025-09-16,2025-09-26 20:17:44.317,AA,C,948475220,AMBUSH51,1,1,48,2,1,1,225,2,1,0,0,9,1,225,2,1,-148532.98300307005,-4791520.814425991,4197639.413891153,2.30565,2.74273,-0.433245,-79.0335,42.1434,44.6164,-0.142656,-7.37051,6.76213,0.0286633,0.00378564,-0.0112654,4,0,41.397261270165934,-91.77555080328992,10021.169454986157,-57.92352764453912,1.8777762757033492,-3.442425745617507,162.385,10029.28805283672,11950.90527396306,150,True,19.97522277965145,False,173.37926768877583,179.3689279318065,False,6.5179325588193295,True,False
10,1970-07-23 11:28:58.652701707,2025-09-16,2025-09-26 20:17:45.270,AA,C,2356442558,JASSM,3,116,76,2,2,1,225,9,2,0,1,26,0,0,0,0,-180181.11071951807,-4778380.784150924,4211713.206511021,-2.36693,-0.400848,0.381098,77.125,-32.625,-33.5,0.0,0.0,0.0,0.0,0.0,0.0,2,0,41.56395207299969,-92.15946131411349,10997.377978044637,119.8057864675452,-0.0026759134566351,0.0045457714779274,,10029.28805283672,11950.90527396306,150,10,2025-09-16,2025-09-26 20:17:45.152,AA,C,949469386,AMBUSH51,1,1,48,2,1,1,225,2,1,0,0,9,1,225,2,1,-148598.88844089664,-4791485.701684016,4197676.371833084,2.32829,2.75186,-0.430336,-79.1148,41.8582,44.4113,-0.133155,-7.44974,6.98917,0.0520846,-0.00369826,-0.0120227,4,0,41.39770748520176,-91.77635113567422,10020.004226621351,-58.379870844525776,2.09314709810802,-1.9419646393564856,162.152,10029.28805283672,11950.90527396306,150,True,19.882096270593753,False,173.56083492255087,179.36866583485443,False,6.346618489008852,True,False
10,1970-07-23 11:28:58.662402803,2025-09-16,2025-09-26 20:17:46.240,AA,C,2357635054,JASSM,3,116,76,2,2,1,225,9,2,0,1,26,0,0,0,0,-180103.94177420562,-4778413.493135299,4211679.622526646,-2.36693,-0.400848,0.381098,77.125,-32.625,-33.5,0.0,0.0,0.0,0.0,0.0,0.0,2,0,41.56354815375602,-92.15852256178458,10997.376331986934,119.80640928561289,-0.0018656649840806,0.0045444207737511,,10029.28805283672,11950.90527396306,150,10,2025-09-16,2025-09-26 20:17:46.451,AA,C,951020284,AMBUSH51,1,1,48,2,1,1,225,2,1,0,0,9,1,225,2,1,-148702.1559299545,-4791431.406295663,4197734.131377561,2.42884,2.75419,-0.439363,-78.7905,41.2913,44.8159,-0.16101,-7.42505,6.831,0.0888736,0.00597027,0.00647169,4,0,41.39840133725292,-91.77760493379844,10019.638417118009,-58.10275438303538,2.547094263528228,3.8864948405686985,161.554,10029.28805283672,11950.90527396306,150,True,19.763999103807933,False,173.44848645799618,179.36904927808922,False,6.442840278644875,True,False
10,1970-07-23 11:28:58.671443147,2025-09-16,2025-09-26 20:17:47.144,AA,C,2358768528,JASSM,3,116,76,2,2,1,225,9,2,0,1,26,0,0,0,0,-180030.59118826812,-4778444.582979049,4211647.700651646,-2.36693,-0.400752,0.381098,77.125,-32.625,-33.5,0.0,0.0,0.0,0.0,0.0,0.0,2,0,41.56316421999059,-92.157630270554,10997.377750857531,119.80335695268045,-0.0046619582649016,0.0025001908511605,,10029.28805283672,11950.90527396306,150,10,2025-09-16,2025-09-26 20:17:47.284,AA,C,952014450,AMBUSH51,1,1,48,2,1,1,225,2,1,0,0,9,1,225,2,1,-148767.54517064875,-4791396.688769548,4197771.523344958,2.47746,2.74527,-0.447366,-78.1701,41.6425,45.2512,-0.122463,-7.27598,6.64627,0.042414,0.000579446,0.0108243,4,0,41.39884821242499,-91.77839898102516,10020.356747067786,-57.45178951245976,2.549643764603025,6.481794990314322,160.955,10029.28805283672,11950.90527396306,150,True,19.673592238854386,False,172.9765066200324,179.36896147204212,False,6.931293086349928,True,False
10,1970-07-23 11:28:58.681223632,2025-09-16,2025-09-26 20:17:48.122,AA,C,2359902108,JASSM,3,116,76,2,2,1,225,9,2,0,1,26,0,0,0,0,-179957.23474295562,-4778475.674775924,4211615.772917271,-2.36693,-0.400752,0.381098,77.125,-32.625,-33.5,0.0,0.0,0.0,0.0,0.0,0.0,2,0,41.5627802294865,-92.15673791884988,10997.374450727497,119.80394897709805,-0.0038917338353,0.002498846652966,,10029.28805283672,11950.90527396306,150,10,2025-09-16,2025-09-26 20:17:48.152,AA,C,953048382,AMBUSH51,1,1,48,2,1,1,225,2,1,0,0,9,1,225,2,1,-148834.956013782,-4791360.220018111,4197810.846659342,2.4738,2.73099,-0.457574,-77.4412,42.0496,45.8498,-0.15067,-7.1797,6.59024,-0.045591,-0.000569043,0.0236449,4,0,41.39931816413405,-91.7792178402574,10021.115665523314,-56.51641238217792,2.453832858317036,5.954673109775327,160.527,10029.28805283672,11950.90527396306,150,True,19.581524336349673,False,172.38879836473777,179.3686411174141,False,7.5346503035179175,True,False
10,1970-07-23 11:28:58.691264837,2025-09-16,2025-09-26 20:17:49.126,AA,C,2361153210,JASSM,3,116,76,2,2,1,225,9,2,0,1,26,0,0,0,0,-179876.27282889312,-4778509.989229049,4211580.536589146,-2.36693,-0.400752,0.381098,77.125,-32.625,-33.5,0.0,0.0,0.0,0.0,0.0,0.0,2,0,41.56235643563481,-92.15575306233742,10997.376549017488,119.80460236795916,-0.0030416621220411,0.0024973769550194,,10029.28805283672,11950.90527396306,150,10,2025-09-16,2025-09-26 20:17:48.984,AA,C,954042548,AMBUSH51,1,1,48,2,1,1,225,2,1,0,0,9,1,225,2,1,-148899.26621426368,-4791324.852548745,4197849.04011485,2.39418,2.72427,-0.46303,-76.9076,42.517,46.0078,-0.111475,-7.38883,6.63333,-0.128738,-0.0103,-0.000868648,4,0,41.39977450451676,-91.77999925991878,10021.898926117865,-56.05141906815341,2.4388120646072755,1.2420850311125444,160.344,10029.28805283672,11950.90527396306,150,True,19.486539679403762,False,172.0177896068412,179.3677484075604,False,7.936486451156129,True,False
10,1970-07-23 11:28:58.701409425,2025-09-16,2025-09-26 20:17:50.140,AA,C,2362286604,JASSM,3,116,76,2,2,1,225,9,2,0,1,26,0,0,0,0,-179802.92907889312,-4778541.073213424,4211548.614714146,-2.36693,-0.400752,0.381098,77.125,-32.625,-33.5,0.0,0.0,0.0,0.0,0.0,0.0,2,0,41.56197251372205,-92.1548608883841,10997.37597290218,119.8051942649995,-0.002271579921199,0.0024960470575787,,10029.28805283672,11950.90527396306,150,10,2025-09-16,2025-09-26 20:17:50.250,AA,C,955553678,AMBUSH51,1,1,48,2,1,1,225,2,1,0,0,9,1,225,2,1,-148995.95066419776,-4791271.335571485,4197906.914205086,2.29686,2.72654,-0.455526,-76.736,42.4864,45.6679,-0.145018,-7.0013,6.52248,-0.0505595,0.000469174,-0.0118251,4,0,41.400465677039776,-91.78117420097536,10023.21836611836,-56.435195127738325,2.2120245164230488,-4.29226540761864,160.295,10029.28805283672,11950.90527396306,150,True,19.374000761221012,False,172.08715670084192,179.36650900001948,False,7.904077187746917,True,False
10,1970-07-23 11:28:58.710463034,2025-09-16,2025-09-26 20:17:51.046,AA,C,2363420010,JASSM,3,116,76,2,2,1,225,9,2,0,1,26,0,0,0,0,-179729.58239920562,-4778572.157197799,4211516.690886021,-2.36693,-0.400752,0.381194,77.125,-32.625,-33.5,0.0,0.0,0.0,0.0,0.0,0.0,2,0,41.56158857236761,-92.15396868991454,10997.3746595112,119.8096283354853,-0.00542738466684,0.0024944870163638,,10029.28805283672,11950.90527396306,150,10,2025-09-16,2025-09-26 20:17:51.117,AA,C,956587612,AMBUSH51,1,1,48,2,1,1,225,2,1,0,0,9,1,225,2,1,-149062.51047005932,-4791234.681334354,4197946.178703473,2.25611,2.73669,-0.446676,-76.9445,42.0754,45.133,-0.119829,-7.2144,6.43844,-0.0218618,0.0062241,-0.0193839,4,0,41.40093647262609,-91.78198300198,10023.341295113594,-57.1651952190057,2.2146448170022963,-6.401661665755771,159.965,10029.28805283672,11950.90527396306,150,True,19.282310117011317,False,172.4680556921043,179.36410664105844,False,7.5433010695722365,True,False
10,1970-07-23 11:28:58.720222658,2025-09-16,2025-09-26 20:17:52.022,AA,C,2364613046,JASSM,3,116,76,2,2,1,225,9,2,0,1,26,0,0,0,0,-179652.37732108062,-4778604.875947799,4211483.087370396,-2.36693,-0.400752,0.381194,77.125,-32.625,-33.5,0.0,0.0,0.0,0.0,0.0,0.0,2,0,41.56118442644917,-92.15302956898168,10997.375638237148,119.810251369181,-0.0046167618158679,0.0024931438448612,,10029.28805283672,11950.90527396306,150,10,2025-09-16,2025-09-26 20:17:51.951,AA,C,957581776,AMBUSH51,1,1,48,2,1,1,225,2,1,0,0,9,1,225,2,1,-149126.8253506829,-4791199.744522369,4197983.471673772,2.24478,2.74443,-0.439735,-77.3003,41.6916,44.4009,-0.105629,-7.22908,6.58718,0.0271341,-0.00451385,-0.0171951,4,0,41.40138415236218,-91.78276435595546,10023.242888453637,-57.73061864925547,2.211659463301177,-6.882464336305566,159.635,10029.28805283672,11950.90527396306,150,True,19.189955117935874,False,172.96838271631003,179.36107503901272,False,7.069494541979384,True,False
10,1970-07-23 11:28:58.730262231,2025-09-16,2025-09-26 20:17:53.026,AA,C,2365806512,JASSM,3,116,76,2,2,1,225,9,2,0,1,26,0,0,0,0,-179575.14489920562,-4778637.606416549,4211449.470182896,-2.36693,-0.400752,0.381194,77.125,-32.625,-33.5,0.0,0.0,0.0,0.0,0.0,0.0,2,0,41.56078011699026,-92.15209012709016,10997.377279748238,119.81087461083034,-0.0038058454566762,0.0024917891652772,,10029.28805283672,11950.90527396306,150,10,2025-09-16,2025-09-26 20:17:53.051,AA,C,958894076,AMBUSH51,1,1,48,2,1,1,225,2,1,0,0,9,1,225,2,1,-149212.3957880221,-4791153.965337867,4198032.243729286,2.29633,2.75696,-0.427046,-77.547,41.1142,43.7754,-0.212098,-7.18001,6.44523,0.0505262,2.8088e-05,-0.0157782,4,0,41.40196987996097,-91.78380369592014,10023.013418422706,-58.70623639638967,2.152855376573384,-3.6647643223146975,159.11,10029.28805283672,11950.90527396306,150,True,19.083412676571353,False,173.44697009358322,179.35693646379661,False,6.611048122400585,True,False
10,1970-07-23 11:28:58.740403361,2025-09-16,2025-09-26 20:17:54.040,AA,C,2366940778,JASSM,3,116,76,2,2,1,225,9,2,0,1,26,0,0,0,0,-179501.74353201812,-4778668.709932174,4211417.520964146,-2.36693,-0.400752,0.381194,77.125,-32.625,-33.5,0.0,0.0,0.0,0.0,0.0,0.0,2,0,41.56039587882401,-92.15119729786474,10997.37532995042,119.81146692423204,-0.0030351663342008,0.0024905210200423,,10029.28805283672,11950.90527396306,150,10,2025-09-16,2025-09-26 20:17:54.117,AA,C,960166608,AMBUSH51,1,1,48,2,1,1,225,2,1,0,0,9,1,225,2,1,-149295.50729737728,-4791109.80710564,4198078.797103916,2.335,2.75961,-0.426357,-77.6263,40.8888,43.4592,-0.237821,-7.2685,6.78484,0.0320734,0.00395417,0.0100129,4,0,41.40253143369376,-91.78481307387788,10021.774583651131,-58.83299138099739,2.223214571819774,-1.3909851846517594,158.633,10029.28805283672,11950.90527396306,150,True,18.981171481370748,False,173.65521212991376,179.35188921328492,False,6.424905752701199,True,False
10,1970-07-23 11:28:58.749463409,2025-09-16,2025-09-26 20:17:54.946,AA,C,2368075146,JASSM,3,116,76,2,2,1,225,9,2,0,1,26,0,0,0,0,-179428.33532889312,-4778699.817354049,4211385.565886021,-2.36693,-0.400752,0.381194,77.125,-32.625,-33.5,0.0,0.0,0.0,0.0,0.0,0.0,2,0,41.56001157247237,-92.15030439561424,10997.373370264942,119.81205928158244,-0.0022644024427318,0.0024892308204633,,10029.28805283672,11950.90527396306,150,10,2025-09-16,2025-09-26 20:17:55.017,AA,C,961240306,AMBUSH51,1,1,48,2,1,1,225,2,1,0,0,9,1,225,2,1,-149364.73526061297,-4791073.512696784,4198117.310380489,2.36763,2.75799,-0.428346,-77.5682,40.7449,43.4246,-0.172188,-7.13965,6.71126,0.0282534,0.00718741,-0.0119374,4,0,41.40299449697771,-91.78565366991104,10021.373948185375,-58.693365740343125,2.245555271675798,0.4458207503141764,158.78,10029.28805283672,11950.90527396306,150,True,18.888441988448506,False,173.6878158985115,179.34735130454948,False,6.403283878122405,True,False
10,1970-07-23 11:28:58.759244175,2025-09-16,2025-09-26 20:17:55.924,AA,C,2369267776,JASSM,3,116,76,2,2,1,225,9,2,0,1,26,0,0,0,0,-179351.15661795562,-4778732.520479049,4211351.970182896,-2.36693,-0.400657,0.381194,77.125,-32.625,-33.5,0.0,0.0,0.0,0.0,0.0,0.0,2,0,41.55960753643568,-92.14936564305717,10997.371810278191,119.8090379978041,-0.005020499032427,0.0004444712708844,,10029.28805283672,11950.90527396306,150,10,2025-09-16,2025-09-26 20:17:55.850,AA,C,962234472,AMBUSH51,1,1,48,2,1,1,225,2,1,0,0,9,1,225,2,1,-149430.32054162247,-4791039.278628509,4198153.669886407,2.37653,2.75797,-0.425527,-77.4544,40.8848,43.2697,-0.313145,-7.14211,6.56914,-0.00873538,-0.00510058,0.0013243,4,0,41.40343143399396,-91.7864499898415,10021.092249124462,-58.80677590627892,2.130625467267694,0.950274175136578,158.45,10029.28805283672,11950.90527396306,150,True,18.795847559753874,False,173.66479657481423,179.34259918120148,False,6.453797243430019,True,False
10,1970-07-23 11:28:58.769268854,2025-09-16,2025-09-26 20:17:56.926,AA,C,2370461078,JASSM,3,116,76,2,2,1,225,9,2,0,1,26,0,0,0,0,-179273.93493826812,-4778765.243135299,4211318.354948521,-2.36693,-0.400657,0.381194,77.125,-32.625,-33.5,0.0,0.0,0.0,0.0,0.0,0.0,2,0,41.55920325428821,-92.14842637896486,10997.375891115067,119.8096611021695,-0.0042096968342194,0.0004430655047199,,10029.28805283672,11950.90527396306,150,10,2025-09-16,2025-09-26 20:17:57.117,AA,C,963745604,AMBUSH51,1,1,48,2,1,1,225,2,1,0,0,9,1,225,2,1,-149528.48828267306,-4790987.383775662,4198208.3517749375,2.34095,2.75514,-0.426551,-77.3199,40.8902,43.3144,-0.0206431,-7.12449,6.33041,-0.080131,-0.00869585,0.00463453,4,0,41.40409106583832,-91.78764218141863,10019.632166953344,-58.661495065046445,2.0696546194889462,-1.1497415176980967,158.205,10029.28805283672,11950.90527396306,150,True,18.681158996967483,False,173.59887331383777,179.33498564001854,False,6.541672515961376,True,False
10,1970-07-23 11:28:58.779402867,2025-09-16,2025-09-26 20:17:57.940,AA,C,2371653792,JASSM,3,116,76,2,2,1,225,9,2,0,1,26,0,0,0,0,-179196.75036795562,-4778797.946260299,4211284.755339146,-2.36693,-0.400657,0.381194,77.125,-32.625,-33.5,0.0,0.0,0.0,0.0,0.0,0.0,2,0,41.55879917787036,-92.1474875796502,10997.373673070064,119.81028389322675,-0.0033992948420866,0.0004416763559609,,10029.28805283672,11950.90527396306,150,10,2025-09-16,2025-09-26 20:17:58.017,AA,C,964819302,AMBUSH51,1,1,48,2,1,1,225,2,1,0,0,9,1,225,2,1,-149598.21394537136,-4790950.471398296,4198247.123572361,2.26585,2.75395,-0.423314,-77.5044,40.8748,42.9271,-0.0750577,-6.86644,6.46815,-0.0570197,0.006299,0.00017581,4,0,41.40455943747874,-91.7884889945884,10018.323879128542,-58.74836265718955,1.8948487949892991,-5.484070081104273,158.352,10029.28805283672,11950.90527396306,150,True,18.585658030370467,False,173.80974668279418,179.32842937135604,False,6.362837082558935,True,False
10,1970-07-23 11:28:58.789441371,2025-09-16,2025-09-26 20:17:58.944,AA,C,2372845066,JASSM,3,116,76,2,2,1,225,9,2,0,1,26,0,0,0,0,-179119.65954764312,-4778830.610322799,4211251.196745396,-2.36693,-0.400657,0.381194,77.125,-32.625,-33.5,0.0,0.0,0.0,0.0,0.0,0.0,2,0,41.55839558201882,-92.14654993199912,10997.3777044014,119.81090591531596,-0.0025898756621866,0.0004402867549291,,10029.28805283672,11950.90527396306,150,10,2025-09-16,2025-09-26 20:17:58.851,AA,C,965813468,AMBUSH51,1,1,48,2,1,1,225,2,1,0,0,9,1,225,2,1,-149662.9674892445,-4790916.582153282,4198282.540679392,2.2219,2.76624,-0.413487,-77.9228,40.6529,42.1581,-0.241395,-7.10602,6.91223,-0.030334,0.000914421,-0.0210359,4,0,41.40498809654298,-91.78927528681498,10016.793979961169,-59.602561489865,1.9496546795518508,-7.744913997608506,158.547,10029.28805283672,11950.90527396306,150,True,18.493759578791966,False,174.2984794081706,179.32190241805398,False,5.913290584886772,True,False
10,1970-07-23 11:28:58.799221876,2025-09-16,2025-09-26 20:17:59.922,AA,C,2374038114,JASSM,3,116,76,2,2,1,225,9,2,0,1,26,0,0,0,0,-179042.45446951812,-4778863.321260299,4211217.585417271,-2.36684,-0.400657,0.381194,77.125,-32.625,-33.5,0.0,0.0,0.0,0.0,0.0,0.0,2,0,41.55799136929033,-92.14561090702512,10997.375639107971,119.81152884612898,-0.0017792517443047,0.0059303573453573,,10029.28805283672,11950.90527396306,150,10,2025-09-16,2025-09-26 20:17:59.751,AA,C,966887168,AMBUSH51,1,1,48,2,1,1,225,2,1,0,0,9,1,225,2,1,-149733.4412164925,-4790880.199285836,4198320.180166528,2.20849,2.77879,-0.398764,-78.5427,40.1463,41.3719,-0.199026,-7.09979,6.73618,0.0295663,0.00691278,-0.00767427,4,0,41.40544552356917,-91.79013086348073,10014.396223198806,-60.66738737922393,1.8223825276226733,-8.264084501413159,158.401,10029.28805283672,11950.90527396306,150,True,18.398232512364636,False,174.95062088944485,179.31458707090954,False,5.291970252344612,True,False
10,1970-07-23 11:28:58.809507967,2025-09-16,2025-09-26 20:18:00.950,AA,C,2375171508,JASSM,3,116,76,2,2,1,225,9,2,0,1,26,0,0,0,0,-178969.10876639312,-4778894.397432174,4211185.653776646,-2.36684,-0.400657,0.38129,77.125,-32.625,-33.5,0.0,0.0,0.0,0.0,0.0,0.0,2,0,41.55760734968663,-92.14471883326564,10997.37748396394,119.81596292843818,-0.0049349247790453,0.0059288216165195,,10029.28805283672,11950.90527396306,150,10,2025-09-16,2025-09-26 20:18:00.950,AA,C,968318766,AMBUSH51,1,1,48,2,1,1,225,2,1,0,0,9,1,225,2,1,-149827.40197654287,-4790832.823231086,4198368.962089309,2.28734,2.79109,-0.391537,-79.1815,39.5065,40.6314,-0.270424,-7.13874,6.9241,0.0772702,0.000575284,-0.0149855,4,0,41.40603919046081,-91.7912711771608,10010.94857185604,-61.42062785074825,1.995103907630348,-3.5000584134483703,158.401,10029.28805283672,11950.90527396306,150,True,18.289976750807288,False,175.6367229319911,179.30562693217527,False,4.633233762563019,True,False
10,1970-07-23 11:28:58.820301017,2025-09-16,2025-09-26 20:18:02.030,AA,C,2376304902,JASSM,3,116,76,2,2,1,225,9,2,0,1,26,0,0,0,0,-178895.76501639312,-4778925.469697799,4211153.722136021,-2.36684,-0.400657,0.38129,77.125,-32.625,-33.5,0.0,0.0,0.0,0.0,0.0,0.0,2,0,41.55722334600337,-92.1438267952022,10997.373709342146,119.81655468003832,-0.0041648473316706,0.0059275472963785,,10029.28805283672,11950.90527396306,150,10,2025-09-16,2025-09-26 20:18:02.117,AA,C,969710598,AMBUSH51,1,1,48,2,1,1,225,2,1,0,0,9,1,225,2,1,-149920.77162532025,-4790786.332313728,4198416.832506121,2.38854,2.7875,-0.395773,-79.2833,39.221,40.8256,-0.0148839,-7.1779,6.68027,0.107247,-0.00100181,0.0116482,4,0,41.4066215374113,-91.79240411850294,10007.661452599768,-61.11496432328244,2.0311616257613934,2.229866640706009,158.499,10029.28805283672,11950.90527396306,150,True,18.182348375166733,False,175.6944119481521,179.29671044185523,False,4.563414799519246,True,False
10,1970-07-23 11:28:58.828444327,2025-09-16,2025-09-26 20:18:02.844,AA,C,2377498482,JASSM,3,116,76,2,2,1,225,9,2,0,1,26,0,0,0,0,-178818.52282889312,-4778958.194307174,4211120.093229771,-2.36684,-0.400657,0.38129,77.125,-32.625,-33.5,0.0,0.0,0.0,0.0,0.0,0.0,2,0,41.55681891930989,-92.14288735375033,10997.375682303862,119.81717787278572,-0.0033538354390177,0.0059262013733733,,10029.28805283672,11950.90527396306,150,10,2025-09-16,2025-09-26 20:18:03.017,AA,C,970784296,AMBUSH51,1,1,48,2,1,1,225,2,1,0,0,9,1,225,2,1,-149992.2092132142,-4790750.71496273,4198453.544922115,2.4457,2.78207,-0.399614,-79.0522,39.5646,41.2319,-0.22135,-7.01299,6.67916,0.0370689,-0.00154484,0.00936996,4,0,41.40706794968031,-91.79327096907338,10005.223384140412,-60.757022613646136,1.98260244830638,5.397088157155961,158.303,10029.28805283672,11950.90527396306,150,True,18.086689167125268,False,175.36110823139026,179.289092638687,False,4.905831380940112,True,False
10,1970-07-23 11:28:58.839462130,2025-09-16,2025-09-26 20:18:03.946,AA,C,2378812174,JASSM,3,116,76,2,2,1,225,9,2,0,1,26,0,0,0,0,-178733.51013358062,-4778994.207979049,4211083.079557896,-2.36684,-0.400657,0.38129,77.125,-32.625,-33.5,0.0,0.0,0.0,0.0,0.0,0.0,2,0,41.55637380503609,-92.1418534200599,10997.371574395074,119.81786374263584,-0.0024612403097126,0.0059247250253908,,10029.28805283672,11950.90527396306,150,10,2025-09-16,2025-09-26 20:18:03.850,AA,C,971778462,AMBUSH51,1,1,48,2,1,1,225,2,1,0,0,9,1,225,2,1,-150058.01818715202,-4790717.202860176,4198488.026766121,2.46418,2.77678,-0.407945,-78.6431,40.1531,41.8003,-0.353746,-7.24883,6.88423,0.0144549,-0.002375,0.00342154,4,0,41.407487822799816,-91.79406979297336,10002.69322597944,-60.22222770551073,2.121920810868928,6.355874653036248,158.547,10029.28805283672,11950.90527396306,150,True,17.98958557951819,False,174.83322490147611,179.28090715707353,False,5.448294663228379,True,False
10,1970-07-23 11:28:58.849241246,2025-09-16,2025-09-26 20:18:04.924,AA,C,2380005682,JASSM,3,116,76,2,2,1,225,9,2,0,1,26,0,0,0,0,-178656.27478201812,-4779026.928682174,4211049.452604771,-2.36684,-0.400561,0.38129,77.125,-32.625,-33.5,0.0,0.0,0.0,0.0,0.0,0.0,2,0,41.55596939709149,-92.14091408680235,10997.377657991105,119.8148430675026,-0.0052167342279936,0.0038794842620199,,10029.28805283672,11950.90527396306,150,10,2025-09-16,2025-09-26 20:18:04.951,AA,C,973090760,AMBUSH51,1,1,48,2,1,1,225,2,1,0,0,9,1,225,2,1,-150143.4231572803,-4790672.782019963,4198534.064341825,2.45919,2.76486,-0.415182,-78.0049,40.9199,42.6211,-0.0423258,-7.10837,6.50792,-0.0319174,0.00505064,0.00231258,4,0,41.40804693995655,-91.79510684717287,9999.922958743708,-59.48645834210896,1.972537207962687,5.822661769558606,158.829,10029.28805283672,11950.90527396306,150,True,17.883940709414148,False,174.0823243380691,179.27017591267662,False,6.2161751005632935,True,False
10,1970-07-23 11:28:58.860259459,2025-09-16,2025-09-26 20:18:06.025,AA,C,2381258278,JASSM,3,116,76,2,2,1,225,9,2,0,1,26,0,0,0,0,-178575.21521170562,-4779061.266572799,4211014.157682896,-2.36684,-0.400561,0.38129,77.125,-32.625,-33.5,0.0,0.0,0.0,0.0,0.0,0.0,2,0,41.55554495461816,-92.13992825746,10997.374880776708,119.8154970161178,-0.004365640747069,0.0038780140034809,,10029.28805283672,11950.90527396306,150,10,2025-09-16,2025-09-26 20:18:06.017,AA,C,974363292,AMBUSH51,1,1,48,2,1,1,225,2,1,0,0,9,1,225,2,1,-150227.04439821973,-4790628.2301594205,4198580.200079583,2.40284,2.75899,-0.423485,-77.5075,41.3013,43.3549,-0.0348996,-7.16826,7.07367,-0.0392515,0.0084753,4.26522e-05,4,0,41.40860782276947,-91.79612265612576,9996.91174870088,-58.93353012782234,2.094013820223456,2.4766614609489945,159.024,10029.28805283672,11950.90527396306,150,True,17.776667988922334,False,173.53102784776297,179.25805269094133,False,6.7745062734775425,True,False
10,1970-07-23 11:28:58.870401925,2025-09-16,2025-09-26 20:18:07.040,AA,C,2382510740,JASSM,3,116,76,2,2,1,225,9,2,0,1,26,0,0,0,0,-178494.16443045562,-4779095.598604049,4210978.868620396,-2.36684,-0.400561,0.38129,77.125,-32.625,-33.5,0.0,0.0,0.0,0.0,0.0,0.0,2,0,41.55512057611421,-92.13894254886026,10997.375907596544,119.81615087915137,-0.0035146532463831,0.0038765664434261,,10029.28805283672,11950.90527396306,150,10,2025-09-16,2025-09-26 20:18:06.851,AA,C,975357458,AMBUSH51,1,1,48,2,1,1,225,2,1,0,0,9,1,225,2,1,-150291.73134778475,-4790593.911583364,4198616.164742076,2.36521,2.75883,-0.426181,-77.3643,41.3898,43.5258,-0.118496,-7.19031,6.8365,-0.0576085,-0.00278696,0.00523998,4,0,41.40904269283481,-91.7969084139297,9995.54162489288,-58.81946846150884,2.1987445145394973,0.321447483971588,159.44,10029.28805283672,11950.90527396306,150,True,17.682121977675237,False,173.39280614582734,179.2481646926772,False,6.927084133012458,True,False
10,1970-07-23 11:28:58.881421176,2025-09-16,2025-09-26 20:18:08.142,AA,C,2383763562,JASSM,3,116,76,2,2,1,225,9,2,0,1,26,0,0,0,0,-178413.09021170562,-4779129.942354049,4210943.565886021,-2.36684,-0.400561,0.38129,77.125,-32.625,-33.5,0.0,0.0,0.0,0.0,0.0,0.0,2,0,41.55469603237527,-92.1379565673232,10997.37840580832,119.81680491775008,-0.002663402160619,0.0038750891983269,,10029.28805283672,11950.90527396306,150,10,2025-09-16,2025-09-26 20:18:08.216,AA,C,976987890,AMBUSH51,1,1,48,2,1,1,225,2,1,0,0,9,1,225,2,1,-150397.1976450949,-4790537.492430836,4198675.50447483,2.28789,2.7651,-0.423563,-77.311,40.9873,43.4763,-0.141964,-7.26497,6.86901,-0.0430381,0.000866568,0.00363168,4,0,41.40975921160507,-91.79818971930402,9993.694168675733,-59.158241299564295,2.3244330603471437,-3.973874004544745,159.207,10029.28805283672,11950.90527396306,150,True,17.559862185924857,False,173.50852840729692,179.2322815560851,False,6.825115027500582,True,False
10,1970-07-23 11:28:58.891439758,2025-09-16,2025-09-26 20:18:09.143,AA,C,2385074738,JASSM,3,116,76,2,2,1,225,9,2,0,1,26,0,0,0,0,-178328.23962576812,-4779165.881807174,4210906.618620396,-2.36684,-0.400561,0.38129,77.125,-32.625,-33.5,0.0,0.0,0.0,0.0,0.0,0.0,2,0,41.55425172744353,-92.13692467522256,10997.375811879314,119.81748940467146,-0.001772512951255,0.0038735622009374,,10029.28805283672,11950.90527396306,150,10,2025-09-16,2025-09-26 20:18:09.151,AA,C,978101356,AMBUSH51,1,1,48,2,1,1,225,2,1,0,0,9,1,225,2,1,-150469.66574389228,-4790499.402244454,4198715.922204535,2.26147,2.77301,-0.415709,-77.5807,40.645,43.0072,-0.00477968,-7.15583,6.67016,-0.0189282,0.00080623,-0.0124846,4,0,41.41024511092132,-91.79906989354964,9993.321852377623,-59.77025392440059,2.2999687937455047,-5.327795859298844,159.44,10029.28805283672,11950.90527396306,150,True,17.457730187157612,False,173.87521132770976,179.2208556555837,False,6.482022475138436,True,False
10,1970-07-23 11:28:58.902458690,2025-09-16,2025-09-26 20:18:10.245,AA,C,2386328536,JASSM,3,116,76,2,2,1,225,9,2,0,1,26,0,0,0,0,-178247.10193045562,-4779200.248994674,4210871.286589146,-2.36684,-0.400561,0.381386,77.125,-32.625,-33.5,0.0,0.0,0.0,0.0,0.0,0.0,2,0,41.55382684336067,-92.13593794969285,10997.37571015493,119.82198636910124,-0.0048462410354876,0.0038718979625382,,10029.28805283672,11950.90527396306,150,10,2025-09-16,2025-09-26 20:18:10.417,AA,C,979612486,AMBUSH51,1,1,48,2,1,1,225,2,1,0,0,9,1,225,2,1,-150567.90890350594,-4790448.658709552,4198769.447429321,2.24915,2.78504,-0.402391,-78.0348,39.9753,42.2132,-0.146701,-7.32529,6.77056,0.00593698,0.0015386,-0.0177256,4,0,41.410889941114185,-91.80026280851386,9992.271662077852,-60.75858589999441,2.2121693003476426,-5.798620361089421,159.305,10029.28805283672,11950.90527396306,150,True,17.341013553329052,False,174.52365835680573,179.20642601298263,False,5.86070785928278,True,False
10,1970-07-23 11:28:58.913224122,2025-09-16,2025-09-26 20:18:11.322,AA,C,2387580262,JASSM,3,116,76,2,2,1,225,9,2,0,1,26,0,0,0,0,-178166.09900076812,-4779234.557588424,4210836.013151646,-2.36684,-0.400561,0.381386,77.125,-32.625,-33.5,0.0,0.0,0.0,0.0,0.0,0.0,2,0,41.553402664915886,-92.13495287663038,10997.376321588998,119.82263978846078,-0.0039957484715821,0.0038704935793428,,10029.28805283672,11950.90527396306,150,10,2025-09-16,2025-09-26 20:18:11.317,AA,C,980686186,AMBUSH51,1,1,48,2,1,1,225,2,1,0,0,9,1,225,2,1,-150638.54812173455,-4790412.962602541,4198807.205694306,2.28072,2.79043,-0.396612,-78.3874,39.4286,41.8034,-0.182594,-7.29745,6.6597,0.0752354,-0.00386679,-0.0150521,4,0,41.41134397168509,-91.80112026127496,9991.884404920753,-61.19516448788559,2.1830428617634072,-3.8865727598434057,159.354,10029.28805283672,11950.90527396306,150,True,17.243136427661277,False,174.9587521690281,179.1959126496055,False,5.432107208048117,True,False
10,1970-07-23 11:28:58.923258995,2025-09-16,2025-09-26 20:18:12.325,AA,C,2388774306,JASSM,3,116,76,2,2,1,225,9,2,0,1,26,0,0,0,0,-178088.82751639312,-4779267.284150924,4210802.362761021,-2.36684,-0.400561,0.381386,77.125,-32.625,-33.5,0.0,0.0,0.0,0.0,0.0,0.0,2,0,41.55299801564309,-92.13401319422184,10997.373301179628,119.82326309415431,-0.003184433256807,0.0038691510311177,,10029.28805283672,11950.90527396306,150,10,2025-09-16,2025-09-26 20:18:12.183,AA,C,981720118,AMBUSH51,1,1,48,2,1,1,225,2,1,0,0,9,1,225,2,1,-150706.51985586734,-4790378.901741616,4198843.300556354,2.32297,2.79807,-0.393181,-78.4405,38.9786,41.7683,-0.214045,-7.30543,6.73217,0.0497918,0.00353389,-0.0050548,4,0,41.41177753819486,-91.80194523814076,9991.706465727297,-61.61936649645549,2.334307184470793,-1.3143294767723697,158.975,10029.28805283672,11950.90527396306,150,True,17.14948115394345,False,175.11490096964792,179.18588328202657,False,5.265492087465301,True,False
10,1970-07-23 11:28:58.934293246,2025-09-16,2025-09-26 20:18:13.429,AA,C,2390086190,JASSM,3,116,76,2,2,1,225,9,2,0,1,26,0,0,0,0,-178003.93103201812,-4779303.239229049,4210765.392057896,-2.36684,-0.400561,0.381386,77.125,-32.5,-33.5,0.0,0.0,0.0,0.0,0.0,0.0,2,0,41.55255343435197,-92.13298079968226,10997.373199109968,119.82394789147264,-0.0022930626379872,0.0038676817802213,,10029.28805283672,11950.90527396306,150,10,2025-09-16,2025-09-26 20:18:13.351,AA,C,983111950,AMBUSH51,1,1,48,2,1,1,225,2,1,0,0,9,1,225,2,1,-150798.9336377345,-4790333.322122399,4198891.962390076,2.3787,2.79453,-0.401207,-78.3555,38.7432,41.8502,-0.174435,-7.54939,6.92645,0.0502432,0.0013243,0.0041331,4,0,41.412359879254566,-91.803066612872,9992.368741046994,-61.16059787546029,2.5239278790721924,1.8197269582069795,158.926,10029.28805283672,11950.90527396306,150,True,17.03505053503675,False,175.07678771244682,179.2470055489249,False,5.266456133957805,True,False
10,1970-07-23 11:28:58.944424324,2025-09-16,2025-09-26 20:18:14.442,AA,C,2391279524,JASSM,3,116,76,2,2,1,225,9,2,0,1,26,0,0,0,0,-177926.70642264312,-4779335.946260299,4210731.761198521,-2.36684,-0.400465,0.381386,77.125,-32.5,-33.5,0.0,0.0,0.0,0.0,0.0,0.0,2,0,41.55214900652995,-92.13204171174684,10997.377858503514,119.82092727487102,-0.0050486634896176,0.0018219397141173,,10029.28805283672,11950.90527396306,150,10,2025-09-16,2025-09-26 20:18:14.583,AA,C,984583316,AMBUSH51,1,1,48,2,1,1,225,2,1,0,0,9,1,225,2,1,-150894.81037539075,-4790285.732076295,4198943.299293945,2.4306,2.7901,-0.405235,-77.8031,38.8262,42.4215,-0.168241,-7.35166,6.5893,0.0304401,8.63447e-05,0.00127644,4,0,41.41297157776706,-91.80423014301527,9994.167222491667,-60.83253297248758,2.52001881348779,4.708268493195379,158.462,10029.28805283672,11950.90527396306,150,True,16.922930114296303,False,174.6317771666748,179.23399851415488,False,5.713172015767067,True,False
10,1970-07-23 11:28:58.954422248,2025-09-16,2025-09-26 20:18:15.442,AA,C,2392589986,JASSM,3,116,76,2,2,1,225,9,2,0,1,26,0,0,0,0,-177841.90173514312,-4779371.860322799,4210694.827604771,-2.36684,-0.400465,0.381386,77.125,-32.5,-33.5,0.0,0.0,0.0,0.0,0.0,0.0,2,0,41.55170488166555,-92.13101046144816,10997.375941815317,119.82161130182352,-0.00415825401748,0.0018204093162375,,10029.28805283672,11950.90527396306,150,10,2025-09-16,2025-09-26 20:18:15.383,AA,C,985537714,AMBUSH51,1,1,48,2,1,1,225,2,1,0,0,9,1,225,2,1,-150956.73240800857,-4790254.321253776,4198977.061517887,2.44736,2.78288,-0.410928,-77.2662,39.2482,42.7747,-0.0597604,-6.97797,6.62102,0.00673384,-4.47328e-05,0.00929298,4,0,41.413374744091335,-91.80498187504674,9994.988911601851,-60.33392436535249,2.4798164651883345,5.526097314806928,158.034,10029.28805283672,11950.90527396306,150,True,16.828300183421625,False,174.19418733180706,179.22326844480563,False,6.1768690662114825,True,False
10,1970-07-23 11:28:58.964701853,2025-09-16,2025-09-26 20:18:16.470,AA,C,2393783032,JASSM,3,116,76,2,2,1,225,9,2,0,1,26,0,0,0,0,-177764.69665701812,-4779404.555635299,4210661.204557896,-2.36684,-0.400465,0.381386,77.125,-32.5,-33.5,0.0,0.0,0.0,0.0,0.0,0.0,2,0,41.55130055587469,-92.13007163711194,10997.379434268973,119.8222340175349,-0.003347640785031,0.0018190226858998,,10029.28805283672,11950.90527396306,150,10,2025-09-16,2025-09-26 20:18:16.616,AA,C,987009080,AMBUSH51,1,1,48,2,1,1,225,2,1,0,0,9,1,225,2,1,-151052.1117067861,-4790204.941644145,4199030.133387142,2.42858,2.76931,-0.423062,-76.6142,39.8847,43.4918,-0.0948422,-6.95504,6.85854,-0.0289983,-0.00700848,0.00986306,4,0,41.41400887451894,-91.80614017129332,9996.125127904765,-59.33950805465229,2.466874773168225,4.177930547550447,158.315,10029.28805283672,11950.90527396306,150,True,16.715736553404458,False,173.51307024721962,179.206548081435,False,6.889454090248808,True,False
10,1970-07-23 11:28:58.975217704,2025-09-16,2025-09-26 20:18:17.521,AA,C,2395037858,JASSM,3,116,76,2,2,1,225,9,2,0,1,26,0,0,0,0,-177683.49157889312,-4779438.942354049,4210625.835417271,-2.36684,-0.400465,0.381386,77.125,-32.5,-33.5,0.0,0.0,0.0,0.0,0.0,0.0,2,0,41.55087526130066,-92.12908418598305,10997.372518135311,119.82288898169207,-0.0024950241667344,0.0018175530541906,,10029.28805283672,11950.90527396306,150,10,2025-09-16,2025-09-26 20:18:17.417,AA,C,987963478,AMBUSH51,1,1,48,2,1,1,225,2,1,0,0,9,1,225,2,1,-151113.2992716018,-4790172.631039122,4199064.895757766,2.39201,2.76615,-0.422778,-76.4186,40.3141,43.8079,-0.00264031,-6.79724,6.83395,-0.0723745,0.00897257,0.0035755,4,0,41.414424270333896,-91.80688348981258,9996.855483808224,-59.234512115220426,2.339189920059378,2.0126805652237176,158.315,10029.28805283672,11950.90527396306,150,True,16.62334006311595,False,173.20702318046247,179.19349367998487,False,7.22316032162058,True,False
10,1970-07-23 11:28:58.987241101,2025-09-16,2025-09-26 20:18:18.724,AA,C,2396408352,JASSM,3,116,76,2,2,1,225,9,2,0,1,26,0,0,0,0,-177594.80212576812,-4779476.498994674,4210587.208464146,-2.36684,-0.400465,0.381386,77.125,-32.5,-33.5,0.0,0.0,0.0,0.0,0.0,0.0,2,0,41.55041076912052,-92.12800573960612,10997.376216362987,119.82360429558312,-0.0015638296955659,0.0018159566763189,,10029.28805283672,11950.90527396306,150,10,2025-09-16,2025-09-26 20:18:18.583,AA,C,989355310,AMBUSH51,1,1,48,2,1,1,225,2,1,0,0,9,1,225,2,1,-151201.8071527163,-4790125.338821708,4199115.519005504,2.30813,2.76699,-0.423859,-76.5114,40.5,43.9405,-0.160621,-7.02828,7.03077,-0.0640397,0.00413726,-0.00122859,4,0,41.41503072501117,-91.807958926847,9997.289497781405,-59.2227109056942,2.415219213700663,-2.77293073435211,158.609,10029.28805283672,11950.90527396306,150,True,16.507614362825,False,173.14022605326363,179.1740140951231,False,7.321818827562997,True,False
10,1970-07-23 11:28:58.998259995,2025-09-16,2025-09-26 20:18:19.825,AA,C,2397722226,JASSM,3,116,76,2,2,1,225,9,2,0,1,26,0,0,0,0,-177509.77673514312,-4779512.502900924,4210550.175261021,-2.36684,-0.400465,0.381482,77.125,-32.5,-33.5,0.0,0.0,0.0,0.0,0.0,0.0,2,0,41.54996545009315,-92.12697186251556,10997.377670717344,119.82813262584423,-0.0045966048685828,0.0018142432486347,,10029.28805283672,11950.90527396306,150,10,2025-09-16,2025-09-26 20:18:19.851,AA,C,990866442,AMBUSH51,1,1,48,2,1,1,225,2,1,0,0,9,1,225,2,1,-151299.33978129065,-4790073.59154208,4199170.784346583,2.24772,2.77307,-0.41122,-77.287,40.6364,43.2516,0.0252058,-6.73208,6.8233,-0.032192,-0.00329878,-0.00935123,4,0,41.4156933131736,-91.80914390587856,9997.550090502407,-59.9615349249728,2.130003464026257,-6.122230180863568,158.89,10029.28805283672,11950.90527396306,150,True,16.388257280978294,False,173.6407996300823,179.15257346195494,False,6.883214565693058,True,False
10,1970-07-23 11:28:59.009277948,2025-09-16,2025-09-26 20:18:20.927,AA,C,2399032438,JASSM,3,116,76,2,2,1,225,9,2,0,1,26,0,0,0,0,-177424.98767264312,-4779548.403291549,4210513.243620396,-2.36684,-0.400465,0.381482,77.125,-32.5,-33.5,0.0,0.0,0.0,0.0,0.0,0.0,2,0,41.54952137083893,-92.12594087474832,10997.372754048984,119.82881644923918,-0.0037063657278749,0.0018127796314983,,10029.28805283672,11950.90527396306,150,10,2025-09-16,2025-09-26 20:18:21.016,AA,C,992258274,AMBUSH51,1,1,48,2,1,1,225,2,1,0,0,9,1,225,2,1,-151390.10651375816,-4790026.114721051,4199221.065867358,2.25269,2.783,-0.400885,-78.1989,40.1528,42.8302,-0.189502,-6.94001,7.12443,0.0608085,0.00316146,-0.0212398,4,0,41.416298113880615,-91.81024644673752,9996.977656553006,-60.75109454296887,2.084335777950847,-5.641912262845354,159.501,10029.28805283672,11950.90527396306,150,True,16.27398061480922,False,174.25769023905377,179.1325811352797,False,6.287666403500167,True,False
10,1970-07-23 11:28:59.019419053,2025-09-16,2025-09-26 20:18:21.941,AA,C,2400285338,JASSM,3,116,76,2,2,1,225,9,2,0,1,26,0,0,0,0,-177343.90857108062,-4779582.735322799,4210477.927214146,-2.36684,-0.400465,0.381482,77.125,-32.5,-33.5,0.0,0.0,0.0,0.0,0.0,0.0,2,0,41.54909669412644,-92.12495501014077,10997.37728141044,119.82947033817604,-0.0028550686626184,0.0018113634664302,,10029.28805283672,11950.90527396306,150,10,2025-09-16,2025-09-26 20:18:21.817,AA,C,993212672,AMBUSH51,1,1,48,2,1,1,225,2,1,0,0,9,1,225,2,1,-151452.97572728503,-4789993.860431793,4199255.217929644,2.3274,2.7826,-0.390311,-78.7304,40.0578,42.6593,-0.205871,-6.51389,6.73671,0.153239,-0.0142822,-0.00915358,4,0,41.416708712409786,-91.81100989110966,9996.669670676309,-61.1674884812198,1.6437395144716171,-1.3837784898334995,159.501,10029.28805283672,11950.90527396306,150,True,16.1810249988986,False,174.53403775582902,179.11849013363238,False,6.031733057887921,True,False
10,1970-07-23 11:28:59.030441254,2025-09-16,2025-09-26 20:18:23.044,AA,C,2401597706,JASSM,3,116,76,2,2,1,225,9,2,0,1,26,0,0,0,0,-177258.97986014312,-4779618.692354049,4210440.933073521,-2.36684,-0.400369,0.381482,77.125,-32.5,-33.5,0.0,0.0,0.0,0.0,0.0,0.0,2,0,41.54865186885175,-92.1239223530925,10997.37252536162,119.82651200758512,-0.0055297873100775,-0.0002349516793129,,10029.28805283672,11950.90527396306,150,10,2025-09-16,2025-09-26 20:18:22.983,AA,C,994604504,AMBUSH51,1,1,48,2,1,1,225,2,1,0,0,9,1,225,2,1,-151545.12305132032,-4789945.720703225,4199304.694702262,2.53114,2.77268,-0.39111,-78.9007,41.1807,43.1097,-0.255423,-6.50283,6.90892,0.169786,0.0107327,0.000388031,4,0,41.41731174878465,-91.81212921484276,9992.839157120816,-60.76481059091588,1.3041367211165649,10.083096566767288,160.246,10029.28805283672,11950.90527396306,150,False,16.066060475128563,False,174.10128013251912,179.09694454380116,False,6.524158080751948,True,False
10,1970-07-23 11:28:59.042456183,2025-09-16,2025-09-26 20:18:24.245,AA,C,2402910538,JASSM,3,116,76,2,2,1,225,9,2,0,1,26,0,0,0,0,-177174.02185233062,-4779654.663057174,4210403.925261021,-2.36674,-0.400369,0.381482,77.125,-32.5,-33.5,0.0,0.0,0.0,0.0,0.0,0.0,2,0,41.54820686712239,-92.1228893534218,10997.373974778257,119.827197147715,-0.0046377695415533,0.0052549880548098,,10029.28805283672,11950.90527396306,150,10,2025-09-16,2025-09-26 20:18:24.216,AA,C,996075870,AMBUSH51,1,1,48,2,1,1,225,2,1,0,0,9,1,225,2,1,-151642.7558022609,-4789892.086731243,4199358.792256858,2.73335,2.73931,-0.414265,-77.8453,43.7673,45.0754,-0.173269,-6.72072,6.88308,0.124558,-0.0021815,0.0385378,4,0,41.41797762091278,-91.81331618812604,9985.960781101405,-58.58205905578064,1.0108067761859607,20.963676938755075,161.138,10029.28805283672,11950.90527396306,150,False,15.946584151428503,False,172.27480104105442,179.06911400761928,False,8.405715661878274,True,False
10,1970-07-23 11:28:59.053898483,2025-09-16,2025-09-26 20:18:25.389,AA,C,2404164664,JASSM,3,116,76,2,2,1,225,9,2,0,1,26,0,0,0,0,-177092.86267264312,-4779689.024385299,4210368.571745396,-2.36674,-0.400369,0.381482,77.125,-32.5,-33.5,0.0,0.0,0.0,0.0,0.0,0.0,2,0,41.5477817571811,-92.1219025571536,10997.376672020517,119.82785163766954,-0.0037856391287561,0.0052535262684171,,10029.28805283672,11950.90527396306,150,10,2025-09-16,2025-09-26 20:18:25.316,AA,C,997388168,AMBUSH51,1,1,48,2,1,1,225,2,1,0,0,9,1,225,2,1,-151726.30666021036,-4789842.081932293,4199408.50074056,2.88522,2.68798,-0.450391,-75.8153,47.0992,47.4105,-0.273979,-7.0326,7.24463,0.0813627,0.0275315,0.0424701,4,0,41.418594918186,-91.8143335347181,9977.391374255589,-55.222142408376165,0.6588879883348944,28.48107466141972,162.067,10029.28805283672,11950.90527396306,150,False,15.837570456737435,False,169.77849199350842,179.0371056991685,False,10.960153164717683,True,False
10,1970-07-23 11:28:59.063259480,2025-09-16,2025-09-26 20:18:26.325,AA,C,2405474888,JASSM,3,116,76,2,2,1,225,9,2,0,1,26,0,0,0,0,-177008.07263358062,-4779724.920869674,4210331.636198521,-2.36674,-0.400369,0.381482,77.125,-32.5,-33.5,0.0,0.0,0.0,0.0,0.0,0.0,2,0,41.54733762951733,-92.12087162881346,10997.378448542828,119.82853539222502,-0.0028953918904133,0.0052520071296366,,10029.28805283672,11950.90527396306,150,10,2025-09-16,2025-09-26 20:18:26.283,AA,C,998541400,AMBUSH51,1,1,48,2,1,1,225,2,1,0,0,9,1,225,2,1,-151798.1074440625,-4789794.276857618,4199455.358842407,2.98606,2.62515,-0.4961,-72.9738,50.5726,50.0859,-0.252156,-7.39386,7.51595,0.0594457,0.0310997,0.0610915,4,0,41.41918209616121,-91.81520965427644,9967.134859825672,-51.09075875849222,0.434407880496185,32.65694064510813,163.228,10029.28805283672,11950.90527396306,150,False,15.732695513818918,False,166.87728217782248,178.99953627109616,False,13.912627437980278,True,False
10,1970-07-23 11:28:59.074418569,2025-09-16,2025-09-26 20:18:27.441,AA,C,2406787240,JASSM,3,116,76,2,2,1,225,9,2,0,1,26,0,0,0,0,-176923.14489920562,-4779760.873994674,4210294.638151646,-2.36674,-0.400369,0.381482,77.125,-32.5,-33.5,0.0,0.0,0.0,0.0,0.0,0.0,2,0,41.54689276421328,-92.11983904116886,10997.37576012491,119.8292202412816,-0.0020036958061325,0.005250479053704,,10029.28805283672,11950.90527396306,150,10,2025-09-16,2025-09-26 20:18:27.451,AA,C,999933232,AMBUSH51,1,1,48,2,1,1,225,2,1,0,0,9,1,225,2,1,-151879.94319468265,-4789732.225743576,4199515.340341496,3.08636,2.5421,-0.55116,-68.3912,55.2567,53.7945,-0.230599,-7.91769,8.07182,0.031728,0.0319319,0.0564829,4,0,41.41994071775496,-91.8162111082205,9951.119109320143,-45.90980796293259,0.1661773495534307,36.04944918330435,164.694,10029.28805283672,11950.90527396306,150,False,15.617810890316298,False,162.7188657266657,178.94187694707324,False,18.14245488422692,True,False
10,1970-07-23 11:28:59.084740833,2025-09-16,2025-09-26 20:18:28.474,AA,C,2408040276,JASSM,3,116,76,2,2,1,225,9,2,0,1,26,0,0,0,0,-176842.05603201812,-4779795.202119674,4210259.311979771,-2.36674,-0.400369,0.381482,77.125,-32.5,-33.5,0.0,0.0,0.0,0.0,0.0,0.0,2,0,41.54646799468065,-92.11885314126008,10997.377189390389,119.82987411974024,-0.0011523036164068,0.0052490164296664,,10029.28805283672,11950.90527396306,150,10,2025-09-16,2025-09-26 20:18:28.583,AA,C,1001285298,AMBUSH51,1,1,48,2,1,1,225,2,1,0,0,9,1,225,2,1,-151954.77249791176,-4789666.562194783,4199578.863827851,-3.10899,2.45124,-0.605949,-63.0448,59.114,58.109,-0.257161,-8.44095,8.62457,0.0422371,0.0404582,0.0553137,4,0,41.420746055841576,-91.8171302271902,9933.369199180896,-40.54396553296841,-0.025173867382987,38.239463876911614,166.906,10029.28805283672,11950.90527396306,150,False,15.507228067602371,False,158.41865431563542,178.8698896638245,False,22.51272078220321,True,False
10,1970-07-23 11:28:59.095256912,2025-09-16,2025-09-26 20:18:29.525,AA,C,2409297694,JASSM,3,116,76,2,2,1,225,9,2,0,1,26,0,0,0,0,-176760.68396170562,-4779829.647432174,4210223.860807896,-2.36674,-0.400369,0.381578,77.125,-32.5,-33.5,0.0,0.0,0.0,0.0,0.0,0.0,2,0,41.54604173830319,-92.1178638122632,10997.373107349636,119.83437299250632,-0.0042233052807746,0.0052474011032919,,10029.28805283672,11950.90527396306,150,10,2025-09-16,2025-09-26 20:18:29.616,AA,C,1002518062,AMBUSH51,1,1,48,2,1,1,225,2,1,0,0,9,1,225,2,1,-152015.8567832169,-4789603.171045485,4199640.559813262,-3.0166,2.35919,-0.662125,-56.6474,63.0031,61.9565,-0.230423,-8.9437,8.99191,0.0370419,0.0579789,0.0643767,4,0,41.421528127798254,-91.81788424871122,9916.174641303109,-35.219667357383216,0.190495101803038,40.41376810400628,168.385,10029.28805283672,11950.90527396306,150,False,15.403660766933712,False,153.82875231202664,178.78859029878137,False,27.1916614855726,True,False
10,1970-07-23 11:28:59.106298702,2025-09-16,2025-09-26 20:18:30.629,AA,C,2410604986,JASSM,3,116,76,2,2,1,225,9,2,0,1,26,0,0,0,0,-176676.08337576812,-4779865.459932174,4210187.003386021,-2.36674,-0.400369,0.381578,77.125,-32.5,-33.5,0.0,0.0,0.0,0.0,0.0,0.0,2,0,41.54559855961896,-92.11683524422284,10997.37579177399,119.83505515824938,-0.0033350443676774,0.0052459379752567,,10029.28805283672,11950.90527396306,150,10,2025-09-16,2025-09-26 20:18:30.750,AA,C,1003870128,AMBUSH51,1,1,48,2,1,1,225,2,1,0,0,9,1,225,2,1,-152075.19260480657,-4789530.295875809,4199712.755334277,-3.08128,2.25078,-0.722908,-49.263,65.8001,66.7668,-0.140577,-9.683,9.83333,-0.339481,0.0541007,0.0624855,4,0,41.42243782379381,-91.8186209930275,9898.319669143626,-29.32862104221767,0.681974483529272,32.78263763635211,169.925,10029.28805283672,11950.90527396306,150,False,15.295082486448159,False,148.90268308482965,178.68253754389158,False,32.218053651501634,False,False
10,1970-07-23 11:28:59.118278919,2025-09-16,2025-09-26 20:18:31.827,AA,C,2411918518,JASSM,3,116,76,2,2,1,225,9,2,0,1,26,0,0,0,0,-176591.07946951812,-4779901.440400924,4210149.968229771,-2.36674,-0.400273,0.381578,77.125,-32.5,-33.5,0.0,0.0,0.0,0.0,0.0,0.0,2,0,41.54515326170022,-92.11580178801192,10997.37238249771,119.83209757866965,-0.0060089662380594,0.0031991597911475,,10029.28805283672,11950.90527396306,150,10,2025-09-16,2025-09-26 20:18:31.751,AA,C,1005063126,AMBUSH51,1,1,48,2,1,1,225,2,1,0,0,9,1,225,2,1,-152121.7981173927,-4789464.625112572,4199781.827263279,2.87336,2.18994,-0.779928,-45.0284,64.3103,72.0038,0.0894887,-9.74925,9.9725,-0.348099,0.0470932,0.0312807,4,0,41.423285967796446,-91.8192028866492,9890.41210873245,-25.539699424226583,2.3586451536567474,11.677864677041134,171.978,10029.28805283672,11950.90527396306,150,False,15.194193266562541,False,146.14532972386053,178.5754035341746,False,35.040006517993206,False,False
10,1970-07-23 11:28:59.129395984,2025-09-16,2025-09-26 20:18:32.939,AA,C,2413229690,JASSM,3,116,76,2,2,1,225,9,2,0,1,26,0,0,0,0,-176506.22888358062,-4779937.356416549,4210112.999479771,-2.36674,-0.400273,0.381578,77.125,-32.5,-33.5,0.0,0.0,0.0,0.0,0.0,0.0,2,0,41.54470875236154,-92.11477020977738,10997.374282514987,119.83278172890049,-0.0051180798593027,0.0031976331052849,,10029.28805283672,11950.90527396306,150,10,2025-09-16,2025-09-26 20:18:33.083,AA,C,1006653792,AMBUSH51,1,1,48,2,1,1,225,2,1,0,0,9,1,225,2,1,-152180.06354336397,-4789379.139727963,4199879.756952325,2.42908,2.2848,-0.798703,-43.8901,62.2281,74.394,0.0959063,-8.88311,9.09231,-0.210709,0.0246166,-0.0437247,4,0,41.42444457021205,-91.81993166753507,9897.341999260632,-28.378210193892578,5.150334444010948,-10.10338232268765,172.112,10029.28805283672,11950.90527396306,150,False,15.078760408812458,False,145.4002333367722,178.42569241155385,False,35.9185777538535,False,False
10,1970-07-23 11:28:59.139435232,2025-09-16,2025-09-26 20:18:33.943,AA,C,2414484362,JASSM,3,116,76,2,2,1,225,9,2,0,1,26,0,0,0,0,-176425.03357108062,-4779971.723604049,4210077.622526646,-2.36674,-0.400273,0.381578,77.125,-32.5,-33.5,0.0,0.0,0.0,0.0,0.0,0.0,2,0,41.54428338764746,-92.11378308478074,10997.37521397509,119.833436391788,-0.0042655744723608,0.0031961756413305,,10029.28805283672,11950.90527396306,150,10,2025-09-16,2025-09-26 20:18:33.817,AA,C,1007528658,AMBUSH51,1,1,48,2,1,1,225,2,1,0,0,9,1,225,2,1,-152212.81260480845,-4789334.069736265,4199934.247901916,2.31508,2.31897,-0.790376,-45.478,60.5161,74.4953,-0.0121171,-8.32022,8.46263,-0.0118521,0.0101939,-0.0216101,4,0,41.42507432744196,-91.82034017092144,9907.366789354755,-29.804215613813888,5.457365744111603,-15.369838473821147,171.244,10029.28805283672,11950.90527396306,150,False,14.993532654782467,False,146.347078229599,178.34136923435858,False,35.047739766711835,False,False
10,1970-07-23 11:28:59.150475696,2025-09-16,2025-09-26 20:18:35.047,AA,C,2415796900,JASSM,3,116,76,2,2,1,225,9,2,0,1,26,0,0,0,0,-176340.09411795562,-4780007.674775924,4210040.612761021,-2.36674,-0.400273,0.381578,77.125,-32.5,-33.5,0.0,0.0,0.0,0.0,0.0,0.0,2,0,41.54383839375917,-92.11275045491094,10997.376005962911,119.83412122768765,-0.0033737552083814,0.003194646180119,,10029.28805283672,11950.90527396306,150,10,2025-09-16,2025-09-26 20:18:35.122,AA,C,1009079556,AMBUSH51,1,1,48,2,1,1,225,2,1,0,0,9,1,225,2,1,-152273.77646854724,-4789256.144154826,4200030.510021528,2.43587,2.36396,-0.771798,-47.921,58.407,74.1276,-0.131542,-7.44797,7.5268,0.178649,0.011644,-0.0218639,4,0,41.42617616375691,-91.82109836833176,9929.491594920391,-31.929722326678583,5.555355367586201,-6.8381704774096095,170.805,10029.28805283672,11950.90527396306,150,True,14.878721010967826,False,147.83822682954752,178.19722529360897,False,33.69701695560847,False,False
10,1970-07-23 11:28:59.160717848,2025-09-16,2025-09-26 20:18:36.071,AA,C,2417107090,JASSM,3,116,76,2,2,1,225,9,2,0,1,26,0,0,0,0,-176255.30603201812,-4780043.559541549,4210003.667448521,-2.36674,-0.400273,0.381578,77.125,-32.5,-33.5,0.0,0.0,0.0,0.0,0.0,0.0,2,0,41.54339418743863,-92.11171968040384,10997.372853448118,119.83480482710792,-0.002483527733694,0.0031931223544796,,10029.28805283672,11950.90527396306,150,10,2025-09-16,2025-09-26 20:18:36.183,AA,C,1010352088,AMBUSH51,1,1,48,2,1,1,225,2,1,0,0,9,1,225,2,1,-152325.09147287902,-4789192.882999811,4200109.06704519,2.58878,2.3618,-0.778049,-48.2306,57.5899,74.387,-0.305196,-7.33186,7.41082,0.163584,0.00407901,0.0244584,4,0,41.42707306683516,-91.82173569703453,9948.492672828028,-31.657135477966275,5.805928994081172,1.8635347255669648,170.242,10029.28805283672,11950.90527396306,150,True,14.774721830153034,False,148.01447162440803,178.07598095416853,False,33.643327889154435,False,False
10,1970-07-23 11:28:59.171259616,2025-09-16,2025-09-26 20:18:37.125,AA,C,2418361828,JASSM,3,116,76,2,2,1,225,9,2,0,1,26,0,0,0,0,-176174.10681326812,-4780077.924775924,4209968.286589146,-2.36674,-0.400273,0.381578,77.125,-32.5,-33.5,0.0,0.0,0.0,0.0,0.0,0.0,2,0,41.54296878263953,-92.1107325494972,10997.374471437812,119.83545947689645,-0.0016309854866578,0.0031916698933395,,10029.28805283672,11950.90527396306,150,10,2025-09-16,2025-09-26 20:18:37.249,AA,C,1011624620,AMBUSH51,1,1,48,2,1,1,225,2,1,0,0,9,1,225,2,1,-152376.08241342235,-4789130.818772693,4200187.491913852,2.75606,2.33679,-0.781613,-47.2074,57.7939,74.7402,-0.134956,-6.65008,6.74978,0.114432,-0.00377316,0.0154973,4,0,41.427962010259385,-91.82236871388773,9970.130962340038,-30.687578475496508,5.421782620035263,10.534758248666536,170.23,10029.28805283672,11950.90527396306,150,False,14.673459758320709,False,147.42075216872186,177.9531789790131,False,34.374907847324224,False,False
10,1970-07-23 11:28:59.182401437,2025-09-16,2025-09-26 20:18:38.240,AA,C,2419672328,JASSM,3,116,76,2,2,1,225,9,2,0,1,26,0,0,0,0,-176089.29821951812,-4780113.817354049,4209931.331511021,-2.36674,-0.400273,0.381674,77.125,-32.5,-33.5,0.0,0.0,0.0,0.0,0.0,0.0,2,0,41.54252445030122,-92.1097015536866,10997.377288615358,119.8399860778318,-0.0046657686543736,0.0031899638138414,,10029.28805283672,11950.90527396306,150,10,2025-09-16,2025-09-26 20:18:38.116,AA,C,1012658552,AMBUSH51,1,1,48,2,1,1,225,2,1,0,0,9,1,225,2,1,-152416.8406210496,-4789078.997482048,4200252.182678436,2.83789,2.31208,-0.783434,-45.6422,58.8838,74.8095,-0.201174,-6.51523,6.63552,0.0613391,-0.00377732,0.0275398,4,0,41.42869924679624,-91.82287555137148,9986.343596063563,-29.77894860405156,4.976532485301227,14.307459906182409,169.754,10029.28805283672,11950.90527396306,150,False,14.579282561172535,False,146.53517648677007,177.8452129132035,False,35.3944222806786,False,False
10,1970-07-23 11:28:59.192437584,2025-09-16,2025-09-26 20:18:39.243,AA,C,2420926366,JASSM,3,116,76,2,2,1,225,9,2,0,1,26,0,0,0,0,-176008.14489920562,-4780148.161104049,4209895.966276646,-2.36674,-0.400273,0.381674,77.125,-32.5,-33.5,0.0,0.0,0.0,0.0,0.0,0.0,2,0,41.54209925140787,-92.10871500810676,10997.373810669313,119.84064032828567,-0.0038137001286293,0.0031885540045658,,10029.28805283672,11950.90527396306,150,10,2025-09-16,2025-09-26 20:18:39.251,AA,C,1014010618,AMBUSH51,1,1,48,2,1,1,225,2,1,0,0,9,1,225,2,1,-152467.8041550106,-4789010.444175843,4200336.308301951,2.90036,2.25998,-0.784134,-43.3433,60.7555,74.8167,-0.199719,-6.21338,6.31408,-0.0489117,-0.00435989,0.0217661,4,0,41.42966527564853,-91.82351073886268,10004.413250669051,-27.935928582993363,3.931798975473561,15.922178495203031,169.619,10029.28805283672,11950.90527396306,150,False,14.475965306869972,False,145.21112802951916,177.70024616930868,False,36.900331103981024,False,False
10,1970-07-23 11:28:59.205098225,2025-09-16,2025-09-26 20:18:40.509,AA,C,2422237190,JASSM,3,116,76,2,2,1,225,9,2,0,1,26,0,0,0,0,-175923.31530936187,-4780184.059541549,4209859.001432896,-2.36674,-0.400273,0.381674,77.125,-32.5,-33.5,0.0,0.0,0.0,0.0,0.0,0.0,2,0,41.54165480480219,-92.10768378601765,10997.377763883216,119.84132420111594,-0.0029230443379658,0.0031871000660796,,10029.28805283672,11950.90527396306,150,10,2025-09-16,2025-09-26 20:18:40.650,AA,C,1015680816,AMBUSH51,1,1,48,2,1,1,225,2,1,0,0,9,1,225,2,1,-152525.99237745666,-4788923.10930002,4200440.142450986,2.85706,2.21051,-0.779771,-40.657,62.9734,74.9435,-0.0283397,-6.07217,6.13607,-0.0950239,-0.0109325,0.0178109,4,0,41.43087470468384,-91.8242394435819,10019.666757982908,-26.291759430986342,2.745457343814126,11.53977209671041,169.974,10029.28805283672,11950.90527396306,150,False,14.359961029589245,False,143.6185481251801,177.50898818306234,False,38.7208942773343,False,False
10,1970-07-23 11:28:59.215476769,2025-09-16,2025-09-26 20:18:41.547,AA,C,2423491446,JASSM,3,116,76,2,2,1,225,9,2,0,1,26,0,0,0,0,-175842.14685233062,-4780218.407197799,4209823.628386021,-2.36674,-0.400177,0.381674,77.125,-32.5,-33.5,0.0,0.0,0.0,0.0,0.0,0.0,2,0,41.54122951593763,-92.1066970839696,10997.37498303275,119.83833583117526,-0.005637229797203,0.001139872853855,,10029.28805283672,11950.90527396306,150,10,2025-09-16,2025-09-26 20:18:41.682,AA,C,1016913582,AMBUSH51,1,1,48,2,1,1,225,2,1,0,0,9,1,225,2,1,-152567.08533832515,-4788856.228013854,4200517.460975811,2.78725,2.18628,-0.77518,-39.2248,64.5492,74.6873,0.050541,-5.95837,5.95722,-0.0445799,-0.0159426,0.00269541,4,0,41.43178671135912,-91.82475605788136,10026.31209825858,-25.53378066474011,2.058004744195828,6.597460768432863,170.377,10029.28805283672,11950.90527396306,150,True,14.263106992531426,False,142.7764158214955,177.35595921930863,False,39.74107423262016,False,False
10,1970-07-23 11:28:59.225258971,2025-09-16,2025-09-26 20:18:42.525,AA,C,2424744640,JASSM,3,116,76,2,2,1,225,9,2,0,1,26,0,0,0,0,-175761.04724295562,-4780252.725557174,4209788.286589146,-2.36674,-0.400177,0.381674,77.125,-32.5,-33.5,0.0,0.0,0.0,0.0,0.0,0.0,2,0,41.54080458868602,-92.10571123183392,10997.379144911194,119.83898960510815,-0.0047857338675163,0.0011384232378773,,10029.28805283672,11950.90527396306,150,10,2025-09-16,2025-09-26 20:18:42.416,AA,C,1017788446,AMBUSH51,1,1,48,2,1,1,225,2,1,0,0,9,1,225,2,1,-152595.5467570292,-4788808.208231192,4200571.803834362,2.74365,2.18017,-0.766838,-38.6828,65.7857,74.2205,-0.0583159,-5.88522,5.90751,-0.0722289,-0.0101876,-8.01029e-05,4,0,41.43243381549138,-91.82511452504735,10028.463853799894,-25.52511426285209,1.5188178117728988,3.855937884245028,170.719,10029.28805283672,11950.90527396306,150,True,14.180004824200674,False,142.44277722063543,177.241563616421,False,40.207842909107214,False,False
