Subject_cm,Timestamp,SampleDate_cm,SampleTime_cm,Configuration_cm,Scenario_cm,DisTime_cm,MarkingTxt_cm,Application_cm,EntId_cm,Site_cm,ExerciseId_cm,ForceId_cm,Category_cm,Country_cm,Domain_cm,Kind_cm,Extra_cm,Specific_cm,Subcategory_cm,AltCategory_cm,AltCountry_cm,AltDomain_cm,AltKind_cm,ECEF_X_cm,ECEF_Y_cm,ECEF_Z_cm,OriPhi_cm,OriPsi_cm,OriTheta_cm,LinVelX_cm,LinVelY_cm,LinVelZ_cm,LinAccX_cm,LinAccY_cm,LinAccZ_cm,AngVelX_cm,AngVelY_cm,AngVelZ_cm,DrAlg_cm,Appearance_cm,Latitude_cm,Longitude_cm,Altitude_cm,Heading_cm,Pitch_cm,Roll_cm,CalibratedAirspeed_cm,CM_Altitude_Lead_cm,CM_Altitude_Wing_cm,CM_Airspeed_cm,Subject_ac,SampleDate_ac,SampleTime_ac,Configuration_ac,Scenario_ac,DisTime_ac,MarkingTxt_ac,Application_ac,EntId_ac,Site_ac,ExerciseId_ac,ForceId_ac,Category_ac,Country_ac,Domain_ac,Kind_ac,Extra_ac,Specific_ac,Subcategory_ac,AltCategory_ac,AltCountry_ac,AltDomain_ac,AltKind_ac,ECEF_X_ac,ECEF_Y_ac,ECEF_Z_ac,OriPhi_ac,OriPsi_ac,OriTheta_ac,LinVelX_ac,LinVelY_ac,LinVelZ_ac,LinAccX_ac,LinAccY_ac,LinAccZ_ac,AngVelX_ac,AngVelY_ac,AngVelZ_ac,DrAlg_ac,Appearance_ac,Latitude_ac,Longitude_ac,Altitude_ac,Heading_ac,Pitch_ac,Roll_ac,CalibratedAirspeed_ac,CM_Altitude_Lead_ac,CM_Altitude_Wing_ac,CM_Airspeed_ac,Bank_Angle_Condition,distance_nm,Distance_Condition,angle_between_vel,angle_between_pos,Cone_Condition,angle_between_pos_nose,Nose_Cone_Condition,Intercept_Criteria
10,1970-07-23 11:28:50.069388271,2025-09-16,2025-09-26 20:03:26.938,AH,C,1332568782,JASSM,3,103,76,2,2,1,225,9,2,0,1,26,0,0,0,0,-172935.89587576812,-4769852.079072799,4221149.015104771,-2.51458,-0.703426,0.607361,55.375,-46.875,-50.375,0.0,0.0,0.0,0.0,0.0,0.0,2,0,41.67997372813976,-92.0764079566562,10000.00071979956,139.8288321047471,-0.0002316903044436,0.0009598838760562,,8959.781364859911,11075.263430171775,150,10,2025-09-16,2025-09-26 20:03:27.004,AH,C,3535377748,HAWK11,1,1,73,2,1,1,225,2,1,0,0,12,1,225,2,1,-145622.38318045562,-4791820.623018111,4197886.712370396,2.29158,2.7882,-0.372182,-101.125,43.5,45.625,0.0,-7.32812,6.65625,-0.0117188,0.0,-0.00585938,4,0,41.39767880189904,-91.74067051069449,11075.43597884678,-62.06930052523357,1.069519608329579,-3.347921270248496,189.954,8959.781364859911,11075.263430171775,150,True,22.654844299422397,False,160.75829020215843,178.30783759292558,False,17.57672463791192,True,False
10,1970-07-23 11:28:50.079311116,2025-09-16,2025-09-26 20:03:27.931,AH,C,1333763504,JASSM,3,103,76,2,2,1,225,9,2,0,1,26,0,0,0,0,-172880.40612967435,-4769899.149385299,4221098.440886021,-2.51458,-0.703426,0.607456,55.375,-46.875,-50.375,0.0,0.0,0.0,0.0,0.0,0.0,2,0,41.67936433922089,-92.0757218189718,10000.004218180926,139.83251029854392,-0.0038824236604021,0.0009582734518295,,8959.781364859911,11075.263430171775,150,10,2025-09-16,2025-09-26 20:03:27.817,AH,C,3536332146,HAWK11,1,1,73,2,1,1,225,2,1,0,0,12,1,225,2,1,-145703.40661795562,-4791786.017549361,4197923.233854771,2.28841,2.78945,-0.371799,-101.25,43.125,45.375,-0.296875,-7.35938,6.54688,0.00195312,-0.00195312,-0.00390625,4,0,41.3981165389169,-91.74165098328264,11075.603303141135,-62.1323401736006,1.102282628280723,-3.5044618289947778,189.722,8959.781364859911,11075.263430171775,150,True,22.558372107245543,False,160.5482410574765,178.34300132757443,False,17.82361527683553,True,False
10,1970-07-23 11:28:50.090216666,2025-09-16,2025-09-26 20:03:29.021,AH,C,1335015796,JASSM,3,103,76,2,2,1,225,9,2,0,1,26,0,0,0,0,-172822.24304373687,-4769948.489229049,4221045.421354771,-2.51458,-0.703426,0.607456,55.375,-46.875,-50.375,0.0,0.0,0.0,0.0,0.0,0.0,2,0,41.67872551725822,-92.07500263821164,9999.997495033933,139.83298852309218,-0.0030477900177988,0.0009566854717201,,8959.781364859911,11075.263430171775,150,10,2025-09-16,2025-09-26 20:03:29.114,AH,C,3537843278,HAWK11,1,1,73,2,1,1,225,2,1,0,0,12,1,225,2,1,-145831.13903983062,-4791732.147432174,4197980.227995396,2.28736,2.7951,-0.368635,-101.375,42.75,45.0,-0.125,-7.40625,6.67188,-0.00585938,0.0078125,-0.00195312,4,0,41.39879860871628,-91.74319646354289,11076.299865799174,-62.47459613503692,1.191676694414389,-3.454528268733533,189.709,8959.781364859911,11075.263430171775,150,True,22.431846531985425,False,160.29943149045675,178.40157867567981,False,18.132561536774936,True,False
10,1970-07-23 11:28:50.100291692,2025-09-16,2025-09-26 20:03:30.029,AH,C,1336266750,JASSM,3,103,76,2,2,1,225,9,2,0,1,26,0,0,0,0,-172764.14148123687,-4769997.774385299,4220992.464323521,-2.51458,-0.703426,0.607456,55.375,-46.875,-50.375,0.0,0.0,0.0,0.0,0.0,0.0,2,0,41.67808742452725,-92.07428423346902,10000.003096285516,139.83346622561805,-0.0022140840316244,0.0009551359792955,,8959.781364859911,11075.263430171775,150,10,2025-09-16,2025-09-26 20:03:29.816,AH,C,3538638610,HAWK11,1,1,73,2,1,1,225,2,1,0,0,12,1,225,2,1,-145899.47693045562,-4791703.911104049,4198010.577604771,2.28573,2.80277,-0.36921,-101.5,40.625,46.625,-0.296875,-7.70312,7.01562,0.00585938,0.00976562,-0.00585938,4,0,41.3991590720043,-91.74402310869912,11077.805731361752,-62.73863971533716,1.5081485575887397,-3.395680352224243,189.514,8959.781364859911,11075.263430171775,150,True,22.34119181251494,False,160.1412772096872,178.43181317306662,False,18.34687634255299,True,False
10,1970-07-23 11:28:50.110331687,2025-09-16,2025-09-26 20:03:31.033,AH,C,1337461378,JASSM,3,103,76,2,2,1,225,9,2,0,1,26,0,0,0,0,-172708.65612967435,-4770044.840791549,4220941.886198521,-2.51448,-0.70333,0.607456,55.375,-46.875,-50.375,0.0,0.0,0.0,0.0,0.0,0.0,2,0,41.67747801888306,-92.0735981902685,10000.00140240892,139.83027107174294,-0.004063526889566,0.0033108502442649,,8959.781364859911,11075.263430171775,150,10,2025-09-16,2025-09-26 20:03:31.209,AH,C,3540388342,HAWK11,1,1,73,2,1,1,225,2,1,0,0,12,1,225,2,1,-146048.47107108062,-4791642.914033736,4198075.935026646,2.29119,2.80556,-0.368827,-101.625,41.375,44.625,-0.140625,-7.42188,6.60938,0.00976562,0.00195312,0.0078125,4,0,41.39993610567517,-91.74582523269316,11080.728137960936,-62.85942526234594,1.600634888060545,-3.0284258816667213,189.086,8959.781364859911,11075.263430171775,150,True,22.205120599820244,False,159.7388900486877,178.50363899925816,False,18.804438870339208,True,False
10,1970-07-23 11:28:50.121351298,2025-09-16,2025-09-26 20:03:32.135,AH,C,1338772038,JASSM,3,103,76,2,2,1,225,9,2,0,1,26,0,0,0,0,-172647.78161795562,-4770096.477510299,4220886.397917271,-2.51448,-0.70333,0.607456,55.375,-46.875,-50.375,0.0,0.0,0.0,0.0,0.0,0.0,2,0,41.67680944109902,-92.07284552870787,10000.006595546873,139.8307715409494,-0.0031900147312222,0.0033091567054893,,8959.781364859911,11075.263430171775,150,10,2025-09-16,2025-09-26 20:03:32.208,AH,C,3541621108,HAWK11,1,1,73,2,1,1,225,2,1,0,0,12,1,225,2,1,-146152.79333670562,-4791600.802705611,4198121.440886021,2.28851,2.80929,-0.364992,-101.625,41.0,44.5,-0.234375,-7.29688,6.5625,0.00195312,0.0,0.00195312,4,0,41.40047486854928,-91.74708684596884,11083.69789030636,-63.15730397594243,1.5915414156817866,-3.113698932303942,188.72,8959.781364859911,11075.263430171775,150,True,22.091191105856566,False,159.5942604326143,178.55348439265694,False,19.00228145638345,True,False
10,1970-07-23 11:28:50.132369058,2025-09-16,2025-09-26 20:03:33.236,AH,C,1340026390,JASSM,3,103,76,2,2,1,225,9,2,0,1,26,0,0,0,0,-172589.52234061187,-4770145.891572799,4220833.292448521,-2.51448,-0.70333,0.607456,55.375,-46.875,-50.375,0.0,0.0,0.0,0.0,0.0,0.0,2,0,41.67616960020348,-92.0721252187465,10000.003386911336,139.83125049235522,-0.0023540447281012,0.0033075469332639,,8959.781364859911,11075.263430171775,150,10,2025-09-16,2025-09-26 20:03:32.208,AH,C,3541621108,HAWK11,1,1,73,2,1,1,225,2,1,0,0,12,1,225,2,1,-146152.79333670562,-4791600.802705611,4198121.440886021,2.28851,2.80929,-0.364992,-101.625,41.0,44.5,-0.234375,-7.29688,6.5625,0.00195312,0.0,0.00195312,4,0,41.40047486854928,-91.74708684596884,11083.69789030636,-63.15730397594243,1.5915414156817866,-3.113698932303942,188.72,8959.781364859911,11075.263430171775,150,True,22.041141664613754,False,159.5942604326143,178.55007258617047,False,18.998971749377038,True,False
10,1970-07-23 11:28:50.142248779,2025-09-16,2025-09-26 20:03:34.224,AH,C,1341220076,JASSM,3,103,76,2,2,1,225,9,2,0,1,26,0,0,0,0,-172534.08044608062,-4770192.918916549,4220782.753386021,-2.51448,-0.70333,0.607456,55.375,-46.875,-50.375,0.0,0.0,0.0,0.0,0.0,0.0,2,0,41.67556066822477,-92.0714397545168,10000.007808490676,139.831706268396,-0.0015584787589483,0.0033059969116726,,8959.781364859911,11075.263430171775,150,10,2025-09-16,2025-09-26 20:03:34.300,AH,C,3544086638,HAWK11,1,1,73,2,1,1,225,2,1,0,0,12,1,225,2,1,-146363.77380545562,-4791516.913057174,4198212.548307896,2.28573,2.81323,-0.361252,-101.75,40.25,43.875,-0.359375,-7.14062,6.51562,-0.00195312,-0.0078125,-0.00976562,4,0,41.40155059277855,-91.74963791896798,11090.862389939048,-63.45947262197417,1.5953124570515964,-3.201466629864804,187.852,8959.781364859911,11075.263430171775,150,True,21.869555458416443,False,159.15827576730595,178.65723986826188,False,19.547135159052356,True,False
10,1970-07-23 11:28:50.153289248,2025-09-16,2025-09-26 20:03:35.328,AH,C,1342530134,JASSM,3,103,76,2,2,1,225,9,2,0,1,26,0,0,0,0,-172473.23376639312,-4770244.528291549,4220727.284636021,-2.51448,-0.70333,0.607456,55.375,-46.875,-50.375,0.0,0.0,0.0,0.0,0.0,0.0,2,0,41.6748923648609,-92.0706874833486,10000.005053593804,139.83220645914253,-0.0006853535438673,0.0033042922343056,,8959.781364859911,11075.263430171775,150,10,2025-09-16,2025-09-26 20:03:35.208,AH,C,3544881970,HAWK11,1,1,73,2,1,1,225,2,1,0,0,12,1,225,2,1,-146431.67224295562,-4791490.321260299,4198241.544401646,2.28429,2.81543,-0.358376,-101.875,39.875,43.75,-0.375,-7.125,6.64062,0.0,-0.0117188,-0.0175781,4,0,41.401892169638806,-91.75045878313053,11093.469067004353,-63.66070788363359,1.566098060424039,-3.2449476771664805,187.608,8959.781364859911,11075.263430171775,150,True,21.777615602947943,False,158.98090632323408,178.6900520327868,False,19.76052039579538,True,False
10,1970-07-23 11:28:50.164312391,2025-09-16,2025-09-26 20:03:36.431,AH,C,1343843078,JASSM,3,103,76,2,2,1,225,9,2,0,1,26,0,0,0,0,-172412.25280936187,-4770296.247041549,4220671.694792271,-2.51448,-0.70333,0.607552,55.375,-46.875,-50.375,0.0,0.0,0.0,0.0,0.0,0.0,2,0,41.67422261751195,-92.06993356963068,9999.99897381412,139.83593191953975,-0.0042598715236242,0.0033024912549007,,8959.781364859911,11075.263430171775,150,10,2025-09-16,2025-09-26 20:03:36.616,AH,C,3546790768,HAWK11,1,1,73,2,1,1,225,2,1,0,0,12,1,225,2,1,-146595.09607108062,-4791427.090791549,4198310.733854771,2.27921,2.82147,-0.352911,-102.125,39.375,43.375,-0.0625,-7.0625,6.54688,-0.00585938,0.0,0.00390625,4,0,41.4027056278362,-91.75243426182514,11100.35359871785,-64.11278687217455,1.5830806041694945,-3.4280461652980025,187.253,8959.781364859911,11075.263430171775,150,True,21.630195299143917,False,158.6601863122349,178.7749717293662,False,20.1711887373462,True,False
10,1970-07-23 11:28:50.175309492,2025-09-16,2025-09-26 20:03:37.530,AH,C,1345155482,JASSM,3,103,76,2,2,1,225,9,2,0,1,26,0,0,0,0,-172351.29724295562,-4770347.946260299,4220616.124479771,-2.51448,-0.70333,0.607552,55.375,-46.875,-50.375,0.0,0.0,0.0,0.0,0.0,0.0,2,0,41.67355310773094,-92.06917998457224,9999.994793043394,139.836432970828,-0.0033851837216954,0.0033008317883831,,8959.781364859911,11075.263430171775,150,10,2025-09-16,2025-09-26 20:03:37.614,AH,C,3547944000,HAWK11,1,1,73,2,1,1,225,2,1,0,0,12,1,225,2,1,-146694.25622733062,-4791388.932588424,4198352.519011021,2.27911,2.82109,-0.353103,-102.375,39.125,43.125,-0.015625,-7.10938,6.76562,0.00195312,-0.0136719,0.0,4,0,41.40319662557961,-91.753632864072,11104.624468419011,-64.09134907297822,1.5769169438605772,-3.4405677530099426,187.094,8959.781364859911,11075.263430171775,150,True,21.52030450019983,False,158.4505044291704,178.8258239033952,False,20.434691639716693,True,False
10,1970-07-23 11:28:50.186346489,2025-09-16,2025-09-26 20:03:38.634,AH,C,1346467336,JASSM,3,103,76,2,2,1,225,9,2,0,1,26,0,0,0,0,-172290.36706717435,-4770399.622041549,4220560.581511021,-2.51448,-0.70333,0.607552,55.375,-46.875,-50.375,0.0,0.0,0.0,0.0,0.0,0.0,2,0,41.67288391139769,-92.06842672984676,9999.999980928906,139.83693379588155,-0.0025108908103947,0.0032991980440707,,8959.781364859911,11075.263430171775,150,10,2025-09-16,2025-09-26 20:03:38.504,AH,C,3548818866,HAWK11,1,1,73,2,1,1,225,2,1,0,0,12,1,225,2,1,-146768.47693045562,-4791360.625947799,4198383.519011021,2.28103,2.82185,-0.351665,-102.625,39.0,42.875,-0.234375,-7.17188,6.82812,-0.00390625,-0.00390625,-0.0078125,4,0,41.40356074926221,-91.75452992805518,11107.85293671456,-64.17989069643,1.5500850774220771,-3.3179775770906543,187.094,8959.781364859911,11075.263430171775,150,True,21.425069513368108,False,158.27769379745504,178.86365193065194,False,20.647031039616028,True,False
10,1970-07-23 11:28:50.196368352,2025-09-16,2025-09-26 20:03:39.636,AH,C,1347721912,JASSM,3,103,76,2,2,1,225,9,2,0,1,26,0,0,0,0,-172232.09704764312,-4770449.043916549,4220507.460417271,-2.51448,-0.70333,0.607552,55.375,-46.875,-50.375,0.0,0.0,0.0,0.0,0.0,0.0,2,0,41.67224389294703,-92.06770637517906,10000.008195460106,139.83741274012866,-0.0016747422472452,0.0032976142623801,,8959.781364859911,11075.263430171775,150,10,2025-09-16,2025-09-26 20:03:39.709,AH,C,3550568598,HAWK11,1,1,73,2,1,1,225,2,1,0,0,12,1,225,2,1,-146920.21325858062,-4791303.331025924,4198446.286589146,2.27691,2.82674,-0.349844,-103.0,38.5,42.625,-0.203125,-7.09375,6.82812,0.0,0.00585938,-0.015625,4,0,41.40429761038639,-91.75636369955554,11114.55849949063,-64.43897476639822,1.6685427446303764,-3.4652285170270285,187.375,8959.781364859911,11075.263430171775,150,True,21.287714173478953,False,157.9651165398815,178.94517313487736,False,21.04822216608885,True,False
10,1970-07-23 11:28:50.207387911,2025-09-16,2025-09-26 20:03:40.738,AH,C,1349034292,JASSM,3,103,76,2,2,1,225,9,2,0,1,26,0,0,0,0,-172171.14196951812,-4770500.739229049,4220451.890104771,-2.51448,-0.703234,0.607552,55.375,-46.875,-50.375,0.0,0.0,0.0,0.0,0.0,0.0,2,0,41.671574391585104,-92.06695284382631,10000.008901211975,139.83426052258494,-0.0034473851553288,0.0001592923350297,,8959.781364859911,11075.263430171775,150,10,2025-09-16,2025-09-26 20:03:41.114,AH,C,3552159262,HAWK11,1,1,73,2,1,1,225,2,1,0,0,12,1,225,2,1,-147057.22107108062,-4791252.321260299,4198502.128386021,2.26454,2.8346,-0.343612,-103.5,38.375,42.0,-0.296875,-7.0,6.8125,-0.00195312,0.00585938,-0.00976562,4,0,41.40495299213087,-91.7580192424552,11120.5988355435,-64.99128955449605,1.7280552577685595,-4.037175624717031,187.693,8959.781364859911,11075.263430171775,150,True,21.157023343824008,False,157.6193923290256,179.01948959835485,False,21.47125871561739,True,False
10,1970-07-23 11:28:50.218268452,2025-09-16,2025-09-26 20:03:41.826,AH,C,1350344584,JASSM,3,103,76,2,2,1,225,9,2,0,1,26,0,0,0,0,-172110.28454764312,-4770552.348604049,4220396.405729771,-2.51448,-0.703234,0.607552,55.375,-46.875,-50.375,0.0,0.0,0.0,0.0,0.0,0.0,2,0,41.67090595567622,-92.06620053663444,10000.000093265113,139.83476069824354,-0.0025741187747364,0.0001575882467124,,8959.781364859911,11075.263430171775,150,10,2025-09-16,2025-09-26 20:03:41.912,AH,C,3553113662,HAWK11,1,1,73,2,1,1,225,2,1,0,0,12,1,225,2,1,-147140.01599295562,-4791221.967744674,4198535.284636021,2.25879,2.83834,-0.341311,-103.75,38.0,41.625,-0.015625,-7.10938,6.78125,0.0,-0.00585938,-0.00195312,4,0,41.40534224593424,-91.7590195427822,11124.137415178486,-65.22684351593526,1.7834892052799605,-4.302065605712472,187.656,8959.781364859911,11075.263430171775,150,True,21.057735267501897,False,157.33548814405208,179.06407382157636,False,21.80403488217918,True,False
10,1970-07-23 11:28:50.229285310,2025-09-16,2025-09-26 20:03:42.928,AH,C,1351597814,JASSM,3,103,76,2,2,1,225,9,2,0,1,26,0,0,0,0,-172052.07653983062,-4770601.711885299,4220343.339323521,-2.51448,-0.703234,0.607552,55.375,-46.875,-50.375,0.0,0.0,0.0,0.0,0.0,0.0,2,0,41.670266627653,-92.06548099522188,10000.003337207188,139.83523908323133,-0.0017388790502317,0.0001559664658585,,8959.781364859911,11075.263430171775,150,10,2025-09-16,2025-09-26 20:03:43.114,AH,C,3554545260,HAWK11,1,1,73,2,1,1,225,2,1,0,0,12,1,225,2,1,-147265.62146170562,-4791176.062471236,4198585.272917271,2.26205,2.84093,-0.337572,-104.125,37.625,41.375,-0.03125,-7.07812,6.89062,0.00195312,0.0,0.00390625,4,0,41.405929796393686,-91.76053703531916,11129.189264619918,-65.4794793115521,1.7378723598073544,-4.073691732960931,187.766,8959.781364859911,11075.263430171775,150,True,20.936591757553547,False,157.06135708451484,179.13327733484314,False,22.155330875955933,True,False
10,1970-07-23 11:28:50.239341330,2025-09-16,2025-09-26 20:03:43.934,AH,C,1352851500,JASSM,3,103,76,2,2,1,225,9,2,0,1,26,0,0,0,0,-171993.84802420562,-4770651.090791549,4220290.249479771,-2.51448,-0.703234,0.607552,55.375,-46.875,-50.375,0.0,0.0,0.0,0.0,0.0,0.0,2,0,41.66962704849532,-92.0647612153112,9999.996362163094,139.83571762075988,-0.0009033290455738,0.0001543299073234,,8959.781364859911,11075.263430171775,150,10,2025-09-16,2025-09-26 20:03:44.114,AH,C,3555738260,HAWK11,1,1,73,2,1,1,225,2,1,0,0,12,1,225,2,1,-147370.06872733062,-4791138.592744674,4198625.954557896,2.25927,2.84477,-0.3346,-104.5,37.375,40.875,-0.046875,-7.07812,6.79688,0.0,-0.00195312,0.0,4,0,41.40640819629881,-91.76179866868364,11133.203903819822,-65.74682682051132,1.7714864119878055,-4.168744319943391,187.974,8959.781364859911,11075.263430171775,150,True,20.82790707425649,False,156.74736810962162,179.1910961934562,False,22.532895502817443,True,False
10,1970-07-23 11:28:50.251329221,2025-09-16,2025-09-26 20:03:45.132,AH,C,1354222242,JASSM,3,103,76,2,2,1,225,9,2,0,1,26,0,0,0,0,-171930.18200858062,-4770705.079072799,4220232.206511021,-2.51448,-0.703234,0.607648,55.375,-46.875,-50.375,0.0,0.0,0.0,0.0,0.0,0.0,2,0,41.66892777956088,-92.06397423790796,9999.999438601542,139.83946325162353,-0.0044363842100338,0.0001524418467201,,8959.781364859911,11075.263430171775,150,10,2025-09-16,2025-09-26 20:03:45.030,AH,C,3556533592,HAWK11,1,1,73,2,1,1,225,2,1,0,0,12,1,225,2,1,-147439.92614920562,-4791113.716768111,4198652.894011021,2.26157,2.8486,-0.332203,-104.75,37.0,40.75,-0.0625,-7.125,6.9375,0.00976562,0.0078125,-0.0078125,4,0,41.40672523660258,-91.76264242849314,11135.762670096785,-65.9901221166756,1.827919986148092,-3.972654134576533,188.329,8959.781364859911,11075.263430171775,150,True,20.734120770826696,False,156.54121580671324,179.22892655136852,False,22.783885718390707,True,False
10,1970-07-23 11:28:50.261387094,2025-09-16,2025-09-26 20:03:46.138,AH,C,1355476820,JASSM,3,103,76,2,2,1,225,9,2,0,1,26,0,0,0,0,-171871.91198904935,-4770754.493135299,4220179.077604771,-2.51448,-0.703234,0.607648,55.375,-46.875,-50.375,0.0,0.0,0.0,0.0,0.0,0.0,2,0,41.668287726960834,-92.06325397482506,9999.999018892211,139.83994209788324,-0.0036002322745354,0.0001508459417376,,8959.781364859911,11075.263430171775,150,10,2025-09-16,2025-09-26 20:03:46.504,AH,C,3558680990,HAWK11,1,1,73,2,1,1,225,2,1,0,0,12,1,225,2,1,-147628.70739920562,-4791047.214814986,4198724.765104771,2.26243,2.85148,-0.328368,-105.375,36.625,40.0,-0.140625,-7.09375,6.82812,0.0,0.0,0.0,5,0,41.4075713967538,-91.7649223615938,11142.453065801466,-66.25843973242458,1.7915233303688367,-3.878278252514863,188.451,8959.781364859911,11075.263430171775,150,True,20.57900427446538,False,156.05760815180022,179.33387053575038,False,23.388709098845094,True,False
10,1970-07-23 11:28:50.272409164,2025-09-16,2025-09-26 20:03:47.240,AH,C,1356788882,JASSM,3,103,76,2,2,1,225,9,2,0,1,26,0,0,0,0,-171810.97155936187,-4770806.168916549,4220123.515104771,-2.51439,-0.703234,0.607648,55.375,-46.875,-50.375,0.0,0.0,0.0,0.0,0.0,0.0,2,0,41.667618362093855,-92.06250071987095,9999.999029229037,139.84044287138715,-0.0027257806715896,0.0056406644491831,,8959.781364859911,11075.263430171775,150,10,2025-09-16,2025-09-26 20:03:47.300,AH,C,3559595622,HAWK11,1,1,73,2,1,1,225,2,1,0,0,12,1,225,2,1,-147709.72888358062,-4791019.034150924,4198755.196745396,2.25831,2.85397,-0.3253,-105.75,36.375,39.875,-0.265625,-7.125,6.90625,0.0,0.00390625,-0.00390625,4,0,41.40792959774406,-91.76590075228668,11145.32024518715,-66.47981350495834,1.7695044844659231,-4.0755203962452455,188.683,8959.781364859911,11075.263430171775,150,True,20.48180740726293,False,155.86203092805712,179.37673590421284,False,23.63814031401526,True,False
10,1970-07-23 11:28:50.283285668,2025-09-16,2025-09-26 20:03:48.328,AH,C,1358101384,JASSM,3,103,76,2,2,1,225,9,2,0,1,26,0,0,0,0,-171750.0108660025,-4770857.860322799,4220067.933073521,-2.51439,-0.703234,0.607648,55.375,-46.875,-50.375,0.0,0.0,0.0,0.0,0.0,0.0,2,0,41.66694877185265,-92.06174723073262,9999.997796176853,139.84094379397754,-0.0018510402160859,0.0056390113310848,,8959.781364859911,11075.263430171775,150,10,2025-09-16,2025-09-26 20:03:48.410,AH,C,3560947688,HAWK11,1,1,73,2,1,1,225,2,1,0,0,12,1,225,2,1,-147830.31677420562,-4790977.415986861,4198799.933073521,2.25093,2.85934,-0.322424,-106.0,36.0,39.375,0.015625,-7.10938,6.8125,-0.00976562,0.0,-0.00195312,4,0,41.40845702307712,-91.76735683463524,11149.185792003778,-66.801086825374,1.869247774212673,-4.410827425888999,189.001,8959.781364859911,11075.263430171775,150,True,20.36300028395343,False,155.5401962572518,179.43933324344655,False,24.040626751256475,True,False
10,1970-07-23 11:28:50.294286950,2025-09-16,2025-09-26 20:03:49.428,AH,C,1359413602,JASSM,3,103,76,2,2,1,225,9,2,0,1,26,0,0,0,0,-171689.06311209625,-4770909.540010299,4220012.362761021,-2.51439,-0.703234,0.607648,55.375,-46.875,-50.375,0.0,0.0,0.0,0.0,0.0,0.0,2,0,41.66627932265552,-92.06099391746068,9999.999436655176,139.84144459305017,-0.000976488491544,0.0056373608877339,,8959.781364859911,11075.263430171775,150,10,2025-09-16,2025-09-26 20:03:49.504,AH,C,3562220220,HAWK11,1,1,73,2,1,1,225,2,1,0,0,12,1,225,2,1,-147943.07458670562,-4790938.998018111,4198841.112761021,2.23693,2.86318,-0.318685,-106.5,35.625,39.0,-0.0625,-7.04688,6.75,-0.0117188,0.00195312,0.0,4,0,41.40894282338596,-91.76871820700909,11152.61878968202,-67.10108287566648,1.874958990977162,-5.153411945516105,189.355,8959.781364859911,11075.263430171775,150,True,20.248894795910523,False,155.20362604926027,179.49417385572266,False,24.454799131763075,True,False
10,1970-07-23 11:28:50.306286350,2025-09-16,2025-09-26 20:03:50.628,AH,C,1360784142,JASSM,3,103,76,2,2,1,225,9,2,0,1,26,0,0,0,0,-171625.40686209625,-4770963.516572799,4219954.319792271,-2.51439,-0.703138,0.607648,55.375,-46.875,-50.375,0.0,0.0,0.0,0.0,0.0,0.0,2,0,41.665580095485375,-92.06020714377571,10000.000132033554,139.83831707508713,-0.0027087433674516,0.0025004198371238,,8959.781364859911,11075.263430171775,150,10,2025-09-16,2025-09-26 20:03:50.708,AH,C,3563572284,HAWK11,1,1,73,2,1,1,225,2,1,0,0,12,1,225,2,1,-148064.78161795562,-4790898.220674361,4198884.874479771,2.23779,2.86442,-0.313028,-106.875,35.25,38.375,-0.15625,-6.71875,6.5,0.0410156,-0.00976562,-0.00390625,4,0,41.409458426290506,-91.77018739462756,11156.540542538927,-67.38457775158503,1.7032418295934753,-5.090660588434029,189.551,8959.781364859911,11075.263430171775,150,True,20.128009721761824,False,154.81608161516803,179.5469739023445,False,24.926784292467897,True,False
10,1970-07-23 11:28:50.316340574,2025-09-16,2025-09-26 20:03:51.634,AH,C,1362038464,JASSM,3,103,76,2,2,1,225,9,2,0,1,26,0,0,0,0,-171567.14807303375,-4771012.915010299,4219901.198698521,-2.51439,-0.703138,0.607648,55.375,-46.875,-50.375,0.0,0.0,0.0,0.0,0.0,0.0,2,0,41.66494016243258,-92.05948709674838,10000.002773482014,139.83879574623472,-0.0018727688777847,0.0024987823372278,,8959.781364859911,11075.263430171775,150,10,2025-09-16,2025-09-26 20:03:51.706,AH,C,3564884582,HAWK11,1,1,73,2,1,1,225,2,1,0,0,12,1,225,2,1,-148181.85778983062,-4790859.318330611,4198925.976042271,2.27882,2.87324,-0.305933,-107.25,35.25,37.625,0.015625,-6.92188,6.75,0.015625,-0.00390625,-0.00195312,4,0,41.40994575256815,-91.7716005826522,11158.958146775976,-68.01168438970117,1.7766114842849765,-2.60472961778848,189.709,8959.781364859911,11075.263430171775,150,True,20.014723320059336,False,154.49968494594611,179.58870628232864,False,25.32370538794938,True,False
10,1970-07-23 11:28:50.327365316,2025-09-16,2025-09-26 20:03:52.736,AH,C,1363350510,JASSM,3,103,76,2,2,1,225,9,2,0,1,26,0,0,0,0,-171506.20837576812,-4771064.582979049,4219845.632292271,-2.51439,-0.703138,0.607744,55.375,-46.875,-50.375,0.0,0.0,0.0,0.0,0.0,0.0,2,0,41.6642707927809,-92.05873393198186,9999.999563431771,139.842521099974,-0.005447525637353,0.002496897648828,,8959.781364859911,11075.263430171775,150,10,2025-09-16,2025-09-26 20:03:52.706,AH,C,3566077582,HAWK11,1,1,73,2,1,1,225,2,1,0,0,12,1,225,2,1,-148290.01599295562,-4790823.664033736,4198963.466276646,2.30135,2.87334,-0.309577,-107.5,35.0,37.625,-0.328125,-7.14062,6.79688,0.0410156,-0.00195312,0.00390625,4,0,41.41039100504033,-91.77290603797032,11160.856879357692,-67.86380829485593,1.924312542466126,-1.3074159531520706,189.868,8959.781364859911,11075.263430171775,150,True,19.90421551924073,False,154.3739208963588,179.61506941370536,False,25.53002086105128,True,False
10,1970-07-23 11:28:50.338388354,2025-09-16,2025-09-26 20:03:53.838,AH,C,1364603528,JASSM,3,103,76,2,2,1,225,9,2,0,1,26,0,0,0,0,-171448.01013358062,-4771113.926729049,4219792.561979771,-2.51439,-0.703138,0.607744,55.375,-46.875,-50.375,0.0,0.0,0.0,0.0,0.0,0.0,2,0,41.66363150569664,-92.05801466386126,9999.99344634113,139.84299924112068,-0.004612412928704,0.0024953016952892,,8959.781364859911,11075.263430171775,150,10,2025-09-16,2025-09-26 20:03:53.800,AH,C,3567389880,HAWK11,1,1,73,2,1,1,225,2,1,0,0,12,1,225,2,1,-148407.55896170562,-4790785.028291549,4199004.233854771,2.35562,2.87247,-0.309481,-107.5,35.25,37.625,-0.15625,-7.07812,6.82812,0.125,0.00390625,-0.00195312,4,0,41.41087437126169,-91.77432474458114,11163.257634606069,-67.83652170013842,1.8873810115813685,1.7875603578181976,190.027,8959.781364859911,11075.263430171775,150,True,19.79108578931336,False,154.44763261840234,179.62637175496062,False,25.542180758027996,True,False
10,1970-07-23 11:28:50.349246601,2025-09-16,2025-09-26 20:03:54.924,AH,C,1365975004,JASSM,3,103,76,2,2,1,225,9,2,0,1,26,0,0,0,0,-171384.30993826812,-4771167.934541549,4219734.479948521,-2.51439,-0.703138,0.607744,55.375,-46.875,-50.375,0.0,0.0,0.0,0.0,0.0,0.0,2,0,41.66293181780489,-92.05722741413186,10000.001762453105,139.84352256686552,-0.0036983819564845,0.0024935813596786,,8959.781364859911,11075.263430171775,150,10,2025-09-16,2025-09-26 20:03:54.800,AH,C,3568543112,HAWK11,1,1,73,2,1,1,225,2,1,0,0,12,1,225,2,1,-148511.23278983062,-4790750.807588424,4199041.337370396,2.7465,2.8742,-0.323382,-107.25,33.5,40.5,-0.21875,-7.125,6.95312,0.521484,0.0195312,0.00585938,4,0,41.41130928013322,-91.77557612543345,11167.516403820238,-67.32018674345503,2.50176147393485,24.2337230149897,190.259,8959.781364859911,11075.263430171775,150,False,19.680314539681543,False,154.8542868923648,179.618408525002,False,25.23620642571863,True,False
10,1970-07-23 11:28:50.361270290,2025-09-16,2025-09-26 20:03:56.127,AH,C,1367345582,JASSM,3,103,76,2,2,1,225,9,2,0,1,26,0,0,0,0,-171320.6514910025,-4771221.907197799,4219676.429167271,-2.51439,-0.703138,0.607744,55.375,-46.875,-50.375,0.0,0.0,0.0,0.0,0.0,0.0,2,0,41.662232535748494,-92.05644069727832,10000.001113888356,139.8440455311792,-0.0027849137463786,0.0024918317041882,,8959.781364859911,11075.263430171775,150,10,2025-09-16,2025-09-26 20:03:56.004,AH,C,3569855412,HAWK11,1,1,73,2,1,1,225,2,1,0,0,12,1,225,2,1,-148627.12927420562,-4790708.194307174,4199085.575651646,2.97937,2.81687,-0.393083,-103.875,40.0,43.25,-0.28125,-8.84375,8.51562,0.0585938,0.0410156,0.103516,4,0,41.41184000684879,-91.77697667283608,11167.55775278084,-62.30204999284598,3.026860882614874,36.66605292455471,189.905,8959.781364859911,11075.263430171775,150,False,19.560913667083163,False,158.3841339385142,179.59558680800043,False,21.767799816496876,True,False
10,1970-07-23 11:28:50.371308609,2025-09-16,2025-09-26 20:03:57.130,AH,C,1368598762,JASSM,3,103,76,2,2,1,225,9,2,0,1,26,0,0,0,0,-171262.44568045562,-4771271.254854049,4219623.351042271,-2.51439,-0.703138,0.607744,55.375,-46.875,-50.375,0.0,0.0,0.0,0.0,0.0,0.0,2,0,41.66159315983381,-92.05572138207332,10000.001032079852,139.8445236844341,-0.0019496994502873,0.0024902405712318,,8959.781364859911,11075.263430171775,150,10,2025-09-16,2025-09-26 20:03:57.004,AH,C,3571167710,HAWK11,1,1,73,2,1,1,225,2,1,0,0,12,1,225,2,1,-148738.68786795562,-4790661.603486861,4199135.808073521,3.06115,2.7254,-0.463454,-99.25,44.625,48.75,-0.171875,-9.01562,8.75,0.0273438,0.0351562,0.0390625,4,0,41.41243563859599,-91.77832688788912,11170.503020807768,-56.07561759377331,2.5026792235379776,39.473457143496354,190.663,8959.781364859911,11075.263430171775,150,False,19.44468761079286,False,162.48204978360775,179.5627707243165,False,17.74530162884808,True,False
10,1970-07-23 11:28:50.382347459,2025-09-16,2025-09-26 20:03:58.234,AH,C,1369852958,JASSM,3,103,76,2,2,1,225,9,2,0,1,26,0,0,0,0,-171204.1925066275,-4771320.641572799,4219570.229948521,-2.51439,-0.703138,0.607744,55.375,-46.875,-50.375,0.0,0.0,0.0,0.0,0.0,0.0,2,0,41.66095326709258,-92.05500149626498,10000.003208792832,139.84500221096113,-0.0011138117900086,0.0024886530237931,,8959.781364859911,11075.263430171775,150,10,2025-09-16,2025-09-26 20:03:58.206,AH,C,3572639074,HAWK11,1,1,73,2,1,1,225,2,1,0,0,12,1,225,2,1,-148857.97107108062,-4790602.612275924,4199199.438932896,3.04601,2.6837,-0.504009,-93.75,50.25,54.375,-0.234375,-8.76562,8.45312,-0.0371094,0.03125,0.0742188,4,0,41.41319403392039,-91.7797740284246,11172.628541018816,-52.93919601237065,2.7277173877469787,37.63705607990976,189.905,8959.781364859911,11075.263430171775,150,False,19.318159660940005,False,167.12416424874974,179.52605834420015,False,13.165495616167274,True,False
10,1970-07-23 11:28:50.393345367,2025-09-16,2025-09-26 20:03:59.334,AH,C,1371222902,JASSM,3,103,76,2,2,1,225,9,2,0,1,26,0,0,0,0,-171140.56335623687,-4771374.582979049,4219512.206511021,-2.51439,-0.703138,0.607744,55.375,-46.875,-50.375,0.0,0.0,0.0,0.0,0.0,0.0,2,0,41.660254333936585,-92.05421519236944,10000.003263559978,139.84552488040114,-0.0002007975070951,0.0024869299441615,,8959.781364859911,11075.263430171775,150,10,2025-09-16,2025-09-26 20:03:59.300,AH,C,3573871840,HAWK11,1,1,73,2,1,1,225,2,1,0,0,12,1,225,2,1,-148953.11364920562,-4790548.429658736,4199258.132292271,3.08023,2.61218,-0.546577,-88.875,54.125,58.875,-0.28125,-8.67188,8.35938,-0.00585938,0.0410156,0.0449219,4,0,41.41389494320062,-91.780930968452,11174.029170622613,-48.67184257166753,2.154662085418983,37.72392276177504,190.382,8959.781364859911,11075.263430171775,150,False,19.197988187237254,False,170.80404979104773,179.4988926352811,False,9.533862222020606,True,False
10,1970-07-23 11:28:50.403384160,2025-09-16,2025-09-26 20:04:00.338,AH,C,1372356296,JASSM,3,103,76,2,2,1,225,9,2,0,1,26,0,0,0,0,-171087.921998815,-4771419.207979049,4219464.198698521,-2.51439,-0.703043,0.607744,55.375,-46.875,-50.375,0.0,0.0,0.0,0.0,0.0,0.0,2,0,41.65967607317961,-92.05356468479296,9999.994509585826,139.84230484298752,-0.002092791361132,-0.0006521324964239,,8959.781364859911,11075.263430171775,150,10,2025-09-16,2025-09-26 20:04:00.210,AH,C,3575025072,HAWK11,1,1,73,2,1,1,225,2,1,0,0,12,1,225,2,1,-149036.33825858062,-4790494.252900924,4199316.487761021,3.05684,2.57728,-0.581475,-84.25,57.625,62.75,-0.296875,-8.82812,8.60938,-0.0429688,0.0390625,0.0410156,4,0,41.4145957316813,-91.7819455263027,11173.8069519862,-46.08503049958775,2.566900131528452,35.42101763293482,190.186,8959.781364859911,11075.263430171775,150,False,19.091344687034862,False,174.13802797365398,179.480255191089,False,6.237023924629113,True,False
10,1970-07-23 11:28:50.412284163,2025-09-16,2025-09-26 20:04:01.228,AH,C,1373489692,JASSM,3,103,76,2,2,1,225,9,2,0,1,26,0,0,0,0,-171035.27868826812,-4771463.836885299,4219416.190886021,-2.51439,-0.703043,0.60784,55.375,-46.875,-50.375,0.0,0.0,0.0,0.0,0.0,0.0,2,0,41.6590977857496,-92.05291416375228,9999.99878897958,139.8459601584567,-0.0057836422061529,-0.0006538193762132,,8959.781364859911,11075.263430171775,150,10,2025-09-16,2025-09-26 20:04:01.114,AH,C,3576098772,HAWK11,1,1,73,2,1,1,225,2,1,0,0,12,1,225,2,1,-149110.43396170562,-4790440.204072799,4199375.073698521,3.0554,2.52206,-0.617715,-79.75,60.25,66.5,-0.171875,-9.01562,8.76562,-0.0195312,0.0351562,0.046875,4,0,41.41529899613375,-91.78285097834215,11173.707537603408,-42.746320205406604,2.510509296079076,33.700473312136005,190.308,8959.781364859911,11075.263430171775,150,False,18.987705910738274,False,177.13703222177884,179.4685729934199,False,3.308953691015767,True,False
10,1970-07-23 11:28:50.422305656,2025-09-16,2025-09-26 20:04:02.230,AH,C,1374623414,JASSM,3,103,76,2,2,1,225,9,2,0,1,26,0,0,0,0,-170982.62097342435,-4771508.477510299,4219368.167448521,-2.51439,-0.703043,0.60784,55.375,-46.875,-50.375,0.0,0.0,0.0,0.0,0.0,0.0,2,0,41.65851932255664,-92.05226347657155,10000.00007270146,139.84639266607155,-0.0050280307704695,-0.0006552729140625,,8959.781364859911,11075.263430171775,150,10,2025-09-16,2025-09-26 20:04:02.114,AH,C,3577252004,HAWK11,1,1,73,2,1,1,225,2,1,0,0,12,1,225,2,1,-149184.43786795562,-4790380.791963424,4199440.741667271,3.06787,2.4745,-0.655777,-74.625,62.625,70.375,-0.09375,-9.0625,8.85938,-0.0234375,0.03125,0.0429688,4,0,41.416081977870725,-91.78375734883458,11175.78830069895,-39.67550195286692,2.8862888364909214,32.93871250231607,190.223,8959.781364859911,11075.263430171775,150,False,18.8803430607433,False,178.91156341378084,179.4617364218894,False,1.3942453696951977,True,False
10,1970-07-23 11:28:50.431368331,2025-09-16,2025-09-26 20:04:03.136,AH,C,1375757080,JASSM,3,103,76,2,2,1,225,9,2,0,1,26,0,0,0,0,-170929.9659441275,-4771553.110322799,4219320.147917271,-2.51439,-0.703043,0.60784,55.375,-46.875,-50.375,0.0,0.0,0.0,0.0,0.0,0.0,2,0,41.65794092801288,-92.05161283659874,9999.99461131632,139.8468251373788,-0.0042724917217203,-0.0006567001012032,,8959.781364859911,11075.263430171775,150,10,2025-09-16,2025-09-26 20:04:03.004,AH,C,3578365468,HAWK11,1,1,73,2,1,1,225,2,1,0,0,12,1,225,2,1,-149251.82653983062,-4790320.425752486,4199508.368620396,3.0647,2.4282,-0.693455,-69.5,64.625,73.875,-0.1875,-9.04688,8.76562,-0.0351562,0.0253906,0.0488281,4,0,41.41688507634338,-91.78458504977958,11179.274501549842,-36.722896071670576,3.394289849990009,31.261587123107457,190.064,8959.781364859911,11075.263430171775,150,False,18.774302371953212,False,176.20716354517754,179.46126635289923,False,3.645216516307749,True,False
10,1970-07-23 11:28:50.443104820,2025-09-16,2025-09-26 20:04:04.310,AH,C,1376951616,JASSM,3,103,76,2,2,1,225,9,2,0,1,26,0,0,0,0,-170874.48376639312,-4771600.141572799,4219269.550261021,-2.51429,-0.703043,0.60784,55.375,-46.875,-50.375,0.0,0.0,0.0,0.0,0.0,0.0,2,0,41.65733146316858,-92.050927274262,9999.998027834185,139.84728081576446,-0.0034763773240293,0.0048332614563707,,8959.781364859911,11075.263430171775,150,10,2025-09-16,2025-09-26 20:04:04.300,AH,C,3579916368,HAWK11,1,1,73,2,1,1,225,2,1,0,0,12,1,225,2,1,-149336.95935233062,-4790233.801729049,4199607.247526646,3.08062,2.356,-0.745802,-62.125,66.875,78.125,-0.078125,-8.9375,8.71875,-0.0292969,0.0371094,0.0390625,4,0,41.41805202740036,-91.78563458215194,11187.386374300935,-32.45357281975774,4.108763171091344,29.72505631246665,189.832,8959.781364859911,11075.263430171775,150,False,18.64267355442668,False,172.06948267752915,179.46994168816659,False,7.724842787155155,True,False
10,1970-07-23 11:28:50.451265568,2025-09-16,2025-09-26 20:04:05.126,AH,C,1378143104,JASSM,3,103,76,2,2,1,225,9,2,0,1,26,0,0,0,0,-170819.14294608062,-4771647.055635299,4219219.077604771,-2.51429,-0.703043,0.60784,55.375,-46.875,-50.375,0.0,0.0,0.0,0.0,0.0,0.0,2,0,41.65672350489988,-92.0502434703448,10000.0033910149,139.84773531991968,-0.0026822584722456,0.0048317282583609,,8959.781364859911,11075.263430171775,150,10,2025-09-16,2025-09-26 20:04:05.206,AH,C,3580711700,HAWK11,1,1,73,2,1,1,225,2,1,0,0,12,1,225,2,1,-149376.63318045562,-4790189.514619674,4199659.108854771,3.06489,2.32369,-0.76421,-58.75,67.5,80.125,-0.046875,-8.45312,8.29688,-0.134766,0.0175781,0.0429688,4,0,41.41865818188333,-91.78612516077142,11194.08395241871,-30.745266580324152,4.270172720467353,27.680283701038903,189.123,8959.781364859911,11075.263430171775,150,False,18.553062902679823,False,170.1753189018126,179.47586633972753,False,9.632860637403537,True,False
10,1970-07-23 11:28:50.461322106,2025-09-16,2025-09-26 20:04:06.132,AH,C,1379277272,JASSM,3,103,76,2,2,1,225,9,2,0,1,26,0,0,0,0,-170766.46447928375,-4771691.707979049,4219171.034636021,-2.51429,-0.703043,0.60784,55.375,-46.875,-50.375,0.0,0.0,0.0,0.0,0.0,0.0,2,0,41.656144829415474,-92.04959257707291,10000.003906594238,139.8481679442898,-0.0019263738838445,0.0048302926340353,,8959.781364859911,11075.263430171775,150,10,2025-09-16,2025-09-26 20:04:06.116,AH,C,3582063764,HAWK11,1,1,73,2,1,1,225,2,1,0,0,12,1,225,2,1,-149441.13513358062,-4790110.753877486,4199751.044401646,2.80239,2.26885,-0.777537,-54.75,68.625,81.625,0.109375,-7.57812,7.28125,-0.208984,0.00976562,0.0390625,4,0,41.41973529960128,-91.78692528488376,11204.897522950738,-28.41568570393238,3.762376115184906,10.613595960280504,189.05,8959.781364859911,11075.263430171775,150,False,18.435137096202695,False,168.10477748407686,179.49050025744415,False,11.72609923311121,True,False
10,1970-07-23 11:28:50.470360592,2025-09-16,2025-09-26 20:04:07.036,AH,C,1380410744,JASSM,3,103,76,2,2,1,225,9,2,0,1,26,0,0,0,0,-170713.81823904935,-4771736.332979049,4219123.019011021,-2.51429,-0.703043,0.60784,55.375,-46.875,-50.375,0.0,0.0,0.0,0.0,0.0,0.0,2,0,41.6555664905999,-92.04894209364473,10000.003529234418,139.8486002913263,-0.0011709412489541,0.0048288490897784,,8959.781364859911,11075.263430171775,150,10,2025-09-16,2025-09-26 20:04:07.006,AH,C,3583137464,HAWK11,1,1,73,2,1,1,225,2,1,0,0,12,1,225,2,1,-149490.11755545562,-4790048.706025924,4199824.952604771,2.65983,2.27566,-0.786453,-53.625,68.25,82.625,-0.265625,-7.89062,7.65625,-0.0976562,0.0117188,-0.0273438,4,0,41.42059418585917,-91.7875337461618,11216.497717997448,-28.39837191020007,4.344074125820176,2.721355486858869,189.086,8959.781364859911,11075.263430171775,150,True,18.33280931510965,False,167.43389941584303,179.4998794334657,False,12.446698214139372,True,False
10,1970-07-23 11:28:50.480410072,2025-09-16,2025-09-26 20:04:08.041,AH,C,1381544780,JASSM,3,103,76,2,2,1,225,9,2,0,1,26,0,0,0,0,-170661.14587576812,-4771780.977510299,4219074.979948521,-2.51429,-0.703043,0.60784,55.375,-46.875,-50.375,0.0,0.0,0.0,0.0,0.0,0.0,2,0,41.654987879289656,-92.0482913002137,10000.00123902108,139.8490328394793,-0.0004151481577433,0.004827415915676,,8959.781364859911,11075.263430171775,150,10,2025-09-16,2025-09-26 20:04:07.912,AH,C,3584211162,HAWK11,1,1,73,2,1,1,225,2,1,0,0,12,1,225,2,1,-149537.84802420562,-4789987.016572799,4199899.255339146,2.63538,2.29253,-0.778879,-52.875,67.875,83.0,-0.21875,-7.1875,7.0,0.00195312,0.0,-0.0195312,4,0,41.4214538299691,-91.78812712834625,11229.745485503989,-29.21203497159219,4.320960337163544,1.9409025556283068,188.292,8959.781364859911,11075.263430171775,150,True,18.230864560463747,False,167.05451606780204,179.506512277401,False,12.872480021981591,True,False
10,1970-07-23 11:28:50.530399799,2025-09-16,2025-09-26 20:04:13.039,AH,C,1387567638,JASSM,3,103,76,2,2,1,225,9,2,0,1,26,0,0,0,0,-170381.4034441275,-4772018.079072799,4218819.827604771,-2.51429,-0.702947,0.607936,55.375,-46.875,-50.375,0.0,0.0,0.0,0.0,0.0,0.0,2,0,41.65191473140269,-92.0448351397634,9999.99973396036,139.85090527137345,-0.0034956424798404,0.0016833753215474,,8959.781364859911,11075.263430171775,150,10,2025-09-16,2025-09-26 20:04:13.113,AH,C,3590414756,HAWK11,1,1,73,2,1,1,225,2,1,0,0,12,1,225,2,1,-149823.92614920562,-4789633.437471236,4200319.927214146,1.92122,2.39186,-0.70496,-62.875,65.25,76.5,-0.0625,-7.29688,7.04688,-0.0839844,0.0,-0.0722656,4,0,41.42634345570432,-91.79167790336017,11295.462006890188,-35.042049470951575,3.029739072287161,-35.50222336399239,187.534,8959.781364859911,11075.263430171775,150,False,17.663168232293643,False,172.90158170299438,179.48726208721413,False,7.268940979862602,True,False
10,1970-07-23 11:28:50.541282349,2025-09-16,2025-09-26 20:04:14.128,AH,C,1388820834,JASSM,3,103,76,2,2,1,225,9,2,0,1,26,0,0,0,0,-170323.195436315,-4772067.411104049,4218766.733854771,-2.51429,-0.702947,0.607936,55.375,-46.875,-50.375,0.0,0.0,0.0,0.0,0.0,0.0,2,0,41.6512752705341,-92.0441160344914,9999.998847132243,139.85138318834683,-0.0026604086901841,0.0016817753162568,,8959.781364859911,11075.263430171775,150,10,2025-09-16,2025-09-26 20:04:14.006,AH,C,3591448688,HAWK11,1,1,73,2,1,1,225,2,1,0,0,12,1,225,2,1,-149880.16443045562,-4789576.855439986,4200384.895964146,1.89351,2.40931,-0.657598,-66.5,65.125,73.5,-0.171875,-6.28125,5.98438,0.0390625,0.00390625,-0.0527344,4,0,41.42710810840548,-91.79237115369769,11301.700137317228,-37.2270457905493,1.2414475410765182,-36.54137669471625,187.094,8959.781364859911,11075.263430171775,150,False,17.558002318524064,False,175.14836806743332,179.4787231197605,False,5.020569524900755,True,False
10,1970-07-23 11:28:50.551321624,2025-09-16,2025-09-26 20:04:15.132,AH,C,1390074768,JASSM,3,103,76,2,2,1,225,9,2,0,1,26,0,0,0,0,-170264.95398123687,-4772116.770479049,4218713.608854771,-2.51429,-0.702947,0.607936,55.375,-46.875,-50.375,0.0,0.0,0.0,0.0,0.0,0.0,2,0,41.65063543865753,-92.04339653067468,9999.998334849814,139.85186136416752,-0.001824695847623,0.0016801747715915,,8959.781364859911,11075.263430171775,150,10,2025-09-16,2025-09-26 20:04:15.207,AH,C,3592920054,HAWK11,1,1,73,2,1,1,225,2,1,0,0,12,1,225,2,1,-149966.11560233062,-4789496.966768111,4200472.790495396,1.87759,2.48956,-0.616469,-72.625,63.375,69.375,-0.0625,-8.67188,8.42188,0.0253906,0.0410156,-0.0273438,4,0,41.428160620989736,-91.79342824080196,11302.69496586283,-41.60197444421463,1.531666850553845,-34.822844949098084,188.011,8959.781364859911,11075.263430171775,150,False,17.429092737226284,False,178.80164797980981,179.4716183827292,False,1.4935904669021005,True,False
10,1970-07-23 11:28:50.562355454,2025-09-16,2025-09-26 20:04:16.235,AH,C,1391385388,JASSM,3,103,76,2,2,1,225,9,2,0,1,26,0,0,0,0,-170204.07946951812,-4772168.360322799,4218658.081511021,-2.51429,-0.702947,0.607936,55.375,-46.875,-50.375,0.0,0.0,0.0,0.0,0.0,0.0,2,0,41.64996667768795,-92.04264451424092,9999.998715650148,139.85236114114173,-0.0009512027608062,0.001678502980068,,8959.781364859911,11075.263430171775,150,10,2025-09-16,2025-09-26 20:04:16.115,AH,C,3593953986,HAWK11,1,1,73,2,1,1,225,2,1,0,0,12,1,225,2,1,-150030.72107108062,-4789443.955049361,4200531.134245396,1.8844,2.54305,-0.595376,-77.125,60.625,66.75,-0.125,-8.9375,8.79688,0.046875,0.0351562,-0.0351562,4,0,41.42885775182348,-91.79422019163631,11303.986811743156,-44.32852164016048,2.152170043089717,-32.774448914897306,188.573,8959.781364859911,11075.263430171775,150,False,17.321893101272963,False,178.20371589753134,179.46667000533446,False,1.9896739238113343,True,False
10,1970-07-23 11:28:50.573362621,2025-09-16,2025-09-26 20:04:17.336,AH,C,1392638086,JASSM,3,103,76,2,2,1,225,9,2,0,1,26,0,0,0,0,-170145.89514334625,-4772217.668916549,4218605.007292271,-2.51429,-0.702947,0.607936,55.375,-46.875,-50.375,0.0,0.0,0.0,0.0,0.0,0.0,2,0,41.649327469273416,-92.04192574628098,9999.998604575872,139.85283881560736,-0.0001163139367937,0.0016769067251233,,8959.781364859911,11075.263430171775,150,10,2025-09-16,2025-09-26 20:04:17.421,AH,C,3595465118,HAWK11,1,1,73,2,1,1,225,2,1,0,0,12,1,225,2,1,-150132.81286795562,-4789369.411104049,4200613.421354771,1.91144,2.5791,-0.547439,-82.625,57.5,63.125,-0.046875,-7.25,6.98438,0.03125,0.015625,-0.0351562,4,0,41.42983759047364,-91.7954682372676,11307.211751942405,-47.42284953263749,1.15400645351676,-30.197272074489653,187.656,8959.781364859911,11075.263430171775,150,False,17.190867330392255,False,174.74733764754217,179.46062832942314,False,5.30979148935545,True,False
10,1970-07-23 11:28:50.583410585,2025-09-16,2025-09-26 20:04:18.341,AH,C,1393890786,JASSM,3,103,76,2,2,1,225,9,2,0,1,26,0,0,0,0,-170087.71081717435,-4772266.977510299,4218551.933073521,-2.51429,-0.702947,0.608032,55.375,-46.875,-50.375,0.0,0.0,0.0,0.0,0.0,0.0,2,0,41.64868825629334,-92.0412069925312,10000.0029355957,139.85653963349134,-0.0037274921145705,0.0016752258109602,,8959.781364859911,11075.263430171775,150,10,2025-09-16,2025-09-26 20:04:18.301,AH,C,3596618350,HAWK11,1,1,73,2,1,1,225,2,1,0,0,12,1,225,2,1,-150215.20153983062,-4789313.979463424,4200673.019011021,1.93857,2.61745,-0.522033,-86.125,55.875,60.125,-0.171875,-7.70312,7.45312,0.0527344,0.0117188,-0.0371094,4,0,41.43055425061295,-91.79647367293823,11306.660594812614,-49.80619924652996,1.289435176152755,-27.573603775013904,188.377,8959.781364859911,11075.263430171775,150,False,17.07893090737381,False,172.44734631697472,179.45710500468806,False,7.582164625105837,True,False
10,1970-07-23 11:28:50.594283016,2025-09-16,2025-09-26 20:04:19.428,AH,C,1395145876,JASSM,3,103,76,2,2,1,225,9,2,0,1,26,0,0,0,0,-170029.41540701812,-4772316.375947799,4218498.753386021,-2.51429,-0.702851,0.608032,55.375,-46.875,-50.375,0.0,0.0,0.0,0.0,0.0,0.0,2,0,41.648047816190285,-92.04048688264112,9999.99217878601,139.85336677452173,-0.0055382387534332,-0.0014650310334649,,8959.781364859911,11075.263430171775,150,10,2025-09-16,2025-09-26 20:04:19.302,AH,C,3597771582,HAWK11,1,1,73,2,1,1,225,2,1,0,0,12,1,225,2,1,-150299.55896170562,-4789261.086885299,4200729.206511021,1.97471,2.64708,-0.496626,-89.125,54.0,57.5,-0.140625,-7.48438,7.23438,0.046875,0.0214844,-0.0351562,4,0,41.431232413243386,-91.7975017081974,11305.107326808617,-51.88222760899632,1.1911801189402038,-24.719899536174985,188.536,8959.781364859911,11075.263430171775,150,False,16.968021137210247,False,170.33417591370832,179.45286632656874,False,9.710915362540215,True,False
10,1970-07-23 11:28:50.605277536,2025-09-16,2025-09-26 20:04:20.527,AH,C,1396458114,JASSM,3,103,76,2,2,1,225,9,2,0,1,26,0,0,0,0,-169968.46569998687,-4772368.028291549,4218443.155729771,-2.51429,-0.702851,0.608032,55.375,-46.875,-50.375,0.0,0.0,0.0,0.0,0.0,0.0,2,0,41.6473782055186,-92.0397339980703,10000.00464023384,139.8538671031424,-0.0046636633046377,-0.0014667145791562,,8959.781364859911,11075.263430171775,150,10,2025-09-16,2025-09-26 20:04:20.506,AH,C,3599163414,HAWK11,1,1,73,2,1,1,225,2,1,0,0,12,1,225,2,1,-150406.15075858062,-4789199.098604049,4200793.792448521,2.00779,2.67996,-0.469206,-92.375,51.75,54.75,-0.25,-7.65625,7.4375,0.0429688,0.0136719,-0.0175781,4,0,41.43201721298159,-91.79879891834916,11301.148245102571,-54.17519344028638,1.163680470840832,-21.996827819561485,189.001,8959.781364859911,11075.263430171775,150,False,16.842183071299214,False,168.0201152395478,179.44543040134653,False,12.068391380875148,True,False
10,1970-07-23 11:28:50.616319990,2025-09-16,2025-09-26 20:04:21.631,AH,C,1397829022,JASSM,3,103,76,2,2,1,225,9,2,0,1,26,0,0,0,0,-169904.79065115875,-4772421.985322799,4218385.069792271,-2.51419,-0.702851,0.608032,55.375,-46.875,-50.375,0.0,0.0,0.0,0.0,0.0,0.0,2,0,41.64667866240753,-92.0389474673235,10000.005880225111,139.85438978424227,-0.0037499933879502,0.0040366670441484,,8959.781364859911,11075.263430171775,150,10,2025-09-16,2025-09-26 20:04:21.506,AH,C,3600197346,HAWK11,1,1,73,2,1,1,225,2,1,0,0,12,1,225,2,1,-150488.31482108062,-4789154.310518111,4200840.091276646,2.03195,2.70153,-0.454154,-94.625,50.25,52.75,-0.28125,-7.70312,7.45312,0.0195312,0.00976562,-0.03125,4,0,41.43258080824285,-91.79979774285265,11297.896780905829,-55.57311208944724,1.2940843200392358,-20.09196061144346,189.245,8959.781364859911,11075.263430171775,150,False,16.732775867512935,False,166.41054432614933,179.43530977869915,False,13.716863345604256,True,False
10,1970-07-23 11:28:50.627338354,2025-09-16,2025-09-26 20:04:22.733,AH,C,1399142160,JASSM,3,103,76,2,2,1,225,9,2,0,1,26,0,0,0,0,-169843.79895194,-4772473.665010299,4218329.429167271,-2.51419,-0.702851,0.608032,55.375,-46.875,-50.375,0.0,0.0,0.0,0.0,0.0,0.0,2,0,41.646008598047565,-92.03819409946756,9999.99796131856,139.85489042052163,-0.0028748305578366,0.0040349918104146,,8959.781364859911,11075.263430171775,150,10,2025-09-16,2025-09-26 20:04:22.708,AH,C,3601549412,HAWK11,1,1,73,2,1,1,225,2,1,0,0,12,1,225,2,1,-150597.41052420562,-4789098.082002486,4200897.804167271,2.04039,2.72214,-0.430186,-97.125,48.5,50.25,-0.296875,-7.28125,7.07812,0.03125,0.00585938,-0.03125,4,0,41.43328445913963,-91.80112277028488,11293.387183411496,-57.29493247384088,1.0406062710170616,-19.13824270980016,189.636,8959.781364859911,11075.263430171775,150,False,16.609867011393376,False,164.5269346999838,179.41586217015808,False,15.658755621280694,True,False
10,1970-07-23 11:28:50.638363934,2025-09-16,2025-09-26 20:04:23.836,AH,C,1400394934,JASSM,3,103,76,2,2,1,225,9,2,0,1,26,0,0,0,0,-169785.61108572906,-4772522.973604049,4218276.347136021,-2.51419,-0.702851,0.608032,55.375,-46.875,-50.375,0.0,0.0,0.0,0.0,0.0,0.0,2,0,41.6453693095823,-92.03747537704618,10000.00801467719,139.85536802767638,-0.0020398811374064,0.0040333800111557,,8959.781364859911,11075.263430171775,150,10,2025-09-16,2025-09-26 20:04:23.912,AH,C,3603179842,HAWK11,1,1,73,2,1,1,225,2,1,0,0,12,1,225,2,1,-150732.21130545562,-4789032.806611861,4200964.374479771,2.25764,2.74803,-0.408135,-99.25,46.875,48.375,-0.265625,-7.0625,6.875,0.185547,0.00585938,-0.015625,4,0,41.434096888191625,-91.8027584597598,11287.864813666332,-59.148330143280255,1.082204224398186,-6.121386239709402,189.832,8959.781364859911,11075.263430171775,150,True,16.47546769894347,False,162.97212366014068,179.38008608606086,False,17.302008422257696,True,False
10,1970-07-23 11:28:50.649382090,2025-09-16,2025-09-26 20:04:24.938,AH,C,1401706712,JASSM,3,103,76,2,2,1,225,9,2,0,1,26,0,0,0,0,-169724.68237479156,-4772574.598604049,4218220.761198521,-2.51419,-0.702851,0.608032,55.375,-46.875,-50.375,0.0,0.0,0.0,0.0,0.0,0.0,2,0,41.64469991663989,-92.03672281824588,10000.00035581681,139.8558681134153,-0.0011656139387094,0.0040316991718246,,8959.781364859911,11075.263430171775,150,10,2025-09-16,2025-09-26 20:04:24.801,AH,C,3604174008,HAWK11,1,1,73,2,1,1,225,2,1,0,0,12,1,225,2,1,-150814.84411795562,-4788993.874971236,4201003.493620396,2.3583,2.75254,-0.415996,-99.75,46.375,48.375,-0.0625,-7.5,7.26562,0.109375,0.00390625,0.015625,4,0,41.43457706283856,-91.80376074987718,11283.481016769712,-59.00129264356322,1.5699739392135663,-0.2467744468461153,190.113,8959.781364859911,11075.263430171775,150,True,16.372217939496455,False,162.70961959311472,179.35121116449335,False,17.628174871204987,True,False
10,1970-07-23 11:28:50.660421792,2025-09-16,2025-09-26 20:04:26.042,AH,C,1403019438,JASSM,3,103,76,2,2,1,225,9,2,0,1,26,0,0,0,0,-169663.70971854156,-4772626.262666549,4218165.136198521,-2.51419,-0.702851,0.608032,55.375,-46.875,-50.375,0.0,0.0,0.0,0.0,0.0,0.0,2,0,41.64403003188188,-92.03596973147222,10000.004289554829,139.85636854339697,-0.0002907126322764,0.0040300149575128,,8959.781364859911,11075.263430171775,150,10,2025-09-16,2025-09-26 20:04:26.114,AH,C,3605844206,HAWK11,1,1,73,2,1,1,225,2,1,0,0,12,1,225,2,1,-150954.69177420562,-4788928.434541549,4201071.188932896,2.46444,2.74707,-0.434308,-99.5,46.25,49.625,-0.140625,-7.29688,7.04688,-0.015625,0.0,0.0,4,0,41.435397080350896,-91.80545689031057,11280.408752785786,-58.06230556270702,2.118549093198016,5.735226784021432,190.308,8959.781364859911,11075.263430171775,150,True,16.233411120450775,False,163.11004609190923,179.2933075509746,False,17.340021239392517,True,False
10,1970-07-23 11:28:50.671279319,2025-09-16,2025-09-26 20:04:27.127,AH,C,1404329942,JASSM,3,103,76,2,2,1,225,9,2,0,1,26,0,0,0,0,-169602.84021170562,-4772677.836885299,4218109.604948521,-2.51419,-0.702851,0.608128,55.375,-46.75,-50.375,0.0,0.0,0.0,0.0,0.0,0.0,2,0,41.64336128761314,-92.03521793532124,10000.00633024215,139.86009351723996,-0.0038659557916939,0.0040282484352347,,8959.781364859911,11075.263430171775,150,10,2025-09-16,2025-09-26 20:04:27.005,AH,C,3606957672,HAWK11,1,1,73,2,1,1,225,2,1,0,0,12,1,225,2,1,-151048.26794608062,-4788883.954072799,4201117.442839146,2.42992,2.73029,-0.434979,-99.125,47.0,50.0,-0.09375,-6.84375,6.48438,-0.0371094,0.0,0.0136719,4,0,41.43595634186163,-91.8065921127981,11278.736880976448,-57.41227369382776,1.5376536676703705,3.373641430459141,190.43,8959.781364859911,11075.263430171775,150,True,16.122803393683576,False,163.55202672921772,179.18188334529606,False,16.993002357600126,True,False
10,1970-07-23 11:28:50.681320675,2025-09-16,2025-09-26 20:04:28.132,AH,C,1405584634,JASSM,3,103,76,2,2,1,225,9,2,0,1,26,0,0,0,0,-169544.56299002594,-4772727.213838424,4218056.433073521,-2.51419,-0.702851,0.608128,55.375,-46.75,-50.375,0.0,0.0,0.0,0.0,0.0,0.0,2,0,41.64272098647472,-92.03449817127832,9999.998634794969,139.86057179174466,-0.0030297160367249,0.0040266715833102,,8959.781364859911,11075.263430171775,150,10,2025-09-16,2025-09-26 20:04:28.207,AH,C,3608309738,HAWK11,1,1,73,2,1,1,225,2,1,0,0,12,1,225,2,1,-151160.71325858062,-4788829.393525924,4201173.649870396,2.39963,2.72732,-0.436226,-99.0,47.75,50.25,0.046875,-7.0,6.75,-0.0117188,0.00585938,0.00195312,4,0,41.436639198118094,-91.80795669201996,11275.36557637472,-57.25257081910619,1.482681603465551,1.570144654717976,191.017,8959.781364859911,11075.263430171775,150,True,16.002184659935303,False,163.85280978553303,179.12746313483274,False,16.763430480498986,True,False
10,1970-07-23 11:28:50.693379567,2025-09-16,2025-09-26 20:04:29.337,AH,C,1406954644,JASSM,3,103,76,2,2,1,225,9,2,0,1,26,0,0,0,0,-169480.92944510406,-4772781.125947799,4217998.378386021,-2.51419,-0.702755,0.608128,55.375,-46.75,-50.375,0.0,0.0,0.0,0.0,0.0,0.0,2,0,41.64202187679031,-92.03371227054352,9999.996958405114,139.85744525162903,-0.0047622627909325,0.000887746584154,,8959.781364859911,11075.263430171775,150,10,2025-09-16,2025-09-26 20:04:29.208,AH,C,3609542502,HAWK11,1,1,73,2,1,1,225,2,1,0,0,12,1,225,2,1,-151262.48474295562,-4788779.723604049,4201225.157682896,2.39732,2.7278,-0.432966,-99.0,47.875,50.75,-0.25,-7.20312,6.85938,-0.00195312,0.00585938,0.00585938,4,0,41.43726323025864,-91.80919187304887,11272.994722922153,-57.401264579861,1.3669694989385044,1.4461667299034895,191.323,8959.781364859911,11075.263430171775,150,True,15.883398548624715,False,164.03011163079725,179.07432626430705,False,16.66177660241901,True,False
10,1970-07-23 11:28:50.703400077,2025-09-16,2025-09-26 20:04:30.340,AH,C,1408207554,JASSM,3,103,76,2,2,1,225,9,2,0,1,26,0,0,0,0,-169422.73474295562,-4772830.430635299,4217945.284636021,-2.51419,-0.702755,0.608128,55.375,-46.75,-50.375,0.0,0.0,0.0,0.0,0.0,0.0,2,0,41.6413825058458,-92.032993556431,9999.999004155436,139.85792281594334,-0.0039272328276036,0.000886139498804,,8959.781364859911,11075.263430171775,150,10,2025-09-16,2025-09-26 20:04:30.505,AH,C,3611093402,HAWK11,1,1,73,2,1,1,225,2,1,0,0,12,1,225,2,1,-151391.18005545562,-4788716.793916549,4201290.591276646,2.39454,2.7233,-0.444183,-98.875,48.0,51.125,-0.078125,-7.23438,7.03125,0.0117188,0.00390625,0.00195312,4,0,41.43805506284684,-91.81075390286225,11270.364140330295,-56.78726830426832,1.6678782893878077,1.1934986568861694,192.031,8959.781364859911,11075.263430171775,150,True,15.75224206066619,False,164.2042775189159,179.0039367752733,False,16.58089469038838,True,False
10,1970-07-23 11:28:50.714280207,2025-09-16,2025-09-26 20:04:31.428,AH,C,1409460798,JASSM,3,103,76,2,2,1,225,9,2,0,1,26,0,0,0,0,-169364.5246599478,-4772879.748994674,4217892.175261021,-2.51419,-0.702755,0.608128,55.375,-46.75,-50.375,0.0,0.0,0.0,0.0,0.0,0.0,2,0,41.640742946811606,-92.03227466630425,10000.003594353668,139.858400491195,-0.003091970828451,0.000884522746079,,8959.781364859911,11075.263430171775,150,10,2025-09-16,2025-09-26 20:04:31.506,AH,C,3612286400,HAWK11,1,1,73,2,1,1,225,2,1,0,0,12,1,225,2,1,-151490.78747733062,-4788668.088838424,4201341.776823521,2.4026,2.72656,-0.443608,-98.75,48.25,51.375,-0.0625,-7.25,7.01562,0.0214844,0.00195312,0.00585938,4,0,41.438671555039726,-91.81196290645886,11269.51514681522,-56.93230026167778,1.7625156948311682,1.7307893366583378,192.337,8959.781364859911,11075.263430171775,150,True,15.639263400499827,False,164.37444169410963,178.9457692565393,False,16.481558389975095,True,False
10,1970-07-23 11:28:50.724298753,2025-09-16,2025-09-26 20:04:32.429,AH,C,1410714724,JASSM,3,103,76,2,2,1,225,9,2,0,1,26,0,0,0,0,-169306.28283865875,-4772929.090791549,4217839.034636021,-2.51419,-0.702755,0.608128,55.375,-46.75,-50.375,0.0,0.0,0.0,0.0,0.0,0.0,2,0,41.64010303970824,-92.03155539990848,9999.999178274264,139.85887841043768,-0.0022562580130585,0.0008829076069091,,8959.781364859911,11075.263430171775,150,10,2025-09-16,2025-09-26 20:04:32.505,AH,C,3613320332,HAWK11,1,1,73,2,1,1,225,2,1,0,0,12,1,225,2,1,-151576.59509451812,-4788625.995088424,4201386.499479771,2.42599,2.72186,-0.448402,-98.625,48.25,52.0,-0.109375,-7.26562,6.95312,0.0292969,0.00390625,0.00195312,4,0,41.43920767848978,-91.81300448238088,11269.81927945464,-56.56733044487328,1.7922231218672369,2.966331033538004,192.532,8959.781364859911,11075.263430171775,150,True,15.53475802561131,False,164.5857744403398,178.8934758228231,False,16.339852178534528,True,False
10,1970-07-23 11:28:50.735320265,2025-09-16,2025-09-26 20:04:33.532,AH,C,1412025232,JASSM,3,103,76,2,2,1,225,9,2,0,1,26,0,0,0,0,-169245.41296561187,-4772980.659150924,4217783.495573521,-2.51419,-0.702755,0.608128,55.375,-46.75,-50.375,0.0,0.0,0.0,0.0,0.0,0.0,2,0,41.63943424866466,-92.03080369314294,9999.998345696911,139.85937787836443,-0.0013828317104923,0.0008812167108203,,8959.781364859911,11075.263430171775,150,10,2025-09-16,2025-09-26 20:04:33.412,AH,C,3614553098,HAWK11,1,1,73,2,1,1,225,2,1,0,0,12,1,225,2,1,-151678.41247733062,-4788575.557588424,4201440.374479771,2.45677,2.72176,-0.453004,-98.25,48.75,52.625,0.0,-7.35938,7.03125,-0.00195312,0.0136719,0.00195312,4,0,41.43985218674113,-91.81424060059696,11270.737717470549,-56.38143156945867,1.9796874042134196,4.733367343378643,192.838,8959.781364859911,11075.263430171775,150,True,15.41746429107098,False,164.99408701634283,178.830529428327,False,16.00575380595354,True,False
10,1970-07-23 11:28:50.746338269,2025-09-16,2025-09-26 20:04:34.633,AH,C,1413278302,JASSM,3,103,76,2,2,1,225,9,2,0,1,26,0,0,0,0,-169187.21069510406,-4773029.965791549,4217730.390104771,-2.51419,-0.702755,0.608128,55.375,-46.75,-50.375,0.0,0.0,0.0,0.0,0.0,0.0,2,0,41.63879477036456,-92.03008494496515,9999.996957891788,139.8598554409601,-0.0005476893074265,0.0008796045336491,,8959.781364859911,11075.263430171775,150,10,2025-09-16,2025-09-26 20:04:34.708,AH,C,3616143762,HAWK11,1,1,73,2,1,1,225,2,1,0,0,12,1,225,2,1,-151809.66443045562,-4788509.858369674,4201511.034636021,2.44622,2.70939,-0.464796,-97.75,49.25,53.5,-0.28125,-7.17188,6.90625,0.00195312,0.0117188,0.015625,4,0,41.44069521420124,-91.81583436431316,11272.888600877744,-55.4557088208138,2.0285941967424748,3.847611020145754,193.07,8959.781364859911,11075.263430171775,150,True,15.28314272545974,False,165.50493225267147,178.74876687615014,False,15.592446667492535,True,False
10,1970-07-23 11:28:50.757357812,2025-09-16,2025-09-26 20:04:35.735,AH,C,1414591454,JASSM,3,103,76,2,2,1,225,9,2,0,1,26,0,0,0,0,-169126.2178972525,-4773081.635713424,4217674.737761021,-2.51419,-0.702755,0.608223,55.375,-46.75,-50.375,0.0,0.0,0.0,0.0,0.0,0.0,2,0,41.63812462678684,-92.0293317517293,9999.996894801405,139.86357953158048,-0.0041182180056955,0.0008778079690469,,8959.781364859911,11075.263430171775,150,10,2025-09-16,2025-09-26 20:04:35.615,AH,C,3617257228,HAWK11,1,1,73,2,1,1,225,2,1,0,0,12,1,225,2,1,-151899.90857108062,-4788464.063447799,4201560.362761021,2.44469,2.70575,-0.463166,-97.375,49.75,53.75,0.078125,-6.85938,6.48438,-0.00976562,-0.00976562,0.0,4,0,41.44128356642654,-91.81693043892632,11274.462312409009,-55.38575990652823,1.8331892969819188,3.668667713153662,193.339,8959.781364859911,11075.263430171775,150,True,15.172362751314989,False,165.80821732173737,178.69038162175383,False,15.350482171160818,True,False
