Subject_cm,Timestamp,SampleDate_cm,SampleTime_cm,Configuration_cm,Scenario_cm,DisTime_cm,MarkingTxt_cm,Application_cm,EntId_cm,Site_cm,ExerciseId_cm,ForceId_cm,Category_cm,Country_cm,Domain_cm,Kind_cm,Extra_cm,Specific_cm,Subcategory_cm,AltCategory_cm,AltCountry_cm,AltDomain_cm,AltKind_cm,ECEF_X_cm,ECEF_Y_cm,ECEF_Z_cm,OriPhi_cm,OriPsi_cm,OriTheta_cm,LinVelX_cm,LinVelY_cm,LinVelZ_cm,LinAccX_cm,LinAccY_cm,LinAccZ_cm,AngVelX_cm,AngVelY_cm,AngVelZ_cm,DrAlg_cm,Appearance_cm,Latitude_cm,Longitude_cm,Altitude_cm,Heading_cm,Pitch_cm,Roll_cm,CalibratedAirspeed_cm,CM_Altitude_Lead_cm,CM_Altitude_Wing_cm,CM_Airspeed_cm,Subject_ac,SampleDate_ac,SampleTime_ac,Configuration_ac,Scenario_ac,DisTime_ac,MarkingTxt_ac,Application_ac,EntId_ac,Site_ac,ExerciseId_ac,ForceId_ac,Category_ac,Country_ac,Domain_ac,Kind_ac,Extra_ac,Specific_ac,Subcategory_ac,AltCategory_ac,AltCountry_ac,AltDomain_ac,AltKind_ac,ECEF_X_ac,ECEF_Y_ac,ECEF_Z_ac,OriPhi_ac,OriPsi_ac,OriTheta_ac,LinVelX_ac,LinVelY_ac,LinVelZ_ac,LinAccX_ac,LinAccY_ac,LinAccZ_ac,AngVelX_ac,AngVelY_ac,AngVelZ_ac,DrAlg_ac,Appearance_ac,Latitude_ac,Longitude_ac,Altitude_ac,Heading_ac,Pitch_ac,Roll_ac,CalibratedAirspeed_ac,CM_Altitude_Lead_ac,CM_Altitude_Wing_ac,CM_Airspeed_ac,Bank_Angle_Condition,distance_nm,Distance_Condition,angle_between_vel,angle_between_pos,Cone_Condition,angle_between_pos_nose,Nose_Cone_Condition,Intercept_Criteria
10,1970-07-23 11:12:14.284313123,2025-09-15,2025-09-26 16:23:48.431,HH,C,1749062852,JASSM,3,103,76,2,2,1,225,9,2,0,1,26,0,0,0,0,-172995.56091483062,-4770035.340791549,4221398.050261021,-2.51458,-0.703426,0.607361,53.625,-45.375,-48.75,0.0,0.0,0.0,0.0,0.0,0.0,2,0,41.68053863780587,-92.07704398400024,10997.372093396596,139.82840916370347,-0.000969777391971,0.0009613159162212,,10094.22773008973,12108.22360793471,150,10,2025-09-15,2025-09-26 16:23:48.710,HH,C,1381123894,AMBUSH51,1,1,48,2,1,1,225,2,1,0,0,9,1,225,2,1,-148269.44908247987,-4789563.134464076,4199900.980125381,2.70383,2.12268,-0.757034,-48.2315,80.5201,89.8242,-0.210678,-7.42136,6.37743,0.00206291,0.000889454,-0.00423921,4,0,41.42422274702613,-91.77312653926684,10094.22773008973,-23.582414840091637,-0.0381901851088705,-0.7074358695961402,196.932,10094.22773008973,12108.22360793471,150,True,20.54244723395657,False,162.92740317741593,178.3415669510303,False,18.620374386576934,True,False
10,1970-07-23 11:12:14.295333392,2025-09-15,2025-09-26 16:23:49.533,HH,C,1750373524,JASSM,3,103,76,2,2,1,225,9,2,0,1,26,0,0,0,0,-172936.68933279935,-4770085.282197799,4221344.394011021,-2.51458,-0.703426,0.607456,53.625,-45.375,-48.75,0.0,0.0,0.0,0.0,0.0,0.0,2,0,41.67989213163693,-92.07631605076642,10997.37829009882,139.83211515519696,-0.0045720151323487,0.000959566810151,,10094.22773008973,12108.22360793471,150,10,2025-09-15,2025-09-26 16:23:49.643,HH,C,1382237358,AMBUSH51,1,1,48,2,1,1,225,2,1,0,0,9,1,225,2,1,-148314.39268832933,-4789487.412361263,4199985.151447993,2.70307,2.12325,-0.760321,-48.1388,80.3723,89.7326,-0.247724,-7.42017,6.57254,0.0112841,0.00127853,0.00782616,4,0,41.42523313419326,-91.77369169199424,10094.17021434037,-23.52643302347872,0.1441305062645513,-0.7282383630841849,196.675,10094.22773008973,12108.22360793471,150,True,20.42970843842795,False,162.91567455276402,178.28150983423478,False,18.694588703398264,True,False
10,1970-07-23 11:12:14.306676492,2025-09-15,2025-09-26 16:23:50.667,HH,C,1751687686,JASSM,3,103,76,2,2,1,225,9,2,0,1,26,0,0,0,0,-172877.66150076812,-4770135.356416549,4221290.589323521,-2.51458,-0.703426,0.607456,53.625,-45.375,-48.75,0.0,0.0,0.0,0.0,0.0,0.0,2,0,41.67924386278416,-92.07558620005328,10997.376561221236,139.83260047980406,-0.0037250250824677,0.0009579659874871,,10094.22773008973,12108.22360793471,150,10,2025-09-15,2025-09-26 16:23:50.756,HH,C,1383549658,AMBUSH51,1,1,48,2,1,1,225,2,1,0,0,9,1,225,2,1,-148366.67033013332,-4789399.465454094,4200083.000425502,2.7038,2.12085,-0.759871,-48.0495,80.3322,89.5126,-0.20434,-7.3118,6.3136,-0.00384806,-0.00878115,-0.00454922,4,0,41.42640722229248,-91.77434904134871,10094.311692235537,-23.44669001788686,0.0808543112057393,-0.7809814088594417,196.406,10094.22773008973,12108.22360793471,150,True,20.306773918905876,False,162.91283736293445,178.2114244755977,False,18.77276961375189,True,False
10,1970-07-23 11:12:14.317376758,2025-09-15,2025-09-26 16:23:51.737,HH,C,1752998226,JASSM,3,103,76,2,2,1,225,9,2,0,1,26,0,0,0,0,-172818.79577811187,-4770185.290010299,4221236.933073521,-2.51458,-0.703426,0.607456,53.625,-45.375,-48.75,0.0,0.0,0.0,0.0,0.0,0.0,2,0,41.67859739268576,-92.07485836968272,10997.373253715174,139.8330844547892,-0.0028803793374028,0.0009563836565216,,10094.22773008973,12108.22360793471,150,10,2025-09-15,2025-09-26 16:23:51.609,HH,C,1384583590,AMBUSH51,1,1,48,2,1,1,225,2,1,0,0,9,1,225,2,1,-148408.26439209862,-4789329.656453819,4200160.64300735,2.69915,2.11891,-0.75698,-48.0845,80.1794,89.5683,-0.215634,-7.53433,6.37253,-0.0119582,-0.00126812,0.00904747,4,0,41.42733897147146,-91.77487200911872,10094.38168146842,-23.44160876264062,-0.1023004931738525,-1.1242696908825671,196.26,10094.22773008973,12108.22360793471,150,True,20.198872863835717,False,162.9337962372782,178.1541323404761,False,18.80933855686858,True,False
10,1970-07-23 11:12:14.328134605,2025-09-15,2025-09-26 16:23:52.813,HH,C,1754252948,JASSM,3,103,76,2,2,1,225,9,2,0,1,26,0,0,0,0,-172762.43737967435,-4770233.098604049,4221185.561979771,-2.51458,-0.703426,0.607456,53.625,-45.375,-48.75,0.0,0.0,0.0,0.0,0.0,0.0,2,0,41.67797844088813,-92.07416155332756,10997.378323633156,139.833547801058,-0.0020716999586935,0.0009548607548815,,10094.22773008973,12108.22360793471,150,10,2025-09-15,2025-09-26 16:23:52.680,HH,C,1385856122,AMBUSH51,1,1,48,2,1,1,225,2,1,0,0,9,1,225,2,1,-148459.9626212635,-4789243.346458667,4200256.668031293,2.70029,2.11733,-0.755129,-48.2062,80.2429,89.3872,-0.067743,-7.40029,6.25302,-0.00339657,0.00195264,-0.00512763,4,0,41.42849110871541,-91.7755218693848,10094.562657360228,-23.425398070018336,-0.2248143428874237,-1.1211077491724633,196.113,10094.22773008973,12108.22360793471,150,True,20.079498370577788,False,163.00263977172088,178.08391206237124,False,18.816219320504295,True,False
10,1970-07-23 11:12:14.339154839,2025-09-15,2025-09-26 16:23:53.915,HH,C,1755625092,JASSM,3,103,76,2,2,1,225,9,2,0,1,26,0,0,0,0,-172700.80456717435,-4770285.375947799,4221129.382292271,-2.51448,-0.70333,0.607456,53.625,-45.375,-48.75,0.0,0.0,0.0,0.0,0.0,0.0,2,0,41.6773015850701,-92.07339954169316,10997.373116134258,139.8304031602949,-0.0038330001422249,0.0033104167311246,,10094.22773008973,12108.22360793471,150,10,2025-09-15,2025-09-26 16:23:53.810,HH,C,1387208186,AMBUSH51,1,1,48,2,1,1,225,2,1,0,0,9,1,225,2,1,-148514.1248928794,-4789152.953962106,4200357.1530489605,2.69717,2.11689,-0.754152,-48.2862,80.0299,89.3486,-0.280182,-7.40265,6.52216,-0.00361711,0.00114745,-0.00303247,4,0,41.42969718138404,-91.77620271637666,10094.58621101611,-23.43180919303786,-0.2821762074936338,-1.3170132184046146,195.807,10094.22773008973,12108.22360793471,150,True,19.95229085690999,False,163.06075884085374,178.0090608818073,False,18.83378250827581,True,False
10,1970-07-23 11:12:14.350134339,2025-09-15,2025-09-26 16:23:55.013,HH,C,1756936972,JASSM,3,103,76,2,2,1,225,9,2,0,1,26,0,0,0,0,-172641.87927420562,-4770335.360322799,4221075.667448521,-2.51448,-0.70333,0.607456,53.625,-45.375,-48.75,0.0,0.0,0.0,0.0,0.0,0.0,2,0,41.67665441631723,-92.07267101848984,10997.374723753515,139.83088757754172,-0.0029874762028755,0.0033087593113974,,10094.22773008973,12108.22360793471,150,10,2025-09-15,2025-09-26 16:23:55.009,HH,C,1388639786,AMBUSH51,1,1,48,2,1,1,225,2,1,0,0,9,1,225,2,1,-148572.36327764113,-4789055.995244704,4200464.874309262,2.6958,2.11979,-0.75548,-48.3758,79.9348,89.1733,-0.374816,-7.16744,6.39477,0.00349228,-0.00316354,-0.0104664,4,0,41.43099040786458,-91.77693474258696,10094.497408198848,-23.51174535147848,-0.1616297244550092,-1.2814404821510827,195.624,10094.22773008973,12108.22360793471,150,True,19.822021777750248,False,163.13072079059927,177.92830991554172,False,18.84813932981306,True,False
10,1970-07-23 11:12:14.361169633,2025-09-15,2025-09-26 16:23:56.116,HH,C,1758249130,JASSM,3,103,76,2,2,1,225,9,2,0,1,26,0,0,0,0,-172582.94079764312,-4770385.352510299,4221021.940886021,-2.51448,-0.70333,0.607456,53.625,-45.375,-48.75,0.0,0.0,0.0,0.0,0.0,0.0,2,0,41.676007120244215,-92.07194234835528,10997.37328737784,139.83137208631447,-0.0021417806384499,0.0033071149567153,,10094.22773008973,12108.22360793471,150,10,2025-09-15,2025-09-26 16:23:56.176,HH,C,1390031618,AMBUSH51,1,1,48,2,1,1,225,2,1,0,0,9,1,225,2,1,-148628.20965990398,-4788962.759199128,4200568.39842986,2.69381,2.12037,-0.753798,-48.3877,79.9582,88.9632,-0.0181832,-7.33618,6.26777,0.00340697,-0.00362336,0.00055864,4,0,41.43223359259413,-91.77763682619356,10094.278995350538,-23.57366266428071,-0.2382618925581435,-1.372811792567295,195.392,10094.22773008973,12108.22360793471,150,True,19.69491338517573,False,163.16239135987925,177.84906784465693,False,18.900741667954467,True,False
10,1970-07-23 11:12:14.372671518,2025-09-15,2025-09-26 16:23:57.267,HH,C,1759559982,JASSM,3,103,76,2,2,1,225,9,2,0,1,26,0,0,0,0,-172524.06091483062,-4770435.293916549,4220968.269011021,-2.51448,-0.70333,0.607456,53.625,-45.375,-48.75,0.0,0.0,0.0,0.0,0.0,0.0,2,0,41.67536047803334,-92.07121441767808,10997.37653703374,139.83185609724188,-0.0012969374450007,0.0033054816418386,,10094.22773008973,12108.22360793471,150,10,2025-09-15,2025-09-26 16:23:57.376,HH,C,1391463216,AMBUSH51,1,1,48,2,1,1,225,2,1,0,0,9,1,225,2,1,-148685.44792437385,-4788866.865361104,4200674.994130039,2.69501,2.12261,-0.755421,-48.2857,79.8168,88.8173,-0.102987,-7.36933,6.28573,-0.00459915,0.000402595,-0.00292636,4,0,41.43351306101672,-91.7783565598954,10094.31283686707,-23.621045829205165,-0.1136346738234756,-1.2156552418347428,195.196,10094.22773008973,12108.22360793471,150,True,19.565751246300426,False,163.15404844201788,177.76617850156802,False,18.99444963133748,True,False
10,1970-07-23 11:12:14.382352556,2025-09-15,2025-09-26 16:23:58.235,HH,C,1760814152,JASSM,3,103,76,2,2,1,225,9,2,0,1,26,0,0,0,0,-172467.72741873687,-4770483.075166549,4220916.917448521,-2.51448,-0.70333,0.607456,53.625,-45.25,-48.75,0.0,0.0,0.0,0.0,0.0,0.0,2,0,41.67474179319448,-92.07051798170812,10997.381250011944,139.83231916114718,-0.0004886284801893,0.0033039164864262,,10094.22773008973,12108.22360793471,150,10,2025-09-15,2025-09-26 16:23:58.143,HH,C,1392377848,AMBUSH51,1,1,48,2,1,1,225,2,1,0,0,9,1,225,2,1,-148722.18858336908,-4788806.143208238,4200742.393725982,2.69271,2.12215,-0.753998,-48.3921,79.7793,88.7165,-0.310802,-7.42919,6.54428,-0.0060306,-0.00426418,0.00262467,4,0,41.43432248580468,-91.77881825599574,10094.163074307347,-23.63761265110762,-0.1948850603550701,-1.3653448239011574,195.05,10094.22773008973,12108.22360793471,150,True,19.467480240179512,False,163.18288305493286,177.76007965834017,False,18.989624645651492,True,False
10,1970-07-23 11:12:14.393332060,2025-09-15,2025-09-26 16:23:59.333,HH,C,1762066928,JASSM,3,103,76,2,2,1,225,9,2,0,1,26,0,0,0,0,-172411.45593436187,-4770530.801729049,4220865.620573521,-2.51448,-0.70333,0.607552,53.625,-45.25,-48.75,0.0,0.0,0.0,0.0,0.0,0.0,2,0,41.67412378525129,-92.0698223265953,10997.380982302528,139.83600588435456,-0.0041307515134299,0.0033022453406254,,10094.22773008973,12108.22360793471,150,10,2025-09-15,2025-09-26 16:23:59.543,HH,C,1394048046,AMBUSH51,1,1,48,2,1,1,225,2,1,0,0,9,1,225,2,1,-148789.5951559156,-4788694.482832227,4200866.241235779,2.68766,2.12468,-0.750682,-48.5001,79.6866,88.477,-0.318094,-7.26079,6.51491,-0.00329878,0.00587664,-0.00236876,4,0,41.43581031972791,-91.77966543570308,10093.68932300167,-23.81291791429048,-0.3226452849912714,-1.5549741963982031,194.903,10094.22773008973,12108.22360793471,150,True,19.3275381608842,False,163.26930243743985,177.66275712806706,False,19.003876641981137,True,False
10,1970-07-23 11:12:14.404373387,2025-09-15,2025-09-26 16:24:00.437,HH,C,1763437382,JASSM,3,103,76,2,2,1,225,9,2,0,1,26,0,0,0,0,-172349.89929373687,-4770583.008760299,4220809.503386021,-2.51448,-0.70333,0.607552,53.625,-45.25,-48.75,0.0,0.0,0.0,0.0,0.0,0.0,2,0,41.673447724280685,-92.06906135000708,10997.375037891565,139.83651184918057,-0.0032474957526456,0.0033005815833361,,10094.22773008973,12108.22360793471,150,10,2025-09-15,2025-09-26 16:24:00.509,HH,C,1395201278,AMBUSH51,1,1,48,2,1,1,225,2,1,0,0,9,1,225,2,1,-148836.6547036025,-4788616.5660638,4200952.583319154,2.6844,2.12828,-0.747698,-48.5607,79.5447,88.4857,-0.298259,-7.35128,6.5145,-0.00811952,0.00550213,-0.00976527,4,0,41.43684799195627,-91.78025689851847,10093.199100002968,-24.02169931433881,-0.4143328780261401,-1.6001742370871517,194.524,10094.22773008973,12108.22360793471,150,True,19.21079449076035,False,163.30708604002152,177.5914553212539,False,19.037145196275443,True,False
10,1970-07-23 11:12:14.415370685,2025-09-15,2025-09-26 16:24:01.537,HH,C,1764692236,JASSM,3,103,76,2,2,1,225,9,2,0,1,26,0,0,0,0,-172293.53454764312,-4770630.813447799,4220758.120573521,-2.51448,-0.70333,0.607552,53.625,-45.25,-48.75,0.0,0.0,0.0,0.0,0.0,0.0,2,0,41.67282868274755,-92.0683645702944,10997.379092353189,139.83697512431695,-0.0024387385018346,0.0032990600869754,,10094.22773008973,12108.22360793471,150,10,2025-09-15,2025-09-26 16:24:01.544,HH,C,1396434044,AMBUSH51,1,1,48,2,1,1,225,2,1,0,0,9,1,225,2,1,-148886.17826121033,-4788535.050099926,4201042.759347277,2.68214,2.13024,-0.746209,-48.6779,79.6258,88.2081,-0.223624,-7.46259,6.50404,-0.00206291,0.00415183,-0.00932627,4,0,41.43793249810785,-91.78087917177342,10092.3817577891,-24.13260461795169,-0.456341273304485,-1.652620657996298,194.402,10094.22773008973,12108.22360793471,150,True,19.095534364126586,False,163.38550637730904,177.51721357731094,False,19.03764135771649,True,False
10,1970-07-23 11:12:14.427391604,2025-09-15,2025-09-26 16:24:02.739,HH,C,1766062092,JASSM,3,103,76,2,2,1,225,9,2,0,1,26,0,0,0,0,-172232.00427420562,-4770682.997041549,4220702.026823521,-2.51448,-0.70333,0.607552,53.625,-45.25,-48.75,0.0,0.0,0.0,0.0,0.0,0.0,2,0,41.67215290395927,-92.06760395061916,10997.37872855377,139.83748083894554,-0.0015558629316471,0.0032973982661256,,10094.22773008973,12108.22360793471,150,10,2025-09-15,2025-09-26 16:24:02.743,HH,C,1397865642,AMBUSH51,1,1,48,2,1,1,225,2,1,0,0,9,1,225,2,1,-148944.46233348097,-4788439.607001806,4201148.212364449,2.67799,2.13004,-0.744733,-48.8558,79.5385,87.9998,-0.0171238,-7.3686,6.40299,0.00617833,0.00160726,0.0069315,4,0,41.43920135878098,-91.78161136602117,10091.17724651795,-24.160992370545063,-0.5351897862095992,-1.897566201239644,194.17,10094.22773008973,12108.22360793471,150,True,18.964389791360702,False,163.49627064551478,177.43001847634733,False,19.0164665231792,True,False
10,1970-07-23 11:12:14.437152107,2025-09-15,2025-09-26 16:24:03.715,HH,C,1767316600,JASSM,3,103,76,2,2,1,225,9,2,0,1,26,0,0,0,0,-172175.65515311187,-4770730.786104049,4220650.651823521,-2.51448,-0.703234,0.607552,53.625,-45.25,-48.75,0.0,0.0,0.0,0.0,0.0,0.0,2,0,41.67153399601796,-92.0669073930074,10997.371657642729,139.83429074100428,-0.0033946176083672,0.0001591813947386,,10094.22773008973,12108.22360793471,150,10,2025-09-15,2025-09-26 16:24:03.744,HH,C,1399058642,AMBUSH51,1,1,48,2,1,1,225,2,1,0,0,9,1,225,2,1,-148993.22885103457,-4788359.925213032,4201236.138450216,2.67507,2.13259,-0.741461,-49.0406,79.5257,87.9211,-0.0890591,-7.50233,6.34918,-0.000901938,0.00416431,-0.00501111,4,0,41.44025989875204,-91.78222395246888,10089.944678698068,-24.33727621600097,-0.6594761946853741,-1.9646286390095988,194.097,10094.22773008973,12108.22360793471,150,True,18.850655188562353,False,163.58460827387287,177.35578524356023,False,19.004006223230796,True,False
10,1970-07-23 11:12:14.448209207,2025-09-15,2025-09-26 16:24:04.820,HH,C,1768628500,JASSM,3,103,76,2,2,1,225,9,2,0,1,26,0,0,0,0,-172116.72839529935,-4770780.758760299,4220596.929167271,-2.51448,-0.703234,0.607552,53.625,-45.25,-48.75,0.0,0.0,0.0,0.0,0.0,0.0,2,0,41.67088680334131,-92.06617898737562,10997.367998751824,139.83477502529237,-0.0025491004713664,0.0001575360622004,,10094.22773008973,12108.22360793471,150,10,2025-09-15,2025-09-26 16:24:04.976,HH,C,1400530006,AMBUSH51,1,1,48,2,1,1,225,2,1,0,0,9,1,225,2,1,-149053.74018184975,-4788261.810495164,4201344.550304728,2.66852,2.13788,-0.74275,-49.2822,79.0849,88.0203,0.0620236,-7.34311,6.31225,0.000508705,0.00391048,-0.00911821,4,0,41.44156420491285,-91.78298381870792,10088.790414524176,-24.509320534875616,-0.497145008548748,-2.133005511709116,193.987,10094.22773008973,12108.22360793471,150,True,18.71942650491119,False,163.71505124257382,177.26490370636807,False,18.960042710477282,True,False
10,1970-07-23 11:12:14.459192123,2025-09-15,2025-09-26 16:24:05.919,HH,C,1769939486,JASSM,3,103,76,2,2,1,225,9,2,0,1,26,0,0,0,0,-172057.84216483062,-4770830.700166549,4220543.245573521,-2.51448,-0.703234,0.607552,53.625,-45.25,-48.75,0.0,0.0,0.0,0.0,0.0,0.0,2,0,41.67024004665571,-92.06545109593776,10997.381144752324,139.8352589615522,-0.0017041607096825,0.0001558897430462,,10094.22773008973,12108.22360793471,150,10,2025-09-15,2025-09-26 16:24:05.809,HH,C,1401524172,AMBUSH51,1,1,48,2,1,1,225,2,1,0,0,9,1,225,2,1,-149094.6847199203,-4788196.081604488,4201417.395094579,2.6628,2.14312,-0.743434,-49.4634,78.938,87.8135,-0.164224,-7.5168,6.51817,-0.0131317,0.00842537,-0.00377732,4,0,41.44243937412358,-91.78349774824292,10088.52813922589,-24.693329527955203,-0.3669824022851128,-2.256494965205685,193.791,10094.22773008973,12108.22360793471,150,True,18.61466772429809,False,163.83373945651272,177.20100758563996,False,18.906400042754438,True,False
10,1970-07-23 11:12:14.470362487,2025-09-15,2025-09-26 16:24:07.036,HH,C,1771253280,JASSM,3,103,76,2,2,1,225,9,2,0,1,26,0,0,0,0,-171998.82995779935,-4770880.743135299,4220489.444792271,-2.51448,-0.703234,0.607552,53.625,-45.25,-48.75,0.0,0.0,0.0,0.0,0.0,0.0,2,0,41.66959191747413,-92.0647216642075,10997.380849870166,139.83574391568882,-0.0008574264459997,0.0001542487762378,,10094.22773008973,12108.22360793471,150,10,2025-09-15,2025-09-26 16:24:06.976,HH,C,1402916004,AMBUSH51,1,1,48,2,1,1,225,2,1,0,0,9,1,225,2,1,-149152.2629156384,-4788104.08389923,4201519.603702509,2.65616,2.14599,-0.743488,-49.7354,78.5413,87.8734,-0.206672,-7.49288,6.66818,-0.014896,-0.00507977,-0.0102896,4,0,41.44366594809564,-91.78422032285886,10088.736780483436,-24.80201614676627,-0.3112661457564808,-2.52501999272912,193.608,10094.22773008973,12108.22360793471,150,True,18.48800557585347,False,163.97670062872632,177.11374191713477,False,18.846646995603365,True,False
10,1970-07-23 11:12:14.481349330,2025-09-15,2025-09-26 16:24:08.134,HH,C,1772566296,JASSM,3,103,76,2,2,1,225,9,2,0,1,26,0,0,0,0,-171939.85241873687,-4770930.754854049,4220435.671354771,-2.51448,-0.703234,0.607648,53.625,-45.25,-48.75,0.0,0.0,0.0,0.0,0.0,0.0,2,0,41.66894414676545,-92.06399267641726,10997.37128881392,139.83945099323097,-0.0044577756805834,0.0001524712757641,,10094.22773008973,12108.22360793471,150,10,2025-09-15,2025-09-26 16:24:08.143,HH,C,1404307836,AMBUSH51,1,1,48,2,1,1,225,2,1,0,0,9,1,225,2,1,-149210.53123811563,-4788012.010318733,4201622.154256366,2.64973,2.15056,-0.743367,-50.0646,78.3584,87.6133,-0.208056,-7.46652,6.58106,0.00154276,0.00430579,0.000906099,4,0,41.444895147724814,-91.7849512033363,10089.565789547903,-24.97987448433801,-0.2334107354582862,-2.71493944183188,193.449,10094.22773008973,12108.22360793471,150,True,18.36104794511744,False,164.1683945484142,177.0257665165419,False,18.74447881804989,True,False
10,1970-07-23 11:12:14.492369578,2025-09-15,2025-09-26 16:24:09.236,HH,C,1773876540,JASSM,3,103,76,2,2,1,225,9,2,0,1,26,0,0,0,0,-171880.99963553375,-4770980.661104049,4220382.015104771,-2.51448,-0.703234,0.607648,53.625,-45.25,-48.75,0.0,0.0,0.0,0.0,0.0,0.0,2,0,41.6682977628124,-92.06326524509258,10997.374588283965,139.8399346052147,-0.0036133317302173,0.000150884160204,,10094.22773008973,12108.22360793471,150,10,2025-09-15,2025-09-26 16:24:09.409,HH,C,1405818968,AMBUSH51,1,1,48,2,1,1,225,2,1,0,0,9,1,225,2,1,-149273.15474448193,-4787913.857045988,4201731.667609642,2.63598,2.15895,-0.741501,-50.3862,77.9098,87.4703,-0.15043,-7.41434,6.50952,0.000446288,-0.000569043,0.00149699,4,0,41.44620670315378,-91.78573644413284,10090.916586807714,-25.3456928510242,-0.1753069083879306,-3.1770193062884213,193.033,10094.22773008973,12108.22360793471,150,True,18.228968357009393,False,164.36638203144102,176.9316664050565,False,18.637674323979912,True,False
10,1970-07-23 11:12:14.503393159,2025-09-15,2025-09-26 16:24:10.339,HH,C,1775130948,JASSM,3,103,76,2,2,1,225,9,2,0,1,26,0,0,0,0,-171824.65490897125,-4771028.442354049,4220330.640104771,-2.51439,-0.703234,0.607648,53.625,-45.25,-48.75,0.0,0.0,0.0,0.0,0.0,0.0,2,0,41.66767887392601,-92.06256882667472,10997.374723197412,139.84039759338674,-0.0028048382551128,0.0056408070719704,,10094.22773008973,12108.22360793471,150,10,2025-09-15,2025-09-26 16:24:10.276,HH,C,1406852900,AMBUSH51,1,1,48,2,1,1,225,2,1,0,0,9,1,225,2,1,-149317.01338198732,-4787846.193259984,4201807.216719174,2.62236,2.16916,-0.741374,-50.7188,77.6493,87.2125,-0.0836958,-7.37718,6.40184,-0.011076,0.00391672,-0.00478225,4,0,41.44711108171133,-91.78628600758594,10092.025541342464,-25.73723991251854,0.008311595748519,-3.561537947937535,192.923,10094.22773008973,12108.22360793471,150,True,18.124144212170027,False,164.56794651001636,176.86434387740636,False,18.503514554197974,True,False
10,1970-07-23 11:12:14.514673334,2025-09-15,2025-09-26 16:24:11.467,HH,C,1776442842,JASSM,3,103,76,2,2,1,225,9,2,0,1,26,0,0,0,0,-171765.72790701812,-4771078.411104049,4220276.913542271,-2.51439,-0.703234,0.607648,53.625,-45.25,-48.75,0.0,0.0,0.0,0.0,0.0,0.0,2,0,41.66703165047042,-92.0618405067116,10997.380094371369,139.84088178409235,-0.0019593176828548,0.005639208001217,,10094.22773008973,12108.22360793471,150,10,2025-09-15,2025-09-26 16:24:11.443,HH,C,1408244732,AMBUSH51,1,1,48,2,1,1,225,2,1,0,0,9,1,225,2,1,-149376.58544284053,-4787754.968624221,4201909.074127613,2.61484,2.17457,-0.738628,-51.2136,77.5198,86.8159,-0.16932,-7.56767,6.45088,0.0105476,-0.00416847,0.000329774,4,0,41.44833029432678,-91.78703223571284,10093.568244282897,-26.012711834532976,-0.0300288390759231,-3.783021906128725,192.655,10094.22773008973,12108.22360793471,150,True,17.997324066969217,False,164.84502159883687,176.77555990998246,False,18.318724515865604,True,False
10,1970-07-23 11:12:14.524191431,2025-09-15,2025-09-26 16:24:12.419,HH,C,1777696258,JASSM,3,103,76,2,2,1,225,9,2,0,1,26,0,0,0,0,-171709.42736990875,-4771126.149385299,4220225.577604771,-2.51439,-0.703234,0.607648,53.625,-45.25,-48.75,0.0,0.0,0.0,0.0,0.0,0.0,2,0,41.666413262789774,-92.06114466410818,10997.37260230879,139.84134437792602,-0.0011514780426937,0.0056376744888162,,10094.22773008973,12108.22360793471,150,10,2025-09-15,2025-09-26 16:24:12.243,HH,C,1409199130,AMBUSH51,1,1,48,2,1,1,225,2,1,0,0,9,1,225,2,1,-149416.98143534805,-4787693.497603771,4201977.700144078,2.61123,2.18081,-0.73842,-51.479,77.48,86.4494,-0.104594,-7.19342,6.31244,-0.00247071,0.00090818,-0.00278696,4,0,41.44915173502711,-91.78753812604764,10094.612394906691,-26.25497222062559,0.07829248690554,-3.749131081159732,192.459,10094.22773008973,12108.22360793471,150,True,17.89756433749834,False,165.01415586857183,176.71261110967083,False,18.21660264811367,True,False
10,1970-07-23 11:12:14.534333752,2025-09-15,2025-09-26 16:24:13.433,HH,C,1778949068,JASSM,3,103,76,2,2,1,225,9,2,0,1,26,0,0,0,0,-171653.15417654935,-4771173.864229049,4220174.269011021,-2.51439,-0.703138,0.607648,53.625,-45.25,-48.75,0.0,0.0,0.0,0.0,0.0,0.0,2,0,41.66579518888489,-92.06044917287342,10997.373911119545,139.83815617820576,-0.0029897329691931,0.0025009682059999,,10094.22773008973,12108.22360793471,150,10,2025-09-15,2025-09-26 16:24:13.444,HH,C,1410630730,AMBUSH51,1,1,48,2,1,1,225,2,1,0,0,9,1,225,2,1,-149479.1082076973,-4787600.15450152,4202081.819744742,2.60713,2.18676,-0.735238,-51.9604,77.1461,86.2233,-0.157261,-7.41233,6.39785,-0.00688365,0.0016239,-5.09746e-05,4,0,41.45039833786151,-91.78831573542858,10096.076454335602,-26.56274669040133,0.0304028119655354,-3.755721790713464,192.08,10094.22773008973,12108.22360793471,150,True,17.770937491826608,False,165.28180010614165,176.6216258290453,False,18.038903787052504,True,False
10,1970-07-23 11:12:14.545330900,2025-09-15,2025-09-26 16:24:14.533,HH,C,1780261268,JASSM,3,103,76,2,2,1,225,9,2,0,1,26,0,0,0,0,-171594.21325858062,-4771223.840791549,4220120.526823521,-2.51439,-0.703138,0.607648,53.625,-45.25,-48.75,0.0,0.0,0.0,0.0,0.0,0.0,2,0,41.66514780303375,-92.05972072510254,10997.376373697842,139.8386404359949,-0.002144016508315,0.002499316454797,,10094.22773008973,12108.22360793471,150,10,2025-09-15,2025-09-26 16:24:14.609,HH,C,1412022560,AMBUSH51,1,1,48,2,1,1,225,2,1,0,0,9,1,225,2,1,-149539.8044134931,-4787510.176906904,4202181.963356125,2.60407,2.18995,-0.731946,-52.4467,76.8489,85.9461,-0.104193,-7.41634,6.32499,0.00055864,-0.0138973,-0.00306576,4,0,41.451598341181565,-91.789075013608,10097.079271609451,-26.769916090527925,-0.0748895153739701,-3.808502413377792,191.763,10094.22773008973,12108.22360793471,150,True,17.64466292194791,False,165.55608514940704,176.53300531779527,False,17.85303906018064,True,False
10,1970-07-23 11:12:14.556369523,2025-09-15,2025-09-26 16:24:15.636,HH,C,1781571690,JASSM,3,103,76,2,2,1,225,9,2,0,1,26,0,0,0,0,-171535.35217459625,-4771273.747041549,4220066.854948521,-2.51439,-0.703138,0.607648,53.625,-45.25,-48.75,0.0,0.0,0.0,0.0,0.0,0.0,2,0,41.664501288365095,-92.05899327969011,10997.371554650304,139.8391240212754,-0.0012994452300326,0.0024976656203703,,10094.22773008973,12108.22360793471,150,10,2025-09-15,2025-09-26 16:24:15.809,HH,C,1413454160,AMBUSH51,1,1,48,2,1,1,225,2,1,0,0,9,1,225,2,1,-149602.3743087221,-4787418.268401889,4202284.000919033,2.60039,2.19559,-0.728357,-52.9327,76.8241,85.4642,-0.290139,-7.23556,6.26412,-0.00466365,-0.00248735,-0.0053773,4,0,41.45282226378416,-91.78985744354696,10097.604967723666,-27.07846820683388,-0.1468822624484064,-3.803021893334775,191.616,10094.22773008973,12108.22360793471,150,True,17.51674493914917,False,165.83387549410708,176.44227699004108,False,17.671794264671387,True,False
10,1970-07-23 11:12:14.569072080,2025-09-15,2025-09-26 16:24:16.907,HH,C,1782943694,JASSM,3,103,76,2,2,1,225,9,2,0,1,26,0,0,0,0,-171473.72497733062,-4771326.000947799,4220010.659636021,-2.51439,-0.703138,0.607744,53.625,-45.25,-48.75,0.0,0.0,0.0,0.0,0.0,0.0,2,0,41.66382436431102,-92.0582316633394,10997.37458966506,139.84285498904023,-0.0048643540791241,0.002495774930122,,10094.22773008973,12108.22360793471,150,10,2025-09-15,2025-09-26 16:24:16.976,HH,C,1414845992,AMBUSH51,1,1,48,2,1,1,225,2,1,0,0,9,1,225,2,1,-149663.97427909545,-4787328.629904477,4202383.336765103,2.59747,2.19873,-0.723683,-53.3717,76.5857,85.2124,-0.13315,-7.33776,6.36145,-0.0012702,0.00395001,-0.0114339,4,0,41.454014620220114,-91.7906274574106,10097.778900045229,-27.32100902743194,-0.3221200985357845,-3.8503117353947935,191.347,10094.22773008973,12108.22360793471,150,True,17.388253228848242,False,166.07983501453134,176.35255337271323,False,17.515794652802,True,False
10,1970-07-23 11:12:14.579390339,2025-09-15,2025-09-26 16:24:17.939,HH,C,1784196392,JASSM,3,103,76,2,2,1,225,9,2,0,1,26,0,0,0,0,-171417.45666678375,-4771373.707979049,4219959.351042271,-2.51439,-0.703138,0.607744,53.625,-45.25,-48.75,0.0,0.0,0.0,0.0,0.0,0.0,2,0,41.66320631815864,-92.05753628974804,10997.374595412495,139.8433172420766,-0.0040569846672089,0.002494241482056,,10094.22773008973,12108.22360793471,150,10,2025-09-15,2025-09-26 16:24:17.809,HH,C,1415840156,AMBUSH51,1,1,48,2,1,1,225,2,1,0,0,9,1,225,2,1,-149708.30319250817,-4787264.780153182,4202453.8667135,2.59496,2.20416,-0.721219,-53.7073,76.6006,84.7944,-0.34829,-7.34071,6.47047,0.000469174,-0.00771172,-0.0102438,4,0,41.45486231891377,-91.79118135107636,10097.450682599654,-27.59364415187972,-0.3389331915228731,-3.787090750803869,191.225,10094.22773008973,12108.22360793471,150,True,17.28604660553701,False,166.2816002693766,176.2862120268781,False,17.385721418848867,True,False
10,1970-07-23 11:12:14.589168622,2025-09-15,2025-09-26 16:24:18.916,HH,C,1785450886,JASSM,3,103,76,2,2,1,225,9,2,0,1,26,0,0,0,0,-171361.10754569,-4771421.481416549,4219907.968229771,-2.51439,-0.703138,0.607744,53.625,-45.25,-48.75,0.0,0.0,0.0,0.0,0.0,0.0,2,0,41.66258738914394,-92.05683993172184,10997.372440353987,139.84378014388332,-0.0032484629967737,0.002492711115597,,10094.22773008973,12108.22360793471,150,10,2025-09-15,2025-09-26 16:24:18.944,HH,C,1417192222,AMBUSH51,1,1,48,2,1,1,225,2,1,0,0,9,1,225,2,1,-149769.10839261886,-4787177.875424068,4202549.558634252,2.59165,2.20811,-0.717958,-54.1862,76.6582,84.3213,-0.261099,-7.44817,6.33773,0.00410813,-0.00547717,-0.00422673,4,0,41.456013956238486,-91.79194088768024,10096.386497353604,-27.831535938403185,-0.4243554126534177,-3.826044971016084,191.225,10094.22773008973,12108.22360793471,150,True,17.164248175076516,False,166.544898334862,176.1994306980775,False,17.215689264684706,True,False
10,1970-07-23 11:12:14.600188934,2025-09-15,2025-09-26 16:24:20.018,HH,C,1786762722,JASSM,3,103,76,2,2,1,225,9,2,0,1,26,0,0,0,0,-171302.1827410025,-4771471.438447799,4219854.237761021,-2.51439,-0.703138,0.607744,53.625,-45.25,-48.75,0.0,0.0,0.0,0.0,0.0,0.0,2,0,41.66194017214346,-92.05611175790752,10997.376621903872,139.84426418910093,-0.0024029899296573,0.0024911155578285,,10094.22773008973,12108.22360793471,150,10,2025-09-15,2025-09-26 16:24:20.109,HH,C,1418584054,AMBUSH51,1,1,48,2,1,1,225,2,1,0,0,9,1,225,2,1,-149832.4194011581,-4787088.147508651,4202648.101075687,2.58907,2.2136,-0.714849,-54.6101,76.3173,84.1486,-0.371843,-7.38343,6.34668,-0.00228761,0.00288058,-0.0126864,4,0,41.45720116038754,-91.79273146999635,10094.778893400837,-28.12524803402893,-0.4698545693757183,-3.764299490173268,191.152,10094.22773008973,12108.22360793471,150,True,17.037778331967548,False,166.7861521979188,176.1092446233633,False,17.062644829112408,True,False
10,1970-07-23 11:12:14.611310520,2025-09-15,2025-09-26 16:24:21.131,HH,C,1788074908,JASSM,3,103,76,2,2,1,225,9,2,0,1,26,0,0,0,0,-171243.242311315,-4771521.407197799,4219800.487761021,-2.51439,-0.703138,0.607744,53.625,-45.25,-48.75,0.0,0.0,0.0,0.0,0.0,0.0,2,0,41.661292752448354,-92.05538340625128,10997.370095691276,139.84474834636646,-0.001557272725172,0.0024895021594162,,10094.22773008973,12108.22360793471,150,10,2025-09-15,2025-09-26 16:24:20.975,HH,C,1419617986,AMBUSH51,1,1,48,2,1,1,225,2,1,0,0,9,1,225,2,1,-149879.0550063682,-4787022.194820406,4202720.238782467,2.59187,2.21222,-0.709454,-54.8785,76.4223,83.866,-0.156841,-7.2137,6.16592,-0.00814865,-0.00775334,0.0104685,4,0,41.45807178620738,-91.79331378726728,10092.973669593002,-28.21715435996055,-0.7701600348600622,-3.6551293707289454,191.115,10094.22773008973,12108.22360793471,150,True,16.93149191010674,False,166.9276261827003,176.03920675288109,False,16.9959874900227,True,False
10,1970-07-23 11:12:14.622668773,2025-09-15,2025-09-26 16:24:22.266,HH,C,1789446814,JASSM,3,103,76,2,2,1,225,9,2,0,1,26,0,0,0,0,-171181.61926444,-4771573.653291549,4219744.292448521,-2.51439,-0.703138,0.607744,53.625,-45.25,-48.75,0.0,0.0,0.0,0.0,0.0,0.0,2,0,41.66061584991173,-92.05462191865054,10997.377979419622,139.84525452349146,-0.0006730542598447,0.0024878088683696,,10094.22773008973,12108.22360793471,150,10,2025-09-15,2025-09-26 16:24:22.276,HH,C,1421168884,AMBUSH51,1,1,48,2,1,1,225,2,1,0,0,9,1,225,2,1,-149950.30180127322,-4786922.520030009,4202828.45864208,2.60029,2.21685,-0.706185,-55.3269,76.5392,83.426,-0.0518318,-7.37058,6.10549,0.0145735,0.00275575,-0.00474688,4,0,41.45938200928033,-91.79420303757256,10088.572884730418,-28.48360459164508,-0.8397684179327151,-2.996048819988733,191.225,10094.22773008973,12108.22360793471,150,True,16.794402267304104,False,167.16429004846464,175.93915820265713,False,16.865856021446373,True,False
10,1970-07-23 11:12:14.633352785,2025-09-15,2025-09-26 16:24:23.335,HH,C,1790699822,JASSM,3,103,76,2,2,1,225,9,2,0,1,26,0,0,0,0,-171125.33654959625,-4771621.364229049,4219692.968229771,-2.51439,-0.703138,0.607744,53.625,-45.25,-48.75,0.0,0.0,0.0,0.0,0.0,0.0,2,0,41.65999765626784,-92.05392643967596,10997.373779441894,139.84571681737296,0.0001344954070921,0.0024862940827879,,10094.22773008973,12108.22360793471,150,10,2025-09-15,2025-09-26 16:24:23.343,HH,C,1422441416,AMBUSH51,1,1,48,2,1,1,225,2,1,0,0,9,1,225,2,1,-150009.67328591834,-4786840.025946939,4202917.572582892,2.60534,2.21815,-0.702191,-55.698,76.7141,83.1431,-0.217792,-7.19744,6.30999,-0.0002091,-0.00712084,-0.00898089,4,0,41.46046326103912,-91.79494388408764,10083.98972454159,-28.64178420056647,-1.0138114424392946,-2.656051805398666,191.115,10094.22773008973,12108.22360793471,150,True,16.6764385594495,False,167.33593235529412,175.85484184641686,False,16.78359301872561,True,False
10,1970-07-23 11:12:14.644368184,2025-09-15,2025-09-26 16:24:24.436,HH,C,1792012650,JASSM,3,103,76,2,2,1,225,9,2,0,1,26,0,0,0,0,-171066.36706717435,-4771671.356416549,4219639.190886021,-2.51439,-0.703043,0.607744,53.625,-45.25,-48.75,0.0,0.0,0.0,0.0,0.0,0.0,2,0,41.65934990479413,-92.05319777331714,10997.37615986336,139.84254873002348,-0.001666730015239,-0.0006529712004021,,10094.22773008973,12108.22360793471,150,10,2025-09-15,2025-09-26 16:24:24.275,HH,C,1423554882,AMBUSH51,1,1,48,2,1,1,225,2,1,0,0,9,1,225,2,1,-150061.11980933012,-4786768.967069695,4202994.2442124095,2.61175,2.21895,-0.703407,-55.9209,76.5635,83.0868,-0.102425,-7.34426,6.2257,0.0092909,-0.00701056,-0.000899857,4,0,41.46139396732757,-91.79558570300584,10079.878558954231,-28.640233167215182,-0.9348877500776837,-2.2592030891860864,191.188,10094.22773008973,12108.22360793471,150,True,16.565776575484623,False,167.4552277023855,175.77936472977893,False,16.73890300007992,True,False
10,1970-07-23 11:12:14.655387552,2025-09-15,2025-09-26 16:24:25.538,HH,C,1793324670,JASSM,3,103,76,2,2,1,225,9,2,0,1,26,0,0,0,0,-171007.43396170562,-4771721.317354049,4219585.444792271,-2.51439,-0.703043,0.60784,53.625,-45.25,-48.75,0.0,0.0,0.0,0.0,0.0,0.0,2,0,41.65870253773675,-92.05246957122309,10997.37789488254,139.8462556768059,-0.0052673559699115,-0.0006548158873449,,10094.22773008973,12108.22360793471,150,10,2025-09-15,2025-09-26 16:24:25.409,HH,C,1424906948,AMBUSH51,1,1,48,2,1,1,225,2,1,0,0,9,1,225,2,1,-150124.35814400628,-4786682.223221298,4203087.776628146,2.61316,2.2271,-0.706465,-56.1523,76.4928,82.8811,-0.0734867,-7.54795,6.50196,-0.00251648,0.000390112,-0.00704385,4,0,41.462529598774736,-91.79637442984564,10074.765924271109,-28.87100168880689,-0.6109429400347256,-1.872782381778056,191.261,10094.22773008973,12108.22360793471,150,True,16.441773399481136,False,167.59016736146864,175.68949960846012,False,16.695368530151562,True,False
10,1970-07-23 11:12:14.665329733,2025-09-15,2025-09-26 16:24:26.532,HH,C,1794577394,JASSM,3,103,76,2,2,1,225,9,2,0,1,26,0,0,0,0,-170951.164186315,-4771769.016572799,4219534.128386021,-2.51439,-0.703043,0.60784,53.625,-45.25,-48.75,0.0,0.0,0.0,0.0,0.0,0.0,2,0,41.65808445066846,-92.05177429362011,10997.37602373993,139.8467178196105,-0.0044599747953054,-0.0006563510317079,,10094.22773008973,12108.22360793471,150,10,2025-09-15,2025-09-26 16:24:26.642,HH,C,1426378312,AMBUSH51,1,1,48,2,1,1,225,2,1,0,0,9,1,225,2,1,-150193.95980023622,-4786587.544742188,4203190.051341498,2.61565,2.22977,-0.708146,-56.4007,76.1979,82.8453,-0.167459,-7.54748,6.61098,0.00988595,-0.0040686,0.0020213,4,0,41.46377025383821,-91.79724225623424,10069.647761696388,-28.92815638015872,-0.4693598672906445,-1.6303050492500888,191.225,10094.22773008973,12108.22360793471,150,True,16.31311120088261,False,167.73603886957142,175.59240786988948,False,16.643908504697546,True,False
10,1970-07-23 11:12:14.676354661,2025-09-15,2025-09-26 16:24:27.635,HH,C,1795830232,JASSM,3,103,76,2,2,1,225,9,2,0,1,26,0,0,0,0,-170894.88903983062,-4771816.719697799,4219482.808073521,-2.51429,-0.703043,0.60784,53.625,-45.25,-48.75,0.0,0.0,0.0,0.0,0.0,0.0,2,0,41.657466310865146,-92.05107896322636,10997.378886398896,139.847179991878,-0.0036525246536546,0.0048335923806405,,10094.22773008973,12108.22360793471,150,10,2025-09-15,2025-09-26 16:24:27.609,HH,C,1427531544,AMBUSH51,1,1,48,2,1,1,225,2,1,0,0,9,1,225,2,1,-150247.9624683574,-4786514.358719242,4203269.436404345,2.62431,2.23656,-0.71079,-56.4936,75.8909,83.0363,-0.218086,-7.85159,6.99242,0.00186109,0.00260386,-0.00357758,4,0,41.46473143912727,-91.7979155075514,10066.426297078213,-29.114945713042896,-0.1939409050349115,-0.8798928135103264,191.139,10094.22773008973,12108.22360793471,150,True,16.202568511411492,False,167.78378354504414,175.51319288855333,False,16.66962806181728,True,False
10,1970-07-23 11:12:14.687350702,2025-09-15,2025-09-26 16:24:28.735,HH,C,1797142642,JASSM,3,103,76,2,2,1,225,9,2,0,1,26,0,0,0,0,-170835.93811209625,-4771866.692354049,4219429.042448521,-2.51429,-0.703043,0.60784,53.625,-45.25,-48.75,0.0,0.0,0.0,0.0,0.0,0.0,2,0,41.65681873262269,-92.05035058482063,10997.378434304104,139.84766412446854,-0.0028066489216929,0.0048319639555994,,10094.22773008973,12108.22360793471,150,10,2025-09-15,2025-09-26 16:24:28.743,HH,C,1428883610,AMBUSH51,1,1,48,2,1,1,225,2,1,0,0,9,1,225,2,1,-150312.5214129108,-4786427.67392651,4203364.461438455,2.62804,2.24034,-0.715327,-56.5603,75.4793,83.3681,-0.159229,-7.80688,6.66358,0.0114297,-0.00691902,0.00195056,4,0,41.46587652266727,-91.79872008712204,10064.834087396155,-29.13346664019358,0.1139948645758047,-0.5245886199133759,190.993,10094.22773008973,12108.22360793471,150,True,16.0777689451992,False,167.80842954929966,175.419877541787,False,16.728663766630753,True,False
10,1970-07-23 11:12:14.697392156,2025-09-15,2025-09-26 16:24:29.739,HH,C,1798395602,JASSM,3,103,76,2,2,1,225,9,2,0,1,26,0,0,0,0,-170779.65759451812,-4771914.395479049,4219377.714323521,-2.51429,-0.703043,0.60784,53.625,-45.25,-48.75,0.0,0.0,0.0,0.0,0.0,0.0,2,0,41.65620053269316,-92.04965521724696,10997.372297783408,139.84812630992724,-0.0019991283025124,0.0048304388768309,,10094.22773008973,12108.22360793471,150,10,2025-09-15,2025-09-26 16:24:29.675,HH,C,1429997076,AMBUSH51,1,1,48,2,1,1,225,2,1,0,0,9,1,225,2,1,-150365.09326334967,-4786357.315694775,4203442.531913638,2.63478,2.24307,-0.717653,-56.5075,74.7784,84.024,-0.233707,-7.86156,7.0049,0.017374,0.00669015,0.0081757,4,0,41.46681225842219,-91.79937520912434,10065.611231767833,-29.17281170479035,0.2888724670348284,-0.0354130707860949,190.907,10094.22773008973,12108.22360793471,150,True,15.968947786407856,False,167.75615042726614,175.34035584291144,False,16.83938011215679,True,False
10,1970-07-23 11:12:14.709411969,2025-09-15,2025-09-26 16:24:30.941,HH,C,1799767236,JASSM,3,103,76,2,2,1,225,9,2,0,1,26,0,0,0,0,-170718.04651053375,-4771966.622041549,4219321.522917271,-2.51429,-0.703043,0.60784,53.625,-45.25,-48.75,0.0,0.0,0.0,0.0,0.0,0.0,2,0,41.65552373206639,-92.04889400144826,10997.379385845086,139.84863225584766,-0.0011150895729223,0.0048287425905758,,10094.22773008973,12108.22360793471,150,10,2025-09-15,2025-09-26 16:24:30.909,HH,C,1431468440,AMBUSH51,1,1,48,2,1,1,225,2,1,0,0,9,1,225,2,1,-150433.5759429459,-4786265.756761231,4203545.325260868,2.64276,2.2436,-0.724341,-56.2118,74.3289,84.4146,-0.300675,-7.69675,6.86718,0.00645713,0.00633021,0.0112612,4,0,41.46803801660634,-91.80022859644836,10069.241925246102,-29.007318510594263,0.6363305937994629,0.4430101643340488,190.479,10094.22773008973,12108.22360793471,150,True,15.836971535983752,False,167.61397173269805,175.23736736998734,False,17.070152529505823,True,False
10,1970-07-23 11:12:14.721147165,2025-09-15,2025-09-26 16:24:32.114,HH,C,1801139612,JASSM,3,103,76,2,2,1,225,9,2,0,1,26,0,0,0,0,-170656.40197928375,-4772018.872041549,4219265.300261021,-2.51429,-0.703043,0.60784,53.625,-45.25,-48.75,0.0,0.0,0.0,0.0,0.0,0.0,2,0,41.65484658326525,-92.04813239046184,10997.377797286164,139.8491384576818,-0.0002305904575505,0.0048270598639532,,10094.22773008973,12108.22360793471,150,10,2025-09-15,2025-09-26 16:24:32.075,HH,C,1432860272,AMBUSH51,1,1,48,2,1,1,225,2,1,0,0,9,1,225,2,1,-150499.3090076161,-4786178.573503424,4203644.403238112,2.64438,2.24374,-0.730771,-55.9242,73.5996,84.8352,-0.390025,-7.95919,6.9896,-0.00709795,-0.00722487,-0.00738507,4,0,41.46921316362056,-91.80104748672586,10075.35193295024,-28.83458414067001,0.962819609175354,0.5437745408021133,190.125,10094.22773008973,12108.22360793471,150,True,15.708263781566128,False,167.4896299519399,175.13657285509606,False,17.272473441857443,True,False
10,1970-07-23 11:12:14.732171230,2025-09-15,2025-09-26 16:24:33.217,HH,C,1802509656,JASSM,3,103,76,2,2,1,225,9,2,0,1,26,0,0,0,0,-170594.86218436187,-4772071.032197799,4219209.171354771,-2.51429,-0.703043,0.60784,53.625,-45.25,-48.75,0.0,0.0,0.0,0.0,0.0,0.0,2,0,41.65417057431148,-92.04737208985205,10997.37469656244,139.84964378184517,0.0006524099793569,0.0048253761328551,,10094.22773008973,12108.22360793471,150,10,2025-09-15,2025-09-26 16:24:33.211,HH,C,1434212338,AMBUSH51,1,1,48,2,1,1,225,2,1,0,0,9,1,225,2,1,-150561.50884784522,-4786095.928478117,4203739.24816573,2.64066,2.24627,-0.738392,-55.5387,73.1783,84.9123,-0.226067,-7.73085,6.73651,-0.00140128,0.00119946,-0.00652162,4,0,41.47033338747986,-91.80182244321202,10083.153914747412,-28.71668479345758,1.397881415098822,0.429746450725303,189.624,10094.22773008973,12108.22360793471,150,True,15.583419213930682,False,167.35558038512906,175.0376267622674,False,17.49536469558508,True,False
10,1970-07-23 11:12:14.743189094,2025-09-15,2025-09-26 16:24:34.318,HH,C,1803822006,JASSM,3,103,76,2,2,1,225,9,2,0,1,26,0,0,0,0,-170535.91369803375,-4772120.997041549,4219155.405729771,-2.51429,-0.702947,0.607936,53.625,-45.25,-48.75,0.0,0.0,0.0,0.0,0.0,0.0,2,0,41.65352301838469,-92.04664381833152,10997.37852640971,139.84970319796687,-0.0055963350457228,0.0016874022467151,,10094.22773008973,12108.22360793471,150,10,2025-09-15,2025-09-26 16:24:34.208,HH,C,1435405336,AMBUSH51,1,1,48,2,1,1,225,2,1,0,0,9,1,225,2,1,-150616.59054038938,-4786022.882330487,4203823.933822872,2.64565,2.244,-0.743573,-55.1987,72.7344,85.0357,-0.279287,-7.52282,6.67866,0.0110178,0.000879051,0.00202754,4,0,41.47132925295439,-91.80250868243532,10091.927472250283,-28.48879448782357,1.6117227251964934,0.6340540971112458,188.915,10094.22773008973,12108.22360793471,150,True,15.4689278078865,False,167.2302709940466,174.9469030890879,False,17.699139026007437,True,False
10,1970-07-23 11:12:14.753337862,2025-09-15,2025-09-26 16:24:35.333,HH,C,1805074706,JASSM,3,103,76,2,2,1,225,9,2,0,1,26,0,0,0,0,-170479.644655065,-4772168.688447799,4219104.081511021,-2.51429,-0.702947,0.607936,53.625,-45.25,-48.75,0.0,0.0,0.0,0.0,0.0,0.0,2,0,41.65290488953541,-92.0459486642604,10997.37535748066,139.85016521171926,-0.004788954422711,0.0016858501227757,,10094.22773008973,12108.22360793471,150,10,2025-09-15,2025-09-26 16:24:35.177,HH,C,1436558568,AMBUSH51,1,1,48,2,1,1,225,2,1,0,0,9,1,225,2,1,-150669.82665270576,-4785952.483384145,4203906.002826483,2.65133,2.24107,-0.744778,-54.8563,72.4018,84.9907,-0.171102,-7.5063,6.29976,0.00131806,-0.0060098,-0.00571019,4,0,41.47229204543297,-91.8031718725898,10101.385173731482,-28.34795020823286,1.6134953366839062,0.8498017121784762,188.597,10094.22773008973,12108.22360793471,150,True,15.358902705970793,False,167.1257680501587,174.8581273517521,False,17.88634517888049,True,False
10,1970-07-23 11:12:14.764329914,2025-09-15,2025-09-26 16:24:36.432,HH,C,1806389390,JASSM,3,103,76,2,2,1,225,9,2,0,1,26,0,0,0,0,-170420.59118826812,-4772218.739229049,4219050.218229771,-2.51429,-0.702947,0.607936,53.625,-45.25,-48.75,0.0,0.0,0.0,0.0,0.0,0.0,2,0,41.65225617658469,-92.04521912565274,10997.3765123818,139.85065007209457,-0.0039416274658639,0.0016842262132172,,10094.22773008973,12108.22360793471,150,10,2025-09-15,2025-09-26 16:24:36.375,HH,C,1437990168,AMBUSH51,1,1,48,2,1,1,225,2,1,0,0,9,1,225,2,1,-150734.9333863727,-4785865.233296156,4204007.80345115,2.65126,2.23902,-0.750928,-54.2454,72.0176,84.8564,-0.261125,-7.35098,6.72628,-0.0110636,0.00512763,0.00770964,4,0,41.47348604204706,-91.803983401689,10113.238764874885,-28.102347169761263,1.8814624373877675,0.77313846363347,187.73,10094.22773008973,12108.22360793471,150,True,15.232040848348987,False,166.9314608042724,174.7481633546195,False,18.186106726766123,True,False
10,1970-07-23 11:12:14.776350613,2025-09-15,2025-09-26 16:24:37.635,HH,C,1807759060,JASSM,3,103,76,2,2,1,225,9,2,0,1,26,0,0,0,0,-170359.06799490875,-4772270.879854049,4218994.101042271,-2.51429,-0.702947,0.607936,53.625,-45.25,-48.75,0.0,0.0,0.0,0.0,0.0,0.0,2,0,41.6515803400472,-92.04445909338877,10997.371607031087,139.85115519234066,-0.0030588733272495,0.0016825411474261,,10094.22773008973,12108.22360793471,150,10,2025-09-15,2025-09-26 16:24:37.808,HH,C,1439700132,AMBUSH51,1,1,48,2,1,1,225,2,1,0,0,9,1,225,2,1,-150812.1377580568,-4785761.565871364,4204129.040093211,2.66146,2.23262,-0.751971,-53.6953,72.0023,84.6151,-0.118426,-7.23593,6.35664,0.00887894,-0.0134417,0.00946983,4,0,41.47490661854692,-91.80494583769824,10127.935907807549,-27.83924906511901,1.806654172728807,1.1156433675520774,186.74,10094.22773008973,12108.22360793471,150,True,15.088757475898351,False,166.7534605990281,174.61725669805307,False,18.503186471120614,True,False
10,1970-07-23 11:12:14.787068420,2025-09-15,2025-09-26 16:24:38.706,HH,C,1809011760,JASSM,3,103,76,2,2,1,225,9,2,0,1,26,0,0,0,0,-170302.79895194,-4772318.567354049,4218942.776823521,-2.51429,-0.702947,0.607936,53.625,-45.25,-48.75,0.0,0.0,0.0,0.0,0.0,0.0,2,0,41.65096222112352,-92.04376398276122,10997.371924722704,139.85161715954,-0.0022515110819405,0.001681003044833,,10094.22773008973,12108.22360793471,150,10,2025-09-15,2025-09-26 16:24:38.608,HH,C,1440654530,AMBUSH51,1,1,48,2,1,1,225,2,1,0,0,9,1,225,2,1,-150854.6825731369,-4785703.910411619,4204196.429973442,2.66331,2.23241,-0.752441,-53.3242,71.9462,84.4416,-0.160761,-7.36558,6.28153,-0.00278488,-0.0066423,0.00162598,4,0,41.47569650432812,-91.80547642118312,10136.0063491876,-27.819141402733628,1.8270205761841312,1.2141469460625034,186.227,10094.22773008973,12108.22360793471,150,True,14.990390173553617,False,166.6380296254004,174.53576775065162,False,18.704156239302126,True,False
10,1970-07-23 11:12:14.798126553,2025-09-15,2025-09-26 16:24:39.812,HH,C,1810324372,JASSM,3,103,76,2,2,1,225,9,2,0,1,26,0,0,0,0,-170243.83850272125,-4772368.536104049,4218888.995573521,-2.51429,-0.702947,0.607936,53.625,-45.25,-48.75,0.0,0.0,0.0,0.0,0.0,0.0,2,0,41.65031451611821,-92.04303563840372,10997.372800389006,139.85210120768272,-0.0014055193021299,0.0016793809536174,,10094.22773008973,12108.22360793471,150,10,2025-09-15,2025-09-26 16:24:39.775,HH,C,1442046362,AMBUSH51,1,1,48,2,1,1,225,2,1,0,0,9,1,225,2,1,-150915.80864099055,-4785620.26134313,4204293.949241446,2.67106,2.22359,-0.753577,-52.7627,71.9709,84.2256,-0.127259,-7.06519,6.44121,0.00824019,0.00321764,0.0106662,4,0,41.47684090692533,-91.80623906299908,10147.128085355642,-27.464233577086315,1.7098892195618984,1.32380006148407,185.86,10094.22773008973,12108.22360793471,150,True,14.867427748306723,False,166.44411433167437,174.42238694748355,False,19.019362739391806,True,False
10,1970-07-23 11:12:14.809169357,2025-09-15,2025-09-26 16:24:40.916,HH,C,1811636462,JASSM,3,103,76,2,2,1,225,9,2,0,1,26,0,0,0,0,-170184.9014910025,-4772418.485322799,4218835.233854771,-2.51429,-0.702947,0.607936,53.625,-45.25,-48.75,0.0,0.0,0.0,0.0,0.0,0.0,2,0,41.649667049491946,-92.04230759801278,10997.37501934761,139.85258504764087,-0.0005598526386008,0.0016777502726317,,10094.22773008973,12108.22360793471,150,10,2025-09-15,2025-09-26 16:24:40.908,HH,C,1443398428,AMBUSH51,1,1,48,2,1,1,225,2,1,0,0,9,1,225,2,1,-150975.61029471754,-4785537.946629691,4204389.660437101,2.67234,2.21856,-0.75145,-52.3265,72.0843,83.9998,-0.102262,-6.992,6.28563,0.00376276,0.000431723,-0.00540226,4,0,41.47796541129375,-91.80698538628457,10157.50690083775,-27.336834628845484,1.504324843531037,1.2037351688368485,185.261,10094.22773008973,12108.22360793471,150,True,14.745902400509,False,166.29533257578916,174.3083378658226,False,19.291770763265294,True,False
10,1970-07-23 11:12:14.819189517,2025-09-15,2025-09-26 16:24:41.918,HH,C,1812889160,JASSM,3,103,76,2,2,1,225,9,2,0,1,26,0,0,0,0,-170128.63220389312,-4772466.168916549,4218783.905729771,-2.51429,-0.702947,0.607936,53.625,-45.25,-48.75,0.0,0.0,0.0,0.0,0.0,0.0,2,0,41.64904891448417,-92.04161252726242,10997.370087013598,139.85304697092755,0.0002475126736991,0.0016762109627464,,10094.22773008973,12108.22360793471,150,10,2025-09-15,2025-09-26 16:24:42.042,HH,C,1444750494,AMBUSH51,1,1,48,2,1,1,225,2,1,0,0,9,1,225,2,1,-151034.01558553017,-4785456.356698273,4204483.992001152,2.67694,2.20981,-0.750079,-51.8848,72.1454,83.8883,-0.331571,-7.17243,6.39716,0.00172169,-0.00170089,-0.00499863,4,0,41.47907655189061,-91.8077147591496,10166.570099563654,-27.05014444397018,1.2645451040868356,1.1319309965614528,184.662,10094.22773008973,12108.22360793471,150,True,14.627824030155377,False,166.1254842932681,174.19335859807026,False,19.582227046563517,True,False
10,1970-07-23 11:12:14.829352503,2025-09-15,2025-09-26 16:24:42.935,HH,C,1814146462,JASSM,3,103,76,2,2,1,225,9,2,0,1,26,0,0,0,0,-170072.156373815,-4772514.028291549,4218732.390104771,-2.51429,-0.702947,0.608032,53.625,-45.25,-48.75,0.0,0.0,0.0,0.0,0.0,0.0,2,0,41.64842850783715,-92.04091491821356,10997.373133782943,139.85673373436143,-0.0033882265177488,0.0016746016395842,,10094.22773008973,12108.22360793471,150,10,2025-09-15,2025-09-26 16:24:42.775,HH,C,1445625360,AMBUSH51,1,1,48,2,1,1,225,2,1,0,0,9,1,225,2,1,-151071.57549106723,-4785403.171273166,4204545.2221575845,2.68085,2.20492,-0.748864,-51.5418,72.4221,83.6154,-0.292348,-7.21915,6.27892,0.00702721,-0.0173366,-0.00875826,4,0,41.47979919595919,-91.80818409521063,10171.876271043608,-26.90090571449185,1.108377361760878,1.1683701501372723,184.54,10094.22773008973,12108.22360793471,150,True,14.534223683685855,False,166.00704945441245,174.10986897328644,False,19.796819508145592,True,False
10,1970-07-23 11:12:14.841349151,2025-09-15,2025-09-26 16:24:44.134,HH,C,1815514322,JASSM,3,103,76,2,2,1,225,9,2,0,1,26,0,0,0,0,-170010.7139910025,-4772566.096650924,4218676.343229771,-2.51429,-0.702851,0.608032,53.625,-45.25,-48.75,0.0,0.0,0.0,0.0,0.0,0.0,2,0,41.647753529884255,-92.04015597571164,10997.379655296148,139.8535866791729,-0.0051538622848784,-0.0014657594646911,,10094.22773008973,12108.22360793471,150,10,2025-09-15,2025-09-26 16:24:44.042,HH,C,1447136490,AMBUSH51,1,1,48,2,1,1,225,2,1,0,0,9,1,225,2,1,-151136.30900710798,-4785311.00746829,4204650.6332237935,2.68668,2.19484,-0.746764,-51.0951,72.6593,83.3839,-0.0279427,-6.9155,6.25732,-0.00159478,-0.0017321,0.0019672,4,0,41.481046835997006,-91.80899319649932,10179.546978214186,-26.580878956265355,0.8082888455938618,1.1148784181674272,183.929,10094.22773008973,12108.22360793471,150,True,14.403567065549272,False,165.83785010928406,173.9760821161553,False,20.110552786493304,True,False
10,1970-07-23 11:12:14.852370719,2025-09-15,2025-09-26 16:24:45.237,HH,C,1816885866,JASSM,3,103,76,2,2,1,225,9,2,0,1,26,0,0,0,0,-169949.10632498687,-4772618.303682174,4218620.140104771,-2.51419,-0.702851,0.608032,53.625,-45.25,-48.75,0.0,0.0,0.0,0.0,0.0,0.0,2,0,41.64707670257404,-92.039395008118,10997.375800509722,139.85409237639058,-0.0042698744935566,0.0040376590026784,,10094.22773008973,12108.22360793471,150,10,2025-09-15,2025-09-26 16:24:45.108,HH,C,1448409022,AMBUSH51,1,1,48,2,1,1,225,2,1,0,0,9,1,225,2,1,-151190.5017262269,-4785232.370648559,4204739.86109582,2.6913,2.1849,-0.745136,-50.6864,73.1885,83.0518,-0.0320259,-7.07732,6.1923,-0.00583295,-0.00329046,0.00431619,4,0,41.48210674916192,-91.8096711317342,10184.47375077318,-26.250898453401387,0.5365277486761562,0.9969814864784616,183.77,10094.22773008973,12108.22360793471,150,True,14.284893097767712,False,165.6707826883039,173.85565941609198,False,20.41476253976905,True,False
10,1970-07-23 11:12:14.863387973,2025-09-15,2025-09-26 16:24:46.338,HH,C,1818199860,JASSM,3,103,76,2,2,1,225,9,2,0,1,26,0,0,0,0,-169890.08361990875,-4772668.317354049,4218566.296354771,-2.51419,-0.702851,0.608032,53.625,-45.25,-48.75,0.0,0.0,0.0,0.0,0.0,0.0,2,0,41.64642829394939,-92.03866598567932,10997.372407174093,139.85457683828895,-0.0034229969409667,0.0040360322344939,,10094.22773008973,12108.22360793471,150,10,2025-09-15,2025-09-26 16:24:46.142,HH,C,1449641788,AMBUSH51,1,1,48,2,1,1,225,2,1,0,0,9,1,225,2,1,-151242.27785676118,-4785156.964719124,4204824.760643443,2.69544,2.17873,-0.742332,-50.4368,73.4483,82.879,-0.275441,-7.01665,6.15172,0.00523374,-0.00925136,0.00832342,4,0,41.483118680743885,-91.81031896072666,10187.752306838936,-26.091077678077745,0.2773634351068456,0.9961001016777784,183.648,10094.22773008973,12108.22360793471,150,True,14.171459419084629,False,165.56706680361808,173.73868686878419,False,20.643192236449607,True,False
10,1970-07-23 11:12:14.875388529,2025-09-15,2025-09-26 16:24:47.538,HH,C,1819571422,JASSM,3,103,76,2,2,1,225,9,2,0,1,26,0,0,0,0,-169828.47509940094,-4772720.522432174,4218510.093229771,-2.51419,-0.702851,0.608032,53.625,-45.25,-48.75,0.0,0.0,0.0,0.0,0.0,0.0,2,0,41.64575146847307,-92.03790503986149,10997.373443759372,139.85508250783113,-0.0025390134721289,0.0040343311918732,,10094.22773008973,12108.22360793471,150,10,2025-09-15,2025-09-26 16:24:47.342,HH,C,1451073386,AMBUSH51,1,1,48,2,1,1,225,2,1,0,0,9,1,225,2,1,-151302.21327326726,-4785067.930682353,4204923.875096879,2.694,2.17563,-0.741013,-49.9924,74.1553,82.2739,-0.158632,-6.81243,6.21364,0.0058163,-0.00244782,0.00215862,4,0,41.48430610762011,-91.81106956461151,10189.087056759448,-26.0077964238554,0.1524349881485018,0.7937721760771557,183.526,10094.22773008973,12108.22360793471,150,True,14.045276921120323,False,165.3984741786815,173.60066486976152,False,20.968857450697897,True,False
10,1970-07-23 11:12:14.886168066,2025-09-15,2025-09-26 16:24:48.616,HH,C,1820884206,JASSM,3,103,76,2,2,1,225,9,2,0,1,26,0,0,0,0,-169769.50659354156,-4772770.489229049,4218456.300261021,-2.51419,-0.702851,0.608032,53.625,-45.25,-48.75,0.0,0.0,0.0,0.0,0.0,0.0,2,0,41.64510366034399,-92.03717671711551,10997.37997711272,139.8555664921234,-0.0016929247975947,0.0040327150857465,,10094.22773008973,12108.22360793471,150,10,2025-09-15,2025-09-26 16:24:48.441,HH,C,1452385686,AMBUSH51,1,1,48,2,1,1,225,2,1,0,0,9,1,225,2,1,-151356.51591777013,-4784986.571004001,4205013.66364493,2.69757,2.16834,-0.737965,-49.751,74.4014,82.2222,-0.16191,-6.94321,6.14054,-0.00597651,-0.00330502,0.00634685,4,0,41.48538599015006,-91.81174991206775,10188.5791432451,-25.809002539131903,-0.1396258161730007,0.7164242975754307,183.367,10094.22773008973,12108.22360793471,150,True,13.928158652943914,False,165.27461559893297,173.47135590974258,False,21.226042076696636,True,False
10,1970-07-23 11:12:14.897186462,2025-09-15,2025-09-26 16:24:49.718,HH,C,1822196140,JASSM,3,103,76,2,2,1,225,9,2,0,1,26,0,0,0,0,-169710.57629569,-4772820.420869674,4218402.538542271,-2.51419,-0.702851,0.608032,53.625,-45.25,-48.75,0.0,0.0,0.0,0.0,0.0,0.0,2,0,41.64445625965096,-92.03644888204082,10997.376392180684,139.85605014617758,-0.0008473789872901,0.0040310944088736,,10094.22773008973,12108.22360793471,150,10,2025-09-15,2025-09-26 16:24:49.608,HH,C,1453777518,AMBUSH51,1,1,48,2,1,1,225,2,1,0,0,9,1,225,2,1,-151414.4723614359,-4784898.795496807,4205109.498650088,2.69772,2.16289,-0.736356,-49.5193,75.0268,81.7855,-0.169024,-6.86725,6.16871,0.00692318,-0.0142947,0.00900794,4,0,41.48654417224659,-91.81247641861968,10185.745130457335,-25.64226380069263,-0.3226972416290929,0.5146759199845362,183.489,10094.22773008973,12108.22360793471,150,True,13.806415357802301,False,165.1661026509249,173.33147978245714,False,21.48562738076123,True,False
10,1970-07-23 11:12:14.908206318,2025-09-15,2025-09-26 16:24:50.820,HH,C,1823507274,JASSM,3,103,76,2,2,1,225,9,2,0,1,26,0,0,0,0,-169651.68200858062,-4772870.323213424,4218348.808073521,-2.51419,-0.702851,0.608032,53.625,-45.25,-48.75,0.0,0.0,0.0,0.0,0.0,0.0,2,0,41.64380923185354,-92.03572150576676,10997.376845430465,139.8565334891901,-2.335734948653953e-06,0.0040294633630275,,10094.22773008973,12108.22360793471,150,10,2025-09-15,2025-09-26 16:24:50.741,HH,C,1455129582,AMBUSH51,1,1,48,2,1,1,225,2,1,0,0,9,1,225,2,1,-151469.81120353987,-4784813.844169051,4205201.305829883,2.70094,2.15531,-0.734034,-49.3147,75.4146,81.6612,-0.0837861,-6.90621,6.23843,0.00120779,0.00409357,0.00776998,4,0,41.48765886131399,-91.81317056863249,10180.901257823049,-25.410628757145638,-0.5813972188269025,0.405914325506866,183.734,10094.22773008973,12108.22360793471,150,True,13.687629551180105,False,165.04743007816867,173.19276147214163,False,21.747466499934706,True,False
10,1970-07-23 11:12:14.918349765,2025-09-15,2025-09-26 16:24:51.834,HH,C,1824761628,JASSM,3,103,76,2,2,1,225,9,2,0,1,26,0,0,0,0,-169595.3378923697,-4772918.063447799,4218297.401823521,-2.51419,-0.702851,0.608128,53.625,-45.25,-48.75,0.0,0.0,0.0,0.0,0.0,0.0,2,0,41.643190208430354,-92.03502563965588,10997.373227636306,139.86022129597612,-0.0036425321451083,0.0040278175541241,,10094.22773008973,12108.22360793471,150,10,2025-09-15,2025-09-26 16:24:51.842,HH,C,1456441882,AMBUSH51,1,1,48,2,1,1,225,2,1,0,0,9,1,225,2,1,-151524.39198829752,-4784729.687476168,4205291.417738511,2.69991,2.15076,-0.727033,-49.2741,76.2054,81.3203,-0.136572,-6.82286,6.05896,-0.00665894,-0.0136373,-0.00282441,4,0,41.4887575258996,-91.81385537329425,10174.275370117448,-25.409017873425597,-1.0258681272449983,0.1730194875179362,184.015,10094.22773008973,12108.22360793471,150,True,13.572063724609244,False,164.97359043156595,173.05437222035002,False,21.966975114617323,True,False
10,1970-07-23 11:12:14.929368251,2025-09-15,2025-09-26 16:24:52.936,HH,C,1826072322,JASSM,3,103,76,2,2,1,225,9,2,0,1,26,0,0,0,0,-169536.46325858062,-4772967.946260299,4218243.690886021,-2.51419,-0.702851,0.608128,53.625,-45.25,-48.75,0.0,0.0,0.0,0.0,0.0,0.0,2,0,41.64254341537429,-92.03429853580118,10997.37901930792,139.8607044460359,-0.0027977925838985,0.0040262518849221,,10094.22773008973,12108.22360793471,150,10,2025-09-15,2025-09-26 16:24:52.975,HH,C,1457793946,AMBUSH51,1,1,48,2,1,1,225,2,1,0,0,9,1,225,2,1,-151579.5623906495,-4784643.464720591,4205382.901282508,2.70259,2.14188,-0.725042,-49.2008,76.6037,81.3044,-0.0797365,-7.11138,6.25426,-0.00332791,-0.00953224,0.00377316,4,0,41.48987763393346,-91.81454803809378,10165.61101198659,-25.11430031337819,-1.2903715126543027,-0.0169903760609889,184.333,10094.22773008973,12108.22360793471,150,True,13.45328642924442,False,164.88997812017286,172.9093395744158,False,22.19750164543729,True,False
10,1970-07-23 11:12:14.940666468,2025-09-15,2025-09-26 16:24:54.066,HH,C,1827326174,JASSM,3,103,76,2,2,1,225,9,2,0,1,26,0,0,0,0,-169480.1417253775,-4773015.665010299,4218192.304167271,-2.51419,-0.702755,0.608128,53.625,-45.25,-48.75,0.0,0.0,0.0,0.0,0.0,0.0,2,0,41.6419246381415,-92.03360297682114,10997.375820492824,139.85751787447018,-0.0046352732831875,0.0008874947056633,,10094.22773008973,12108.22360793471,150,10,2025-09-15,2025-09-26 16:24:54.042,HH,C,1459066478,AMBUSH51,1,1,48,2,1,1,225,2,1,0,0,9,1,225,2,1,-151632.03103592538,-4784560.845552754,4205469.906716206,2.70312,2.1387,-0.719588,-49.1572,77.2318,81.0991,-0.156597,-7.04866,6.32248,-0.00211076,-0.00458251,-0.00144497,4,0,41.4909465866622,-91.8152070396056,10155.864119494954,-25.12339688654894,-1.6301255909949297,-0.1071234534882276,184.54,10094.22773008973,12108.22360793471,150,True,13.339964865015071,False,164.80945444269184,172.76808768305597,False,22.42171550284099,True,False
