Subject_cm,Timestamp,SampleDate_cm,SampleTime_cm,Configuration_cm,Scenario_cm,DisTime_cm,MarkingTxt_cm,Application_cm,EntId_cm,Site_cm,ExerciseId_cm,ForceId_cm,Category_cm,Country_cm,Domain_cm,Kind_cm,Extra_cm,Specific_cm,Subcategory_cm,AltCategory_cm,AltCountry_cm,AltDomain_cm,AltKind_cm,ECEF_X_cm,ECEF_Y_cm,ECEF_Z_cm,OriPhi_cm,OriPsi_cm,OriTheta_cm,LinVelX_cm,LinVelY_cm,LinVelZ_cm,LinAccX_cm,LinAccY_cm,LinAccZ_cm,AngVelX_cm,AngVelY_cm,AngVelZ_cm,DrAlg_cm,Appearance_cm,Latitude_cm,Longitude_cm,Altitude_cm,Heading_cm,Pitch_cm,Roll_cm,CalibratedAirspeed_cm,CM_Altitude_Lead_cm,CM_Altitude_Wing_cm,CM_Airspeed_cm,Subject_ac,SampleDate_ac,SampleTime_ac,Configuration_ac,Scenario_ac,DisTime_ac,MarkingTxt_ac,Application_ac,EntId_ac,Site_ac,ExerciseId_ac,ForceId_ac,Category_ac,Country_ac,Domain_ac,Kind_ac,Extra_ac,Specific_ac,Subcategory_ac,AltCategory_ac,AltCountry_ac,AltDomain_ac,AltKind_ac,ECEF_X_ac,ECEF_Y_ac,ECEF_Z_ac,OriPhi_ac,OriPsi_ac,OriTheta_ac,LinVelX_ac,LinVelY_ac,LinVelZ_ac,LinAccX_ac,LinAccY_ac,LinAccZ_ac,AngVelX_ac,AngVelY_ac,AngVelZ_ac,DrAlg_ac,Appearance_ac,Latitude_ac,Longitude_ac,Altitude_ac,Heading_ac,Pitch_ac,Roll_ac,CalibratedAirspeed_ac,CM_Altitude_Lead_ac,CM_Altitude_Wing_ac,CM_Airspeed_ac,Bank_Angle_Condition,distance_nm,Distance_Condition,angle_between_vel,angle_between_pos,Cone_Condition,angle_between_pos_nose,Nose_Cone_Condition,Intercept_Criteria
10,1970-07-23 11:12:31.138232768,2025-09-15,2025-09-26 16:51:53.823,HA,D,3759822918,JASSM,3,126,76,2,2,1,225,9,2,0,1,26,0,0,0,0,-121341.20574342164,-4791920.777418432,4198963.669401646,2.29618,-3.09845,0.0772743,-88.875,-3.75,-6.75,0.0,0.0,0.0,0.0,0.0,0.0,2,0,41.408376258741775,-91.450535996877,11994.752977209071,-95.91250177572584,0.0053066222700458,0.0009494548565726,,10914.903477918164,12878.403777491774,150,10,2025-09-15,2025-09-26 16:51:53.745,HA,D,3391406320,AMBUSH51,1,1,48,2,1,1,225,2,1,0,0,9,1,225,2,1,-144837.03925431112,-4793367.726700768,4196088.112289703,2.30252,-3.11914,-0.0196415,-111.926,6.75651,10.4721,-0.219115,-7.55702,7.29085,0.0263851,0.00646961,0.00104758,4,0,41.37647577657473,-91.7307303248229,10921.957727877329,-91.150143396726,3.007569903387379,0.5476324699454959,177.953,10914.903477918164,12878.403777491774,150,True,12.753432812029848,False,11.312995780636966,177.15287439696996,False,165.86523107043007,False,False
10,1970-07-23 11:12:31.149249510,2025-09-15,2025-09-26 16:51:54.924,HA,D,3761076596,JASSM,3,126,76,2,2,1,225,9,2,0,1,26,0,0,0,0,-121434.77214967164,-4791924.806715307,4198956.413542271,2.29618,-3.09845,0.0772743,-88.875,-3.75,-6.75,0.0,0.0,0.0,0.0,0.0,0.0,2,0,41.408289209421575,-91.45165280908456,11994.74971205863,-95.91324045868708,0.0061487591006642,0.0009497522014492,,10914.903477918164,12878.403777491774,150,10,2025-09-15,2025-09-26 16:51:54.880,HA,D,3392758384,AMBUSH51,1,1,48,2,1,1,225,2,1,0,0,9,1,225,2,1,-144962.89057691648,-4793359.914532643,4196099.986168463,2.31144,-3.11417,-0.0233585,-111.694,6.65504,10.9524,-0.122279,-7.52379,7.13158,0.0109013,0.00806751,0.00396457,4,0,41.37657978988528,-91.73223609093368,10937.84585348977,-91.17968633214986,3.3632464662637203,1.0629436185021233,177.184,10914.903477918164,12878.403777491774,150,True,12.769041715488486,False,11.508919140405915,177.21650789655382,False,165.72884790162436,False,False
10,1970-07-23 11:12:31.160271497,2025-09-15,2025-09-26 16:51:56.027,HA,D,3762448074,JASSM,3,126,76,2,2,1,225,9,2,0,1,26,0,0,0,0,-121537.12761842164,-4791929.212965307,4198948.477995396,2.29618,-3.09845,0.0773702,-88.875,-3.75,-6.75,0.0,0.0,0.0,0.0,0.0,0.0,2,0,41.40819399264529,-91.45287452492896,11994.751641418072,-95.91815883860151,0.0034257778125137,0.0009496792815469,,10914.903477918164,12878.403777491774,150,10,2025-09-15,2025-09-26 16:51:56.112,HA,D,3394229750,AMBUSH51,1,1,48,2,1,1,225,2,1,0,0,9,1,225,2,1,-145101.82696883133,-4793351.717118438,4196113.986306164,2.32781,-3.11171,-0.0281767,-111.52,6.10701,12.0238,-0.157444,-7.57386,7.17663,0.025867,0.0059453,-0.0129111,4,0,41.376698077316334,-91.73389826377816,10958.380003994613,-91.0666977449389,3.652886995382678,2.011683708870928,177.012,10914.903477918164,12878.403777491774,150,True,12.786760600545938,False,11.85870668925441,177.288224153444,False,165.43990076007276,False,False
10,1970-07-23 11:12:31.171131020,2025-09-15,2025-09-26 16:51:57.113,HA,D,3763760332,JASSM,3,126,76,2,2,1,225,9,2,0,1,26,0,0,0,0,-121635.06511842164,-4791933.428785619,4198940.882292271,2.29618,-3.09845,0.0773702,-88.875,-3.75,-6.75,0.0,0.0,0.0,0.0,0.0,0.0,2,0,41.408102856932906,-91.45404350458966,11994.752153312453,-95.91893202340214,0.0043072563116684,0.0009499230826476,,10914.903477918164,12878.403777491774,150,10,2025-09-15,2025-09-26 16:51:57.112,HA,D,3395422748,AMBUSH51,1,1,48,2,1,1,225,2,1,0,0,9,1,225,2,1,-145211.92074271778,-4793345.285460885,4196126.003732039,2.33844,-3.10842,-0.0327443,-111.213,6.03866,12.7966,-0.194034,-7.52722,7.1332,0.00725815,0.00310529,-0.00141793,4,0,41.37679764833903,-91.7352153552497,10976.819078426852,-90.99535651550192,3.968083162064555,2.631217371918826,176.511,10914.903477918164,12878.403777491774,150,True,12.791684985778996,False,12.209978323721128,177.34506965672787,False,165.14233462916746,False,False
10,1970-07-23 11:12:31.182170397,2025-09-15,2025-09-26 16:51:58.217,HA,D,3765013282,JASSM,3,126,76,2,2,1,225,9,2,0,1,26,0,0,0,0,-121728.57683717164,-4791937.452223119,4198933.628386021,2.29618,-3.09855,0.0773702,-88.875,-3.75,-6.75,0.0,0.0,0.0,0.0,0.0,0.0,2,0,41.4080158298761,-91.45515965574936,11994.749521773045,-95.91603809026124,0.0010521449947122,0.0013748033968199,,10914.903477918164,12878.403777491774,150,10,2025-09-15,2025-09-26 16:51:58.245,HA,D,3396774814,AMBUSH51,1,1,48,2,1,1,225,2,1,0,0,9,1,225,2,1,-145337.72455486117,-4793338.44365109,4196140.317396555,2.34061,-3.11151,-0.0427468,-110.844,6.02537,13.4499,0.0334111,-7.40847,7.06449,0.00419136,0.000893615,0.0187077,4,0,41.376912316929065,-91.73672020983872,11000.407038373216,-90.4476284898685,4.214698358782496,2.787625749631492,175.827,10914.903477918164,12878.403777491774,150,True,12.807235484909143,False,12.528099531073464,177.41271986567355,False,164.8900121653799,False,False
10,1970-07-23 11:12:31.193189614,2025-09-15,2025-09-26 16:51:59.318,HA,D,3766324876,JASSM,3,126,76,2,2,1,225,9,2,0,1,26,0,0,0,0,-121826.46355592164,-4791941.663160619,4198926.034636021,2.29618,-3.09855,0.0773702,-88.875,-3.75,-6.75,0.0,0.0,0.0,0.0,0.0,0.0,2,0,41.407924720861935,-91.4563280237216,11994.748786229851,-95.9168108677638,0.0019331667892444,0.0013751003140838,,10914.903477918164,12878.403777491774,150,10,2025-09-15,2025-09-26 16:51:59.386,HA,D,3398126878,AMBUSH51,1,1,48,2,1,1,225,2,1,0,0,9,1,225,2,1,-145462.96454346745,-4793331.20188341,4196155.901605545,2.3474,-3.11946,-0.0437471,-110.286,6.38227,14.0783,-0.141524,-6.47079,6.1771,0.0110885,-0.0324438,-0.00750575,4,0,41.37703802522383,-91.73821847796609,11025.732327242904,-90.1043346369274,3.9119469646637386,3.181318147161037,175.192,10914.903477918164,12878.403777491774,150,True,12.820053702190071,False,12.933827543939891,177.48273926436966,False,164.55479197537176,False,False
10,1970-07-23 11:12:31.204211284,2025-09-15,2025-09-26 16:52:00.421,HA,D,3767637372,JASSM,3,126,76,2,2,1,225,9,2,0,1,26,0,0,0,0,-121924.41668092164,-4791945.876051244,4198918.435026646,2.29618,-3.09855,0.0773702,-88.875,-3.75,-6.75,0.0,0.0,0.0,0.0,0.0,0.0,2,0,41.40783353876141,-91.45749718132004,11994.749254289738,-95.91758416613844,0.0028147864250901,0.0013753968605891,,10914.903477918164,12878.403777491774,150,10,2025-09-15,2025-09-26 16:52:00.312,HA,D,3399240344,AMBUSH51,1,1,48,2,1,1,225,2,1,0,0,9,1,225,2,1,-145566.49338782756,-4793324.320685627,4196168.407180989,2.36012,-3.13225,-0.0378374,-110.074,7.67323,13.565,-0.201571,-6.14304,5.72696,0.00716453,-0.00248111,-0.0043911,4,0,41.37714470093415,-91.7394573379879,11043.653923847363,-89.87552254397768,3.139394359765844,3.8941873394887954,174.593,10914.903477918164,12878.403777491774,150,True,12.82146479604298,False,13.024138818828838,177.5387709832072,False,164.53288728981792,False,False
10,1970-07-23 11:12:31.215211321,2025-09-15,2025-09-26 16:52:01.521,HA,D,3769009788,JASSM,3,126,76,2,2,1,225,9,2,0,1,26,0,0,0,0,-122026.84636842164,-4791950.280348119,4198910.487761021,2.29618,-3.09855,0.0773702,-88.875,-3.75,-6.75,0.0,0.0,0.0,0.0,0.0,0.0,2,0,41.40773818120591,-91.4587197675159,11994.751529653247,-95.91839280149158,0.0037366968402652,0.0013757026319282,,10914.903477918164,12878.403777491774,150,10,2025-09-15,2025-09-26 16:52:01.511,HA,D,3400671942,AMBUSH51,1,1,48,2,1,1,225,2,1,0,0,9,1,225,2,1,-145698.31804406422,-4793314.117590573,4196184.037807692,2.3511,-3.14016,-0.0428,-109.842,8.78172,13.4961,-0.0589643,-6.59161,6.3023,-0.000845762,-0.00140128,0.0135062,4,0,41.37728710422472,-91.7410353208883,11062.300317994042,-89.3632892111792,2.988281671236909,3.3863108703234808,174.373,10914.903477918164,12878.403777491774,150,True,12.835272518320384,False,13.29750238389131,177.6128177703489,False,164.34707420068955,False,False
10,1970-07-23 11:12:31.227232856,2025-09-15,2025-09-26 16:52:02.723,HA,D,3770380158,JASSM,3,126,76,2,2,1,225,9,2,0,1,26,0,0,0,0,-122129.11980592164,-4791954.675855932,4198902.550261021,2.29618,-3.09855,0.0773702,-88.875,-3.75,-6.75,0.0,0.0,0.0,0.0,0.0,0.0,2,0,41.407642952559,-91.45994048579672,11994.749008595349,-95.91920019985209,0.0046572017951103,0.0013760115091501,,10914.903477918164,12878.403777491774,150,10,2025-09-15,2025-09-26 16:52:02.711,HA,D,3402103542,AMBUSH51,1,1,48,2,1,1,225,2,1,0,0,9,1,225,2,1,-145829.17003565904,-4793302.8421698185,4196199.822013259,2.35173,3.13728,-0.041652,-109.66,9.91664,13.4302,-0.264395,-6.76675,6.50948,0.00871249,0.000591929,0.000186213,4,0,41.37743707461176,-91.74260208167075,11078.577360714738,-89.19643603530152,2.699128743791562,3.416896511189926,174.202,10914.903477918164,12878.403777491774,150,True,12.848621515698015,False,13.595456866259843,177.6876187609451,False,164.14085709631334,False,False
10,1970-07-23 11:12:31.237272258,2025-09-15,2025-09-26 16:52:03.727,HA,D,3771634866,JASSM,3,126,76,2,2,1,225,9,2,0,1,26,0,0,0,0,-122222.76043092164,-4791958.700269994,4198895.282682896,2.29618,-3.09855,0.0773702,-88.875,-3.75,-6.75,0.0,0.0,0.0,0.0,0.0,0.0,2,0,41.40755575064356,-91.46105816119784,11994.751103279828,-95.91993944302236,0.0055000077599408,0.0013762944330589,,10914.903477918164,12878.403777491774,150,10,2025-09-15,2025-09-26 16:52:03.845,HA,D,3403455606,AMBUSH51,1,1,48,2,1,1,225,2,1,0,0,9,1,225,2,1,-145954.20728031365,-4793291.0564264925,4196214.878063664,2.34378,3.12851,-0.0422219,-109.63,10.72,13.5133,-0.241988,-6.82507,6.68803,0.00309072,-0.0076181,0.0104748,4,0,41.37758619349018,-91.7440995916081,11091.592781830426,-88.84092983604798,2.3447241921863515,2.955957702172215,174.422,10914.903477918164,12878.403777491774,150,True,12.863571092302802,False,13.864215719246,177.7600078642698,False,163.9574453173057,False,False
10,1970-07-23 11:12:31.248292362,2025-09-15,2025-09-26 16:52:04.829,HA,D,3772947034,JASSM,3,126,76,2,2,1,225,9,2,0,1,26,0,0,0,0,-122320.69011842164,-4791962.907301244,4198887.681120396,2.29618,-3.09855,0.0773702,-88.875,-3.75,-6.75,0.0,0.0,0.0,0.0,0.0,0.0,2,0,41.407464545714994,-91.46222702729918,11994.751532620156,-95.9207125429326,0.0063814172548587,0.0013765875844716,,10914.903477918164,12878.403777491774,150,10,2025-09-15,2025-09-26 16:52:04.645,HA,D,3404410006,AMBUSH51,1,1,48,2,1,1,225,2,1,0,0,9,1,225,2,1,-146041.84723749437,-4793282.223490616,4196225.691017926,2.34784,3.12455,-0.0434947,-109.606,11.2676,13.6689,-0.105209,-6.93483,6.60709,0.00306784,0.00372322,0.0103978,4,0,41.37769585869844,-91.74514942368138,11099.876233446585,-88.63716872986312,2.2236677678436902,3.186653824977215,174.287,10914.903477918164,12878.403777491774,150,True,12.856604795733075,False,14.092469808571558,177.8087893741134,False,163.78654614940123,False,False
10,1970-07-23 11:12:31.260128937,2025-09-15,2025-09-26 16:52:06.012,HA,D,3774317764,JASSM,3,126,76,2,2,1,225,9,2,0,1,26,0,0,0,0,-122422.99089967164,-4791967.300855932,4198879.739714146,2.29618,-3.09855,0.0773702,-88.875,-3.75,-6.75,0.0,0.0,0.0,0.0,0.0,0.0,2,0,41.40736926095463,-91.46344806265652,11994.75299816383,-95.92152014662376,0.0073021683925701,0.0013768900748724,,10914.903477918164,12878.403777491774,150,10,2025-09-15,2025-09-26 16:52:05.912,HA,D,3405921138,AMBUSH51,1,1,48,2,1,1,225,2,1,0,0,9,1,225,2,1,-146179.92753440147,-4793267.523745779,4196243.034734606,2.35796,3.12149,-0.0437159,-109.619,12.0259,14.0897,-0.101739,-6.98732,6.64771,0.0037898,0.00779287,0.00224392,4,0,41.3778753535693,-91.74680376724852,11111.675198214003,-88.51283572678778,2.101608327048535,3.7638384987854656,174.544,10914.903477918164,12878.403777491774,150,True,12.87365736937811,False,14.491822477817928,177.89127349030656,False,163.48016777586605,False,False
10,1970-07-23 11:12:31.270177935,2025-09-15,2025-09-26 16:52:07.017,HA,D,3775571268,JASSM,3,126,76,2,2,1,225,9,2,0,1,26,0,0,0,0,-122516.54558717164,-4791971.317457494,4198872.474089146,2.29618,-3.09855,0.077466,-88.875,-3.75,-6.75,0.0,0.0,0.0,0.0,0.0,0.0,2,0,41.4072820977034,-91.46456470420996,11994.748946149675,-95.92636904210582,0.0045000117829684,0.0013767265157582,,10914.903477918164,12878.403777491774,150,10,2025-09-15,2025-09-26 16:52:07.146,HA,D,3407392502,AMBUSH51,1,1,48,2,1,1,225,2,1,0,0,9,1,225,2,1,-146315.70860842033,-4793252.274969506,4196260.905743175,2.35104,3.11361,-0.0511154,-109.587,12.5308,14.8195,-0.199427,-6.87375,6.46035,0.00873746,-0.0146609,0.00373363,4,0,41.37806206693367,-91.74843086019597,11123.10406343584,-87.8974830658464,2.044424685032053,3.3675613853893136,174.165,10914.903477918164,12878.403777491774,150,True,12.894183187691686,False,14.944858961981657,177.97492373047731,False,163.11417808003276,False,False
10,1970-07-23 11:12:31.281190773,2025-09-15,2025-09-26 16:52:08.119,HA,D,3776824070,JASSM,3,126,76,2,2,1,225,9,2,0,1,26,0,0,0,0,-122610.04558717164,-4791975.331129369,4198865.214323521,2.29618,-3.09864,0.077466,-88.875,-3.75,-6.75,0.0,0.0,0.0,0.0,0.0,0.0,2,0,41.40719498891831,-91.46568069022504,11994.751488492331,-95.92346601021318,0.0012346086814689,0.0018031850491675,,10914.903477918164,12878.403777491774,150,10,2025-09-15,2025-09-26 16:52:08.311,HA,D,3408784334,AMBUSH51,1,1,48,2,1,1,225,2,1,0,0,9,1,225,2,1,-146442.56773909027,-4793237.722363012,4196277.5879237,2.36204,3.11532,-0.0504528,-109.504,13.2669,14.9008,-0.147684,-6.95864,6.7162,-0.00314066,0.00312193,0.0136185,4,0,41.378238210705504,-91.74995115801468,11133.0067197614,-87.99140451294971,2.093646319783517,3.999313395394579,174.116,10914.903477918164,12878.403777491774,150,True,12.910090975566359,False,15.209568106061917,178.05226787634476,False,162.9413691747363,False,False
10,1970-07-23 11:12:31.292208601,2025-09-15,2025-09-26 16:52:09.220,HA,D,3778134958,JASSM,3,126,76,2,2,1,225,9,2,0,1,26,0,0,0,0,-122707.87761842164,-4791979.529371557,4198857.616667271,2.29618,-3.09864,0.077466,-88.875,-3.75,-6.75,0.0,0.0,0.0,0.0,0.0,0.0,2,0,41.407103830564274,-91.46684837920915,11994.752245787777,-95.92423832607412,0.0021151400705348,0.0018034682456731,,10914.903477918164,12878.403777491774,150,10,2025-09-15,2025-09-26 16:52:09.112,HA,D,3409738734,AMBUSH51,1,1,48,2,1,1,225,2,1,0,0,9,1,225,2,1,-146530.17333039248,-4793226.873278956,4196289.627148072,2.37086,3.10694,-0.0556887,-109.52,13.7775,15.276,-0.183958,-6.80399,6.61106,0.0129299,-0.00940949,0.0176195,4,0,41.37836809686392,-91.75100133165677,11139.008516881297,-87.45017714500442,1.9329741404786585,4.498122246424017,173.909,10914.903477918164,12878.403777491774,150,True,12.903089607173118,False,15.516145562475863,178.10463469960368,False,162.6942109781044,False,False
10,1970-07-23 11:12:31.302250070,2025-09-15,2025-09-26 16:52:10.225,HA,D,3779387658,JASSM,3,126,76,2,2,1,225,9,2,0,1,26,0,0,0,0,-122801.36980592164,-4791983.541090307,4198850.352995396,2.29618,-3.09864,0.077466,-88.875,-3.75,-6.75,0.0,0.0,0.0,0.0,0.0,0.0,2,0,41.40701668607477,-91.46796426637049,11994.750270797194,-95.9249763786198,0.0029566129791478,0.001803757673378,,10914.903477918164,12878.403777491774,150,10,2025-09-15,2025-09-26 16:52:10.411,HA,D,3411289632,AMBUSH51,1,1,48,2,1,1,225,2,1,0,0,9,1,225,2,1,-146673.04688875057,-4793208.4094488695,4196309.709331912,2.38277,3.09794,-0.0627155,-109.426,14.6776,15.9198,-0.302535,-6.74363,6.62309,-0.00052327,0.00411438,0.00183821,4,0,41.37858750789814,-91.75271432026476,11147.880879343427,-86.80836604456465,1.813451915719169,5.171042000201727,174.556,10914.903477918164,12878.403777491774,150,True,12.927296931710265,False,16.061193592357753,178.19596589424933,False,162.25316057881054,False,False
10,1970-07-23 11:12:31.313321808,2025-09-15,2025-09-26 16:52:11.332,HA,D,3780641704,JASSM,3,126,76,2,2,1,225,9,2,0,1,26,0,0,0,0,-122894.96355592164,-4791987.554762182,4198843.083464146,2.29618,-3.09864,0.077466,-88.875,-3.75,-6.75,0.0,0.0,0.0,0.0,0.0,0.0,2,0,41.4069294640964,-91.46908136349296,11994.75131556516,-95.92571523016149,0.0037989976671352,0.0018040195303971,,10914.903477918164,12878.403777491774,150,10,2025-09-15,2025-09-26 16:52:11.212,HA,D,3412244030,AMBUSH51,1,1,48,2,1,1,225,2,1,0,0,9,1,225,2,1,-146760.59144351538,-4793196.252042057,4196322.491931665,2.38163,3.09223,-0.0595778,-109.441,15.401,16.2606,-0.0635522,-6.63623,6.2487,-0.00389799,-0.0196918,0.0112945,4,0,41.378730178789695,-91.75376425296288,11152.281672975354,-86.72848673149035,1.4506969787732718,5.088005210726749,174.336,10914.903477918164,12878.403777491774,150,True,12.922504651513048,False,16.421084495136437,178.25056890276312,False,161.9598229644903,False,False
10,1970-07-23 11:12:31.324149175,2025-09-15,2025-09-26 16:52:12.414,HA,D,3781952812,JASSM,3,126,76,2,2,1,225,9,2,0,1,26,0,0,0,0,-122992.81511842164,-4791991.751051244,4198835.479948521,2.29618,-3.09864,0.077466,-88.875,-3.75,-6.75,0.0,0.0,0.0,0.0,0.0,0.0,2,0,41.40683824031837,-91.47024927693904,11994.750209060408,-95.92648769040918,0.0046797068356787,0.001804315482392,,10914.903477918164,12878.403777491774,150,10,2025-09-15,2025-09-26 16:52:12.511,HA,D,3413794928,AMBUSH51,1,1,48,2,1,1,225,2,1,0,0,9,1,225,2,1,-146902.03288554848,-4793175.3251649225,4196343.237135363,2.3924,3.07952,-0.0659327,-109.451,15.5733,17.462,-0.123933,-6.68063,6.42371,0.00244366,0.00139712,0.00714996,4,0,41.378968931828986,-91.75546105671084,11156.44082497518,-85.97558945511727,1.147195012263538,5.676403687557996,174.886,10914.903477918164,12878.403777491774,150,True,12.94354640989937,False,16.945760801863504,178.3426231342097,False,161.52470226989522,False,False
10,1970-07-23 11:12:31.334190645,2025-09-15,2025-09-26 16:52:13.419,HA,D,3783205512,JASSM,3,126,76,2,2,1,225,9,2,0,1,26,0,0,0,0,-123086.30730592164,-4791995.758863744,4198828.216276646,2.29618,-3.09864,0.077466,-88.875,-3.75,-6.75,0.0,0.0,0.0,0.0,0.0,0.0,2,0,41.40675108608461,-91.4713651562087,11994.752408356737,-95.92722573384474,0.0055211782767973,0.0018045818250183,,10914.903477918164,12878.403777491774,150,10,2025-09-15,2025-09-26 16:52:13.445,HA,D,3414908394,AMBUSH51,1,1,48,2,1,1,225,2,1,0,0,9,1,225,2,1,-147005.14772180413,-4793158.7858227175,4196358.437667625,2.39118,3.07603,-0.0659591,-109.596,17.9368,16.7179,-0.096463,-6.82556,6.62397,-0.00512555,-0.00679002,0.00914317,4,0,41.37915112069213,-91.75669855227204,11156.48892287748,-85.84318958161529,0.9993496736762568,5.595613573290924,175.021,10914.903477918164,12878.403777491774,150,True,12.946913645652211,False,17.401005024101842,178.40833424740083,False,161.18994237072707,False,False
10,1970-07-23 11:12:31.345208688,2025-09-15,2025-09-26 16:52:14.520,HA,D,3784518920,JASSM,3,126,76,2,2,1,225,9,2,0,1,26,0,0,0,0,-123184.32683717164,-4791999.960035619,4198820.597136021,2.29618,-3.09864,0.077466,-88.875,-3.75,-6.75,0.0,0.0,0.0,0.0,0.0,0.0,2,0,41.40665967892056,-91.4725350687653,11994.749716953576,-95.92799951356557,0.0064034001678629,0.0018048818595996,,10914.903477918164,12878.403777491774,150,10,2025-09-15,2025-09-26 16:52:14.678,HA,D,3416379760,AMBUSH51,1,1,48,2,1,1,225,2,1,0,0,9,1,225,2,1,-147139.7717218721,-4793136.2595645245,4196379.1632143,2.38731,3.06516,-0.0682658,-109.776,18.8747,17.3796,-0.208729,-6.74332,6.45969,0.00416223,-0.00646129,0.00673384,4,0,41.37940045204328,-91.75831454611924,11156.173551826414,-85.33421828285479,0.6223876414725842,5.339255343372142,175.399,10914.903477918164,12878.403777491774,150,True,12.96424641135153,False,17.93630585879973,178.49672186871825,False,160.76172079578288,False,False
10,1970-07-23 11:12:31.356229513,2025-09-15,2025-09-26 16:52:15.622,HA,D,3785771802,JASSM,3,126,76,2,2,1,225,9,2,0,1,26,0,0,0,0,-123277.83464967164,-4792003.966871557,4198813.329557896,2.29618,-3.09864,0.077466,-88.875,-3.75,-6.75,0.0,0.0,0.0,0.0,0.0,0.0,2,0,41.40657247957042,-91.47365112892136,11994.751290494614,-95.92873767402143,0.0072450135091301,0.0018051566227586,,10914.903477918164,12878.403777491774,150,10,2025-09-15,2025-09-26 16:52:15.478,HA,D,3417334158,AMBUSH51,1,1,48,2,1,1,225,2,1,0,0,9,1,225,2,1,-147227.6586696325,-4793120.8150920365,4196393.034084474,2.38788,3.06163,-0.0720566,-109.891,19.5955,17.7276,-0.22204,-6.9896,6.6034,0.00116409,0.0101918,0.00770964,4,0,41.37956990282171,-91.75936979734992,11154.894146182498,-85.03827645210465,0.6154316937550142,5.361057416383062,175.705,10914.903477918164,12878.403777491774,150,True,12.959614751072825,False,18.289923913491695,178.5528152140579,False,160.4809195829539,False,False
10,1970-07-23 11:12:31.366267055,2025-09-15,2025-09-26 16:52:16.626,HA,D,3787024720,JASSM,3,126,76,2,2,1,225,9,2,0,1,26,0,0,0,0,-123371.34246217164,-4792007.971754369,4198806.061979771,2.29618,-3.09874,0.077466,-88.875,-3.625,-6.75,0.0,0.0,0.0,0.0,0.0,0.0,2,0,41.4064852810145,-91.47476718669334,11994.752583520552,-95.92584374491346,0.0039898461079922,0.0022307798129546,,10914.903477918164,12878.403777491774,150,10,2025-09-15,2025-09-26 16:52:16.645,HA,D,3418725990,AMBUSH51,1,1,48,2,1,1,225,2,1,0,0,9,1,225,2,1,-147356.73072466126,-4793097.057246664,4196414.144679466,2.39444,3.05189,-0.076929,-110.079,20.746,18.3257,-0.174841,-6.92433,6.64191,0.00641967,-0.000810392,0.00566026,4,0,41.37983013480882,-91.76091995989214,11151.979616228964,-84.46162548339697,0.3846044642076896,5.699903994935048,176.34,10914.903477918164,12878.403777491774,150,True,12.976428820876464,False,18.81236776092779,178.62512475781674,False,160.01515736611657,False,False
10,1970-07-23 11:12:31.376146866,2025-09-15,2025-09-26 16:52:17.614,HA,D,3788217980,JASSM,3,126,76,2,2,1,225,9,2,0,1,26,0,0,0,0,-123460.39714967164,-4792011.785230932,4198799.138151646,2.29618,-3.09874,0.0775619,-88.875,-3.625,-6.75,0.0,0.0,0.0,0.0,0.0,0.0,2,0,41.40640221321909,-91.47583009185168,11994.75123608802,-95.93065714076954,0.001147250377837,0.0022308800618216,,10914.903477918164,12878.403777491774,150,10,2025-09-15,2025-09-26 16:52:17.511,HA,D,3419759922,AMBUSH51,1,1,48,2,1,1,225,2,1,0,0,9,1,225,2,1,-147452.12906971126,-4793078.767440069,4196430.269236367,2.398,3.04633,-0.0819034,-110.185,21.3354,19.0174,-0.164463,-7.02418,6.62116,0.00319059,-0.00115161,0.00302206,4,0,41.3800303245144,-91.7620659757874,11149.165735094555,-84.03845164754834,0.3364638484592662,5.881157519173624,176.976,10914.903477918164,12878.403777491774,150,True,12.978073739439509,False,19.242682494811902,178.68932093416424,False,159.66113863147282,False,False
10,1970-07-23 11:12:31.387165567,2025-09-15,2025-09-26 16:52:18.716,HA,D,3789468900,JASSM,3,126,76,2,2,1,225,9,2,0,1,26,0,0,0,0,-123553.75652467164,-4792015.782301244,4198791.878386021,2.29618,-3.09874,0.0775619,-88.875,-3.625,-6.75,0.0,0.0,0.0,0.0,0.0,0.0,2,0,41.40631511550986,-91.47694437258708,11994.749681365927,-95.93139412058976,0.001987529038599,0.0022311522655627,,10914.903477918164,12878.403777491774,150,10,2025-09-15,2025-09-26 16:52:18.712,HA,D,3421191522,AMBUSH51,1,1,48,2,1,1,225,2,1,0,0,9,1,225,2,1,-147583.8030042776,-4793052.696200412,4196453.34577408,2.39437,3.04697,-0.091041,-110.37,22.1537,20.0176,-0.223904,-7.55042,7.20083,-0.0203909,0.00198801,-0.00151363,4,0,41.380317074711954,-91.7636480846938,11145.035607155649,-83.671678985937,0.712058798870944,5.679748292552014,177.611,10914.903477918164,12878.403777491774,150,True,12.996276058480207,False,19.845260759874456,178.77898157602664,False,159.16715795116923,False,False
10,1970-07-23 11:12:31.397209672,2025-09-15,2025-09-26 16:52:19.720,HA,D,3790723018,JASSM,3,126,76,2,2,1,225,9,2,0,1,26,0,0,0,0,-123647.35418092164,-4792019.789137182,4198784.601042271,2.29618,-3.09874,0.0775619,-88.875,-3.625,-6.75,0.0,0.0,0.0,0.0,0.0,0.0,2,0,41.406227793681,-91.47806149444928,11994.753640449488,-95.9321329782384,0.00282995152516,0.0022314162296134,,10914.903477918164,12878.403777491774,150,10,2025-09-15,2025-09-26 16:52:19.911,HA,D,3422623120,AMBUSH51,1,1,48,2,1,1,225,2,1,0,0,9,1,225,2,1,-147717.07042840146,-4793025.521473963,4196478.104888655,2.37498,3.03977,-0.0987769,-110.485,22.7301,21.0485,-0.0428054,-7.46659,7.04151,-0.00739131,0.0276646,-0.000569043,4,0,41.38062143428657,-91.76524964475188,11141.969860984696,-83.06856902826998,0.6996135427298356,4.537065822879398,178.112,10914.903477918164,12878.403777491774,150,True,13.015141696399741,False,20.384216698357232,178.86926973138364,False,158.73815361832828,False,False
10,1970-07-23 11:12:31.408227233,2025-09-15,2025-09-26 16:52:20.822,HA,D,3791974292,JASSM,3,126,76,2,2,1,225,9,2,0,1,26,0,0,0,0,-123740.73699342164,-4792023.785230932,4198777.337370396,2.29618,-3.09874,0.0775619,-88.875,-3.625,-6.75,0.0,0.0,0.0,0.0,0.0,0.0,2,0,41.4061406502045,-91.47917604956848,11994.751726874863,-95.93287013698146,0.0036704418513549,0.0022316908075163,,10914.903477918164,12878.403777491774,150,10,2025-09-15,2025-09-26 16:52:20.711,HA,D,3423577518,AMBUSH51,1,1,48,2,1,1,225,2,1,0,0,9,1,225,2,1,-147805.3676491405,-4793007.478619045,4196495.24084796,2.36173,3.0504,-0.111992,-110.493,22.3444,22.2636,-0.147979,-8.17616,7.82808,-0.00772421,0.0101148,0.0124451,4,0,41.38082824417946,-91.76631079154976,11141.437202152358,-82.9038155355435,1.6560665111937525,3.844961962423316,178.613,10914.903477918164,12878.403777491774,150,True,13.010701626272551,False,20.695973358276586,178.92685529342057,False,158.4840224885132,False,False
10,1970-07-23 11:12:31.418267130,2025-09-15,2025-09-26 16:52:21.826,HA,D,3793227090,JASSM,3,126,76,2,2,1,225,9,2,0,1,26,0,0,0,0,-123834.23699342164,-4792027.785230932,4198770.063932896,2.29618,-3.09874,0.0775619,-88.875,-3.625,-6.75,0.0,0.0,0.0,0.0,0.0,0.0,2,0,41.40605338875856,-91.4802920007178,11994.750193342808,-95.93360821777098,0.0045119869615958,0.0022319635503764,,10914.903477918164,12878.403777491774,150,10,2025-09-15,2025-09-26 16:52:21.911,HA,D,3425009118,AMBUSH51,1,1,48,2,1,1,225,2,1,0,0,9,1,225,2,1,-147937.2378335802,-4792980.909583663,4196522.460586499,2.33096,3.04703,-0.120599,-110.468,22.2226,23.3309,-0.111337,-7.51848,7.26065,-0.0161194,0.0130214,0.00407693,4,0,41.38114583672763,-91.76789546710712,11145.10871118293,-82.40812311607361,1.8401803722849477,2.0749183488009937,178.613,10914.903477918164,12878.403777491774,150,True,13.02886001999036,False,21.05108132999634,179.0138083358529,False,158.23350551642721,False,False
10,1970-07-23 11:12:31.429286026,2025-09-15,2025-09-26 16:52:22.928,HA,D,3794481814,JASSM,3,126,76,2,2,1,225,9,2,0,1,26,0,0,0,0,-123927.88152467164,-4792031.790113744,4198762.780729771,2.29608,-3.09874,0.0775619,-88.875,-3.625,-6.75,0.0,0.0,0.0,0.0,0.0,0.0,2,0,41.40596599928489,-91.48140967430038,11994.753198670132,-95.9343474364834,0.0053548314043875,-0.0032592529824948,,10914.903477918164,12878.403777491774,150,10,2025-09-15,2025-09-26 16:52:22.778,HA,D,3426043050,AMBUSH51,1,1,48,2,1,1,225,2,1,0,0,9,1,225,2,1,-148032.84619826765,-4792961.832115587,4196542.925518338,2.31684,3.05373,-0.125302,-110.371,21.7957,24.0976,-0.247766,-7.64023,7.29385,-0.00795099,0.0121746,-0.00733722,4,0,41.38137991000872,-91.76904432754098,11149.816806554436,-82.45891443790904,2.304674152945261,1.310899415628529,178.821,10914.903477918164,12878.403777491774,150,True,13.02807349698653,False,21.21916098627034,179.0733771221068,False,158.13785561855786,False,False
10,1970-07-23 11:12:31.439166093,2025-09-15,2025-09-26 16:52:23.916,HA,D,3795734036,JASSM,3,126,76,2,2,1,225,9,2,0,1,26,0,0,0,0,-124021.33464967164,-4792035.786207494,4198755.509245396,2.29608,-3.09874,0.0775619,-88.875,-3.625,-6.75,0.0,0.0,0.0,0.0,0.0,0.0,2,0,41.40587875981518,-91.4825250605959,11994.752363361144,-95.93508514112536,0.0061959550930005,-0.0032589802212224,,10914.903477918164,12878.403777491774,150,10,2025-09-15,2025-09-26 16:52:23.911,HA,D,3427395114,AMBUSH51,1,1,48,2,1,1,225,2,1,0,0,9,1,225,2,1,-148158.52429668658,-4792937.043523634,4196570.684742548,2.29468,3.05928,-0.131467,-110.198,21.2935,24.8364,-0.0734469,-7.6455,7.14647,-0.0156034,0.00910156,0.0159509,4,0,41.381691658588174,-91.77055442051852,11158.58491134068,-82.40391762198357,2.776348954455137,0.0842790312290193,178.736,10914.903477918164,12878.403777491774,150,True,13.043054228693679,False,21.372900737040187,179.14808561782,False,158.0847467113379,False,False
10,1970-07-23 11:12:31.450188778,2025-09-15,2025-09-26 16:52:25.018,HA,D,3797045168,JASSM,3,126,76,2,2,1,225,9,2,0,1,26,0,0,0,0,-124119.19011842164,-4792039.968824682,4198747.894011021,2.29608,-3.09874,0.0775619,-88.875,-3.625,-6.75,0.0,0.0,0.0,0.0,0.0,0.0,2,0,41.40578740121402,-91.483692987294,11994.74947201084,-95.93585759406189,0.0070767022166875,-0.0032586966890518,,10914.903477918164,12878.403777491774,150,10,2025-09-15,2025-09-26 16:52:25.177,HA,D,3428906246,AMBUSH51,1,1,48,2,1,1,225,2,1,0,0,9,1,225,2,1,-148297.69134885358,-4792910.563726191,4196602.092246918,2.28066,3.06132,-0.133309,-110.155,20.5817,25.4055,-0.235131,-7.55692,7.21313,-0.00409149,0.00561657,-0.00902874,4,0,41.382035596095086,-91.77222624801514,11172.14020321812,-82.40241982824735,2.9343302324842275,-0.7036111053444766,178.528,10914.903477918164,12878.403777491774,150,True,13.062733484804475,False,21.391600664873646,179.22198152205019,False,158.177713481821,False,False
10,1970-07-23 11:12:31.460236588,2025-09-15,2025-09-26 16:52:26.023,HA,D,3798239342,JASSM,3,126,76,2,2,1,225,9,2,0,1,26,0,0,0,0,-124208.31121217164,-4792043.777418432,4198740.958464146,2.29608,-3.09883,0.0775619,-88.875,-3.625,-6.75,0.0,0.0,0.0,0.0,0.0,0.0,2,0,41.40570419067177,-91.48475666465876,11994.74937761665,-95.93292906743112,0.0037820588395436,-0.0028325705957486,,10914.903477918164,12878.403777491774,150,10,2025-09-15,2025-09-26 16:52:26.011,HA,D,3429900412,AMBUSH51,1,1,48,2,1,1,225,2,1,0,0,9,1,225,2,1,-148390.525936241,-4792893.447320869,4196623.26090641,2.25588,3.06256,-0.13555,-110.149,20.0188,25.6198,-0.0324088,-7.65848,7.26433,-0.0283887,0.00899961,-0.00303455,4,0,41.38226322684411,-91.77334128518277,11183.00769354621,-82.35298193724823,3.0726177591033674,-2.1117877713732307,178.198,10914.903477918164,12878.403777491774,150,True,13.063026351181689,False,21.317148069109955,179.2636804855206,False,158.3262974196808,False,False
10,1970-07-23 11:12:31.471144961,2025-09-15,2025-09-26 16:52:27.114,HA,D,3799491630,JASSM,3,126,76,2,2,1,225,9,2,0,1,26,0,0,0,0,-124301.77214967164,-4792047.770582494,4198733.685026646,2.29608,-3.09883,0.0775619,-88.875,-3.625,-6.75,0.0,0.0,0.0,0.0,0.0,0.0,2,0,41.40561692179608,-91.48587213625277,11994.751155575055,-95.93366682466971,0.004623252548905,-0.00283225472609,,10914.903477918164,12878.403777491774,150,10,2025-09-15,2025-09-26 16:52:27.111,HA,D,3431212710,AMBUSH51,1,1,48,2,1,1,225,2,1,0,0,9,1,225,2,1,-148512.12695997668,-4792871.832514455,4196651.288950623,2.24853,3.06879,-0.137164,-110.033,19.253,25.6214,-0.162749,-7.57793,7.21114,-0.0019568,0.0132128,-0.00685868,4,0,41.382558611960135,-91.77480154826712,11199.882102574917,-82.51844276494961,3.400297543824123,-2.493480307188084,177.978,10914.903477918164,12878.403777491774,150,True,13.076021063344768,False,21.12253794060458,179.30921599287373,False,158.6195871989411,False,False
10,1970-07-23 11:12:31.481166659,2025-09-15,2025-09-26 16:52:28.116,HA,D,3800744300,JASSM,3,126,76,2,2,1,225,9,2,0,1,26,0,0,0,0,-124395.26043092164,-4792051.764723119,4198726.407682896,2.29608,-3.09883,0.0776578,-88.875,-3.625,-6.75,0.0,0.0,0.0,0.0,0.0,0.0,2,0,41.40552960570649,-91.4869879312714,11994.753125304032,-95.9385152162116,0.0018205947153171,-0.0028321892486104,,10914.903477918164,12878.403777491774,150,10,2025-09-15,2025-09-26 16:52:28.178,HA,D,3432485242,AMBUSH51,1,1,48,2,1,1,225,2,1,0,0,9,1,225,2,1,-148628.17028853483,-4792851.914179787,4196678.263811578,2.2417,3.08108,-0.136174,-109.779,18.2918,25.8212,-0.204003,-7.71082,7.34926,-0.00242909,0.0120123,-0.0085398,4,0,41.38283780373212,-91.77619481868769,11218.23050583392,-83.02324092044925,3.8880219892142898,-2.821113031560054,177.147,10914.903477918164,12878.403777491774,150,True,13.086149389466888,False,20.977813983560914,179.3402435687761,False,158.8529425827463,False,False
10,1970-07-23 11:12:31.492185060,2025-09-15,2025-09-26 16:52:29.218,HA,D,3801997686,JASSM,3,126,76,2,2,1,225,9,2,0,1,26,0,0,0,0,-124488.80339967164,-4792055.758863744,4198719.124479771,2.29608,-3.09883,0.0776578,-88.875,-3.625,-6.75,0.0,0.0,0.0,0.0,0.0,0.0,2,0,41.40544223079479,-91.48810437672708,11994.750397815176,-95.93925361500912,0.0026625281817134,-0.0028319257401885,,10914.903477918164,12878.403777491774,150,10,2025-09-15,2025-09-26 16:52:29.245,HA,D,3433757774,AMBUSH51,1,1,48,2,1,1,225,2,1,0,0,9,1,225,2,1,-148745.23672997573,-4792832.970520582,4196705.520584334,2.24404,3.08851,-0.140763,-109.5,17.4563,25.7221,-0.198476,-7.69626,7.35827,0.0097403,0.00827349,-0.00478225,4,0,41.38311289700032,-91.7775999563309,11239.674096730265,-83.10462135314562,4.379490567054966,-2.6340125104112166,176.683,10914.903477918164,12878.403777491774,150,True,13.096845725448848,False,20.755768685355772,179.35845767394508,False,159.1668645164365,False,False
10,1970-07-23 11:12:31.502226268,2025-09-15,2025-09-26 16:52:30.222,HA,D,3803248588,JASSM,3,126,76,2,2,1,225,9,2,0,1,26,0,0,0,0,-124582.16277467164,-4792059.744215307,4198711.854948521,2.29608,-3.09883,0.0776578,-88.875,-3.625,-6.75,0.0,0.0,0.0,0.0,0.0,0.0,2,0,41.40535501801788,-91.48921862828396,11994.748502109236,-95.93999056152067,0.0035028092956095,-0.0028316641721199,,10914.903477918164,12878.403777491774,150,10,2025-09-15,2025-09-26 16:52:30.111,HA,D,3434791706,AMBUSH51,1,1,48,2,1,1,225,2,1,0,0,9,1,225,2,1,-148841.12826760666,-4792818.190402744,4196728.107794009,2.24537,3.09646,-0.142466,-109.198,16.5201,25.9822,-0.142977,-7.70322,7.33072,-0.00372322,0.0155618,-0.00498198,4,0,41.38333559545956,-91.77875066689406,11259.623315978284,-83.32977562685026,4.784171434585267,-2.511671776592749,176.169,10914.903477918164,12878.403777491774,150,True,13.096606410733381,False,20.66329919638455,179.36283945443628,False,159.32771683988057,False,False
10,1970-07-23 11:12:31.512267729,2025-09-15,2025-09-26 16:52:31.226,HA,D,3804441634,JASSM,3,126,76,2,2,1,225,9,2,0,1,26,0,0,0,0,-124671.19793092164,-4792063.544996557,4198704.923307896,2.29608,-3.09883,0.0776578,-88.875,-3.625,-6.75,0.0,0.0,0.0,0.0,0.0,0.0,2,0,41.40527184253865,-91.49028126716314,11994.753514082331,-95.94069337112089,0.0043041694719734,-0.0028314224688758,,10914.903477918164,12878.403777491774,150,10,2025-09-15,2025-09-26 16:52:31.277,HA,D,3436183538,AMBUSH51,1,1,48,2,1,1,225,2,1,0,0,9,1,225,2,1,-148967.34517703977,-4792800.051187869,4196757.639511869,2.24061,3.10437,-0.14653,-108.785,15.2161,26.0903,-0.0994466,-7.73001,7.34242,0.0161881,0.016548,-0.00208788,4,0,41.383619542273394,-91.78026480621864,11288.693969084114,-83.45075257586892,5.276087185413026,-2.7299438081954226,175.326,10914.903477918164,12878.403777491774,150,True,13.114638048759856,False,20.441732023140354,179.35584700910636,False,159.63737701663032,False,False
10,1970-07-23 11:12:31.523286739,2025-09-15,2025-09-26 16:52:32.328,HA,D,3805696484,JASSM,3,126,76,2,2,1,225,9,2,0,1,26,0,0,0,0,-124764.85418092164,-4792067.541090307,4198697.628386021,2.29608,-3.09883,0.0776578,-88.875,-3.625,-6.75,0.0,0.0,0.0,0.0,0.0,0.0,2,0,41.40518432740389,-91.4913990567013,11994.750773613623,-95.94143265508816,0.0051471234818579,-0.0028311561948028,,10914.903477918164,12878.403777491774,150,10,2025-09-15,2025-09-26 16:52:32.311,HA,D,3437416304,AMBUSH51,1,1,48,2,1,1,225,2,1,0,0,9,1,225,2,1,-149080.67162487505,-4792784.713999986,4196784.492272132,2.21765,3.10983,-0.147482,-108.312,14.2836,25.9522,-0.139572,-7.45517,7.11651,-0.0147129,-0.000718846,0.00624491,4,0,41.383871102161,-91.781623962273,11317.87038486238,-83.61496826324046,5.546551239711902,-4.015303589070694,174.214,10914.903477918164,12878.403777491774,150,True,13.123466339752175,False,20.22329943274702,179.33677991367236,False,159.93911332996535,False,False
10,1970-07-23 11:12:31.534146631,2025-09-15,2025-09-26 16:52:33.414,HA,D,3807008054,JASSM,3,126,76,2,2,1,225,9,2,0,1,26,0,0,0,0,-124862.73699342164,-4792071.716871557,4198690.005339146,2.29608,-3.09883,0.0776578,-88.875,-3.625,-6.75,0.0,0.0,0.0,0.0,0.0,0.0,2,0,41.40509286242091,-91.49256728735838,11994.7535119343,-95.94220529844551,0.0060281177167584,-0.0028308889972858,,10914.903477918164,12878.403777491774,150,10,2025-09-15,2025-09-26 16:52:33.311,HA,D,3438609302,AMBUSH51,1,1,48,2,1,1,225,2,1,0,0,9,1,225,2,1,-149188.7668762277,-4792771.016579377,4196809.963443331,2.20972,3.11664,-0.144165,-107.837,13.4833,25.4967,-0.222357,-7.28548,7.00434,-0.00422049,0.00578093,-0.00909532,4,0,41.384104534248486,-91.78292003894278,11347.691052680198,-84.01464849068462,5.713707138271827,-4.451731235384619,173.493,10914.903477918164,12878.403777491774,150,True,13.127326366577424,False,19.90111204782439,179.30857518416784,False,160.34282179389413,False,False
10,1970-07-23 11:12:31.544183918,2025-09-15,2025-09-26 16:52:34.418,HA,D,3808204334,JASSM,3,126,76,2,2,1,225,9,2,0,1,26,0,0,0,0,-124952.01824342164,-4792075.524488744,4198683.050261021,2.29608,-3.09883,0.0776578,-88.875,-3.625,-6.75,0.0,0.0,0.0,0.0,0.0,0.0,2,0,41.4050094189702,-91.49363285594931,11994.753194242683,-95.94291004203237,0.006831694475133,-0.0028306395891105,,10914.903477918164,12878.403777491774,150,10,2025-09-15,2025-09-26 16:52:34.477,HA,D,3440001134,AMBUSH51,1,1,48,2,1,1,225,2,1,0,0,9,1,225,2,1,-149313.3005043097,-4792755.886565544,4196839.057885425,2.20644,3.12464,-0.139802,-107.316,12.5046,25.1414,-0.128813,-7.3069,7.05603,0.00361711,0.0112279,-0.0158177,4,0,41.38436788903948,-91.78441297888904,11383.112137323238,-84.5044426291632,5.892617699244033,-4.624442736820325,172.357,10914.903477918164,12878.403777491774,150,True,13.144510708710193,False,19.588229501975277,179.2660717184637,False,160.7450752343709,False,False
10,1970-07-23 11:12:31.555235167,2025-09-15,2025-09-26 16:52:35.523,HA,D,3809512442,JASSM,3,126,76,2,2,1,225,9,2,0,1,26,0,0,0,0,-125049.64324342164,-4792079.686598119,4198675.442839146,2.29608,-3.09893,0.0776578,-88.875,-3.625,-6.75,0.0,0.0,0.0,0.0,0.0,0.0,2,0,41.40491815813646,-91.49479800420332,11994.749133581408,-95.94004867271477,0.0036135971547696,-0.0024039730555481,,10914.903477918164,12878.403777491774,150,10,2025-09-15,2025-09-26 16:52:35.677,HA,D,3441432734,AMBUSH51,1,1,48,2,1,1,225,2,1,0,0,9,1,225,2,1,-149442.17336388267,-4792741.229501635,4196868.842914034,2.11373,3.1393,-0.137761,-106.721,11.355,24.4604,0.0321316,-7.90456,7.59653,-0.124974,0.017091,0.00201298,4,0,41.38463226938158,-91.78595757354029,11421.536082946395,-85.14353332787088,6.444906311757635,-9.88920698531676,171.232,10914.903477918164,12878.403777491774,150,True,13.159538671467294,False,19.10227783554166,179.21295734910822,False,161.32096749865616,False,False
10,1970-07-23 11:12:31.565248882,2025-09-15,2025-09-26 16:52:36.524,HA,D,3810706200,JASSM,3,126,76,2,2,1,225,9,2,0,1,26,0,0,0,0,-125138.73699342164,-4792083.484449682,4198668.501432896,2.29608,-3.09893,0.0776578,-88.875,-3.625,-6.75,0.0,0.0,0.0,0.0,0.0,0.0,2,0,41.40483487353763,-91.4958613298463,11994.751048222406,-95.9407519304417,0.0044154862994793,-0.0024036775000039,,10914.903477918164,12878.403777491774,150,10,2025-09-15,2025-09-26 16:52:36.544,HA,D,3442466666,AMBUSH51,1,1,48,2,1,1,225,2,1,0,0,9,1,225,2,1,-149534.51990394018,-4792732.35646791,4196889.915171294,2.08493,-3.11662,-0.138142,-106.222,9.04336,24.1701,-0.110791,-8.57659,8.26087,0.0438121,0.0280766,-0.030049,4,0,41.38481018308518,-91.78706378201632,11452.497581022031,-86.14947136645836,7.628703939327968,-11.447354417943636,171.098,10914.903477918164,12878.403777491774,150,False,13.160036931104182,False,18.549487088715995,179.17222933457737,False,161.90714715822887,False,False
10,1970-07-23 11:12:31.575286311,2025-09-15,2025-09-26 16:52:37.528,HA,D,3811959570,JASSM,3,126,76,2,2,1,225,9,2,0,1,26,0,0,0,0,-125232.27996217164,-4792087.470777807,4198661.212370396,2.29608,-3.09893,0.0777537,-88.875,-3.625,-6.75,0.0,0.0,0.0,0.0,0.0,0.0,2,0,41.40474741945207,-91.4969777539488,11994.75237246354,-95.94560075387864,0.0016133528621435,-0.0024036138368841,,10914.903477918164,12878.403777491774,150,10,2025-09-15,2025-09-26 16:52:37.577,HA,D,3443699430,AMBUSH51,1,1,48,2,1,1,225,2,1,0,0,9,1,225,2,1,-149644.0586294809,-4792724.143682122,4196914.081904902,2.00863,3.14134,-0.084239,-105.828,7.0094,23.7346,0.0272145,-5.01572,4.83349,-0.103323,-0.0561147,-0.0324417,4,0,41.38500186104737,-91.78837507506584,11493.120726543551,-87.54304807111971,4.517824108901162,-16.12756641658415,168.678,10914.903477918164,12878.403777491774,150,False,13.167270186145847,False,18.013141647833958,179.12488259670548,False,162.4882514220105,False,False
10,1970-07-23 11:12:31.585164673,2025-09-15,2025-09-26 16:52:38.516,HA,D,3813152668,JASSM,3,126,76,2,2,1,225,9,2,0,1,26,0,0,0,0,-125321.32293092164,-4792091.264723119,4198654.272917271,2.29608,-3.09893,0.0777537,-88.875,-3.625,-6.875,0.0,0.0,0.0,0.0,0.0,0.0,2,0,41.40466415903187,-91.4980404685021,11994.754068139837,-95.9463036050828,0.0024147857252822,-0.0024033727680665,,10914.903477918164,12878.403777491774,150,10,2025-09-15,2025-09-26 16:52:38.411,HA,D,3444693596,AMBUSH51,1,1,48,2,1,1,225,2,1,0,0,9,1,225,2,1,-149732.9848227602,-4792715.846561871,4196930.205446167,1.94351,3.12429,-0.0666455,-105.767,10.1614,18.2601,-0.00988545,-4.66232,4.5669,-0.0478173,-0.0120019,-0.0175758,4,0,41.3851435481514,-91.7894402245943,11514.51243039903,-87.65943131204949,3.121546799104798,-19.94012119478927,168.055,10914.903477918164,12878.403777491774,150,False,13.16618854498983,False,16.173258566022202,179.05226934319657,False,164.56789109723536,False,False
10,1970-07-23 11:12:31.596186873,2025-09-15,2025-09-26 16:52:39.618,HA,D,3814405018,JASSM,3,126,76,2,2,1,225,9,2,0,1,26,0,0,0,0,-125414.78777467164,-4792095.245191869,4198646.985807896,2.29608,-3.09893,0.0777537,-88.875,-3.625,-6.875,0.0,0.0,0.0,0.0,0.0,0.0,2,0,41.40457674400849,-91.49915595514403,11994.749023909617,-95.94704135709571,0.0032560191733196,-0.0024031104536157,,10914.903477918164,12878.403777491774,150,10,2025-09-15,2025-09-26 16:52:39.677,HA,D,3446204728,AMBUSH51,1,1,48,2,1,1,225,2,1,0,0,9,1,225,2,1,-149866.45671364994,-4792702.9800903,4196950.395663919,1.91572,-3.13611,-0.026923,-105.895,9.7784,13.9244,-0.0638194,-6.58337,6.35989,0.021943,0.019001,-0.0411427,4,0,41.38533157253476,-91.79103909714254,11536.913462478626,-90.2341594238868,2.599347770481199,-21.599688148877245,168.226,10914.903477918164,12878.403777491774,150,False,13.186416608923203,False,14.099747566152855,178.9845136522872,False,166.76062361256862,False,False
10,1970-07-23 11:12:31.606225290,2025-09-15,2025-09-26 16:52:40.622,HA,D,3815657506,JASSM,3,126,76,2,2,1,225,9,2,0,1,26,0,0,0,0,-125508.26013358062,-4792099.225557174,4198639.698698521,2.29608,-3.09893,0.0777537,-88.875,-3.625,-6.875,0.0,0.0,0.0,0.0,0.0,0.0,2,0,41.404489317614136,-91.50027152862036,11994.748729348286,-95.9477791652584,0.0040973197028175,-0.0024028545269139,,10914.903477918164,12878.403777491774,150,10,2025-09-15,2025-09-26 16:52:40.544,HA,D,3447238660,AMBUSH51,1,1,48,2,1,1,225,2,1,0,0,9,1,225,2,1,-149958.51911328456,-4792695.350466466,4196961.310027737,1.93436,-3.12333,-0.00348565,-106.051,8.34594,11.4103,-0.297726,-6.86253,6.6428,0.0251554,-0.00010507,-0.0330263,4,0,41.38543351019469,-91.79214145955392,11548.900481904644,-91.72763046030812,2.261461919399608,-20.58420152179832,168.055,10914.903477918164,12878.403777491774,150,False,13.184851832577571,False,12.558344918221895,178.9412083722714,False,168.35410909333848,False,False
10,1970-07-23 11:12:31.616245326,2025-09-15,2025-09-26 16:52:41.624,HA,D,3816851180,JASSM,3,126,76,2,2,1,225,9,2,0,1,26,0,0,0,0,-125597.34607108062,-4792103.018525924,4198632.753386021,2.29608,-3.09893,0.0777537,-88.875,-3.625,-6.875,0.0,0.0,0.0,0.0,0.0,0.0,2,0,41.40440598633066,-91.5013347484615,11994.75079405811,-95.94848234704314,0.0048991400230907,-0.0024026130522806,,10914.903477918164,12878.403777491774,150,10,2025-09-15,2025-09-26 16:52:41.810,HA,D,3448749792,AMBUSH51,1,1,48,2,1,1,225,2,1,0,0,9,1,225,2,1,-150094.02886943138,-4792686.258456802,4196973.325119544,1.97599,-3.11051,0.0210246,-106.266,6.39108,7.68543,-0.245894,-7.18891,6.978,0.0423952,0.00744749,-0.0292272,4,0,41.38554347518144,-91.79376326822062,11563.02867768885,-93.26843285411434,1.8835728056952128,-18.261218911589754,168.092,10914.903477918164,12878.403777491774,150,False,13.208913851796437,False,10.314986554357528,178.88784204824216,False,170.66667804810552,False,False
10,1970-07-23 11:12:31.627265768,2025-09-15,2025-09-26 16:52:42.726,HA,D,3818162888,JASSM,3,126,76,2,2,1,225,9,2,0,1,26,0,0,0,0,-125695.24060233062,-4792107.184541549,4198625.120573521,2.29608,-3.09893,0.0777537,-88.875,-3.625,-6.875,0.0,0.0,0.0,0.0,0.0,0.0,2,0,41.40431441081864,-91.50250309430092,11994.751237420223,-95.94925505467629,0.0057802421082078,-0.0024023543610995,,10914.903477918164,12878.403777491774,150,10,2025-09-15,2025-09-26 16:52:42.744,HA,D,3449863258,AMBUSH51,1,1,48,2,1,1,225,2,1,0,0,9,1,225,2,1,-150192.90380243032,-4792681.338184791,4196979.446655988,2.01284,-3.09527,0.0385217,-106.435,4.59217,5.73969,-0.0974129,-7.29727,7.15501,0.0347803,0.0112258,-0.0192569,4,0,41.38559564557049,-91.79494598444548,11571.821943298017,-94.59935734985469,1.873901819790515,-16.219654983436293,168.006,10914.903477918164,12878.403777491774,150,False,13.208840528697413,False,8.908836082596563,178.8534213844642,False,172.0948442140691,False,False
10,1970-07-23 11:12:31.637193056,2025-09-15,2025-09-26 16:52:43.719,HA,D,3819355934,JASSM,3,126,76,2,2,1,225,9,2,0,1,26,0,0,0,0,-125784.27966483062,-4792110.973604049,4198618.177214146,2.29608,-3.09902,0.0777537,-88.875,-3.625,-6.875,0.0,0.0,0.0,0.0,0.0,0.0,2,0,41.404231102655885,-91.50356574959908,11994.753522747787,-95.94632594704257,0.0024848712062512,-0.0019752735764998,,10914.903477918164,12878.403777491774,150,10,2025-09-15,2025-09-26 16:52:43.577,HA,D,3450857424,AMBUSH51,1,1,48,2,1,1,225,2,1,0,0,9,1,225,2,1,-150281.88398774713,-4792678.284068824,4196983.281896312,2.02657,-3.09544,0.0568908,-106.582,3.33495,3.7921,-0.0799005,-6.32536,6.282,-0.0148274,-0.0397966,-0.0162297,4,0,41.38562311508085,-91.79600982857156,11579.489162760165,-95.38136225527866,1.1691412027800503,-15.45302585220814,167.872,10914.903477918164,12878.403777491774,150,False,13.208347157542985,False,7.661502196796214,178.82692766476833,False,173.36807223837812,False,False
10,1970-07-23 11:12:31.648171944,2025-09-15,2025-09-26 16:52:44.817,HA,D,3820609342,JASSM,3,126,76,2,2,1,225,9,2,0,1,26,0,0,0,0,-125877.82653983062,-4792114.952119674,4198610.880339146,2.29608,-3.09902,0.0777537,-88.875,-3.625,-6.875,0.0,0.0,0.0,0.0,0.0,0.0,2,0,41.40414356694711,-91.50468220214884,11994.750173319984,-95.94706433154744,0.0033268432974193,-0.0019749671961565,,10914.903477918164,12878.403777491774,150,10,2025-09-15,2025-09-26 16:52:44.711,HA,D,3452209488,AMBUSH51,1,1,48,2,1,1,225,2,1,0,0,9,1,225,2,1,-150403.58637058616,-4792673.878163471,4196984.941388268,2.02657,-3.13276,0.100951,-106.817,5.00315,-0.349483,-0.109019,-4.48819,4.30797,0.0213521,-0.0163961,-0.0237718,4,0,41.38563781729881,-91.79746498408524,11581.641526603638,-95.86123282238567,-2.0989019453920474,-15.280420413554005,167.969,10914.903477918164,12878.403777491774,150,False,13.223036741034804,False,6.560122225967648,178.79588378589855,False,174.62721768346503,False,False
10,1970-07-23 11:12:31.659204477,2025-09-15,2025-09-26 16:52:45.920,HA,D,3821920406,JASSM,3,126,76,2,2,1,225,9,2,0,1,26,0,0,0,0,-125975.67028983062,-4792119.113252486,4198603.247526646,2.29608,-3.09902,0.0777537,-88.875,-3.625,-6.875,0.0,0.0,0.0,0.0,0.0,0.0,2,0,41.40405199443386,-91.5058499333848,11994.749527923808,-95.94783662869214,0.0042074900747118,-0.0019746422784801,,10914.903477918164,12878.403777491774,150,10,2025-09-15,2025-09-26 16:52:45.944,HA,D,3453680854,AMBUSH51,1,1,48,2,1,1,225,2,1,0,0,9,1,225,2,1,-150534.87089607294,-4792667.3762434665,4196982.051898321,2.0507,-3.10318,0.131615,-107.32,4.84922,-3.49401,-0.250545,-7.06429,6.87635,0.00607638,0.012237,-0.0272589,4,0,41.38563246180792,-91.79903536667722,11569.518156002565,-98.29472558731156,-1.9990558946429928,-14.00795837788301,169.436,10914.903477918164,12878.403777491774,150,False,13.240679412862955,False,5.540277723858449,178.76479347414596,False,175.69096397896564,False,False
10,1970-07-23 11:12:31.669246303,2025-09-15,2025-09-26 16:52:46.924,HA,D,3823173770,JASSM,3,126,76,2,2,1,225,9,2,0,1,26,0,0,0,0,-126069.21325858062,-4792123.090791549,4198595.950651646,2.29608,-3.09902,0.0777537,-88.875,-3.625,-6.875,0.0,0.0,0.0,0.0,0.0,0.0,2,0,41.40396444298072,-91.50696633343782,11994.752787134315,-95.94857497585068,0.0050494269371733,-0.00197433859671,,10914.903477918164,12878.403777491774,150,10,2025-09-15,2025-09-26 16:52:47.077,HA,D,3455032920,AMBUSH51,1,1,48,2,1,1,225,2,1,0,0,9,1,225,2,1,-150657.72607438487,-4792663.033498328,4196976.451093569,2.08229,-3.09025,0.149373,-107.934,3.04082,-5.5835,-0.132405,-7.35772,7.01262,0.060253,0.00260178,-0.0223279,4,0,41.38559751478884,-91.80050426769006,11556.183022338604,-99.54474266863036,-2.1232353743782206,-12.256882555675462,170.658,10914.903477918164,12878.403777491774,150,False,13.256243002262114,False,4.202714678888968,178.74261681914473,False,177.02175570407113,False,False
10,1970-07-23 11:12:31.680265743,2025-09-15,2025-09-26 16:52:48.026,HA,D,3824486576,JASSM,3,126,76,2,2,1,225,9,2,0,1,26,0,0,0,0,-126167.18982108062,-4792127.254854049,4198588.306120396,2.29608,-3.09902,0.0778495,-88.875,-3.625,-6.875,0.0,0.0,0.0,0.0,0.0,0.0,2,0,41.4038727299527,-91.50813564417416,11994.752212054833,-95.95345879111068,0.0022872317534916,-0.0019743149896503,,10914.903477918164,12878.403777491774,150,10,2025-09-15,2025-09-26 16:52:48.144,HA,D,3456305452,AMBUSH51,1,1,48,2,1,1,225,2,1,0,0,9,1,225,2,1,-150771.99526500967,-4792660.828781847,4196969.224622378,2.1431,-3.0716,0.167367,-108.343,1.54209,-7.08903,-0.286122,-7.36875,7.13673,0.0266327,0.00419344,-0.0197854,4,0,41.385540465187546,-91.80186982252596,11543.925198654775,-101.01823068813628,-2.0180568225296547,-8.888038712215474,171.623,10914.903477918164,12878.403777491774,150,True,13.264890177342528,False,3.2150822631925027,178.7274723692485,False,177.9465432377884,False,False
10,1970-07-23 11:12:31.692265868,2025-09-15,2025-09-26 16:52:49.226,HA,D,3825858068,JASSM,3,126,76,2,2,1,225,9,2,0,1,26,0,0,0,0,-126269.54528983062,-4792131.604463424,4198580.317839146,2.29608,-3.09902,0.0778495,-88.875,-3.625,-6.875,0.0,0.0,0.0,0.0,0.0,0.0,2,0,41.403776894485546,-91.50935721205312,11994.751005671227,-95.95426668959716,0.0032084876663042,-0.0019740376855813,,10914.903477918164,12878.403777491774,150,10,2025-09-15,2025-09-26 16:52:49.310,HA,D,3457697282,AMBUSH51,1,1,48,2,1,1,225,2,1,0,0,9,1,225,2,1,-150899.00478703808,-4792659.611507542,4196959.125404822,2.13826,-3.08214,0.185407,-108.776,1.05379,-9.24183,-0.145438,-5.73804,5.50648,0.00237292,-0.0284199,0.00115785,4,0,41.38545574598125,-91.80338716388698,11528.859325177971,-101.39726648346353,-3.1481480346364337,-9.042656750662056,172.454,10914.903477918164,12878.403777491774,150,True,13.278119580983708,False,2.9140961609249945,178.71591208744047,False,177.9138913246533,False,False
10,1970-07-23 11:12:31.703284503,2025-09-15,2025-09-26 16:52:50.328,HA,D,3827228822,JASSM,3,126,76,2,2,1,225,9,2,0,1,26,0,0,0,0,-126371.84607108062,-4792135.950166549,4198572.333464146,2.29608,-3.09902,0.0778495,-88.875,-3.625,-6.875,0.0,0.0,0.0,0.0,0.0,0.0,2,0,41.40368110423413,-91.51057812417208,11994.750538861052,-95.95507415285353,0.0041292510252049,-0.0019737674532686,,10914.903477918164,12878.403777491774,150,10,2025-09-15,2025-09-26 16:52:50.544,HA,D,3459168648,AMBUSH51,1,1,48,2,1,1,225,2,1,0,0,9,1,225,2,1,-151032.80449276126,-4792657.611581899,4196946.280195704,2.16423,-3.06847,0.200573,-109.448,1.16756,-11.219,-0.300179,-7.27987,7.06598,0.0114797,-0.00235419,-0.0256298,4,0,41.385355847829935,-91.804985893526,11506.446512539644,-102.56026089870558,-3.1489654940897225,-7.641282148087038,174.006,10914.903477918164,12878.403777491774,150,True,13.295104450228825,False,3.2659443172434175,178.70514865231567,False,177.23789369878884,False,False
10,1970-07-23 11:12:31.714165400,2025-09-15,2025-09-26 16:52:51.416,HA,D,3828541522,JASSM,3,126,76,2,2,1,225,9,2,0,1,26,0,0,0,0,-126469.81482108062,-4792140.111299361,4198564.686979771,2.29608,-3.09902,0.0778495,-88.875,-3.625,-6.875,0.0,0.0,0.0,0.0,0.0,0.0,2,0,41.40358935997144,-91.51174733232878,11994.753353453629,-95.95584741970364,0.0050110236740269,-0.0019735104192687,,10914.903477918164,12878.403777491774,150,10,2025-09-15,2025-09-26 16:52:51.277,HA,D,3460043514,AMBUSH51,1,1,48,2,1,1,225,2,1,0,0,9,1,225,2,1,-151113.0641026804,-4792656.928334947,4196937.345681047,2.16865,-3.06536,0.211344,-109.847,0.686712,-12.266,-0.160875,-6.838,6.41946,0.0168726,-0.0124368,-0.00771797,4,0,41.38528454222299,-91.80594469461518,11491.610731353549,-103.13880507981642,-3.4281437398118246,-7.391180999468987,174.74,10914.903477918164,12878.403777491774,150,True,13.285584922734365,False,3.316775515543434,178.6989950006918,False,176.9763688448029,False,False
10,1970-07-23 11:12:31.725184379,2025-09-15,2025-09-26 16:52:52.518,HA,D,3829854832,JASSM,3,126,76,2,2,1,225,9,2,0,1,26,0,0,0,0,-126567.83044608062,-4792144.272432174,4198557.034636021,2.29608,-3.09902,0.0778495,-88.875,-3.625,-6.875,0.0,0.0,0.0,0.0,0.0,0.0,2,0,41.40349755691173,-91.5129170972513,11994.75146598537,-95.95662105336646,0.0058932190183331,-0.0019732502726674,,10914.903477918164,12878.403777491774,150,10,2025-09-15,2025-09-26 16:52:52.544,HA,D,3461554646,AMBUSH51,1,1,48,2,1,1,225,2,1,0,0,9,1,225,2,1,-151252.19266039116,-4792656.27021163,4196920.769139228,2.19875,-3.05951,0.213989,-110.483,-0.106035,-13.4806,-0.14015,-7.19566,6.70632,0.0383818,-0.0099442,-0.0115275,4,0,41.38515043570072,-91.80760655856152,11464.83442346889,-103.4716527844038,-3.282690289399033,-5.71818645471799,176.646,10914.903477918164,12878.403777491774,150,True,13.307884149570183,False,3.4037063832463743,178.69452571519926,False,176.64002227496735,False,False
10,1970-07-23 11:12:31.736204402,2025-09-15,2025-09-26 16:52:53.620,HA,D,3831166742,JASSM,3,126,76,2,2,1,225,9,2,0,1,26,0,0,0,0,-126665.74060233062,-4792148.427705611,4198549.390104771,2.29608,-3.09912,0.0778495,-88.875,-3.625,-6.875,0.0,0.0,0.0,0.0,0.0,0.0,2,0,41.403405846135925,-91.51408560060848,11994.750229006842,-95.95376199551568,0.0026776984636489,-0.0015456193360845,,10914.903477918164,12878.403777491774,150,10,2025-09-15,2025-09-26 16:52:53.610,HA,D,3462827178,AMBUSH51,1,1,48,2,1,1,225,2,1,0,0,9,1,225,2,1,-151371.10176443154,-4792656.607480523,4196905.24556053,2.2205,-3.05213,0.224752,-111.214,-0.703935,-14.4893,-0.050755,-7.14074,6.66027,0.0133064,-0.00690029,-0.00543347,4,0,41.38502129297139,-91.8090265635697,11441.229749865905,-104.20884742969868,-3.383935975198224,-4.521705409813526,178.002,10914.903477918164,12878.403777491774,150,True,13.319368514802946,False,3.5872775203221914,178.69300177990473,False,176.29393312985897,False,False
10,1970-07-23 11:12:31.747225201,2025-09-15,2025-09-26 16:52:54.722,HA,D,3832479682,JASSM,3,126,76,2,2,1,225,9,2,0,1,26,0,0,0,0,-126763.72497733062,-4792152.585908736,4198541.737761021,2.29608,-3.09912,0.0778495,-88.875,-3.625,-6.875,0.0,0.0,0.0,0.0,0.0,0.0,2,0,41.40331404164983,-91.51525498650489,11994.749037305017,-95.95453537570424,0.0035596136471093,-0.0015452964253212,,10914.903477918164,12878.403777491774,150,10,2025-09-15,2025-09-26 16:52:54.844,HA,D,3464298542,AMBUSH51,1,1,48,2,1,1,225,2,1,0,0,9,1,225,2,1,-151507.96953804724,-4792657.66734853,4196886.6783838365,2.22047,-3.05048,0.231399,-112.047,-1.48258,-15.1584,-0.16695,-7.05876,6.54414,-0.0238384,-0.00689613,-0.0121309,4,0,41.38486390971213,-91.81066077329156,11414.205376908976,-104.55590317749112,-3.567671443618072,-4.52390465032195,179.505,10914.903477918164,12878.403777491774,150,True,13.34056048616624,False,3.639531719768241,178.69390267149254,False,176.10042798277735,False,False
10,1970-07-23 11:12:31.758269616,2025-09-15,2025-09-26 16:52:55.826,HA,D,3833733066,JASSM,3,126,76,2,2,1,225,9,2,0,1,26,0,0,0,0,-126857.26794608062,-4792156.554658736,4198534.433073521,2.29608,-3.09912,0.0778495,-88.875,-3.625,-6.875,0.0,0.0,0.0,0.0,0.0,0.0,2,0,41.40322639849227,-91.51637136406508,11994.751866035484,-95.95527369720509,0.0044015527319317,-0.0015449992053383,,10914.903477918164,12878.403777491774,150,10,2025-09-15,2025-09-26 16:52:55.911,HA,D,3465571074,AMBUSH51,1,1,48,2,1,1,225,2,1,0,0,9,1,225,2,1,-151628.2307401171,-4792659.553462485,4196869.087584482,2.02123,-3.03988,0.235251,-112.455,-2.54827,-16.7605,0.0626436,-7.56286,7.02723,-0.222263,0.0119769,-0.00270373,4,0,41.38471130642336,-91.8120963357046,11390.048660551956,-105.11620433715754,-3.27329131052046,-16.046229308138273,181.241,10914.903477918164,12878.403777491774,150,False,13.35521724273249,False,4.18417860937383,178.69726150897407,False,175.36853961643916,False,False
10,1970-07-23 11:12:31.769262026,2025-09-15,2025-09-26 16:52:56.926,HA,D,3835104936,JASSM,3,126,76,2,2,1,225,9,2,0,1,26,0,0,0,0,-126959.65466483062,-4792160.896455611,4198526.435026646,2.29608,-3.09912,0.0778495,-88.875,-3.625,-6.875,0.0,0.0,0.0,0.0,0.0,0.0,2,0,41.40313045121995,-91.51759328356589,11994.748834879849,-95.9560818178862,0.0053230916379521,-0.001544668194528,,10914.903477918164,12878.403777491774,150,10,2025-09-15,2025-09-26 16:52:57.077,HA,D,3466962906,AMBUSH51,1,1,48,2,1,1,225,2,1,0,0,9,1,225,2,1,-151758.21325455766,-4792664.294973348,4196847.564074655,1.85933,-3.01483,0.269088,-112.178,-5.19686,-20.0592,-0.0299183,-7.29305,6.55662,-0.134801,0.00410605,-0.065338,4,0,41.38451332157398,-91.81364691578744,11365.152068661975,-107.49233104276836,-3.5348406647109347,-25.53966360205901,183.159,10914.903477918164,12878.403777491774,150,False,13.370486913622809,False,5.716545106841862,178.70854952471154,False,173.57247739862126,False,False
10,1970-07-23 11:12:31.781331275,2025-09-15,2025-09-26 16:52:58.133,HA,D,3836474932,JASSM,3,126,76,2,2,1,225,9,2,0,1,26,0,0,0,0,-127061.89685233062,-4792165.231416549,4198518.448698521,2.29608,-3.09912,0.0778495,-88.875,-3.625,-6.875,0.0,0.0,0.0,0.0,0.0,0.0,2,0,41.40303463353716,-91.518813474816,11994.750411323632,-95.95688879404652,0.0062433291260416,-0.0015443446794332,,10914.903477918164,12878.403777491774,150,10,2025-09-15,2025-09-26 16:52:58.010,HA,D,3468076372,AMBUSH51,1,1,48,2,1,1,225,2,1,0,0,9,1,225,2,1,-151863.32845382305,-4792670.012333014,4196826.281575454,1.69865,-3.00538,0.316599,-111.577,-6.79378,-24.4119,0.01646,-6.77429,6.22729,-0.131669,0.0287569,-0.0362991,4,0,41.38431582577486,-91.81490013334148,11341.249232658844,-109.86809425060268,-4.972620435032652,-34.72661401699694,183.685,10914.903477918164,12878.403777491774,150,False,13.372498632144717,False,7.980643098055597,178.7238339857411,False,171.27645953605366,False,False
