Subject_cm,Timestamp,SampleDate_cm,SampleTime_cm,Configuration_cm,Scenario_cm,DisTime_cm,MarkingTxt_cm,Application_cm,EntId_cm,Site_cm,ExerciseId_cm,ForceId_cm,Category_cm,Country_cm,Domain_cm,Kind_cm,Extra_cm,Specific_cm,Subcategory_cm,AltCategory_cm,AltCountry_cm,AltDomain_cm,AltKind_cm,ECEF_X_cm,ECEF_Y_cm,ECEF_Z_cm,OriPhi_cm,OriPsi_cm,OriTheta_cm,LinVelX_cm,LinVelY_cm,LinVelZ_cm,LinAccX_cm,LinAccY_cm,LinAccZ_cm,AngVelX_cm,AngVelY_cm,AngVelZ_cm,DrAlg_cm,Appearance_cm,Latitude_cm,Longitude_cm,Altitude_cm,Heading_cm,Pitch_cm,Roll_cm,CalibratedAirspeed_cm,CM_Altitude_Lead_cm,CM_Altitude_Wing_cm,CM_Airspeed_cm,Subject_ac,SampleDate_ac,SampleTime_ac,Configuration_ac,Scenario_ac,DisTime_ac,MarkingTxt_ac,Application_ac,EntId_ac,Site_ac,ExerciseId_ac,ForceId_ac,Category_ac,Country_ac,Domain_ac,Kind_ac,Extra_ac,Specific_ac,Subcategory_ac,AltCategory_ac,AltCountry_ac,AltDomain_ac,AltKind_ac,ECEF_X_ac,ECEF_Y_ac,ECEF_Z_ac,OriPhi_ac,OriPsi_ac,OriTheta_ac,LinVelX_ac,LinVelY_ac,LinVelZ_ac,LinAccX_ac,LinAccY_ac,LinAccZ_ac,AngVelX_ac,AngVelY_ac,AngVelZ_ac,DrAlg_ac,Appearance_ac,Latitude_ac,Longitude_ac,Altitude_ac,Heading_ac,Pitch_ac,Roll_ac,CalibratedAirspeed_ac,CM_Altitude_Lead_ac,CM_Altitude_Wing_ac,CM_Airspeed_ac,Bank_Angle_Condition,distance_nm,Distance_Condition,angle_between_vel,angle_between_pos,Cone_Condition,angle_between_pos_nose,Nose_Cone_Condition,Intercept_Criteria
10,1970-07-23 11:28:58.607464934,2025-09-16,2025-09-26 20:17:40.746,AA,C,2351191356,JASSM,3,114,76,2,2,1,225,9,2,0,1,26,0,0,0,0,-163112.84265311187,-4785615.291963424,4204238.395964146,-2.36559,-0.397301,0.382249,75.625,-31.625,-32.875,0.0,0.0,0.0,0.0,0.0,0.0,2,0,41.47411204328501,-91.95211282244608,10997.374208580562,119.85464498073392,-0.0024038087980779,0.0050431024369171,,10029.28805283672,11950.90527396306,150,10,2025-09-16,2025-09-26 20:17:40.652,AA,C,944100890,AMBUSH51,1,1,48,2,1,1,225,2,1,0,0,9,1,225,2,1,-148245.6122370842,-4791678.072356191,4197474.8205033215,2.32273,2.71508,-0.447023,-77.9901,42.8112,46.0508,-0.0941557,-6.54421,6.72996,0.00445143,-0.00673593,-0.0150854,4,0,41.39526759205842,-91.77205966778976,10029.0397702389,-56.34212797562447,1.4427089577249688,-3.09315410136905,161.322,10029.28805283672,11950.90527396306,150,True,9.37537280886387,False,172.20217303203893,178.90416284322728,False,7.4771406266558555,True,False
10,1970-07-23 11:28:58.618221675,2025-09-16,2025-09-26 20:17:41.822,AA,C,2352386264,JASSM,3,114,76,2,2,1,225,9,2,0,1,26,0,0,0,0,-163037.02185233062,-4785647.114229049,4204205.337370396,-2.36559,-0.397301,0.382249,75.625,-31.625,-32.875,0.0,0.0,0.0,0.0,0.0,0.0,2,0,41.47371498026568,-91.95119314619684,10997.375899514693,119.85525406303258,-0.0016085224018745,0.0050417595052505,,10029.28805283672,11950.90527396306,150,10,2025-09-16,2025-09-26 20:17:41.917,AA,C,945612022,AMBUSH51,1,1,48,2,1,1,225,2,1,0,0,9,1,225,2,1,-148344.1678733962,-4791623.607748019,4197532.110640167,2.31576,2.7224,-0.437902,-78.5084,43.0485,45.5117,-0.177193,-6.86321,6.52437,-0.00659653,0.00431619,-0.00543555,4,0,41.39596019604296,-91.77325714738622,10026.850351146748,-56.978571180617074,1.330162863855162,-3.3280277588077767,162.201,10029.28805283672,11950.90527396306,150,True,9.260256657695525,False,172.5052257179718,178.90652922705172,False,7.271992779503307,True,False
10,1970-07-23 11:28:58.629244018,2025-09-16,2025-09-26 20:17:42.924,AA,C,2353696670,JASSM,3,114,76,2,2,1,225,9,2,0,1,26,0,0,0,0,-162953.87243826812,-4785682.010713424,4204169.083464146,-2.36559,-0.397301,0.382249,75.625,-31.625,-32.875,0.0,0.0,0.0,0.0,0.0,0.0,2,0,41.47327953974264,-91.95018459034166,10997.37846843121,119.85592200291936,-0.0007363712881251,0.0050402950827047,,10029.28805283672,11950.90527396306,150,10,2025-09-16,2025-09-26 20:17:42.751,AA,C,946606188,AMBUSH51,1,1,48,2,1,1,225,2,1,0,0,9,1,225,2,1,-148409.55962947456,-4791587.562728244,4197569.674026103,2.30578,2.72799,-0.437083,-78.7165,43.02,45.1023,-0.216003,-7.1432,6.88763,-0.0107244,0.000737571,2.60074e-05,4,0,41.39641615451052,-91.77405165622612,10024.655849144545,-57.22045327856878,1.499007344020752,-3.770367125484957,162.201,10029.28805283672,11950.90527396306,150,True,9.163339614120153,False,172.72417147488974,178.90317133450563,False,7.111852128314305,True,False
10,1970-07-23 11:28:58.639281251,2025-09-16,2025-09-26 20:17:43.928,AA,C,2354950902,JASSM,3,114,76,2,2,1,225,9,2,0,1,26,0,0,0,0,-162874.28747733062,-4785715.409150924,4204134.382292271,-2.36559,-0.397205,0.382249,75.625,-31.625,-32.875,0.0,0.0,0.0,0.0,0.0,0.0,2,0,41.47286276047775,-91.94921928280743,10997.37726587312,119.85292341354324,-0.0034712650545387,0.0029900031242497,,10029.28805283672,11950.90527396306,150,10,2025-09-16,2025-09-26 20:17:43.951,AA,C,948037786,AMBUSH51,1,1,48,2,1,1,225,2,1,0,0,9,1,225,2,1,-148504.5932463511,-4791535.975609125,4197623.54638511,2.29674,2.73753,-0.4337,-78.9805,42.3757,44.7751,0.0178919,-7.34247,6.7717,0.0186661,0.00522749,-0.0151748,4,0,41.397069197086616,-91.77520603823118,10021.874959868956,-57.71151353361305,1.7067027952443987,-4.071436968286704,162.336,10029.28805283672,11950.90527396306,150,True,9.048736458172938,False,173.11946863912178,178.89898110565545,False,6.747548489230532,True,False
10,1970-07-23 11:28:58.650402900,2025-09-16,2025-09-26 20:17:45.040,AA,C,2356202882,JASSM,3,114,76,2,2,1,225,9,2,0,1,26,0,0,0,0,-162794.84558279935,-4785748.747041549,4204099.741667271,-2.36559,-0.397205,0.382249,75.625,-31.625,-32.875,0.0,0.0,0.0,0.0,0.0,0.0,2,0,41.47244671298977,-91.94825572310398,10997.375267358088,119.85356154310078,-0.0026379995171203,0.0029885451956764,,10029.28805283672,11950.90527396306,150,10,2025-09-16,2025-09-26 20:17:45.152,AA,C,949469386,AMBUSH51,1,1,48,2,1,1,225,2,1,0,0,9,1,225,2,1,-148598.88844089664,-4791485.701684016,4197676.371833084,2.32829,2.75186,-0.430336,-79.1148,41.8582,44.4113,-0.133155,-7.44974,6.98917,0.0520846,-0.00369826,-0.0120227,4,0,41.39770748520176,-91.77635113567422,10020.004226621351,-58.379870844525776,2.09314709810802,-1.9419646393564856,162.152,10029.28805283672,11950.90527396306,150,True,8.935033907109128,False,173.44382249631812,178.89283623380456,False,6.460323744264554,True,False
10,1970-07-23 11:28:58.660423484,2025-09-16,2025-09-26 20:17:46.042,AA,C,2357515680,JASSM,3,114,76,2,2,1,225,9,2,0,1,26,0,0,0,0,-162711.54382498687,-4785783.704072799,4204063.417448521,-2.36559,-0.397205,0.382345,75.625,-31.625,-32.875,0.0,0.0,0.0,0.0,0.0,0.0,2,0,41.47201044272481,-91.94724536018438,10997.375230591011,119.85807805729075,-0.0056850364532942,0.002986766642599,,10029.28805283672,11950.90527396306,150,10,2025-09-16,2025-09-26 20:17:46.017,AA,C,950503318,AMBUSH51,1,1,48,2,1,1,225,2,1,0,0,9,1,225,2,1,-148667.4227883918,-4791449.642207629,4197714.586345739,2.38937,2.75576,-0.435261,-78.9851,41.3614,44.6125,-0.0852299,-7.62111,6.94444,0.0898078,0.00856269,0.0135374,4,0,41.398167324206526,-91.7771832360756,10019.44059166003,-58.32572140011944,2.4368273961174065,1.6530644906879235,161.786,10029.28805283672,11950.90527396306,150,True,8.836452126422056,False,173.46706437291073,178.88563587623437,False,6.421569470705471,True,False
10,1970-07-23 11:28:58.670463096,2025-09-16,2025-09-26 20:17:47.046,AA,C,2358707742,JASSM,3,114,76,2,2,1,225,9,2,0,1,26,0,0,0,0,-162635.90368826812,-4785815.444307174,4204030.435026646,-2.36559,-0.397205,0.382345,75.625,-31.625,-32.875,0.0,0.0,0.0,0.0,0.0,0.0,2,0,41.47161430629811,-91.94632793709629,10997.377327857404,119.85868562223504,-0.0048916560700389,0.002985445558446,,10029.28805283672,11950.90527396306,150,10,2025-09-16,2025-09-26 20:17:46.851,AA,C,951497484,AMBUSH51,1,1,48,2,1,1,225,2,1,0,0,9,1,225,2,1,-148733.08907568178,-4791415.045259925,4197751.7164184,2.45564,2.75081,-0.442489,-78.5297,41.4662,44.9613,-0.364136,-7.48321,6.84916,0.0595726,-0.00899129,0.0122349,4,0,41.398611665863775,-91.7779805426087,10019.90660733538,-57.85229933683564,2.551614189035032,5.350111553910224,161.187,10029.28805283672,11950.90527396306,150,True,8.744510301458808,False,173.1510199050196,178.87915149325755,False,6.755891411544039,True,False
10,1970-07-23 11:28:58.681223398,2025-09-16,2025-09-26 20:17:48.122,AA,C,2359902108,JASSM,3,114,76,2,2,1,225,9,2,0,1,26,0,0,0,0,-162560.11706717435,-4785847.245088424,4203997.386198521,-2.36559,-0.397205,0.382345,75.625,-31.625,-32.875,0.0,0.0,0.0,0.0,0.0,0.0,2,0,41.47121738375896,-91.94540874890755,10997.375691638475,119.859294351336,-0.0040967336472815,0.0029841116920418,,10029.28805283672,11950.90527396306,150,10,2025-09-16,2025-09-26 20:17:48.152,AA,C,953048382,AMBUSH51,1,1,48,2,1,1,225,2,1,0,0,9,1,225,2,1,-148834.956013782,-4791360.220018111,4197810.846659342,2.4738,2.73099,-0.457574,-77.4412,42.0496,45.8498,-0.15067,-7.1797,6.59024,-0.045591,-0.000569043,0.0236449,4,0,41.39931816413405,-91.7792178402574,10021.115665523314,-56.51641238217792,2.453832858317036,5.954673109775327,160.527,10029.28805283672,11950.90527396306,150,True,8.627482056758048,False,172.2824458000438,178.8709992760377,False,7.669556864561552,True,False
10,1970-07-23 11:28:58.691264577,2025-09-16,2025-09-26 20:17:49.126,AA,C,2361153210,JASSM,3,114,76,2,2,1,225,9,2,0,1,26,0,0,0,0,-162480.73083670562,-4785880.555635299,4203962.767057896,-2.36559,-0.397205,0.382345,75.625,-31.625,-32.875,0.0,0.0,0.0,0.0,0.0,0.0,2,0,41.47080160071131,-91.94444591466925,10997.375356078175,119.85993197974128,-0.0032640551429585,0.0029827142340724,,10029.28805283672,11950.90527396306,150,10,2025-09-16,2025-09-26 20:17:48.984,AA,C,954042548,AMBUSH51,1,1,48,2,1,1,225,2,1,0,0,9,1,225,2,1,-148899.26621426368,-4791324.852548745,4197849.04011485,2.39418,2.72427,-0.46303,-76.9076,42.517,46.0078,-0.111475,-7.38883,6.63333,-0.128738,-0.0103,-0.000868648,4,0,41.39977450451676,-91.77999925991878,10021.898926117865,-56.05141906815341,2.4388120646072755,1.2420850311125444,160.344,10029.28805283672,11950.90527396306,150,True,8.53345036386476,False,171.90710393118746,178.8615258777764,False,8.106945465753501,True,False
10,1970-07-23 11:28:58.701408452,2025-09-16,2025-09-26 20:17:50.140,AA,C,2362346904,JASSM,3,114,76,2,2,1,225,9,2,0,1,26,0,0,0,0,-162404.98669608062,-4785912.336885299,4203929.735807896,-2.36559,-0.397205,0.382345,75.625,-31.625,-32.875,0.0,0.0,0.0,0.0,0.0,0.0,2,0,41.47040488935211,-91.94352726534706,10997.375722587843,119.8605403421794,-0.0024695805145775,0.0029813840681275,,10029.28805283672,11950.90527396306,150,10,2025-09-16,2025-09-26 20:17:50.250,AA,C,955553678,AMBUSH51,1,1,48,2,1,1,225,2,1,0,0,9,1,225,2,1,-148995.95066419776,-4791271.335571485,4197906.914205086,2.29686,2.72654,-0.455526,-76.736,42.4864,45.6679,-0.145018,-7.0013,6.52248,-0.0505595,0.000469174,-0.0118251,4,0,41.400465677039776,-91.78117420097536,10023.21836611836,-56.435195127738325,2.2120245164230488,-4.29226540761864,160.295,10029.28805283672,11950.90527396306,150,True,8.419351807922144,False,171.97365776777772,178.84784396128885,False,8.123216020505897,True,False
10,1970-07-23 11:28:58.710462787,2025-09-16,2025-09-26 20:17:51.046,AA,C,2363481968,JASSM,3,114,76,2,2,1,225,9,2,0,1,26,0,0,0,0,-162332.96325858062,-4785942.557588424,4203898.325651646,-2.36559,-0.397205,0.382345,75.625,-31.625,-32.875,0.0,0.0,0.0,0.0,0.0,0.0,2,0,41.470027644880986,-91.94265375205144,10997.378121693817,119.86111880948908,-0.0017141251123462,0.0029801075679129,,10029.28805283672,11950.90527396306,150,10,2025-09-16,2025-09-26 20:17:51.117,AA,C,956587612,AMBUSH51,1,1,48,2,1,1,225,2,1,0,0,9,1,225,2,1,-149062.51047005932,-4791234.681334354,4197946.178703473,2.25611,2.73669,-0.446676,-76.9445,42.0754,45.133,-0.119829,-7.2144,6.43844,-0.0218618,0.0062241,-0.0193839,4,0,41.40093647262609,-91.78198300198,10023.341295113594,-57.1651952190057,2.2146448170022963,-6.401661665755771,159.965,10029.28805283672,11950.90527396306,150,True,8.328460761555574,False,172.3543339096306,178.83356270491677,False,7.793736429738597,True,False
10,1970-07-23 11:28:58.721503524,2025-09-16,2025-09-26 20:17:52.150,AA,C,2364673802,JASSM,3,114,76,2,2,1,225,9,2,0,1,26,0,0,0,0,-162257.33728201812,-4785974.288057174,4203865.343229771,-2.36559,-0.397205,0.382345,75.625,-31.625,-32.875,0.0,0.0,0.0,0.0,0.0,0.0,2,0,41.469631527005184,-91.9417365581574,10997.37750803533,119.86172619877506,-0.0009208845981468,0.0029787696364487,,10029.28805283672,11950.90527396306,150,10,2025-09-16,2025-09-26 20:17:51.951,AA,C,957581776,AMBUSH51,1,1,48,2,1,1,225,2,1,0,0,9,1,225,2,1,-149126.8253506829,-4791199.744522369,4197983.471673772,2.24478,2.74443,-0.439735,-77.3003,41.6916,44.4009,-0.105629,-7.22908,6.58718,0.0271341,-0.00451385,-0.0171951,4,0,41.40138415236218,-91.78276435595546,10023.242888453637,-57.73061864925547,2.211659463301177,-6.882464336305566,159.635,10029.28805283672,11950.90527396306,150,True,8.237069096970151,False,172.85219400796674,178.81743213392963,False,7.35973924895908,True,False
10,1970-07-23 11:28:58.731262882,2025-09-16,2025-09-26 20:17:53.126,AA,C,2365867052,JASSM,3,114,76,2,2,1,225,9,2,0,1,26,0,0,0,0,-162181.62146170562,-4786006.053682174,4203832.321745396,-2.36559,-0.397109,0.382345,75.625,-31.625,-32.875,0.0,0.0,0.0,0.0,0.0,0.0,2,0,41.46923494712679,-91.94081828685108,10997.3749384466,119.85869668380788,-0.0036963589888569,0.0009280765376746,,10029.28805283672,11950.90527396306,150,10,2025-09-16,2025-09-26 20:17:53.051,AA,C,958894076,AMBUSH51,1,1,48,2,1,1,225,2,1,0,0,9,1,225,2,1,-149212.3957880221,-4791153.965337867,4198032.243729286,2.29633,2.75696,-0.427046,-77.547,41.1142,43.7754,-0.212098,-7.18001,6.44523,0.0505262,2.8088e-05,-0.0157782,4,0,41.40196987996097,-91.78380369592014,10023.013418422706,-58.70623639638967,2.152855376573384,-3.6647643223146975,159.11,10029.28805283672,11950.90527396306,150,True,8.131444806746634,False,173.3315472371046,178.7961383535634,False,6.937114668151114,True,False
10,1970-07-23 11:28:58.741494360,2025-09-16,2025-09-26 20:17:54.149,AA,C,2367058848,JASSM,3,114,76,2,2,1,225,9,2,0,1,26,0,0,0,0,-162105.99743826812,-4786037.780244674,4203799.339323521,-2.36559,-0.397109,0.382345,75.625,-31.625,-32.875,0.0,0.0,0.0,0.0,0.0,0.0,2,0,41.46883883743322,-91.93990114023946,10997.372924803683,119.859304032323,-0.0029031460440833,0.0009266987130686,,10029.28805283672,11950.90527396306,150,10,2025-09-16,2025-09-26 20:17:54.117,AA,C,960166608,AMBUSH51,1,1,48,2,1,1,225,2,1,0,0,9,1,225,2,1,-149295.50729737728,-4791109.80710564,4198078.797103916,2.335,2.75961,-0.426357,-77.6263,40.8888,43.4592,-0.237821,-7.2685,6.78484,0.0320734,0.00395417,0.0100129,4,0,41.40253143369376,-91.78481307387788,10021.774583651131,-58.83299138099739,2.223214571819774,-1.3909851846517594,158.633,10029.28805283672,11950.90527396306,150,True,8.027773157601581,False,173.53929430926158,178.77210211258944,False,6.787009153847836,True,False
10,1970-07-23 11:28:58.750439631,2025-09-16,2025-09-26 20:17:55.043,AA,C,2368253056,JASSM,3,114,76,2,2,1,225,9,2,0,1,26,0,0,0,0,-162030.22107108062,-4786069.571260299,4203766.290495396,-2.36559,-0.397109,0.382441,75.625,-31.625,-32.875,0.0,0.0,0.0,0.0,0.0,0.0,2,0,41.46844191944713,-91.9389821570262,10997.376340921275,119.8637601276289,-0.0060289832421431,0.0009250423657063,,10029.28805283672,11950.90527396306,150,10,2025-09-16,2025-09-26 20:17:55.017,AA,C,961240306,AMBUSH51,1,1,48,2,1,1,225,2,1,0,0,9,1,225,2,1,-149364.73526061297,-4791073.512696784,4198117.310380489,2.36763,2.75799,-0.428346,-77.5682,40.7449,43.4246,-0.172188,-7.13965,6.71126,0.0282534,0.00718741,-0.0119374,4,0,41.40299449697771,-91.78565366991104,10021.373948185375,-58.693365740343125,2.245555271675798,0.4458207503141764,158.78,10029.28805283672,11950.90527396306,150,True,7.933529443886968,False,173.57340522570556,178.75011867408898,False,6.78676622212402,True,False
10,1970-07-23 11:28:58.760700687,2025-09-16,2025-09-26 20:17:56.070,AA,C,2369387236,JASSM,3,114,76,2,2,1,225,9,2,0,1,26,0,0,0,0,-161958.25329764312,-4786099.762666549,4203734.899870396,-2.36559,-0.397109,0.382441,75.625,-31.625,-32.875,0.0,0.0,0.0,0.0,0.0,0.0,2,0,41.468064935309926,-91.93810937389344,10997.37276796077,119.86433808907682,-0.0052741146899568,0.0009237715084707,,10029.28805283672,11950.90527396306,150,10,2025-09-16,2025-09-26 20:17:56.050,AA,C,962473072,AMBUSH51,1,1,48,2,1,1,225,2,1,0,0,9,1,225,2,1,-149445.02726734485,-4791031.485559428,4198161.871132069,2.37434,2.75816,-0.424901,-77.4111,40.9179,43.2795,-0.156309,-7.00209,6.65472,-0.0154765,-0.00703969,-0.00385846,4,0,41.40353042857083,-91.78662860007069,10020.847322597148,-58.83923154005616,2.1123666964810277,0.8282905200248551,158.254,10029.28805283672,11950.90527396306,150,True,7.834272704280483,False,173.51772997742378,178.7242896801545,False,6.914915379463401,True,False
10,1970-07-23 11:28:58.770262542,2025-09-16,2025-09-26 20:17:57.026,AA,C,2370578278,JASSM,3,114,76,2,2,1,225,9,2,0,1,26,0,0,0,0,-161882.67761404935,-4786131.467744674,4203701.936979771,-2.36559,-0.397109,0.382441,75.625,-31.625,-32.875,0.0,0.0,0.0,0.0,0.0,0.0,2,0,41.46766905386337,-91.93719284697424,10997.376275475084,119.86494501323288,-0.0044814072036911,0.0009224446679395,,10029.28805283672,11950.90527396306,150,10,2025-09-16,2025-09-26 20:17:57.117,AA,C,963745604,AMBUSH51,1,1,48,2,1,1,225,2,1,0,0,9,1,225,2,1,-149528.48828267306,-4790987.383775662,4198208.3517749375,2.34095,2.75514,-0.426551,-77.3199,40.8902,43.3144,-0.0206431,-7.12449,6.33041,-0.080131,-0.00869585,0.00463453,4,0,41.40409106583832,-91.78764218141863,10019.632166953344,-58.661495065046445,2.0696546194889462,-1.1497415176980967,158.205,10029.28805283672,11950.90527396306,150,True,7.730509341340061,False,173.48109461031842,178.6939564871865,False,7.000521598084287,True,False
10,1970-07-23 11:28:58.780382668,2025-09-16,2025-09-26 20:17:58.038,AA,C,2371711672,JASSM,3,114,76,2,2,1,225,9,2,0,1,26,0,0,0,0,-161810.76062186187,-4786161.635713424,4203670.567839146,-2.36549,-0.397109,0.382441,75.625,-31.625,-32.875,0.0,0.0,0.0,0.0,0.0,0.0,2,0,41.46729233034048,-91.93632070126144,10997.373464188582,119.86552254372934,-0.003727075849767,0.006412653551474,,10029.28805283672,11950.90527396306,150,10,2025-09-16,2025-09-26 20:17:58.017,AA,C,964819302,AMBUSH51,1,1,48,2,1,1,225,2,1,0,0,9,1,225,2,1,-149598.21394537136,-4790950.471398296,4198247.123572361,2.26585,2.75395,-0.423314,-77.5044,40.8748,42.9271,-0.0750577,-6.86644,6.46815,-0.0570197,0.006299,0.00017581,4,0,41.40455943747874,-91.7884889945884,10018.323879128542,-58.74836265718955,1.8948487949892991,-5.484070081104273,158.352,10029.28805283672,11950.90527396306,150,True,7.638304867193719,False,173.68778978585487,178.66544407498318,False,6.870083640621604,True,False
10,1970-07-23 11:28:58.790447981,2025-09-16,2025-09-26 20:17:59.044,AA,C,2372964370,JASSM,3,114,76,2,2,1,225,9,2,0,1,26,0,0,0,0,-161731.27136404935,-4786194.979463424,4203635.895964146,-2.36549,-0.397109,0.382441,75.625,-31.625,-32.875,0.0,0.0,0.0,0.0,0.0,0.0,2,0,41.4668759383251,-91.93535673781729,10997.373352478757,119.86616087044584,-0.0028933222888361,0.0064112616328281,,10029.28805283672,11950.90527396306,150,10,2025-09-16,2025-09-26 20:17:58.851,AA,C,965813468,AMBUSH51,1,1,48,2,1,1,225,2,1,0,0,9,1,225,2,1,-149662.9674892445,-4790916.582153282,4198282.540679392,2.2219,2.76624,-0.413487,-77.9228,40.6529,42.1581,-0.241395,-7.10602,6.91223,-0.030334,0.000914421,-0.0210359,4,0,41.40498809654298,-91.78927528681498,10016.793979961169,-59.602561489865,1.9496546795518508,-7.744913997608506,158.547,10029.28805283672,11950.90527396306,150,True,7.5448842825912665,False,174.17011834814667,178.63637926491694,False,6.480203731867499,True,False
10,1970-07-23 11:28:58.801921538,2025-09-16,2025-09-26 20:18:00.192,AA,C,2374217984,JASSM,3,114,76,2,2,1,225,9,2,0,1,26,0,0,0,0,-161651.72497733062,-4786228.346650924,4203601.198698521,-2.36549,-0.397109,0.382441,75.625,-31.625,-32.875,0.0,0.0,0.0,0.0,0.0,0.0,2,0,41.46645923888615,-91.93439209413393,10997.375361905051,119.8667996423344,-0.0020589695642975,0.0064098685592233,,10029.28805283672,11950.90527396306,150,10,2025-09-16,2025-09-26 20:18:00.183,AA,C,967404134,AMBUSH51,1,1,48,2,1,1,225,2,1,0,0,9,1,225,2,1,-149767.0154210808,-4790863.137172423,4198337.751082604,2.22481,2.78397,-0.395281,-78.7955,39.7824,41.1358,-0.0874811,-7.1923,6.78934,0.0471702,-2.8088e-05,-0.0130193,4,0,41.40565939541664,-91.79053836961744,10013.13880843433,-61.0024781238504,1.8768916812956904,-7.22497405332275,158.499,10029.28805283672,11950.90527396306,150,True,7.425607031875225,False,175.10833082214504,178.59356524096265,False,5.637513466779991,True,False
10,1970-07-23 11:28:58.811220392,2025-09-16,2025-09-26 20:18:01.122,AA,C,2375470724,JASSM,3,114,76,2,2,1,225,9,2,0,1,26,0,0,0,0,-161572.23376639312,-4786261.690400924,4203566.522917271,-2.36549,-0.397109,0.382441,75.625,-31.625,-32.875,0.0,0.0,0.0,0.0,0.0,0.0,2,0,41.46604280470033,-91.93342813201497,10997.375476609288,119.86743795763007,-0.001225187784429,0.0064084627826334,,10029.28805283672,11950.90527396306,150,10,2025-09-16,2025-09-26 20:18:01.217,AA,C,968636898,AMBUSH51,1,1,48,2,1,1,225,2,1,0,0,9,1,225,2,1,-149849.315675269,-4790821.897005117,4198380.181964074,2.30787,2.7929,-0.391102,-79.2547,39.2869,40.6894,-0.342578,-7.20915,6.96094,0.075562,0.0139577,-0.00840456,4,0,41.40617585304884,-91.7915370802928,10010.106818570612,-61.50585680507537,2.046152845901977,-2.2870555687704828,158.401,10029.28805283672,11950.90527396306,150,True,7.321286341732038,False,175.5842480075254,178.55771238268733,False,5.216986171424428,True,False
10,1970-07-23 11:28:58.822259618,2025-09-16,2025-09-26 20:18:02.225,AA,C,2376724150,JASSM,3,114,76,2,2,1,225,9,2,0,1,26,0,0,0,0,-161492.69909842435,-4786295.049775924,4203531.827604771,-2.36549,-0.397013,0.382441,75.625,-31.625,-32.875,0.0,0.0,0.0,0.0,0.0,0.0,2,0,41.465626146373,-91.93246365630428,10997.372385748784,119.86443926350684,-0.0039605985949331,0.0043572270638859,,10029.28805283672,11950.90527396306,150,10,2025-09-16,2025-09-26 20:18:02.117,AA,C,969710598,AMBUSH51,1,1,48,2,1,1,225,2,1,0,0,9,1,225,2,1,-149920.77162532025,-4790786.332313728,4198416.832506121,2.38854,2.7875,-0.395773,-79.2833,39.221,40.8256,-0.0148839,-7.1779,6.68027,0.107247,-0.00100181,0.0116482,4,0,41.4066215374113,-91.79240411850294,10007.661452599768,-61.11496432328244,2.0311616257613934,2.229866640706009,158.499,10029.28805283672,11950.90527396306,150,True,7.224183566390795,False,175.5692706071488,178.52450554497221,False,5.252024678889361,True,False
10,1970-07-23 11:28:58.832378436,2025-09-16,2025-09-26 20:18:03.237,AA,C,2377975822,JASSM,3,114,76,2,2,1,225,9,2,0,1,26,0,0,0,0,-161413.27575858062,-4786328.362275924,4203497.181120396,-2.36549,-0.397013,0.382441,75.625,-31.625,-32.875,0.0,0.0,0.0,0.0,0.0,0.0,2,0,41.46521006601297,-91.93150054300764,10997.373860031244,119.86507700628796,-0.0031275366175395,0.0043557816600791,,10029.28805283672,11950.90527396306,150,10,2025-09-16,2025-09-26 20:18:03.417,AA,C,971261496,AMBUSH51,1,1,48,2,1,1,225,2,1,0,0,9,1,225,2,1,-150023.36605411328,-4790734.88687464,4198469.771884778,2.45686,2.78051,-0.402719,-78.8811,39.9273,41.4318,-0.038466,-7.09374,6.77562,0.0236803,0.00882068,0.0091078,4,0,41.40726584734746,-91.79364915165168,10003.905348744292,-60.57273777765556,2.049601198994741,6.007851119464207,158.352,10029.28805283672,11950.90527396306,150,True,7.1065002031352655,False,174.98958809257385,178.47810328075798,False,5.8870097786672275,True,False
10,1970-07-23 11:28:58.843422259,2025-09-16,2025-09-26 20:18:04.342,AA,C,2379229712,JASSM,3,114,76,2,2,1,225,9,2,0,1,26,0,0,0,0,-161333.71179373687,-4786361.733369674,4203462.472136021,-2.36549,-0.397013,0.382441,75.625,-31.625,-32.875,0.0,0.0,0.0,0.0,0.0,0.0,2,0,41.46479323535603,-91.93053573695012,10997.376311514949,119.8657158646852,-0.002292996953668,0.0043543288509132,,10029.28805283672,11950.90527396306,150,10,2025-09-16,2025-09-26 20:18:04.284,AA,C,972295428,AMBUSH51,1,1,48,2,1,1,225,2,1,0,0,9,1,225,2,1,-150091.55412003215,-4790699.883179523,4198506.0209904,2.46863,2.77172,-0.411192,-78.4139,40.3113,42.2975,-0.239222,-7.16752,6.96053,-0.000277759,0.00739131,0.00991091,4,0,41.40770607772998,-91.7944769643924,10001.72649715096,-59.90270477857256,2.065017370599511,6.506958324538078,158.78,10029.28805283672,11950.90527396306,150,True,7.011084046062891,False,174.40474189078708,178.44011046609418,False,6.465069701474401,True,False
10,1970-07-23 11:28:58.853439029,2025-09-16,2025-09-26 20:18:05.343,AA,C,2380480566,JASSM,3,114,76,2,2,1,225,9,2,0,1,26,0,0,0,0,-161254.34069998687,-4786395.022432174,4203427.845182896,-2.36549,-0.397013,0.382536,75.625,-31.625,-32.875,0.0,0.0,0.0,0.0,0.0,0.0,2,0,41.46437739960593,-91.92957328245106,10997.37581590649,119.87020083727998,-0.0053809879714478,0.0043526431873204,,10029.28805283672,11950.90527396306,150,10,2025-09-16,2025-09-26 20:18:05.150,AA,C,973329360,AMBUSH51,1,1,48,2,1,1,225,2,1,0,0,9,1,225,2,1,-150159.79059575818,-4790664.137391928,4198543.000901534,2.45225,2.76317,-0.416523,-77.8903,41.0616,42.7569,-0.147143,-7.11112,6.80763,-0.0307085,-0.00481346,0.0164669,4,0,41.40815564124398,-91.79530564480572,9999.315766792775,-59.36955322000764,1.9646635847331453,5.390281896929223,158.877,10029.28805283672,11950.90527396306,150,True,6.915485426420364,False,173.82425496597406,178.39835978840975,False,7.114902990017528,True,False
10,1970-07-23 11:28:58.864466873,2025-09-16,2025-09-26 20:18:06.446,AA,C,2381735318,JASSM,3,114,76,2,2,1,225,9,2,0,1,26,0,0,0,0,-161174.72155936187,-4786428.413057174,4203393.110807896,-2.36549,-0.397013,0.382536,75.625,-31.625,-32.875,0.0,0.0,0.0,0.0,0.0,0.0,2,0,41.46396027624584,-91.92860783348443,10997.375412641968,119.87084011092306,-0.0045458765760614,0.0043512557633922,,10029.28805283672,11950.90527396306,150,10,2025-09-16,2025-09-26 20:18:06.417,AA,C,974840492,AMBUSH51,1,1,48,2,1,1,225,2,1,0,0,9,1,225,2,1,-150257.67709317213,-4790612.120155362,4198597.04065302,2.38919,2.75759,-0.426364,-77.4475,41.3936,43.3679,-0.144022,-7.25524,6.88448,-0.039291,-0.00605973,-0.00144497,4,0,41.40881162809694,-91.79649469963502,9996.19729312036,-58.76557267288375,2.159983263852902,1.6680610406944232,159.354,10029.28805283672,11950.90527396306,150,True,6.799553027103067,False,173.3538969816063,178.3384965516724,False,7.636514846486014,True,False
10,1970-07-23 11:28:58.874259424,2025-09-16,2025-09-26 20:18:07.425,AA,C,2382987220,JASSM,3,114,76,2,2,1,225,9,2,0,1,26,0,0,0,0,-161095.28357108062,-4786461.727510299,4203358.454557896,-2.36549,-0.397013,0.382536,75.625,-31.625,-32.875,0.0,0.0,0.0,0.0,0.0,0.0,2,0,41.46354408893199,-91.92764459355506,10997.376989479915,119.87147791657944,-0.0037126628064324,0.0043498671794985,,10029.28805283672,11950.90527396306,150,10,2025-09-16,2025-09-26 20:18:07.283,AA,C,975874424,AMBUSH51,1,1,48,2,1,1,225,2,1,0,0,9,1,225,2,1,-150324.56692617072,-4790576.320640171,4198634.703548641,2.33642,2.76041,-0.426433,-77.2589,41.2095,43.6588,-0.0643038,-7.22347,6.63156,-0.0596995,8.21835e-05,-0.00264132,4,0,41.40926635833223,-91.79730733845912,9995.041779871137,-58.867969714501456,2.267423225433678,-1.2925238303383126,159.305,10029.28805283672,11950.90527396306,150,True,6.704404834500567,False,173.24154818401507,178.29099704754938,False,7.77173452340782,True,False
10,1970-07-23 11:28:58.885263103,2025-09-16,2025-09-26 20:18:08.526,AA,C,2384240646,JASSM,3,114,76,2,2,1,225,9,2,0,1,26,0,0,0,0,-161015.74890311187,-4786495.081025924,4203323.753386021,-2.36549,-0.397013,0.382536,75.625,-31.625,-32.875,0.0,0.0,0.0,0.0,0.0,0.0,2,0,41.46312737731628,-91.92668019425568,10997.37340280929,119.87211648463573,-0.0028784304870871,0.0043484682605063,,10029.28805283672,11950.90527396306,150,10,2025-09-16,2025-09-26 20:18:08.651,AA,C,977504856,AMBUSH51,1,1,48,2,1,1,225,2,1,0,0,9,1,225,2,1,-150430.3872068962,-4790519.987213383,4198694.013262712,2.27305,2.7688,-0.419997,-77.4594,41.0223,43.1129,-0.104077,-7.29496,6.95299,-0.0227253,0.00497158,-0.012366,4,0,41.40998209386013,-91.79859285006906,9993.370208624168,-59.43970957309344,2.3167780658312243,-4.748923363315344,159.403,10029.28805283672,11950.90527396306,150,True,6.583014622263197,False,173.56140056873204,178.22030102562513,False,7.575540997477449,True,False
10,1970-07-23 11:28:58.895399234,2025-09-16,2025-09-26 20:18:09.539,AA,C,2385436764,JASSM,3,114,76,2,2,1,225,9,2,0,1,26,0,0,0,0,-160939.85046561187,-4786526.909150924,4203290.640104771,-2.36549,-0.397013,0.382536,75.625,-31.625,-32.875,0.0,0.0,0.0,0.0,0.0,0.0,2,0,41.46272972211852,-91.92575989786408,10997.375902836044,119.87272584543976,-0.0020823445424419,0.0043471439639849,,10029.28805283672,11950.90527396306,150,10,2025-09-16,2025-09-26 20:18:09.551,AA,C,978578554,AMBUSH51,1,1,48,2,1,1,225,2,1,0,0,9,1,225,2,1,-150500.32545097702,-4790483.5300556505,4198732.715004242,2.25358,2.77606,-0.411618,-77.7365,40.5482,42.6378,-0.0875613,-7.20015,6.61035,-0.00197344,0.00119114,-0.0230499,4,0,41.41044716426953,-91.79944218925804,9993.096751529973,-60.04943168068748,2.248114003247468,-5.721220829125287,159.452,10029.28805283672,11950.90527396306,150,True,6.4883646879690895,False,173.97291968140505,178.16981465212663,False,7.230991075374042,True,False
10,1970-07-23 11:28:58.905419888,2025-09-16,2025-09-26 20:18:10.541,AA,C,2386744058,JASSM,3,114,76,2,2,1,225,9,2,0,1,26,0,0,0,0,-160856.89734061187,-4786561.694307174,4203254.446745396,-2.36549,-0.396918,0.382536,75.625,-31.625,-32.875,0.0,0.0,0.0,0.0,0.0,0.0,2,0,41.46229508987176,-91.92475407420804,10997.37506749039,119.86975475587,-0.0047818951965767,0.0022954150231305,,10029.28805283672,11950.90527396306,150,10,2025-09-16,2025-09-26 20:18:10.417,AA,C,979612486,AMBUSH51,1,1,48,2,1,1,225,2,1,0,0,9,1,225,2,1,-150567.90890350594,-4790448.658709552,4198769.447429321,2.24915,2.78504,-0.402391,-78.0348,39.9753,42.2132,-0.146701,-7.32529,6.77056,0.00593698,0.0015386,-0.0177256,4,0,41.410889941114185,-91.80026280851386,9992.271662077852,-60.75858589999441,2.2121693003476426,-5.798620361089421,159.305,10029.28805283672,11950.90527396306,150,True,6.3910616339410256,False,174.40587486432648,178.1181750609357,False,6.850220096730042,True,False
10,1970-07-23 11:28:58.915461200,2025-09-16,2025-09-26 20:18:11.546,AA,C,2387937104,JASSM,3,114,76,2,2,1,225,9,2,0,1,26,0,0,0,0,-160781.19519217435,-4786593.438447799,4203221.415495396,-2.36549,-0.396918,0.382536,75.625,-31.625,-32.875,0.0,0.0,0.0,0.0,0.0,0.0,2,0,41.46189843330033,-91.92383618202396,10997.374059049507,119.87036251482598,-0.003987861342248,0.0022940309643047,,10029.28805283672,11950.90527396306,150,10,2025-09-16,2025-09-26 20:18:11.684,AA,C,981123618,AMBUSH51,1,1,48,2,1,1,225,2,1,0,0,9,1,225,2,1,-150667.30127741603,-4790398.996521458,4198822.980620956,2.30723,2.79323,-0.391536,-78.4543,36.753,44.2451,-0.182594,-7.29745,6.6597,0.0752354,-0.00386679,-0.0150521,4,0,41.41152816361355,-91.80146907245576,9993.994812613675,-61.506947708414096,2.085133079949194,-2.317695446413745,159.305,10029.28805283672,11950.90527396306,150,True,6.277479561372186,False,174.35765680263916,178.0546896127245,False,6.375746848358982,True,False
10,1970-07-23 11:28:58.926219042,2025-09-16,2025-09-26 20:18:12.621,AA,C,2389190508,JASSM,3,114,76,2,2,1,225,9,2,0,1,26,0,0,0,0,-160701.66052420562,-4786626.788057174,4203186.712370396,-2.36549,-0.396918,0.382536,75.625,-31.625,-32.875,0.0,0.0,0.0,0.0,0.0,0.0,2,0,41.461481699729255,-91.92287183305729,10997.374168076583,119.8710010288076,-0.003153634919594,0.0022925871146268,,10029.28805283672,11950.90527396306,150,10,2025-09-16,2025-09-26 20:18:12.551,AA,C,982157550,AMBUSH51,1,1,48,2,1,1,225,2,1,0,0,9,1,225,2,1,-150736.00679309547,-4790364.339629817,4198858.777052833,2.34028,2.79711,-0.395688,-78.476,38.9674,41.6655,-0.145639,-7.33533,6.96185,0.0401586,0.0141616,0.00761394,4,0,41.41196312234144,-91.80230304579844,9991.7617221974,-61.48150779527445,2.399032660312607,-0.3376277393309487,158.975,10029.28805283672,11950.90527396306,150,True,6.1820390508403635,False,175.06308631557926,178.0008811014597,False,6.288742287618832,True,False
10,1970-07-23 11:28:58.937498232,2025-09-16,2025-09-26 20:18:13.749,AA,C,2390443976,JASSM,3,114,76,2,2,1,225,9,2,0,1,26,0,0,0,0,-160622.12243826812,-4786660.137666549,4203152.007292271,-2.36549,-0.396918,0.382536,75.625,-31.625,-32.875,0.0,0.0,0.0,0.0,0.0,0.0,2,0,41.46106494555504,-91.92190745557176,10997.374193327403,119.87163955639424,-0.0023193756594023,0.0022911476534291,,10029.28805283672,11950.90527396306,150,10,2025-09-16,2025-09-26 20:18:13.750,AA,C,983589150,AMBUSH51,1,1,48,2,1,1,225,2,1,0,0,9,1,225,2,1,-150829.7247728611,-4790318.064551575,4198908.443529521,2.39878,2.79303,-0.402713,-78.1871,38.891,41.9063,-0.184884,-7.39231,6.74554,0.0465294,-0.00461996,0.00801549,4,0,41.41255613441265,-91.80344027228163,9992.997046884968,-61.04373701744164,2.5282688283911803,2.9416514023385187,158.841,10029.28805283672,11950.90527396306,150,True,6.0700884522874805,False,174.89166570727286,177.93572234838493,False,6.500470811633363,True,False
10,1970-07-23 11:28:58.947904350,2025-09-16,2025-09-26 20:18:14.790,AA,C,2391697514,JASSM,3,114,76,2,2,1,225,9,2,0,1,26,0,0,0,0,-160542.58044608062,-4786693.489229049,4203117.298307896,-2.36549,-0.396918,0.382632,75.625,-31.625,-32.875,0.0,0.0,0.0,0.0,0.0,0.0,2,0,41.46064814607128,-91.92094304294706,10997.37465181129,119.87612591971453,-0.0054054395399427,0.0022894622559258,,10029.28805283672,11950.90527396306,150,10,2025-09-16,2025-09-26 20:18:14.583,AA,C,984583316,AMBUSH51,1,1,48,2,1,1,225,2,1,0,0,9,1,225,2,1,-150894.81037539075,-4790285.732076295,4198943.299293945,2.4306,2.7901,-0.405235,-77.8031,38.8262,42.4215,-0.168241,-7.35166,6.5893,0.0304401,8.63447e-05,0.00127644,4,0,41.41297157776706,-91.80423014301527,9994.167222491667,-60.83253297248758,2.52001881348779,4.708268493195379,158.462,10029.28805283672,11950.90527396306,150,True,5.976956851119283,False,174.57125009991546,177.88224992396937,False,6.818350748936568,True,False
10,1970-07-23 11:28:58.958279679,2025-09-16,2025-09-26 20:18:15.827,AA,C,2393008120,JASSM,3,114,76,2,2,1,225,9,2,0,1,26,0,0,0,0,-160459.41736014312,-4786728.358369674,4203081.009245396,-2.36549,-0.396918,0.382632,75.625,-31.625,-32.875,0.0,0.0,0.0,0.0,0.0,0.0,2,0,41.460212367905214,-91.91993473960824,10997.37814311607,119.87679352014833,-0.0045331517792986,0.0022880043751555,,10029.28805283672,11950.90527396306,150,10,2025-09-16,2025-09-26 20:18:15.750,AA,C,985975146,AMBUSH51,1,1,48,2,1,1,225,2,1,0,0,9,1,225,2,1,-150985.52229282618,-4790239.474656971,4198992.940187794,2.44634,2.77933,-0.415567,-77.0244,39.5745,42.9072,-0.195117,-7.18722,6.82733,-0.0148815,0.00533569,0.0137475,4,0,41.41356485660239,-91.80533147806318,9995.169116200876,-60.01390466590744,2.534864900598373,5.399971745266637,158.12,10029.28805283672,11950.90527396306,150,True,5.864154013471221,False,173.90536602278672,177.80522909925492,False,7.605236475988268,True,False
10,1970-07-23 11:28:58.969418542,2025-09-16,2025-09-26 20:18:16.941,AA,C,2394319904,JASSM,3,114,76,2,2,1,225,9,2,0,1,26,0,0,0,0,-160376.17907889312,-4786763.256807174,4203044.686979771,-2.36549,-0.396918,0.382632,75.625,-31.625,-32.875,0.0,0.0,0.0,0.0,0.0,0.0,2,0,41.45977619748206,-91.91892553898316,10997.380166784144,119.8774617089,-0.0036600811253068,0.0022865540403663,,10029.28805283672,11950.90527396306,150,10,2025-09-16,2025-09-26 20:18:17.016,AA,C,987486278,AMBUSH51,1,1,48,2,1,1,225,2,1,0,0,9,1,225,2,1,-151082.21544388472,-4790189.123710254,4199047.2071975535,2.4149,2.76744,-0.423767,-76.4814,40.2271,43.5696,-0.192014,-6.93377,6.83396,-0.0510984,-0.00289515,0.00014044,4,0,41.41421258299529,-91.80650584658846,9996.614492494742,-59.24197131127478,2.426635404213813,3.3542593699230845,158.266,10029.28805283672,11950.90527396306,150,True,5.74687440858058,False,173.2773236063998,177.71507494820372,False,8.340685242707663,True,False
10,1970-07-23 11:28:58.979439203,2025-09-16,2025-09-26 20:18:17.943,AA,C,2395573670,JASSM,3,114,76,2,2,1,225,9,2,0,1,26,0,0,0,0,-160296.62243826812,-4786796.610322799,4203009.968229771,-2.36549,-0.396918,0.382632,75.625,-31.625,-32.875,0.0,0.0,0.0,0.0,0.0,0.0,2,0,41.45935929833605,-91.91796098862486,10997.3767399814,119.87810032944078,-0.0028256206734195,0.002285156953926,,10029.28805283672,11950.90527396306,150,10,2025-09-16,2025-09-26 20:18:17.816,AA,C,988440678,AMBUSH51,1,1,48,2,1,1,225,2,1,0,0,9,1,225,2,1,-151143.35248900708,-4790156.619976401,4199082.032266093,2.36378,2.76636,-0.423073,-76.4031,40.5736,43.786,0.0123652,-6.86219,6.75284,-0.0725618,0.00130765,0.000431723,4,0,41.41462955824941,-91.80724863887306,9997.003569913926,-59.230536086245166,2.3592285209876462,0.4003783099881775,158.181,10029.28805283672,11950.90527396306,150,True,5.655578627490803,False,173.07108695883474,177.64490638836432,False,8.638347316460136,True,False
10,1970-07-23 11:28:58.990464087,2025-09-16,2025-09-26 20:18:19.046,AA,C,2396827214,JASSM,3,114,76,2,2,1,225,9,2,0,1,26,0,0,0,0,-160217.07946951812,-4786829.956025924,4202975.255339146,-2.36549,-0.396918,0.382632,75.625,-31.625,-32.875,0.0,0.0,0.0,0.0,0.0,0.0,2,0,41.458942474386895,-91.91699661720878,10997.372410321275,119.87873882622635,-0.0019913099171831,0.0022837698785841,,10029.28805283672,11950.90527396306,150,10,2025-09-16,2025-09-26 20:18:19.016,AA,C,989872276,AMBUSH51,1,1,48,2,1,1,225,2,1,0,0,9,1,225,2,1,-151235.5131643684,-4790107.407465563,4199134.721948615,2.28174,2.76882,-0.419911,-76.6921,40.4708,43.8481,0.00187217,-6.81011,6.8512,-0.0469725,-0.010248,-0.0121912,4,0,41.41526069652409,-91.8083684556858,9997.48583759955,-59.45052310188742,2.323053750984996,-4.251741126926365,158.841,10029.28805283672,11950.90527396306,150,True,5.543286427585194,False,173.18093330352977,177.5439381282971,False,8.630009287743617,True,False
10,1970-07-23 11:28:59.001220446,2025-09-16,2025-09-26 20:18:20.122,AA,C,2398137950,JASSM,3,114,76,2,2,1,225,9,2,0,1,26,0,0,0,0,-160133.90808279935,-4786864.823213424,4202938.958464146,-2.36549,-0.396822,0.382632,75.625,-31.625,-32.875,0.0,0.0,0.0,0.0,0.0,0.0,2,0,41.45850662209724,-91.91598826824706,10997.37245297023,119.87576962766134,-0.0046885667431937,0.0002315446183659,,10029.28805283672,11950.90527396306,150,10,2025-09-16,2025-09-26 20:18:20.084,AA,C,991144808,AMBUSH51,1,1,48,2,1,1,225,2,1,0,0,9,1,225,2,1,-151318.17052720045,-4790063.705417031,4199181.289933651,2.23784,2.77602,-0.407923,-77.4451,40.3573,43.3495,-0.114398,-6.84239,6.8262,-0.0322211,0.00220855,-0.0265827,4,0,41.41581950430571,-91.80937265446936,9997.501840829358,-60.204788571584935,2.1064166098689863,-6.630599855539041,158.939,10029.28805283672,11950.90527396306,150,True,5.435364863407884,False,173.66895269520546,177.44745519399189,False,8.285569276979242,True,False
10,1970-07-23 11:28:59.012239941,2025-09-16,2025-09-26 20:18:21.223,AA,C,2399392652,JASSM,3,114,76,2,2,1,225,9,2,0,1,26,0,0,0,0,-160054.29187186187,-4786898.200166549,4202904.212370396,-2.36549,-0.396822,0.382632,75.625,-31.625,-32.875,0.0,0.0,0.0,0.0,0.0,0.0,2,0,41.45808938611163,-91.91502303392268,10997.37586341372,119.87640868504836,-0.0038534818035409,0.0002300932003623,,10029.28805283672,11950.90527396306,150,10,2025-09-16,2025-09-26 20:18:21.416,AA,C,992735474,AMBUSH51,1,1,48,2,1,1,225,2,1,0,0,9,1,225,2,1,-151422.05128097322,-4790009.682247754,4199238.498387044,2.27894,2.78456,-0.396384,-78.5005,39.9132,42.8778,-0.176177,-6.88755,7.14833,0.100675,-0.0143447,-0.00598899,4,0,41.41650754064732,-91.81063437925704,9996.885791756018,-60.99270247085715,1.961793115059532,-4.112008986313513,159.55,10029.28805283672,11950.90527396306,150,True,5.315830985099821,False,174.3426276507113,177.33245283194552,False,7.744351536202127,True,False
10,1970-07-23 11:28:59.023259072,2025-09-16,2025-09-26 20:18:22.325,AA,C,2400702690,JASSM,3,114,76,2,2,1,225,9,2,0,1,26,0,0,0,0,-159971.16540701812,-4786933.045869674,4202867.935026646,-2.3654,-0.396822,0.382632,75.625,-31.625,-32.875,0.0,0.0,0.0,0.0,0.0,0.0,2,0,41.45765376717932,-91.91401525705164,10997.37872797322,119.87707590314147,-0.0029815896257366,0.0057200680932189,,10029.28805283672,11950.90527396306,150,10,2025-09-16,2025-09-26 20:18:22.217,AA,C,993689872,AMBUSH51,1,1,48,2,1,1,225,2,1,0,0,9,1,225,2,1,-151485.0269830022,-4789977.352447184,4199272.401780112,2.39414,2.77953,-0.385401,-78.8782,40.2266,42.6889,-0.271356,-6.30191,6.60116,0.156037,0.00076878,-0.00870833,4,0,41.41691688762275,-91.81139912957016,9995.862298827022,-61.2525766089616,1.3301310824681278,2.371328748231284,159.354,10029.28805283672,11950.90527396306,150,True,5.221688817615914,False,174.45314549241468,177.25045207258782,False,7.773049490649348,True,False
10,1970-07-23 11:28:59.032397811,2025-09-16,2025-09-26 20:18:23.239,AA,C,2401777916,JASSM,3,114,76,2,2,1,225,9,2,0,1,26,0,0,0,0,-159902.93640311187,-4786961.645479049,4202838.155729771,-2.3654,-0.396822,0.382632,75.625,-31.625,-32.875,0.0,0.0,0.0,0.0,0.0,0.0,2,0,41.45729619544045,-91.91318809889889,10997.37431989928,119.87762353482506,-0.0022659457087132,0.0057188256651131,,10029.28805283672,11950.90527396306,150,10,2025-09-16,2025-09-26 20:18:23.216,AA,C,994882870,AMBUSH51,1,1,48,2,1,1,225,2,1,0,0,9,1,225,2,1,-151564.3003731455,-4789935.488833953,4199315.082840499,2.57238,2.76961,-0.395548,-78.7782,41.6545,43.3126,-0.301428,-6.81396,6.93292,0.161653,0.00584959,0.012624,4,0,41.41743913347364,-91.81236224717044,9991.71649475176,-60.470421816134,1.3693422643924964,12.385378254473894,160.295,10029.28805283672,11950.90527396306,150,False,5.125869958534059,False,173.76185252719964,177.1488861344194,False,8.636895688642927,True,False
10,1970-07-23 11:28:59.041458512,2025-09-16,2025-09-26 20:18:24.145,AA,C,2402910538,JASSM,3,114,76,2,2,1,225,9,2,0,1,26,0,0,0,0,-159831.06677420562,-4786991.770479049,4202806.788542271,-2.3654,-0.396822,0.382728,75.625,-31.625,-32.875,0.0,0.0,0.0,0.0,0.0,0.0,2,0,41.45691954891791,-91.91231681457884,10997.373995027188,119.88204833560135,-0.0054323555657275,0.0057172934291074,,10029.28805283672,11950.90527396306,150,10,2025-09-16,2025-09-26 20:18:24.151,AA,C,995996336,AMBUSH51,1,1,48,2,1,1,225,2,1,0,0,9,1,225,2,1,-151636.78931134607,-4789895.549796857,4199355.440238271,2.72263,2.74258,-0.412644,-77.924,43.7152,44.8515,-0.231653,-6.72459,6.93448,0.117317,0.00933667,0.05238,4,0,41.41793551477692,-91.8132435794636,9986.7369310387,-58.76950248987932,1.064319669677834,20.421159913506536,161.138,10029.28805283672,11950.90527396306,150,False,5.031756491689532,False,172.30486879285812,177.03863834432053,False,10.224588781064586,True,False
10,1970-07-23 11:28:59.051363683,2025-09-16,2025-09-26 20:18:25.136,AA,C,2404044084,JASSM,3,114,76,2,2,1,225,9,2,0,1,26,0,0,0,0,-159759.13806326812,-4787021.920869674,4202775.394011021,-2.3654,-0.396822,0.382728,75.625,-31.625,-32.875,0.0,0.0,0.0,0.0,0.0,0.0,2,0,41.45654257190154,-91.91144482384418,10997.375454682871,119.88262564089224,-0.0046779043413976,0.0057160317124235,,10029.28805283672,11950.90527396306,150,10,2025-09-16,2025-09-26 20:18:25.284,AA,C,997348402,AMBUSH51,1,1,48,2,1,1,225,2,1,0,0,9,1,225,2,1,-151724.53971446303,-4789843.187848343,4199407.40092681,2.88321,2.68862,-0.449627,-75.9099,46.8436,47.4282,-0.251721,-7.05293,7.31821,0.0889506,0.0192736,0.0449648,4,0,41.41858124771932,-91.81431200119216,9977.586151694511,-55.276145084208046,0.6495518176626867,28.38151054954428,162.018,10029.28805283672,11950.90527396306,150,False,4.926019125111797,False,169.80026533147407,176.87985445118437,False,12.893033217280593,True,False
10,1970-07-23 11:28:59.060400164,2025-09-16,2025-09-26 20:18:26.040,AA,C,2405177484,JASSM,3,114,76,2,2,1,225,9,2,0,1,26,0,0,0,0,-159687.21911795562,-4787052.065400924,4202744.003386021,-2.3654,-0.396822,0.382728,75.625,-31.625,-32.875,0.0,0.0,0.0,0.0,0.0,0.0,2,0,41.45616564754707,-91.91057296229867,10997.3754321973,119.88320285633688,-0.0039235599981338,0.0057147769098575,,10029.28805283672,11950.90527396306,150,10,2025-09-16,2025-09-26 20:18:26.016,AA,C,998223268,AMBUSH51,1,1,48,2,1,1,225,2,1,0,0,9,1,225,2,1,-151779.48132753265,-4789807.355460393,4199442.58010939,2.95642,2.65332,-0.473807,-74.0101,49.6778,49.398,-0.234802,-7.23893,7.46967,0.0661868,0.0254301,0.0456035,4,0,41.419021539000966,-91.8149821186687,9970.108177511132,-53.00673458447935,0.4386568462974563,31.69643917090456,162.898,10029.28805283672,11950.90527396306,150,False,4.841901382148722,False,167.6464742389303,176.7452159477327,False,15.203212871456662,True,False
10,1970-07-23 11:28:59.069458873,2025-09-16,2025-09-26 20:18:26.945,AA,C,2406311340,JASSM,3,114,76,2,2,1,225,9,2,0,1,26,0,0,0,0,-159615.27087576812,-4787082.221650924,4202712.599089146,-2.3654,-0.396822,0.382728,75.625,-31.625,-32.875,0.0,0.0,0.0,0.0,0.0,0.0,2,0,41.45578856038613,-91.90970075591696,10997.375743108718,119.88378029576246,-0.0031689071527391,0.0057135192067294,,10029.28805283672,11950.90527396306,150,10,2025-09-16,2025-09-26 20:18:26.917,AA,C,999296966,AMBUSH51,1,1,48,2,1,1,225,2,1,0,0,9,1,225,2,1,-151843.62065467332,-4789761.086590878,4199487.429893412,3.04149,2.58771,-0.518567,-70.7769,53.2317,52.0353,-0.292653,-7.74349,7.96208,0.0543337,0.0311621,0.05558,4,0,41.4195874623932,-91.81576611304004,9958.676533626583,-48.83219792435371,0.1744099765906242,34.80247825028296,164.096,10029.28805283672,11950.90527396306,150,False,4.749789510676624,False,164.61519806595456,176.5570163803964,False,18.436558996497798,True,False
10,1970-07-23 11:28:59.080300708,2025-09-16,2025-09-26 20:18:28.030,AA,C,2407443436,JASSM,3,114,76,2,2,1,225,9,2,0,1,26,0,0,0,0,-159543.43396170562,-4787112.329072799,4202681.243620396,-2.3654,-0.396822,0.382728,75.625,-31.625,-32.875,0.0,0.0,0.0,0.0,0.0,0.0,2,0,41.455412064568456,-91.908829910075,10997.374866137709,119.88435683014104,-0.0024154297376504,0.0057122756573806,,10029.28805283672,11950.90527396306,150,10,2025-09-16,2025-09-26 20:18:28.183,AA,C,1000808098,AMBUSH51,1,1,48,2,1,1,225,2,1,0,0,9,1,225,2,1,-151929.57004468338,-4789689.914371578,4199556.190181734,3.13686,2.49062,-0.581323,-65.2363,57.7401,56.6782,-0.232501,-8.19666,8.36749,0.0296037,0.0401211,0.0648781,4,0,41.42045882797375,-91.8168201970945,9939.611603147316,-42.88640410710775,-0.0265576189819539,37.36387410547885,166.234,10029.28805283672,11950.90527396306,150,False,4.638671653719469,False,159.94955422521153,176.23858442964746,False,23.398439274731587,True,False
10,1970-07-23 11:28:59.088415309,2025-09-16,2025-09-26 20:18:28.841,AA,C,2408576808,JASSM,3,114,76,2,2,1,225,9,2,0,1,26,0,0,0,0,-159471.51696951812,-4787142.471650924,4202649.851042271,-2.3654,-0.396726,0.382728,75.625,-31.625,-32.875,0.0,0.0,0.0,0.0,0.0,0.0,2,0,41.455035118391685,-91.90795810293608,10997.376851862333,119.88129745887404,-0.0052307216061331,0.0036597860997515,,10029.28805283672,11950.90527396306,150,10,2025-09-16,2025-09-26 20:18:28.950,AA,C,1001722730,AMBUSH51,1,1,48,2,1,1,225,2,1,0,0,9,1,225,2,1,-151977.05546611108,-4789644.880202791,4199599.970746584,-3.07943,2.42612,-0.621249,-61.119,60.4544,59.5234,-0.303818,-8.60712,8.71784,0.0461632,0.0468748,0.0505491,4,0,41.42101332171128,-91.81740473787222,9927.606114979892,-39.076707465347496,-0.0063902385835216,39.10393172203225,167.444,10029.28805283672,11950.90527396306,150,False,4.555056848739902,False,156.84506046739915,175.99411813890805,False,26.740019002175615,True,False
10,1970-07-23 11:28:59.100318872,2025-09-16,2025-09-26 20:18:30.031,AA,C,2409652134,JASSM,3,114,76,2,2,1,225,9,2,0,1,26,0,0,0,0,-159403.28259451812,-4787171.067354049,4202620.065886021,-2.3654,-0.396726,0.382728,75.625,-31.625,-32.875,0.0,0.0,0.0,0.0,0.0,0.0,2,0,41.454677487744725,-91.9071309486641,10997.37360989107,119.88184505970275,-0.0045150290716506,0.0036585563438581,,10029.28805283672,11950.90527396306,150,10,2025-09-16,2025-09-26 20:18:29.983,AA,C,1002955496,AMBUSH51,1,1,48,2,1,1,225,2,1,0,0,9,1,225,2,1,-152035.79354153475,-4789580.177121621,4199663.082435992,-2.9936,2.32543,-0.680494,-54.311,64.2139,63.4311,-0.340244,-9.20135,9.36146,-0.0197126,0.0640147,0.0701941,4,0,41.42181319692795,-91.81813122540282,9910.077469268605,-33.376941661443965,0.2597170636643998,40.53548051090151,168.996,10029.28805283672,11950.90527396306,150,False,4.4616025378339765,False,152.11665917938015,175.61964356513744,False,31.84315078967684,False,False
10,1970-07-23 11:28:59.107260105,2025-09-16,2025-09-26 20:18:30.726,AA,C,2410726026,JASSM,3,114,76,2,2,1,225,9,2,0,1,26,0,0,0,0,-159335.13903983062,-4787199.625947799,4202590.319792271,-2.3654,-0.396726,0.382728,75.625,-31.625,-32.875,0.0,0.0,0.0,0.0,0.0,0.0,2,0,41.45432031755835,-91.90630490402862,10997.374709505624,119.88239192204244,-0.0038002840590842,0.0036573200253561,,10029.28805283672,11950.90527396306,150,10,2025-09-16,2025-09-26 20:18:30.750,AA,C,1003870128,AMBUSH51,1,1,48,2,1,1,225,2,1,0,0,9,1,225,2,1,-152075.19260480657,-4789530.295875809,4199712.755334277,-3.08128,2.25078,-0.722908,-49.263,65.8001,66.7668,-0.140577,-9.683,9.83333,-0.339481,0.0541007,0.0624855,4,0,41.42243782379381,-91.8186209930275,9898.319669143626,-29.32862104221767,0.681974483529272,32.78263763635211,169.925,10029.28805283672,11950.90527396306,150,False,4.382590431861331,False,148.8174794832622,175.2885738021646,False,35.441288091916526,False,False
10,1970-07-23 11:28:59.117418529,2025-09-16,2025-09-26 20:18:31.741,AA,C,2411918518,JASSM,3,114,76,2,2,1,225,9,2,0,1,26,0,0,0,0,-159259.47009451812,-4787231.336885299,4202557.288542271,-2.3654,-0.396726,0.382728,75.625,-31.625,-32.875,0.0,0.0,0.0,0.0,0.0,0.0,2,0,41.45392370438826,-91.90538764689173,10997.375689087115,119.8829991648131,-0.0030066108825756,0.0036559537333797,,10029.28805283672,11950.90527396306,150,10,2025-09-16,2025-09-26 20:18:31.751,AA,C,1005063126,AMBUSH51,1,1,48,2,1,1,225,2,1,0,0,9,1,225,2,1,-152121.7981173927,-4789464.625112572,4199781.827263279,2.87336,2.18994,-0.779928,-45.0284,64.3103,72.0038,0.0894887,-9.74925,9.9725,-0.348099,0.0470932,0.0312807,4,0,41.423285967796446,-91.8192028866492,9890.41210873245,-25.539699424226583,2.3586451536567474,11.677864677041134,171.978,10029.28805283672,11950.90527396306,150,False,4.289524547941897,False,146.0703797839449,174.81793677587532,False,38.52058868547762,False,False
10,1970-07-23 11:28:59.125926797,2025-09-16,2025-09-26 20:18:32.592,AA,C,2412992260,JASSM,3,114,76,2,2,1,225,9,2,0,1,26,0,0,0,0,-159191.33630545562,-4787259.889619674,4202527.544401646,-2.3654,-0.396726,0.382728,75.625,-31.625,-32.875,0.0,0.0,0.0,0.0,0.0,0.0,2,0,41.45356656776589,-91.90456174046194,10997.374308468578,119.88354592748134,-0.002291966141814,0.0036547128881178,,10029.28805283672,11950.90527396306,150,10,2025-09-16,2025-09-26 20:18:32.592,AA,C,1006057292,AMBUSH51,1,1,48,2,1,1,225,2,1,0,0,9,1,225,2,1,-152157.94936969748,-4789410.921314954,4199842.190394808,2.57889,2.24502,-0.802714,-43.4149,63.7597,73.4502,0.0546848,-9.24921,9.52878,-0.260554,0.0356354,-0.057723,4,0,41.42400609592738,-91.81965531361232,9892.214421668265,-26.883224028832117,4.5562696023018505,-3.030162039492155,172.552,10029.28805283672,11950.90527396306,150,True,4.210039981160376,False,145.0907953173864,174.3929153041507,False,39.906466751808026,False,False
10,1970-07-23 11:28:59.135568645,2025-09-16,2025-09-26 20:18:33.556,AA,C,2414125654,JASSM,3,114,76,2,2,1,225,9,2,0,1,26,0,0,0,0,-159119.41833670562,-4787290.028291549,4202496.147917271,-2.3654,-0.396726,0.382728,75.625,-31.625,-32.875,0.0,0.0,0.0,0.0,0.0,0.0,2,0,41.453189586229406,-91.90368997262355,10997.375906533223,119.88412304689982,-0.0015376281882963,0.0036534005668023,,10029.28805283672,11950.90527396306,150,10,2025-09-16,2025-09-26 20:18:33.450,AA,C,1007091224,AMBUSH51,1,1,48,2,1,1,225,2,1,0,0,9,1,225,2,1,-152195.9797000761,-4789356.8845455,4199906.505848471,2.35413,2.30393,-0.793619,-44.5894,61.2876,74.6176,0.0115519,-8.55862,8.65223,-0.139811,0.0110552,-0.021144,4,0,41.42475451945484,-91.82013033395864,9901.928263848977,-29.18884923784828,5.296988818044935,-13.688374246117416,171.587,10029.28805283672,11950.90527396306,150,False,4.126839886977187,False,145.73787696808478,173.9357790255948,False,39.64286916431318,False,False
10,1970-07-23 11:28:59.145279440,2025-09-16,2025-09-26 20:18:34.527,AA,C,2415259888,JASSM,3,114,76,2,2,1,225,9,2,0,1,26,0,0,0,0,-159047.44470389312,-4787320.186494674,4202464.727995396,-2.3654,-0.396726,0.382824,75.625,-31.625,-32.875,0.0,0.0,0.0,0.0,0.0,0.0,2,0,41.45281233469669,-91.9028175416564,10997.373686865738,119.88854870125004,-0.0047028167568693,0.0036519270721243,,10029.28805283672,11950.90527396306,150,10,2025-09-16,2025-09-26 20:18:34.350,AA,C,1008164924,AMBUSH51,1,1,48,2,1,1,225,2,1,0,0,9,1,225,2,1,-152237.42673889062,-4789301.678893612,4199973.942849393,2.32832,2.33453,-0.7842,-46.7626,59.6273,74.245,-0.0575772,-7.89924,7.98214,0.111929,0.00732681,-0.0246415,4,0,41.42553031514942,-91.82064664261154,9915.815598179315,-30.52872148605323,5.494624385089653,-14.04896774737602,171.244,10029.28805283672,11950.90527396306,150,False,4.0415646019827225,False,147.0574095198463,173.44754178886188,False,38.79569258962985,False,False
10,1970-07-23 11:28:59.155402254,2025-09-16,2025-09-26 20:18:35.540,AA,C,2416452272,JASSM,3,114,76,2,2,1,225,9,2,0,1,26,0,0,0,0,-158971.78259451812,-4787351.891572799,4202431.696745396,-2.3654,-0.396726,0.382824,75.625,-31.625,-32.875,0.0,0.0,0.0,0.0,0.0,0.0,2,0,41.45241572715391,-91.90190041105646,10997.376106348976,119.889155842177,-0.003909214611676,0.0036506116468723,,10029.28805283672,11950.90527396306,150,10,2025-09-16,2025-09-26 20:18:35.483,AA,C,1009516988,AMBUSH51,1,1,48,2,1,1,225,2,1,0,0,9,1,225,2,1,-152291.33051759464,-4789234.175035501,4200057.795028048,2.48794,2.36637,-0.770394,-48.1982,58.085,74.3115,-0.354172,-7.34337,7.43274,0.117913,0.00977776,-8.63447e-05,4,0,41.42648771516756,-91.8213165113634,9936.077307959918,-32.057306149849055,5.54347938218962,-3.771272606595992,170.365,10029.28805283672,11950.90527396306,150,True,3.943690058162072,False,147.90432929070366,172.83355207196493,False,38.538892382506425,False,False
10,1970-07-23 11:28:59.164458710,2025-09-16,2025-09-26 20:18:36.445,AA,C,2417586596,JASSM,3,114,76,2,2,1,225,9,2,0,1,26,0,0,0,0,-158899.80407889312,-4787382.051729049,4202400.270964146,-2.3654,-0.396726,0.382824,75.625,-31.625,-32.875,0.0,0.0,0.0,0.0,0.0,0.0,2,0,41.45203841181364,-91.90102794167764,10997.373021892843,119.8897334129199,-0.0031542442666438,0.0036493515861283,,10029.28805283672,11950.90527396306,150,10,2025-09-16,2025-09-26 20:18:36.582,AA,C,1010829288,AMBUSH51,1,1,48,2,1,1,225,2,1,0,0,9,1,225,2,1,-152344.33906712732,-4789169.90223803,4200138.316360937,2.659,2.34867,-0.781429,-48.0743,57.6469,74.467,-0.215985,-7.14239,7.2163,0.147561,-0.00300542,0.0166666,4,0,41.42740357186843,-91.82197447075885,9956.989970227603,-31.10088199727324,5.674320302733003,5.413254974316791,170.365,10029.28805283672,11950.90527396306,150,True,3.8501121733903614,False,147.85642413809236,172.21582788036324,False,39.217082863027294,False,False
10,1970-07-23 11:28:59.174235625,2025-09-16,2025-09-26 20:18:37.423,AA,C,2418777390,JASSM,3,114,76,2,2,1,225,9,2,0,1,26,0,0,0,0,-158824.24255545562,-4787413.713838424,4202367.282682896,-2.3654,-0.396726,0.382824,75.625,-31.625,-32.875,0.0,0.0,0.0,0.0,0.0,0.0,2,0,41.45164231574658,-91.90011205241004,10997.379203699407,119.89033972277942,-0.0023616965101989,0.0036480364411971,,10029.28805283672,11950.90527396306,150,10,2025-09-16,2025-09-26 20:18:37.516,AA,C,1011942754,AMBUSH51,1,1,48,2,1,1,225,2,1,0,0,9,1,225,2,1,-152389.1297632304,-4789114.700874293,4200207.839107715,2.78592,2.32883,-0.780913,-46.8101,58.1836,74.7156,-0.171604,-6.64909,6.60963,0.0941708,-0.00451801,0.00723735,4,0,41.42819277059138,-91.82253078036504,9975.693811426378,-30.43494107872932,5.214322904680024,11.947648610819144,169.974,10029.28805283672,11950.90527396306,150,False,3.7619121809317746,False,147.1348625656201,171.63329811696374,False,40.565959534210315,False,False
10,1970-07-23 11:28:59.184268392,2025-09-16,2025-09-26 20:18:38.426,AA,C,2419970450,JASSM,3,114,76,2,2,1,225,9,2,0,1,26,0,0,0,0,-158748.53747733062,-4787445.432588424,4202334.227995396,-2.3654,-0.39663,0.382824,75.625,-31.625,-32.875,0.0,0.0,0.0,0.0,0.0,0.0,2,0,41.451245455548495,-91.89919443566812,10997.372675320448,119.88731090268077,-0.0051372566402291,0.0015949960689948,,10029.28805283672,11950.90527396306,150,10,2025-09-16,2025-09-26 20:18:38.483,AA,C,1013095986,AMBUSH51,1,1,48,2,1,1,225,2,1,0,0,9,1,225,2,1,-152433.16344781677,-4789057.233493124,4200278.917122246,2.8671,2.29678,-0.784455,-44.8859,59.4177,74.9033,-0.158312,-6.36931,6.49724,0.0538219,-0.00851067,0.0250826,4,0,41.42900609033107,-91.82307891685208,9992.14847482698,-29.21681192573824,4.703152530015724,15.409511350133313,169.668,10029.28805283672,11950.90527396306,150,False,3.673890462567483,False,146.02867309424974,170.99493825248695,False,42.382320577502405,False,False
10,1970-07-23 11:28:59.194416959,2025-09-16,2025-09-26 20:18:39.441,AA,C,2421105316,JASSM,3,114,76,2,2,1,225,9,2,0,1,26,0,0,0,0,-158676.52478201812,-4787475.604463424,4202302.786589146,-2.3654,-0.39663,0.382824,75.625,-31.625,-32.875,0.0,0.0,0.0,0.0,0.0,0.0,2,0,41.45086795118922,-91.8983215843977,10997.372953479742,119.88788871290092,-0.0043819337513842,0.0015936963294671,,10029.28805283672,11950.90527396306,150,10,2025-09-16,2025-09-26 20:18:39.583,AA,C,1014408284,AMBUSH51,1,1,48,2,1,1,225,2,1,0,0,9,1,225,2,1,-152481.80336627952,-4788990.207997625,4200360.593100283,2.89671,2.24653,-0.783967,-42.6731,61.2125,74.8995,-0.302752,-6.15101,6.2261,-0.0727262,-0.00339449,0.0174239,4,0,41.42994693489707,-91.82368575685229,10008.47683020877,-27.46474363510841,3.655144075913476,15.199998067872894,169.582,10029.28805283672,11950.90527396306,150,False,3.58352228524665,False,144.74960462374284,170.23144303913745,False,44.52022338156175,False,False
10,1970-07-23 11:28:59.203900071,2025-09-16,2025-09-26 20:18:40.390,AA,C,2422299208,JASSM,3,114,76,2,2,1,225,9,2,0,1,26,0,0,0,0,-158600.76599295562,-4787507.344697799,4202269.710417271,-2.3654,-0.39663,0.382824,75.625,-31.625,-32.875,0.0,0.0,0.0,0.0,0.0,0.0,2,0,41.45047081441815,-91.89740333887552,10997.376045067462,119.88849656854316,-0.0035873255170071,0.0015923396138526,,10029.28805283672,11950.90527396306,150,10,2025-09-16,2025-09-26 20:18:40.316,AA,C,1015283150,AMBUSH51,1,1,48,2,1,1,225,2,1,0,0,9,1,225,2,1,-152512.64678890142,-4788943.845095954,4200415.872267795,2.87426,2.22109,-0.781558,-41.1846,62.5505,74.8952,0.0106886,-6.10681,6.22262,-0.0516144,-0.00732473,0.0126323,4,0,41.43059004756957,-91.82407204287264,10016.912429056343,-26.623823133769545,3.037879674946621,12.934541475047334,169.717,10029.28805283672,11950.90527396306,150,False,3.5069333778048235,False,143.8669769999142,169.62716157341814,False,46.067334216344406,False,False
10,1970-07-23 11:28:59.214217402,2025-09-16,2025-09-26 20:18:41.421,AA,C,2423491446,JASSM,3,114,76,2,2,1,225,9,2,0,1,26,0,0,0,0,-158525.11267264312,-4787539.040010299,4202236.677214146,-2.3654,-0.39663,0.382824,75.625,-31.625,-32.875,0.0,0.0,0.0,0.0,0.0,0.0,2,0,41.45007420679069,-91.89648638317055,10997.37466195256,119.88910356557996,-0.0027938154728129,0.0015909704320651,,10029.28805283672,11950.90527396306,150,10,2025-09-16,2025-09-26 20:18:41.283,AA,C,1016436382,AMBUSH51,1,1,48,2,1,1,225,2,1,0,0,9,1,225,2,1,-152551.06407899637,-4788882.554951294,4200487.233113213,2.8029,2.19444,-0.779063,-39.6464,64.0709,74.6942,-0.0982113,-6.12281,6.13059,-0.0754434,-0.017193,0.0237947,4,0,41.43142908350115,-91.82455454371986,10024.158203898847,-25.72932875885425,2.4073012982553355,7.814372223359701,170.157,10029.28805283672,11950.90527396306,150,True,3.422892181879494,False,142.96743041836342,168.83601191751833,False,47.82735825599114,False,False
