Subject_cm,Timestamp,SampleDate_cm,SampleTime_cm,Configuration_cm,Scenario_cm,DisTime_cm,MarkingTxt_cm,Application_cm,EntId_cm,Site_cm,ExerciseId_cm,ForceId_cm,Category_cm,Country_cm,Domain_cm,Kind_cm,Extra_cm,Specific_cm,Subcategory_cm,AltCategory_cm,AltCountry_cm,AltDomain_cm,AltKind_cm,ECEF_X_cm,ECEF_Y_cm,ECEF_Z_cm,OriPhi_cm,OriPsi_cm,OriTheta_cm,LinVelX_cm,LinVelY_cm,LinVelZ_cm,LinAccX_cm,LinAccY_cm,LinAccZ_cm,AngVelX_cm,AngVelY_cm,AngVelZ_cm,DrAlg_cm,Appearance_cm,Latitude_cm,Longitude_cm,Altitude_cm,Heading_cm,Pitch_cm,Roll_cm,CalibratedAirspeed_cm,CM_Altitude_Lead_cm,CM_Altitude_Wing_cm,CM_Airspeed_cm,Subject_ac,SampleDate_ac,SampleTime_ac,Configuration_ac,Scenario_ac,DisTime_ac,MarkingTxt_ac,Application_ac,EntId_ac,Site_ac,ExerciseId_ac,ForceId_ac,Category_ac,Country_ac,Domain_ac,Kind_ac,Extra_ac,Specific_ac,Subcategory_ac,AltCategory_ac,AltCountry_ac,AltDomain_ac,AltKind_ac,ECEF_X_ac,ECEF_Y_ac,ECEF_Z_ac,OriPhi_ac,OriPsi_ac,OriTheta_ac,LinVelX_ac,LinVelY_ac,LinVelZ_ac,LinAccX_ac,LinAccY_ac,LinAccZ_ac,AngVelX_ac,AngVelY_ac,AngVelZ_ac,DrAlg_ac,Appearance_ac,Latitude_ac,Longitude_ac,Altitude_ac,Heading_ac,Pitch_ac,Roll_ac,CalibratedAirspeed_ac,CM_Altitude_Lead_ac,CM_Altitude_Wing_ac,CM_Airspeed_ac,Bank_Angle_Condition,distance_nm,Distance_Condition,angle_between_vel,angle_between_pos,Cone_Condition,angle_between_pos_nose,Nose_Cone_Condition,Intercept_Criteria
10,1970-07-23 11:28:50.068248885,2025-09-16,2025-09-26 20:03:26.824,AH,C,1332391084,JASSM,3,105,76,2,2,1,225,9,2,0,1,26,0,0,0,0,-188212.3675554556,-4786095.987275924,4202193.659636021,-2.30155,-0.153302,0.128183,87.625,-13.375,-11.25,0.0,0.0,0.0,0.0,0.0,0.0,2,0,41.45197398031245,-92.2519858917119,10000.000249463312,99.81667401704004,-0.0037851063359023,0.0023906146415448,,8959.781364859911,11075.263430171775,150,10,2025-09-16,2025-09-26 20:03:27.004,AH,C,3535377748,HAWK11,1,1,73,2,1,1,225,2,1,0,0,12,1,225,2,1,-145622.38318045562,-4791820.623018111,4197886.712370396,2.29158,2.7882,-0.372182,-101.125,43.5,45.625,0.0,-7.32812,6.65625,-0.0117188,0.0,-0.00585938,4,0,41.39767880189904,-91.74067051069449,11075.43597884678,-62.06930052523357,1.069519608329579,-3.347921270248496,189.954,8959.781364859911,11075.263430171775,150,True,23.223808511093075,False,159.24032184927827,178.17977405386912,False,22.567215630875772,True,False
10,1970-07-23 11:28:50.078308856,2025-09-16,2025-09-26 20:03:27.830,AH,C,1333584668,JASSM,3,105,76,2,2,1,225,9,2,0,1,26,0,0,0,0,-188124.6214617056,-4786109.553682174,4202182.214323521,-2.30155,-0.153302,0.128183,87.625,-13.375,-11.25,0.0,0.0,0.0,0.0,0.0,0.0,2,0,41.451836553155104,-92.25093070447878,10000.00016075239,99.81737254166543,-0.0029823801113734,0.0023900457969886,,8959.781364859911,11075.263430171775,150,10,2025-09-16,2025-09-26 20:03:27.817,AH,C,3536332146,HAWK11,1,1,73,2,1,1,225,2,1,0,0,12,1,225,2,1,-145703.40661795562,-4791786.017549361,4197923.233854771,2.28841,2.78945,-0.371799,-101.25,43.125,45.375,-0.296875,-7.35938,6.54688,0.00195312,-0.00195312,-0.00390625,4,0,41.3981165389169,-91.74165098328264,11075.603303141135,-62.1323401736006,1.102282628280723,-3.5044618289947778,189.722,8959.781364859911,11075.263430171775,150,True,23.12838572159739,False,159.44839843278285,178.12737806857504,False,22.41241764353162,True,False
10,1970-07-23 11:28:50.089146994,2025-09-16,2025-09-26 20:03:28.914,AH,C,1334896524,JASSM,3,105,76,2,2,1,225,9,2,0,1,26,0,0,0,0,-188028.18200858065,-4786124.461885299,4202169.634245396,-2.30155,-0.153302,0.128183,87.625,-13.375,-11.25,0.0,0.0,0.0,0.0,0.0,0.0,2,0,41.45168550733558,-92.2497709818006,9999.997395698963,99.81814026563416,-0.0021001266906133,0.0023894282668765,,8959.781364859911,11075.263430171775,150,10,2025-09-16,2025-09-26 20:03:29.114,AH,C,3537843278,HAWK11,1,1,73,2,1,1,225,2,1,0,0,12,1,225,2,1,-145831.13903983062,-4791732.147432174,4197980.227995396,2.28736,2.7951,-0.368635,-101.375,42.75,45.0,-0.125,-7.40625,6.67188,-0.00585938,0.0078125,-0.00195312,4,0,41.39879860871628,-91.74319646354289,11076.299865799174,-62.47459613503692,1.191676694414389,-3.454528268733533,189.709,8959.781364859911,11075.263430171775,150,True,23.001027198822158,False,159.69654728075312,178.04711497755815,False,22.245134792033447,True,False
10,1970-07-23 11:28:50.099290188,2025-09-16,2025-09-26 20:03:29.929,AH,C,1336147422,JASSM,3,105,76,2,2,1,225,9,2,0,1,26,0,0,0,0,-187936.22497733065,-4786138.676729049,4202157.640104771,-2.30155,-0.153302,0.128183,87.625,-13.375,-11.375,0.0,0.0,0.0,0.0,0.0,0.0,2,0,41.45154148198838,-92.24866516724066,10000.000973447472,99.81887230086367,-0.0012588816282802,0.0023888500979161,,8959.781364859911,11075.263430171775,150,10,2025-09-16,2025-09-26 20:03:29.816,AH,C,3538638610,HAWK11,1,1,73,2,1,1,225,2,1,0,0,12,1,225,2,1,-145899.47693045562,-4791703.911104049,4198010.577604771,2.28573,2.80277,-0.36921,-101.5,40.625,46.625,-0.296875,-7.70312,7.01562,0.00585938,0.00976562,-0.00585938,4,0,41.3991590720043,-91.74402310869912,11077.805731361752,-62.73863971533716,1.5081485575887397,-3.395680352224243,189.514,8959.781364859911,11075.263430171775,150,True,22.91083485802451,False,159.78856975518283,177.93630479124863,False,22.270611834223608,True,False
10,1970-07-23 11:28:50.111306966,2025-09-16,2025-09-26 20:03:31.130,AH,C,1337400596,JASSM,3,105,76,2,2,1,225,9,2,0,1,26,0,0,0,0,-187844.09997733065,-4786152.916963424,4202145.620573521,-2.30145,-0.153206,0.128183,87.625,-13.375,-11.375,0.0,0.0,0.0,0.0,0.0,0.0,2,0,41.4513971628324,-92.24755733797464,10000.000115842353,99.8159692979566,-0.0044730343230912,0.0071776711844591,,8959.781364859911,11075.263430171775,150,10,2025-09-16,2025-09-26 20:03:31.209,AH,C,3540388342,HAWK11,1,1,73,2,1,1,225,2,1,0,0,12,1,225,2,1,-146048.47107108062,-4791642.914033736,4198075.935026646,2.29119,2.80556,-0.368827,-101.625,41.375,44.625,-0.140625,-7.42188,6.60938,0.00976562,0.00195312,0.0078125,4,0,41.39993610567517,-91.74582523269316,11080.728137960936,-62.85942526234594,1.600634888060545,-3.0284258816667213,189.086,8959.781364859911,11075.263430171775,150,True,22.773704599786072,False,160.2963718917073,177.84473226787208,False,21.84715070474652,True,False
10,1970-07-23 11:28:50.120347575,2025-09-16,2025-09-26 20:03:32.034,AH,C,1338654372,JASSM,3,105,76,2,2,1,225,9,2,0,1,26,0,0,0,0,-187751.9300554556,-4786167.163057174,4202133.595182896,-2.30145,-0.153206,0.128279,87.625,-13.375,-11.375,0.0,0.0,0.0,0.0,0.0,0.0,2,0,41.45125276909031,-92.24644897393324,10000.001135839211,99.82079353630068,-0.0072962649757576,0.007176634543224,,8959.781364859911,11075.263430171775,150,10,2025-09-16,2025-09-26 20:03:32.208,AH,C,3541621108,HAWK11,1,1,73,2,1,1,225,2,1,0,0,12,1,225,2,1,-146152.79333670562,-4791600.802705611,4198121.440886021,2.28851,2.80929,-0.364992,-101.625,41.0,44.5,-0.234375,-7.29688,6.5625,0.00195312,0.0,0.00195312,4,0,41.40047486854928,-91.74708684596884,11083.69789030636,-63.15730397594243,1.5915414156817866,-3.113698932303942,188.72,8959.781364859911,11075.263430171775,150,True,22.662615629195532,False,160.43350218699385,177.7791121576368,False,21.777027132564033,True,False
10,1970-07-23 11:28:50.130388313,2025-09-16,2025-09-26 20:03:33.038,AH,C,1339847452,JASSM,3,105,76,2,2,1,225,9,2,0,1,26,0,0,0,0,-187664.22107108065,-4786180.717744674,4202122.151823521,-2.30145,-0.153206,0.128279,87.625,-13.375,-11.375,0.0,0.0,0.0,0.0,0.0,0.0,2,0,41.45111536540511,-92.24539425912796,10000.00166210676,99.82149173826468,-0.0064938829573673,0.0071760876407425,,8959.781364859911,11075.263430171775,150,10,2025-09-16,2025-09-26 20:03:32.208,AH,C,3541621108,HAWK11,1,1,73,2,1,1,225,2,1,0,0,12,1,225,2,1,-146152.79333670562,-4791600.802705611,4198121.440886021,2.28851,2.80929,-0.364992,-101.625,41.0,44.5,-0.234375,-7.29688,6.5625,0.00195312,0.0,0.00195312,4,0,41.40047486854928,-91.74708684596884,11083.69789030636,-63.15730397594243,1.5915414156817866,-3.113698932303942,188.72,8959.781364859911,11075.263430171775,150,True,22.614553246122654,False,160.43350218699385,177.77420221782654,False,21.78192981745141,True,False
10,1970-07-23 11:28:50.141275352,2025-09-16,2025-09-26 20:03:34.127,AH,C,1341100826,JASSM,3,105,76,2,2,1,225,9,2,0,1,26,0,0,0,0,-187572.0823992056,-4786194.956025924,4202110.128386021,-2.30145,-0.153206,0.128279,87.625,-13.375,-11.375,0.0,0.0,0.0,0.0,0.0,0.0,2,0,41.45097100320774,-92.24428628186207,9999.999597467213,99.82222519695684,-0.0056509759854444,0.0071755045383579,,8959.781364859911,11075.263430171775,150,10,2025-09-16,2025-09-26 20:03:34.300,AH,C,3544086638,HAWK11,1,1,73,2,1,1,225,2,1,0,0,12,1,225,2,1,-146363.77380545562,-4791516.913057174,4198212.548307896,2.28573,2.81323,-0.361252,-101.75,40.25,43.875,-0.359375,-7.14062,6.51562,-0.00195312,-0.0078125,-0.00976562,4,0,41.40155059277855,-91.74963791896798,11090.862389939048,-63.45947262197417,1.5953124570515964,-3.201466629864804,187.852,8959.781364859911,11075.263430171775,150,True,22.441763278020513,False,160.86300304732032,177.64675899369018,False,21.481341638752962,True,False
10,1970-07-23 11:28:50.151306102,2025-09-16,2025-09-26 20:03:35.130,AH,C,1342293872,JASSM,3,105,76,2,2,1,225,9,2,0,1,26,0,0,0,0,-187484.3753679556,-4786208.508760299,4202098.683073521,-2.30145,-0.153206,0.128279,87.625,-13.375,-11.375,0.0,0.0,0.0,0.0,0.0,0.0,2,0,41.4508335776849,-92.2432316004446,9999.99970118685,99.82292337291588,-0.0048486115029074,0.0071749524840406,,8959.781364859911,11075.263430171775,150,10,2025-09-16,2025-09-26 20:03:35.208,AH,C,3544881970,HAWK11,1,1,73,2,1,1,225,2,1,0,0,12,1,225,2,1,-146431.67224295562,-4791490.321260299,4198241.544401646,2.28429,2.81543,-0.358376,-101.875,39.875,43.75,-0.375,-7.125,6.64062,0.0,-0.0117188,-0.0175781,4,0,41.401892169638806,-91.75045878313053,11093.469067004353,-63.66070788363359,1.566098060424039,-3.2449476771664805,187.608,8959.781364859911,11075.263430171775,150,True,22.354412811348563,False,161.03109490817548,177.6024523896537,False,21.358752803797454,True,False
10,1970-07-23 11:28:50.161346377,2025-09-16,2025-09-26 20:03:36.134,AH,C,1343546388,JASSM,3,105,76,2,2,1,225,9,2,0,1,26,0,0,0,0,-187392.29919608065,-4786222.735322799,4202086.667448521,-2.30145,-0.153206,0.128279,87.625,-13.375,-11.375,0.0,0.0,0.0,0.0,0.0,0.0,2,0,41.4506893025448,-92.24212438529376,10000.000677825878,99.82365632300484,-0.0040062786650111,0.0071743793790541,,8959.781364859911,11075.263430171775,150,10,2025-09-16,2025-09-26 20:03:36.208,AH,C,3546313570,HAWK11,1,1,73,2,1,1,225,2,1,0,0,12,1,225,2,1,-146553.44568045562,-4791443.020479049,4198293.306120396,2.28343,2.82051,-0.355212,-102.0,39.625,43.375,-0.109375,-7.39062,6.85938,0.00195312,0.00390625,-0.00976562,4,0,41.40250080488015,-91.75193085213942,11098.588374494771,-63.98180056098796,1.6372276887917658,-3.2017072440901666,187.412,8959.781364859911,11075.263430171775,150,True,22.233557892895575,False,161.25106488723915,177.52680647622114,False,21.21447339254514,True,False
10,1970-07-23 11:28:50.172349679,2025-09-16,2025-09-26 20:03:37.234,AH,C,1344796958,JASSM,3,105,76,2,2,1,225,9,2,0,1,26,0,0,0,0,-187300.3636492056,-4786236.940400924,4202074.667448521,-2.30145,-0.153206,0.128279,87.625,-13.375,-11.375,0.0,0.0,0.0,0.0,0.0,0.0,2,0,41.450545217278375,-92.24101886593895,10000.000851147215,99.8243881484249,-0.0031652288053534,0.0071737875765143,,8959.781364859911,11075.263430171775,150,10,2025-09-16,2025-09-26 20:03:37.300,AH,C,3547705400,HAWK11,1,1,73,2,1,1,225,2,1,0,0,12,1,225,2,1,-146673.76403983062,-4791396.780244674,4198343.923307896,2.27835,2.82118,-0.352911,-102.25,39.125,43.125,-0.078125,-7.20312,6.76562,0.00390625,-0.0117188,0.0,4,0,41.403095651162886,-91.75338517642422,11103.733521778347,-64.10267013869024,1.5727759352856885,-3.482920641108227,187.18,8959.781364859911,11075.263430171775,150,True,22.11371707423546,False,161.52331530568495,177.4521561352318,False,21.018212071463573,True,False
10,1970-07-23 11:28:50.182387380,2025-09-16,2025-09-26 20:03:38.238,AH,C,1346049808,JASSM,3,105,76,2,2,1,225,9,2,0,1,26,0,0,0,0,-187208.2620867056,-4786251.168916549,4202062.645964146,-2.30145,-0.153206,0.128279,87.625,-13.375,-11.375,0.0,0.0,0.0,0.0,0.0,0.0,2,0,41.45040087559571,-92.23991135619724,10000.000516375238,99.82512128933118,-0.0023226633975173,0.0071732087471195,,8959.781364859911,11075.263430171775,150,10,2025-09-16,2025-09-26 20:03:38.208,AH,C,3548699566,HAWK11,1,1,73,2,1,1,225,2,1,0,0,12,1,225,2,1,-146759.23278983062,-4791364.145479049,4198379.673307896,2.28113,2.82195,-0.35224,-102.625,39.0,42.875,0.046875,-7.03125,6.75,0.00195312,0.00195312,0.0,4,0,41.40351553768501,-91.7544182009958,11107.469022858948,-64.15968597967563,1.576596891274221,-3.3100396317104974,187.18,8959.781364859911,11075.263430171775,150,True,22.013954787639157,False,161.72949005590854,177.39723410598464,False,20.866890210059196,True,False
10,1970-07-23 11:28:50.192266464,2025-09-16,2025-09-26 20:03:39.226,AH,C,1347244430,JASSM,3,105,76,2,2,1,225,9,2,0,1,26,0,0,0,0,-187120.4417742056,-4786264.735322799,4202051.183073521,-2.30145,-0.153206,0.128279,87.625,-13.375,-11.375,0.0,0.0,0.0,0.0,0.0,0.0,2,0,41.45026323635468,-92.23885533285524,10000.002209940172,99.825820345705,-0.0015192645116359,0.0071726594973362,,8959.781364859911,11075.263430171775,150,10,2025-09-16,2025-09-26 20:03:39.114,AH,C,3549813032,HAWK11,1,1,73,2,1,1,225,2,1,0,0,12,1,225,2,1,-146854.97693045562,-4791327.884736861,4198419.362761021,2.27691,2.82492,-0.350898,-102.75,38.875,42.5,-0.09375,-6.96875,6.85938,0.00195312,0.0,0.00195312,4,0,41.40398170332384,-91.75557532627812,11111.613274515985,-64.32687694123969,1.6392152419212926,-3.497802054624787,187.253,8959.781364859911,11075.263430171775,150,True,21.91067011920121,False,161.9180300116772,177.3368126240322,False,20.73828199820187,True,False
10,1970-07-23 11:28:50.203287564,2025-09-16,2025-09-26 20:03:40.328,AH,C,1348495366,JASSM,3,105,76,2,2,1,225,9,2,0,1,26,0,0,0,0,-187028.47888358065,-4786278.940400924,4202039.177214146,-2.30145,-0.15311,0.128279,87.625,-13.375,-11.375,0.0,0.0,0.0,0.0,0.0,0.0,2,0,41.45011908649941,-92.2377495011407,10000.000389986692,99.82291609703547,-0.0047348999524383,0.0064695190610062,,8959.781364859911,11075.263430171775,150,10,2025-09-16,2025-09-26 20:03:40.004,AH,C,3550807198,HAWK11,1,1,73,2,1,1,225,2,1,0,0,12,1,225,2,1,-146940.84997733062,-4791295.597627486,4198454.765104771,2.27595,2.82741,-0.349172,-103.125,38.5,42.625,-0.046875,-7.0625,6.78125,-0.00195312,-0.00195312,0.00195312,4,0,41.404397081167296,-91.75661308098492,11115.490529643565,-64.49192094698296,1.6681091301130253,-3.5085346702884928,187.29,8959.781364859911,11075.263430171775,150,True,21.81084955616118,False,162.05986253259653,177.28160578535932,False,20.653525890012254,True,False
10,1970-07-23 11:28:50.213311096,2025-09-16,2025-09-26 20:03:41.331,AH,C,1349748228,JASSM,3,105,76,2,2,1,225,9,2,0,1,26,0,0,0,0,-186936.37732108065,-4786293.166963424,4202027.151823521,-2.30145,-0.15311,0.128279,87.625,-13.375,-11.375,0.0,0.0,0.0,0.0,0.0,0.0,2,0,41.44997469860924,-92.23664200680706,10000.000155405229,99.82364922158892,-0.0038923326828622,0.0064688720140991,,8959.781364859911,11075.263430171775,150,10,2025-09-16,2025-09-26 20:03:41.504,AH,C,3552715996,HAWK11,1,1,73,2,1,1,225,2,1,0,0,12,1,225,2,1,-147106.11950858062,-4791234.420869674,4198521.690886021,2.25936,2.83863,-0.341694,-103.625,37.875,42.0,-0.109375,-7.07812,6.84375,-0.00195312,0.0,-0.00195312,4,0,41.40518259734086,-91.75861000583586,11122.710585990955,-65.2214259378876,1.8095575669542547,-4.263403634346962,187.608,8959.781364859911,11075.263430171775,150,True,21.66540930378641,False,162.5485822373814,177.18234183408978,False,20.264808006413286,True,False
10,1970-07-23 11:28:50.223347531,2025-09-16,2025-09-26 20:03:42.334,AH,C,1350941346,JASSM,3,105,76,2,2,1,225,9,2,0,1,26,0,0,0,0,-186848.66638358065,-4786306.713838424,4202015.700651646,-2.30145,-0.15311,0.128375,87.625,-13.375,-11.375,0.0,0.0,0.0,0.0,0.0,0.0,2,0,41.44983719924648,-92.23558731371293,10000.00255974531,99.82843795641072,-0.0067563094419079,0.0064679192287183,,8959.781364859911,11075.263430171775,150,10,2025-09-16,2025-09-26 20:03:42.300,AH,C,3553590862,HAWK11,1,1,73,2,1,1,225,2,1,0,0,12,1,225,2,1,-147182.27185233062,-4791206.492158736,4198552.136198521,2.25716,2.84007,-0.339681,-103.875,37.75,41.5,-0.21875,-6.9375,6.76562,-0.0117188,0.0,-0.0078125,4,0,41.40554033606345,-91.75953006247332,11125.831599396615,-65.35914818992013,1.7867660292938408,-4.366559424296978,187.73,8959.781364859911,11075.263430171775,150,True,21.5736536792916,False,162.80950327698562,177.1334171711395,False,20.052050639670973,True,False
10,1970-07-23 11:28:50.233386543,2025-09-16,2025-09-26 20:03:43.338,AH,C,1352135880,JASSM,3,105,76,2,2,1,225,9,2,0,1,26,0,0,0,0,-186760.84997733065,-4786320.274385299,4202004.233854771,-2.30145,-0.15311,0.128375,87.625,-13.375,-11.375,0.0,0.0,0.0,0.0,0.0,0.0,2,0,41.4496995279232,-92.23453135807756,9999.998624076205,99.82913696021964,-0.0059529482761828,0.006467377384374,,8959.781364859911,11075.263430171775,150,10,2025-09-16,2025-09-26 20:03:43.410,AH,C,3554823626,HAWK11,1,1,73,2,1,1,225,2,1,0,0,12,1,225,2,1,-147289.92810233062,-4791167.424775924,4198594.663542271,2.25907,2.84295,-0.336038,-104.25,37.625,41.0,-0.265625,-7.01562,6.76562,0.0,0.0,0.00195312,4,0,41.40604012313238,-91.76083060690668,11130.1585481598,-65.61848327530112,1.7561947083215617,-4.21010366372766,187.766,8959.781364859911,11075.263430171775,150,True,21.463831482181746,False,163.09834558456345,177.06726555381215,False,19.828549916835584,True,False
10,1970-07-23 11:28:50.244269171,2025-09-16,2025-09-26 20:03:44.426,AH,C,1353446640,JASSM,3,105,76,2,2,1,225,9,2,0,1,26,0,0,0,0,-186664.49060233065,-4786335.155244674,4201991.651823521,-2.30145,-0.15311,0.128375,87.625,-13.375,-11.375,0.0,0.0,0.0,0.0,0.0,0.0,2,0,41.44954844774413,-92.23337268142672,10000.002392415849,99.82990395936764,-0.0050714331951749,0.0064667781844627,,8959.781364859911,11075.263430171775,150,10,2025-09-16,2025-09-26 20:03:44.410,AH,C,3556135926,HAWK11,1,1,73,2,1,1,225,2,1,0,0,12,1,225,2,1,-147404.26794608062,-4791126.427705611,4198639.145964146,2.25994,2.84649,-0.333545,-104.625,37.125,40.875,0.078125,-7.10938,6.85938,0.00195312,0.0,-0.00390625,4,0,41.40656334833648,-91.76221173170966,11134.495087669718,-65.85533466834545,1.797814825416083,-4.101251114284451,187.974,8959.781364859911,11075.263430171775,150,True,21.345592129071953,False,163.35453705141273,176.99721852967716,False,19.64406655373073,True,False
10,1970-07-23 11:28:50.254306724,2025-09-16,2025-09-26 20:03:45.430,AH,C,1354641378,JASSM,3,105,76,2,2,1,225,9,2,0,1,26,0,0,0,0,-186576.6605242056,-4786348.717744674,4201980.181120396,-2.30145,-0.15311,0.128375,87.625,-13.375,-11.375,0.0,0.0,0.0,0.0,0.0,0.0,2,0,41.4494107212822,-92.23231657083302,10000.002106886635,99.83060306174872,-0.0042679446885347,0.0064662229982956,,8959.781364859911,11075.263430171775,150,10,2025-09-16,2025-09-26 20:03:45.300,AH,C,3556971024,HAWK11,1,1,73,2,1,1,225,2,1,0,0,12,1,225,2,1,-147477.71911795562,-4791100.302705611,4198667.415495396,2.26272,2.84947,-0.332107,-104.875,36.875,40.625,0.0,-7.03125,6.71875,0.00195312,0.0,0.00195312,4,0,41.40689613583668,-91.76309889099733,11137.14164656308,-66.02662972775668,1.858403161085035,-3.891799356255196,188.402,8959.781364859911,11075.263430171775,150,True,21.255479643602172,False,163.56066221743433,176.95023944442292,False,19.485229086624134,True,False
10,1970-07-23 11:28:50.264346375,2025-09-16,2025-09-26 20:03:46.434,AH,C,1355834546,JASSM,3,105,76,2,2,1,225,9,2,0,1,26,0,0,0,0,-186488.9456804556,-4786362.260713424,4201968.726042271,-2.30145,-0.15311,0.128375,87.625,-13.375,-11.375,0.0,0.0,0.0,0.0,0.0,0.0,2,0,41.44927318006083,-92.2312618511398,10000.002917369522,99.83130124150232,-0.0034655133773163,0.0064656824120179,,8959.781364859911,11075.263430171775,150,10,2025-09-16,2025-09-26 20:03:46.504,AH,C,3558680990,HAWK11,1,1,73,2,1,1,225,2,1,0,0,12,1,225,2,1,-147628.70739920562,-4791047.214814986,4198724.765104771,2.26243,2.85148,-0.328368,-105.375,36.625,40.0,-0.140625,-7.09375,6.82812,0.0,0.0,0.0,5,0,41.4075713967538,-91.7649223615938,11142.453065801466,-66.25843973242458,1.7915233303688367,-3.878278252514863,188.451,8959.781364859911,11075.263430171775,150,True,21.121193006191554,False,163.95136972399254,176.8616174966284,False,19.182555395722183,True,False
10,1970-07-23 11:28:50.275365907,2025-09-16,2025-09-26 20:03:47.536,AH,C,1357087016,JASSM,3,105,76,2,2,1,225,9,2,0,1,26,0,0,0,0,-186396.8714617056,-4786376.475557174,4201956.698698521,-2.30145,-0.15311,0.128375,87.625,-13.375,-11.375,0.0,0.0,0.0,0.0,0.0,0.0,2,0,41.44912877994091,-92.23015471786496,9999.998819195622,99.83203411477724,-0.0026231999235272,0.0064651022586783,,8959.781364859911,11075.263430171775,150,10,2025-09-16,2025-09-26 20:03:47.708,AH,C,3560033054,HAWK11,1,1,73,2,1,1,225,2,1,0,0,12,1,225,2,1,-147749.08630545562,-4791005.369111861,4198769.878386021,2.25668,2.85589,-0.324629,-105.75,36.375,39.625,0.078125,-7.0,6.8125,0.0,-0.00195312,-0.00585938,4,0,41.40810277096754,-91.7663760153736,11146.554794945863,-66.57969901616703,1.81904273344491,-4.136958394172811,188.769,8959.781364859911,11075.263430171775,150,True,21.00209856719175,False,164.22735940031052,176.7893600020753,False,18.978846406259862,True,False
10,1970-07-23 11:28:50.285406505,2025-09-16,2025-09-26 20:03:48.540,AH,C,1358280578,JASSM,3,105,76,2,2,1,225,9,2,0,1,26,0,0,0,0,-186309.1292742056,-4786390.022432174,4201945.237761021,-2.30145,-0.15311,0.128375,87.625,-13.375,-11.375,0.0,0.0,0.0,0.0,0.0,0.0,2,0,41.448991162450376,-92.22909967866272,10000.00231609506,99.83273250212537,-0.0018205162207247,0.0064645480499305,,8959.781364859911,11075.263430171775,150,10,2025-09-16,2025-09-26 20:03:48.410,AH,C,3560947688,HAWK11,1,1,73,2,1,1,225,2,1,0,0,12,1,225,2,1,-147830.31677420562,-4790977.415986861,4198799.933073521,2.25093,2.85934,-0.322424,-106.0,36.0,39.375,0.015625,-7.10938,6.8125,-0.00976562,0.0,-0.00195312,4,0,41.40845702307712,-91.76735683463524,11149.185792003778,-66.801086825374,1.869247774212673,-4.410827425888999,189.001,8959.781364859911,11075.263430171775,150,True,20.907764728957837,False,164.46473906394206,176.73858388844795,False,18.793019930778865,True,False
10,1970-07-23 11:28:50.295266115,2025-09-16,2025-09-26 20:03:49.526,AH,C,1359531048,JASSM,3,105,76,2,2,1,225,9,2,0,1,26,0,0,0,0,-186217.20153983065,-4786404.211885299,4201933.229948521,-2.30145,-0.153015,0.128375,87.625,-13.375,-11.375,0.0,0.0,0.0,0.0,0.0,0.0,2,0,41.44884699048635,-92.22799431762942,10000.00109569273,99.82982801862642,-0.0050364741876648,0.0057609266579987,,8959.781364859911,11075.263430171775,150,10,2025-09-16,2025-09-26 20:03:49.504,AH,C,3562220220,HAWK11,1,1,73,2,1,1,225,2,1,0,0,12,1,225,2,1,-147943.07458670562,-4790938.998018111,4198841.112761021,2.23693,2.86318,-0.318685,-106.5,35.625,39.0,-0.0625,-7.04688,6.75,-0.0117188,0.00195312,0.0,4,0,41.40894282338596,-91.76871820700909,11152.61878968202,-67.10108287566648,1.874958990977162,-5.153411945516105,189.355,8959.781364859911,11075.263430171775,150,True,20.7932454929835,False,164.7986411891841,176.67100566330518,False,18.52717757369877,True,False
10,1970-07-23 11:28:50.305307757,2025-09-16,2025-09-26 20:03:50.530,AH,C,1360724094,JASSM,3,105,76,2,2,1,225,9,2,0,1,26,0,0,0,0,-186129.4964617056,-4786417.750947799,4201921.770964146,-2.30145,-0.153015,0.128375,87.625,-13.375,-11.375,0.0,0.0,0.0,0.0,0.0,0.0,2,0,41.44870940426755,-92.2269397347373,10000.001608054608,99.83052610005898,-0.0042341294662397,0.0057603145462223,,8959.781364859911,11075.263430171775,150,10,2025-09-16,2025-09-26 20:03:50.410,AH,C,3563095084,HAWK11,1,1,73,2,1,1,225,2,1,0,0,12,1,225,2,1,-148021.35583670562,-4790912.770479049,4198869.323698521,2.23156,2.86634,-0.316767,-106.75,35.375,38.5,-0.1875,-7.0,6.78125,-0.0175781,-0.00390625,-0.00585938,4,0,41.409274886730834,-91.76966317720422,11155.278807525332,-67.29986721353872,1.9257349194984037,-5.411001592508834,189.355,8959.781364859911,11075.263430171775,150,True,20.700724235701344,False,165.0899915521309,176.62228097678187,False,18.28418472440533,True,False
10,1970-07-23 11:28:50.314344905,2025-09-16,2025-09-26 20:03:51.434,AH,C,1361798784,JASSM,3,105,76,2,2,1,225,9,2,0,1,26,0,0,0,0,-186050.49060233065,-4786429.944307174,4201911.448698521,-2.30145,-0.153015,0.128375,87.625,-13.375,-11.375,0.0,0.0,0.0,0.0,0.0,0.0,2,0,41.448585474143165,-92.22598975805784,9999.998996443304,99.83115493574704,-0.0035113709971537,0.0057597802772118,,8959.781364859911,11075.263430171775,150,10,2025-09-16,2025-09-26 20:03:51.410,AH,C,3564447150,HAWK11,1,1,73,2,1,1,225,2,1,0,0,12,1,225,2,1,-148143.22497733062,-4790872.110322799,4198912.468229771,2.27231,2.87056,-0.308426,-107.125,35.375,37.75,-0.21875,-6.90625,6.60938,0.0390625,-0.00195312,-0.0117188,4,0,41.40978558474482,-91.77113427298887,11158.167837432073,-67.80680923517863,1.7670979778353706,-3.018422430405398,189.636,8959.781364859911,11075.263430171775,150,True,20.5882573541139,False,165.428264202855,176.5520770185577,False,18.013863954219786,True,False
10,1970-07-23 11:28:50.324384950,2025-09-16,2025-09-26 20:03:52.438,AH,C,1362990882,JASSM,3,105,76,2,2,1,225,9,2,0,1,26,0,0,0,0,-185962.85388358065,-4786443.469697799,4201899.999479771,-2.30145,-0.153015,0.128471,87.625,-13.375,-11.375,0.0,0.0,0.0,0.0,0.0,0.0,2,0,41.44844800099404,-92.22493600704306,10000.001461884623,99.83594307316076,-0.0063759806241429,0.0057588678941135,,8959.781364859911,11075.263430171775,150,10,2025-09-16,2025-09-26 20:03:52.410,AH,C,3565640148,HAWK11,1,1,73,2,1,1,225,2,1,0,0,12,1,225,2,1,-148249.86755545562,-4790836.888643111,4198949.544401646,2.28726,2.87449,-0.30718,-107.375,35.25,37.375,-0.09375,-7.17188,6.95312,0.0234375,0.00195312,0.0078125,4,0,41.410225753040734,-91.77242145335468,11160.114016372205,-68.00671032271697,1.8758010874251063,-2.09963118934337,189.868,8959.781364859911,11075.263430171775,150,True,20.479790117455302,False,165.6423215192955,176.4893615471221,False,17.8618363155454,True,False
10,1970-07-23 11:28:50.333286079,2025-09-16,2025-09-26 20:03:53.328,AH,C,1364064986,JASSM,3,105,76,2,2,1,225,9,2,0,1,26,0,0,0,0,-185883.8909929556,-4786455.655244674,4201889.681120396,-2.30145,-0.153015,0.128471,87.625,-13.375,-11.375,0.0,0.0,0.0,0.0,0.0,0.0,2,0,41.44832411724102,-92.22398655519524,9999.999272692898,99.83657155820572,-0.0056536148089566,0.0057583809313421,,8959.781364859911,11075.263430171775,150,10,2025-09-16,2025-09-26 20:03:53.504,AH,C,3566952448,HAWK11,1,1,73,2,1,1,225,2,1,0,0,12,1,225,2,1,-148368.81677420562,-4790797.777314986,4198990.778776646,2.33098,2.87219,-0.309672,-107.5,35.125,37.5,-0.03125,-7.0,6.79688,0.0390625,0.0,0.0078125,4,0,41.41071484629485,-91.77385713086277,11162.46224644345,-67.8174528669896,1.8830722829449908,0.3714283828537212,189.905,8959.781364859911,11075.263430171775,150,True,20.369132836516528,False,165.65829351589784,176.4207691049402,False,17.91567177130046,True,False
10,1970-07-23 11:28:50.343331556,2025-09-16,2025-09-26 20:03:54.333,AH,C,1365258088,JASSM,3,105,76,2,2,1,225,9,2,0,1,26,0,0,0,0,-185796.18200858065,-4786469.190400924,4201878.218229771,-2.30145,-0.153015,0.128471,87.625,-13.375,-11.375,0.0,0.0,0.0,0.0,0.0,0.0,2,0,41.44818649207661,-92.22293194436402,9999.996953626282,99.83726965091948,-0.0048512364563082,0.0057578295463757,,8959.781364859911,11075.263430171775,150,10,2025-09-16,2025-09-26 20:03:54.206,AH,C,3567787546,HAWK11,1,1,73,2,1,1,225,2,1,0,0,12,1,225,2,1,-148444.13903983062,-4790772.937471236,4199016.970182896,2.43318,2.87257,-0.311494,-107.375,35.375,37.75,0.125,-7.0625,6.76562,0.355469,0.00585938,0.00585938,4,0,41.41102552577767,-91.77476628368572,11163.948204435366,-67.75622377041995,1.970491685155136,6.235902946333824,190.259,8959.781364859911,11075.263430171775,150,True,20.27842946247786,False,165.4803234071174,176.37299368507075,False,18.141196375872227,True,False
10,1970-07-23 11:28:50.353366027,2025-09-16,2025-09-26 20:03:55.336,AH,C,1366391064,JASSM,3,105,76,2,2,1,225,9,2,0,1,26,0,0,0,0,-185712.8909929556,-4786482.043916549,4201867.333464146,-2.30145,-0.153015,0.128471,87.625,-13.375,-11.375,0.0,0.0,0.0,0.0,0.0,0.0,2,0,41.448055794364784,-92.2219304591519,10000.000476735971,99.83793257571332,-0.0040892751558226,0.0057573099684961,,8959.781364859911,11075.263430171775,150,10,2025-09-16,2025-09-26 20:03:55.410,AH,C,3569020312,HAWK11,1,1,73,2,1,1,225,2,1,0,0,12,1,225,2,1,-148553.75232108062,-4790735.423799361,4199056.817839146,2.87593,2.8718,-0.343899,-106.0,37.375,40.25,-0.453125,-7.90625,7.65625,0.255859,0.0527344,0.0371094,4,0,41.41149744710577,-91.77608985610796,11166.518867747494,-66.3726994299616,3.211125916358701,31.65172615597756,189.832,8959.781364859911,11075.263430171775,150,False,20.170577395135513,False,163.80956806254267,176.3039292664188,False,19.88066447152454,True,False
10,1970-07-23 11:28:50.362266743,2025-09-16,2025-09-26 20:03:56.226,AH,C,1367466048,JASSM,3,105,76,2,2,1,225,9,2,0,1,26,0,0,0,0,-185633.8636492056,-4786494.237275924,4201857.005339146,-2.30145,-0.153015,0.128471,87.625,-13.375,-11.375,0.0,0.0,0.0,0.0,0.0,0.0,2,0,41.44793178829653,-92.22098024475464,10000.000683429702,99.83856156062832,-0.0033663210163076,0.0057568259738974,,8959.781364859911,11075.263430171775,150,10,2025-09-16,2025-09-26 20:03:56.300,AH,C,3570372378,HAWK11,1,1,73,2,1,1,225,2,1,0,0,12,1,225,2,1,-148671.59021170562,-4790690.552705611,4199104.458464146,3.02146,2.76117,-0.432774,-102.0,41.875,45.25,-0.34375,-9.0625,8.75,0.0527344,0.0429688,0.0859375,4,0,41.41206420554008,-91.77751444550032,11168.542531732212,-58.62665682395608,2.541393419063809,37.97489982176397,190.186,8959.781364859911,11075.263430171775,150,False,20.059960454790428,False,160.05838091603965,176.21999801735208,False,23.71284364845092,True,False
10,1970-07-23 11:28:50.371308964,2025-09-16,2025-09-26 20:03:57.130,AH,C,1368598762,JASSM,3,105,76,2,2,1,225,9,2,0,1,26,0,0,0,0,-185550.5941179556,-4786507.084932174,4201846.122526646,-2.30145,-0.153015,0.128471,87.625,-13.375,-11.375,0.0,0.0,0.0,0.0,0.0,0.0,2,0,41.44780111668568,-92.21997902688022,10000.003321746251,99.8392243051103,-0.0026045586988721,0.0057563155547326,,8959.781364859911,11075.263430171775,150,10,2025-09-16,2025-09-26 20:03:57.004,AH,C,3571167710,HAWK11,1,1,73,2,1,1,225,2,1,0,0,12,1,225,2,1,-148738.68786795562,-4790661.603486861,4199135.808073521,3.06115,2.7254,-0.463454,-99.25,44.625,48.75,-0.171875,-9.01562,8.75,0.0273438,0.0351562,0.0390625,4,0,41.41243563859599,-91.77832688788912,11170.503020807768,-56.07561759377331,2.5026792235379776,39.473457143496354,190.663,8959.781364859911,11075.263430171775,150,False,19.975683679116504,False,157.5436884208516,176.15939349407256,False,26.288071776787344,True,False
10,1970-07-23 11:28:50.380365317,2025-09-16,2025-09-26 20:03:58.036,AH,C,1369673746,JASSM,3,105,76,2,2,1,225,9,2,0,1,26,0,0,0,0,-185471.5667742056,-4786519.276338424,4201835.792448521,-2.30145,-0.153015,0.128471,87.625,-13.375,-11.375,0.0,0.0,0.0,0.0,0.0,0.0,2,0,41.44767709294498,-92.21902882082009,10000.00134196767,99.83985328132816,-0.0018816049310849,0.00575582985641,,8959.781364859911,11075.263430171775,150,10,2025-09-16,2025-09-26 20:03:57.910,AH,C,3572281176,HAWK11,1,1,73,2,1,1,225,2,1,0,0,12,1,225,2,1,-148830.25036795562,-4790617.250947799,4199183.700651646,3.04831,2.70479,-0.491641,-95.25,48.75,53.25,-0.109375,-8.65625,8.34375,-0.0429688,0.0332031,0.0644531,4,0,41.413005841458805,-91.7794373736199,11172.35588697037,-54.19897966168149,2.9415001377011176,38.28367438056912,189.868,8959.781364859911,11075.263430171775,150,False,19.879169403182438,False,154.0492515142665,176.0689676304487,False,29.870592211251985,True,False
10,1970-07-23 11:28:50.389243658,2025-09-16,2025-09-26 20:03:58.924,AH,C,1370747892,JASSM,3,105,76,2,2,1,225,9,2,0,1,26,0,0,0,0,-185392.59997733065,-4786531.457979049,4201825.470182896,-2.30145,-0.152919,0.128471,87.625,-13.375,-11.375,0.0,0.0,0.0,0.0,0.0,0.0,2,0,41.44755315822674,-92.21807934657306,10000.001431524974,99.83684568726252,-0.0052161274225386,0.0050517745385208,,8959.781364859911,11075.263430171775,150,10,2025-09-16,2025-09-26 20:03:58.910,AH,C,3573474174,HAWK11,1,1,73,2,1,1,225,2,1,0,0,12,1,225,2,1,-148922.58239920562,-4790566.677705611,4199238.397917271,3.06681,2.62991,-0.534113,-90.5,52.75,57.375,-0.15625,-8.70312,8.4375,0.0214844,0.0332031,0.0527344,4,0,41.413658828801466,-91.7805593839903,11173.743393340346,-49.7982788964896,2.196518113276989,37.43489953703686,190.345,8959.781364859911,11075.263430171775,150,False,19.781711881073385,False,150.48342564649508,175.96366159457003,False,33.53885304121839,False,False
10,1970-07-23 11:28:50.399282373,2025-09-16,2025-09-26 20:03:59.928,AH,C,1371881284,JASSM,3,105,76,2,2,1,225,9,2,0,1,26,0,0,0,0,-185309.27966483065,-4786544.311494674,4201814.577604771,-2.30145,-0.152919,0.128471,87.625,-13.375,-11.375,0.0,0.0,0.0,0.0,0.0,0.0,2,0,41.44742237230813,-92.21707753068004,10000.003166168322,99.8375088226542,-0.0044538996135956,0.0050512060136229,,8959.781364859911,11075.263430171775,150,10,2025-09-16,2025-09-26 20:03:59.910,AH,C,3574667172,HAWK11,1,1,73,2,1,1,225,2,1,0,0,12,1,225,2,1,-149011.39880545562,-4790511.137666549,4199298.315886021,3.0648,2.59156,-0.569395,-85.75,56.5,61.625,-0.109375,-8.75,8.53125,-0.0429688,0.0449219,0.0371094,4,0,41.41437724243667,-91.78164125558024,11173.984904373396,-47.057387947033895,2.485873107675756,36.27951817044384,190.186,8959.781364859911,11075.263430171775,150,False,19.683341192542954,False,146.94532624471054,175.84504388449918,False,37.194508487089664,False,False
10,1970-07-23 11:28:50.408325225,2025-09-16,2025-09-26 20:04:00.832,AH,C,1373012472,JASSM,3,105,76,2,2,1,225,9,2,0,1,26,0,0,0,0,-185226.1214617056,-4786557.137666549,4201803.704557896,-2.30145,-0.152919,0.128471,87.625,-13.375,-11.375,0.0,0.0,0.0,0.0,0.0,0.0,2,0,41.44729183484285,-92.21607766902926,9999.999248755952,99.83817066275088,-0.0036931560490281,0.0050506410790914,,8959.781364859911,11075.263430171775,150,10,2025-09-16,2025-09-26 20:04:00.800,AH,C,3575701104,HAWK11,1,1,73,2,1,1,225,2,1,0,0,12,1,225,2,1,-149083.06091483062,-4790460.648408736,4199352.729948521,3.05329,2.54161,-0.603621,-81.375,59.25,65.125,-0.1875,-8.79688,8.57812,-0.03125,0.0332031,0.0546875,4,0,41.41503162476957,-91.78251629905274,11173.39684334402,-43.96881888115185,2.458970971033076,34.16920965003535,190.149,8959.781364859911,11075.263430171775,150,False,19.594781130009334,False,143.96145378607315,175.7336556115676,False,40.290275156166956,False,False
10,1970-07-23 11:28:50.417382832,2025-09-16,2025-09-26 20:04:01.738,AH,C,1374086214,JASSM,3,105,76,2,2,1,225,9,2,0,1,26,0,0,0,0,-185147.18591483065,-4786569.311494674,4201793.384245396,-2.30145,-0.152919,0.128471,87.625,-13.375,-11.375,0.0,0.0,0.0,0.0,0.0,0.0,2,0,41.44716792824529,-92.21512858313554,9999.997710552005,99.83879889117846,-0.0029710440888771,0.0050501149867037,,8959.781364859911,11075.263430171775,150,10,2025-09-16,2025-09-26 20:04:01.800,AH,C,3576854338,HAWK11,1,1,73,2,1,1,225,2,1,0,0,12,1,225,2,1,-149159.78357108062,-4790401.221650924,4199417.995573521,3.06576,2.48764,-0.64245,-76.25,62.0,69.0,-0.125,-8.96875,8.76562,-0.0195312,0.0371094,0.0410156,4,0,41.41581147736096,-91.7834551535249,11174.774119819624,-40.61627357249422,2.642963736110108,33.22739764726764,190.382,8959.781364859911,11075.263430171775,150,False,19.505022001725695,False,140.6272829493552,175.60068004591284,False,43.7588538419217,False,False
10,1970-07-23 11:28:50.428386390,2025-09-16,2025-09-26 20:04:02.838,AH,C,1375340932,JASSM,3,105,76,2,2,1,225,9,2,0,1,26,0,0,0,0,-185054.9456804556,-4786583.538057174,4201781.323698521,-2.30145,-0.152919,0.128567,87.625,-13.375,-11.375,0.0,0.0,0.0,0.0,0.0,0.0,2,0,41.447023117285376,-92.21401953179608,10000.000556714218,99.84362365924966,-0.0057934904044577,0.0050492078019927,,8959.781364859911,11075.263430171775,150,10,2025-09-16,2025-09-26 20:04:02.706,AH,C,3577928036,HAWK11,1,1,73,2,1,1,225,2,1,0,0,12,1,225,2,1,-149225.52575858062,-4790344.552705611,4199481.122526646,3.06681,2.449,-0.679362,-71.375,64.25,72.375,-0.3125,-9.04688,8.89062,-0.0410156,0.0410156,0.0449219,4,0,41.4165625144828,-91.78426179717428,11177.45745556709,-37.94535019806359,3.2828024662582838,32.06671641579063,190.149,8959.781364859911,11075.263430171775,150,False,19.41417821255504,False,137.6078620009268,175.4680265479506,False,46.91239451325579,False,False
10,1970-07-23 11:28:50.439265356,2025-09-16,2025-09-26 20:04:03.926,AH,C,1376653452,JASSM,3,105,76,2,2,1,225,9,2,0,1,26,0,0,0,0,-184958.45544608065,-4786598.418916549,4201768.706511021,-2.30145,-0.152919,0.128567,87.625,-13.375,-11.375,0.0,0.0,0.0,0.0,0.0,0.0,2,0,41.44687162340266,-92.21285938637256,10000.003402983371,99.84439159004212,-0.0049107844312301,0.005048618229912,,8959.781364859911,11075.263430171775,150,10,2025-09-16,2025-09-26 20:04:04.004,AH,C,3579518700,HAWK11,1,1,73,2,1,1,225,2,1,0,0,12,1,225,2,1,-149315.93591483062,-4790256.494111861,4199581.138151646,3.07678,2.37307,-0.733339,-64.0,66.5,77.0,0.046875,-8.85938,8.67188,-0.0234375,0.0371094,0.0410156,4,0,41.41774469747172,-91.78537491361028,11184.909595946132,-33.45237755199435,3.9118461776966953,30.09448501937047,189.991,8959.781364859911,11075.263430171775,150,False,19.305033059948446,False,133.3478820610926,175.26128688781435,False,51.3828027140771,False,False
10,1970-07-23 11:28:50.450287891,2025-09-16,2025-09-26 20:04:05.028,AH,C,1377963614,JASSM,3,105,76,2,2,1,225,9,2,0,1,26,0,0,0,0,-184862.13903983065,-4786613.270479049,4201756.110807896,-2.30145,-0.152919,0.128567,87.625,-13.375,-11.375,0.0,0.0,0.0,0.0,0.0,0.0,2,0,41.44672039717853,-92.211701337495,10000.002385333151,99.845158130773,-0.0040296705837766,0.0050480358460991,,8959.781364859911,11075.263430171775,150,10,2025-09-16,2025-09-26 20:04:04.910,AH,C,3580632166,HAWK11,1,1,73,2,1,1,225,2,1,0,0,12,1,225,2,1,-149373.29919608062,-4790193.350557174,4199654.581511021,3.07045,2.32676,-0.763155,-59.0,67.5,79.875,-0.25,-8.60938,8.39062,-0.123047,0.0117188,0.0371094,4,0,41.41860542213787,-91.78608389214756,11193.434808420794,-30.885285399581942,4.286469358845273,28.11000579954347,189.477,8959.781364859911,11075.263430171775,150,False,19.216030451481664,False,130.58714050691296,175.10421764946557,False,54.30314592157569,False,False
10,1970-07-23 11:28:50.461322942,2025-09-16,2025-09-26 20:04:06.132,AH,C,1379277272,JASSM,3,105,76,2,2,1,225,9,2,0,1,26,0,0,0,0,-184765.56482108065,-4786628.161104049,4201743.479948521,-2.30145,-0.152919,0.128567,87.625,-13.375,-11.375,0.0,0.0,0.0,0.0,0.0,0.0,2,0,41.44656874884806,-92.21054019455812,10000.001515169844,99.84592671722793,-0.0031461974905512,0.0050474462928966,,8959.781364859911,11075.263430171775,150,10,2025-09-16,2025-09-26 20:04:06.116,AH,C,3582063764,HAWK11,1,1,73,2,1,1,225,2,1,0,0,12,1,225,2,1,-149441.13513358062,-4790110.753877486,4199751.044401646,2.80239,2.26885,-0.777537,-54.75,68.625,81.625,0.109375,-7.57812,7.28125,-0.208984,0.00976562,0.0390625,4,0,41.41973529960128,-91.78692528488376,11204.897522950738,-28.41568570393238,3.762376115184906,10.613595960280504,189.05,8959.781364859911,11075.263430171775,150,False,19.119733275829127,False,128.32940974013073,174.89920441910982,False,56.76628090455782,False,False
10,1970-07-23 11:28:50.472341541,2025-09-16,2025-09-26 20:04:07.234,AH,C,1380588648,JASSM,3,105,76,2,2,1,225,9,2,0,1,26,0,0,0,0,-184669.1605242056,-4786643.024385299,4201730.870573521,-2.30145,-0.152919,0.128567,87.625,-13.375,-11.375,0.0,0.0,0.0,0.0,0.0,0.0,2,0,41.44641735746895,-92.20938110056754,10000.001201071516,99.84669394513274,-0.0022642795414814,0.0050468594572246,,8959.781364859911,11075.263430171775,150,10,2025-09-16,2025-09-26 20:04:07.302,AH,C,3583495364,HAWK11,1,1,73,2,1,1,225,2,1,0,0,12,1,225,2,1,-149505.92028983062,-4790027.990205611,4199849.667448521,2.63787,2.28525,-0.78396,-53.25,68.125,82.875,0.125,-7.54688,7.34375,-0.0117188,0.0,-0.015625,4,0,41.42088130696629,-91.78773031183675,11220.414855338084,-28.806924986703585,4.418544093266308,1.8205616913441816,188.927,8959.781364859911,11075.263430171775,150,True,19.025330240715412,False,127.52736529281442,174.6886623039267,False,57.78128960023395,False,False
10,1970-07-23 11:28:50.482360836,2025-09-16,2025-09-26 20:04:08.236,AH,C,1381843120,JASSM,3,105,76,2,2,1,225,9,2,0,1,26,0,0,0,0,-184576.9378679556,-4786657.241182174,4201718.806120396,-2.30145,-0.152823,0.128567,87.625,-13.375,-11.375,0.0,0.0,0.0,0.0,0.0,0.0,2,0,41.44627251882872,-92.20827228939304,9999.996796731422,99.84379189861043,-0.0054775324610754,0.0043422174029146,,8959.781364859911,11075.263430171775,150,10,2025-09-16,2025-09-26 20:04:08.208,AH,C,3584449762,HAWK11,1,1,73,2,1,1,225,2,1,0,0,12,1,225,2,1,-149548.44568045562,-4789973.333955611,4199915.759245396,2.63567,2.29244,-0.779454,-52.75,67.875,83.0,0.03125,-7.10938,6.90625,0.0,-0.00390625,0.0,4,0,41.421644654769615,-91.7882588744021,11232.73688932776,-29.19176597175772,4.347434185477546,1.9550497366063289,187.889,8959.781364859911,11075.263430171775,150,True,18.947644841555473,False,127.32023945885541,174.5425899096574,False,58.13497389183573,False,False
10,1970-07-23 11:28:50.526300980,2025-09-16,2025-09-26 20:04:12.630,AH,C,1387031196,JASSM,3,105,76,2,2,1,225,9,2,0,1,26,0,0,0,0,-184195.5355242056,-4786716.030244674,4201668.907682896,-2.30145,-0.152823,0.128567,87.625,-13.375,-11.375,0.0,0.0,0.0,0.0,0.0,0.0,2,0,41.44567341572059,-92.20368666938822,10000.001524012518,99.8468271826844,-0.0019884236210047,0.0043396750635692,,8959.781364859911,11075.263430171775,150,10,2025-09-16,2025-09-26 20:04:12.802,AH,C,3589977324,HAWK11,1,1,73,2,1,1,225,2,1,0,0,12,1,225,2,1,-149800.72107108062,-4789657.836885299,4200291.120573521,1.96215,2.37729,-0.723368,-61.0,65.625,77.875,0.15625,-7.67188,7.48438,-0.0917969,0.0273438,-0.0449219,4,0,41.426008189223566,-91.79139146516098,11291.1377062365,-33.92557776307135,3.547427109882749,-33.639498626530774,187.498,8959.781364859911,11075.263430171775,150,False,18.58048680494197,False,132.07299164730574,173.71306182095,False,54.210140313599034,False,False
10,1970-07-23 11:28:50.536365955,2025-09-16,2025-09-26 20:04:13.636,AH,C,1388284850,JASSM,3,105,76,2,2,1,225,9,2,0,1,26,0,0,0,0,-184103.37439139312,-4786730.233369674,4201656.847136021,-2.30145,-0.152823,0.128663,87.625,-13.375,-11.375,0.0,0.0,0.0,0.0,0.0,0.0,2,0,41.44552861582711,-92.20257862516274,10000.0011630364,99.85165130789618,-0.0048115459591317,0.0043388412844825,,8959.781364859911,11075.263430171775,150,10,2025-09-16,2025-09-26 20:04:13.707,AH,C,3591051022,HAWK11,1,1,73,2,1,1,225,2,1,0,0,12,1,225,2,1,-149857.70935233062,-4789599.076143111,4200359.813932896,1.88833,2.40404,-0.676294,-65.125,65.0,74.875,0.046875,-6.5,6.28125,0.0,0.0,-0.0605469,4,0,41.42681080273429,-91.79209448659064,11300.159642540248,-36.419166886324845,1.983981643786461,-37.00216137612146,187.094,8959.781364859911,11075.263430171775,150,False,18.49570166745162,False,134.47767871752723,173.5537851301801,False,51.961206821134695,False,False
10,1970-07-23 11:28:50.547361862,2025-09-16,2025-09-26 20:04:14.736,AH,C,1389538010,JASSM,3,105,76,2,2,1,225,9,2,0,1,26,0,0,0,0,-184011.24743826807,-4786744.428682174,4201644.790495396,-2.30145,-0.152823,0.128663,87.625,-13.375,-11.375,0.0,0.0,0.0,0.0,0.0,0.0,2,0,41.44538387029228,-92.20147099797003,9999.997854219517,99.85238445387148,-0.0039687612853839,0.004338291525315,,8959.781364859911,11075.263430171775,150,10,2025-09-16,2025-09-26 20:04:14.613,AH,C,3592084954,HAWK11,1,1,73,2,1,1,225,2,1,0,0,12,1,225,2,1,-149916.39294608062,-4789541.842744674,4200423.503386021,1.89082,2.44143,-0.636506,-69.0,65.0,71.5,0.0,-7.73438,7.51562,0.0292969,0.0625,-0.0488281,4,0,41.42757024166387,-91.79281721403514,11302.210576814978,-39.12476987965186,1.110987777544956,-35.62469603756375,187.571,8959.781364859911,11075.263430171775,150,False,18.410345536576468,False,136.75019855637117,173.40148302876793,False,49.832301967207165,False,False
10,1970-07-23 11:28:50.557399324,2025-09-16,2025-09-26 20:04:15.739,AH,C,1390793922,JASSM,3,105,76,2,2,1,225,9,2,0,1,26,0,0,0,0,-183918.91931326807,-4786758.655244674,4201632.706511021,-2.30145,-0.152823,0.128663,87.625,-13.375,-11.375,0.0,0.0,0.0,0.0,0.0,0.0,2,0,41.445238789622735,-92.20036095694437,9999.997502413014,99.85311919546714,-0.0031241347376524,0.0043377323026458,,8959.781364859911,11075.263430171775,150,10,2025-09-16,2025-09-26 20:04:15.802,AH,C,3593596086,HAWK11,1,1,73,2,1,1,225,2,1,0,0,12,1,225,2,1,-150008.25427420562,-4789461.832979049,4200511.429167271,1.88143,2.52426,-0.602183,-75.5,61.5,67.75,-0.234375,-8.92188,8.60938,0.046875,0.0410156,-0.0488281,4,0,41.42862257989664,-91.79394499434872,11303.43541919469,-43.39103088014781,1.8957330686391636,-33.518478809886986,188.451,8959.781364859911,11075.263430171775,150,False,18.305857151589713,False,140.74376139437828,173.19641330237204,False,46.046452081810045,False,False
10,1970-07-23 11:28:50.569399385,2025-09-16,2025-09-26 20:04:16.939,AH,C,1392160868,JASSM,3,105,76,2,2,1,225,9,2,0,1,26,0,0,0,0,-183818.42810233065,-4786774.139619674,4201619.554167271,-2.30145,-0.152727,0.128663,87.625,-13.375,-11.375,0.0,0.0,0.0,0.0,0.0,0.0,2,0,41.44508086992852,-92.19915277853327,10000.002335983443,99.85028299853472,-0.0062617429135455,0.0036325738557927,,8959.781364859911,11075.263430171775,150,10,2025-09-16,2025-09-26 20:04:17.006,AH,C,3595067452,HAWK11,1,1,73,2,1,1,225,2,1,0,0,12,1,225,2,1,-150105.77575858062,-4789388.389619674,4200592.845182896,1.90472,2.57335,-0.559136,-81.375,58.0,64.0,0.015625,-7.46875,7.34375,0.0292969,0.00390625,-0.0410156,4,0,41.42959084626612,-91.79513799784932,11307.12036632434,-46.77568211436672,1.4844646165037638,-30.740079606848425,187.901,8959.781364859911,11075.263430171775,150,False,18.194491854586182,False,144.50576996073846,173.00335601077828,False,42.48003891213394,False,False
10,1970-07-23 11:28:50.580280719,2025-09-16,2025-09-26 20:04:18.028,AH,C,1393473218,JASSM,3,105,76,2,2,1,225,9,2,0,1,26,0,0,0,0,-183721.95056326807,-4786789.002900924,4201606.925261021,-2.30145,-0.152727,0.128663,87.625,-13.375,-11.375,0.0,0.0,0.0,0.0,0.0,0.0,2,0,41.44492924875815,-92.1979928621284,10000.001497869487,99.85105074826926,-0.0053791585923824,0.0036319365499586,,8959.781364859911,11075.263430171775,150,10,2025-09-16,2025-09-26 20:04:18.006,AH,C,3596220684,HAWK11,1,1,73,2,1,1,225,2,1,0,0,12,1,225,2,1,-150186.02380545562,-4789333.111299361,4200652.468229771,1.92553,2.60623,-0.530853,-85.0,56.5,61.0,-0.03125,-7.60938,7.35938,0.0410156,0.03125,-0.03125,4,0,41.43030716762508,-91.7961177850347,11306.833931649926,-49.05478731755698,1.303268907640814,-28.626601666247357,188.06,8959.781364859911,11075.263430171775,150,False,18.095826714834217,False,146.86056149291835,172.8549557134405,False,40.26989494496506,False,False
10,1970-07-23 11:28:50.591301163,2025-09-16,2025-09-26 20:04:19.130,AH,C,1394785624,JASSM,3,105,76,2,2,1,225,9,2,0,1,26,0,0,0,0,-183625.46814139312,-4786803.866182174,4201594.294401646,-2.30145,-0.152727,0.128663,87.625,-13.375,-11.375,0.0,0.0,0.0,0.0,0.0,0.0,2,0,41.444777603828186,-92.19683289276516,10000.000932491275,99.85181853074644,-0.0044965290838664,0.0036312948011582,,8959.781364859911,11075.263430171775,150,10,2025-09-16,2025-09-26 20:04:19.273,AH,C,3597413682,HAWK11,1,1,73,2,1,1,225,2,1,0,0,12,1,225,2,1,-150273.48083670562,-4789277.111299361,4200712.339323521,1.96417,2.63768,-0.5042,-88.25,54.5,58.375,-0.078125,-7.53125,7.32812,0.0605469,0.0136719,-0.0351562,4,0,41.43102810327535,-91.79718402316163,11305.874504060668,-51.24049857569257,1.1971479600456023,-25.56905782550952,188.573,8959.781364859911,11075.263430171775,150,False,17.993385805787124,False,149.08999598616305,172.70464613767072,False,38.19037519885803,False,False
10,1970-07-23 11:28:50.601339360,2025-09-16,2025-09-26 20:04:20.133,AH,C,1396040664,JASSM,3,105,76,2,2,1,225,9,2,0,1,26,0,0,0,0,-183533.20446951807,-4786818.077119674,4201582.216276646,-2.30145,-0.152727,0.128663,87.625,-13.375,-11.375,0.0,0.0,0.0,0.0,0.0,0.0,2,0,41.444632596216856,-92.19572364990675,10000.00001488796,99.85255273524147,-0.0036524968617006,0.0036306981692932,,8959.781364859911,11075.263430171775,150,10,2025-09-16,2025-09-26 20:04:20.207,AH,C,3598845280,HAWK11,1,1,73,2,1,1,225,2,1,0,0,12,1,225,2,1,-150381.96521170562,-4789212.664033736,4200779.802214146,2.00194,2.67306,-0.473137,-91.625,52.25,55.375,0.09375,-7.4375,7.20312,0.0449219,0.00976562,-0.0175781,4,0,41.431846599590486,-91.79850476769244,11302.25936344684,-53.76342439205251,1.0886344814491002,-22.503340479751905,188.842,8959.781364859911,11075.263430171775,150,False,17.881677640825178,False,151.51551215283214,172.53668821404298,False,35.93201916297939,False,False
10,1970-07-23 11:28:50.612388784,2025-09-16,2025-09-26 20:04:21.238,AH,C,1397350620,JASSM,3,105,76,2,2,1,225,9,2,0,1,26,0,0,0,0,-183436.90173514312,-4786832.911104049,4201569.606901646,-2.30145,-0.152727,0.128663,87.625,-13.375,-11.375,0.0,0.0,0.0,0.0,0.0,0.0,2,0,41.44448120673516,-92.19456585213705,10000.000761342417,99.8533190758326,-0.0027715109431135,0.0036300533554318,,8959.781364859911,11075.263430171775,150,10,2025-09-16,2025-09-26 20:04:21.207,AH,C,3599998512,HAWK11,1,1,73,2,1,1,225,2,1,0,0,12,1,225,2,1,-150471.57849295562,-4789163.046846236,4200831.319792271,2.03137,2.69798,-0.458277,-94.125,50.5,53.375,0.078125,-7.60938,7.4375,0.046875,0.0273438,-0.0214844,4,0,41.4324727581725,-91.7995944320749,11299.03921407129,-55.27800333789629,1.339928670697325,-20.207665282479663,189.16,8959.781364859911,11075.263430171775,150,False,17.778779598501178,False,153.2628487224173,172.40117041814582,False,34.321162981776986,False,False
10,1970-07-23 11:28:50.623378931,2025-09-16,2025-09-26 20:04:22.337,AH,C,1398603320,JASSM,3,105,76,2,2,1,225,9,2,0,1,26,0,0,0,0,-183344.80993826807,-4786847.094697799,4201557.548307896,-2.30145,-0.152727,0.128663,87.625,-13.375,-11.375,0.0,0.0,0.0,0.0,0.0,0.0,2,0,41.44433643259404,-92.19345868612244,10000.000535401963,99.85405190136208,-0.0019290487520206,0.0036294430747282,,8959.781364859911,11075.263430171775,150,10,2025-09-16,2025-09-26 20:04:22.412,AH,C,3601350578,HAWK11,1,1,73,2,1,1,225,2,1,0,0,12,1,225,2,1,-150580.33044608062,-4789106.511689986,4200889.425261021,2.03933,2.7186,-0.433829,-96.75,48.75,50.75,-0.171875,-7.26562,6.98438,0.0214844,0.0136719,-0.0253906,4,0,41.433180949545,-91.80091546174832,11294.600030056625,-57.01700207798552,1.0627614172738593,-19.27866222620784,189.441,8959.781364859911,11075.263430171775,150,False,17.667686221699554,False,155.2200828023645,172.25060574315793,False,32.512074539299455,False,False
10,1970-07-23 11:28:50.633424264,2025-09-16,2025-09-26 20:04:23.342,AH,C,1399856810,JASSM,3,105,76,2,2,1,225,9,2,0,1,26,0,0,0,0,-183252.65857108065,-4786861.286104049,4201545.481901646,-2.30145,-0.152727,0.128759,87.625,-13.375,-11.375,0.0,0.0,0.0,0.0,0.0,0.0,2,0,41.44419156216132,-92.192350809479,10000.001471628677,99.85887594171398,-0.004752215143464,0.0036286317687672,,8959.781364859911,11075.263430171775,150,10,2025-09-16,2025-09-26 20:04:23.301,AH,C,3602424276,HAWK11,1,1,73,2,1,1,225,2,1,0,0,12,1,225,2,1,-150669.25232108062,-4789062.784150924,4200934.022917271,2.12581,2.73854,-0.418202,-98.375,47.25,49.25,0.109375,-7.15625,7.0,0.232422,-0.00390625,-0.0117188,4,0,41.43372547110169,-91.8019946939878,11290.79694348128,-58.38824468559099,1.1448156394272306,-13.878060901652402,189.917,8959.781364859911,11075.263430171775,150,False,17.56790193862249,False,156.4958507393507,172.12860363994412,False,31.3602839077089,False,False
10,1970-07-23 11:28:50.644281838,2025-09-16,2025-09-26 20:04:24.428,AH,C,1401168464,JASSM,3,105,76,2,2,1,225,9,2,0,1,26,0,0,0,0,-183156.23181326807,-4786876.135713424,4201532.852995396,-2.30145,-0.152727,0.128759,87.625,-13.375,-11.375,0.0,0.0,0.0,0.0,0.0,0.0,2,0,41.44403994220429,-92.19119153793652,10000.000980771554,99.85964325110496,-0.0038700954549068,0.003628047290951,,8959.781364859911,11075.263430171775,150,10,2025-09-16,2025-09-26 20:04:24.505,AH,C,3603776342,HAWK11,1,1,73,2,1,1,225,2,1,0,0,12,1,225,2,1,-150782.23083670562,-4789009.125947799,4200987.954557896,2.32408,2.75263,-0.409956,-99.625,46.625,48.125,-0.15625,-7.375,7.0625,0.119141,0.00585938,0.0078125,4,0,41.43438755896788,-91.80336521014569,11284.71290351716,-59.24781364289146,1.3268731076062743,-2.211854597986045,189.881,8959.781364859911,11075.263430171775,150,True,17.452547679280958,False,157.3303651510985,171.98268695061196,False,30.66981556531228,False,False
10,1970-07-23 11:28:50.655319019,2025-09-16,2025-09-26 20:04:25.531,AH,C,1402422710,JASSM,3,105,76,2,2,1,225,9,2,0,1,26,0,0,0,0,-183064.02575858065,-4786890.332979049,4201520.776823521,-2.30145,-0.152631,0.128759,87.625,-13.375,-11.375,0.0,0.0,0.0,0.0,0.0,0.0,2,0,41.44389496162289,-92.19008301508616,9999.999257565018,99.85674116995489,-0.0070834963150291,0.0029224815672186,,8959.781364859911,11075.263430171775,150,10,2025-09-16,2025-09-26 20:04:25.412,AH,C,3605009108,HAWK11,1,1,73,2,1,1,225,2,1,0,0,12,1,225,2,1,-150884.89099295562,-4788961.208955611,4201037.116667271,2.43155,2.74755,-0.428364,-99.75,46.125,48.875,-0.234375,-7.625,7.29688,0.0878906,0.00585938,0.00976562,4,0,41.434985213646726,-91.80461026497431,11281.598172872456,-58.3185499446244,1.8925231869319012,3.853591647628893,190.345,8959.781364859911,11075.263430171775,150,True,17.345359723135925,False,157.26402156955223,171.84790212375339,False,30.87859074493736,False,False
10,1970-07-23 11:28:50.666354706,2025-09-16,2025-09-26 20:04:26.635,AH,C,1403795166,JASSM,3,105,76,2,2,1,225,9,2,0,1,26,0,0,0,0,-182963.1292742056,-4786905.868135299,4201507.561979771,-2.30145,-0.152631,0.128759,87.625,-13.375,-11.375,0.0,0.0,0.0,0.0,0.0,0.0,2,0,41.44373630225751,-92.18887001959604,10000.001011849252,99.85754403391736,-0.0061604903558907,0.0029218239026802,,8959.781364859911,11075.263430171775,150,10,2025-09-16,2025-09-26 20:04:26.707,AH,C,3606560006,HAWK11,1,1,73,2,1,1,225,2,1,0,0,12,1,225,2,1,-151014.51403983062,-4788900.079072799,4201100.624479771,2.44277,2.73509,-0.432103,-99.25,46.75,49.875,-0.0625,-6.82812,6.57812,-0.0351562,-0.0136719,0.0175781,4,0,41.435753228256125,-91.80618259356284,11279.245770497331,-57.7056852034278,1.5929234152450946,4.217081285544891,190.113,8959.781364859911,11075.263430171775,150,True,17.218551910888383,False,156.66995599010758,171.67674486566338,False,31.645047702424762,False,False
10,1970-07-23 11:28:50.677356742,2025-09-16,2025-09-26 20:04:27.735,AH,C,1405105940,JASSM,3,105,76,2,2,1,225,9,2,0,1,26,0,0,0,0,-182866.76696951807,-4786920.704072799,4201494.938932896,-2.30145,-0.152631,0.128759,87.625,-13.375,-11.375,0.0,0.0,0.0,0.0,0.0,0.0,2,0,41.44358475346653,-92.18771154083429,10000.000616810192,99.85831081169522,-0.0052789623584542,0.0029211883308127,,8959.781364859911,11075.263430171775,150,10,2025-09-16,2025-09-26 20:04:27.614,AH,C,3607593938,HAWK11,1,1,73,2,1,1,225,2,1,0,0,12,1,225,2,1,-151101.23474295562,-4788858.280244674,4201143.833464146,2.41458,2.72435,-0.436322,-99.0,47.5,50.0,-0.140625,-6.9375,6.71875,-0.0234375,0.0078125,0.0117188,4,0,41.43627726502075,-91.8072348772869,11277.027688503713,-57.13730369123338,1.3786742303976611,2.358005755304025,190.858,8959.781364859911,11075.263430171775,150,True,17.118112316823172,False,156.37797560065184,171.55093397419657,False,32.05929087783744,False,False
10,1970-07-23 11:28:50.688280276,2025-09-16,2025-09-26 20:04:28.828,AH,C,1406359734,JASSM,3,105,76,2,2,1,225,9,2,0,1,26,0,0,0,0,-182774.59314139312,-4786934.893525924,4201482.864714146,-2.30145,-0.152631,0.128759,87.625,-13.375,-11.375,0.0,0.0,0.0,0.0,0.0,0.0,2,0,41.44343979169694,-92.18660342220883,10000.001223199595,99.85904425477906,-0.004435753153847,0.0029205908221041,,8959.781364859911,11075.263430171775,150,10,2025-09-16,2025-09-26 20:04:28.801,AH,C,3609065304,HAWK11,1,1,73,2,1,1,225,2,1,0,0,12,1,225,2,1,-151223.50427420562,-4788798.709932174,4201205.376432896,2.39637,2.72905,-0.431816,-99.0,48.125,50.375,-0.15625,-7.07812,6.76562,0.0,-0.00390625,0.0078125,4,0,41.43702408695153,-91.80871878615814,11273.693364901515,-57.4934169197152,1.3643355130048234,1.4189719257697233,191.249,8959.781364859911,11075.263430171775,150,True,17.000312812764808,False,156.11015739523847,171.38167679096298,False,32.49467619800748,False,False
10,1970-07-23 11:28:50.699296452,2025-09-16,2025-09-26 20:04:29.929,AH,C,1407670472,JASSM,3,105,76,2,2,1,225,9,2,0,1,26,0,0,0,0,-182678.23376639312,-4786949.725557174,4201470.241667271,-2.30145,-0.152631,0.128759,87.625,-13.375,-11.375,0.0,0.0,0.0,0.0,0.0,0.0,2,0,41.44328824265998,-92.1854449907922,10000.001212383051,99.85981099670576,-0.0035542561546628,0.0029199726917731,,8959.781364859911,11075.263430171775,150,10,2025-09-16,2025-09-26 20:04:29.801,AH,C,3610298068,HAWK11,1,1,73,2,1,1,225,2,1,0,0,12,1,225,2,1,-151325.20153983062,-4788749.036104049,4201256.872526646,2.39138,2.72445,-0.438527,-99.0,48.125,50.75,-0.078125,-7.23438,6.98438,-0.00195312,0.0,0.0195312,4,0,41.4376480691157,-91.80995309632698,11271.28660570842,-57.054866113245765,1.4754471662420154,1.0330398941068255,191.677,8959.781364859911,11075.263430171775,150,True,16.891766424564345,False,155.9990675059346,171.23286680585548,False,32.75672094041882,False,False
10,1970-07-23 11:28:50.709337476,2025-09-16,2025-09-26 20:04:30.933,AH,C,1408925296,JASSM,3,105,76,2,2,1,225,9,2,0,1,26,0,0,0,0,-182585.9847429556,-4786963.924775924,4201458.153776646,-2.30145,-0.152631,0.128759,87.625,-13.375,-11.375,0.0,0.0,0.0,0.0,0.0,0.0,2,0,41.44314312576181,-92.18433597909018,9999.998368362762,99.86054502657984,-0.0027103570571895,0.002919359719723,,8959.781364859911,11075.263430171775,150,10,2025-09-16,2025-09-26 20:04:30.801,AH,C,3611491068,HAWK11,1,1,73,2,1,1,225,2,1,0,0,12,1,225,2,1,-151424.83728201812,-4788700.342744674,4201307.899870396,2.39809,2.72464,-0.444279,-98.875,48.0,51.375,-0.25,-7.29688,7.07812,0.00390625,0.00195312,-0.0078125,4,0,41.43826342734236,-91.81116241878588,11270.12004349287,-56.833676648786174,1.7204406520301556,1.4284133853468617,192.178,8959.781364859911,11075.263430171775,150,True,16.786696240195017,False,155.80969602903104,171.08496524331704,False,33.0976425938931,False,False
10,1970-07-23 11:28:50.721337674,2025-09-16,2025-09-26 20:04:32.133,AH,C,1410295916,JASSM,3,105,76,2,2,1,225,9,2,0,1,26,0,0,0,0,-182485.22204764312,-4786979.432588424,4201444.952604771,-2.30145,-0.152631,0.128759,87.625,-13.375,-11.375,0.0,0.0,0.0,0.0,0.0,0.0,2,0,41.44298463041654,-92.18312462307529,10000.000922594449,99.86134679343296,-0.0017885795845588,0.0029187162544947,,8959.781364859911,11075.263430171775,150,10,2025-09-16,2025-09-26 20:04:32.207,AH,C,3613161266,HAWK11,1,1,73,2,1,1,225,2,1,0,0,12,1,225,2,1,-151562.59900076812,-4788632.922822799,4201379.177214146,2.42091,2.72301,-0.449265,-98.625,48.125,51.875,-0.03125,-7.375,7.04688,0.0195312,0.0,0.0253906,4,0,41.439119678143136,-91.81283456621644,11269.861431366273,-56.57562066947924,1.868879734140546,2.7035357980675787,192.374,8959.781364859911,11075.263430171775,150,True,16.656107182317275,False,155.5616221094195,170.88432686089507,False,33.547813767411434,False,False
10,1970-07-23 11:28:50.732359988,2025-09-16,2025-09-26 20:04:33.235,AH,C,1411608976,JASSM,3,105,76,2,2,1,225,9,2,0,1,26,0,0,0,0,-182388.6917742056,-4786994.288057174,4201432.302214146,-2.30145,-0.152631,0.128759,87.625,-13.375,-11.375,0.0,0.0,0.0,0.0,0.0,0.0,2,0,41.44283276112129,-92.18196415465049,9999.998033951337,99.86211487667222,-0.0009055172966619,0.0029180806028883,,8959.781364859911,11075.263430171775,150,10,2025-09-16,2025-09-26 20:04:33.113,AH,C,3614195198,HAWK11,1,1,73,2,1,1,225,2,1,0,0,12,1,225,2,1,-151648.28747733062,-4788590.657197799,4201424.284636021,2.45274,2.72214,-0.451086,-98.375,48.25,52.625,-0.1875,-7.3125,7.10938,0.0078125,0.00195312,0.00390625,4,0,41.43965943496137,-91.81387479741127,11270.574028353203,-56.47174362012984,1.9140085978650851,4.509184653350813,192.765,8959.781364859911,11075.263430171775,150,True,16.556645751214486,False,155.23862638843025,170.7459837023332,False,34.01118375407125,False,False
