Subject_cm,Timestamp,SampleDate_cm,SampleTime_cm,Configuration_cm,Scenario_cm,DisTime_cm,MarkingTxt_cm,Application_cm,EntId_cm,Site_cm,ExerciseId_cm,ForceId_cm,Category_cm,Country_cm,Domain_cm,Kind_cm,Extra_cm,Specific_cm,Subcategory_cm,AltCategory_cm,AltCountry_cm,AltDomain_cm,AltKind_cm,ECEF_X_cm,ECEF_Y_cm,ECEF_Z_cm,OriPhi_cm,OriPsi_cm,OriTheta_cm,LinVelX_cm,LinVelY_cm,LinVelZ_cm,LinAccX_cm,LinAccY_cm,LinAccZ_cm,AngVelX_cm,AngVelY_cm,AngVelZ_cm,DrAlg_cm,Appearance_cm,Latitude_cm,Longitude_cm,Altitude_cm,Heading_cm,Pitch_cm,Roll_cm,CalibratedAirspeed_cm,CM_Altitude_Lead_cm,CM_Altitude_Wing_cm,CM_Airspeed_cm,Subject_ac,SampleDate_ac,SampleTime_ac,Configuration_ac,Scenario_ac,DisTime_ac,MarkingTxt_ac,Application_ac,EntId_ac,Site_ac,ExerciseId_ac,ForceId_ac,Category_ac,Country_ac,Domain_ac,Kind_ac,Extra_ac,Specific_ac,Subcategory_ac,AltCategory_ac,AltCountry_ac,AltDomain_ac,AltKind_ac,ECEF_X_ac,ECEF_Y_ac,ECEF_Z_ac,OriPhi_ac,OriPsi_ac,OriTheta_ac,LinVelX_ac,LinVelY_ac,LinVelZ_ac,LinAccX_ac,LinAccY_ac,LinAccZ_ac,AngVelX_ac,AngVelY_ac,AngVelZ_ac,DrAlg_ac,Appearance_ac,Latitude_ac,Longitude_ac,Altitude_ac,Heading_ac,Pitch_ac,Roll_ac,CalibratedAirspeed_ac,CM_Altitude_Lead_ac,CM_Altitude_Wing_ac,CM_Airspeed_ac,Bank_Angle_Condition,distance_nm,Distance_Condition,angle_between_vel,angle_between_pos,Cone_Condition,angle_between_pos_nose,Nose_Cone_Condition,Intercept_Criteria
10,1970-07-23 11:12:31.135271067,2025-09-15,2025-09-26 16:51:53.527,HA,D,3759465074,JASSM,3,127,76,2,2,1,225,9,2,0,1,26,0,0,0,0,-188388.2308367056,-4786526.915010299,4202616.749479771,-2.30155,-0.153302,0.128183,89.75,-13.75,-11.625,0.0,0.0,0.0,0.0,0.0,0.0,2,0,41.45222129878837,-92.25388522495172,11994.748241840012,99.81541667041851,-0.0052299979773615,0.0023916147570531,,10914.903477918164,12878.403777491774,150,10,2025-09-15,2025-09-26 16:51:53.711,HA,D,2709231516,HAWK11,1,1,73,2,1,1,225,2,1,0,0,12,1,225,2,1,-143954.29138358062,-4792155.830049361,4198395.770964146,2.30548,2.99903,-0.206512,-108.0,17.75,20.25,0.03125,-7.35938,6.625,0.0,0.00976562,0.00195312,4,0,41.3994210203364,-91.72062304533245,12880.489877738057,-76.89040209727696,3.046885599548705,0.3760457865150373,173.469,10914.903477918164,12878.403777491774,150,True,24.189406990040517,False,176.75492673777487,177.58114685616064,False,5.511162748176396,True,False
10,1970-07-23 11:12:31.146290063,2025-09-15,2025-09-26 16:51:54.629,HA,D,3760776132,JASSM,3,127,76,2,2,1,225,9,2,0,1,26,0,0,0,0,-188289.53357108065,-4786542.176729049,4202603.878386021,-2.30155,-0.153302,0.128183,89.75,-13.75,-11.625,0.0,0.0,0.0,0.0,0.0,0.0,2,0,41.45206675876115,-92.25269844802096,11994.751155446726,99.816202309983,-0.0043271733771741,0.002390980237393,,10914.903477918164,12878.403777491774,150,10,2025-09-15,2025-09-26 16:51:54.616,HA,D,2710066616,HAWK11,1,1,73,2,1,1,225,2,1,0,0,12,1,225,2,1,-144031.00622733062,-4792143.081025924,4198409.749479771,2.32417,2.99941,-0.204978,-107.625,17.625,20.375,-0.25,-7.39062,6.51562,0.0390625,0.00390625,-0.0078125,4,0,41.39957749474462,-91.72154401010437,12885.127135930055,-76.97103609800838,3.0051558745559004,1.4474775666614572,172.295,10914.903477918164,12878.403777491774,150,True,24.093050477243846,False,176.66238078015957,177.56646277803168,False,5.606447958510991,True,False
10,1970-07-23 11:12:31.157199456,2025-09-15,2025-09-26 16:51:55.719,HA,D,3762090244,JASSM,3,127,76,2,2,1,225,9,2,0,1,26,0,0,0,0,-188190.60778983065,-4786557.471650924,4202590.976042271,-2.30155,-0.153302,0.128183,89.75,-13.75,-11.625,0.0,0.0,0.0,0.0,0.0,0.0,2,0,41.45191185155421,-92.25150892997904,11994.750911729256,99.81698976172962,-0.0034222596642068,0.0023903469500404,,10914.903477918164,12878.403777491774,150,10,2025-09-15,2025-09-26 16:51:55.821,HA,D,2711697048,HAWK11,1,1,73,2,1,1,225,2,1,0,0,12,1,225,2,1,-144178.23083670562,-4792117.937471236,4198437.202604771,2.36262,2.99519,-0.213319,-106.625,18.0,20.75,-0.0625,-7.34375,6.35938,0.0234375,0.0,0.0117188,4,0,41.399886021854186,-91.7233117018781,12893.7307290651,-76.45743440282273,3.148170869957001,3.6276917994744218,171.208,10914.903477918164,12878.403777491774,150,True,23.95762776663297,False,176.3310526832737,177.54206978521762,False,5.995990405745201,True,False
10,1970-07-23 11:12:31.169150124,2025-09-15,2025-09-26 16:51:56.915,HA,D,3763461488,JASSM,3,127,76,2,2,1,225,9,2,0,1,26,0,0,0,0,-188087.38122733065,-4786573.430635299,4202577.513151646,-2.30155,-0.153302,0.128183,89.75,-13.75,-11.625,0.0,0.0,0.0,0.0,0.0,0.0,2,0,41.45175020447813,-92.25026770429432,11994.75489298978,99.817811440955,-0.0024780065960115,0.0023896937256967,,10914.903477918164,12878.403777491774,150,10,2025-09-15,2025-09-26 16:51:56.711,HA,D,2712810512,HAWK11,1,1,73,2,1,1,225,2,1,0,0,12,1,225,2,1,-144276.76599295562,-4792100.786104049,4198455.989714146,2.36195,2.98733,-0.220893,-105.875,18.5,20.875,-0.359375,-7.3125,6.26562,-0.0429688,-0.00195312,0.0136719,4,0,41.40009720997152,-91.72449491542632,12899.597034873092,-75.84062614969108,3.11011990827733,3.525930366244184,170.413,10914.903477918164,12878.403777491774,150,True,23.846673528962683,False,176.11908128675105,177.52273731307346,False,6.266724811248999,True,False
10,1970-07-23 11:12:31.180171640,2025-09-15,2025-09-26 16:51:58.017,HA,D,3764773558,JASSM,3,127,76,2,2,1,225,9,2,0,1,26,0,0,0,0,-187988.60778983065,-4786588.698213424,4202564.628386021,-2.30155,-0.153302,0.128183,89.75,-13.75,-11.625,0.0,0.0,0.0,0.0,0.0,0.0,2,0,41.45159551783684,-92.2490800314105,11994.751027631251,99.81859766628416,-0.0015744889087862,0.002389068091599,,10914.903477918164,12878.403777491774,150,10,2025-09-15,2025-09-26 16:51:58.022,HA,D,2714083044,HAWK11,1,1,73,2,1,1,225,2,1,0,0,12,1,225,2,1,-144390.94372733062,-4792080.292939986,4198478.169401646,2.29023,2.97937,-0.224824,-105.25,18.75,21.0,-0.1875,-7.28125,6.21875,-0.0507812,-0.00585938,0.0,4,0,41.40034835905149,-91.72586619714052,12905.768411163592,-75.37647392834543,2.930143672529155,-0.6592185537163148,169.167,10914.903477918164,12878.403777491774,150,True,23.72946406713505,False,175.94345883012943,177.50045289568558,False,6.480612958822921,True,False
10,1970-07-23 11:12:31.190208403,2025-09-15,2025-09-26 16:51:59.020,HA,D,3766027392,JASSM,3,127,76,2,2,1,225,9,2,0,1,26,0,0,0,0,-187894.2191179556,-4786603.288057174,4202552.313932896,-2.30155,-0.153302,0.128183,89.75,-13.75,-11.625,0.0,0.0,0.0,0.0,0.0,0.0,2,0,41.451447675187545,-92.24794508714416,11994.748643139834,99.81934898364064,-0.000711078338041,0.0023884589355457,,10914.903477918164,12878.403777491774,150,10,2025-09-15,2025-09-26 16:51:59.117,HA,D,2715673710,HAWK11,1,1,73,2,1,1,225,2,1,0,0,12,1,225,2,1,-144531.12536795562,-4792055.057588424,4198505.173307896,2.26607,2.98494,-0.218688,-104.5,18.75,20.25,-0.140625,-7.34375,6.21875,0.00976562,-0.00976562,-0.015625,4,0,41.400655596534406,-91.7275498277049,12912.677972990963,-75.84744545950414,2.9283538538768377,-1.9974103954888012,168.312,10914.903477918164,12878.403777491774,150,True,23.600295994159776,False,176.21168925908512,177.47459355571985,False,6.260226282277008,True,False
10,1970-07-23 11:12:31.200282086,2025-09-15,2025-09-26 16:52:00.028,HA,D,3767220438,JASSM,3,127,76,2,2,1,225,9,2,0,1,26,0,0,0,0,-187804.4066179556,-4786617.170869674,4202540.597136021,-2.30145,-0.153206,0.128183,89.75,-13.75,-11.625,0.0,0.0,0.0,0.0,0.0,0.0,2,0,41.451306992203705,-92.24686517212616,11994.75292872713,99.81642750063146,-0.0039464657352891,0.0071772683265702,,10914.903477918164,12878.403777491774,150,10,2025-09-15,2025-09-26 16:52:00.022,HA,D,2716707642,HAWK11,1,1,73,2,1,1,225,2,1,0,0,12,1,225,2,1,-144621.65271170562,-4792038.628877486,4198522.477995396,2.30807,2.99002,-0.217538,-103.875,18.625,20.125,-0.078125,-7.32812,6.375,0.117188,0.0078125,0.00390625,4,0,41.40085387373973,-91.72863714823757,12916.53005986765,-76.0871100933579,3.097109475863341,0.4590360025526269,167.603,10914.903477918164,12878.403777491774,150,True,23.5010743376766,False,176.21594224485176,177.45600785095488,False,6.274022722212911,True,False
10,1970-07-23 11:12:31.211271034,2025-09-15,2025-09-26 16:52:01.127,HA,D,3768532696,JASSM,3,127,76,2,2,1,225,9,2,0,1,26,0,0,0,0,-187705.61950858065,-4786632.438447799,4202527.708464146,-2.30145,-0.153206,0.128279,89.75,-13.75,-11.625,0.0,0.0,0.0,0.0,0.0,0.0,2,0,41.45115224726808,-92.24567735201042,11994.754198848888,99.82130433612669,-0.0067092484030312,0.0071762351656661,,10914.903477918164,12878.403777491774,150,10,2025-09-15,2025-09-26 16:52:01.211,HA,D,2718179008,HAWK11,1,1,73,2,1,1,225,2,1,0,0,12,1,225,2,1,-144750.10778983062,-4792015.277314986,4198546.983854771,2.41669,2.9811,-0.225783,-103.0,19.25,20.375,-0.1875,-7.29688,6.32812,0.0136719,0.00195312,0.0214844,4,0,41.40113511114165,-91.73018004238716,12921.799791462394,-75.40278343603777,3.04191336003516,6.60718437799278,166.112,10914.903477918164,12878.403777491774,150,True,23.3759816052961,False,175.85560486866012,177.43116929011788,False,6.683829692910625,True,False
10,1970-07-23 11:12:31.222297411,2025-09-15,2025-09-26 16:52:02.229,HA,D,3769843286,JASSM,3,127,76,2,2,1,225,9,2,0,1,26,0,0,0,0,-187606.9573992056,-4786647.684541549,4202514.833464146,-2.30145,-0.153206,0.128279,89.75,-13.75,-11.625,0.0,0.0,0.0,0.0,0.0,0.0,2,0,41.450997680999365,-92.2444910415494,11994.74962471047,99.82208965031565,-0.0058067493266843,0.0071756104199543,,10914.903477918164,12878.403777491774,150,10,2025-09-15,2025-09-26 16:52:02.117,HA,D,2719332240,HAWK11,1,1,73,2,1,1,225,2,1,0,0,12,1,225,2,1,-144850.02966483062,-4791996.122041549,4198566.681120396,2.41861,2.96356,-0.236233,-102.25,20.0,20.875,0.0,-7.20312,6.25,0.00195312,0.00195312,0.0234375,4,0,41.40136404155125,-91.73138058613614,12924.845624898857,-74.30276464668412,2.7152317846587217,6.54218285689364,165.379,10914.903477918164,12878.403777491774,150,True,23.266632362611055,False,175.34395438598284,177.40884346347755,False,7.232490869464409,True,False
10,1970-07-23 11:12:31.233168789,2025-09-15,2025-09-26 16:52:03.316,HA,D,3771097108,JASSM,3,127,76,2,2,1,225,9,2,0,1,26,0,0,0,0,-187512.5706804556,-4786662.270479049,4202502.517057896,-2.30145,-0.153206,0.128279,89.75,-13.75,-11.625,0.0,0.0,0.0,0.0,0.0,0.0,2,0,41.45084980268531,-92.24335614329723,11994.752838925388,99.82284092837928,-0.0049433588945863,0.0071750141973704,,10914.903477918164,12878.403777491774,150,10,2025-09-15,2025-09-26 16:52:03.523,HA,D,2720922904,HAWK11,1,1,73,2,1,1,225,2,1,0,0,12,1,225,2,1,-144985.92419608062,-4791968.873018111,4198594.397917271,2.35955,2.95454,-0.244958,-101.375,20.75,21.5,0.0,-7.25,6.46875,-0.0136719,-0.00390625,0.00585938,4,0,41.40168875881603,-91.73301378086776,12928.065012032075,-73.59596515346989,2.679271399103841,3.0686954898093397,164.829,10914.903477918164,12878.403777491774,150,True,23.139597157352856,False,174.74007476856175,177.37877171802913,False,7.873931032254576,True,False
10,1970-07-23 11:12:31.244168373,2025-09-15,2025-09-26 16:52:04.416,HA,D,3772409386,JASSM,3,127,76,2,2,1,225,9,2,0,1,26,0,0,0,0,-187413.7816179556,-4786677.534150924,4202489.624479771,-2.30145,-0.153206,0.128279,89.75,-13.75,-11.625,0.0,0.0,0.0,0.0,0.0,0.0,2,0,41.45069501886647,-92.24216831834804,11994.751245511245,99.82362724040868,-0.0040397000959232,0.0071743936764789,,10914.903477918164,12878.403777491774,150,10,2025-09-15,2025-09-26 16:52:04.321,HA,D,2721956836,HAWK11,1,1,73,2,1,1,225,2,1,0,0,12,1,225,2,1,-145073.28552420562,-4791950.942354049,4198612.776823521,2.36511,2.95435,-0.240931,-101.125,21.25,21.625,-0.09375,-6.95312,6.65625,0.00976562,0.0,0.00585938,4,0,41.40190373875242,-91.73406385627192,12930.34026028158,-73.7607826154647,2.5174200208934696,3.3772290482197507,164.23,10914.903477918164,12878.403777491774,150,True,23.03700441968083,False,174.5088984135403,177.3558689210413,False,8.13266440735798,True,False
10,1970-07-23 11:12:31.255189508,2025-09-15,2025-09-26 16:52:05.518,HA,D,3773720740,JASSM,3,127,76,2,2,1,225,9,2,0,1,26,0,0,0,0,-187315.0628679556,-4786692.786104049,4202476.739714146,-2.30145,-0.153206,0.128279,89.75,-13.75,-11.625,0.0,0.0,0.0,0.0,0.0,0.0,2,0,41.45054032884939,-92.24098134486678,11994.749800509837,99.8244129863742,-0.0031366840406811,0.0071737694503428,,10914.903477918164,12878.403777491774,150,10,2025-09-15,2025-09-26 16:52:05.616,HA,D,2723507734,HAWK11,1,1,73,2,1,1,225,2,1,0,0,12,1,225,2,1,-145205.37341483062,-4791922.773408736,4198641.112761021,2.37221,2.94879,-0.244478,-101.25,21.875,22.25,-0.046875,-6.73438,7.17188,0.00195312,0.00195312,0.0117188,4,0,41.40223875479132,-91.7356519367736,12932.373351658804,-73.4032522181012,2.4258540161163458,3.722630730078071,164.963,10914.903477918164,12878.403777491774,150,True,22.90954151078908,False,174.07855860345242,177.32277667725845,False,8.597284267292542,True,False
10,1970-07-23 11:12:31.265236956,2025-09-15,2025-09-26 16:52:06.523,HA,D,3774974880,JASSM,3,127,76,2,2,1,225,9,2,0,1,26,0,0,0,0,-187220.65075858065,-4786707.372041549,4202464.417448521,-2.30145,-0.153206,0.128279,89.75,-13.75,-11.625,0.0,0.0,0.0,0.0,0.0,0.0,2,0,41.45039238229128,-92.23984615910317,11994.75257214485,99.82516444794383,-0.002273063693349,0.0071731787913439,,10914.903477918164,12878.403777491774,150,10,2025-09-15,2025-09-26 16:52:06.523,HA,D,2724462134,HAWK11,1,1,73,2,1,1,225,2,1,0,0,12,1,225,2,1,-145286.55700858062,-4791905.537080611,4198658.550261021,2.33875,2.94582,-0.249176,-101.5,22.125,22.625,-0.09375,-6.85938,7.39062,-0.0664062,-0.00195312,0.0078125,4,0,41.40244434047423,-91.73662797973871,12933.86385275116,-73.09330172694871,2.4851374447745216,1.7772338208763383,165.55,10914.903477918164,12878.403777491774,150,True,22.812728473505654,False,173.88516421945997,177.3000350213394,False,8.813264589818795,True,False
10,1970-07-23 11:12:31.276250551,2025-09-15,2025-09-26 16:52:07.625,HA,D,3776287270,JASSM,3,127,76,2,2,1,225,9,2,0,1,26,0,0,0,0,-187121.8519304556,-4786722.633760299,4202451.520964146,-2.30145,-0.153206,0.128279,89.75,-13.75,-11.625,0.0,0.0,0.0,0.0,0.0,0.0,2,0,41.45023754977036,-92.2386582350423,11994.75216895366,99.82595081844512,-0.0013693171760245,0.0071725606776739,,10914.903477918164,12878.403777491774,150,10,2025-09-15,2025-09-26 16:52:07.711,HA,D,2725774432,HAWK11,1,1,73,2,1,1,225,2,1,0,0,12,1,225,2,1,-145397.99841483062,-4791881.322236861,4198683.099089146,2.28304,2.94582,-0.243424,-102.125,22.375,22.875,0.109375,-6.59375,7.15625,-0.0761719,-0.00390625,0.0,4,0,41.40273396607696,-91.73796801291914,12935.880612772358,-73.33845029519995,2.2646711194123097,-1.4244038465217463,166.417,10914.903477918164,12878.403777491774,150,True,22.696642988747893,False,173.80565994988456,177.26949332619535,False,8.923500055909194,True,False
10,1970-07-23 11:12:31.287267469,2025-09-15,2025-09-26 16:52:08.726,HA,D,3777598088,JASSM,3,127,76,2,2,1,225,9,2,0,1,26,0,0,0,0,-187023.17419608065,-4786737.875947799,4202438.638151646,-2.30145,-0.15311,0.128279,89.75,-13.75,-11.625,0.0,0.0,0.0,0.0,0.0,0.0,2,0,41.45008288528833,-92.23747177299666,11994.75030795232,99.8230999440616,-0.0045236093920935,0.0064693628259342,,10914.903477918164,12878.403777491774,150,10,2025-09-15,2025-09-26 16:52:09.116,HA,D,2727683230,HAWK11,1,1,73,2,1,1,225,2,1,0,0,12,1,225,2,1,-145562.32458670562,-4791845.767549361,4198719.054167271,2.25812,2.95598,-0.23585,-103.125,22.125,22.625,-0.03125,-6.92188,7.3125,0.00195312,0.00195312,-0.0136719,4,0,41.40315846200852,-91.73994392811798,12938.711256292829,-74.04171386543767,2.394009011507112,-2.7429407228636733,167.908,10914.903477918164,12878.403777491774,150,True,22.55124609299719,False,174.13794708143385,177.22753955623915,False,8.632367484282732,True,False
10,1970-07-23 11:12:31.298147110,2025-09-15,2025-09-26 16:52:09.814,HA,D,3778852708,JASSM,3,127,76,2,2,1,225,9,2,0,1,26,0,0,0,0,-186928.72497733065,-4786752.463838424,4202426.306120396,-2.30145,-0.15311,0.128279,89.75,-13.75,-11.625,0.0,0.0,0.0,0.0,0.0,0.0,2,0,41.44993483522025,-92.23633615876236,11994.74783568497,99.8238516824895,-0.0036596490416274,0.0064687062018895,,10914.903477918164,12878.403777491774,150,10,2025-09-15,2025-09-26 16:52:10.022,HA,D,2728637630,HAWK11,1,1,73,2,1,1,225,2,1,0,0,12,1,225,2,1,-145645.30114920562,-4791828.332979049,4198736.747526646,2.26224,2.95962,-0.228084,-103.75,21.875,22.5,-0.234375,-6.67188,7.15625,0.00976562,0.0078125,-0.00585938,4,0,41.403366593098895,-91.74094148844652,12940.419603339746,-74.50907221416564,2.247143858884956,-2.477644685199268,168.36,10914.903477918164,12878.403777491774,150,True,22.45344787398613,False,174.35500103132134,177.20393272488545,False,8.437302475971233,True,False
10,1970-07-23 11:12:31.309170813,2025-09-15,2025-09-26 16:52:10.917,HA,D,3780164222,JASSM,3,127,76,2,2,1,225,9,2,0,1,26,0,0,0,0,-186829.99450858065,-4786767.711885299,4202413.415495396,-2.30145,-0.15311,0.128375,89.75,-13.75,-11.625,0.0,0.0,0.0,0.0,0.0,0.0,2,0,41.44978007146195,-92.23514907476466,11994.748531949448,99.82872805471384,-0.0064229029317515,0.0064677010892247,,10914.903477918164,12878.403777491774,150,10,2025-09-15,2025-09-26 16:52:10.817,HA,D,2729671562,HAWK11,1,1,73,2,1,1,225,2,1,0,0,12,1,225,2,1,-145735.39489920562,-4791809.301729049,4198755.987761021,2.26694,2.96279,-0.228659,-104.25,21.75,22.625,-0.109375,-6.90625,7.28125,0.00585938,-0.00195312,-0.00585938,4,0,41.40359336623996,-91.74202465679596,12942.093257192722,-74.60372126574366,2.4011320178771123,-2.1712533060361223,169.033,10914.903477918164,12878.403777491774,150,True,22.349349564785662,False,174.4093594173094,177.17822643360395,False,8.40607022932853,True,False
10,1970-07-23 11:12:31.319207648,2025-09-15,2025-09-26 16:52:11.920,HA,D,3781417326,JASSM,3,127,76,2,2,1,225,9,2,0,1,26,0,0,0,0,-186735.6605242056,-4786782.280244674,4202401.097136021,-2.30145,-0.15311,0.128375,89.75,-13.75,-11.625,0.0,0.0,0.0,0.0,0.0,0.0,2,0,41.4496321801719,-92.23401485741,11994.74855567862,99.82947886397774,-0.0055599973566138,0.0064671077140129,,10914.903477918164,12878.403777491774,150,10,2025-09-15,2025-09-26 16:52:11.821,HA,D,2730785028,HAWK11,1,1,73,2,1,1,225,2,1,0,0,12,1,225,2,1,-145833.55896170562,-4791789.000947799,4198776.632292271,2.26531,2.9671,-0.227413,-104.75,21.5,22.5,-0.171875,-6.82812,7.28125,-0.00976562,-0.00390625,-0.00976562,4,0,41.40383569810997,-91.74320470207488,12944.299968968717,-74.8189725373446,2.533088454386455,-2.217985256044167,169.607,10914.903477918164,12878.403777491774,150,True,22.243224515189425,False,174.60162893846484,177.15160747735126,False,8.237639054009462,True,False
10,1970-07-23 11:12:31.331210545,2025-09-15,2025-09-26 16:52:13.121,HA,D,3782789182,JASSM,3,127,76,2,2,1,225,9,2,0,1,26,0,0,0,0,-186632.38513358065,-4786798.227510299,4202387.610807896,-2.30145,-0.15311,0.128375,89.75,-13.75,-11.625,0.0,0.0,0.0,0.0,0.0,0.0,2,0,41.4494702672943,-92.23277314056598,11994.748422717652,99.83030083133644,-0.0046153038376486,0.0064664668495345,,10914.903477918164,12878.403777491774,150,10,2025-09-15,2025-09-26 16:52:13.318,HA,D,2732574526,HAWK11,1,1,73,2,1,1,225,2,1,0,0,12,1,225,2,1,-145991.54919608062,-4791756.689424361,4198809.577604771,2.20356,2.97123,-0.223865,-105.75,21.125,22.375,0.0,-6.75,7.26562,-0.119141,-0.00390625,-0.00390625,4,0,41.40422164602192,-91.74510381324384,12948.142422767489,-75.12561084078348,2.569697215378817,-5.716338442700933,170.621,10914.903477918164,12878.403777491774,150,True,22.099055025524343,False,174.8920392839879,177.11242611571473,False,7.979741746155431,True,False
10,1970-07-23 11:12:31.342249755,2025-09-15,2025-09-26 16:52:14.224,HA,D,3784159844,JASSM,3,127,76,2,2,1,225,9,2,0,1,26,0,0,0,0,-186529.20153983065,-4786814.161104049,4202374.136198521,-2.30145,-0.15311,0.128375,89.75,-13.75,-11.625,0.0,0.0,0.0,0.0,0.0,0.0,2,0,41.44930848013905,-92.2315325333612,11994.754634419423,99.83112206152092,-0.0036714489945905,0.0064658217984161,,10914.903477918164,12878.403777491774,150,10,2025-09-15,2025-09-26 16:52:14.318,HA,D,2733767524,HAWK11,1,1,73,2,1,1,225,2,1,0,0,12,1,225,2,1,-146097.43982108062,-4791736.079072799,4198830.536589146,2.16147,2.97688,-0.212552,-106.625,20.5,21.375,-0.078125,-6.79688,7.25,0.0117188,0.0117188,-0.0195312,4,0,41.40446650868195,-91.74637629571704,12950.863466160004,-75.82068598399628,2.372684619328023,-8.087602458315098,171.501,10914.903477918164,12878.403777491774,150,True,21.983950466728775,False,175.60096182732428,177.0854493569554,False,7.29554717545122,True,False
10,1970-07-23 11:12:31.353269141,2025-09-15,2025-09-26 16:52:15.326,HA,D,3785413726,JASSM,3,127,76,2,2,1,225,9,2,0,1,26,0,0,0,0,-186434.8089617056,-4786828.733369674,4202361.806120396,-2.30145,-0.15311,0.128375,89.75,-13.75,-11.625,0.0,0.0,0.0,0.0,0.0,0.0,2,0,41.44916046447136,-92.23039763034474,11994.748362190849,99.83187331763598,-0.0028080096828346,0.006465230740499,,10914.903477918164,12878.403777491774,150,10,2025-09-15,2025-09-26 16:52:15.319,HA,D,2735079822,HAWK11,1,1,73,2,1,1,225,2,1,0,0,12,1,225,2,1,-146214.64099295562,-4791714.063447799,4198852.954557896,2.19944,2.99452,-0.196445,-107.375,19.75,20.5,-0.140625,-6.85938,7.28125,0.0566406,0.00195312,-0.015625,4,0,41.40472751074083,-91.74778441700224,12954.148868134394,-77.17056457270921,2.4951363470169445,-5.7643354049911215,172.247,10914.903477918164,12878.403777491774,150,True,21.86749216924709,False,176.25769250690826,177.0582995791958,False,6.656529116775049,True,False
10,1970-07-23 11:12:31.364287387,2025-09-15,2025-09-26 16:52:16.428,HA,D,3786726280,JASSM,3,127,76,2,2,1,225,9,2,0,1,26,0,0,0,0,-186335.99841483065,-4786843.989229049,4202348.899870396,-2.30145,-0.15311,0.128375,89.75,-13.75,-11.625,0.0,0.0,0.0,0.0,0.0,0.0,2,0,41.44900550607771,-92.22920961391004,11994.75272184396,99.83265973014508,-0.0019041567233791,0.0064646091354397,,10914.903477918164,12878.403777491774,150,10,2025-09-15,2025-09-26 16:52:16.523,HA,D,2736511422,HAWK11,1,1,73,2,1,1,225,2,1,0,0,12,1,225,2,1,-146343.64294608062,-4791690.727510299,4198876.870573521,2.26301,3.00181,-0.200184,-107.875,19.0,20.25,0.0,-6.9375,7.20312,0.0449219,0.00195312,0.00390625,4,0,41.40500431637195,-91.74933400502496,12958.331330335408,-77.28438528159027,2.9443508438200108,-2.045484141656064,172.772,10914.903477918164,12878.403777491774,150,True,21.742188846452834,False,176.58003382754626,177.03007518597246,False,6.331199501552602,True,False
10,1970-07-23 11:12:31.375147007,2025-09-15,2025-09-26 16:52:17.514,HA,D,3788038924,JASSM,3,127,76,2,2,1,225,9,2,0,1,26,0,0,0,0,-186237.18200858065,-4786859.243135299,4202335.991667271,-2.30145,-0.153015,0.128375,89.75,-13.75,-11.625,0.0,0.0,0.0,0.0,0.0,0.0,2,0,41.4488505352202,-92.22802153401103,11994.752697790902,99.82981000271047,-0.005057179821478,0.005760936624288,,10914.903477918164,12878.403777491774,150,10,2025-09-15,2025-09-26 16:52:17.318,HA,D,2737426054,HAWK11,1,1,73,2,1,1,225,2,1,0,0,12,1,225,2,1,-146426.56091483062,-4791675.966768111,4198892.239714146,2.29953,3.00248,-0.202294,-108.125,18.875,20.5,-0.28125,-7.01562,7.1875,0.0410156,0.015625,0.00390625,4,0,41.4051807839918,-91.75032994575702,12961.6047810147,-77.21978944622072,3.0536439132877304,0.0585018325592554,173.261,10914.903477918164,12878.403777491774,150,True,21.64233194163735,False,176.51203800535885,177.00921404092745,False,6.403798867003788,True,False
10,1970-07-23 11:12:31.385188600,2025-09-15,2025-09-26 16:52:18.518,HA,D,3789291640,JASSM,3,127,76,2,2,1,225,9,2,0,1,26,0,0,0,0,-186142.8753679556,-4786873.799775924,4202323.671354771,-2.30145,-0.153015,0.128375,89.75,-13.75,-11.625,0.0,0.0,0.0,0.0,0.0,0.0,2,0,41.44870262388647,-92.22688768128164,11994.75218081519,99.83056055680794,-0.0041945281027817,0.0057602952112515,,10914.903477918164,12878.403777491774,150,10,2025-09-15,2025-09-26 16:52:18.346,HA,D,2738261152,HAWK11,1,1,73,2,1,1,225,2,1,0,0,12,1,225,2,1,-146502.28357108062,-4791662.447236861,4198906.175261021,2.31219,3.00229,-0.201239,-108.125,18.875,20.625,-0.328125,-7.10938,6.8125,0.00585938,0.0078125,-0.0175781,4,0,41.40534149244887,-91.75123948138771,12964.283075006912,-77.25840447115111,3.00611618134671,0.7793784167193114,173.383,10914.903477918164,12878.403777491774,150,True,21.54891878097817,False,176.45267120494958,176.98975314506788,False,6.478976358551719,True,False
10,1970-07-23 11:12:31.394250040,2025-09-15,2025-09-26 16:52:19.425,HA,D,3790365382,JASSM,3,127,76,2,2,1,225,9,2,0,1,26,0,0,0,0,-186062.0433367056,-4786886.276338424,4202313.110807896,-2.30145,-0.153015,0.128375,89.75,-13.75,-11.625,0.0,0.0,0.0,0.0,0.0,0.0,2,0,41.44857583476888,-92.22591583854935,11994.753756467597,99.83120386659355,-0.0034551323774341,0.0057597428568246,,10914.903477918164,12878.403777491774,150,10,2025-09-15,2025-09-26 16:52:19.413,HA,D,2739931352,HAWK11,1,1,73,2,1,1,225,2,1,0,0,12,1,225,2,1,-146653.66443045562,-4791635.751924361,4198933.780729771,2.29071,2.99721,-0.204882,-107.75,18.875,20.5,-0.03125,-7.32812,6.54688,-0.0546875,0.0,0.0,4,0,41.40565906178677,-91.75305766973798,12969.913339407734,-76.91356586339231,2.933581779316253,-0.4918709179073603,172.735,10914.903477918164,12878.403777491774,150,True,21.421186111870902,False,176.46787890315116,176.9595545706696,False,6.499878952786712,True,False
10,1970-07-23 11:12:31.405268276,2025-09-15,2025-09-26 16:52:20.526,HA,D,3791677268,JASSM,3,127,76,2,2,1,225,9,2,0,1,26,0,0,0,0,-185963.28357108065,-4786901.518525924,4202300.206511021,-2.30145,-0.153015,0.128471,89.75,-13.75,-11.625,0.0,0.0,0.0,0.0,0.0,0.0,2,0,41.44842091288735,-92.22472845669672,11994.753292871825,99.83608046023848,-0.0062180702284158,0.0057587537559082,,10914.903477918164,12878.403777491774,150,10,2025-09-15,2025-09-26 16:52:20.412,HA,D,2741124350,HAWK11,1,1,73,2,1,1,225,2,1,0,0,12,1,225,2,1,-146761.32068045562,-4791616.623994674,4198953.782682896,2.26569,2.99903,-0.206033,-107.375,18.625,20.375,-0.046875,-7.42188,6.65625,0.0117188,0.0,-0.00585938,4,0,41.40588823667339,-91.75435075801732,12974.375524236875,-76.93326835927789,3.0547134973037817,-1.9052892916039,172.295,10914.903477918164,12878.403777491774,150,True,21.307722778756016,False,176.5220236836123,176.9339628170416,False,6.460338939355644,True,False
10,1970-07-23 11:12:31.416285938,2025-09-15,2025-09-26 16:52:21.628,HA,D,3792989696,JASSM,3,127,76,2,2,1,225,9,2,0,1,26,0,0,0,0,-185864.48278983065,-4786916.764619674,4202287.296354771,-2.30145,-0.153015,0.128471,89.75,-13.75,-11.625,0.0,0.0,0.0,0.0,0.0,0.0,2,0,41.448265925453,-92.22354058849406,11994.751001977103,99.83686676316694,-0.0053143117373241,0.005758152657596,,10914.903477918164,12878.403777491774,150,10,2025-09-15,2025-09-26 16:52:21.616,HA,D,2742595714,HAWK11,1,1,73,2,1,1,225,2,1,0,0,12,1,225,2,1,-146893.32458670562,-4791593.534150924,4198978.296354771,2.27854,3.00459,-0.202677,-106.625,18.375,20.0,-0.140625,-7.4375,6.42188,0.0273438,0.00195312,0.0,4,0,41.40616697561232,-91.75593617088072,12980.7251107516,-77.28591040253686,3.16098672500346,-1.1236124105826684,171.196,10914.903477918164,12878.403777491774,150,True,21.180833359508785,False,176.6526839182857,176.9043707733346,False,6.357710033044839,True,False
10,1970-07-23 11:12:31.427146842,2025-09-15,2025-09-26 16:52:22.714,HA,D,3794300738,JASSM,3,127,76,2,2,1,225,9,2,0,1,26,0,0,0,0,-185765.78747733065,-4786931.995088424,4202274.397917271,-2.30145,-0.153015,0.128471,89.75,-13.75,-11.625,0.0,0.0,0.0,0.0,0.0,0.0,2,0,41.44811107343405,-92.22235399367132,11994.751039388895,99.83765222077564,-0.0044115147132888,0.0057575346719611,,10914.903477918164,12878.403777491774,150,10,2025-09-15,2025-09-26 16:52:22.818,HA,D,2743908014,HAWK11,1,1,73,2,1,1,225,2,1,0,0,12,1,225,2,1,-147011.59802420562,-4791572.794893111,4199000.331511021,2.3422,2.99893,-0.203828,-106.0,18.625,20.0,0.109375,-7.14062,6.20312,0.0507812,-0.00195312,0.015625,4,0,41.40641748786627,-91.75735670546524,12986.451294899916,-77.02610278255747,2.9689323320753607,2.472359371047718,170.047,10914.903477918164,12878.403777491774,150,True,21.0615705928773,False,176.53892987937908,176.87657141974097,False,6.520516243302309,True,False
10,1970-07-23 11:12:31.438206595,2025-09-15,2025-09-26 16:52:23.820,HA,D,3795614806,JASSM,3,127,76,2,2,1,225,9,2,0,1,26,0,0,0,0,-185666.86169608065,-4786947.258760299,4202261.470182896,-2.30145,-0.153015,0.128471,89.75,-13.75,-11.625,0.0,0.0,0.0,0.0,0.0,0.0,2,0,41.447955867137935,-92.2211646347252,11994.75228265263,99.83843950565196,-0.0035066136548482,0.0057569343796784,,10914.903477918164,12878.403777491774,150,10,2025-09-15,2025-09-26 16:52:23.818,HA,D,2745101012,HAWK11,1,1,73,2,1,1,225,2,1,0,0,12,1,225,2,1,-147117.37732108062,-4791553.832979049,4199020.140104771,2.38083,2.99289,-0.209293,-105.25,19.25,20.125,0.0,-7.125,6.20312,0.0253906,0.00976562,0.0078125,4,0,41.406644664301496,-91.7586273382211,12990.781567959246,-76.56719359524081,2.925698773069271,4.638763646773471,168.898,10914.903477918164,12878.403777491774,150,True,20.949046298368806,False,176.26702507652124,176.85006410163743,False,6.851251471755976,True,False
10,1970-07-23 11:12:31.449208501,2025-09-15,2025-09-26 16:52:24.920,HA,D,3796925858,JASSM,3,127,76,2,2,1,225,9,2,0,1,26,0,0,0,0,-185568.1644304556,-4786962.487275924,4202248.569792271,-2.30145,-0.153015,0.128471,89.75,-13.75,-11.625,0.0,0.0,0.0,0.0,0.0,0.0,2,0,41.44780098950632,-92.21997802876558,11994.753515784256,99.83922496579964,-0.0026037998244242,0.0057563180922457,,10914.903477918164,12878.403777491774,150,10,2025-09-15,2025-09-26 16:52:25.022,HA,D,2746572378,HAWK11,1,1,73,2,1,1,225,2,1,0,0,12,1,225,2,1,-147246.09607108062,-4791529.684541549,4199044.743620396,2.36617,2.97842,-0.215428,-104.375,20.0,20.5,-0.203125,-7.07812,6.09375,-0.0566406,-0.00976562,0.0117188,4,0,41.40693084806395,-91.76017392792572,12994.499823175742,-75.76450510881128,2.557326020301148,3.6619210290027033,167.774,10914.903477918164,12878.403777491774,150,True,20.823909704829784,False,175.8082227417935,176.81776329866145,False,7.361361374834791,True,False
10,1970-07-23 11:12:31.460237139,2025-09-15,2025-09-26 16:52:26.023,HA,D,3798239342,JASSM,3,127,76,2,2,1,225,9,2,0,1,26,0,0,0,0,-185469.2855242056,-4786977.741182174,4202235.644011021,-2.30145,-0.152919,0.128471,89.75,-13.75,-11.625,0.0,0.0,0.0,0.0,0.0,0.0,2,0,41.44764581912885,-92.21878924587872,11994.749913319643,99.83637578016632,-0.0057562480283767,0.00505216748941,,10914.903477918164,12878.403777491774,150,10,2025-09-15,2025-09-26 16:52:26.318,HA,D,2748083510,HAWK11,1,1,73,2,1,1,225,2,1,0,0,12,1,225,2,1,-147378.65271170562,-4791503.748018111,4199070.171354771,2.28323,2.96969,-0.216962,-103.625,20.625,20.0,0.078125,-7.0,5.98438,-0.0253906,0.0,0.00390625,4,0,41.40723250831984,-91.76176703697696,12995.908162954323,-75.373443772029,2.254226667992502,-1.180429951809777,166.735,10914.903477918164,12878.403777491774,150,True,20.69649348966313,False,175.75277411874976,176.78329488512404,False,7.463791675940229,True,False
10,1970-07-23 11:12:31.472286907,2025-09-15,2025-09-26 16:52:27.228,HA,D,3799609796,JASSM,3,127,76,2,2,1,225,9,2,0,1,26,0,0,0,0,-185366.11560233065,-4786993.657197799,4202222.157682896,-2.30145,-0.152919,0.128471,89.75,-13.75,-11.625,0.0,0.0,0.0,0.0,0.0,0.0,2,0,41.44748390356067,-92.21754887974288,11994.752914604516,99.83719682118527,-0.004812523457323,0.0050514695837227,,10914.903477918164,12878.403777491774,150,10,2025-09-15,2025-09-26 16:52:27.116,HA,D,2749077674,HAWK11,1,1,73,2,1,1,225,2,1,0,0,12,1,225,2,1,-147464.68396170562,-4791487.213838424,4199086.938932896,2.26713,2.97381,-0.206704,-103.625,18.125,22.125,-0.09375,-7.125,6.17188,-0.0078125,0.00195312,-0.0117188,4,0,41.40742828551884,-91.76280088650329,12998.136993703283,-75.96590807030232,2.033480868699802,-2.075757114668688,166.417,10914.903477918164,12878.403777491774,150,True,20.592456468053214,False,175.2658584414729,176.757186642181,False,7.831526248434015,True,False
10,1970-07-23 11:12:31.483147289,2025-09-15,2025-09-26 16:52:28.314,HA,D,3800923252,JASSM,3,127,76,2,2,1,225,9,2,0,1,26,0,0,0,0,-185267.23669608065,-4787008.909150924,4202209.229948521,-2.30145,-0.152919,0.128471,89.75,-13.75,-11.625,0.0,0.0,0.0,0.0,0.0,0.0,2,0,41.44732870652461,-92.2163601093362,11994.75094722218,99.8379837067396,-0.0039080501560237,0.0050507973194808,,10914.903477918164,12878.403777491774,150,10,2025-09-15,2025-09-26 16:52:28.318,HA,D,2750549040,HAWK11,1,1,73,2,1,1,225,2,1,0,0,12,1,225,2,1,-147592.06872733062,-4791461.355439986,4199109.903776646,2.28017,2.97151,-0.20028,-103.125,20.875,18.875,-0.15625,-7.21875,6.3125,0.0175781,0.00195312,0.0,4,0,41.40771377023057,-91.76433220455222,12994.01719405567,-76.15419830527877,1.69247974093068,-1.3614164196631775,165.599,10914.903477918164,12878.403777491774,150,True,20.467925759913037,False,176.05567779405771,176.72393469389428,False,7.209948444270309,True,False
10,1970-07-23 11:12:31.493186333,2025-09-15,2025-09-26 16:52:29.318,HA,D,3802176526,JASSM,3,127,76,2,2,1,225,9,2,0,1,26,0,0,0,0,-185172.88903983065,-4787023.459932174,4202196.895964146,-2.30145,-0.152919,0.128471,89.75,-13.75,-11.625,0.0,0.0,0.0,0.0,0.0,0.0,2,0,41.447180632322166,-92.21522582213991,11994.7513236409,99.83873452583468,-0.003045030010292,0.0050501775511046,,10914.903477918164,12878.403777491774,150,10,2025-09-15,2025-09-26 16:52:29.210,HA,D,2751582972,HAWK11,1,1,73,2,1,1,225,2,1,0,0,12,1,225,2,1,-147681.37732108062,-4791443.301729049,4199126.298307896,2.30385,2.96787,-0.202773,-102.75,20.875,18.875,-0.0625,-7.23438,6.39062,0.0273438,0.00585938,-0.00390625,4,0,41.40791544520433,-91.76540578180855,12991.95775861443,-75.9118042186057,1.6369950722384383,-0.039318977154971,165.195,10914.903477918164,12878.403777491774,150,True,20.366912407975338,False,176.0028181257374,176.69781137195298,False,7.288632295380186,True,False
10,1970-07-23 11:12:31.504208649,2025-09-15,2025-09-26 16:52:30.420,HA,D,3803429408,JASSM,3,127,76,2,2,1,225,9,2,0,1,26,0,0,0,0,-185078.5706804556,-4787038.006807174,4202184.561979771,-2.30145,-0.152919,0.128567,89.75,-13.75,-11.625,0.0,0.0,0.0,0.0,0.0,0.0,2,0,41.44703256344077,-92.21409189203612,11994.749641164448,99.84357576202594,-0.0058485457338591,0.0050492422436121,,10914.903477918164,12878.403777491774,150,10,2025-09-15,2025-09-26 16:52:30.522,HA,D,2753094104,HAWK11,1,1,73,2,1,1,225,2,1,0,0,12,1,225,2,1,-147811.96911795562,-4791417.370088424,4199149.546354771,2.31267,2.96816,-0.202006,-102.25,21.0,18.5,0.03125,-7.25,6.32812,-0.0117188,0.00585938,0.00195312,4,0,41.40820265389106,-91.76697546387749,12988.530919566629,-75.95630427330411,1.6207650270870873,0.4681303565315194,164.364,10914.903477918164,12878.403777491774,150,True,20.243164499439764,False,176.02780060360683,176.66448687607817,False,7.285265938670647,True,False
10,1970-07-23 11:12:31.515262807,2025-09-15,2025-09-26 16:52:31.526,HA,D,3804741892,JASSM,3,127,76,2,2,1,225,9,2,0,1,26,0,0,0,0,-184979.7659929556,-4787053.243135299,4202171.642057896,-2.30145,-0.152919,0.128567,89.75,-13.75,-11.625,0.0,0.0,0.0,0.0,0.0,0.0,2,0,41.44687745929882,-92.2129040323165,11994.748484695829,99.84436203775893,-0.0049447547107652,0.0050486465537915,,10914.903477918164,12878.403777491774,150,10,2025-09-15,2025-09-26 16:52:31.711,HA,D,2754605236,HAWK11,1,1,73,2,1,1,225,2,1,0,0,12,1,225,2,1,-147940.95349295562,-4791391.400361861,4199172.649870396,2.25955,2.9626,-0.204978,-102.0,20.75,18.25,-0.015625,-7.20312,6.46875,-0.00195312,0.0,0.0,4,0,41.4084893876388,-91.76852597098194,12984.584081083154,-75.62173492510072,1.5044092734919985,-2.630315400827132,164.096,10914.903477918164,12878.403777491774,150,True,20.11782740151363,False,176.17698612538987,176.63014630471523,False,7.17058680903142,True,False
10,1970-07-23 11:12:31.526246627,2025-09-15,2025-09-26 16:52:32.624,HA,D,3806113310,JASSM,3,127,76,2,2,1,225,9,2,0,1,26,0,0,0,0,-184876.5238054556,-4787069.165010299,4202158.140104771,-2.30145,-0.152919,0.128567,89.75,-13.75,-11.625,0.0,0.0,0.0,0.0,0.0,0.0,2,0,41.44671535659985,-92.21166282910076,11994.7520826841,99.84518362037744,-0.0040003689953857,0.0050480049837809,,10914.903477918164,12878.403777491774,150,10,2025-09-15,2025-09-26 16:52:32.710,HA,D,2755480102,HAWK11,1,1,73,2,1,1,225,2,1,0,0,12,1,225,2,1,-148015.58630545562,-4791376.294893111,4199185.960417271,2.26195,2.96653,-0.197596,-101.875,20.875,17.875,-0.109375,-7.0625,6.34375,0.00585938,-0.0078125,-0.00976562,4,0,41.40865536840972,-91.76942315948982,12981.985552583425,-76.08430397256917,1.3854522242550724,-2.459604952151625,163.814,10914.903477918164,12878.403777491774,150,True,20.020084824016966,False,176.24613595033537,176.60568807723132,False,7.109231153843311,True,False
10,1970-07-23 11:12:31.537267249,2025-09-15,2025-09-26 16:52:33.726,HA,D,3807425924,JASSM,3,127,76,2,2,1,225,9,2,0,1,26,0,0,0,0,-184777.7073992056,-4787084.399385299,4202145.216276646,-2.30145,-0.152919,0.128567,89.75,-13.75,-11.625,0.0,0.0,0.0,0.0,0.0,0.0,2,0,41.446560215337584,-92.21047484180308,11994.74720001757,99.84596997560789,-0.0030964730987998,0.0050474151798294,,10914.903477918164,12878.403777491774,150,10,2025-09-15,2025-09-26 16:52:33.818,HA,D,2757031000,HAWK11,1,1,73,2,1,1,225,2,1,0,0,12,1,225,2,1,-148148.78161795562,-4791349.563447799,4199209.405729771,2.32341,2.97448,-0.193761,-102.0,20.625,18.0,-0.125,-7.01562,7.21875,0.0585938,0.00976562,0.0,4,0,41.40894813294528,-91.77102427744607,12977.241684084023,-76.54812854145003,1.571845768631487,1.138227418135378,164.047,10914.903477918164,12878.403777491774,150,True,19.89245085593617,False,176.31532923599835,176.57033742565443,False,7.088636010206606,True,False
10,1970-07-23 11:12:31.548145438,2025-09-15,2025-09-26 16:52:34.814,HA,D,3808737506,JASSM,3,127,76,2,2,1,225,9,2,0,1,26,0,0,0,0,-184678.97107108065,-4787099.623994674,4202132.302214146,-2.30145,-0.152919,0.128567,89.75,-13.75,-11.625,0.0,0.0,0.0,0.0,0.0,0.0,2,0,41.446405167412784,-92.20928782168131,11994.752336454232,99.8467556882262,-0.0021933053496299,0.0050468061280706,,10914.903477918164,12878.403777491774,150,10,2025-09-15,2025-09-26 16:52:34.616,HA,D,2758064932,HAWK11,1,1,73,2,1,1,225,2,1,0,0,12,1,225,2,1,-148237.43982108062,-4791332.001924361,4199224.878386021,2.35984,2.96806,-0.202869,-102.375,20.625,18.5,-0.0625,-6.82812,7.39062,0.0488281,-0.00976562,0.0234375,4,0,41.409140715813365,-91.7720899452292,12974.37016297808,-75.91934976129791,1.653823893193397,3.170838408177967,164.694,10914.903477918164,12878.403777491774,150,True,19.789474215608834,False,176.1815575670317,176.5436942832376,False,7.262131267859848,True,False
10,1970-07-23 11:12:31.560149010,2025-09-15,2025-09-26 16:52:36.014,HA,D,3810108740,JASSM,3,127,76,2,2,1,225,9,2,0,1,26,0,0,0,0,-184575.7425554556,-4787115.538057174,4202118.798307896,-2.30145,-0.152823,0.128567,89.75,-13.75,-11.625,0.0,0.0,0.0,0.0,0.0,0.0,2,0,41.4462430558741,-92.20804680346342,11994.750385006437,99.84394115164994,-0.005305964729887,0.0043420843769688,,10914.903477918164,12878.403777491774,150,10,2025-09-15,2025-09-26 16:52:35.818,HA,D,2759536298,HAWK11,1,1,73,2,1,1,225,2,1,0,0,12,1,225,2,1,-148363.61755545562,-4791306.690400924,4199247.423307896,2.32638,2.96193,-0.206512,-103.125,21.25,18.875,-0.0625,-6.67188,7.17188,-0.0449219,0.00585938,0.0,4,0,41.40942021247899,-91.77360672518878,12970.646420786465,-75.53461036029356,1.5393194058474478,1.1930237785206046,165.745,10914.903477918164,12878.403777491774,150,True,19.663296479523655,False,175.92274090689156,176.50807051569817,False,7.5504411160174,True,False
10,1970-07-23 11:12:31.570188649,2025-09-15,2025-09-26 16:52:37.018,HA,D,3811362308,JASSM,3,127,76,2,2,1,225,9,2,0,1,26,0,0,0,0,-184481.3714617056,-4787130.084932174,4202106.454557896,-2.30145,-0.152823,0.128567,89.75,-13.75,-11.625,0.0,0.0,0.0,0.0,0.0,0.0,2,0,41.44609486243392,-92.20691227578796,11994.752598758432,99.84469211382552,-0.0044427325165613,0.0043414701133041,,10914.903477918164,12878.403777491774,150,10,2025-09-15,2025-09-26 16:52:37.318,HA,D,2761286028,HAWK11,1,1,73,2,1,1,225,2,1,0,0,12,1,225,2,1,-148515.69568045562,-4791275.895479049,4199274.757292271,2.30356,2.96892,-0.200664,-104.0,21.375,19.125,0.0,-6.64062,7.10938,0.00585938,0.00585938,0.0,4,0,41.40975985489226,-91.77543497775596,12965.812317454356,-76.04788372785043,1.6077847920557622,-0.0473338179168688,167.053,10914.903477918164,12878.403777491774,150,True,19.527650693874836,False,175.9092922210128,176.46711110494607,False,7.608254260015062,True,False
10,1970-07-23 11:12:31.581204631,2025-09-15,2025-09-26 16:52:38.120,HA,D,3812673654,JASSM,3,127,76,2,2,1,225,9,2,0,1,26,0,0,0,0,-184382.6527117056,-4787145.301729049,4202093.538542271,-2.30145,-0.152823,0.128567,89.75,-13.75,-11.625,0.0,0.0,0.0,0.0,0.0,0.0,2,0,41.44593980703444,-92.20572548630425,11994.7515944425,99.84547766657282,-0.0035397275512371,0.0043408050834492,,10914.903477918164,12878.403777491774,150,10,2025-09-15,2025-09-26 16:52:38.116,HA,D,2762240428,HAWK11,1,1,73,2,1,1,225,2,1,0,0,12,1,225,2,1,-148599.15271170562,-4791258.691377486,4199290.102995396,2.29953,2.96921,-0.202485,-104.5,21.5,19.375,0.0,-6.90625,7.45312,-0.0625,0.00195312,0.0078125,4,0,41.40995037367027,-91.77643840265844,12963.165492049342,-75.98179928463378,1.6904272880419544,-0.272827658970763,168.055,10914.903477918164,12878.403777491774,150,True,19.427495594121375,False,175.84285386506278,176.43883973217234,False,7.705632797286583,True,False
10,1970-07-23 11:12:31.592246585,2025-09-15,2025-09-26 16:52:39.224,HA,D,3813927740,JASSM,3,127,76,2,2,1,225,9,2,0,1,26,0,0,0,0,-184288.2425554556,-4787159.852510299,4202081.185026646,-2.30145,-0.152823,0.128567,89.75,-13.75,-11.625,0.0,0.0,0.0,0.0,0.0,0.0,2,0,41.4457915105228,-92.20459050056452,11994.74824240834,99.846228927427,-0.0026761354807127,0.0043401718112354,,10914.903477918164,12878.403777491774,150,10,2025-09-15,2025-09-26 16:52:39.320,HA,D,2763632260,HAWK11,1,1,73,2,1,1,225,2,1,0,0,12,1,225,2,1,-148722.42028983062,-4791233.736299361,4199312.622526646,2.21727,2.97103,-0.202677,-105.375,21.25,19.25,0.109375,-6.70312,7.28125,-0.0117188,-0.00390625,0.0,4,0,41.41022805878862,-91.7779203219879,12960.06626930404,-76.04308192546563,1.7748889814946698,-4.966781923934002,169.253,10914.903477918164,12878.403777491774,150,True,19.307736647418707,False,176.0968161824588,176.40254782478468,False,7.491488437762224,True,False
10,1970-07-23 11:12:31.603245813,2025-09-15,2025-09-26 16:52:40.324,HA,D,3815240084,JASSM,3,127,76,2,2,1,225,9,2,0,1,26,0,0,0,0,-184189.44763358065,-4787175.079072799,4202068.259245396,-2.30145,-0.152823,0.128567,89.75,-13.75,-11.625,0.0,0.0,0.0,0.0,0.0,0.0,2,0,41.44563632461072,-92.20340280732351,11994.753015458076,99.8470150736484,-0.0017724366181318,0.0043395189783318,,10914.903477918164,12878.403777491774,150,10,2025-09-15,2025-09-26 16:52:40.522,HA,D,2765063858,HAWK11,1,1,73,2,1,1,225,2,1,0,0,12,1,225,2,1,-148848.92224295562,-4791208.643525924,4199335.155729771,2.21785,2.98446,-0.184174,-106.375,20.625,19.0,-0.0625,-6.82812,7.35938,0.0273438,0.00976562,-0.0117188,4,0,41.41050603854625,-91.77944094653488,12956.91357327198,-77.3376348274842,1.6285969295248512,-4.824408883008901,170.462,10914.903477918164,12878.403777491774,150,True,19.183853382795267,False,176.53243463985763,176.36585947366382,False,7.099449541206055,True,False
10,1970-07-23 11:12:31.613285841,2025-09-15,2025-09-26 16:52:41.328,HA,D,3816493418,JASSM,3,127,76,2,2,1,225,9,2,0,1,26,0,0,0,0,-184095.0941179556,-4787189.620088424,4202055.911589146,-2.30145,-0.152823,0.128663,89.75,-13.75,-11.625,0.0,0.0,0.0,0.0,0.0,0.0,2,0,41.44548808986036,-92.20226851355596,11994.753489253171,99.85185657309108,-0.0045755846413872,0.0043386858958484,,10914.903477918164,12878.403777491774,150,10,2025-09-15,2025-09-26 16:52:41.318,HA,D,2766018258,HAWK11,1,1,73,2,1,1,225,2,1,0,0,12,1,225,2,1,-148934.38318045562,-4791192.144502486,4199350.104948521,2.24488,2.9903,-0.18264,-107.0,20.125,19.0,-0.125,-7.04688,7.5625,0.0429688,0.00195312,0.00585938,4,0,41.41068928160032,-91.7804680744158,12955.308946496029,-77.62379818748724,1.8160628563251369,-3.2228279172267045,171.159,10914.903477918164,12878.403777491774,150,True,19.0850918916193,False,176.7656309354927,176.33861250556444,False,6.895561754570235,True,False
10,1970-07-23 11:12:31.624144696,2025-09-15,2025-09-26 16:52:42.414,HA,D,3817805862,JASSM,3,127,76,2,2,1,225,9,2,0,1,26,0,0,0,0,-183996.29138358065,-4787204.844697799,4202042.979948521,-2.30145,-0.152823,0.128663,89.75,-13.75,-11.625,0.0,0.0,0.0,0.0,0.0,0.0,2,0,41.44533285385712,-92.2010807389138,11994.750197504429,99.85264276849544,-0.003671812928562,0.0043380836260248,,10914.903477918164,12878.403777491774,150,10,2025-09-15,2025-09-26 16:52:42.318,HA,D,2767052190,HAWK11,1,1,73,2,1,1,225,2,1,0,0,12,1,225,2,1,-149027.42224295562,-4791175.241182174,4199365.925261021,2.27739,2.98896,-0.184557,-107.5,18.5,20.125,-0.109375,-6.85938,7.34375,0.0351562,0.0,0.00976562,4,0,41.41087939719685,-91.78158589468455,12955.184081049489,-77.4921853001657,1.8338959799334211,-1.37047618774816,171.868,10914.903477918164,12878.403777491774,150,True,18.97980004012892,False,176.67529582259354,176.31065642078238,False,6.9185041317570315,True,False
10,1970-07-23 11:12:31.635187926,2025-09-15,2025-09-26 16:52:43.518,HA,D,3819058594,JASSM,3,127,76,2,2,1,225,9,2,0,1,26,0,0,0,0,-183901.98376639312,-4787219.375947799,4202030.638151646,-2.30145,-0.152823,0.128663,89.75,-13.75,-11.625,0.0,0.0,0.0,0.0,0.0,0.0,2,0,41.44518468335793,-92.19994700872633,11994.75346888813,99.85339318928018,-0.0028091617743949,0.0043375228087883,,10914.903477918164,12878.403777491774,150,10,2025-09-15,2025-09-26 16:52:43.522,HA,D,2768444022,HAWK11,1,1,73,2,1,1,225,2,1,0,0,12,1,225,2,1,-149152.94568045562,-4791152.043916549,4199387.085417271,2.3003,2.99366,-0.18379,-108.0,19.75,18.875,0.0,-6.75,7.21875,0.0,-0.00195312,0.00585938,4,0,41.41113696693073,-91.78309415554656,12953.659721409129,-77.70253268456715,2.0029031640608044,-0.0153281549014591,172.613,10914.903477918164,12878.403777491774,150,True,18.859077128923236,False,177.04746805178536,176.2766344241414,False,6.672576146740498,True,False
10,1970-07-23 11:12:31.645203917,2025-09-15,2025-09-26 16:52:44.520,HA,D,3820309152,JASSM,3,127,76,2,2,1,225,9,2,0,1,26,0,0,0,0,-183807.8402117056,-4787233.879854049,4202018.315886021,-2.30145,-0.152727,0.128663,89.75,-13.75,-11.625,0.0,0.0,0.0,0.0,0.0,0.0,2,0,41.44503675868342,-92.19881525692853,11994.75219050119,99.85050640463274,-0.0060049232730039,0.0036323957001919,,10914.903477918164,12878.403777491774,150,10,2025-09-15,2025-09-26 16:52:44.412,HA,D,2769597254,HAWK11,1,1,73,2,1,1,225,2,1,0,0,12,1,225,2,1,-149258.54724295562,-4791132.717744674,4199404.952604771,2.29445,2.99318,-0.185132,-108.5,19.875,18.875,-0.25,-6.90625,7.21875,-0.00585938,0.0,0.0,4,0,41.41135295646521,-91.78436297861109,12952.991728404186,-77.62800289228343,2.0350251466399034,-0.3528083292545304,173.432,10914.903477918164,12878.403777491774,150,True,18.749425424437053,False,177.07491946388117,176.24610787157437,False,6.676899437143243,True,False
10,1970-07-23 11:12:31.655248036,2025-09-15,2025-09-26 16:52:45.524,HA,D,3821503836,JASSM,3,127,76,2,2,1,225,9,2,0,1,26,0,0,0,0,-183717.9027117056,-4787247.735322799,4202006.542448521,-2.30145,-0.152727,0.128663,89.75,-13.75,-11.625,0.0,0.0,0.0,0.0,0.0,0.0,2,0,41.4448954236692,-92.1977340734492,11994.750617727086,99.85122204041818,-0.0051822456616964,0.0036317990516155,,10914.903477918164,12878.403777491774,150,10,2025-09-15,2025-09-26 16:52:45.710,HA,D,2771307218,HAWK11,1,1,73,2,1,1,225,2,1,0,0,12,1,225,2,1,-149414.48864920562,-4791104.344697799,4199431.624479771,2.27029,2.99433,-0.185132,-108.75,19.25,19.125,-0.046875,-7.35938,6.76562,0.0175781,0.00390625,0.0,4,0,41.41167283520808,-91.786236598301,12953.04812795057,-77.67246922136258,2.0847644336464795,-1.7265132130998977,173.652,10914.903477918164,12878.403777491774,150,True,18.61436794732472,False,177.15099079926605,176.20577180187564,False,6.619513527790691,True,False
10,1970-07-23 11:12:31.666289900,2025-09-15,2025-09-26 16:52:46.628,HA,D,3822754904,JASSM,3,127,76,2,2,1,225,9,2,0,1,26,0,0,0,0,-183623.72009451807,-4787262.245088424,4201994.212370396,-2.30145,-0.152727,0.128663,89.75,-13.75,-11.625,0.0,0.0,0.0,0.0,0.0,0.0,2,0,41.444747398562406,-92.1966018621906,11994.75235195183,99.85197144935997,-0.0043207355441517,0.0036311662574004,,10914.903477918164,12878.403777491774,150,10,2025-09-15,2025-09-26 16:52:46.616,HA,D,2772380918,HAWK11,1,1,73,2,1,1,225,2,1,0,0,12,1,225,2,1,-149512.71911795562,-4791086.807588424,4199448.304167271,2.28036,3.00143,-0.181968,-108.5,19.125,18.875,-0.234375,-7.48438,6.57812,0.0253906,0.0117188,-0.00195312,4,0,41.41187150108807,-91.78741671141508,12953.652320767716,-78.07498603014109,2.262961396946522,-1.0907841987331497,172.955,10914.903477918164,12878.403777491774,150,True,18.508784530750656,False,177.260989187502,176.1762054424908,False,6.540706643500468,True,False
10,1970-07-23 11:12:31.676163446,2025-09-15,2025-09-26 16:52:47.616,HA,D,3824007718,JASSM,3,127,76,2,2,1,225,9,2,0,1,26,0,0,0,0,-183529.40564139312,-4787276.772432174,4201981.864714146,-2.30145,-0.152727,0.128663,89.75,-13.75,-11.625,0.0,0.0,0.0,0.0,0.0,0.0,2,0,41.44459916919609,-92.19546807248298,11994.751431714654,99.85272190086708,-0.0034580228107345,0.003630546280344,,10914.903477918164,12878.403777491774,150,10,2025-09-15,2025-09-26 16:52:47.522,HA,D,2773454616,HAWK11,1,1,73,2,1,1,225,2,1,0,0,12,1,225,2,1,-149609.20935233062,-4791069.741182174,4199464.706511021,2.29877,3.002,-0.186858,-108.125,19.0,18.875,-0.109375,-7.5,6.54688,0.03125,0.0,0.0,4,0,41.41206580613143,-91.78857586508042,12954.68385618684,-77.88811975092399,2.4745382388615456,-0.0223033589806072,172.393,10914.903477918164,12878.403777491774,150,True,18.40409889253253,False,177.24452261039582,176.14675700346157,False,6.582254309531029,True,False
10,1970-07-23 11:12:31.687203908,2025-09-15,2025-09-26 16:52:48.720,HA,D,3825260294,JASSM,3,127,76,2,2,1,225,9,2,0,1,26,0,0,0,0,-183435.1097429556,-4787291.295869674,4201969.519011021,-2.30145,-0.152727,0.128663,89.75,-13.75,-11.625,0.0,0.0,0.0,0.0,0.0,0.0,2,0,41.44445096084486,-92.19433451146767,11994.751653777652,99.85347219879591,-0.0025954806511807,0.0036299293040783,,10914.903477918164,12878.403777491774,150,10,2025-09-15,2025-09-26 16:52:48.710,HA,D,2774727148,HAWK11,1,1,73,2,1,1,225,2,1,0,0,12,1,225,2,1,-149724.80310233062,-4791049.458955611,4199484.515104771,2.33271,2.99701,-0.191748,-107.625,18.875,18.875,-0.171875,-7.39062,6.48438,0.03125,0.00976562,0.0078125,4,0,41.41229866698662,-91.78996446060758,12956.672027005725,-77.49285094083122,2.452848328538223,1.885551392867546,171.477,10914.903477918164,12878.403777491774,150,True,18.28892221461434,False,177.21268152283997,176.11321116284603,False,6.643405349141113,True,False
10,1970-07-23 11:12:31.697205041,2025-09-15,2025-09-26 16:52:49.720,HA,D,3826514364,JASSM,3,127,76,2,2,1,225,9,2,0,1,26,0,0,0,0,-183340.70056326807,-4787305.836885299,4201957.157682896,-2.30145,-0.152727,0.128663,89.75,-13.75,-11.625,0.0,0.0,0.0,0.0,0.0,0.0,2,0,41.44430255712162,-92.19319959377113,11994.755233631411,99.85422339249364,-0.0017319011714659,0.0036293055113378,,10914.903477918164,12878.403777491774,150,10,2025-09-15,2025-09-26 16:52:49.616,HA,D,2775959914,HAWK11,1,1,73,2,1,1,225,2,1,0,0,12,1,225,2,1,-149836.38903983062,-4791029.625947799,4199503.851042271,2.3375,2.99462,-0.196829,-106.875,19.125,19.125,0.03125,-7.40625,6.5,0.0,0.0,0.00390625,4,0,41.41252639447161,-91.79130501546094,12958.438225625076,-77.18655750824044,2.547350582300607,2.147090968092443,170.902,10914.903477918164,12878.403777491774,150,True,18.17587057733746,False,176.95509403234104,176.0794708788194,False,6.942385798534722,True,False
10,1970-07-23 11:12:31.707244743,2025-09-15,2025-09-26 16:52:50.724,HA,D,3827707442,JASSM,3,127,76,2,2,1,225,9,2,0,1,26,0,0,0,0,-183250.88415701807,-4787319.666963424,4201945.395964146,-2.30145,-0.152727,0.128759,89.75,-13.75,-11.625,0.0,0.0,0.0,0.0,0.0,0.0,2,0,41.44416137189572,-92.19211989344426,11994.75055309061,99.8590287827422,-0.0045765072078523,0.0036285252236744,,10914.903477918164,12878.403777491774,150,10,2025-09-15,2025-09-26 16:52:50.616,HA,D,2777113146,HAWK11,1,1,73,2,1,1,225,2,1,0,0,12,1,225,2,1,-149939.42224295562,-4791010.854463424,4199522.181120396,2.33462,2.98858,-0.202198,-106.25,19.25,19.375,-0.09375,-7.32812,6.26562,-0.0175781,-0.00585938,0.00585938,4,0,41.41274259539165,-91.7925430003142,12959.980608686135,-76.73151593589587,2.5005165557502,1.9337764529655128,170.059,10914.903477918164,12878.403777491774,150,True,18.069998087733016,False,176.73690318718928,176.04650942791264,False,7.19458250182331,True,False
10,1970-07-23 11:12:31.718266157,2025-09-15,2025-09-26 16:52:51.826,HA,D,3829018642,JASSM,3,127,76,2,2,1,225,9,2,0,1,26,0,0,0,0,-183152.17419608065,-4787334.868135299,4201932.468229771,-2.30145,-0.152727,0.128759,89.75,-13.75,-11.625,0.0,0.0,0.0,0.0,0.0,0.0,2,0,41.44400617580156,-92.19093328662736,11994.751440841494,99.8598141845594,-0.0036735868001645,0.0036279286206656,,10914.903477918164,12878.403777491774,150,10,2025-09-15,2025-09-26 16:52:51.818,HA,D,2778504978,HAWK11,1,1,73,2,1,1,225,2,1,0,0,12,1,225,2,1,-150062.52380545562,-4790988.275361861,4199544.188932896,2.24517,2.98359,-0.201718,-105.75,19.25,19.125,-0.1875,-7.39062,6.26562,-0.0410156,-0.0078125,-0.00195312,4,0,41.41300251547158,-91.7940221816509,12961.691967287528,-76.5660876760688,2.2749008098268093,-3.241697740325064,169.179,10914.903477918164,12878.403777491774,150,True,17.948203916987662,False,176.7872608763595,176.0073856717369,False,7.18997235121822,True,False
10,1970-07-23 11:12:31.728152653,2025-09-15,2025-09-26 16:52:52.815,HA,D,3830212506,JASSM,3,127,76,2,2,1,225,9,2,0,1,26,0,0,0,0,-183062.29821951807,-4787348.707979049,4201920.696745396,-2.30145,-0.152631,0.128759,89.75,-13.75,-11.625,0.0,0.0,0.0,0.0,0.0,0.0,2,0,41.443864858859335,-92.18985287975738,11994.753003645434,99.85689349335551,-0.0069083791652188,0.0029223546385575,,10914.903477918164,12878.403777491774,150,10,2025-09-15,2025-09-26 16:52:52.616,HA,D,2779499142,HAWK11,1,1,73,2,1,1,225,2,1,0,0,12,1,225,2,1,-150150.57263358062,-4790972.131807174,4199559.915495396,2.24393,2.98915,-0.192227,-105.375,19.125,18.625,-0.046875,-7.34375,6.28125,0.0136719,0.00390625,-0.00976562,4,0,41.41318827693074,-91.79508017608885,12962.90473129305,-77.1807636698984,2.1455010646549506,-3.2744420318033445,168.776,10914.903477918164,12878.403777491774,150,True,17.85055180662629,False,176.99455060198005,175.9766680618248,False,7.019682938322739,True,False
10,1970-07-23 11:12:31.739161409,2025-09-15,2025-09-26 16:52:53.916,HA,D,3831466086,JASSM,3,127,76,2,2,1,225,9,2,0,1,26,0,0,0,0,-182967.9261492056,-4787363.237275924,4201908.335417271,-2.30145,-0.152631,0.128759,89.75,-13.75,-11.625,0.0,0.0,0.0,0.0,0.0,0.0,2,0,41.44371647221675,-92.18871843132392,11994.750078018304,99.85764436779854,-0.0060451415724304,0.0029217403344927,,10914.903477918164,12878.403777491774,150,10,2025-09-15,2025-09-26 16:52:53.818,HA,D,2781010274,HAWK11,1,1,73,2,1,1,225,2,1,0,0,12,1,225,2,1,-150284.62341483062,-4790947.851533736,4199583.249479771,2.27576,2.99539,-0.182544,-104.875,19.0,18.125,-0.046875,-7.48438,6.46875,0.0410156,0.0078125,-0.00585938,4,0,41.41346519149487,-91.79669082964244,12964.16939862842,-77.82964154623848,2.038227458303655,-1.4078518331836118,167.921,10914.903477918164,12878.403777491774,150,True,17.725158856783906,False,177.18523352473855,175.93586621073362,False,6.875017863297783,True,False
10,1970-07-23 11:12:31.749202807,2025-09-15,2025-09-26 16:52:54.920,HA,D,3832717086,JASSM,3,127,76,2,2,1,225,9,2,0,1,26,0,0,0,0,-182873.74841483065,-4787377.735322799,4201895.999479771,-2.30145,-0.152631,0.128759,89.75,-13.75,-11.625,0.0,0.0,0.0,0.0,0.0,0.0,2,0,41.44356838746776,-92.18758632476688,11994.748493119896,99.8583936899831,-0.0051836833115932,0.002921134548261,,10914.903477918164,12878.403777491774,150,10,2025-09-15,2025-09-26 16:52:54.710,HA,D,2782044206,HAWK11,1,1,73,2,1,1,225,2,1,0,0,12,1,225,2,1,-150375.42810233062,-4790931.585908736,4199598.860807896,2.3166,2.99548,-0.187913,-104.5,18.75,18.25,-0.046875,-7.82812,6.875,0.0625,0.03125,0.0,4,0,41.41365036233584,-91.79778181016216,12965.055286424304,-77.60446139857696,2.248104955668232,0.9416917656935454,167.016,10914.903477918164,12878.403777491774,150,True,17.623692964846665,False,177.14876657515677,175.9044237846781,False,6.935528597322597,True,False
10,1970-07-23 11:12:31.759241936,2025-09-15,2025-09-26 16:52:55.924,HA,D,3833911930,JASSM,3,127,76,2,2,1,225,9,2,0,1,26,0,0,0,0,-182783.79821951807,-4787391.582979049,4201884.216276646,-2.30145,-0.152631,0.128759,89.75,-13.75,-11.625,0.0,0.0,0.0,0.0,0.0,0.0,2,0,41.44342693040099,-92.18650504189664,11994.75021621338,99.8591093707731,-0.004360893254119,0.0029205467958193,,10914.903477918164,12878.403777491774,150,10,2025-09-15,2025-09-26 16:52:55.708,HA,D,2783157672,HAWK11,1,1,73,2,1,1,225,2,1,0,0,12,1,225,2,1,-150472.82263358062,-4790914.910127486,4199616.495573521,2.43472,3.0114,-0.205074,-104.0,18.25,19.5,-0.25,-8.21875,7.79688,0.164062,-0.00390625,0.00195312,4,0,41.413850386545526,-91.79895168265652,12969.83734977453,-77.46579484484421,3.570833743272107,7.894383720540533,167.872,10914.903477918164,12878.403777491774,150,True,17.520924283550514,False,176.60302882101095,175.87129751656408,False,7.454279904116347,True,False
10,1970-07-23 11:12:31.770261817,2025-09-15,2025-09-26 16:52:57.026,HA,D,3835222232,JASSM,3,127,76,2,2,1,225,9,2,0,1,26,0,0,0,0,-182685.15564139312,-4787406.768525924,4201871.292448521,-2.30145,-0.152631,0.128759,89.75,-13.75,-11.625,0.0,0.0,0.0,0.0,0.0,0.0,2,0,41.44327178041743,-92.1853192742367,11994.75214410006,99.85989420577008,-0.0034585905730522,0.0029198908993348,,10914.903477918164,12878.403777491774,150,10,2025-09-15,2025-09-26 16:52:57.022,HA,D,2784748338,HAWK11,1,1,73,2,1,1,225,2,1,0,0,12,1,225,2,1,-150610.61364920562,-4790890.408174361,4199643.892057896,2.65896,2.98263,-0.232206,-102.875,19.625,22.125,-0.203125,-7.07812,7.26562,0.162109,0.0195312,0.0566406,4,0,41.41415528116173,-91.80060713798406,12979.686283806752,-75.2318920448612,3.4055944098612083,20.521383268204783,165.843,10914.903477918164,12878.403777491774,150,False,17.39104445344502,False,174.9298631842755,175.82318662849175,False,9.187294222960146,True,False
10,1970-07-23 11:12:31.780143798,2025-09-15,2025-09-26 16:52:58.014,HA,D,3836415278,JASSM,3,127,76,2,2,1,225,9,2,0,1,26,0,0,0,0,-182595.34216483065,-4787420.592744674,4201859.524870396,-2.30145,-0.152631,0.128759,89.75,-13.75,-11.625,0.0,0.0,0.0,0.0,0.0,0.0,2,0,41.44313051589444,-92.18423964576938,11994.752077893045,99.86060878733612,-0.0026370516652124,0.0029193026487313,,10914.903477918164,12878.403777491774,150,10,2025-09-15,2025-09-26 16:52:58.116,HA,D,2786060636,HAWK11,1,1,73,2,1,1,225,2,1,0,0,12,1,225,2,1,-150722.94177420562,-4790867.538057174,4199669.161589146,2.7953,2.93997,-0.267776,-102.0,22.875,25.125,-0.21875,-7.125,7.54688,0.0703125,0.00195312,0.0488281,4,0,41.41444085615037,-91.80195777467436,12986.972440002946,-72.12846904499413,3.0120406858818067,27.90156113222312,166.527,10914.903477918164,12878.403777491774,150,False,17.279762755048267,False,172.67883383173177,175.77492082813194,False,11.534710482861913,True,False
10,1970-07-23 11:12:31.791167052,2025-09-15,2025-09-26 16:52:59.116,HA,D,3837669784,JASSM,3,127,76,2,2,1,225,9,2,0,1,26,0,0,0,0,-182500.8988054556,-4787435.127900924,4201847.149870396,-2.30145,-0.152631,0.128759,89.75,-13.75,-11.625,0.0,0.0,0.0,0.0,0.0,0.0,2,0,41.44298196295818,-92.18310436830386,11994.750733506864,99.86136019954876,-0.0017731637999572,0.0029186885651623,,10914.903477918164,12878.403777491774,150,10,2025-09-15,2025-09-26 16:52:59.116,HA,D,2787253634,HAWK11,1,1,73,2,1,1,225,2,1,0,0,12,1,225,2,1,-150825.49060233062,-4790842.499971236,4199695.942839146,2.86442,2.90296,-0.293757,-100.875,26.625,28.5,0.0,-7.21875,7.70312,0.0488281,0.0234375,0.0527344,4,0,41.41475134667975,-91.80319239868015,12991.457882597488,-69.65264283616996,2.5160484422256326,31.393944858323657,167.016,10914.903477918164,12878.403777491774,150,False,17.171005808418467,False,170.04231270013648,175.71886278167918,False,14.238636895134507,True,False
