Subject_cm,Timestamp,SampleDate_cm,SampleTime_cm,Configuration_cm,Scenario_cm,DisTime_cm,MarkingTxt_cm,Application_cm,EntId_cm,Site_cm,ExerciseId_cm,ForceId_cm,Category_cm,Country_cm,Domain_cm,Kind_cm,Extra_cm,Specific_cm,Subcategory_cm,AltCategory_cm,AltCountry_cm,AltDomain_cm,AltKind_cm,ECEF_X_cm,ECEF_Y_cm,ECEF_Z_cm,OriPhi_cm,OriPsi_cm,OriTheta_cm,LinVelX_cm,LinVelY_cm,LinVelZ_cm,LinAccX_cm,LinAccY_cm,LinAccZ_cm,AngVelX_cm,AngVelY_cm,AngVelZ_cm,DrAlg_cm,Appearance_cm,Latitude_cm,Longitude_cm,Altitude_cm,Heading_cm,Pitch_cm,Roll_cm,CalibratedAirspeed_cm,CM_Altitude_Lead_cm,CM_Altitude_Wing_cm,CM_Airspeed_cm,Subject_ac,SampleDate_ac,SampleTime_ac,Configuration_ac,Scenario_ac,DisTime_ac,MarkingTxt_ac,Application_ac,EntId_ac,Site_ac,ExerciseId_ac,ForceId_ac,Category_ac,Country_ac,Domain_ac,Kind_ac,Extra_ac,Specific_ac,Subcategory_ac,AltCategory_ac,AltCountry_ac,AltDomain_ac,AltKind_ac,ECEF_X_ac,ECEF_Y_ac,ECEF_Z_ac,OriPhi_ac,OriPsi_ac,OriTheta_ac,LinVelX_ac,LinVelY_ac,LinVelZ_ac,LinAccX_ac,LinAccY_ac,LinAccZ_ac,AngVelX_ac,AngVelY_ac,AngVelZ_ac,DrAlg_ac,Appearance_ac,Latitude_ac,Longitude_ac,Altitude_ac,Heading_ac,Pitch_ac,Roll_ac,CalibratedAirspeed_ac,CM_Altitude_Lead_ac,CM_Altitude_Wing_ac,CM_Airspeed_ac,Bank_Angle_Condition,distance_nm,Distance_Condition,angle_between_vel,angle_between_pos,Cone_Condition,angle_between_pos_nose,Nose_Cone_Condition,Intercept_Criteria
10,1970-07-23 11:12:14.292385160,2025-09-15,2025-09-26 16:23:49.238,HH,C,1750076482,JASSM,3,101,76,2,2,1,225,9,2,0,1,26,0,0,0,0,-155684.89294608062,-4777487.920869674,4213689.061979771,-2.71093,-1.01118,0.751842,32.625,-52.0,-57.375,0.0,0.0,0.0,0.0,0.0,0.0,2,0,41.58772060443256,-91.8664478007118,10997.373305240411,155.9387744887884,-0.0029003578537669,-0.0006586205667557,,10094.22773008973,12108.22360793471,150,10,2025-09-15,2025-09-26 16:23:49.125,HH,C,699585356,HAWK11,1,1,73,2,1,1,225,2,1,0,0,12,1,225,2,1,-148642.52185233062,-4789997.813447799,4200322.977995396,2.69655,2.07423,-0.812147,-42.625,77.875,86.625,0.0,-7.20312,6.85938,-0.0253906,0.00585938,0.00195312,4,0,41.424414620918455,-91.7774239803708,12107.521081243154,-20.527045554698507,2.079508293895446,-3.0296141011289768,182.426,10094.22773008973,12108.22360793471,150,True,10.581513488010817,False,177.24354059146455,178.0028103514994,False,1.4300467745453718,True,False
10,1970-07-23 11:12:14.303131994,2025-09-15,2025-09-26 16:23:50.313,HH,C,1751270352,JASSM,3,101,76,2,2,1,225,9,2,0,1,26,0,0,0,0,-155652.22302420562,-4777540.084932174,4213631.515104771,-2.71093,-1.01118,0.751842,32.625,-52.0,-57.375,0.0,0.0,0.0,0.0,0.0,0.0,2,0,41.58702820731335,-91.8660360498843,10997.379736172716,155.93904779314747,-0.0021425609939058,-0.0006597102179951,,10094.22773008973,12108.22360793471,150,10,2025-09-15,2025-09-26 16:23:50.335,HH,C,700937422,HAWK11,1,1,73,2,1,1,225,2,1,0,0,12,1,225,2,1,-148690.87927420562,-4789909.125947799,4200421.435026646,2.65609,2.08947,-0.810805,-43.125,77.625,86.875,-0.125,-7.46875,7.1875,-0.0214844,0.0078125,-0.0175781,4,0,41.42559780907646,-91.77803475268044,12106.864962891694,-21.112035760987222,2.242640071493238,-4.736263482867691,182.475,10094.22773008973,12108.22360793471,150,True,10.459998471332165,False,177.4376410101238,177.99760043069057,False,1.4456124689165688,True,False
10,1970-07-23 11:12:14.314154057,2025-09-15,2025-09-26 16:23:51.415,HH,C,1752582312,JASSM,3,101,76,2,2,1,225,9,2,0,1,26,0,0,0,0,-155616.32263358062,-4777597.407197799,4213568.272917271,-2.71083,-1.01118,0.751842,32.625,-52.0,-57.375,0.0,0.0,0.0,0.0,0.0,0.0,2,0,41.5862673086908,-91.86558359439437,10997.380498271435,155.93934811138743,-0.0013098004078609,0.0048442109819134,,10094.22773008973,12108.22360793471,150,10,2025-09-15,2025-09-26 16:23:51.421,HH,C,702329254,HAWK11,1,1,73,2,1,1,225,2,1,0,0,12,1,225,2,1,-148741.35388358062,-4789817.711885299,4200523.798307896,2.65638,2.0934,-0.816557,-43.625,77.0,87.0,-0.203125,-7.34375,7.03125,0.0898438,0.0214844,-0.00390625,4,0,41.42682318559687,-91.77867186042164,12108.156416864867,-21.125043793034305,2.607822719889708,-4.556623293360094,182.548,10094.22773008973,12108.22360793471,150,True,10.331198898400785,False,177.648178701776,177.98971257015373,False,1.5826844260062711,True,False
10,1970-07-23 11:12:14.324272771,2025-09-15,2025-09-26 16:23:52.427,HH,C,1753775390,JASSM,3,101,76,2,2,1,225,9,2,0,1,26,0,0,0,0,-155583.67517264312,-4777649.534150924,4213510.757292271,-2.71083,-1.01118,0.751842,32.625,-52.0,-57.375,0.0,0.0,0.0,0.0,0.0,0.0,2,0,41.58557533581259,-91.86517214558748,10997.373431638123,155.9396212074422,-0.0005524801918475,0.0048431019361583,,10094.22773008973,12108.22360793471,150,10,2025-09-15,2025-09-26 16:23:52.328,HH,C,703204120,HAWK11,1,1,73,2,1,1,225,2,1,0,0,12,1,225,2,1,-148773.47693045562,-4789761.274385299,4200587.606901646,2.89472,2.09714,-0.8202,-43.5,77.0,87.0,-0.234375,-7.1875,6.9375,0.425781,0.0136719,-0.0175781,4,0,41.42758365689184,-91.77907669494948,12110.359505701208,-21.17718093981235,2.858289497670043,9.253319870335446,182.878,10094.22773008973,12108.22360793471,150,True,10.236687064094811,False,177.59602055669214,177.97933031903952,False,1.6081518244743531,True,False
10,1970-07-23 11:12:14.334314010,2025-09-15,2025-09-26 16:23:53.431,HH,C,1755026406,JASSM,3,101,76,2,2,1,225,9,2,0,1,26,0,0,0,0,-155549.44177420562,-4777704.192354049,4213450.452604771,-2.71083,-1.01118,0.751842,32.625,-52.0,-57.375,0.0,0.0,0.0,0.0,0.0,0.0,2,0,41.58484978560578,-91.86474071936638,10997.378296784298,155.93990755934806,0.0002415934559762,0.0048419545530335,,10094.22773008973,12108.22360793471,150,10,2025-09-15,2025-09-26 16:23:53.531,HH,C,704635718,HAWK11,1,1,73,2,1,1,225,2,1,0,0,12,1,225,2,1,-148823.49255545562,-4789667.545869674,4200692.329557896,3.03479,2.04154,-0.828637,-40.125,78.125,87.5,-0.046875,-6.98438,6.625,-0.224609,-0.00976562,0.0898438,4,0,41.42883880507855,-91.77970921571487,12111.065138353648,-18.990379374143547,2.486652001928651,15.04150434399114,181.485,10094.22773008973,12108.22360793471,150,False,10.108629727811556,False,176.01688966315908,177.9759032121598,False,2.5206662525861114,True,False
10,1970-07-23 11:12:14.344331434,2025-09-15,2025-09-26 16:23:54.433,HH,C,1756279744,JASSM,3,101,76,2,2,1,225,9,2,0,1,26,0,0,0,0,-155515.14489920562,-4777758.952119674,4213390.030729771,-2.71083,-1.01118,0.751842,32.625,-52.0,-57.375,0.0,0.0,0.0,0.0,0.0,0.0,2,0,41.58412285093448,-91.86430850278543,10997.376030132078,155.94019443172806,0.001037173786764,0.0048407898311835,,10094.22773008973,12108.22360793471,150,10,2025-09-15,2025-09-26 16:23:54.421,HH,C,705868484,HAWK11,1,1,73,2,1,1,225,2,1,0,0,12,1,225,2,1,-148863.99841483062,-4789586.570283736,4200782.226042271,2.86289,1.96436,-0.84321,-38.625,78.5,88.0,0.03125,-7.25,6.95312,-0.146484,0.0195312,-0.0234375,4,0,41.42991977658316,-91.78022337197876,12110.223914910724,-15.915320641976356,2.28022871628344,2.0386597123300296,182.634,10094.22773008973,12108.22360793471,150,True,9.992164536975057,False,175.26945963539458,177.9785886623184,False,3.207733137622593,True,False
10,1970-07-23 11:12:14.354394620,2025-09-15,2025-09-26 16:23:55.439,HH,C,1757473724,JASSM,3,101,76,2,2,1,225,9,2,0,1,26,0,0,0,0,-155482.47204764312,-4777811.116182174,4213332.472136021,-2.71083,-1.01118,0.751938,32.625,-52.0,-57.375,0.0,0.0,0.0,0.0,0.0,0.0,2,0,41.58343036741172,-91.86389676257518,10997.375707750236,155.94276032048512,-0.0031949568112052,0.0048396641453119,,10094.22773008973,12108.22360793471,150,10,2025-09-15,2025-09-26 16:23:55.421,HH,C,706981950,HAWK11,1,1,73,2,1,1,225,2,1,0,0,12,1,225,2,1,-148899.77771170562,-4789512.389619674,4200865.198698521,2.69242,2.03089,-0.823556,-38.375,78.375,88.25,-0.109375,-7.07812,6.5625,-0.0820312,-0.00390625,-0.0527344,4,0,41.430914464669335,-91.78067853249324,12110.704470273577,-18.70890184178201,2.069240313144049,-5.011693111202145,182.389,10094.22773008973,12108.22360793471,150,True,9.883753222290828,False,175.13363550125857,177.98395169168404,False,3.388100915873818,True,False
10,1970-07-23 11:12:14.364390951,2025-09-15,2025-09-26 16:23:56.439,HH,C,1758666770,JASSM,3,101,76,2,2,1,225,9,2,0,1,26,0,0,0,0,-155449.82556326812,-4777863.237275924,4213274.960417271,-2.71083,-1.01109,0.751938,32.625,-52.0,-57.375,0.0,0.0,0.0,0.0,0.0,0.0,2,0,41.58273844923676,-91.86348536376906,10997.377824587238,155.93938888760954,-0.0041122613480133,0.001087827939436,,10094.22773008973,12108.22360793471,150,10,2025-09-15,2025-09-26 16:23:56.421,HH,C,708254482,HAWK11,1,1,73,2,1,1,225,2,1,0,0,12,1,225,2,1,-148941.06091483062,-4789428.984346236,4200958.247526646,2.65983,2.02342,-0.822789,-39.25,78.375,88.0,-0.171875,-7.04688,6.5,-0.0117188,-0.00390625,0.0195312,4,0,41.43203101684973,-91.7812029146348,12110.808976537432,-18.4517915804796,1.9269205414250945,-7.184575512915467,182.145,10094.22773008973,12108.22360793471,150,True,9.76743562187898,False,175.5499674472633,177.98840983300045,False,3.0039205079464635,True,False
10,1970-07-23 11:12:14.374191969,2025-09-15,2025-09-26 16:23:57.419,HH,C,1759740720,JASSM,3,101,76,2,2,1,225,9,2,0,1,26,0,0,0,0,-155420.43786795562,-4777910.157197799,4213223.183073521,-2.71083,-1.01109,0.751938,32.625,-52.0,-57.375,0.0,0.0,0.0,0.0,0.0,0.0,2,0,41.5821155443324,-91.8631150379012,10997.372636658947,155.93963467178014,-0.0034305422720022,0.0010868060729198,,10094.22773008973,12108.22360793471,150,10,2025-09-15,2025-09-26 16:23:57.625,HH,C,709646314,HAWK11,1,1,73,2,1,1,225,2,1,0,0,12,1,225,2,1,-148987.71130545562,-4789336.990205611,4201061.108854771,2.68562,2.03339,-0.819625,-40.25,78.375,87.5,-0.03125,-7.01562,6.51562,0.00585938,-0.00976562,-0.0410156,4,0,41.43326389464876,-91.78179465455426,12111.520511947983,-18.880564285335147,1.8956543408338111,-5.303011413309056,182.512,10094.22773008973,12108.22360793471,150,True,9.64804264792349,False,176.05407987753097,177.992150731844,False,2.516915568024358,True,False
10,1970-07-23 11:12:14.383310669,2025-09-15,2025-09-26 16:23:58.331,HH,C,1760931986,JASSM,3,101,76,2,2,1,225,9,2,0,1,26,0,0,0,0,-155387.83923514312,-4777962.200166549,4213165.753386021,-2.71083,-1.01109,0.751938,32.625,-52.0,-57.375,0.0,0.0,0.0,0.0,0.0,0.0,2,0,41.58142463244771,-91.86270425943523,10997.372500651629,155.9399073006809,-0.0026743872233012,0.001085693585581,,10094.22773008973,12108.22360793471,150,10,2025-09-15,2025-09-26 16:23:58.327,HH,C,710481412,HAWK11,1,1,73,2,1,1,225,2,1,0,0,12,1,225,2,1,-149016.11364920562,-4789281.950166549,4201122.161589146,2.6675,2.04719,-0.808312,-40.75,78.625,87.125,-0.234375,-6.53125,6.34375,-0.0175781,-0.00390625,-0.0214844,4,0,41.43399813209178,-91.78215457649122,12110.927068781444,-19.62117358767775,1.4872197411968286,-5.787971128067064,182.108,10094.22773008973,12108.22360793471,150,True,9.555817961478267,False,176.29962491523628,177.9888727784696,False,2.2194593338544353,True,False
10,1970-07-23 11:12:14.392348610,2025-09-15,2025-09-26 16:23:59.234,HH,C,1762005728,JASSM,3,101,76,2,2,1,225,9,2,0,1,26,0,0,0,0,-155358.45642264312,-4778009.108369674,4213113.987761021,-2.71083,-1.01109,0.751938,32.625,-52.0,-57.375,0.0,0.0,0.0,0.0,0.0,0.0,2,0,41.58080187277304,-91.8623340116348,10997.370715689967,155.94015302666187,-0.0019928222600162,0.0010846889196489,,10094.22773008973,12108.22360793471,150,10,2025-09-15,2025-09-26 16:23:59.218,HH,C,711634644,HAWK11,1,1,73,2,1,1,225,2,1,0,0,12,1,225,2,1,-149055.04724295562,-4789206.042939986,4201205.696745396,2.67881,2.0355,-0.812626,-41.25,78.875,86.875,0.03125,-7.04688,6.71875,0.015625,0.0136719,0.0117188,4,0,41.43500629908683,-91.78264813713872,12108.654506114335,-19.1014009802725,1.55228657245673,-5.611575752376727,182.438,10094.22773008973,12108.22360793471,150,True,9.450581742045463,False,176.52131052009048,177.98957413469387,False,1.9587191193589526,True,False
10,1970-07-23 11:12:14.402392628,2025-09-15,2025-09-26 16:24:00.239,HH,C,1763080728,JASSM,3,101,76,2,2,1,225,9,2,0,1,26,0,0,0,0,-155329.04040701812,-4778056.071260299,4213062.163542271,-2.71083,-1.01109,0.751938,32.625,-52.0,-57.375,0.0,0.0,0.0,0.0,0.0,0.0,2,0,41.58017839741875,-91.8619633519193,10997.375800534166,155.94039902299534,-0.0013104770828571,0.0010836791970893,,10094.22773008973,12108.22360793471,150,10,2025-09-15,2025-09-26 16:23:59.921,HH,C,712469744,HAWK11,1,1,73,2,1,1,225,2,1,0,0,12,1,225,2,1,-149083.89489920562,-4789150.730439986,4201266.540495396,2.68878,2.03847,-0.812243,-41.625,78.875,86.875,-0.1875,-7.25,6.89062,0.015625,0.0,-0.0195312,4,0,41.4357406631628,-91.78301350217453,12106.980809532964,-19.21890920086823,1.574453518182334,-4.919842088543201,182.719,10094.22773008973,12108.22360793471,150,True,9.362682343611679,False,176.68410110778254,177.9864170797027,False,1.8228774126671,True,False
10,1970-07-23 11:12:14.411170922,2025-09-15,2025-09-26 16:24:01.117,HH,C,1764213986,JASSM,3,101,76,2,2,1,225,9,2,0,1,26,0,0,0,0,-155298.02868826812,-4778105.579072799,4213007.526823521,-2.71083,-1.01109,0.751938,32.625,-52.0,-57.375,0.0,0.0,0.0,0.0,0.0,0.0,2,0,41.57952110696506,-91.86157259411743,10997.375219762249,155.9406583545783,-0.0005911243104658,0.0010826169871308,,10094.22773008973,12108.22360793471,150,10,2025-09-15,2025-09-26 16:24:01.124,HH,C,713821808,HAWK11,1,1,73,2,1,1,225,2,1,0,0,12,1,225,2,1,-149131.82263358062,-4789060.786104049,4201365.419401646,2.67574,2.0563,-0.8086,-42.375,78.75,86.75,-0.1875,-7.1875,6.78125,0.00585938,-0.00195312,-0.00585938,4,0,41.43693422659951,-91.78361981436014,12104.215512021648,-19.95139213552176,1.6381206410645306,-4.9470761410801805,182.719,10094.22773008973,12108.22360793471,150,True,9.242968715530429,False,177.0363290838764,177.98336451420397,False,1.544586274091883,True,False
10,1970-07-23 11:12:14.420322024,2025-09-15,2025-09-26 16:24:02.032,HH,C,1765347332,JASSM,3,101,76,2,2,1,225,9,2,0,1,26,0,0,0,0,-155267.01501639312,-4778155.088838424,4212952.886198521,-2.71083,-1.01109,0.751938,32.625,-52.0,-57.375,0.0,0.0,0.0,0.0,0.0,0.0,2,0,41.578863777533286,-91.86118182008408,10997.374063721398,155.94091769356672,0.0001282702214465,0.0010815559461812,,10094.22773008973,12108.22360793471,150,10,2025-09-15,2025-09-26 16:24:02.031,HH,C,714776208,HAWK11,1,1,73,2,1,1,225,2,1,0,0,12,1,225,2,1,-149165.81872733062,-4788997.644502486,4201434.892057896,2.66951,2.05448,-0.81301,-42.875,78.625,86.75,-0.171875,-7.23438,6.90625,-0.00585938,0.0117188,0.00390625,4,0,41.43777244775351,-91.78404965234208,12102.435221767131,-19.791327669296056,1.847185033629714,-5.374895129141304,182.891,10094.22773008973,12108.22360793471,150,True,9.145984576640691,False,177.26583368973954,177.97734466867087,False,1.4086673310673716,True,False
10,1970-07-23 11:12:14.430351791,2025-09-15,2025-09-26 16:24:03.035,HH,C,1766480586,JASSM,3,101,76,2,2,1,225,9,2,0,1,26,0,0,0,0,-155236.00427420562,-4778204.594697799,4212898.249479771,-2.71083,-1.01109,0.751938,32.625,-52.0,-57.375,0.0,0.0,0.0,0.0,0.0,0.0,2,0,41.5782064957419,-91.86079109058872,10997.375359588968,155.94117699963073,0.0008476088869807,0.0010804898775652,,10094.22773008973,12108.22360793471,150,10,2025-09-15,2025-09-26 16:24:02.667,HH,C,715213640,HAWK11,1,1,73,2,1,1,225,2,1,0,0,12,1,225,2,1,-149181.33825858062,-4788969.370088424,4201466.138151646,2.66596,2.05601,-0.813585,-43.125,78.5,86.75,-0.046875,-7.28125,6.875,-0.00976562,0.00585938,-0.0078125,4,0,41.43814866449349,-91.78424567615907,12101.959131075626,-19.83540039909113,1.9005448538723877,-5.515716351713383,182.964,10094.22773008973,12108.22360793471,150,True,9.07863358645504,False,177.38663298913832,177.96848467073926,False,1.3620099253417286,True,False
10,1970-07-23 11:12:14.439392287,2025-09-15,2025-09-26 16:24:03.939,HH,C,1767555068,JASSM,3,101,76,2,2,1,225,9,2,0,1,26,0,0,0,0,-155206.60193045562,-4778251.532197799,4212846.444792271,-2.71083,-1.01109,0.752034,32.625,-52.0,-57.375,0.0,0.0,0.0,0.0,0.0,0.0,2,0,41.57758329551616,-91.86042063419832,10997.374116765232,155.94371721271713,-0.0034633174254169,0.0010794370840662,,10094.22773008973,12108.22360793471,150,10,2025-09-15,2025-09-26 16:24:04.125,HH,C,717480338,HAWK11,1,1,73,2,1,1,225,2,1,0,0,12,1,225,2,1,-149264.63708670562,-4788819.477510299,4201631.036589146,2.65024,2.0725,-0.808408,-44.375,78.375,86.375,-0.078125,-7.15625,6.79688,0.00390625,0.00195312,0.0,4,0,41.440137879219314,-91.7852971490534,12097.90672815882,-20.551023812867232,1.8722751437594365,-5.755082786194157,183.208,10094.22773008973,12108.22360793471,150,True,8.909406544403527,False,177.98269712309786,177.95983687825995,False,1.0383112139590087,True,False
10,1970-07-23 11:12:14.449171048,2025-09-15,2025-09-26 16:24:04.917,HH,C,1768747764,JASSM,3,101,76,2,2,1,225,9,2,0,1,26,0,0,0,0,-155173.96423514312,-4778303.631807174,4212788.940886021,-2.71083,-1.01109,0.752034,32.625,-52.0,-57.375,0.0,0.0,0.0,0.0,0.0,0.0,2,0,41.57689154332933,-91.8600094232396,10997.372096314615,155.94399010432318,-0.0027062543075802,0.0010783510686409,,10094.22773008973,12108.22360793471,150,10,2025-09-15,2025-09-26 16:24:04.719,HH,C,718196138,HAWK11,1,1,73,2,1,1,225,2,1,0,0,12,1,225,2,1,-149291.04528983062,-4788772.385713424,4201682.813932896,2.64918,2.07624,-0.807353,-44.625,78.25,86.375,-0.09375,-7.04688,6.76562,0.00390625,0.00195312,-0.0078125,4,0,41.44076259063806,-91.785630350975,12096.595212460925,-20.711228536957417,1.8736971939098768,-5.665863051137354,183.294,10094.22773008973,12108.22360793471,150,True,8.82366258139176,False,178.10388244862384,177.9489209589672,False,1.065698123434517,True,False
10,1970-07-23 11:12:14.459191325,2025-09-15,2025-09-26 16:24:05.919,HH,C,1769939486,JASSM,3,101,76,2,2,1,225,9,2,0,1,26,0,0,0,0,-155141.35290701812,-4778355.690400924,4212731.483854771,-2.71083,-1.01109,0.752034,32.625,-52.0,-57.375,0.0,0.0,0.0,0.0,0.0,0.0,2,0,41.576200344848,-91.859598552835,10997.377270050016,155.9442627662039,-0.0019497993038238,0.0010772647382269,,10094.22773008973,12108.22360793471,150,10,2025-09-15,2025-09-26 16:24:05.827,HH,C,719508436,HAWK11,1,1,73,2,1,1,225,2,1,0,0,12,1,225,2,1,-149340.30700858062,-4788686.725557174,4201776.931120396,2.64305,2.08238,-0.806874,-45.5,78.25,86.0,0.046875,-7.25,6.90625,0.00585938,0.00390625,-0.00585938,4,0,41.44189826798895,-91.78625110685174,12094.167559335472,-20.94669674290621,1.943288997126948,-5.771300945739355,183.416,10094.22773008973,12108.22360793471,150,True,8.704692864229067,False,178.52081763138082,177.93376194318196,False,1.0008710374761938,True,False
10,1970-07-23 11:12:14.468354032,2025-09-15,2025-09-26 16:24:06.835,HH,C,1771013228,JASSM,3,101,76,2,2,1,225,9,2,0,1,26,0,0,0,0,-155111.97009451812,-4778402.592744674,4212679.714323521,-2.71083,-1.01109,0.752034,32.625,-52.0,-57.375,0.0,0.0,0.0,0.0,0.0,0.0,2,0,41.57557758328499,-91.85922836698565,10997.377418896634,155.9445084258061,-0.001268242300234,0.0010762892521803,,10094.22773008973,12108.22360793471,150,10,2025-09-15,2025-09-26 16:24:06.921,HH,C,720820734,HAWK11,1,1,73,2,1,1,225,2,1,0,0,12,1,225,2,1,-149391.31872733062,-4788600.264619674,4201871.827604771,2.62752,2.09024,-0.806203,-46.375,77.875,85.875,-0.3125,-7.23438,6.84375,0.0117188,0.0,-0.00195312,4,0,41.44304364098437,-91.78689310159206,12091.607493285985,-21.24933303199453,2.03067223237081,-6.346454775376839,183.575,10094.22773008973,12108.22360793471,150,True,8.589314578428102,False,178.95590354963014,177.91550139512253,False,1.2925633501140048,True,False
10,1970-07-23 11:12:14.477129351,2025-09-15,2025-09-26 16:24:07.712,HH,C,1772086970,JASSM,3,101,76,2,2,1,225,9,2,0,1,26,0,0,0,0,-155082.58825858062,-4778449.493135299,4212627.944792271,-2.71083,-1.01109,0.752034,32.625,-52.0,-57.375,0.0,0.0,0.0,0.0,0.0,0.0,2,0,41.57495483193086,-91.8588582007044,10997.375811967924,155.9447540694014,-0.000586699493309,0.00107530992053,,10094.22773008973,12108.22360793471,150,10,2025-09-15,2025-09-26 16:24:07.718,HH,C,721695600,HAWK11,1,1,73,2,1,1,225,2,1,0,0,12,1,225,2,1,-149425.61364920562,-4788543.079072799,4201934.558073521,2.62445,2.10165,-0.808504,-47.0,77.75,85.625,0.0,-7.46875,7.0,0.0527344,0.0078125,0.0,4,0,41.44380085739,-91.78732437294197,12089.887624797626,-21.612640920335632,2.331581505407452,-6.063770860307368,183.783,10094.22773008973,12108.22360793471,150,True,8.499074024917087,False,179.26652895314578,177.89816420563764,False,1.4871709518816016,True,False
10,1970-07-23 11:12:14.487169672,2025-09-15,2025-09-26 16:24:08.716,HH,C,1773282016,JASSM,3,101,76,2,2,1,225,9,2,0,1,26,0,0,0,0,-155049.88611014312,-4778501.694307174,4212570.323698521,-2.71083,-1.01099,0.752034,32.625,-52.0,-57.375,0.0,0.0,0.0,0.0,0.0,0.0,2,0,41.574261691226674,-91.8584462116153,10997.376536825965,155.94137888726337,-0.0015048634635882,-0.0026817745187436,,10094.22773008973,12108.22360793471,150,10,2025-09-15,2025-09-26 16:24:08.718,HH,C,722968132,HAWK11,1,1,73,2,1,1,225,2,1,0,0,12,1,225,2,1,-149475.61364920562,-4788460.776338424,4202025.460417271,2.7022,2.10347,-0.800354,-47.5,77.625,85.5,0.0,-6.4375,6.07812,0.0605469,-0.00195312,-0.00585938,4,0,41.44489471525181,-91.78795276012303,12088.813902475054,-21.866490699772616,1.9338824585344496,-1.5430212380331172,183.538,10094.22773008973,12108.22360793471,150,True,8.382171433152015,False,179.50912511084024,177.87371100410877,False,1.697639887493362,True,False
10,1970-07-23 11:12:14.498188688,2025-09-15,2025-09-26 16:24:09.818,HH,C,1774592368,JASSM,3,101,76,2,2,1,225,9,2,0,1,26,0,0,0,0,-155014.02868826812,-4778558.930635299,4212507.142057896,-2.71074,-1.01099,0.752034,32.625,-52.0,-57.375,0.0,0.0,0.0,0.0,0.0,0.0,2,0,41.57350167327829,-91.85799448237682,10997.375802688308,155.9416786481511,-0.0006731012137532,0.0028084441847146,,10094.22773008973,12108.22360793471,150,10,2025-09-15,2025-09-26 16:24:09.920,HH,C,724320198,HAWK11,1,1,73,2,1,1,225,2,1,0,0,12,1,225,2,1,-149529.56286795562,-4788371.602510299,4202122.694792271,2.88082,2.08986,-0.808983,-47.0,78.25,85.25,-0.109375,-6.96875,6.73438,0.34375,0.00390625,0.0136719,4,0,41.44607145353133,-91.78863094211016,12084.913697001031,-21.17394949984983,2.1745315739542384,8.15352523681605,184.186,10094.22773008973,12108.22360793471,150,True,8.25543294191264,False,179.18597092873782,177.84754683522874,False,1.3476219825632736,True,False
10,1970-07-23 11:12:14.508670553,2025-09-15,2025-09-26 16:24:10.867,HH,C,1775786894,JASSM,3,101,76,2,2,1,225,9,2,0,1,26,0,0,0,0,-154981.34021170562,-4778611.106416549,4212449.546354771,-2.71074,-1.01099,0.752034,32.625,-52.0,-57.375,0.0,0.0,0.0,0.0,0.0,0.0,2,0,41.57280884913406,-91.85758268537246,10997.378286636917,155.9419519066731,8.51273598660924e-05,0.0028073123309746,,10094.22773008973,12108.22360793471,150,10,2025-09-15,2025-09-26 16:24:10.827,HH,C,725234830,HAWK11,1,1,73,2,1,1,225,2,1,0,0,12,1,225,2,1,-149564.48474295562,-4788311.657197799,4202187.983854771,-3.13459,2.07481,-0.816365,-45.0,78.875,85.75,-0.265625,-6.98438,6.8125,0.201172,0.0136719,0.00976562,4,0,41.44686223557091,-91.78907077911452,12082.03210248002,-20.4631648505286,2.335573343845598,22.897692026808336,183.624,10094.22773008973,12108.22360793471,150,False,8.158585687925342,False,178.22743161112297,177.83048068916588,False,0.74112226495155,True,False
10,1970-07-23 11:12:14.518671369,2025-09-15,2025-09-26 16:24:11.867,HH,C,1777040326,JASSM,3,101,76,2,2,1,225,9,2,0,1,26,0,0,0,0,-154947.04040701812,-4778665.852510299,4212389.108854771,-2.71074,-1.01099,0.75213,32.625,-52.0,-57.375,0.0,0.0,0.0,0.0,0.0,0.0,2,0,41.57208186302424,-91.85715059955676,10997.374983665244,155.94453189055093,-0.0041089695968984,0.0028060561345996,,10094.22773008973,12108.22360793471,150,10,2025-09-15,2025-09-26 16:24:11.747,HH,C,726189228,HAWK11,1,1,73,2,1,1,225,2,1,0,0,12,1,225,2,1,-149599.75818045562,-4788247.411104049,4202257.089323521,3.08886,2.01143,-0.821543,-42.75,78.625,87.0,0.015625,-7.0625,6.5625,-0.232422,0.0,0.078125,4,0,41.44770429810417,-91.78951643587166,12076.899018742191,-18.043002256990363,1.715551716163082,16.908458000044188,183.66,10094.22773008973,12108.22360793471,150,False,8.056548834758305,False,177.18167506588549,177.81905418075988,False,1.5406733835443087,True,False
10,1970-07-23 11:12:14.529370614,2025-09-15,2025-09-26 16:24:12.937,HH,C,1778292614,JASSM,3,101,76,2,2,1,225,9,2,0,1,26,0,0,0,0,-154912.77185233062,-4778720.549775924,4212328.726042271,-2.71074,-1.01099,0.75213,32.625,-52.0,-57.375,0.0,0.0,0.0,0.0,0.0,0.0,2,0,41.57135552874634,-91.85671891667536,10997.37746595776,155.9448183368314,-0.003314074122887,0.0028048941208091,,10094.22773008973,12108.22360793471,150,10,2025-09-15,2025-09-26 16:24:13.126,HH,C,728217326,HAWK11,1,1,73,2,1,1,225,2,1,0,0,12,1,225,2,1,-149669.93786795562,-4788110.038057174,4202403.970182896,2.75733,2.00606,-0.81627,-40.5,80.625,87.0,0.0625,-7.48438,7.04688,-0.138672,-0.00390625,-0.0507812,4,0,41.44949984062188,-91.79040671368118,12063.621041376176,-17.948323237388287,1.362001352791841,-2.308945917514684,184.968,10094.22773008973,12108.22360793471,150,True,7.894042697886506,False,175.96100007675255,177.82549013873316,False,2.212485997169465,True,False
10,1970-07-23 11:12:14.539148547,2025-09-15,2025-09-26 16:24:13.914,HH,C,1779485836,JASSM,3,101,76,2,2,1,225,9,2,0,1,26,0,0,0,0,-154880.11950858062,-4778772.665010299,4212271.188932896,-2.71074,-1.01099,0.75213,32.625,-52.0,-57.375,0.0,0.0,0.0,0.0,0.0,0.0,2,0,41.5706634486181,-91.85630760319836,10997.373183572648,155.94509126302322,-0.0025566681700697,0.0028037861030408,,10094.22773008973,12108.22360793471,150,10,2025-09-15,2025-09-26 16:24:14.031,HH,C,729211492,HAWK11,1,1,73,2,1,1,225,2,1,0,0,12,1,225,2,1,-149703.93591483062,-4788041.696260299,4202477.431120396,2.69866,2.01977,-0.798245,-40.75,80.875,87.0,0.125,-6.79688,6.5,-0.00976562,-0.00390625,0.0,4,0,41.45039589901168,-91.7908386904116,12057.79874614979,-18.812135949602627,0.5780605072665679,-5.117873529677208,184.687,10094.22773008973,12108.22360793471,150,True,7.791526644135888,False,176.02974505363028,177.82542330959683,False,2.1203853642279076,True,False
10,1970-07-23 11:12:14.550170861,2025-09-15,2025-09-26 16:24:15.017,HH,C,1780797842,JASSM,3,101,76,2,2,1,225,9,2,0,1,26,0,0,0,0,-154844.21716483062,-4778829.969697799,4212207.925261021,-2.71074,-1.01099,0.75213,32.625,-52.0,-57.375,0.0,0.0,0.0,0.0,0.0,0.0,2,0,41.56990247022965,-91.8558553595402,10997.378859079488,155.94539134404357,-0.0017238642624596,0.0028025637528389,,10094.22773008973,12108.22360793471,150,10,2025-09-15,2025-09-26 16:24:15.125,HH,C,730603324,HAWK11,1,1,73,2,1,1,225,2,1,0,0,12,1,225,2,1,-149751.68396170562,-4787946.465791549,4202579.106901646,2.75263,2.01105,-0.799683,-41.25,81.375,87.0,-0.140625,-7.07812,6.60938,0.0292969,0.0,-0.0136719,4,0,41.45163979470497,-91.7914451132651,12048.22998132833,-18.4567792777905,0.5370534644516164,-2.379974950332633,185.408,10094.22773008973,12108.22360793471,150,True,7.662207730505807,False,176.15937289533994,177.82818062877004,False,1.9376997891291503,True,False
10,1970-07-23 11:12:14.560307265,2025-09-15,2025-09-26 16:24:16.030,HH,C,1782050560,JASSM,3,101,76,2,2,1,225,9,2,0,1,26,0,0,0,0,-154809.93689139312,-4778884.680635299,4212147.519011021,-2.71074,-1.01099,0.75213,32.625,-52.0,-57.375,0.0,0.0,0.0,0.0,0.0,0.0,2,0,41.56917589369078,-91.85542356001852,10997.375001045044,155.94567785538447,-0.0009287075377165,0.0028014045526192,,10094.22773008973,12108.22360793471,150,10,2025-09-15,2025-09-26 16:24:15.920,HH,C,731478190,HAWK11,1,1,73,2,1,1,225,2,1,0,0,12,1,225,2,1,-149781.82458670562,-4787886.260713424,4202643.007292271,2.75465,2.02092,-0.795944,-41.375,81.625,87.0,0.0,-7.1875,6.82812,-0.0117188,0.0214844,-0.0136719,4,0,41.45242363864676,-91.79182795994036,12041.358695417794,-18.90169839821828,0.4725283662978081,-1.863490769501721,185.616,10094.22773008973,12108.22360793471,150,True,7.5644953606900165,False,176.16805708463045,177.82571076189916,False,1.900844916510166,True,False
10,1970-07-23 11:12:14.571327088,2025-09-15,2025-09-26 16:24:17.132,HH,C,1783302950,JASSM,3,101,76,2,2,1,225,9,2,0,1,26,0,0,0,0,-154775.66443045562,-4778939.379854049,4212087.126432896,-2.71074,-1.01099,0.75213,32.625,-52.0,-57.375,0.0,0.0,0.0,0.0,0.0,0.0,2,0,41.56844947591282,-91.85499186828602,10997.376801754855,155.9459642910929,-0.0001337271709145,0.0028002437160401,,10094.22773008973,12108.22360793471,150,10,2025-09-15,2025-09-26 16:24:16.546,HH,C,731915622,HAWK11,1,1,73,2,1,1,225,2,1,0,0,12,1,225,2,1,-149796.78552420562,-4787856.832979049,4202674.304167271,2.75024,2.02102,-0.800546,-41.5,81.625,87.0,0.046875,-7.4375,7.09375,-0.00585938,0.0214844,0.0175781,4,0,41.45280715633389,-91.7920178268253,12038.155870778495,-18.81389726664224,0.721545191724454,-2.111320904177888,185.97,10094.22773008973,12108.22360793471,150,True,7.492306062712204,False,176.22007185742217,177.81667788395308,False,1.8433882626931513,True,False
10,1970-07-23 11:12:14.581367523,2025-09-15,2025-09-26 16:24:18.136,HH,C,1784554306,JASSM,3,101,76,2,2,1,225,9,2,0,1,26,0,0,0,0,-154741.42126639312,-4778994.030244674,4212026.784636021,-2.71074,-1.01099,0.75213,32.625,-52.0,-57.375,0.0,0.0,0.0,0.0,0.0,0.0,2,0,41.56772368405576,-91.85456055603512,10997.375704694716,155.94625047090256,0.0006605673908321,0.002799086028081,,10094.22773008973,12108.22360793471,150,10,2025-09-15,2025-09-26 16:24:18.031,HH,C,733983488,HAWK11,1,1,73,2,1,1,225,2,1,0,0,12,1,225,2,1,-149869.20349295562,-4787714.797822799,4202827.472136021,2.73518,2.02332,-0.813489,-41.875,80.875,88.125,0.09375,-7.625,7.25,-0.0292969,0.00976562,-0.0117188,4,0,41.45467243037526,-91.79293675118568,12027.31385225808,-18.641942824339083,1.4505026106708767,-2.8751996170120524,186.422,10094.22773008973,12108.22360793471,150,True,7.325475608525569,False,176.43202271982804,177.8233739534513,False,1.93671495717525,True,False
10,1970-07-23 11:12:14.592673052,2025-09-15,2025-09-26 16:24:19.267,HH,C,1785749282,JASSM,3,101,76,2,2,1,225,9,2,0,1,26,0,0,0,0,-154708.72107108062,-4779046.219697799,4211969.159636021,-2.71074,-1.01099,0.752226,32.625,-52.0,-57.375,0.0,0.0,0.0,0.0,0.0,0.0,2,0,41.56703057034423,-91.85414868676388,10997.377553342583,155.94881843936068,-0.0035737179749579,0.0027979280409752,,10094.22773008973,12108.22360793471,150,10,2025-09-15,2025-09-26 16:24:18.950,HH,C,734699286,HAWK11,1,1,73,2,1,1,225,2,1,0,0,12,1,225,2,1,-149894.21130545562,-4787666.225557174,4202880.628386021,2.71793,2.02706,-0.815598,-42.125,80.625,88.375,-0.25,-7.75,7.34375,-0.0136719,0.00976562,0.00195312,4,0,41.45531549746797,-91.79325391393508,12025.317984699534,-18.737600251581306,1.6158463974890585,-3.710661858302523,186.544,10094.22773008973,12108.22360793471,150,True,7.238893458113939,False,176.547410970206,177.81564013273234,False,1.9305774173547243,True,False
10,1970-07-23 11:12:14.603149127,2025-09-15,2025-09-26 16:24:20.314,HH,C,1787059704,JASSM,3,101,76,2,2,1,225,9,2,0,1,26,0,0,0,0,-154672.86169608062,-4779103.448213424,4211905.968229771,-2.71074,-1.01099,0.752226,32.625,-52.0,-57.375,0.0,0.0,0.0,0.0,0.0,0.0,2,0,41.56627051581125,-91.8536970379051,10997.378149080443,155.94911810430577,-0.0027419312532388,0.0027967473682037,,10094.22773008973,12108.22360793471,150,10,2025-09-15,2025-09-26 16:24:20.420,HH,C,736886452,HAWK11,1,1,73,2,1,1,225,2,1,0,0,12,1,225,2,1,-149972.09607108062,-4787519.563447799,4203044.520964146,2.68955,2.03914,-0.821447,-43.125,79.125,89.875,-0.09375,-7.5625,7.32812,-0.00390625,0.00195312,-0.00390625,4,0,41.45727962394527,-91.79424000423332,12026.854471153243,-19.06145652057099,2.0991914062425834,-4.841691473183744,186.789,10094.22773008973,12108.22360793471,150,True,7.063184477158107,False,176.8632939444039,177.80733476842985,False,2.3723998585412422,True,False
10,1970-07-23 11:12:14.612741548,2025-09-15,2025-09-26 16:24:21.274,HH,C,1788193098,JASSM,3,101,76,2,2,1,225,9,2,0,1,26,0,0,0,0,-154641.84607108062,-4779152.944307174,4211851.311979771,-2.71074,-1.01099,0.752226,32.625,-52.0,-57.375,0.0,0.0,0.0,0.0,0.0,0.0,2,0,41.56561313488276,-91.85330640547537,10997.375705932202,155.94937728177126,-0.0020225082846528,0.0027957295714199,,10094.22773008973,12108.22360793471,150,10,2025-09-15,2025-09-26 16:24:21.326,HH,C,737880616,HAWK11,1,1,73,2,1,1,225,2,1,0,0,12,1,225,2,1,-150007.98864920562,-4787454.450166549,4203118.436979771,2.67641,2.04662,-0.821159,-43.75,78.875,89.875,-0.203125,-7.34375,7.01562,-0.0078125,0.0117188,-0.0136719,4,0,41.45815916053653,-91.79469352899628,12030.151214388094,-19.340033116284644,2.1903770375359484,-5.290991763873158,186.703,10094.22773008973,12108.22360793471,150,True,6.963496976610113,False,177.11987769514863,177.79132390924482,False,2.331476931314601,True,False
10,1970-07-23 11:12:14.622667948,2025-09-15,2025-09-26 16:24:22.266,HH,C,1789446814,JASSM,3,101,76,2,2,1,225,9,2,0,1,26,0,0,0,0,-154607.53845389312,-4779207.696260299,4211790.851042271,-2.71074,-1.01089,0.752226,32.625,-52.0,-57.375,0.0,0.0,0.0,0.0,0.0,0.0,2,0,41.5648859405352,-91.85287431971052,10997.375033396893,155.94602067912004,-0.0029012850697392,-0.0009574143148129,,10094.22773008973,12108.22360793471,150,10,2025-09-15,2025-09-26 16:24:22.218,HH,C,738994082,HAWK11,1,1,73,2,1,1,225,2,1,0,0,12,1,225,2,1,-150049.20349295562,-4787380.272432174,4203202.847136021,2.66855,2.05448,-0.82068,-44.375,78.75,89.625,-0.171875,-7.04688,6.82812,0.0,0.00585938,-0.015625,4,0,41.459162451874896,-91.79521409741209,12034.382560025966,-19.636269665583413,2.278518723174965,-5.423313908497905,186.703,10094.22773008973,12108.22360793471,150,True,6.851216767006114,False,177.42111673776392,177.7714984162726,False,2.219666613117424,True,False
10,1970-07-23 11:12:14.633351941,2025-09-15,2025-09-26 16:24:23.335,HH,C,1790699822,JASSM,3,101,76,2,2,1,225,9,2,0,1,26,0,0,0,0,-154573.24939139312,-4779262.415010299,4211730.425261021,-2.71074,-1.01089,0.752226,32.625,-52.0,-57.375,0.0,0.0,0.0,0.0,0.0,0.0,2,0,41.56415917573877,-91.85244247870436,10997.374926872288,155.94630718972255,-0.0021059335467252,-0.0009585902637179,,10094.22773008973,12108.22360793471,150,10,2025-09-15,2025-09-26 16:24:23.666,HH,C,740147314,HAWK11,1,1,73,2,1,1,225,2,1,0,0,12,1,225,2,1,-150091.94177420562,-4787304.948213424,4203288.358854771,2.66462,2.06042,-0.816078,-45.0,78.625,89.5,-0.0625,-6.73438,6.54688,0.00195312,-0.0117188,-0.00390625,4,0,41.46017971200418,-91.79575332644596,12038.3140269718,-19.950879335611003,2.1212281773578,-5.41192162327661,186.862,10094.22773008973,12108.22360793471,150,True,6.737871744452631,False,177.69384980056356,177.74781810394452,False,2.186090340201947,True,False
10,1970-07-23 11:12:14.644367367,2025-09-15,2025-09-26 16:24:24.436,HH,C,1792012650,JASSM,3,101,76,2,2,1,225,9,2,0,1,26,0,0,0,0,-154537.32361014312,-4779319.745088424,4211667.112761021,-2.71074,-1.01089,0.752226,32.625,-52.0,-57.375,0.0,0.0,0.0,0.0,0.0,0.0,2,0,41.56339770553272,-91.85199003524365,10997.372500715792,155.94660736488103,-0.0012726056853597,-0.0009598277786254,,10094.22773008973,12108.22360793471,150,10,2025-09-15,2025-09-26 16:24:24.326,HH,C,741380080,HAWK11,1,1,73,2,1,1,225,2,1,0,0,12,1,225,2,1,-150138.88513358062,-4787222.604463424,4203381.302214146,2.81265,2.06263,-0.817804,-45.25,79.125,89.0,-0.203125,-6.90625,6.75,0.466797,0.0136719,0.00585938,4,0,41.46128810327389,-91.79634548326048,12041.470615834573,-19.994525653464077,2.2464618506711584,3.160023046712249,187.583,10094.22773008973,12108.22360793471,150,True,6.6162892549228065,False,177.8958341393484,177.7212609420369,False,1.8857159975162086,True,False
10,1970-07-23 11:12:14.655386788,2025-09-15,2025-09-26 16:24:25.538,HH,C,1793324670,JASSM,3,101,76,2,2,1,225,9,2,0,1,26,0,0,0,0,-154501.42028983062,-4779377.040010299,4211603.839323521,-2.71074,-1.01089,0.752226,32.625,-52.0,-57.375,0.0,0.0,0.0,0.0,0.0,0.0,2,0,41.56263670191715,-91.85153788499986,10997.37504495287,155.946907340991,-0.0004397916883254,-0.0009610674540442,,10094.22773008973,12108.22360793471,150,10,2025-09-15,2025-09-26 16:24:25.530,HH,C,742891212,HAWK11,1,1,73,2,1,1,225,2,1,0,0,12,1,225,2,1,-150193.93786795562,-4787121.485322799,4203494.522917271,-3.03335,2.02524,-0.840238,-41.375,80.375,89.75,-0.203125,-7.23438,7.0625,-0.0664062,0.0195312,0.0703125,4,0,41.46264353166864,-91.79704166664708,12043.171882703056,-18.178311578711508,2.920965414116907,26.71113670767715,186.349,10094.22773008973,12108.22360793471,150,False,6.479248898131824,False,176.09333415964954,177.7012605895996,False,2.6871685148624804,True,False
10,1970-07-23 11:12:14.665328603,2025-09-15,2025-09-26 16:24:26.532,HH,C,1794577394,JASSM,3,101,76,2,2,1,225,9,2,0,1,26,0,0,0,0,-154467.13903983062,-4779431.743135299,4211543.425261021,-2.71074,-1.01089,0.752226,32.625,-52.0,-57.375,0.0,0.0,0.0,0.0,0.0,0.0,2,0,41.561910102454014,-91.8511061735497,10997.375193084496,155.94719375290734,0.0003553739492799,-0.0009622419596843,,10094.22773008973,12108.22360793471,150,10,2025-09-15,2025-09-26 16:24:26.530,HH,C,744163744,HAWK11,1,1,73,2,1,1,225,2,1,0,0,12,1,225,2,1,-150235.92028983062,-4787035.168916549,4203589.907682896,3.02789,1.90118,-0.845415,-37.75,81.25,90.5,0.15625,-7.21875,7.07812,-0.427734,0.0214844,0.0410156,4,0,41.4637929651487,-91.7975760395405,12041.507406145189,-13.585982754223584,1.7463891145038533,8.872197330843404,187.229,10094.22773008973,12108.22360793471,150,True,6.358653671721939,False,174.39084702242099,177.70073608323563,False,4.151566001188959,True,False
10,1970-07-23 11:12:14.676353840,2025-09-15,2025-09-26 16:24:27.635,HH,C,1795830232,JASSM,3,101,76,2,2,1,225,9,2,0,1,26,0,0,0,0,-154432.85486014312,-4779486.452119674,4211483.003386021,-2.71074,-1.01089,0.752322,32.625,-52.0,-57.375,0.0,0.0,0.0,0.0,0.0,0.0,2,0,41.56118341427466,-91.85067443442024,10997.376506848252,155.94977377355912,-0.003838927577875,-0.0009634802267302,,10094.22773008973,12108.22360793471,150,10,2025-09-15,2025-09-26 16:24:27.839,HH,C,745555576,HAWK11,1,1,73,2,1,1,225,2,1,0,0,12,1,225,2,1,-150280.05310233062,-4786940.034150924,4203696.118620396,2.5187,1.97462,-0.840621,-38.25,80.875,91.25,0.234375,-7.8125,7.5625,-0.28125,0.0214844,-0.0625,4,0,41.465067517267904,-91.79813945472915,12041.868022085862,-16.3456061306307,2.2992419159625377,-17.25696012474362,188.377,10094.22773008973,12108.22360793471,150,False,6.230611350650774,False,174.53675125999132,177.7077947046665,False,4.200394313981263,True,False
10,1970-07-23 11:12:14.687349528,2025-09-15,2025-09-26 16:24:28.734,HH,C,1797142642,JASSM,3,101,76,2,2,1,225,9,2,0,1,26,0,0,0,0,-154396.94079764312,-4779543.758760299,4211419.708464146,-2.71064,-1.01089,0.752322,32.625,-52.0,-57.375,0.0,0.0,0.0,0.0,0.0,0.0,2,0,41.56042219267275,-91.85022218187358,10997.373040910405,155.95007380451608,-0.0030058785299207,0.0045267898688649,,10094.22773008973,12108.22360793471,150,10,2025-09-15,2025-09-26 16:24:28.746,HH,C,746430442,HAWK11,1,1,73,2,1,1,225,2,1,0,0,12,1,225,2,1,-150308.87341483062,-4786880.633760299,4203763.167448521,2.36952,2.02131,-0.822501,-40.75,80.375,91.0,-0.03125,-7.82812,7.54688,-0.0546875,0.0078125,-0.0351562,4,0,41.4658680266136,-91.79850637345338,12043.788316493908,-18.391827133479914,1.9190528146911865,-23.90245063700169,188.463,10094.22773008973,12108.22360793471,150,False,6.12996959494511,False,175.65157843113207,177.69881932678524,False,3.3441031064135895,True,False
10,1970-07-23 11:12:14.697391153,2025-09-15,2025-09-26 16:24:29.739,HH,C,1798395602,JASSM,3,101,76,2,2,1,225,9,2,0,1,26,0,0,0,0,-154362.65368826812,-4779598.471650924,4211359.280729771,-2.71064,-1.01089,0.752322,32.625,-52.0,-57.375,0.0,0.0,0.0,0.0,0.0,0.0,2,0,41.559695438787976,-91.84979042595656,10997.379198969462,155.95036023349795,-0.0022105537409656,0.0045256368704288,,10094.22773008973,12108.22360793471,150,10,2025-09-15,2025-09-26 16:24:29.826,HH,C,748100640,HAWK11,1,1,73,2,1,1,225,2,1,0,0,12,1,225,2,1,-150369.57849295562,-4786768.807588424,4203889.796354771,2.39081,2.0843,-0.803327,-46.0,79.5,89.75,0.0,-7.53125,7.26562,0.0820312,0.0117188,-0.03125,4,0,41.4673765652532,-91.7992742620642,12048.79107822778,-21.104438674945357,1.812793932059217,-20.14952902584141,188.781,10094.22773008973,12108.22360793471,150,False,5.985454774032911,False,178.0466395283773,177.67379363562864,False,2.1443384482680687,True,False
10,1970-07-23 11:12:14.709410998,2025-09-15,2025-09-26 16:24:30.941,HH,C,1799707914,JASSM,3,101,76,2,2,1,225,9,2,0,1,26,0,0,0,0,-154326.74157889312,-4779655.772432174,4211295.987761021,-2.71064,-1.01089,0.752322,32.625,-52.0,-57.375,0.0,0.0,0.0,0.0,0.0,0.0,2,0,41.5589342612491,-91.8493382198116,10997.374398627817,155.95066022484988,-0.0013775558932429,0.0045244367649444,,10094.22773008973,12108.22360793471,150,10,2025-09-15,2025-09-26 16:24:31.030,HH,C,749492472,HAWK11,1,1,73,2,1,1,225,2,1,0,0,12,1,225,2,1,-150424.49060233062,-4786676.500947799,4203994.151823521,2.47086,2.12456,-0.792205,-49.0,78.625,89.25,-0.234375,-7.35938,7.15625,0.0859375,0.00195312,-0.0136719,4,0,41.46861973440655,-91.79996557783744,12052.934535611465,-22.83708092396847,1.8772821981297476,-13.966929996456496,188.622,10094.22773008973,12108.22360793471,150,False,5.854718568577602,False,179.12500113990347,177.62984039760912,False,2.6695195281236663,True,False
10,1970-07-23 11:12:14.719167937,2025-09-15,2025-09-26 16:24:31.916,HH,C,1800900960,JASSM,3,101,76,2,2,1,225,9,2,0,1,26,0,0,0,0,-154294.09411795562,-4779707.866182174,4211238.446745396,-2.71064,-1.01089,0.752322,32.625,-52.0,-57.375,0.0,0.0,0.0,0.0,0.0,0.0,2,0,41.55824225418934,-91.84892713063812,10997.374838659414,155.95093293548746,-0.0006202608468202,0.0045233365013258,,10094.22773008973,12108.22360793471,150,10,2025-09-15,2025-09-26 16:24:32.624,HH,C,751480802,HAWK11,1,1,73,2,1,1,225,2,1,0,0,12,1,225,2,1,-150508.06482108062,-4786545.725557174,4204142.058073521,2.56999,2.15208,-0.780892,-51.25,78.25,88.125,-0.140625,-6.45312,6.26562,0.0488281,-0.0117188,-0.0136719,4,0,41.47038031246508,-91.80101413341228,12059.402772424328,-24.121504752013443,1.76239252385601,-7.211629063416253,188.744,10094.22773008973,12108.22360793471,150,True,5.6937176915967465,False,179.15313216766828,177.55263205090515,False,3.293525661488833,True,False
10,1970-07-23 11:12:14.729186057,2025-09-15,2025-09-26 16:24:32.918,HH,C,1802151742,JASSM,3,101,76,2,2,1,225,9,2,0,1,26,0,0,0,0,-154259.86560233062,-4779762.479463424,4211178.120573521,-2.71064,-1.01089,0.752322,32.625,-52.0,-57.375,0.0,0.0,0.0,0.0,0.0,0.0,2,0,41.55751676212206,-91.84849614387636,10997.37434374456,155.9512188418936,0.0001736815645967,0.0045221939959064,,10094.22773008973,12108.22360793471,150,10,2025-09-15,2025-09-26 16:24:33.030,HH,C,751878468,HAWK11,1,1,73,2,1,1,225,2,1,0,0,12,1,225,2,1,-150524.91833670562,-4786520.030244674,4204170.704557896,2.57977,2.15515,-0.778016,-51.625,78.25,88.0,-0.015625,-6.53125,6.34375,0.03125,0.00585938,-0.015625,4,0,41.47072335942481,-91.801225336652,12059.808704576566,-24.305678893984677,1.6681657668273988,-6.533280345738347,188.744,10094.22773008973,12108.22360793471,150,True,5.623473541167716,False,179.03567040570715,177.51897204279067,False,3.432961314317138,True,False
10,1970-07-23 11:12:14.739324508,2025-09-15,2025-09-26 16:24:33.932,HH,C,1803404446,JASSM,3,101,76,2,2,1,225,9,2,0,1,26,0,0,0,0,-154225.58532889312,-4779817.176729049,4211117.700651646,-2.71064,-1.0108,0.752322,32.625,-52.0,-57.375,0.0,0.0,0.0,0.0,0.0,0.0,2,0,41.55679014591046,-91.84806451452808,10997.375806758262,155.94786232756485,-0.0007058350117674,0.0007685124891237,,10094.22773008973,12108.22360793471,150,10,2025-09-15,2025-09-26 16:24:34.030,HH,C,753071468,HAWK11,1,1,73,2,1,1,225,2,1,0,0,12,1,225,2,1,-150576.70153983062,-4786441.506807174,4204257.903776646,2.57881,2.16569,-0.776003,-52.375,78.375,87.5,0.0625,-6.71875,6.60938,-0.00390625,0.00390625,-0.00585938,4,0,41.47176932511284,-91.80187412172938,12060.33157960828,-24.74431313695501,1.7534499878777947,-6.177608827146918,188.903,10094.22773008973,12108.22360793471,150,True,5.506687510852941,False,178.77751868145253,177.45596936739062,False,3.6738666417866037,True,False
10,1970-07-23 11:12:14.750370359,2025-09-15,2025-09-26 16:24:35.037,HH,C,1804657780,JASSM,3,101,76,2,2,1,225,9,2,0,1,26,0,0,0,0,-154191.28747733062,-4779871.899385299,4211057.249479771,-2.71064,-1.0108,0.752322,32.625,-52.0,-57.375,0.0,0.0,0.0,0.0,0.0,0.0,2,0,41.55606316944045,-91.84763267455276,10997.374196621256,155.94814879178068,8.972602803082999e-05,0.0007673120955476,,10094.22773008973,12108.22360793471,150,10,2025-09-15,2025-09-26 16:24:35.124,HH,C,754423532,HAWK11,1,1,73,2,1,1,225,2,1,0,0,12,1,225,2,1,-150636.83630545562,-4786351.756807174,4204356.856901646,2.58274,2.17269,-0.773606,-53.25,78.5,87.0,-0.203125,-7.03125,6.79688,0.0195312,-0.00195312,-0.00585938,4,0,41.47295984326346,-91.80262702750366,12059.463610248473,-25.062689733149558,1.758072389595052,-5.681588212016335,189.416,10094.22773008973,12108.22360793471,150,True,5.380087700641458,False,178.4046343034185,177.3810943708488,False,4.006326901132166,True,False
10,1970-07-23 11:12:14.760410415,2025-09-15,2025-09-26 16:24:36.041,HH,C,1805851882,JASSM,3,101,76,2,2,1,225,9,2,0,1,26,0,0,0,0,-154158.60974295562,-4779924.036104049,4210999.655729771,-2.71064,-1.0108,0.752418,32.625,-52.0,-57.375,0.0,0.0,0.0,0.0,0.0,0.0,2,0,41.55537055027874,-91.8472212426678,10997.378061322845,155.9507170629598,-0.0041448202947662,0.0007661097951496,,10094.22773008973,12108.22360793471,150,10,2025-09-15,2025-09-26 16:24:36.216,HH,C,755735832,HAWK11,1,1,73,2,1,1,225,2,1,0,0,12,1,225,2,1,-150695.36755545562,-4786265.397432174,4204451.907682896,2.58457,2.18228,-0.772551,-54.0,78.5,86.875,-0.078125,-7.45312,7.23438,-0.0136719,0.00390625,-0.00195312,4,0,41.474104149238215,-91.80335950773424,12058.334133580138,-25.44215145465247,1.8808642001994476,-5.2056293093697175,189.734,10094.22773008973,12108.22360793471,150,True,5.25866286798441,False,178.08678416866954,177.30326505439783,False,4.3562866638410975,True,False
10,1970-07-23 11:12:14.771144656,2025-09-15,2025-09-26 16:24:37.114,HH,C,1807104722,JASSM,3,101,76,2,2,1,225,9,2,0,1,26,0,0,0,0,-154124.32556326812,-4779978.735322799,4210939.226042271,-2.71064,-1.0108,0.752418,32.625,-52.0,-57.375,0.0,0.0,0.0,0.0,0.0,0.0,2,0,41.55464385234612,-91.84678959434892,10997.3746461983,155.95100339210686,-0.0033495691099702,0.0007649380586313,,10094.22773008973,12108.22360793471,150,10,2025-09-15,2025-09-26 16:24:37.124,HH,C,756570930,HAWK11,1,1,73,2,1,1,225,2,1,0,0,12,1,225,2,1,-150733.36755545562,-4786210.500947799,4204512.673307896,2.58763,2.17864,-0.771976,-54.5,78.25,86.875,-0.015625,-6.92188,6.78125,0.0253906,0.00390625,0.0,4,0,41.47483372541025,-91.80383462590756,12058.430829390085,-25.32352468478801,1.7851714748285483,-5.171687285499151,189.966,10094.22773008973,12108.22360793471,150,True,5.162408700451302,False,177.84950798652628,177.23793853902094,False,4.668073912542539,True,False
10,1970-07-23 11:12:14.781187502,2025-09-15,2025-09-26 16:24:38.118,HH,C,1808356896,JASSM,3,101,76,2,2,1,225,9,2,0,1,26,0,0,0,0,-154090.05896170562,-4780033.405244674,4210878.829557896,-2.71064,-1.0108,0.752418,32.625,-52.0,-57.375,0.0,0.0,0.0,0.0,0.0,0.0,2,0,41.55391754770901,-91.84635817748892,10997.377015849055,155.951289563608,-0.0025547461811594,0.0007637757122204,,10094.22773008973,12108.22360793471,150,10,2025-09-15,2025-09-26 16:24:38.030,HH,C,757684396,HAWK11,1,1,73,2,1,1,225,2,1,0,0,12,1,225,2,1,-150784.92419608062,-4786136.782197799,4204594.079557896,2.60163,2.18238,-0.768524,-55.125,78.25,86.75,-0.15625,-7.0625,6.79688,0.015625,-0.00585938,-0.00195312,4,0,41.47581204001494,-91.80447897407755,12058.186613793743,-25.550163380999173,1.6784428819777468,-4.227331295051285,190.284,10094.22773008973,12108.22360793471,150,True,5.049504316722562,False,177.58374790933192,177.15341839771713,False,4.984262859467511,True,False
10,1970-07-23 11:12:14.791324255,2025-09-15,2025-09-26 16:24:39.132,HH,C,1809610016,JASSM,3,101,76,2,2,1,225,9,2,0,1,26,0,0,0,0,-154055.76696951812,-4780088.116182174,4210818.386198521,-2.71064,-1.0108,0.752418,32.625,-52.0,-57.375,0.0,0.0,0.0,0.0,0.0,0.0,2,0,41.553190685868806,-91.84592645043472,10997.380037663968,155.95157593675717,-0.0017593183343349,0.0007626055654756,,10094.22773008973,12108.22360793471,150,10,2025-09-15,2025-09-26 16:24:39.218,HH,C,759314828,HAWK11,1,1,73,2,1,1,225,2,1,0,0,12,1,225,2,1,-150860.59997733062,-4786029.489229049,4204712.208464146,2.61256,2.1842,-0.769483,-55.75,78.25,86.625,-0.203125,-7.07812,6.84375,0.0078125,-0.00390625,-0.00195312,4,0,41.4772334102356,-91.8054244511533,12057.127675551414,-25.593060188320035,1.762836806616417,-3.529778305936201,190.516,10094.22773008973,12108.22360793471,150,True,4.906870269889081,False,177.31765273923068,177.03394785870242,False,5.340671088221546,True,False
10,1970-07-23 11:12:14.802668735,2025-09-15,2025-09-26 16:24:40.266,HH,C,1810860982,JASSM,3,101,76,2,2,1,225,9,2,0,1,26,0,0,0,0,-154021.53357108062,-4780142.729463424,4210758.044401646,-2.71064,-1.0108,0.752418,32.625,-52.0,-57.375,0.0,0.0,0.0,0.0,0.0,0.0,2,0,41.55246507763415,-91.84549547231846,10997.373098671958,155.95186180901658,-0.000965262190536,0.0007614417411889,,10094.22773008973,12108.22360793471,150,10,2025-09-15,2025-09-26 16:24:40.216,HH,C,760507826,HAWK11,1,1,73,2,1,1,225,2,1,0,0,12,1,225,2,1,-150916.07458670562,-4785951.483369674,4204798.186979771,2.64152,2.19005,-0.772168,-56.0,78.25,86.625,-0.046875,-7.39062,7.17188,0.0390625,0.015625,-0.00585938,4,0,41.47826734444584,-91.80611732179943,12056.608601397582,-25.738388840073977,2.00990159393953,-1.642116978426624,191.029,10094.22773008973,12108.22360793471,150,True,4.790127785148663,False,177.2178705503144,176.93186370354547,False,5.538031589035372,True,False
10,1970-07-23 11:12:14.812387764,2025-09-15,2025-09-26 16:24:41.238,HH,C,1812054028,JASSM,3,101,76,2,2,1,225,9,2,0,1,26,0,0,0,0,-153988.88513358062,-4780194.815400924,4210700.497526646,-2.71064,-1.0108,0.752418,32.625,-52.0,-57.375,0.0,0.0,0.0,0.0,0.0,0.0,2,0,41.55177306340001,-91.84508445644244,10997.375674335066,155.95213443629464,-0.0002079703752218,0.0007603324607709,,10094.22773008973,12108.22360793471,150,10,2025-09-15,2025-09-26 16:24:41.218,HH,C,761740592,HAWK11,1,1,73,2,1,1,225,2,1,0,0,12,1,225,2,1,-150974.31482108062,-4785870.235322799,4204888.581511021,2.67593,2.1934,-0.780125,-56.0,77.75,87.25,-0.203125,-7.54688,7.40625,0.0253906,0.00195312,0.0,4,0,41.47934984110125,-91.80684451448202,12057.94337334534,-25.653411914283563,2.479520318317406,0.4679745766473569,191.103,10094.22773008973,12108.22360793471,150,True,4.672325408630539,False,177.2095174922056,176.81919325404834,False,5.768563136781167,True,False
10,1970-07-23 11:12:14.823145085,2025-09-15,2025-09-26 16:24:42.314,HH,C,1813308336,JASSM,3,101,76,2,2,1,225,9,2,0,1,26,0,0,0,0,-153954.56091483062,-4780249.575166549,4210639.993620396,-2.71064,-1.0108,0.752418,32.625,-52.0,-57.375,0.0,0.0,0.0,0.0,0.0,0.0,2,0,41.55104550364143,-91.84465235323084,10997.376099965995,155.9524210468036,0.0005882139117585,0.0007591565034793,,10094.22773008973,12108.22360793471,150,10,2025-09-15,2025-09-26 16:24:42.420,HH,C,762933590,HAWK11,1,1,73,2,1,1,225,2,1,0,0,12,1,225,2,1,-151029.96130545562,-4785792.305635299,4204976.151823521,2.70527,2.17864,-0.787124,-55.625,77.625,87.625,-0.015625,-7.15625,6.92188,0.0136719,0.0,0.0136719,4,0,41.48039401163224,-91.80753945714731,12061.101358458694,-24.93741182611911,2.5676083439422284,1.583333487046399,191.225,10094.22773008973,12108.22360793471,150,True,4.55487665928458,False,177.36400100399104,176.7021743240419,False,5.786127758416602,True,False
10,1970-07-23 11:12:14.833166892,2025-09-15,2025-09-26 16:24:43.316,HH,C,1814561176,JASSM,3,101,76,2,2,1,225,9,2,0,1,26,0,0,0,0,-153920.27575858062,-4780304.270479049,4210579.560026646,-2.71064,-1.0108,0.752513,32.625,-52.0,-57.375,0.0,0.0,0.0,0.0,0.0,0.0,2,0,41.55031879270481,-91.8442207522681,10997.378486492393,155.95500124285186,-0.0036059358045123,0.0007579460017519,,10094.22773008973,12108.22360793471,150,10,2025-09-15,2025-09-26 16:24:43.420,HH,C,764365188,HAWK11,1,1,73,2,1,1,225,2,1,0,0,12,1,225,2,1,-151096.38513358062,-4785698.219697799,4205082.237761021,2.71658,2.17279,-0.785015,-54.875,78.0,88.0,-0.15625,-7.01562,6.75,0.00195312,0.0078125,0.0,4,0,41.48165722599655,-91.80836942338998,12065.650571391652,-24.779709448088564,2.35530004189227,2.00125853226159,191.139,10094.22773008973,12108.22360793471,150,True,4.423049892434699,False,177.75486790174335,176.563572813337,False,5.567625726510536,True,False
10,1970-07-23 11:12:14.844185916,2025-09-15,2025-09-26 16:24:44.418,HH,C,1815871772,JASSM,3,101,76,2,2,1,225,9,2,0,1,26,0,0,0,0,-153884.41052420562,-4780361.485322799,4210516.339323521,-2.71064,-1.0108,0.752513,32.625,-52.0,-57.375,0.0,0.0,0.0,0.0,0.0,0.0,2,0,41.549558582394674,-91.84376927118636,10997.378172409342,155.95530069794097,-0.0027740222526437,0.000756756756594,,10094.22773008973,12108.22360793471,150,10,2025-09-15,2025-09-26 16:24:44.326,HH,C,765438888,HAWK11,1,1,73,2,1,1,225,2,1,0,0,12,1,225,2,1,-151145.78747733062,-4785627.766572799,4205161.476042271,2.73384,2.161,-0.785398,-54.5,78.25,88.0,-0.078125,-6.70312,6.53125,0.0234375,-0.00195312,0.0117188,4,0,41.48260184836286,-91.80898690700482,12068.60317992124,-24.34106000682316,2.1656862857157857,2.529697842811092,191.225,10094.22773008973,12108.22360793471,150,True,4.310318927630018,False,177.95088470965982,176.44468955282255,False,5.48882429053491,True,False
10,1970-07-23 11:12:14.855325083,2025-09-15,2025-09-26 16:24:45.532,HH,C,1817185568,JASSM,3,101,76,2,2,1,225,9,2,0,1,26,0,0,0,0,-153848.45837576812,-4780418.836885299,4210452.964323521,-2.71064,-1.0108,0.752513,32.625,-52.0,-57.375,0.0,0.0,0.0,0.0,0.0,0.0,2,0,41.548796532131874,-91.84331670736871,10997.375162712626,155.95560086666262,-0.0019400966194827,0.0007555658086113,,10094.22773008973,12108.22360793471,150,10,2025-09-15,2025-09-26 16:24:45.530,HH,C,766830720,HAWK11,1,1,73,2,1,1,225,2,1,0,0,12,1,225,2,1,-151208.42614920562,-4785536.600557174,4205263.505339146,2.7766,2.14834,-0.788658,-53.75,78.625,88.375,-0.09375,-6.89062,6.65625,0.0292969,-0.00195312,0.00976562,4,0,41.483821020045326,-91.80977055205344,12071.237565178451,-23.79891256563604,2.113862473484071,4.4863892147421645,191.42,10094.22773008973,12108.22360793471,150,True,4.179425566018942,False,178.3382598952415,176.30215502631518,False,5.282223574718678,True,False
10,1970-07-23 11:12:14.866346112,2025-09-15,2025-09-26 16:24:46.634,HH,C,1818498078,JASSM,3,101,76,2,2,1,225,9,2,0,1,26,0,0,0,0,-153812.54040701812,-4780476.133760299,4210389.649870396,-2.71054,-1.0107,0.752513,32.625,-52.0,-57.375,0.0,0.0,0.0,0.0,0.0,0.0,2,0,41.54803520744045,-91.84286458447988,10997.376821154354,155.95225865943522,-0.0027815882863376,0.0024926851929915,,10094.22773008973,12108.22360793471,150,10,2025-09-15,2025-09-26 16:24:47.030,HH,C,768659984,HAWK11,1,1,73,2,1,1,225,2,1,0,0,12,1,225,2,1,-151290.36755545562,-4785414.233369674,4205400.519011021,2.81764,2.12907,-0.795753,-52.125,79.375,89.0,-0.3125,-7.28125,6.98438,-0.351562,0.00585938,-0.0195312,4,0,41.48545828095682,-91.81079690430391,12074.767969866503,-22.92443140328509,2.1560306266393106,6.084073733378199,191.53,10094.22773008973,12108.22360793471,150,True,4.0212738208069405,False,179.12880497834448,176.1250057396234,False,4.737580087303346,True,False
10,1970-07-23 11:12:14.877363973,2025-09-15,2025-09-26 16:24:47.736,HH,C,1819809960,JASSM,3,101,76,2,2,1,225,9,2,0,1,26,0,0,0,0,-153776.64001639312,-4780533.401338424,4210326.364714146,-2.71054,-1.0107,0.752513,32.625,-52.0,-57.375,0.0,0.0,0.0,0.0,0.0,0.0,2,0,41.54727424957883,-91.84241269394248,10997.376137359452,155.95255837260893,-0.0019488623864893,0.0024914422471871,,10094.22773008973,12108.22360793471,150,10,2025-09-15,2025-09-26 16:24:47.624,HH,C,769375784,HAWK11,1,1,73,2,1,1,225,2,1,0,0,12,1,225,2,1,-151321.06482108062,-4785367.172822799,4205453.186979771,2.50729,2.12332,-0.796232,-52.25,79.25,89.25,0.40625,-7.29688,7.0625,-0.558594,-0.00390625,0.0273438,4,0,41.486087926324856,-91.81118187529398,12076.012673834352,-22.70336663925858,2.085971831115792,-11.92460348018344,191.225,10094.22773008973,12108.22360793471,150,False,3.929923424086241,False,179.04160217598124,176.02718800602753,False,4.929451337370625,True,False
10,1970-07-23 11:12:14.888439307,2025-09-15,2025-09-26 16:24:48.843,HH,C,1821122684,JASSM,3,101,76,2,2,1,225,9,2,0,1,26,0,0,0,0,-153740.71618826812,-4780590.706025924,4210263.036589146,-2.71054,-1.0107,0.752513,32.625,-51.875,-57.375,0.0,0.0,0.0,0.0,0.0,0.0,2,0,41.54651278357107,-91.84196051910378,10997.375593965711,155.95285826982948,-0.0011155841100164,0.002490194538207,,10094.22773008973,12108.22360793471,150,10,2025-09-15,2025-09-26 16:24:48.920,HH,C,770648316,HAWK11,1,1,73,2,1,1,225,2,1,0,0,12,1,225,2,1,-151378.91052420562,-4785282.375947799,4205549.020964146,2.15534,2.16886,-0.796903,-56.0,78.125,88.25,-0.0625,-8.51562,8.28125,-0.103516,0.0390625,-0.0839844,4,0,41.48722827397945,-91.8119058624079,12080.488418852,-24.33797488811126,2.9020795218393,-30.2954013825206,193.168,10094.22773008973,12108.22360793471,150,False,3.804495675468322,False,177.39733316134541,175.8089824354299,False,6.627534905018056,True,False
10,1970-07-23 11:12:14.899145213,2025-09-15,2025-09-26 16:24:49.914,HH,C,1822433532,JASSM,3,101,76,2,2,1,225,9,2,0,1,26,0,0,0,0,-153704.84411795562,-4780647.926729049,4210199.800261021,-2.71054,-1.0107,0.752513,32.625,-51.875,-57.375,0.0,0.0,0.0,0.0,0.0,0.0,2,0,41.54575242500754,-91.84150900687813,10997.377183086852,155.9531577230774,-0.0002835176129379,0.0024889532178445,,10094.22773008973,12108.22360793471,150,10,2025-09-15,2025-09-26 16:24:49.826,HH,C,771841314,HAWK11,1,1,73,2,1,1,225,2,1,0,0,12,1,225,2,1,-151436.98571951812,-4785205.422822799,4205636.767057896,1.96292,2.27624,-0.732476,-61.625,76.0,86.625,-0.25,-9.01562,8.67188,-0.0996094,0.03125,-0.046875,4,0,41.488267318428335,-91.81262965046268,12086.681060638351,-29.99826255099236,1.7536398010848988,-37.28657440639244,192.227,10094.22773008973,12108.22360793471,150,False,3.6848527853269446,False,174.67700589120307,175.6105561638626,False,9.392746190558027,True,False
10,1970-07-23 11:12:14.910184157,2025-09-15,2025-09-26 16:24:51.018,HH,C,1823745882,JASSM,3,101,76,2,2,1,225,9,2,0,1,26,0,0,0,0,-153668.93103201812,-4780705.211885299,4210136.489714146,-2.71054,-1.0107,0.752513,32.625,-51.875,-57.375,0.0,0.0,0.0,0.0,0.0,0.0,2,0,41.54499118808426,-91.8410569893716,10997.376636365649,155.953457506929,0.0005495067371901,0.0024877073128594,,10094.22773008973,12108.22360793471,150,10,2025-09-15,2025-09-26 16:24:51.126,HH,C,773551280,HAWK11,1,1,73,2,1,1,225,2,1,0,0,12,1,225,2,1,-151531.34509451812,-4785100.729463424,4205757.675261021,1.86216,2.39483,-0.713205,-71.25,71.25,82.75,0.015625,-9.48438,9.25,0.015625,0.0410156,-0.0703125,4,0,41.48968833658742,-91.81379799050607,12099.64205671852,-34.896922158776775,3.553768862106459,-38.78863416029644,193.046,10094.22773008973,12108.22360793471,150,False,3.536759737589255,False,169.67284916765936,175.23628728129472,False,14.647106501939195,True,False
10,1970-07-23 11:12:14.920323784,2025-09-15,2025-09-26 16:24:52.032,HH,C,1825000114,JASSM,3,101,76,2,2,1,225,9,2,0,1,26,0,0,0,0,-153634.60778983062,-4780759.957979049,4210075.981901646,-2.71054,-1.0107,0.752609,32.625,-51.875,-57.375,0.0,0.0,0.0,0.0,0.0,0.0,2,0,41.54426366739703,-91.8406249934206,10997.372707458411,155.9560396852515,-0.0036467228005283,0.0024864772293818,,10094.22773008973,12108.22360793471,150,10,2025-09-15,2025-09-26 16:24:51.920,HH,C,774465912,HAWK11,1,1,73,2,1,1,225,2,1,0,0,12,1,225,2,1,-151587.58923514312,-4785047.147432174,4205820.698698521,1.81566,2.46453,-0.661337,-76.0,68.625,80.0,0.015625,-9.14062,8.89062,-0.015625,0.0410156,-0.0449219,4,0,41.49042180918807,-91.81449107547893,12109.38465419047,-39.14404651613562,2.941005273590088,-39.15843843948287,192.227,10094.22773008973,12108.22360793471,150,False,3.437078431840932,False,167.01078890047202,174.9419300129366,False,17.547571652195085,True,False
