Subject_cm,Timestamp,SampleDate_cm,SampleTime_cm,Configuration_cm,Scenario_cm,DisTime_cm,MarkingTxt_cm,Application_cm,EntId_cm,Site_cm,ExerciseId_cm,ForceId_cm,Category_cm,Country_cm,Domain_cm,Kind_cm,Extra_cm,Specific_cm,Subcategory_cm,AltCategory_cm,AltCountry_cm,AltDomain_cm,AltKind_cm,ECEF_X_cm,ECEF_Y_cm,ECEF_Z_cm,OriPhi_cm,OriPsi_cm,OriTheta_cm,LinVelX_cm,LinVelY_cm,LinVelZ_cm,LinAccX_cm,LinAccY_cm,LinAccZ_cm,AngVelX_cm,AngVelY_cm,AngVelZ_cm,DrAlg_cm,Appearance_cm,Latitude_cm,Longitude_cm,Altitude_cm,Heading_cm,Pitch_cm,Roll_cm,CalibratedAirspeed_cm,CM_Altitude_Lead_cm,CM_Altitude_Wing_cm,CM_Airspeed_cm,Subject_ac,SampleDate_ac,SampleTime_ac,Configuration_ac,Scenario_ac,DisTime_ac,MarkingTxt_ac,Application_ac,EntId_ac,Site_ac,ExerciseId_ac,ForceId_ac,Category_ac,Country_ac,Domain_ac,Kind_ac,Extra_ac,Specific_ac,Subcategory_ac,AltCategory_ac,AltCountry_ac,AltDomain_ac,AltKind_ac,ECEF_X_ac,ECEF_Y_ac,ECEF_Z_ac,OriPhi_ac,OriPsi_ac,OriTheta_ac,LinVelX_ac,LinVelY_ac,LinVelZ_ac,LinAccX_ac,LinAccY_ac,LinAccZ_ac,AngVelX_ac,AngVelY_ac,AngVelZ_ac,DrAlg_ac,Appearance_ac,Latitude_ac,Longitude_ac,Altitude_ac,Heading_ac,Pitch_ac,Roll_ac,CalibratedAirspeed_ac,CM_Altitude_Lead_ac,CM_Altitude_Wing_ac,CM_Airspeed_ac,Bank_Angle_Condition,distance_nm,Distance_Condition,angle_between_vel,angle_between_pos,Cone_Condition,angle_between_pos_nose,Nose_Cone_Condition,Intercept_Criteria
10,1970-07-23 11:12:14.286191963,2025-09-15,2025-09-26 16:23:48.619,HH,C,1749359434,JASSM,3,104,76,2,2,1,225,9,2,0,1,26,0,0,0,0,-180579.6878679556,-4778211.825166549,4211886.651823521,-2.36693,-0.400848,0.381002,75.0,-31.625,-32.5,0.0,0.0,0.0,0.0,0.0,0.0,2,0,41.56603818791503,-92.16431015832764,10997.376482318536,119.79872738742708,-0.0029347906470814,0.004553070142645,,10094.22773008973,12108.22360793471,150,10,2025-09-15,2025-09-26 16:23:48.719,HH,C,699068390,HAWK11,1,1,73,2,1,1,225,2,1,0,0,12,1,225,2,1,-148624.32849295562,-4790031.194307174,4200286.128386021,2.71256,2.07222,-0.809462,-42.5,78.125,86.5,0.015625,-7.01562,6.75,-0.046875,-0.00390625,-0.00585938,4,0,41.4239706875121,-91.77719419191264,12108.22360793471,-20.512103472571045,1.906535977878676,-2.195361996242673,182.353,10094.22773008973,12108.22360793471,150,True,19.35617985021596,False,141.16095223069635,176.18271233003318,False,42.63732067473207,False,False
10,1970-07-23 11:12:14.296311926,2025-09-15,2025-09-26 16:23:49.631,HH,C,1750492830,JASSM,3,104,76,2,2,1,225,9,2,0,1,26,0,0,0,0,-180508.4222429556,-4778242.038057174,4211855.640104771,-2.36693,-0.400848,0.381002,75.0,-31.625,-32.5,0.0,0.0,0.0,0.0,0.0,0.0,2,0,41.565665189639695,-92.16344316034484,10997.376620351666,119.7993026236599,-0.0021865160689735,0.004551760519176,,10094.22773008973,12108.22360793471,150,10,2025-09-15,2025-09-26 16:23:49.723,HH,C,700221622,HAWK11,1,1,73,2,1,1,225,2,1,0,0,12,1,225,2,1,-148665.06872733062,-4789955.867158736,4200369.429167271,2.6767,2.082,-0.811284,-42.75,78.0,86.75,0.09375,-7.32812,6.95312,-0.0292969,0.00195312,-0.00390625,4,0,41.42497350936582,-91.77770897386696,12106.9333684331,-20.829125997912787,2.152285546047901,-3.855052388109456,182.548,10094.22773008973,12108.22360793471,150,True,19.264282203371835,False,141.24930102245915,176.04448481653648,False,42.68899384266427,False,False
10,1970-07-23 11:12:14.305373459,2025-09-15,2025-09-26 16:23:50.537,HH,C,1751568494,JASSM,3,104,76,2,2,1,225,9,2,0,1,26,0,0,0,0,-180440.7855242056,-4778270.709932174,4211826.208464146,-2.36693,-0.400848,0.381098,75.0,-31.625,-32.5,0.0,0.0,0.0,0.0,0.0,0.0,2,0,41.5653112001922,-92.1626203210137,10997.375837350131,119.80369057837176,-0.0054024095009492,0.0045503051600398,,10094.22773008973,12108.22360793471,150,10,2025-09-15,2025-09-26 16:23:50.719,HH,C,701414622,HAWK11,1,1,73,2,1,1,225,2,1,0,0,12,1,225,2,1,-148708.07068045562,-4789877.516572799,4200456.759245396,2.64765,2.0911,-0.813681,-43.25,77.375,87.0,-0.125,-7.32812,7.04688,-0.0175781,0.0,-0.0175781,4,0,41.426021091110734,-91.77825192172544,12107.135725356098,-21.10655771963475,2.419876248643502,-5.151655198873282,182.353,10094.22773008973,12108.22360793471,150,True,19.172466894541444,False,141.49208109391122,175.89980372722508,False,42.594235653712325,False,False
10,1970-07-23 11:12:14.315131969,2025-09-15,2025-09-26 16:23:51.513,HH,C,1752700366,JASSM,3,104,76,2,2,1,225,9,2,0,1,26,0,0,0,0,-180369.61462576807,-4778300.879854049,4211795.237761021,-2.36693,-0.400848,0.381098,75.0,-31.625,-32.5,0.0,0.0,0.0,0.0,0.0,0.0,2,0,41.56493870032188,-92.16175449612318,10997.375588477998,119.80426502811478,-0.0046551378215742,0.0045490602059969,,10094.22773008973,12108.22360793471,150,10,2025-09-15,2025-09-26 16:23:51.421,HH,C,702329254,HAWK11,1,1,73,2,1,1,225,2,1,0,0,12,1,225,2,1,-148741.35388358062,-4789817.711885299,4200523.798307896,2.65638,2.0934,-0.816557,-43.625,77.0,87.0,-0.203125,-7.34375,7.03125,0.0898438,0.0214844,-0.00390625,4,0,41.42682318559687,-91.77867186042164,12108.156416864867,-21.125043793034305,2.607822719889708,-4.556623293360094,182.548,10094.22773008973,12108.22360793471,150,True,19.089925778575136,False,141.68927676329025,175.78550457918647,False,42.51287560766038,False,False
10,1970-07-23 11:12:14.324273593,2025-09-15,2025-09-26 16:23:52.427,HH,C,1753775390,JASSM,3,104,76,2,2,1,225,9,2,0,1,26,0,0,0,0,-180302.01794608065,-4778329.534150924,4211765.821745396,-2.36693,-0.400848,0.381098,75.0,-31.625,-32.5,0.0,0.0,0.0,0.0,0.0,0.0,2,0,41.564584899813056,-92.16093216258416,10997.376008019275,119.80481061869088,-0.0039453935943802,0.0045478762708364,,10094.22773008973,12108.22360793471,150,10,2025-09-15,2025-09-26 16:23:52.328,HH,C,703204120,HAWK11,1,1,73,2,1,1,225,2,1,0,0,12,1,225,2,1,-148773.47693045562,-4789761.274385299,4200587.606901646,2.89472,2.09714,-0.8202,-43.5,77.0,87.0,-0.234375,-7.1875,6.9375,0.425781,0.0136719,-0.0175781,4,0,41.42758365689184,-91.77907669494948,12110.359505701208,-21.17718093981235,2.858289497670043,9.253319870335446,182.878,10094.22773008973,12108.22360793471,150,True,19.011393844688854,False,141.63527216509104,175.6765182292738,False,42.67608299887551,False,False
10,1970-07-23 11:12:14.333331085,2025-09-15,2025-09-26 16:23:53.333,HH,C,1754909316,JASSM,3,104,76,2,2,1,225,9,2,0,1,26,0,0,0,0,-180230.71814139312,-4778359.756807174,4211734.794401646,-2.36693,-0.400848,0.381098,75.0,-31.625,-32.5,0.0,0.0,0.0,0.0,0.0,0.0,2,0,41.56421172019627,-92.16006478979196,10997.37684875487,119.80538608715926,-0.0031967727436523,0.0045466353850344,,10094.22773008973,12108.22360793471,150,10,2025-09-15,2025-09-26 16:23:53.219,HH,C,704357352,HAWK11,1,1,73,2,1,1,225,2,1,0,0,12,1,225,2,1,-148813.59021170562,-4789686.422822799,4200671.429167271,3.06336,2.07116,-0.82835,-40.75,77.875,87.5,-0.203125,-7.04688,6.57812,-0.166016,0.00195312,0.0664062,4,0,41.428587273802805,-91.7795838652975,12111.34932569284,-20.063207159520463,2.8964727466347937,17.87894646323349,181.363,10094.22773008973,12108.22360793471,150,False,18.920185159311895,False,140.29726269333938,175.53252222835073,False,44.15663742540194,False,False
10,1970-07-23 11:12:14.342373923,2025-09-15,2025-09-26 16:23:54.237,HH,C,1755983058,JASSM,3,104,76,2,2,1,225,9,2,0,1,26,0,0,0,0,-180163.20251639312,-4778388.375947799,4211705.411589146,-2.36693,-0.400848,0.381098,75.0,-31.625,-32.5,0.0,0.0,0.0,0.0,0.0,0.0,2,0,41.56385832263855,-92.15924346107464,10997.377403105706,119.80593100324523,-0.0024878751476673,0.0045454447192982,,10094.22773008973,12108.22360793471,150,10,2025-09-15,2025-09-26 16:23:54.125,HH,C,705351518,HAWK11,1,1,73,2,1,1,225,2,1,0,0,12,1,225,2,1,-148847.24646170562,-4789620.297822799,4200744.659636021,2.93978,1.96963,-0.838992,-39.0,78.5,87.625,0.0,-7.04688,6.76562,-0.232422,0.0195312,0.0488281,4,0,41.42946868295776,-91.78001064239191,12110.314982565227,-16.181954002298546,2.1126540616444838,6.65911888828736,182.231,10094.22773008973,12108.22360793471,150,True,18.837869086106533,False,139.46235000006143,175.40311890910291,False,45.119383515005076,False,False
10,1970-07-23 11:12:14.353369804,2025-09-15,2025-09-26 16:23:55.336,HH,C,1757354464,JASSM,3,104,76,2,2,1,225,9,2,0,1,26,0,0,0,0,-180076.96911795562,-4778424.924775924,4211667.884245396,-2.36693,-0.400848,0.381098,75.0,-31.625,-32.5,0.0,0.0,0.0,0.0,0.0,0.0,2,0,41.56340697896217,-92.15819444540789,10997.374705719834,119.80662697424135,-0.0015824651791683,0.0045439552851337,,10094.22773008973,12108.22360793471,150,10,2025-09-15,2025-09-26 16:23:55.421,HH,C,706981950,HAWK11,1,1,73,2,1,1,225,2,1,0,0,12,1,225,2,1,-148899.77771170562,-4789512.389619674,4200865.198698521,2.69242,2.03089,-0.823556,-38.375,78.375,88.25,-0.109375,-7.07812,6.5625,-0.0820312,-0.00390625,-0.0527344,4,0,41.430914464669335,-91.78067853249324,12110.704470273577,-18.70890184178201,2.069240313144049,-5.011693111202145,182.389,10094.22773008973,12108.22360793471,150,True,18.719724746635386,False,139.1249034275395,175.19044759713776,False,45.67209514799037,False,False
10,1970-07-23 11:12:14.364391473,2025-09-15,2025-09-26 16:23:56.439,HH,C,1758607520,JASSM,3,104,76,2,2,1,225,9,2,0,1,26,0,0,0,0,-179998.17907889312,-4778458.321260299,4211633.593229771,-2.36693,-0.400752,0.381098,75.0,-31.625,-32.5,0.0,0.0,0.0,0.0,0.0,0.0,2,0,41.562994551306815,-92.15723598870372,10997.376443977866,119.80361853673568,-0.0043216362293949,0.0024995921464169,,10094.22773008973,12108.22360793471,150,10,2025-09-15,2025-09-26 16:23:56.421,HH,C,708254482,HAWK11,1,1,73,2,1,1,225,2,1,0,0,12,1,225,2,1,-148941.06091483062,-4789428.984346236,4200958.247526646,2.65983,2.02342,-0.822789,-39.25,78.375,88.0,-0.171875,-7.04688,6.5,-0.0117188,-0.00390625,0.0195312,4,0,41.43203101684973,-91.7812029146348,12110.808976537432,-18.4517915804796,1.9269205414250945,-7.184575512915467,182.145,10094.22773008973,12108.22360793471,150,True,18.620676187499075,False,139.53787486889877,175.02273424390773,False,45.42669013373101,False,False
10,1970-07-23 11:12:14.375150418,2025-09-15,2025-09-26 16:23:57.515,HH,C,1759919568,JASSM,3,104,76,2,2,1,225,9,2,0,1,26,0,0,0,0,-179915.67810233062,-4778493.288057174,4211597.686979771,-2.36693,-0.400752,0.381098,75.0,-31.625,-32.5,0.0,0.0,0.0,0.0,0.0,0.0,2,0,41.56256270472096,-92.15623240383093,10997.376143895211,119.80428435546276,-0.0034554045145987,0.0024980938254395,,10094.22773008973,12108.22360793471,150,10,2025-09-15,2025-09-26 16:23:57.625,HH,C,709646314,HAWK11,1,1,73,2,1,1,225,2,1,0,0,12,1,225,2,1,-148987.71130545562,-4789336.990205611,4201061.108854771,2.68562,2.03339,-0.819625,-40.25,78.375,87.5,-0.03125,-7.01562,6.51562,0.00585938,-0.00976562,-0.0410156,4,0,41.43326389464876,-91.78179465455426,12111.520511947983,-18.880564285335147,1.8956543408338111,-5.303011413309056,182.512,10094.22773008973,12108.22360793471,150,True,18.513795789988656,False,140.03500136185394,174.83695611644356,False,45.114465572837034,False,False
10,1970-07-23 11:12:14.386173529,2025-09-15,2025-09-26 16:23:58.617,HH,C,1761172526,JASSM,3,104,76,2,2,1,225,9,2,0,1,26,0,0,0,0,-179836.89294608062,-4778526.678682174,4211563.397917271,-2.36693,-0.400752,0.381098,75.0,-31.625,-32.5,0.0,0.0,0.0,0.0,0.0,0.0,2,0,41.56215030766328,-92.15527403318283,10997.377150411116,119.80492017194304,-0.0026281916626561,0.0024966692365317,,10094.22773008973,12108.22360793471,150,10,2025-09-15,2025-09-26 16:23:58.624,HH,C,710799546,HAWK11,1,1,73,2,1,1,225,2,1,0,0,12,1,225,2,1,-149026.28552420562,-4789261.314424361,4201144.899870396,2.67191,2.04374,-0.808408,-40.75,78.75,87.125,-0.109375,-6.8125,6.32812,0.0,-0.00390625,0.00390625,4,0,41.43427247832969,-91.78228382276,12110.339622434154,-19.49197375250842,1.4430035999525117,-5.674978711970839,182.145,10094.22773008973,12108.22360793471,150,True,18.419229814483383,False,140.26477825160129,174.68162893990205,False,45.0379811842703,False,False
10,1970-07-23 11:12:14.396191136,2025-09-15,2025-09-26 16:23:59.619,HH,C,1762482946,JASSM,3,104,76,2,2,1,225,9,2,0,1,26,0,0,0,0,-179754.49548514312,-4778561.598604049,4211527.534636021,-2.36693,-0.400752,0.381194,75.0,-31.625,-32.5,0.0,0.0,0.0,0.0,0.0,0.0,2,0,41.561718989641854,-92.15427173496438,10997.374298565635,119.8094272876027,-0.0056889655170812,0.0024949257228602,,10094.22773008973,12108.22360793471,150,10,2025-09-15,2025-09-26 16:23:59.626,HH,C,712032310,HAWK11,1,1,73,2,1,1,225,2,1,0,0,12,1,225,2,1,-149068.91052420562,-4789179.137666549,4201235.290495396,2.68868,2.03387,-0.81416,-41.375,78.875,86.875,-0.15625,-7.09375,6.75,0.0175781,0.015625,-0.00976562,4,0,41.435363528276085,-91.78282383957745,12107.822517083368,-19.01022209684656,1.6119337761902324,-5.111101813958951,182.683,10094.22773008973,12108.22360793471,150,True,18.31841445378025,False,140.55534645570376,174.5129953365912,False,44.915259343378,False,False
10,1970-07-23 11:12:14.407311038,2025-09-15,2025-09-26 16:24:00.731,HH,C,1763736870,JASSM,3,104,76,2,2,1,225,9,2,0,1,26,0,0,0,0,-179675.64978201812,-4778595.012666549,4211493.216276646,-2.36693,-0.400752,0.381194,75.0,-31.625,-32.5,0.0,0.0,0.0,0.0,0.0,0.0,2,0,41.56130625266852,-92.15331265375984,10997.37238211577,119.81006356497237,-0.0048611141161923,0.0024935494102193,,10094.22773008973,12108.22360793471,150,10,2025-09-15,2025-09-26 16:24:00.719,HH,C,713384376,HAWK11,1,1,73,2,1,1,225,2,1,0,0,12,1,225,2,1,-149116.01013358062,-4789090.228486861,4201333.061979771,2.67613,2.05429,-0.808408,-42.125,78.625,86.875,-0.109375,-7.04688,6.67188,0.00195312,0.00390625,-0.00976562,4,0,41.43654361357594,-91.78341986155554,12105.130933805078,-19.881275710389605,1.598033774204722,-5.006564370513064,182.634,10094.22773008973,12108.22360793471,150,True,18.21549532190459,False,140.9039055937454,174.3312123940205,False,44.7499551192634,False,False
10,1970-07-23 11:12:14.418331530,2025-09-15,2025-09-26 16:24:01.833,HH,C,1765050018,JASSM,3,104,76,2,2,1,225,9,2,0,1,26,0,0,0,0,-179593.07946951812,-4778630.004854049,4211457.276823521,-2.36693,-0.400752,0.381194,75.0,-31.625,-32.5,0.0,0.0,0.0,0.0,0.0,0.0,2,0,41.56087401221032,-92.1523082795409,10997.37442691277,119.8107298852461,-0.0039941569344866,0.002492110153241,,10094.22773008973,12108.22360793471,150,10,2025-09-15,2025-09-26 16:24:02.031,HH,C,714776208,HAWK11,1,1,73,2,1,1,225,2,1,0,0,12,1,225,2,1,-149165.81872733062,-4788997.644502486,4201434.892057896,2.66951,2.05448,-0.81301,-42.875,78.625,86.75,-0.171875,-7.23438,6.90625,-0.00585938,0.0117188,0.00390625,4,0,41.43777244775351,-91.78404965234208,12102.435221767131,-19.791327669296056,1.847185033629714,-5.374895129141304,182.891,10094.22773008973,12108.22360793471,150,True,18.10785636156546,False,141.24362880156391,174.14012554523194,False,44.60142892052866,False,False
10,1970-07-23 11:12:14.429349729,2025-09-15,2025-09-26 16:24:02.934,HH,C,1766360348,JASSM,3,104,76,2,2,1,225,9,2,0,1,26,0,0,0,0,-179510.68884451812,-4778664.920869674,4211421.413542271,-2.36693,-0.400752,0.381194,75.0,-31.625,-32.5,0.0,0.0,0.0,0.0,0.0,0.0,2,0,41.5604426900149,-92.15130610436908,10997.376754718174,119.8113947409596,-0.0031290795884763,0.0024906621932179,,10094.22773008973,12108.22360793471,150,10,2025-09-15,2025-09-26 16:24:02.667,HH,C,715213640,HAWK11,1,1,73,2,1,1,225,2,1,0,0,12,1,225,2,1,-149181.33825858062,-4788969.370088424,4201466.138151646,2.66596,2.05601,-0.813585,-43.125,78.5,86.75,-0.046875,-7.28125,6.875,-0.00976562,0.00585938,-0.0078125,4,0,41.43814866449349,-91.78424567615907,12101.959131075626,-19.83540039909113,1.9005448538723877,-5.515716351713383,182.964,10094.22773008973,12108.22360793471,150,True,18.0390923914073,False,141.36344227177167,174.06932905586933,False,44.55300386107457,False,False
10,1970-07-23 11:12:14.438149488,2025-09-15,2025-09-26 16:24:03.814,HH,C,1767435814,JASSM,3,104,76,2,2,1,225,9,2,0,1,26,0,0,0,0,-179443.06286795562,-4778693.577119674,4211391.977995396,-2.36693,-0.400752,0.381194,75.0,-31.625,-32.5,0.0,0.0,0.0,0.0,0.0,0.0,2,0,41.560088677912894,-92.15048353318792,10997.37760076426,119.81194044087344,-0.0024190385935111,0.002489492671362,,10094.22773008973,12108.22360793471,150,10,2025-09-15,2025-09-26 16:24:03.747,HH,C,716565706,HAWK11,1,1,73,2,1,1,225,2,1,0,0,12,1,225,2,1,-149230.73864920562,-4788879.741182174,4201564.868620396,2.66031,2.06464,-0.808408,-43.75,78.5,86.5,-0.109375,-7.04688,6.6875,0.0,-0.0078125,-0.00976562,4,0,41.43933906935017,-91.78486951841518,12099.78073234402,-20.262644326738585,1.7536739853214396,-5.494959874796299,183.013,10094.22773008973,12108.22360793471,150,True,17.942254056946798,False,141.6643936154986,173.88435780242008,False,44.436641249920804,False,False
10,1970-07-23 11:12:14.448209784,2025-09-15,2025-09-26 16:24:04.820,HH,C,1768628500,JASSM,3,104,76,2,2,1,225,9,2,0,1,26,0,0,0,0,-179368.06775076812,-4778725.356416549,4211359.331511021,-2.36693,-0.400752,0.381194,75.0,-31.625,-32.5,0.0,0.0,0.0,0.0,0.0,0.0,2,0,41.55969605742236,-92.1495713374986,10997.375944986949,119.8125455938972,-0.0016316124316111,0.0024881739597644,,10094.22773008973,12108.22360793471,150,10,2025-09-15,2025-09-26 16:24:04.719,HH,C,718196138,HAWK11,1,1,73,2,1,1,225,2,1,0,0,12,1,225,2,1,-149291.04528983062,-4788772.385713424,4201682.813932896,2.64918,2.07624,-0.807353,-44.625,78.25,86.375,-0.09375,-7.04688,6.76562,0.00390625,0.00195312,-0.0078125,4,0,41.44076259063806,-91.785630350975,12096.595212460925,-20.711228536957417,1.8736971939098768,-5.665863051137354,183.294,10094.22773008973,12108.22360793471,150,True,17.829763216847265,False,142.08098680954984,173.6627061424268,False,44.242792144958706,False,False
10,1970-07-23 11:12:14.458309411,2025-09-15,2025-09-26 16:24:05.830,HH,C,1769821454,JASSM,3,104,76,2,2,1,225,9,2,0,1,26,0,0,0,0,-179293.05505545562,-4778757.139619674,4211326.679167271,-2.36693,-0.400657,0.381194,75.0,-31.625,-32.5,0.0,0.0,0.0,0.0,0.0,0.0,2,0,41.559303370844376,-92.14865894063688,10997.373457863654,119.80950682206918,-0.0044104598404194,0.0004434267312468,,10094.22773008973,12108.22360793471,150,10,2025-09-15,2025-09-26 16:24:05.827,HH,C,719508436,HAWK11,1,1,73,2,1,1,225,2,1,0,0,12,1,225,2,1,-149340.30700858062,-4788686.725557174,4201776.931120396,2.64305,2.08238,-0.806874,-45.5,78.25,86.0,0.046875,-7.25,6.90625,0.00585938,0.00390625,-0.00585938,4,0,41.44189826798895,-91.78625110685174,12094.167559335472,-20.94669674290621,1.943288997126948,-5.771300945739355,183.416,10094.22773008973,12108.22360793471,150,True,17.73016319632547,False,142.5047347117031,173.4810652364109,False,43.99984500922515,False,False
10,1970-07-23 11:12:14.467350102,2025-09-15,2025-09-26 16:24:06.735,HH,C,1770895536,JASSM,3,104,76,2,2,1,225,9,2,0,1,26,0,0,0,0,-179225.51794608062,-4778785.756807174,4211297.278776646,-2.36693,-0.400657,0.381194,75.0,-31.625,-32.5,0.0,0.0,0.0,0.0,0.0,0.0,2,0,41.558949789619874,-92.14783747987696,10997.37352069432,119.81005177313114,-0.0037013446225314,0.0004422000089138,,10094.22773008973,12108.22360793471,150,10,2025-09-15,2025-09-26 16:24:06.921,HH,C,720820734,HAWK11,1,1,73,2,1,1,225,2,1,0,0,12,1,225,2,1,-149391.31872733062,-4788600.264619674,4201871.827604771,2.62752,2.09024,-0.806203,-46.375,77.875,85.875,-0.3125,-7.23438,6.84375,0.0117188,0.0,-0.00195312,4,0,41.44304364098437,-91.78689310159206,12091.607493285985,-21.24933303199453,2.03067223237081,-6.346454775376839,183.575,10094.22773008973,12108.22360793471,150,True,17.634307091883233,False,142.93349998750324,173.29866484449437,False,43.754958127787894,False,False
10,1970-07-23 11:12:14.477130076,2025-09-15,2025-09-26 16:24:07.713,HH,C,1772027318,JASSM,3,104,76,2,2,1,225,9,2,0,1,26,0,0,0,0,-179154.35193045562,-4778815.911104049,4211266.298307896,-2.36693,-0.400657,0.381194,75.0,-31.625,-32.5,0.0,0.0,0.0,0.0,0.0,0.0,2,0,41.55857720440865,-92.14697189029636,10997.37497894752,119.8106259948092,-0.002954127824401,0.0004409081420849,,10094.22773008973,12108.22360793471,150,10,2025-09-15,2025-09-26 16:24:07.718,HH,C,721695600,HAWK11,1,1,73,2,1,1,225,2,1,0,0,12,1,225,2,1,-149425.61364920562,-4788543.079072799,4201934.558073521,2.62445,2.10165,-0.808504,-47.0,77.75,85.625,0.0,-7.46875,7.0,0.0527344,0.0078125,0.0,4,0,41.44380085739,-91.78732437294197,12089.887624797626,-21.612640920335632,2.331581505407452,-6.063770860307368,183.783,10094.22773008973,12108.22360793471,150,True,17.554197948922706,False,143.246598069103,173.17078916094894,False,43.56964732286757,False,False
10,1970-07-23 11:12:14.485189010,2025-09-15,2025-09-26 16:24:08.518,HH,C,1773103030,JASSM,3,104,76,2,2,1,225,9,2,0,1,26,0,0,0,0,-179086.71228201812,-4778844.569307174,4211236.852995396,-2.36684,-0.400657,0.381194,75.0,-31.625,-32.5,0.0,0.0,0.0,0.0,0.0,0.0,2,0,41.558223086833976,-92.14614920186084,10997.375056982455,119.81117175246553,-0.0022439428656068,0.0059311621224552,,10094.22773008973,12108.22360793471,150,10,2025-09-15,2025-09-26 16:24:08.421,HH,C,722530700,HAWK11,1,1,73,2,1,1,225,2,1,0,0,12,1,225,2,1,-149458.49841483062,-4788488.719697799,4201994.685026646,2.67555,2.10481,-0.804669,-47.375,77.5,85.625,-0.171875,-6.85938,6.42188,0.0976562,-0.0175781,0.0,4,0,41.44452394735148,-91.78773774339598,12089.35720337618,-21.816054644903545,2.1813375869755567,-3.0130257357027665,183.746,10094.22773008973,12108.22360793471,150,True,17.477917960868155,False,143.43238295367013,173.0477088063432,False,43.50810422495205,False,False
10,1970-07-23 11:12:14.495328395,2025-09-15,2025-09-26 16:24:09.532,HH,C,1774236280,JASSM,3,104,76,2,2,1,225,9,2,0,1,26,0,0,0,0,-179015.45349295562,-4778874.760713424,4211205.829557896,-2.36684,-0.400657,0.38129,75.0,-31.625,-32.5,0.0,0.0,0.0,0.0,0.0,0.0,2,0,41.55784999887669,-92.14528250429257,10997.372459878765,119.81558900347724,-0.0054215284954786,0.005929632513338,,10094.22773008973,12108.22360793471,150,10,2025-09-15,2025-09-26 16:24:09.532,HH,C,723882764,HAWK11,1,1,73,2,1,1,225,2,1,0,0,12,1,225,2,1,-149511.92810233062,-4788400.788057174,4202090.884245396,2.77555,2.09628,-0.803327,-47.25,78.0,85.375,0.09375,-6.875,6.48438,0.140625,0.00976562,0.00976562,4,0,41.44568640571898,-91.78840924352298,12086.219235829169,-21.53596972375224,1.9767291216341183,2.3744881806621403,183.819,10094.22773008973,12108.22360793471,150,True,17.3785560192394,False,143.36025488365374,172.85787673190512,False,43.76743583445142,False,False
10,1970-07-23 11:12:14.505350773,2025-09-15,2025-09-26 16:24:10.535,HH,C,1775427832,JASSM,3,104,76,2,2,1,225,9,2,0,1,26,0,0,0,0,-178940.52966483062,-4778906.504854049,4211173.212370396,-2.36684,-0.400657,0.38129,75.0,-31.625,-32.5,0.0,0.0,0.0,0.0,0.0,0.0,2,0,41.55745772805936,-92.1443712408346,10997.377425352948,119.81619351148338,-0.0046348608390662,0.0059283322355766,,10094.22773008973,12108.22360793471,150,10,2025-09-15,2025-09-26 16:24:10.531,HH,C,724837164,HAWK11,1,1,73,2,1,1,225,2,1,0,0,12,1,225,2,1,-149549.58825858062,-4788337.432588424,4202160.056120396,3.04792,2.08295,-0.811476,-46.0,78.625,85.5,-0.21875,-7.10938,6.60938,0.353516,0.00195312,0.00585938,4,0,41.446523172294775,-91.78888308183733,12083.595416573566,-20.867142243033054,2.2001890760261165,17.453317144837747,183.905,10094.22773008973,12108.22360793471,150,False,17.29280957422446,False,142.74496176969444,172.71299847325008,False,44.52535019680584,False,False
10,1970-07-23 11:12:14.515129726,2025-09-15,2025-09-26 16:24:11.512,HH,C,1776560894,JASSM,3,104,76,2,2,1,225,9,2,0,1,26,0,0,0,0,-178869.28357108062,-4778936.688447799,4211142.192839146,-2.36684,-0.400657,0.38129,75.0,-31.625,-32.5,0.0,0.0,0.0,0.0,0.0,0.0,2,0,41.55708469672689,-92.1435047192118,10997.372656883435,119.81676833459652,-0.0038868039938078,0.0059270876248475,,10094.22773008973,12108.22360793471,150,10,2025-09-15,2025-09-26 16:24:11.718,HH,C,726467596,HAWK11,1,1,73,2,1,1,225,2,1,0,0,12,1,225,2,1,-149610.05700858062,-4788228.174775924,4202277.265104771,3.03565,1.99226,-0.816078,-41.875,80.25,86.125,0.0,-7.0625,6.875,-0.265625,0.00390625,0.0722656,4,0,41.44795299669688,-91.78964673568768,12074.223366965374,-17.44033993145882,1.1697854262305685,13.072555937081978,183.709,10094.22773008973,12108.22360793471,150,False,17.18385634484303,False,140.72978944912407,172.47547596321508,False,46.77286133781358,False,False
10,1970-07-23 11:12:14.523191554,2025-09-15,2025-09-26 16:24:12.319,HH,C,1777634636,JASSM,3,104,76,2,2,1,225,9,2,0,1,26,0,0,0,0,-178801.76696951812,-4778965.291963424,4211112.798307896,-2.36684,-0.400657,0.38129,75.0,-31.625,-32.5,0.0,0.0,0.0,0.0,0.0,0.0,2,0,41.556731194985936,-92.14268356629388,10997.373946184696,119.81731305763056,-0.0031779097020444,0.0059259156850466,,10094.22773008973,12108.22360793471,150,10,2025-09-15,2025-09-26 16:24:12.327,HH,C,727223162,HAWK11,1,1,73,2,1,1,225,2,1,0,0,12,1,225,2,1,-149636.15271170562,-4788177.028291549,4202331.942839146,2.91926,1.96254,-0.817516,-40.875,80.75,86.5,0.078125,-7.1875,6.8125,-0.166016,0.015625,0.00195312,4,0,41.44862145785461,-91.78997779899112,12069.25679269101,-16.308936873437567,0.8781049235917413,5.182755468897397,184.601,10094.22773008973,12108.22360793471,150,True,17.112782396938037,False,140.20516897399807,172.35220121594634,False,47.42005503389496,False,False
10,1970-07-23 11:12:14.533327948,2025-09-15,2025-09-26 16:24:13.332,HH,C,1778827682,JASSM,3,104,76,2,2,1,225,9,2,0,1,26,0,0,0,0,-178726.74939139312,-4778997.073213424,4211080.136198521,-2.36684,-0.400657,0.38129,75.0,-31.625,-32.5,0.0,0.0,0.0,0.0,0.0,0.0,2,0,41.55633840053689,-92.14177119524562,10997.374848412635,119.8179182869978,-0.0023902523048096,0.0059246027635554,,10094.22773008973,12108.22360793471,150,10,2025-09-15,2025-09-26 16:24:13.421,HH,C,728376394,HAWK11,1,1,73,2,1,1,225,2,1,0,0,12,1,225,2,1,-149675.42810233062,-4788098.411104049,4202416.487761021,2.73595,2.01584,-0.808312,-40.375,80.75,87.125,0.078125,-7.28125,7.03125,-0.115234,-0.00585938,-0.0410156,4,0,41.44965247426152,-91.79047669211056,12062.650315337356,-18.466091121071216,1.0646866165490645,-3.1381751546843564,184.797,10094.22773008973,12108.22360793471,150,True,17.021944016788556,False,139.91763037031004,172.16786785655898,False,47.89496506596558,False,False
10,1970-07-23 11:12:14.543367455,2025-09-15,2025-09-26 16:24:14.336,HH,C,1779963004,JASSM,3,104,76,2,2,1,225,9,2,0,1,26,0,0,0,0,-178655.35974295562,-4779027.315400924,4211049.054167271,-2.36684,-0.400561,0.38129,75.0,-31.625,-32.5,0.0,0.0,0.0,0.0,0.0,0.0,2,0,41.55596461114283,-92.1409029586234,10997.375358433985,119.81485044939592,-0.00520712958369,0.0038794721244392,,10094.22773008973,12108.22360793471,150,10,2025-09-15,2025-09-26 16:24:14.421,HH,C,729688692,HAWK11,1,1,73,2,1,1,225,2,1,0,0,12,1,225,2,1,-149720.03357108062,-4788008.848604049,4202512.503386021,2.71505,2.0122,-0.798533,-41.0,81.25,87.0,-0.296875,-6.85938,6.39062,0.0449219,0.0136719,0.0117188,4,0,41.45082503271555,-91.79104341297344,12054.4714888448,-18.522204394417184,0.4898847023034847,-4.486652841260531,184.846,10094.22773008973,12108.22360793471,150,True,16.92755239969458,False,140.15412753464028,171.96000284933783,False,47.86384088330896,False,False
10,1970-07-23 11:12:14.553410680,2025-09-15,2025-09-26 16:24:15.341,HH,C,1781214272,JASSM,3,104,76,2,2,1,225,9,2,0,1,26,0,0,0,0,-178576.68103201812,-4779060.645479049,4211014.796354771,-2.36684,-0.400561,0.38129,75.0,-31.625,-32.5,0.0,0.0,0.0,0.0,0.0,0.0,2,0,41.55555263376794,-92.13994608441048,10997.375439255551,119.8154851906818,-0.0043810332040386,0.0038780438415081,,10094.22773008973,12108.22360793471,150,10,2025-09-15,2025-09-26 16:24:15.530,HH,C,731080524,HAWK11,1,1,73,2,1,1,225,2,1,0,0,12,1,225,2,1,-149767.71716483062,-4787914.077119674,4202613.497526646,2.75647,2.01632,-0.795561,-41.375,81.625,86.875,-0.03125,-7.07812,6.5,0.00390625,-0.00390625,-0.00390625,4,0,41.452061609334834,-91.79164890174188,12044.549260689157,-18.736026225792543,0.3877736240929412,-1.9462581992791608,185.53,10094.22773008973,12108.22360793471,150,True,16.825816602408484,False,140.29319836397207,171.73766084425372,False,47.9450785110337,False,False
10,1970-07-23 11:12:14.564148370,2025-09-15,2025-09-26 16:24:16.414,HH,C,1782408708,JASSM,3,104,76,2,2,1,225,9,2,0,1,26,0,0,0,0,-178501.57556326812,-4779092.459932174,4210982.095182896,-2.36684,-0.400561,0.38129,75.0,-31.625,-32.5,0.0,0.0,0.0,0.0,0.0,0.0,2,0,41.55515937598463,-92.1390326794254,10997.376614109238,119.81609109188774,-0.0035924633763937,0.003876694684742,,10094.22773008973,12108.22360793471,150,10,2025-09-15,2025-09-26 16:24:16.531,HH,C,732193990,HAWK11,1,1,73,2,1,1,225,2,1,0,0,12,1,225,2,1,-149806.68591483062,-4787837.159150924,4202695.567839146,2.7533,2.01814,-0.80208,-41.5,80.25,88.625,-0.140625,-7.51562,7.0,0.0,0.0136719,0.0078125,4,0,41.45306586954538,-91.79214354720416,12036.746373749076,-18.675971676052452,0.7645843135528185,-2.0521134664910585,185.97,10094.22773008973,12108.22360793471,150,True,16.736291957580065,False,140.2725547210773,171.5516497190282,False,48.16530902459671,False,False
10,1970-07-23 11:12:14.574209504,2025-09-15,2025-09-26 16:24:17.420,HH,C,1783660734,JASSM,3,104,76,2,2,1,225,9,2,0,1,26,0,0,0,0,-178422.84802420562,-4779125.807588424,4210947.813932896,-2.36684,-0.400561,0.38129,75.0,-31.625,-32.5,0.0,0.0,0.0,0.0,0.0,0.0,2,0,41.55474713117412,-92.13807523653496,10997.37285358256,119.8167262002938,-0.0027658570307,0.003875268289437,,10094.22773008973,12108.22360793471,150,10,2025-09-15,2025-09-26 16:24:17.719,HH,C,733705122,HAWK11,1,1,73,2,1,1,225,2,1,0,0,12,1,225,2,1,-149858.99060233062,-4787734.452119674,4202806.009245396,2.74372,2.02092,-0.812626,-41.75,81.0,88.0,-0.03125,-7.70312,7.26562,-0.0234375,0.015625,-0.00195312,4,0,41.45441254880873,-91.79280729566229,12028.21560192318,-18.57055136178176,1.3710379913177568,-2.484315664795142,186.459,10094.22773008973,12108.22360793471,150,True,16.630172169826064,False,140.38418278780736,171.30632295983492,False,48.294216930277905,False,False
10,1970-07-23 11:12:14.583347163,2025-09-15,2025-09-26 16:24:18.334,HH,C,1784795044,JASSM,3,104,76,2,2,1,225,9,2,0,1,26,0,0,0,0,-178351.52282889312,-4779156.020479049,4210916.757292271,-2.36684,-0.400561,0.38129,75.0,-31.625,-32.5,0.0,0.0,0.0,0.0,0.0,0.0,2,0,41.55437364517046,-92.13720782722598,10997.37790589769,119.8173015815208,-0.0020169741627003,0.0038739799785699,,10094.22773008973,12108.22360793471,150,10,2025-09-15,2025-09-26 16:24:18.326,HH,C,734420920,HAWK11,1,1,73,2,1,1,225,2,1,0,0,12,1,225,2,1,-149883.95739920562,-4787685.831025924,4202859.106901646,2.72531,2.02591,-0.813873,-42.0,80.625,88.375,-0.078125,-7.82812,7.42188,-0.03125,0.015625,-0.00585938,4,0,41.45505551945402,-91.79312398375012,12025.968095800195,-18.72985884228398,1.5071119497046823,-3.335449100336091,186.422,10094.22773008973,12108.22360793471,150,True,16.55866141577337,False,140.48154486705124,171.17661092031818,False,48.32967391935883,False,False
10,1970-07-23 11:12:14.594366639,2025-09-15,2025-09-26 16:24:19.436,HH,C,1786045614,JASSM,3,104,76,2,2,1,225,9,2,0,1,26,0,0,0,0,-178272.88708670562,-4779189.327119674,4210882.515104771,-2.36684,-0.400561,0.381386,75.0,-31.625,-32.5,0.0,0.0,0.0,0.0,0.0,0.0,2,0,41.55396187240435,-92.13625152482908,10997.375237218434,119.8217783670705,-0.0051169755489738,0.0038723490172737,,10094.22773008973,12108.22360793471,150,10,2025-09-15,2025-09-26 16:24:19.826,HH,C,736170652,HAWK11,1,1,73,2,1,1,225,2,1,0,0,12,1,225,2,1,-149946.47888358062,-4787567.383760299,4202990.563932896,2.6977,2.03454,-0.822597,-42.75,79.5,89.375,-0.046875,-7.67188,7.51562,-0.00390625,0.00976562,-0.0117188,4,0,41.456635750370296,-91.79391581806092,12025.206872076782,-18.86991893152337,2.095833970577053,-4.560944401958092,186.74,10094.22773008973,12108.22360793471,150,True,16.442719432168904,False,140.78074596498294,170.88773704999298,False,48.326292345853204,False,False
10,1970-07-23 11:12:14.604130525,2025-09-15,2025-09-26 16:24:20.413,HH,C,1787239940,JASSM,3,104,76,2,2,1,225,9,2,0,1,26,0,0,0,0,-178197.78845389312,-4779221.135713424,4210849.811979771,-2.36684,-0.400561,0.381386,75.0,-31.625,-32.5,0.0,0.0,0.0,0.0,0.0,0.0,2,0,41.553568605445285,-92.1353382490895,10997.374461608202,119.82238416358167,-0.0043284703310054,0.0038710387797189,,10094.22773008973,12108.22360793471,150,10,2025-09-15,2025-09-26 16:24:20.420,HH,C,736886452,HAWK11,1,1,73,2,1,1,225,2,1,0,0,12,1,225,2,1,-149972.09607108062,-4787519.563447799,4203044.520964146,2.68955,2.03914,-0.821447,-43.125,79.125,89.875,-0.09375,-7.5625,7.32812,-0.00390625,0.00195312,-0.00390625,4,0,41.45727962394527,-91.79424000423332,12026.854471153243,-19.06145652057099,2.0991914062425834,-4.841691473183744,186.789,10094.22773008973,12108.22360793471,150,True,16.36881170893975,False,140.90984113581027,170.75348221248638,False,48.33345979104624,False,False
10,1970-07-23 11:12:14.614168175,2025-09-15,2025-09-26 16:24:21.416,HH,C,1788432008,JASSM,3,104,76,2,2,1,225,9,2,0,1,26,0,0,0,0,-178122.83142264312,-4779252.883760299,4210817.171354771,-2.36684,-0.400561,0.381386,75.0,-31.625,-32.5,0.0,0.0,0.0,0.0,0.0,0.0,2,0,41.553176081786575,-92.13442670666332,10997.378065337798,119.82298880565064,-0.0035414564787423,0.003869738728359,,10094.22773008973,12108.22360793471,150,10,2025-09-15,2025-09-26 16:24:21.348,HH,C,737602250,HAWK11,1,1,73,2,1,1,225,2,1,0,0,12,1,225,2,1,-149998.20349295562,-4787472.098604049,4203098.384245396,2.68015,2.04345,-0.820871,-43.625,78.875,90.0,-0.1875,-7.29688,7.09375,-0.00390625,0.0078125,-0.00195312,4,0,41.457920655945664,-91.79456992490924,12029.21279242574,-19.230762942709188,2.1298967403583022,-5.205311821310846,186.703,10094.22773008973,12108.22360793471,150,True,16.29490162894531,False,141.12698195672564,170.6189186258914,False,48.25167233196315,False,False
10,1970-07-23 11:12:14.624188233,2025-09-15,2025-09-26 16:24:22.418,HH,C,1789624752,JASSM,3,104,76,2,2,1,225,9,2,0,1,26,0,0,0,0,-178047.83239920562,-4779284.647432174,4210784.511198521,-2.36684,-0.400561,0.381386,75.0,-31.625,-32.5,0.0,0.0,0.0,0.0,0.0,0.0,2,0,41.552783335473016,-92.13351466557826,10997.377615018264,119.82359377379358,-0.0027540045392197,0.003868441464338,,10094.22773008973,12108.22360793471,150,10,2025-09-15,2025-09-26 16:24:22.530,HH,C,739431516,HAWK11,1,1,73,2,1,1,225,2,1,0,0,12,1,225,2,1,-150064.99060233062,-4787352.248994674,4203234.737761021,2.66558,2.05812,-0.820009,-44.5,78.625,89.625,-0.234375,-7.0,6.79688,0.00195312,0.0,-0.0117188,4,0,41.45954145196485,-91.7954133562146,12036.002986980177,-19.782987683091346,2.295972820971756,-5.446770020300575,186.74,10094.22773008973,12108.22360793471,150,True,16.17902581424404,False,141.5667464415665,170.3173020645256,False,48.11354997543698,False,False
10,1970-07-23 11:12:14.634327773,2025-09-15,2025-09-26 16:24:23.432,HH,C,1790817800,JASSM,3,104,76,2,2,1,225,9,2,0,1,26,0,0,0,0,-177972.81286795562,-4779316.418916549,4210751.841276646,-2.36684,-0.400465,0.381386,75.0,-31.625,-32.5,0.0,0.0,0.0,0.0,0.0,0.0,2,0,41.55239047408719,-92.13260238653872,10997.377163992904,119.82055537750564,-0.0055327652389684,0.0018227805947341,,10094.22773008973,12108.22360793471,150,10,2025-09-15,2025-09-26 16:24:23.666,HH,C,740147314,HAWK11,1,1,73,2,1,1,225,2,1,0,0,12,1,225,2,1,-150091.94177420562,-4787304.948213424,4203288.358854771,2.66462,2.06042,-0.816078,-45.0,78.625,89.5,-0.0625,-6.73438,6.54688,0.00195312,-0.0117188,-0.00390625,4,0,41.46017971200418,-91.79575332644596,12038.3140269718,-19.950879335611003,2.1212281773578,-5.41192162327661,186.862,10094.22773008973,12108.22360793471,150,True,16.1050070733272,False,141.79366572905425,170.1802348394526,False,48.023570924464394,False,False
10,1970-07-23 11:12:14.643367206,2025-09-15,2025-09-26 16:24:24.336,HH,C,1791951790,JASSM,3,104,76,2,2,1,225,9,2,0,1,26,0,0,0,0,-177901.50818045562,-4779346.616182174,4210720.786589146,-2.36684,-0.400465,0.381386,75.0,-31.625,-32.5,0.0,0.0,0.0,0.0,0.0,0.0,2,0,41.5520170484528,-92.13173529271845,10997.372583373728,119.82113052283212,-0.004784096609516,0.0018214890671401,,10094.22773008973,12108.22360793471,150,10,2025-09-15,2025-09-26 16:24:24.326,HH,C,741380080,HAWK11,1,1,73,2,1,1,225,2,1,0,0,12,1,225,2,1,-150138.88513358062,-4787222.604463424,4203381.302214146,2.81265,2.06263,-0.817804,-45.25,79.125,89.0,-0.203125,-6.90625,6.75,0.466797,0.0136719,0.00585938,4,0,41.46128810327389,-91.79634548326048,12041.470615834573,-19.994525653464077,2.2464618506711584,3.160023046712249,187.583,10094.22773008973,12108.22360793471,150,True,16.013127517288265,False,141.91843805948088,169.96277152519625,False,48.11420849928135,False,False
10,1970-07-23 11:12:14.653147694,2025-09-15,2025-09-26 16:24:25.314,HH,C,1793086082,JASSM,3,104,76,2,2,1,225,9,2,0,1,26,0,0,0,0,-177830.18396170562,-4779376.823213424,4210689.724089146,-2.36684,-0.400465,0.381386,75.0,-31.625,-32.5,0.0,0.0,0.0,0.0,0.0,0.0,2,0,41.55164350972649,-92.1308679707089,10997.376755500389,119.82170581526954,-0.004035220320318,0.0018201937259863,,10094.22773008973,12108.22360793471,150,10,2025-09-15,2025-09-26 16:24:25.218,HH,C,742573078,HAWK11,1,1,73,2,1,1,225,2,1,0,0,12,1,225,2,1,-150182.49255545562,-4787143.559541549,4203470.101042271,-3.05032,2.05199,-0.83717,-42.625,79.75,89.625,-0.4375,-7.0625,6.875,0.138672,0.0371094,0.0253906,4,0,41.46234951957658,-91.79689653509855,12043.4823926229,-19.198802562774937,3.124613083506704,26.824950568977464,186.667,10094.22773008973,12108.22360793471,150,False,15.924156761203438,False,140.67472829316242,169.75009025602083,False,49.57007357652805,False,False
10,1970-07-23 11:12:14.662207004,2025-09-15,2025-09-26 16:24:26.220,HH,C,1794219476,JASSM,3,104,76,2,2,1,225,9,2,0,1,26,0,0,0,0,-177758.91638358062,-4779407.002900924,4210658.686979771,-2.36684,-0.400465,0.381386,75.0,-31.625,-32.5,0.0,0.0,0.0,0.0,0.0,0.0,2,0,41.551270285964094,-92.13000134893338,10997.377839165129,119.82228063899888,-0.0032869520322044,0.0018189204176666,,10094.22773008973,12108.22360793471,150,10,2025-09-15,2025-09-26 16:24:26.125,HH,C,743686544,HAWK11,1,1,73,2,1,1,225,2,1,0,0,12,1,225,2,1,-150220.59607108062,-4787067.397432174,4203554.257292271,-3.10526,1.93004,-0.843881,-38.625,80.875,90.25,0.0,-7.40625,7.28125,-0.40625,0.00585938,0.0703125,4,0,41.463363485905,-91.79738071235334,12042.076723390495,-14.666014273080052,1.9638435222745525,18.670362100373275,186.789,10094.22773008973,12108.22360793471,150,False,15.839224215819364,False,138.80082497619046,169.5411868370699,False,51.65068924831694,False,False
10,1970-07-23 11:12:14.673369113,2025-09-15,2025-09-26 16:24:27.336,HH,C,1795472342,JASSM,3,104,76,2,2,1,225,9,2,0,1,26,0,0,0,0,-177680.13611014312,-4779440.364229049,4210624.374479771,-2.36684,-0.400465,0.381386,75.0,-31.625,-32.5,0.0,0.0,0.0,0.0,0.0,0.0,2,0,41.55085768537438,-92.12904338343188,10997.375939184514,119.82291604540272,-0.0024597918920541,0.0018174905994378,,10094.22773008973,12108.22360793471,150,10,2025-09-15,2025-09-26 16:24:27.218,HH,C,744998842,HAWK11,1,1,73,2,1,1,225,2,1,0,0,12,1,225,2,1,-150262.18786795562,-4786978.190400924,4203653.337370396,2.72847,1.92189,-0.852702,-37.375,81.125,90.875,0.09375,-7.51562,7.32812,-0.404297,0.0175781,-0.0683594,4,0,41.46455512499707,-91.79791151133718,12041.31259055198,-14.227017628008667,2.362565084309721,-7.415178033214988,188.109,10094.22773008973,12108.22360793471,150,True,15.744377496409951,False,138.17585491984212,169.29285030418475,False,52.52486050773164,False,False
10,1970-07-23 11:12:14.683148872,2025-09-15,2025-09-26 16:24:28.314,HH,C,1796665482,JASSM,3,104,76,2,2,1,225,9,2,0,1,26,0,0,0,0,-177605.11169608062,-4779472.133760299,4210591.698698521,-2.36684,-0.400465,0.381386,75.0,-31.625,-32.5,0.0,0.0,0.0,0.0,0.0,0.0,2,0,41.550464761658176,-92.12813110095496,10997.376904472285,119.82352114601514,-0.00167207376401,0.0018161404445335,,10094.22773008973,12108.22360793471,150,10,2025-09-15,2025-09-26 16:24:28.124,HH,C,745913474,HAWK11,1,1,73,2,1,1,225,2,1,0,0,12,1,225,2,1,-150292.00622733062,-4786915.247041549,4203724.026823521,2.43462,1.99974,-0.833814,-39.375,80.75,90.875,0.0625,-7.875,7.78125,-0.169922,0.0078125,-0.0488281,4,0,41.46540109913057,-91.79829168860428,12042.509946310842,-17.384525161279342,2.2435873793001533,-21.04656466684585,188.463,10094.22773008973,12108.22360793471,150,False,15.665292835246678,False,139.06112271924673,169.1064710087957,False,51.82737945546927,False,False
10,1970-07-23 11:12:14.694166183,2025-09-15,2025-09-26 16:24:29.416,HH,C,1797917982,JASSM,3,104,76,2,2,1,225,9,2,0,1,26,0,0,0,0,-177526.35388358062,-4779505.483369674,4210557.395964146,-2.36684,-0.400465,0.381482,75.0,-31.625,-32.5,0.0,0.0,0.0,0.0,0.0,0.0,2,0,41.55005227612161,-92.12717343333496,10997.378072811602,119.82799892923788,-0.0047706585785196,0.0018145336076419,,10094.22773008973,12108.22360793471,150,10,2025-09-15,2025-09-26 16:24:29.125,HH,C,747225774,HAWK11,1,1,73,2,1,1,225,2,1,0,0,12,1,225,2,1,-150337.07653983062,-4786827.250947799,4203823.628386021,2.34613,2.04959,-0.813777,-43.375,79.875,90.5,0.046875,-7.46875,7.20312,0.0214844,0.0078125,-0.03125,4,0,41.46658838724159,-91.7988636611098,12046.139966978806,-19.60586353641602,1.8481477273840563,-24.09986594297327,188.585,10094.22773008973,12108.22360793471,150,False,15.56932247328375,False,140.8716156822916,168.85570407442,False,50.26958043369957,False,False
10,1970-07-23 11:12:14.704210679,2025-09-15,2025-09-26 16:24:30.421,HH,C,1799170872,JASSM,3,104,76,2,2,1,225,9,2,0,1,26,0,0,0,0,-177447.57165701812,-4779538.840791549,4210523.081511021,-2.36684,-0.400465,0.381482,75.0,-31.625,-32.5,0.0,0.0,0.0,0.0,0.0,0.0,2,0,41.54963966246525,-92.12621548215192,10997.375048573664,119.8286343109357,-0.003943489378356,0.0018131763954465,,10094.22773008973,12108.22360793471,150,10,2025-09-15,2025-09-26 16:24:30.421,HH,C,748697138,HAWK11,1,1,73,2,1,1,225,2,1,0,0,12,1,225,2,1,-150392.26989920562,-4786729.129854049,4203934.669401646,2.41334,2.10913,-0.795081,-47.25,79.125,89.5,-0.046875,-7.39062,7.20312,0.0683594,0.00976562,-0.0332031,4,0,41.46791121811279,-91.79956050848511,12050.535384560166,-22.203180738972307,1.7730550351527954,-17.873158977501394,188.622,10094.22773008973,12108.22360793471,150,False,15.465743392145347,False,142.68659325790273,168.57996323710984,False,48.73061616703307,False,False
10,1970-07-23 11:12:14.714329780,2025-09-15,2025-09-26 16:24:31.432,HH,C,1800423858,JASSM,3,104,76,2,2,1,225,9,2,0,1,26,0,0,0,0,-177368.78454764312,-4779572.202119674,4210488.763151646,-2.36684,-0.400465,0.381482,75.0,-31.625,-32.5,0.0,0.0,0.0,0.0,0.0,0.0,2,0,41.54922699227295,-92.1252574829628,10997.37703007556,119.82926971929278,-0.0031162569046395,0.0018117994572589,,10094.22773008973,12108.22360793471,150,10,2025-09-15,2025-09-26 16:24:31.030,HH,C,749492472,HAWK11,1,1,73,2,1,1,225,2,1,0,0,12,1,225,2,1,-150424.49060233062,-4786676.500947799,4203994.151823521,2.47086,2.12456,-0.792205,-49.0,78.625,89.25,-0.234375,-7.35938,7.15625,0.0859375,0.00195312,-0.0136719,4,0,41.46861973440655,-91.79996557783744,12052.934535611465,-22.83708092396847,1.8772821981297476,-13.966929996456496,188.622,10094.22773008973,12108.22360793471,150,False,15.386518700251107,False,143.4917012730823,168.4150515268306,False,48.09123021652959,False,False
10,1970-07-23 11:12:14.725346878,2025-09-15,2025-09-26 16:24:32.534,HH,C,1801676404,JASSM,3,104,76,2,2,1,225,9,2,0,1,26,0,0,0,0,-177290.02380545562,-4779605.549775924,4210454.456511021,-2.36684,-0.400465,0.381482,75.0,-31.625,-32.5,0.0,0.0,0.0,0.0,0.0,0.0,2,0,41.54881446870704,-92.1242998176731,10997.377732359411,119.82990490100408,-0.0022893101601805,0.0018104368680819,,10094.22773008973,12108.22360793471,150,10,2025-09-15,2025-09-26 16:24:32.624,HH,C,751480802,HAWK11,1,1,73,2,1,1,225,2,1,0,0,12,1,225,2,1,-150508.06482108062,-4786545.725557174,4204142.058073521,2.56999,2.15208,-0.780892,-51.25,78.25,88.125,-0.140625,-6.45312,6.26562,0.0488281,-0.0117188,-0.0136719,4,0,41.47038031246508,-91.80101413341228,12059.402772424328,-24.121504752013443,1.76239252385601,-7.211629063416253,188.744,10094.22773008973,12108.22360793471,150,True,15.260401620458586,False,144.61227713587792,168.05804461663774,False,47.32671123234096,False,False
10,1970-07-23 11:12:14.737066223,2025-09-15,2025-09-26 16:24:33.706,HH,C,1802869738,JASSM,3,104,76,2,2,1,225,9,2,0,1,26,0,0,0,0,-177214.98669608062,-4779637.319307174,4210421.770964146,-2.36674,-0.400369,0.381482,75.0,-31.625,-32.5,0.0,0.0,0.0,0.0,0.0,0.0,2,0,41.548421444259006,-92.123387440671,10997.37688099672,119.82686679060512,-0.0050678833904669,0.0052557323334797,,10094.22773008973,12108.22360793471,150,10,2025-09-15,2025-09-26 16:24:33.746,HH,C,750009438,HAWK11,1,1,73,2,1,1,225,2,1,0,0,12,1,225,2,1,-150446.14099295562,-4786642.102510299,4204033.128386021,2.49742,2.13559,-0.792589,-49.875,78.25,89.0,-0.046875,-7.23438,7.125,0.0800781,0.0,-0.0195312,4,0,41.46908337676324,-91.80023740247115,12054.764617137658,-23.231348524431045,2.082967600783576,-12.009120637338516,188.903,10094.22773008973,12108.22360793471,150,False,15.271509984341405,False,143.92345453905656,168.2571546458597,False,47.817765384788885,False,False
10,1970-07-23 11:12:14.746164807,2025-09-15,2025-09-26 16:24:34.616,HH,C,1804122384,JASSM,3,104,76,2,2,1,225,9,2,0,1,26,0,0,0,0,-177136.22009451812,-4779670.666963424,4210387.458464146,-2.36674,-0.400369,0.381482,75.0,-31.625,-32.5,0.0,0.0,0.0,0.0,0.0,0.0,2,0,41.5480088668951,-92.12242972901504,10997.372821432376,119.8275019930432,-0.0042408720944,0.0052543100931896,,10094.22773008973,12108.22360793471,150,10,2025-09-15,2025-09-26 16:24:34.420,HH,C,753588434,HAWK11,1,1,73,2,1,1,225,2,1,0,0,12,1,225,2,1,-150599.67224295562,-4786406.930635299,4204296.101042271,2.57872,2.16636,-0.774469,-52.625,78.5,87.25,0.078125,-6.65625,6.4375,0.00390625,0.0,-0.00195312,4,0,41.47222851907251,-91.80216182892669,12060.14495956538,-24.80783885149926,1.687092891894579,-6.158084985348991,189.062,10094.22773008973,12108.22360793471,150,True,15.08296336531725,False,145.27288006348826,167.6428233795698,False,47.07875605919173,False,False
10,1970-07-23 11:12:14.756186167,2025-09-15,2025-09-26 16:24:35.618,HH,C,1805373312,JASSM,3,104,76,2,2,1,225,9,2,0,1,26,0,0,0,0,-177057.56189139312,-4779703.969697799,4210353.194792271,-2.36674,-0.400369,0.381482,75.0,-31.625,-32.5,0.0,0.0,0.0,0.0,0.0,0.0,2,0,41.547596854363256,-92.1214733470814,10997.379003147273,119.8281363083714,-0.0034150010939762,0.0052528943022886,,10094.22773008973,12108.22360793471,150,10,2025-09-15,2025-09-26 16:24:35.530,HH,C,754900732,HAWK11,1,1,73,2,1,1,225,2,1,0,0,12,1,225,2,1,-150657.66443045562,-4786320.586885299,4204391.222136021,2.59051,2.17308,-0.768524,-53.5,78.75,86.875,0.0625,-6.9375,6.73438,0.0234375,-0.0136719,-0.00195312,4,0,41.4733733101527,-91.80288784022518,12059.158411776329,-25.20623973096925,1.504622722833887,-5.225405240633975,189.526,10094.22773008973,12108.22360793471,150,True,14.983006914359313,False,145.65435176309165,167.3903207254,False,46.947932520342704,False,False
10,1970-07-23 11:12:14.766206026,2025-09-15,2025-09-26 16:24:36.620,HH,C,1806568144,JASSM,3,104,76,2,2,1,225,9,2,0,1,26,0,0,0,0,-176982.43005545562,-4779735.776338424,4210320.464323521,-2.36674,-0.400369,0.381482,75.0,-31.625,-32.5,0.0,0.0,0.0,0.0,0.0,0.0,2,0,41.54720330444488,-92.120559853914,10997.37512330558,119.82874217312413,-0.0026261554434769,0.0052515405038512,,10094.22773008973,12108.22360793471,150,10,2025-09-15,2025-09-26 16:24:36.530,HH,C,756133498,HAWK11,1,1,73,2,1,1,225,2,1,0,0,12,1,225,2,1,-150713.41443045562,-4786239.629854049,4204481.270964146,2.57738,2.18487,-0.772647,-54.0,76.0,89.25,-0.078125,-7.45312,7.23438,-0.0136719,0.00390625,-0.00195312,4,0,41.47445223108826,-91.80358503408544,12060.22223877484,-25.53471009301261,1.9339735895631631,-5.51716499215037,189.844,10094.22773008973,12108.22360793471,150,True,14.88790460171348,False,145.7863558529468,167.1493047508366,False,47.06368966115145,False,False
10,1970-07-23 11:12:14.777327973,2025-09-15,2025-09-26 16:24:37.732,HH,C,1807878464,JASSM,3,104,76,2,2,1,225,9,2,0,1,26,0,0,0,0,-176900.03650076812,-4779770.657197799,4210284.571745396,-2.36674,-0.400369,0.381482,75.0,-31.625,-32.5,0.0,0.0,0.0,0.0,0.0,0.0,2,0,41.54677171765669,-92.11955808160648,10997.37848322604,119.82940658266934,-0.0017610700356882,0.0052500638826377,,10094.22773008973,12108.22360793471,150,10,2025-09-15,2025-09-26 16:24:37.718,HH,C,757286730,HAWK11,1,1,73,2,1,1,225,2,1,0,0,12,1,225,2,1,-150766.18591483062,-4786163.461885299,4204564.638151646,2.59981,2.17988,-0.769771,-54.875,78.25,86.75,0.015625,-6.85938,6.60938,0.015625,-0.00390625,0.0,4,0,41.47545812977595,-91.80424482596749,12058.31248156096,-25.426197664861952,1.6958127985408709,-4.427401077173188,190.198,10094.22773008973,12108.22360793471,150,True,14.791498469461756,False,146.28385936776792,166.9155100479937,False,46.795052528963225,False,False
10,1970-07-23 11:12:14.787368077,2025-09-15,2025-09-26 16:24:38.736,HH,C,1809132810,JASSM,3,104,76,2,2,1,225,9,2,0,1,26,0,0,0,0,-176821.16345389312,-4779804.045869674,4210250.210417271,-2.36674,-0.400369,0.381578,75.0,-31.625,-32.5,0.0,0.0,0.0,0.0,0.0,0.0,2,0,41.54635855827961,-92.11859912625728,10997.376607958477,119.83388531471908,-0.0048583099433181,0.0052484513042635,,10094.22773008973,12108.22360793471,150,10,2025-09-15,2025-09-26 16:24:38.624,HH,C,758519496,HAWK11,1,1,73,2,1,1,225,2,1,0,0,12,1,225,2,1,-150823.48278983062,-4786081.827119674,4204654.601042271,2.60518,2.18506,-0.768524,-55.375,78.375,86.625,-0.125,-7.0,6.73438,0.0078125,0.0,0.00390625,4,0,41.47654020951355,-91.80496081983438,12057.661932365896,-25.649255620210003,1.7290457489637916,-3.920100145849656,190.284,10094.22773008973,12108.22360793471,150,True,14.693774791761376,False,146.48871347221709,166.66642965048737,False,46.83858927962108,False,False
10,1970-07-23 11:12:14.798126820,2025-09-15,2025-09-26 16:24:39.812,HH,C,1810384032,JASSM,3,104,76,2,2,1,225,9,2,0,1,26,0,0,0,0,-176742.48571951812,-4779837.352510299,4210215.933073521,-2.36674,-0.400369,0.381578,75.0,-31.625,-32.5,0.0,0.0,0.0,0.0,0.0,0.0,2,0,41.54594640270163,-92.11764255743644,10997.378286438308,119.83451973338944,-0.0040322304433618,0.0052470821103774,,10094.22773008973,12108.22360793471,150,10,2025-09-15,2025-09-26 16:24:39.920,HH,C,760149926,HAWK11,1,1,73,2,1,1,225,2,1,0,0,12,1,225,2,1,-150899.62146170562,-4785974.491182174,4204772.819792271,2.63097,2.18717,-0.769962,-55.875,78.25,86.75,0.03125,-7.1875,6.98438,0.0410156,0.0,0.0,4,0,41.47796235041268,-91.80591187030892,12056.736734652864,-25.690143719993262,1.843368421701652,-2.359607391568148,190.712,10094.22773008973,12108.22360793471,150,True,14.580602115445135,False,146.68406838890047,166.34920491969393,False,46.96148121245467,False,False
10,1970-07-23 11:12:14.809169615,2025-09-15,2025-09-26 16:24:40.916,HH,C,1811636462,JASSM,3,104,76,2,2,1,225,9,2,0,1,26,0,0,0,0,-176663.73278983062,-4779870.688447799,4210181.622526646,-2.36674,-0.400369,0.381578,75.0,-31.625,-32.5,0.0,0.0,0.0,0.0,0.0,0.0,2,0,41.54553385735217,-92.11668508767544,10997.377141702884,119.83515474440662,-0.0032053681361834,0.0052457216858516,,10094.22773008973,12108.22360793471,150,10,2025-09-15,2025-09-26 16:24:40.920,HH,C,761303158,HAWK11,1,1,73,2,1,1,225,2,1,0,0,12,1,225,2,1,-150953.36950858062,-4785899.321260299,4204856.083464146,2.66462,2.19465,-0.777345,-56.0,77.875,87.125,-0.046875,-7.5,7.29688,0.03125,0.00976562,0.00195312,4,0,41.47896140860675,-91.80658303717642,12057.15766072015,-25.771314547363552,2.360574121192847,-0.1350426211279929,191.103,10094.22773008973,12108.22360793471,150,True,14.486906451695765,False,146.7196156949277,166.1093849448209,False,47.16796188591802,False,False
10,1970-07-23 11:12:14.819189915,2025-09-15,2025-09-26 16:24:41.918,HH,C,1812889160,JASSM,3,104,76,2,2,1,225,9,2,0,1,26,0,0,0,0,-176584.96228201812,-4779904.030244674,4210147.304167271,-2.36674,-0.400273,0.381578,75.0,-31.625,-32.5,0.0,0.0,0.0,0.0,0.0,0.0,2,0,41.54512122030926,-92.11572741707732,10997.376144992144,119.83214690221818,-0.0059447411334401,0.0031990538003305,,10094.22773008973,12108.22360793471,150,10,2025-09-15,2025-09-26 16:24:41.826,HH,C,762178024,HAWK11,1,1,73,2,1,1,225,2,1,0,0,12,1,225,2,1,-150994.26013358062,-4785842.084932174,4204920.192839146,2.69137,2.18861,-0.782522,-55.75,77.625,87.5,-0.0625,-7.34375,7.15625,0.0214844,-0.0136719,0.00585938,4,0,41.47972690949757,-91.80709368184031,12059.024273326611,-25.41722692955926,2.513538648970338,1.1692576432359991,191.066,10094.22773008973,12108.22360793471,150,True,14.404207331316996,False,146.59026178145604,165.91199618342205,False,47.49602592838232,False,False
10,1970-07-23 11:12:14.829352918,2025-09-15,2025-09-26 16:24:42.935,HH,C,1814083592,JASSM,3,104,76,2,2,1,225,9,2,0,1,26,0,0,0,0,-176509.85583670562,-4779935.821260299,4210114.579557896,-2.36674,-0.400273,0.381578,75.0,-31.625,-32.5,0.0,0.0,0.0,0.0,0.0,0.0,2,0,41.54472775164194,-92.11481430444478,10997.373951452411,119.83275248511768,-0.00515616016608,0.0031976970427035,,10094.22773008973,12108.22360793471,150,10,2025-09-15,2025-09-26 16:24:43.030,HH,C,763768690,HAWK11,1,1,73,2,1,1,225,2,1,0,0,12,1,225,2,1,-151068.64880545562,-4785737.707979049,4205037.671354771,2.71294,2.17595,-0.789425,-55.25,77.625,87.875,-0.03125,-7.14062,7.01562,0.00195312,0.00390625,0.00195312,4,0,41.48112674255974,-91.80802277791986,12063.660165147969,-24.78164997262937,2.637933261512013,1.9208195096619207,191.176,10094.22773008973,12108.22360793471,150,True,14.295610236336623,False,146.33273606808666,165.58860778075197,False,48.07749951852024,False,False
10,1970-07-23 11:12:14.839365621,2025-09-15,2025-09-26 16:24:43.936,HH,C,1815276992,JASSM,3,104,76,2,2,1,225,9,2,0,1,26,0,0,0,0,-176434.81384451812,-4779967.584932174,4210081.884245396,-2.36674,-0.400273,0.381578,75.0,-31.625,-32.5,0.0,0.0,0.0,0.0,0.0,0.0,2,0,41.54433462191145,-92.11390198649076,10997.378212073052,119.83335753627428,-0.0043682601406835,0.0031963488219729,,10094.22773008973,12108.22360793471,150,10,2025-09-15,2025-09-26 16:24:44.030,HH,C,764842388,HAWK11,1,1,73,2,1,1,225,2,1,0,0,12,1,225,2,1,-151118.18591483062,-4785667.237275924,4205117.114714146,2.72099,2.1679,-0.78559,-54.75,77.875,88.125,0.0,-6.79688,6.65625,0.00976562,0.00585938,0.0,4,0,41.48207282893987,-91.8086418700679,12067.02176050377,-24.58747893489804,2.2976752730207024,2.063695696555641,191.139,10094.22773008973,12108.22360793471,150,True,14.208089596794684,False,146.06722577747632,165.35113528884744,False,48.580384012632955,False,False
10,1970-07-23 11:12:14.850386233,2025-09-15,2025-09-26 16:24:45.038,HH,C,1816589086,JASSM,3,104,76,2,2,1,225,9,2,0,1,26,0,0,0,0,-176352.30896170562,-4780002.504854049,4210045.935026646,-2.36674,-0.400273,0.381578,75.0,-31.625,-32.5,0.0,0.0,0.0,0.0,0.0,0.0,2,0,41.54390238694727,-92.11289895286616,10997.375846296696,119.83402274482305,-0.0035020043821529,0.0031948658059091,,10094.22773008973,12108.22360793471,150,10,2025-09-15,2025-09-26 16:24:44.920,HH,C,766114920,HAWK11,1,1,73,2,1,1,225,2,1,0,0,12,1,225,2,1,-151176.12536795562,-4785584.043916549,4205210.427214146,2.75004,2.15496,-0.788466,-54.25,78.375,88.125,-0.1875,-6.85938,6.65625,0.0292969,0.0,0.0,4,0,41.48318662550529,-91.8093662842535,12069.928510906926,-24.044631930942547,2.218381493490817,3.224325128223474,191.384,10094.22773008973,12108.22360793471,150,True,14.10911277798844,False,145.81269778900833,165.07148633676465,False,49.11351207896196,False,False
10,1970-07-23 11:12:14.861067003,2025-09-15,2025-09-26 16:24:46.106,HH,C,1817782368,JASSM,3,104,76,2,2,1,225,9,2,0,1,26,0,0,0,0,-176277.27478201812,-4780034.262666549,4210013.241667271,-2.36674,-0.400273,0.381578,75.0,-31.625,-32.5,0.0,0.0,0.0,0.0,0.0,0.0,2,0,41.543509288347664,-92.1119867542199,10997.379001879232,119.83462770698056,-0.002714189715178,0.0031935219693811,,10094.22773008973,12108.22360793471,150,10,2025-09-15,2025-09-26 16:24:45.530,HH,C,766830720,HAWK11,1,1,73,2,1,1,225,2,1,0,0,12,1,225,2,1,-151208.42614920562,-4785536.600557174,4205263.505339146,2.7766,2.14834,-0.788658,-53.75,78.625,88.375,-0.09375,-6.89062,6.65625,0.0292969,-0.00195312,0.00976562,4,0,41.483821020045326,-91.80977055205344,12071.237565178451,-23.79891256563604,2.113862473484071,4.4863892147421645,191.42,10094.22773008973,12108.22360793471,150,True,14.036230844356268,False,145.54793482301307,164.89116929272805,False,49.55845876374604,False,False
10,1970-07-23 11:12:14.871183472,2025-09-15,2025-09-26 16:24:47.118,HH,C,1819093178,JASSM,3,104,76,2,2,1,225,9,2,0,1,26,0,0,0,0,-176194.84997733062,-4780069.145479049,4209977.325651646,-2.36674,-0.400273,0.381578,75.0,-31.625,-32.5,0.0,0.0,0.0,0.0,0.0,0.0,2,0,41.543077463967975,-92.1109847210236,10997.374202943129,119.83529224120512,-0.0018487794153399,0.0031920465660999,,10094.22773008973,12108.22360793471,150,10,2025-09-15,2025-09-26 16:24:47.068,HH,C,768302084,HAWK11,1,1,73,2,1,1,225,2,1,0,0,12,1,225,2,1,-151274.63122733062,-4785438.061494674,4205373.864714146,2.85857,2.12888,-0.794794,-52.5,79.25,88.875,-0.375,-7.04688,6.90625,0.0917969,0.0,0.0078125,4,0,41.48513959688692,-91.81059967174753,12074.152201769648,-22.94022634382762,2.1025442282115563,8.421210289985906,191.457,10094.22773008973,12108.22360793471,150,True,13.930244372497226,False,144.90604260466912,164.5610210726116,False,50.529871193092106,False,False
10,1970-07-23 11:12:14.881325270,2025-09-15,2025-09-26 16:24:48.132,HH,C,1820346028,JASSM,3,104,76,2,2,1,225,9,2,0,1,26,0,0,0,0,-176116.06970389312,-4780102.487275924,4209942.997526646,-2.36674,-0.400273,0.381578,75.0,-31.625,-32.5,0.0,0.0,0.0,0.0,0.0,0.0,2,0,41.54266471565035,-92.1100270060196,10997.377056380532,119.83592737892845,-0.0010216293027166,0.0031906283649615,,10094.22773008973,12108.22360793471,150,10,2025-09-15,2025-09-26 16:24:48.216,HH,C,770012050,HAWK11,1,1,73,2,1,1,225,2,1,0,0,12,1,225,2,1,-151349.50427420562,-4785324.741182174,4205500.993620396,2.28132,2.11622,-0.806682,-53.625,78.875,88.875,0.203125,-7.39062,7.15625,-0.291016,0.0253906,-0.00195312,4,0,41.486657645854805,-91.81153809622177,12077.890321761188,-22.19920569305501,2.516094391523092,-25.143713971644004,192.007,10094.22773008973,12108.22360793471,150,False,13.819260098571249,False,145.3972556438024,164.18546932451443,False,50.4153046439313,False,False
10,1970-07-23 11:12:14.891344343,2025-09-15,2025-09-26 16:24:49.134,HH,C,1821539076,JASSM,3,104,76,2,2,1,225,9,2,0,1,26,0,0,0,0,-176041.05212576812,-4780134.235322799,4209910.306120396,-2.36674,-0.400273,0.381674,75.0,-31.625,-32.5,0.0,0.0,0.0,0.0,0.0,0.0,2,0,41.54227166193573,-92.10911504518832,10997.3744667812,119.84037503513244,-0.004159205989406,0.003189120268859,,10094.22773008973,12108.22360793471,150,10,2025-09-15,2025-09-26 16:24:48.920,HH,C,770648316,HAWK11,1,1,73,2,1,1,225,2,1,0,0,12,1,225,2,1,-151378.91052420562,-4785282.375947799,4205549.020964146,2.15534,2.16886,-0.796903,-56.0,78.125,88.25,-0.0625,-8.51562,8.28125,-0.103516,0.0390625,-0.0839844,4,0,41.48722827397945,-91.8119058624079,12080.488418852,-24.33797488811126,2.9020795218393,-30.2954013825206,193.168,10094.22773008973,12108.22360793471,150,False,13.749598439329288,False,146.51835743923704,164.0104138185961,False,49.46995339054295,False,False
10,1970-07-23 11:12:14.901383851,2025-09-15,2025-09-26 16:24:50.138,HH,C,1822733946,JASSM,3,104,76,2,2,1,225,9,2,0,1,26,0,0,0,0,-175965.91638358062,-4780166.032197799,4209877.565886021,-2.36674,-0.400273,0.381674,75.0,-31.625,-32.5,0.0,0.0,0.0,0.0,0.0,0.0,2,0,41.54187800681783,-92.1082016594711,10997.378746025235,119.84098076509616,-0.0033703286393017,0.003187831720921,,10094.22773008973,12108.22360793471,150,10,2025-09-15,2025-09-26 16:24:50.125,HH,C,772238980,HAWK11,1,1,73,2,1,1,225,2,1,0,0,12,1,225,2,1,-151457.55310233062,-4785180.766572799,4205664.915495396,1.91882,2.29953,-0.732188,-63.75,75.0,86.0,-0.125,-9.23438,8.96875,-0.0742188,0.0527344,-0.00585938,4,0,41.48860009343452,-91.81288500295824,12088.893453347788,-30.861047296659635,2.2462918668504117,-38.95103684521397,192.264,10094.22773008973,12108.22360793471,150,False,13.641980791208587,False,150.27166884468656,163.6655089525206,False,46.06272979129627,False,False
