Subject_cm,Timestamp,SampleDate_cm,SampleTime_cm,Configuration_cm,Scenario_cm,DisTime_cm,MarkingTxt_cm,Application_cm,EntId_cm,Site_cm,ExerciseId_cm,ForceId_cm,Category_cm,Country_cm,Domain_cm,Kind_cm,Extra_cm,Specific_cm,Subcategory_cm,AltCategory_cm,AltCountry_cm,AltDomain_cm,AltKind_cm,ECEF_X_cm,ECEF_Y_cm,ECEF_Z_cm,OriPhi_cm,OriPsi_cm,OriTheta_cm,LinVelX_cm,LinVelY_cm,LinVelZ_cm,LinAccX_cm,LinAccY_cm,LinAccZ_cm,AngVelX_cm,AngVelY_cm,AngVelZ_cm,DrAlg_cm,Appearance_cm,Latitude_cm,Longitude_cm,Altitude_cm,Heading_cm,Pitch_cm,Roll_cm,CalibratedAirspeed_cm,CM_Altitude_Lead_cm,CM_Altitude_Wing_cm,CM_Airspeed_cm,Subject_ac,SampleDate_ac,SampleTime_ac,Configuration_ac,Scenario_ac,DisTime_ac,MarkingTxt_ac,Application_ac,EntId_ac,Site_ac,ExerciseId_ac,ForceId_ac,Category_ac,Country_ac,Domain_ac,Kind_ac,Extra_ac,Specific_ac,Subcategory_ac,AltCategory_ac,AltCountry_ac,AltDomain_ac,AltKind_ac,ECEF_X_ac,ECEF_Y_ac,ECEF_Z_ac,OriPhi_ac,OriPsi_ac,OriTheta_ac,LinVelX_ac,LinVelY_ac,LinVelZ_ac,LinAccX_ac,LinAccY_ac,LinAccZ_ac,AngVelX_ac,AngVelY_ac,AngVelZ_ac,DrAlg_ac,Appearance_ac,Latitude_ac,Longitude_ac,Altitude_ac,Heading_ac,Pitch_ac,Roll_ac,CalibratedAirspeed_ac,CM_Altitude_Lead_ac,CM_Altitude_Wing_ac,CM_Airspeed_ac,Bank_Angle_Condition,distance_nm,Distance_Condition,angle_between_vel,angle_between_pos,Cone_Condition,angle_between_pos_nose,Nose_Cone_Condition,Intercept_Criteria
10,1970-07-23 11:12:14.288151352,2025-09-15,2025-09-26 16:23:48.815,HH,C,1749539976,JASSM,3,105,76,2,2,1,225,9,2,0,1,26,0,0,0,0,-188234.44763358065,-4786321.633760299,4202396.616667271,-2.30155,-0.153302,0.128183,88.375,-13.5,-11.375,0.0,0.0,0.0,0.0,0.0,0.0,2,0,41.451994528349246,-92.25214373992476,10997.376003497107,99.8165695227546,-0.0039051863913199,0.0023906906992582,,10094.22773008973,12108.22360793471,150,10,2025-09-15,2025-09-26 16:23:48.719,HH,C,699068390,HAWK11,1,1,73,2,1,1,225,2,1,0,0,12,1,225,2,1,-148624.32849295562,-4790031.194307174,4200286.128386021,2.71256,2.07222,-0.809462,-42.5,78.125,86.5,0.015625,-7.01562,6.75,-0.046875,-0.00390625,-0.00585938,4,0,41.4239706875121,-91.77719419191264,12108.22360793471,-20.512103472571045,1.906535977878676,-2.195361996242673,182.353,10094.22773008973,12108.22360793471,150,True,21.424865792842745,False,121.21557348767197,174.6343824721227,False,64.14076778070775,False,False
10,1970-07-23 11:12:14.298190735,2025-09-15,2025-09-26 16:23:49.819,HH,C,1750731438,JASSM,3,105,76,2,2,1,225,9,2,0,1,26,0,0,0,0,-188146.10388358065,-4786335.291963424,4202385.093229771,-2.30155,-0.153302,0.128183,88.375,-13.5,-11.375,0.0,0.0,0.0,0.0,0.0,0.0,2,0,41.45185617565311,-92.25108141576416,10997.373451499006,99.81727277224309,-0.0030970317208098,0.0023901204382198,,10094.22773008973,12108.22360793471,150,10,2025-09-15,2025-09-26 16:23:49.723,HH,C,700221622,HAWK11,1,1,73,2,1,1,225,2,1,0,0,12,1,225,2,1,-148665.06872733062,-4789955.867158736,4200369.429167271,2.6767,2.082,-0.811284,-42.75,78.0,86.75,0.09375,-7.32812,6.95312,-0.0292969,0.00195312,-0.00390625,4,0,41.42497350936582,-91.77770897386696,12106.9333684331,-20.829125997912787,2.152285546047901,-3.855052388109456,182.548,10094.22773008973,12108.22360793471,150,True,21.34892481582711,False,121.30395782092806,174.46687478645475,False,64.22088524064476,False,False
10,1970-07-23 11:12:14.308331443,2025-09-15,2025-09-26 16:23:50.833,HH,C,1751924486,JASSM,3,105,76,2,2,1,225,9,2,0,1,26,0,0,0,0,-188057.6409929556,-4786348.967744674,4202373.556120396,-2.30155,-0.153302,0.128183,88.375,-13.5,-11.375,0.0,0.0,0.0,0.0,0.0,0.0,2,0,41.45171764415375,-92.25001766386885,10997.37706666236,99.81797696494436,-0.0022877904461914,0.0023895666746843,,10094.22773008973,12108.22360793471,150,10,2025-09-15,2025-09-26 16:23:50.719,HH,C,701414622,HAWK11,1,1,73,2,1,1,225,2,1,0,0,12,1,225,2,1,-148708.07068045562,-4789877.516572799,4200456.759245396,2.64765,2.0911,-0.813681,-43.25,77.375,87.0,-0.125,-7.32812,7.04688,-0.0175781,0.0,-0.0175781,4,0,41.426021091110734,-91.77825192172544,12107.135725356098,-21.10655771963475,2.419876248643502,-5.151655198873282,182.353,10094.22773008973,12108.22360793471,150,True,21.271646094485217,False,121.54753367972359,174.29118327863569,False,64.15491368024566,False,False
10,1970-07-23 11:12:14.318350453,2025-09-15,2025-09-26 16:23:51.835,HH,C,1753058092,JASSM,3,105,76,2,2,1,225,9,2,0,1,26,0,0,0,0,-187973.5863054556,-4786361.961885299,4202362.591276646,-2.30155,-0.153302,0.128183,88.375,-13.5,-11.375,0.0,0.0,0.0,0.0,0.0,0.0,2,0,41.45158598986084,-92.2490069241702,10997.378243489911,99.81864606232942,-0.001518871718324,0.0023890238538024,,10094.22773008973,12108.22360793471,150,10,2025-09-15,2025-09-26 16:23:51.719,HH,C,702687154,HAWK11,1,1,73,2,1,1,225,2,1,0,0,12,1,225,2,1,-148754.06677420562,-4789795.335908736,4200548.979948521,2.71035,2.09369,-0.816461,-43.75,77.0,87.0,0.09375,-7.28125,7.03125,0.292969,-0.00195312,0.0,4,0,41.42712390887936,-91.77883209005071,12108.774104537386,-21.13769540536101,2.607554190099877,-1.4525295271598826,182.719,10094.22773008973,12108.22360793471,150,True,21.195075369781343,False,121.79940578870615,174.10627933523864,False,64.08884198129331,False,False
10,1970-07-23 11:12:14.328134978,2025-09-15,2025-09-26 16:23:52.813,HH,C,1754252948,JASSM,3,105,76,2,2,1,225,9,2,0,1,26,0,0,0,0,-187884.99060233065,-4786375.655244674,4202351.032682896,-2.30155,-0.153302,0.128183,88.375,-13.5,-11.375,0.0,0.0,0.0,0.0,0.0,0.0,2,0,41.45144722065615,-92.2479415854574,10997.373735436291,99.81935130170528,-0.0007084146966908,0.0023884586636482,,10094.22773008973,12108.22360793471,150,10,2025-09-15,2025-09-26 16:23:52.921,HH,C,703999452,HAWK11,1,1,73,2,1,1,225,2,1,0,0,12,1,225,2,1,-148801.47888358062,-4789709.372041549,4200645.921354771,3.08225,2.09321,-0.827007,-41.75,77.375,87.5,-0.3125,-6.85938,6.625,0.0078125,0.0078125,0.00390625,4,0,41.428280828165526,-91.77943060492768,12111.475729630549,-20.88203835460276,3.15657857754588,19.848208362153947,181.693,10094.22773008973,12108.22360793471,150,False,21.1152155055318,False,120.83316276769254,173.91067691471636,False,65.25078432946947,False,False
10,1970-07-23 11:12:14.338170281,2025-09-15,2025-09-26 16:23:53.817,HH,C,1755504632,JASSM,3,105,76,2,2,1,225,9,2,0,1,26,0,0,0,0,-187792.1800554556,-4786390.000947799,4202338.925261021,-2.30145,-0.153206,0.128183,88.375,-13.5,-11.375,0.0,0.0,0.0,0.0,0.0,0.0,2,0,41.45130184087871,-92.24682556886866,10997.37801696891,99.8164537173265,-0.0039163386896382,0.0071772532079579,,10094.22773008973,12108.22360793471,150,10,2025-09-15,2025-09-26 16:23:53.829,HH,C,704953852,HAWK11,1,1,73,2,1,1,225,2,1,0,0,12,1,225,2,1,-148833.87146170562,-4789647.039033736,4200714.942839146,2.99807,2.0051,-0.832376,-39.5,78.375,87.625,-0.0625,-7.07812,6.67188,-0.248047,0.0078125,0.078125,4,0,41.42911150530539,-91.77984086772116,12110.528946860064,-17.595119154482784,2.1964811285022305,11.453495862509415,181.815,10094.22773008973,12108.22360793471,150,False,21.042986951036873,False,119.7469613967974,173.76438619585844,False,66.48155923442403,False,False
10,1970-07-23 11:12:14.348170980,2025-09-15,2025-09-26 16:23:54.817,HH,C,1756696670,JASSM,3,105,76,2,2,1,225,9,2,0,1,26,0,0,0,0,-187703.7933367056,-4786403.661104049,4202327.392057896,-2.30145,-0.153206,0.128279,88.375,-13.5,-11.375,0.0,0.0,0.0,0.0,0.0,0.0,2,0,41.45116337159162,-92.24576275282868,10997.37579500673,99.82124780237226,-0.0067742175009224,0.0071762779864859,,10094.22773008973,12108.22360793471,150,10,2025-09-15,2025-09-26 16:23:54.829,HH,C,706305916,HAWK11,1,1,73,2,1,1,225,2,1,0,0,12,1,225,2,1,-148878.43200858062,-4789557.232393111,4200815.040495396,2.78753,1.98794,-0.841293,-38.5,78.5,88.0,0.21875,-7.34375,6.98438,-0.150391,0.0,-0.0585938,4,0,41.43031311196913,-91.7804067668438,12110.433458469544,-16.804265739927835,2.4618321506142027,-1.307413641369722,182.805,10094.22773008973,12108.22360793471,150,True,20.964982184756177,False,119.25369258202673,173.55862101359978,False,67.18111162581265,False,False
10,1970-07-23 11:12:14.358192229,2025-09-15,2025-09-26 16:23:55.819,HH,C,1757889718,JASSM,3,105,76,2,2,1,225,9,2,0,1,26,0,0,0,0,-187615.33044608065,-4786417.331025924,4202315.849089146,-2.30145,-0.153206,0.128279,88.375,-13.5,-11.375,0.0,0.0,0.0,0.0,0.0,0.0,2,0,41.45102478625368,-92.24469902631756,10997.373197973317,99.821951968664,-0.0059649773627485,0.0071757255233393,,10094.22773008973,12108.22360793471,150,10,2025-09-15,2025-09-26 16:23:55.719,HH,C,707419382,HAWK11,1,1,73,2,1,1,225,2,1,0,0,12,1,225,2,1,-148913.69568045562,-4789484.063447799,4200896.849089146,2.66309,2.04,-0.817995,-38.625,78.375,88.125,0.0,-7.03125,6.5,-0.0292969,-0.0078125,-0.0078125,4,0,41.43129401943004,-91.78085539457702,12110.83763715337,-19.155282691014925,1.898956707402468,-6.326221156990993,182.108,10094.22773008973,12108.22360793471,150,True,20.89322229928934,False,119.30445773149015,173.38651068280382,False,67.30306569313332,False,False
10,1970-07-23 11:12:14.367350594,2025-09-15,2025-09-26 16:23:56.735,HH,C,1759023112,JASSM,3,105,76,2,2,1,225,9,2,0,1,26,0,0,0,0,-187531.2933367056,-4786430.317354049,4202304.882292271,-2.30145,-0.153206,0.128279,88.375,-13.5,-11.375,0.0,0.0,0.0,0.0,0.0,0.0,2,0,41.45089311444857,-92.2436885218859,10997.372497516662,99.82262090118029,-0.0051962213921222,0.007175190089371,,10094.22773008973,12108.22360793471,150,10,2025-09-15,2025-09-26 16:23:56.827,HH,C,708691914,HAWK11,1,1,73,2,1,1,225,2,1,0,0,12,1,225,2,1,-148955.85583670562,-4789399.683564986,4200990.997526646,2.67172,2.01623,-0.825665,-39.625,78.375,87.75,-0.046875,-7.0625,6.73438,0.0488281,0.0136719,0.0078125,4,0,41.43242362789444,-91.78139062595136,12111.003383384515,-18.132173532152503,1.984979796399228,-6.794910680068046,182.438,10094.22773008973,12108.22360793471,150,True,20.819697547053188,False,119.78670423724249,173.19021886635582,False,67.01672701703683,False,False
10,1970-07-23 11:12:14.378368997,2025-09-15,2025-09-26 16:23:57.836,HH,C,1760277324,JASSM,3,105,76,2,2,1,225,9,2,0,1,26,0,0,0,0,-187438.29528983065,-4786444.688447799,4202292.747526646,-2.30145,-0.153206,0.128279,88.375,-13.5,-11.375,0.0,0.0,0.0,0.0,0.0,0.0,2,0,41.45074740152758,-92.24257027139132,10997.379283857928,99.82336115726858,-0.0043454940095304,0.0071746068776139,,10094.22773008973,12108.22360793471,150,10,2025-09-15,2025-09-26 16:23:57.921,HH,C,710083746,HAWK11,1,1,73,2,1,1,225,2,1,0,0,12,1,225,2,1,-149002.27771170562,-4789308.707979049,4201092.544401646,2.67517,2.04288,-0.811572,-40.5,78.5,87.375,-0.03125,-6.65625,6.21875,-0.0078125,0.0,-0.0234375,4,0,41.43364161641248,-91.78197926309169,12111.351252766754,-19.39434318042632,1.5989749610884023,-5.521449369355427,182.353,10094.22773008973,12108.22360793471,150,True,20.73888181536354,False,120.20274406155458,172.97661893459266,False,66.8135971493178,False,False
10,1970-07-23 11:12:14.389388540,2025-09-15,2025-09-26 16:23:58.938,HH,C,1761529756,JASSM,3,105,76,2,2,1,225,9,2,0,1,26,0,0,0,0,-187345.4300554556,-4786459.036104049,4202280.626432896,-2.30145,-0.153206,0.128279,88.375,-13.5,-11.375,0.0,0.0,0.0,0.0,0.0,0.0,2,0,41.45060187852332,-92.24145362425227,10997.375568125177,99.82410034983714,-0.0034959813043177,0.0071740170614941,,10094.22773008973,12108.22360793471,150,10,2025-09-15,2025-09-26 16:23:58.921,HH,C,711197212,HAWK11,1,1,73,2,1,1,225,2,1,0,0,12,1,225,2,1,-149040.21130545562,-4789234.466768111,4201174.440886021,2.67382,2.0401,-0.810325,-41.0,78.875,87.0,-0.21875,-6.70312,6.39062,0.00976562,-0.00390625,0.00195312,4,0,41.434628997769,-91.78246024675607,12109.537674677382,-19.31805917380544,1.4938425689232644,-5.71174199299859,182.316,10094.22773008973,12108.22360793471,150,True,20.663904419456376,False,120.43198635898544,172.79889844917102,False,66.7607078571053,False,False
10,1970-07-23 11:12:14.399171290,2025-09-15,2025-09-26 16:23:59.917,HH,C,1762781208,JASSM,3,105,76,2,2,1,225,9,2,0,1,26,0,0,0,0,-187252.6370867056,-4786473.372041549,4202268.515104771,-2.30145,-0.153206,0.128279,88.375,-13.5,-11.375,0.0,0.0,0.0,0.0,0.0,0.0,2,0,41.45045646347612,-92.24033785130666,10997.375821913643,99.8248389615791,-0.0026471307862787,0.0071734330925646,,10094.22773008973,12108.22360793471,150,10,2025-09-15,2025-09-26 16:23:59.921,HH,C,712469744,HAWK11,1,1,73,2,1,1,225,2,1,0,0,12,1,225,2,1,-149083.89489920562,-4789150.730439986,4201266.540495396,2.68878,2.03847,-0.812243,-41.625,78.875,86.875,-0.1875,-7.25,6.89062,0.015625,0.0,-0.0195312,4,0,41.4357406631628,-91.78301350217453,12106.980809532964,-19.21890920086823,1.574453518182334,-4.919842088543201,182.719,10094.22773008973,12108.22360793471,150,True,20.585599664735316,False,120.71861906743095,172.59968188463324,False,66.67327974183357,False,False
10,1970-07-23 11:12:14.409190298,2025-09-15,2025-09-26 16:24:00.919,HH,C,1764033906,JASSM,3,105,76,2,2,1,225,9,2,0,1,26,0,0,0,0,-187159.7503679556,-4786487.721650924,4202256.390104771,-2.30145,-0.153206,0.128279,88.375,-13.5,-11.375,0.0,0.0,0.0,0.0,0.0,0.0,2,0,41.45031088582182,-92.23922095645102,10997.375571599305,99.8255783138611,-0.001797422094146,0.0071728436642487,,10094.22773008973,12108.22360793471,150,10,2025-09-15,2025-09-26 16:24:00.746,HH,C,712907176,HAWK11,1,1,73,2,1,1,225,2,1,0,0,12,1,225,2,1,-149099.45739920562,-4789121.249971236,4201298.940886021,2.68427,2.04758,-0.810901,-41.875,79.0,86.75,-0.015625,-7.14062,6.76562,-0.0117188,0.00976562,-0.0292969,4,0,41.43613183978636,-91.78321047617752,12106.04362806604,-19.58189445557739,1.6331302357172577,-4.809631041459255,182.683,10094.22773008973,12108.22360793471,150,True,20.52525316804396,False,120.83067167608287,172.51701383088312,False,66.64340106171848,False,False
10,1970-07-23 11:12:14.420322409,2025-09-15,2025-09-26 16:24:02.032,HH,C,1765286606,JASSM,3,105,76,2,2,1,225,9,2,0,1,26,0,0,0,0,-187066.86560233065,-4786502.069307174,4202244.265104771,-2.30145,-0.153206,0.128279,88.375,-13.5,-11.375,0.0,0.0,0.0,0.0,0.0,0.0,2,0,41.45016530849227,-92.2381040908456,10997.37532055164,99.82631764464436,-0.0009477332012518,0.0071722620996323,,10094.22773008973,12108.22360793471,150,10,2025-09-15,2025-09-26 16:24:02.031,HH,C,714776208,HAWK11,1,1,73,2,1,1,225,2,1,0,0,12,1,225,2,1,-149165.81872733062,-4788997.644502486,4201434.892057896,2.66951,2.05448,-0.81301,-42.875,78.625,86.75,-0.171875,-7.23438,6.90625,-0.00585938,0.0117188,0.00390625,4,0,41.43777244775351,-91.78404965234208,12102.435221767131,-19.791327669296056,1.847185033629714,-5.374895129141304,182.891,10094.22773008973,12108.22360793471,150,True,20.433227523936473,False,121.29833203377473,172.22830075936346,False,66.4657158679243,False,False
10,1970-07-23 11:12:14.430352433,2025-09-15,2025-09-26 16:24:03.035,HH,C,1766480586,JASSM,3,105,76,2,2,1,225,9,2,0,1,26,0,0,0,0,-186978.33435233065,-4786515.745088424,4202232.706511021,-2.30145,-0.15311,0.128279,88.375,-13.5,-11.375,0.0,0.0,0.0,0.0,0.0,0.0,2,0,41.45002652793994,-92.23703957717908,10997.37673689838,99.82338604341776,-0.0041947986925963,0.0064690997617353,,10094.22773008973,12108.22360793471,150,10,2025-09-15,2025-09-26 16:24:02.667,HH,C,715213640,HAWK11,1,1,73,2,1,1,225,2,1,0,0,12,1,225,2,1,-149181.33825858062,-4788969.370088424,4201466.138151646,2.66596,2.05601,-0.813585,-43.125,78.5,86.75,-0.046875,-7.28125,6.875,-0.00976562,0.00585938,-0.0078125,4,0,41.43814866449349,-91.78424567615907,12101.959131075626,-19.83540039909113,1.9005448538723877,-5.515716351713383,182.964,10094.22773008973,12108.22360793471,150,True,20.37551575429524,False,121.4180923108725,172.14733725439544,False,66.427271779086,False,False
10,1970-07-23 11:12:14.440388678,2025-09-15,2025-09-26 16:24:04.038,HH,C,1767674364,JASSM,3,105,76,2,2,1,225,9,2,0,1,26,0,0,0,0,-186889.8167742056,-4786529.415010299,4202221.149870396,-2.30145,-0.15311,0.128279,88.375,-13.5,-11.375,0.0,0.0,0.0,0.0,0.0,0.0,2,0,41.44988778240928,-92.23597523419082,10997.373497606808,99.82409060195366,-0.0033850621393923,0.0064685008792555,,10094.22773008973,12108.22360793471,150,10,2025-09-15,2025-09-26 16:24:04.125,HH,C,717480338,HAWK11,1,1,73,2,1,1,225,2,1,0,0,12,1,225,2,1,-149264.63708670562,-4788819.477510299,4201631.036589146,2.65024,2.0725,-0.808408,-44.375,78.375,86.375,-0.078125,-7.15625,6.79688,0.00390625,0.00195312,0.0,4,0,41.440137879219314,-91.7852971490534,12097.90672815882,-20.551023812867232,1.8722751437594365,-5.755082786194157,183.208,10094.22773008973,12108.22360793471,150,True,20.27637988941041,False,122.01603702438676,171.7978415311469,False,66.17875382667454,False,False
10,1970-07-23 11:12:14.451148248,2025-09-15,2025-09-26 16:24:05.114,HH,C,1768986624,JASSM,3,105,76,2,2,1,225,9,2,0,1,26,0,0,0,0,-186792.5159929556,-4786544.442354049,4202208.444792271,-2.30145,-0.15311,0.128375,88.375,-13.5,-11.375,0.0,0.0,0.0,0.0,0.0,0.0,2,0,41.44973524073628,-92.23480528596978,10997.373522710965,99.8289556302094,-0.0061613500722573,0.0064675161654266,,10094.22773008973,12108.22360793471,150,10,2025-09-15,2025-09-26 16:24:05.125,HH,C,718633570,HAWK11,1,1,73,2,1,1,225,2,1,0,0,12,1,225,2,1,-149307.22888358062,-4788744.143525924,4201713.804167271,2.64765,2.07691,-0.807257,-45.0,78.25,86.25,-0.015625,-7.07812,6.78125,-0.00390625,0.0,-0.00195312,4,0,41.441136763596994,-91.78583431857597,12095.70193058383,-20.738029801612697,1.879227456878601,-5.7268462120390735,183.208,10094.22773008973,12108.22360793471,150,True,20.197804054276638,False,122.31266933133617,171.60888967946275,False,66.07130019755856,False,False
10,1970-07-23 11:12:14.462169783,2025-09-15,2025-09-26 16:24:06.216,HH,C,1770239316,JASSM,3,105,76,2,2,1,225,9,2,0,1,26,0,0,0,0,-186699.63122733065,-4786558.786104049,4202196.315886021,-2.30145,-0.15311,0.128375,88.375,-13.5,-11.375,0.0,0.0,0.0,0.0,0.0,0.0,2,0,41.44958961742769,-92.23368844193332,10997.373418823272,99.82969493834791,-0.0053116619075253,0.0064669378899347,,10094.22773008973,12108.22360793471,150,10,2025-09-15,2025-09-26 16:24:06.218,HH,C,719985636,HAWK11,1,1,73,2,1,1,225,2,1,0,0,12,1,225,2,1,-149358.91833670562,-4788654.913057174,4201811.860807896,2.63643,2.08593,-0.805628,-45.75,78.0,86.0,-0.1875,-7.09375,6.67188,-0.015625,0.00390625,-0.0117188,4,0,41.44231981753306,-91.78648543207171,12093.241464368888,-21.10432633434314,1.9326118961516705,-6.008961086052979,183.502,10094.22773008973,12108.22360793471,150,True,20.11647981169045,False,122.69188581367153,171.3885419208675,False,65.91272302470865,False,False
10,1970-07-23 11:12:14.472190593,2025-09-15,2025-09-26 16:24:07.219,HH,C,1771490448,JASSM,3,105,76,2,2,1,225,9,2,0,1,26,0,0,0,0,-186606.86169608065,-4786573.112275924,4202184.200651646,-2.30145,-0.15311,0.128375,88.375,-13.5,-11.375,0.0,0.0,0.0,0.0,0.0,0.0,2,0,41.449444153386594,-92.23257298835698,10997.375463198608,99.83043332392344,-0.0044630259794269,0.0064663498892942,,10094.22773008973,12108.22360793471,150,10,2025-09-15,2025-09-26 16:24:07.327,HH,C,721258168,HAWK11,1,1,73,2,1,1,225,2,1,0,0,12,1,225,2,1,-149408.08825858062,-4788572.176729049,4201902.642057896,2.6257,2.09398,-0.805723,-46.625,77.875,85.75,0.0,-7.125,6.90625,0.00390625,0.0,-0.0078125,4,0,41.44341559861144,-91.78710403013189,12090.763078840931,-21.39673310311632,2.064218733433356,-6.301522038469376,183.66,10094.22773008973,12108.22360793471,150,True,20.037076043859607,False,123.11158454993921,171.18124219323872,False,65.70031865020516,False,False
10,1970-07-23 11:12:14.482354166,2025-09-15,2025-09-26 16:24:08.235,HH,C,1772745290,JASSM,3,105,76,2,2,1,225,9,2,0,1,26,0,0,0,0,-186513.8167742056,-4786587.477510299,4202172.050261021,-2.30145,-0.15311,0.128375,88.375,-13.5,-11.375,0.0,0.0,0.0,0.0,0.0,0.0,2,0,41.44929827274224,-92.23145423012532,10997.375373702418,99.83117389490586,-0.00361187646034,0.0064657855927804,,10094.22773008973,12108.22360793471,150,10,2025-09-15,2025-09-26 16:24:08.421,HH,C,722530700,HAWK11,1,1,73,2,1,1,225,2,1,0,0,12,1,225,2,1,-149458.49841483062,-4788488.719697799,4201994.685026646,2.67555,2.10481,-0.804669,-47.375,77.5,85.625,-0.171875,-6.85938,6.42188,0.0976562,-0.0175781,0.0,4,0,41.44452394735148,-91.78773774339598,12089.35720337618,-21.816054644903545,2.1813375869755567,-3.0130257357027665,183.746,10094.22773008973,12108.22360793471,150,True,19.95709892081096,False,123.48699970409038,170.9700787403097,False,65.53686880707244,False,False
10,1970-07-23 11:12:14.492369887,2025-09-15,2025-09-26 16:24:09.236,HH,C,1773938338,JASSM,3,105,76,2,2,1,225,9,2,0,1,26,0,0,0,0,-186425.35388358065,-4786601.135713424,4202160.495573521,-2.30145,-0.15311,0.128375,88.375,-13.5,-11.375,0.0,0.0,0.0,0.0,0.0,0.0,2,0,41.44915954577285,-92.23039057001938,10997.374788008054,99.83187799125533,-0.0028026385114386,0.0064652291880247,,10094.22773008973,12108.22360793471,150,10,2025-09-15,2025-09-26 16:24:09.133,HH,C,723365798,HAWK11,1,1,73,2,1,1,225,2,1,0,0,12,1,225,2,1,-149491.78357108062,-4788434.274385299,4202054.425261021,2.7301,2.10088,-0.800067,-47.375,77.875,85.25,0.03125,-6.5,6.10938,0.0859375,0.0,0.0078125,4,0,41.4452448644252,-91.78815594130998,12087.81040780151,-21.778478553133024,1.8778320545542784,-0.0479915428625186,183.538,10094.22773008973,12108.22360793471,150,True,19.889829499168314,False,123.4989393003301,170.82469092042692,False,65.66867857500242,False,False
10,1970-07-23 11:12:14.503393740,2025-09-15,2025-09-26 16:24:10.339,HH,C,1775130948,JASSM,3,105,76,2,2,1,225,9,2,0,1,26,0,0,0,0,-186336.92419608065,-4786614.788057174,4202148.944792271,-2.30145,-0.15311,0.128375,88.375,-13.5,-11.375,0.0,0.0,0.0,0.0,0.0,0.0,2,0,41.44902086249871,-92.22932731401168,10997.375646016502,99.83258181817224,-0.0019937047784881,0.0064646743478892,,10094.22773008973,12108.22360793471,150,10,2025-09-15,2025-09-26 16:24:10.531,HH,C,724837164,HAWK11,1,1,73,2,1,1,225,2,1,0,0,12,1,225,2,1,-149549.58825858062,-4788337.432588424,4202160.056120396,3.04792,2.08295,-0.811476,-46.0,78.625,85.5,-0.21875,-7.10938,6.60938,0.353516,0.00195312,0.00585938,4,0,41.446523172294775,-91.78888308183733,12083.595416573566,-20.867142243033054,2.2001890760261165,17.453317144837747,183.905,10094.22773008973,12108.22360793471,150,False,19.80853303037925,False,122.80083222899565,170.5825272390677,False,66.60754287932178,False,False
10,1970-07-23 11:12:14.512168750,2025-09-15,2025-09-26 16:24:11.216,HH,C,1776322288,JASSM,3,105,76,2,2,1,225,9,2,0,1,26,0,0,0,0,-186248.58825858065,-4786628.424775924,4202137.405729771,-2.30145,-0.153015,0.128375,88.375,-13.5,-11.375,0.0,0.0,0.0,0.0,0.0,0.0,2,0,41.44888231973541,-92.22826519028725,10997.37670205628,99.82964871408984,-0.0052425567400455,0.0057610754859319,,10094.22773008973,12108.22360793471,150,10,2025-09-15,2025-09-26 16:24:10.827,HH,C,725234830,HAWK11,1,1,73,2,1,1,225,2,1,0,0,12,1,225,2,1,-149564.48474295562,-4788311.657197799,4202187.983854771,-3.13459,2.07481,-0.816365,-45.0,78.875,85.75,-0.265625,-6.98438,6.8125,0.201172,0.0136719,0.00976562,4,0,41.44686223557091,-91.78907077911452,12082.03210248002,-20.4631648505286,2.335573343845598,22.897692026808336,183.624,10094.22773008973,12108.22360793471,150,False,19.752172366871974,False,122.31505539302975,170.50070191014166,False,67.1749906418479,False,False
10,1970-07-23 11:12:14.522189288,2025-09-15,2025-09-26 16:24:12.218,HH,C,1777517402,JASSM,3,105,76,2,2,1,225,9,2,0,1,26,0,0,0,0,-186159.97107108065,-4786642.102510299,4202125.829557896,-2.30145,-0.153015,0.128375,88.375,-13.5,-11.375,0.0,0.0,0.0,0.0,0.0,0.0,2,0,41.448743337812,-92.22719969055834,10997.375244759458,99.8303540224082,-0.0044319116003424,0.0057604826209876,,10094.22773008973,12108.22360793471,150,10,2025-09-15,2025-09-26 16:24:12.327,HH,C,727223162,HAWK11,1,1,73,2,1,1,225,2,1,0,0,12,1,225,2,1,-149636.15271170562,-4788177.028291549,4202331.942839146,2.91926,1.96254,-0.817516,-40.875,80.75,86.5,0.078125,-7.1875,6.8125,-0.166016,0.015625,0.00195312,4,0,41.44862145785461,-91.78997779899112,12069.25679269101,-16.308936873437567,0.8781049235917413,5.182755468897397,184.601,10094.22773008973,12108.22360793471,150,True,19.66313425002475,False,120.26471801698888,170.17197053509315,False,69.5502294768163,False,False
10,1970-07-23 11:12:14.532350270,2025-09-15,2025-09-26 16:24:13.235,HH,C,1778709352,JASSM,3,105,76,2,2,1,225,9,2,0,1,26,0,0,0,0,-186071.5902117056,-4786655.745088424,4202114.282682896,-2.30145,-0.153015,0.128375,88.375,-13.5,-11.375,0.0,0.0,0.0,0.0,0.0,0.0,2,0,41.448604698217615,-92.22613703626642,10997.377794844804,99.8310574452507,-0.003623424695827,0.0057598731677435,,10094.22773008973,12108.22360793471,150,10,2025-09-15,2025-09-26 16:24:13.147,HH,C,727779894,HAWK11,1,1,73,2,1,1,225,2,1,0,0,12,1,225,2,1,-149655.31677420562,-4788139.096650924,4202372.702604771,2.83403,1.97922,-0.821255,-40.5,80.75,86.75,-0.390625,-7.6875,7.14062,-0.158203,0.0136719,-0.03125,4,0,41.44911865320023,-91.79022106699716,12066.015445921044,-16.86167529654471,1.2865747559561442,0.9873733131416328,184.968,10094.22773008973,12108.22360793471,150,True,19.60446793408077,False,120.07320365627606,170.06076580470662,False,69.85371485372933,False,False
10,1970-07-23 11:12:14.542369922,2025-09-15,2025-09-26 16:24:14.236,HH,C,1779901426,JASSM,3,105,76,2,2,1,225,9,2,0,1,26,0,0,0,0,-185983.1995867056,-4786669.387666549,4202102.731901646,-2.30145,-0.153015,0.128471,88.375,-13.5,-11.375,0.0,0.0,0.0,0.0,0.0,0.0,2,0,41.44846602471372,-92.22507426978264,10997.375103609696,99.83585155068393,-0.0064811712793738,0.0057589230360681,,10094.22773008973,12108.22360793471,150,10,2025-09-15,2025-09-26 16:24:14.421,HH,C,729688692,HAWK11,1,1,73,2,1,1,225,2,1,0,0,12,1,225,2,1,-149720.03357108062,-4788008.848604049,4202512.503386021,2.71505,2.0122,-0.798533,-41.0,81.25,87.0,-0.296875,-6.85938,6.39062,0.0449219,0.0136719,0.0117188,4,0,41.45082503271555,-91.79104341297344,12054.4714888448,-18.522204394417184,0.4898847023034847,-4.486652841260531,184.846,10094.22773008973,12108.22360793471,150,True,19.520219422338503,False,120.21380280218169,169.736879010864,False,70.03649111585806,False,False
10,1970-07-23 11:12:14.553411229,2025-09-15,2025-09-26 16:24:15.341,HH,C,1781096014,JASSM,3,105,76,2,2,1,225,9,2,0,1,26,0,0,0,0,-185894.6214617056,-4786683.057588424,4202091.159636021,-2.30145,-0.153015,0.128471,88.375,-13.5,-11.375,0.0,0.0,0.0,0.0,0.0,0.0,2,0,41.44832707704974,-92.22400925417,10997.379228067182,99.83655653274772,-0.005670884420135,0.0057583905704836,,10094.22773008973,12108.22360793471,150,10,2025-09-15,2025-09-26 16:24:15.530,HH,C,731080524,HAWK11,1,1,73,2,1,1,225,2,1,0,0,12,1,225,2,1,-149767.71716483062,-4787914.077119674,4202613.497526646,2.75647,2.01632,-0.795561,-41.375,81.625,86.875,-0.03125,-7.07812,6.5,0.00390625,-0.00390625,-0.00390625,4,0,41.452061609334834,-91.79164890174188,12044.549260689157,-18.736026225792543,0.3877736240929412,-1.9462581992791608,185.53,10094.22773008973,12108.22360793471,150,True,19.445911186582435,False,120.35468670578379,169.49309620920044,False,70.13800556488634,False,False
10,1970-07-23 11:12:14.563167306,2025-09-15,2025-09-26 16:24:16.316,HH,C,1782289472,JASSM,3,105,76,2,2,1,225,9,2,0,1,26,0,0,0,0,-185806.1292742056,-4786696.713838424,4202079.595182896,-2.30145,-0.153015,0.128471,88.375,-13.5,-11.375,0.0,0.0,0.0,0.0,0.0,0.0,2,0,41.44818823374618,-92.22294527655228,10997.37911328656,99.83726082577677,-0.0048613802943146,0.0057578382656379,,10094.22773008973,12108.22360793471,150,10,2025-09-15,2025-09-26 16:24:16.531,HH,C,732193990,HAWK11,1,1,73,2,1,1,225,2,1,0,0,12,1,225,2,1,-149806.68591483062,-4787837.159150924,4202695.567839146,2.7533,2.01814,-0.80208,-41.5,80.25,88.625,-0.140625,-7.51562,7.0,0.0,0.0136719,0.0078125,4,0,41.45306586954538,-91.79214354720416,12036.746373749076,-18.675971676052452,0.7645843135528185,-2.0521134664910585,185.97,10094.22773008973,12108.22360793471,150,True,19.376775612207158,False,120.32726383404051,169.28866175534253,False,70.37859711147722,False,False
10,1970-07-23 11:12:14.572367256,2025-09-15,2025-09-26 16:24:17.236,HH,C,1783481834,JASSM,3,105,76,2,2,1,225,9,2,0,1,26,0,0,0,0,-185717.71716483065,-4786710.354463424,4202068.040495396,-2.30145,-0.153015,0.128471,88.375,-13.5,-11.375,0.0,0.0,0.0,0.0,0.0,0.0,2,0,41.44804952098541,-92.22188226779238,10997.373630677776,99.83796447553786,-0.0040526123194261,0.0057573007435698,,10094.22773008973,12108.22360793471,150,10,2025-09-15,2025-09-26 16:24:17.719,HH,C,733705122,HAWK11,1,1,73,2,1,1,225,2,1,0,0,12,1,225,2,1,-149858.99060233062,-4787734.452119674,4202806.009245396,2.74372,2.02092,-0.812626,-41.75,81.0,88.0,-0.03125,-7.70312,7.26562,-0.0234375,0.015625,-0.00195312,4,0,41.45441254880873,-91.79280729566229,12028.21560192318,-18.57055136178176,1.3710379913177568,-2.484315664795142,186.459,10094.22773008973,12108.22360793471,150,True,19.300725046042352,False,120.44055845708141,169.02169377103513,False,70.52919662526948,False,False
10,1970-07-23 11:12:14.582347634,2025-09-15,2025-09-26 16:24:18.234,HH,C,1784675734,JASSM,3,105,76,2,2,1,225,9,2,0,1,26,0,0,0,0,-185629.18982108065,-4786724.014619674,4202056.470182896,-2.30145,-0.153015,0.128471,88.375,-13.5,-11.375,0.0,0.0,0.0,0.0,0.0,0.0,2,0,41.44791060334346,-92.22081787725531,10997.37540580677,99.83866903801514,-0.0032427871612204,0.0057567485555508,,10094.22773008973,12108.22360793471,150,10,2025-09-15,2025-09-26 16:24:18.326,HH,C,734420920,HAWK11,1,1,73,2,1,1,225,2,1,0,0,12,1,225,2,1,-149883.95739920562,-4787685.831025924,4202859.106901646,2.72531,2.02591,-0.813873,-42.0,80.625,88.375,-0.078125,-7.82812,7.42188,-0.03125,0.015625,-0.00585938,4,0,41.45505551945402,-91.79312398375012,12025.968095800195,-18.72985884228398,1.5071119497046823,-3.335449100336091,186.422,10094.22773008973,12108.22360793471,150,True,19.239654794847524,False,120.53674149655913,168.87869440976385,False,70.57797851183041,False,False
10,1970-07-23 11:12:14.592673820,2025-09-15,2025-09-26 16:24:19.267,HH,C,1785866658,JASSM,3,105,76,2,2,1,225,9,2,0,1,26,0,0,0,0,-185540.88513358065,-4786737.639619674,4202044.929167271,-2.30145,-0.153015,0.128471,88.375,-13.5,-11.375,0.0,0.0,0.0,0.0,0.0,0.0,2,0,41.44777203136315,-92.21975616867508,10997.37981067547,99.83937182326326,-0.0024350000982087,0.0057562036640315,,10094.22773008973,12108.22360793471,150,10,2025-09-15,2025-09-26 16:24:18.950,HH,C,734699286,HAWK11,1,1,73,2,1,1,225,2,1,0,0,12,1,225,2,1,-149894.21130545562,-4787666.225557174,4202880.628386021,2.71793,2.02706,-0.815598,-42.125,80.625,88.375,-0.25,-7.75,7.34375,-0.0136719,0.00976562,0.00195312,4,0,41.45531549746797,-91.79325391393508,12025.317984699534,-18.737600251581306,1.6158463974890585,-3.710661858302523,186.544,10094.22773008973,12108.22360793471,150,True,19.18666617254532,False,120.58999991813421,168.80371862223623,False,70.59971743766513,False,False
10,1970-07-23 11:12:14.603149874,2025-09-15,2025-09-26 16:24:20.314,HH,C,1787059704,JASSM,3,105,76,2,2,1,225,9,2,0,1,26,0,0,0,0,-185452.4222429556,-4786751.286104049,4202033.364714146,-2.30145,-0.152919,0.128471,88.375,-13.5,-11.375,0.0,0.0,0.0,0.0,0.0,0.0,2,0,41.44763320008482,-92.21869256386626,10997.375216324786,99.83643977741134,-0.0056826885131248,0.0050521142487067,,10094.22773008973,12108.22360793471,150,10,2025-09-15,2025-09-26 16:24:20.420,HH,C,736886452,HAWK11,1,1,73,2,1,1,225,2,1,0,0,12,1,225,2,1,-149972.09607108062,-4787519.563447799,4203044.520964146,2.68955,2.03914,-0.821447,-43.125,79.125,89.875,-0.09375,-7.5625,7.32812,-0.00390625,0.00195312,-0.00390625,4,0,41.45727962394527,-91.79424000423332,12026.854471153243,-19.06145652057099,2.0991914062425834,-4.841691473183744,186.789,10094.22773008973,12108.22360793471,150,True,19.097958125382966,False,120.96672062167775,168.42020784466638,False,70.61180130895002,False,False
10,1970-07-23 11:12:14.612742132,2025-09-15,2025-09-26 16:24:21.274,HH,C,1788252750,JASSM,3,105,76,2,2,1,225,9,2,0,1,26,0,0,0,0,-185363.95935233065,-4786764.932588424,4202021.800261021,-2.30145,-0.152919,0.128471,88.375,-13.5,-11.375,0.0,0.0,0.0,0.0,0.0,0.0,2,0,41.44749435896979,-92.21762896359196,10997.3748041137,99.83714381100997,-0.0048734550425065,0.0050515155845522,,10094.22773008973,12108.22360793471,150,10,2025-09-15,2025-09-26 16:24:21.326,HH,C,737880616,HAWK11,1,1,73,2,1,1,225,2,1,0,0,12,1,225,2,1,-150007.98864920562,-4787454.450166549,4203118.436979771,2.67641,2.04662,-0.821159,-43.75,78.875,89.875,-0.203125,-7.34375,7.01562,-0.0078125,0.0117188,-0.0136719,4,0,41.45815916053653,-91.79469352899628,12030.151214388094,-19.340033116284644,2.1903770375359484,-5.290991763873158,186.703,10094.22773008973,12108.22360793471,150,True,19.031756010718755,False,121.25343894793122,168.23059424590988,False,70.51500522830403,False,False
10,1970-07-23 11:12:14.623308839,2025-09-15,2025-09-26 16:24:22.330,HH,C,1789386144,JASSM,3,105,76,2,2,1,225,9,2,0,1,26,0,0,0,0,-185279.92028983065,-4786777.895479049,4202010.813932896,-2.30145,-0.152919,0.128471,88.375,-13.5,-11.375,0.0,0.0,0.0,0.0,0.0,0.0,2,0,41.44736245753994,-92.21661855628952,10997.375019472887,99.83781263255356,-0.0041046908467928,0.005050952338585,,10094.22773008973,12108.22360793471,150,10,2025-09-15,2025-09-26 16:24:22.218,HH,C,738994082,HAWK11,1,1,73,2,1,1,225,2,1,0,0,12,1,225,2,1,-150049.20349295562,-4787380.272432174,4203202.847136021,2.66855,2.05448,-0.82068,-44.375,78.75,89.625,-0.171875,-7.04688,6.82812,0.0,0.00585938,-0.015625,4,0,41.459162451874896,-91.79521409741209,12034.382560025966,-19.636269665583413,2.278518723174965,-5.423313908497905,186.703,10094.22773008973,12108.22360793471,150,True,18.96540038613936,False,121.56035786390247,168.01853714784093,False,70.42009350640441,False,False
10,1970-07-23 11:12:14.631369938,2025-09-15,2025-09-26 16:24:23.136,HH,C,1790461274,JASSM,3,105,76,2,2,1,225,9,2,0,1,26,0,0,0,0,-185200.1995867056,-4786790.192354049,4202000.392057896,-2.30145,-0.152919,0.128471,88.375,-13.5,-11.375,0.0,0.0,0.0,0.0,0.0,0.0,2,0,41.44723732463117,-92.2156600726564,10997.378743739706,99.83844708250876,-0.0033754294862717,0.0050504169758835,,10094.22773008973,12108.22360793471,150,10,2025-09-15,2025-09-26 16:24:22.826,HH,C,739749648,HAWK11,1,1,73,2,1,1,225,2,1,0,0,12,1,225,2,1,-150077.38903983062,-4787330.459932174,4203259.489714146,2.66558,2.0587,-0.817899,-44.75,78.5,89.625,0.03125,-6.90625,6.78125,0.00585938,-0.00585938,-0.00585938,4,0,41.459835816061045,-91.79556976395268,12037.177662207265,-19.848992093215216,2.1924857079818336,-5.42526329962684,186.825,10094.22773008973,12108.22360793471,150,True,18.908230456315753,False,121.74143620338181,167.86711061606127,False,70.39070647086287,False,False
10,1970-07-23 11:12:14.641128892,2025-09-15,2025-09-26 16:24:24.112,HH,C,1791595308,JASSM,3,105,76,2,2,1,225,9,2,0,1,26,0,0,0,0,-185116.11169608065,-4786803.161104049,4201989.395964146,-2.30145,-0.152919,0.128471,88.375,-13.5,-11.5,0.0,0.0,0.0,0.0,0.0,0.0,2,0,41.447105316391685,-92.21464908704532,10997.37486438995,99.83911628343934,-0.0026062169645473,0.0050498405647929,,10094.22773008973,12108.22360793471,150,10,2025-09-15,2025-09-26 16:24:24.031,HH,C,740942646,HAWK11,1,1,73,2,1,1,225,2,1,0,0,12,1,225,2,1,-150122.23083670562,-4787251.569307174,4203348.649870396,2.69386,2.06349,-0.81416,-45.25,78.75,89.25,0.03125,-6.73438,6.54688,0.164062,-0.00390625,0.0,4,0,41.460898524013786,-91.79613549217292,12040.4373061695,-20.10413724422028,2.065236572272959,-3.6141339167071695,187.143,10094.22773008973,12108.22360793471,150,True,18.8404272456275,False,122.03646356687003,167.58104879680172,False,70.38028383901502,False,False
10,1970-07-23 11:12:14.650189843,2025-09-15,2025-09-26 16:24:25.018,HH,C,1792727784,JASSM,3,105,76,2,2,1,225,9,2,0,1,26,0,0,0,0,-185032.13903983065,-4786816.110322799,4201978.415495396,-2.30145,-0.152919,0.128567,88.375,-13.5,-11.5,0.0,0.0,0.0,0.0,0.0,0.0,2,0,41.44697349440669,-92.21363949179538,10997.37164646869,99.84387521798334,-0.0055043347220088,0.0050490167087988,,10094.22773008973,12108.22360793471,150,10,2025-09-15,2025-09-26 16:24:24.920,HH,C,742175412,HAWK11,1,1,73,2,1,1,225,2,1,0,0,12,1,225,2,1,-150168.36364920562,-4787169.743135299,4203440.989714146,-3.1298,2.06388,-0.828733,-43.75,79.5,89.375,-0.390625,-6.90625,6.71875,0.310547,0.015625,-0.0117188,4,0,41.46199991216152,-91.79671777620044,12043.49817968992,-19.804621470889668,2.8459133707438182,22.743558556668635,187.07,10094.22773008973,12108.22360793471,150,False,18.772349600055385,False,121.31858645305682,167.34654827997875,False,71.33147073274813,False,False
10,1970-07-23 11:12:14.659349383,2025-09-15,2025-09-26 16:24:25.934,HH,C,1793801790,JASSM,3,105,76,2,2,1,225,9,2,0,1,26,0,0,0,0,-184952.5042742056,-4786828.391572799,4201968.003386021,-2.30145,-0.152919,0.128567,88.375,-13.5,-11.5,0.0,0.0,0.0,0.0,0.0,0.0,2,0,41.44684847578505,-92.2126820539206,10997.376897765416,99.84450897085551,-0.0047758609325198,0.0050485378293917,,10094.22773008973,12108.22360793471,150,10,2025-09-15,2025-09-26 16:24:25.826,HH,C,743288878,HAWK11,1,1,73,2,1,1,225,2,1,0,0,12,1,225,2,1,-150207.23474295562,-4787095.006807174,4203523.724089146,-3.0276,1.97615,-0.842827,-40.0,80.625,90.0,-0.328125,-7.48438,7.25,-0.140625,0.0214844,0.103516,4,0,41.46299565627877,-91.79721059108525,12042.564012252442,-16.360528973025072,2.435442580163848,25.0283111641646,186.422,10094.22773008973,12108.22360793471,150,False,18.71059868457614,False,119.5517718512652,167.13195790777624,False,73.31139325255948,False,False
10,1970-07-23 11:12:14.669167522,2025-09-15,2025-09-26 16:24:26.916,HH,C,1794935296,JASSM,3,105,76,2,2,1,225,9,2,0,1,26,0,0,0,0,-184868.45544608065,-4786841.352510299,4201957.011198521,-2.30145,-0.152919,0.128567,88.375,-13.5,-11.5,0.0,0.0,0.0,0.0,0.0,0.0,2,0,41.44671650523915,-92.2116715508488,10997.37714114678,99.84517784724872,-0.0040070066955849,0.0050480188704894,,10094.22773008973,12108.22360793471,150,10,2025-09-15,2025-09-26 16:24:26.826,HH,C,744561410,HAWK11,1,1,73,2,1,1,225,2,1,0,0,12,1,225,2,1,-150248.70739920562,-4787007.475557174,4203620.681120396,2.89002,1.89686,-0.851168,-37.375,81.25,90.75,-0.015625,-7.29688,7.20312,-0.404297,0.015625,-0.0195312,4,0,41.46416302172221,-91.7977393304235,12041.293426838582,-13.341329458729598,2.021560776487604,0.7956765495265075,187.742,10094.22773008973,12108.22360793471,150,True,18.645717768302045,False,118.29327097036833,166.8825180219082,False,74.81924339620146,False,False
10,1970-07-23 11:12:14.678392610,2025-09-15,2025-09-26 16:24:27.839,HH,C,1796068874,JASSM,3,105,76,2,2,1,225,9,2,0,1,26,0,0,0,0,-184784.40075858065,-4786854.313447799,4201946.017057896,-2.30145,-0.152919,0.128567,88.375,-13.5,-11.5,0.0,0.0,0.0,0.0,0.0,0.0,2,0,41.44658451398576,-92.21066098184367,10997.376362367972,99.84584676553308,-0.0032380986998336,0.0050474971992356,,10094.22773008973,12108.22360793471,150,10,2025-09-15,2025-09-26 16:24:27.839,HH,C,745555576,HAWK11,1,1,73,2,1,1,225,2,1,0,0,12,1,225,2,1,-150280.05310233062,-4786940.034150924,4203696.118620396,2.5187,1.97462,-0.840621,-38.25,80.875,91.25,0.234375,-7.8125,7.5625,-0.28125,0.0214844,-0.0625,4,0,41.465067517267904,-91.79813945472915,12041.868022085862,-16.3456061306307,2.2992419159625377,-17.25696012474362,188.377,10094.22773008973,12108.22360793471,150,False,18.58601789258225,False,118.64342187229747,166.68068035727552,False,74.67274096841416,False,False
10,1970-07-23 11:12:14.688328410,2025-09-15,2025-09-26 16:24:28.832,HH,C,1797142642,JASSM,3,105,76,2,2,1,225,9,2,0,1,26,0,0,0,0,-184704.7816179556,-4786866.588838424,4201935.604948521,-2.30145,-0.152919,0.128567,88.375,-13.5,-11.5,0.0,0.0,0.0,0.0,0.0,0.0,2,0,41.44645950185589,-92.20970374485287,10997.379239528438,99.84648038054452,-0.0025097701247384,0.0050470247684037,,10094.22773008973,12108.22360793471,150,10,2025-09-15,2025-09-26 16:24:28.746,HH,C,746430442,HAWK11,1,1,73,2,1,1,225,2,1,0,0,12,1,225,2,1,-150308.87341483062,-4786880.633760299,4203763.167448521,2.36952,2.02131,-0.822501,-40.75,80.375,91.0,-0.03125,-7.82812,7.54688,-0.0546875,0.0078125,-0.0351562,4,0,41.4658680266136,-91.79850637345338,12043.788316493908,-18.391827133479914,1.9190528146911865,-23.90245063700169,188.463,10094.22773008973,12108.22360793471,150,False,18.530013759337287,False,119.77658245650971,166.4987521612835,False,73.7222216006288,False,False
10,1970-07-23 11:12:14.698369038,2025-09-15,2025-09-26 16:24:29.836,HH,C,1798334804,JASSM,3,105,76,2,2,1,225,9,2,0,1,26,0,0,0,0,-184616.38513358065,-4786880.215791549,4201924.040495396,-2.30145,-0.152823,0.128567,88.375,-13.5,-11.5,0.0,0.0,0.0,0.0,0.0,0.0,2,0,41.44632067862306,-92.2086409855844,10997.372469821426,99.84354785203335,-0.0057580631795301,0.0043424205125224,,10094.22773008973,12108.22360793471,150,10,2025-09-15,2025-09-26 16:24:29.826,HH,C,748100640,HAWK11,1,1,73,2,1,1,225,2,1,0,0,12,1,225,2,1,-150369.57849295562,-4786768.807588424,4203889.796354771,2.39081,2.0843,-0.803327,-46.0,79.5,89.75,0.0,-7.53125,7.26562,0.0820312,0.0117188,-0.03125,4,0,41.4673765652532,-91.7992742620642,12048.79107822778,-21.104438674945357,1.812793932059217,-20.14952902584141,188.781,10094.22773008973,12108.22360793471,150,False,18.45438708392823,False,122.21438327959687,166.177447340206,False,71.60580000791055,False,False
10,1970-07-23 11:12:14.707147958,2025-09-15,2025-09-26 16:24:30.714,HH,C,1799467386,JASSM,3,105,76,2,2,1,225,9,2,0,1,26,0,0,0,0,-184532.40466483065,-4786893.163057174,4201913.056120396,-2.30145,-0.152823,0.128567,88.375,-13.5,-11.5,0.0,0.0,0.0,0.0,0.0,0.0,2,0,41.446188790963554,-92.20763132219204,10997.377654791972,99.8442161656638,-0.0049898371894712,0.004341863766361,,10094.22773008973,12108.22360793471,150,10,2025-09-15,2025-09-26 16:24:30.718,HH,C,749094804,HAWK11,1,1,73,2,1,1,225,2,1,0,0,12,1,225,2,1,-150408.55896170562,-4786702.262666549,4203965.040495396,2.4421,2.11795,-0.792397,-48.25,78.875,89.25,-0.015625,-7.34375,7.20312,0.130859,0.0117188,-0.0253906,4,0,41.4682729823951,-91.79976538677838,12051.758586189611,-22.5897777336448,1.7772489922993728,-15.876862217346982,188.695,10094.22773008973,12108.22360793471,150,False,18.39142812373985,False,123.27439981997907,165.9718332245631,False,70.75188299531052,False,False
10,1970-07-23 11:12:14.715306788,2025-09-15,2025-09-26 16:24:31.530,HH,C,1800541968,JASSM,3,105,76,2,2,1,225,9,2,0,1,26,0,0,0,0,-184452.72497733065,-4786905.446260299,4201902.632292271,-2.30145,-0.152823,0.128567,88.375,-13.5,-11.5,0.0,0.0,0.0,0.0,0.0,0.0,2,0,41.44606364195132,-92.20667336960936,10997.379270639747,99.8448502493996,-0.0042609524181213,0.0043413282021252,,10094.22773008973,12108.22360793471,150,10,2025-09-15,2025-09-26 16:24:31.030,HH,C,749492472,HAWK11,1,1,73,2,1,1,225,2,1,0,0,12,1,225,2,1,-150424.49060233062,-4786676.500947799,4203994.151823521,2.47086,2.12456,-0.792205,-49.0,78.625,89.25,-0.234375,-7.35938,7.15625,0.0859375,0.00195312,-0.0136719,4,0,41.46861973440655,-91.79996557783744,12052.934535611465,-22.83708092396847,1.8772821981297476,-13.966929996456496,188.622,10094.22773008973,12108.22360793471,150,False,18.341579404525742,False,123.6086874462338,165.87198421044653,False,70.51785586947946,False,False
10,1970-07-23 11:12:14.724366917,2025-09-15,2025-09-26 16:24:32.436,HH,C,1801615710,JASSM,3,105,76,2,2,1,225,9,2,0,1,26,0,0,0,0,-184373.1097429556,-4786917.717744674,4201892.216276646,-2.30145,-0.152823,0.128567,88.375,-13.5,-11.5,0.0,0.0,0.0,0.0,0.0,0.0,2,0,41.445938592636615,-92.20571619641538,10997.37854773113,99.84548381567215,-0.0035326589343315,0.0043407992745496,,10094.22773008973,12108.22360793471,150,10,2025-09-15,2025-09-26 16:24:32.624,HH,C,751480802,HAWK11,1,1,73,2,1,1,225,2,1,0,0,12,1,225,2,1,-150508.06482108062,-4786545.725557174,4204142.058073521,2.56999,2.15208,-0.780892,-51.25,78.25,88.125,-0.140625,-6.45312,6.26562,0.0488281,-0.0117188,-0.0136719,4,0,41.47038031246508,-91.80101413341228,12059.402772424328,-24.121504752013443,1.76239252385601,-7.211629063416253,188.744,10094.22773008973,12108.22360793471,150,True,18.26039210721362,False,124.72786116545176,165.4983758327557,False,69.77157624410486,False,False
10,1970-07-23 11:12:14.737066827,2025-09-15,2025-09-26 16:24:33.706,HH,C,1802869738,JASSM,3,105,76,2,2,1,225,9,2,0,1,26,0,0,0,0,-184280.12341483065,-4786932.049775924,4201880.048307896,-2.30145,-0.152823,0.128567,88.375,-13.5,-11.5,0.0,0.0,0.0,0.0,0.0,0.0,2,0,41.44579251638464,-92.20459827424814,10997.375305707925,99.84622378193929,-0.0026820486727373,0.0043401664112502,,10094.22773008973,12108.22360793471,150,10,2025-09-15,2025-09-26 16:24:33.746,HH,C,750009438,HAWK11,1,1,73,2,1,1,225,2,1,0,0,12,1,225,2,1,-150446.14099295562,-4786642.102510299,4204033.128386021,2.49742,2.13559,-0.792589,-49.875,78.25,89.0,-0.046875,-7.23438,7.125,0.0800781,0.0,-0.0195312,4,0,41.46908337676324,-91.80023740247115,12054.764617137658,-23.231348524431045,2.082967600783576,-12.009120637338516,188.903,10094.22773008973,12108.22360793471,150,False,18.239717158985933,False,124.04111814034589,165.70936427572985,False,70.24830802488141,False,False
10,1970-07-23 11:12:14.747389832,2025-09-15,2025-09-26 16:24:34.738,HH,C,1804239572,JASSM,3,105,76,2,2,1,225,9,2,0,1,26,0,0,0,0,-184178.5511492056,-4786947.704072799,4201866.759245396,-2.30145,-0.152823,0.128663,88.375,-13.5,-11.5,0.0,0.0,0.0,0.0,0.0,0.0,2,0,41.445632962647046,-92.20337713442952,10997.379669678485,99.85112276787288,-0.005419123632573,0.0043392415886413,,10094.22773008973,12108.22360793471,150,10,2025-09-15,2025-09-26 16:24:34.420,HH,C,753588434,HAWK11,1,1,73,2,1,1,225,2,1,0,0,12,1,225,2,1,-150599.67224295562,-4786406.930635299,4204296.101042271,2.57872,2.16636,-0.774469,-52.625,78.5,87.25,0.078125,-6.65625,6.4375,0.00390625,0.0,-0.00195312,4,0,41.47222851907251,-91.80216182892669,12060.14495956538,-24.80783885149926,1.687092891894579,-6.158084985348991,189.062,10094.22773008973,12108.22360793471,150,True,18.115097439408586,False,125.38667299128753,165.05231518320767,False,69.55701499620407,False,False
10,1970-07-23 11:12:14.758169691,2025-09-15,2025-09-26 16:24:35.816,HH,C,1805552166,JASSM,3,105,76,2,2,1,225,9,2,0,1,26,0,0,0,0,-184081.2230242056,-4786962.702119674,4201854.022917271,-2.30145,-0.152823,0.128663,88.375,-13.5,-11.5,0.0,0.0,0.0,0.0,0.0,0.0,2,0,41.44548005922439,-92.2022070258585,10997.378235799168,99.85189727223852,-0.004528799954373,0.0043386598119205,,10094.22773008973,12108.22360793471,150,10,2025-09-15,2025-09-26 16:24:35.826,HH,C,755298398,HAWK11,1,1,73,2,1,1,225,2,1,0,0,12,1,225,2,1,-150675.93005545562,-4786293.747041549,4204420.679167271,2.59099,2.17749,-0.769291,-53.75,78.75,86.875,-0.125,-7.10938,6.89062,0.00390625,0.015625,-0.0136719,4,0,41.47372837123596,-91.803116381256,12058.630599879263,-25.349483846141123,1.6252088472495945,-5.0261401651017446,189.526,10094.22773008973,12108.22360793471,150,True,18.029008312862896,False,125.86867996524745,164.71280292499935,False,69.41329487012088,False,False
10,1970-07-23 11:12:14.769166901,2025-09-15,2025-09-26 16:24:36.916,HH,C,1806866300,JASSM,3,105,76,2,2,1,225,9,2,0,1,26,0,0,0,0,-183983.78064139312,-4786977.717744674,4201841.269011021,-2.30145,-0.152823,0.128663,88.375,-13.5,-11.5,0.0,0.0,0.0,0.0,0.0,0.0,2,0,41.44532694682984,-92.2010355491622,10997.37609731686,99.85267267982458,-0.0036374280693634,0.0043380600180293,,10094.22773008973,12108.22360793471,150,10,2025-09-15,2025-09-26 16:24:36.833,HH,C,756213030,HAWK11,1,1,73,2,1,1,225,2,1,0,0,12,1,225,2,1,-150717.37341483062,-4786233.502900924,4204487.200651646,2.58131,2.18132,-0.772647,-54.25,78.25,87.125,-0.09375,-7.375,7.1875,0.00195312,-0.0136719,0.00390625,4,0,41.474527964875,-91.80363468723712,12058.359254265744,-25.40469526073942,1.8685692763532051,-5.429507907103139,190.003,10094.22773008973,12108.22360793471,150,True,17.958876662906977,False,126.09036655937518,164.50894991700096,False,69.39728152440247,False,False
10,1970-07-23 11:12:14.779308842,2025-09-15,2025-09-26 16:24:37.930,HH,C,1808181230,JASSM,3,105,76,2,2,1,225,9,2,0,1,26,0,0,0,0,-183886.27966483065,-4786992.739229049,4201828.509245396,-2.30145,-0.152823,0.128663,88.375,-13.5,-11.5,0.0,0.0,0.0,0.0,0.0,0.0,2,0,41.44517376149773,-92.1998633750055,10997.375176804686,99.85344854670431,-0.0027455265562218,0.0043374902479633,,10094.22773008973,12108.22360793471,150,10,2025-09-15,2025-09-26 16:24:38.030,HH,C,757684396,HAWK11,1,1,73,2,1,1,225,2,1,0,0,12,1,225,2,1,-150784.92419608062,-4786136.782197799,4204594.079557896,2.60163,2.18238,-0.768524,-55.125,78.25,86.75,-0.15625,-7.0625,6.79688,0.015625,-0.00585938,-0.00195312,4,0,41.47581204001494,-91.80447897407755,12058.186613793743,-25.550163380999173,1.6784428819777468,-4.227331295051285,190.284,10094.22773008973,12108.22360793471,150,True,17.877323980308212,False,126.49785418070587,164.20648255905468,False,69.29166186863019,False,False
10,1970-07-23 11:12:14.790324950,2025-09-15,2025-09-26 16:24:39.032,HH,C,1809490786,JASSM,3,105,76,2,2,1,225,9,2,0,1,26,0,0,0,0,-183789.1761492056,-4787007.700166549,4201815.798307896,-2.30145,-0.152727,0.128663,88.375,-13.5,-11.5,0.0,0.0,0.0,0.0,0.0,0.0,2,0,41.44502116315645,-92.19869598436,10997.37407935955,99.85058535129342,-0.00591416762824,0.003632325500715,,10094.22773008973,12108.22360793471,150,10,2025-09-15,2025-09-26 16:24:38.920,HH,C,758917162,HAWK11,1,1,73,2,1,1,225,2,1,0,0,12,1,225,2,1,-150841.64489920562,-4786056.172822799,4204682.825651646,2.60978,2.18468,-0.768908,-55.5,78.25,86.75,-0.09375,-7.01562,6.84375,0.0175781,0.0,0.0,4,0,41.4768799144565,-91.80518769850865,12057.369680307664,-25.62539299187929,1.7419162331121796,-3.670964993903069,190.394,10094.22773008973,12108.22360793471,150,True,17.801150285080197,False,126.64801193334772,163.9448735708328,False,69.40320395615107,False,False
10,1970-07-23 11:12:14.801365704,2025-09-15,2025-09-26 16:24:40.136,HH,C,1810803064,JASSM,3,105,76,2,2,1,225,9,2,0,1,26,0,0,0,0,-183691.8714617056,-4787022.690400924,4201803.061979771,-2.30145,-0.152727,0.128663,88.375,-13.5,-11.5,0.0,0.0,0.0,0.0,0.0,0.0,2,0,41.444868253254725,-92.1975261814673,10997.375908956252,99.85135964397496,-0.005024060454599,0.0036316912011023,,10094.22773008973,12108.22360793471,150,10,2025-09-15,2025-09-26 16:24:40.216,HH,C,760507826,HAWK11,1,1,73,2,1,1,225,2,1,0,0,12,1,225,2,1,-150916.07458670562,-4785951.483369674,4204798.186979771,2.64152,2.19005,-0.772168,-56.0,78.25,86.625,-0.046875,-7.39062,7.17188,0.0390625,0.015625,-0.00585938,4,0,41.47826734444584,-91.80611732179943,12056.608601397582,-25.738388840073977,2.00990159393953,-1.642116978426624,191.029,10094.22773008973,12108.22360793471,150,True,17.717532841593012,False,126.86657070166221,163.61599963028698,False,69.51337421558908,False,False
10,1970-07-23 11:12:14.811385314,2025-09-15,2025-09-26 16:24:41.138,HH,C,1811876806,JASSM,3,105,76,2,2,1,225,9,2,0,1,26,0,0,0,0,-183612.2542742056,-4787034.956025924,4201792.638151646,-2.30145,-0.152727,0.128663,88.375,-13.5,-11.5,0.0,0.0,0.0,0.0,0.0,0.0,2,0,41.44474311043201,-92.19656902275943,10997.376009036763,99.85199318569714,-0.0042957485911343,0.0036311532897082,,10094.22773008973,12108.22360793471,150,10,2025-09-15,2025-09-26 16:24:41.218,HH,C,761740592,HAWK11,1,1,73,2,1,1,225,2,1,0,0,12,1,225,2,1,-150974.31482108062,-4785870.235322799,4204888.581511021,2.67593,2.1934,-0.780125,-56.0,77.75,87.25,-0.203125,-7.54688,7.40625,0.0253906,0.00195312,0.0,4,0,41.47934984110125,-91.80684451448202,12057.94337334534,-25.653411914283563,2.479520318317406,0.4679745766473569,191.103,10094.22773008973,12108.22360793471,150,True,17.650677123119717,False,126.83000674851998,163.35528178636844,False,69.81283021292063,False,False
10,1970-07-23 11:12:14.820185801,2025-09-15,2025-09-26 16:24:42.018,HH,C,1812950546,JASSM,3,105,76,2,2,1,225,9,2,0,1,26,0,0,0,0,-183532.6370867056,-4787047.219697799,4201782.214323521,-2.30145,-0.152727,0.128663,88.375,-13.5,-11.5,0.0,0.0,0.0,0.0,0.0,0.0,2,0,41.44461797126844,-92.19561186862488,10997.374696864938,99.8526267228176,-0.0035674393621072,0.0036306266868774,,10094.22773008973,12108.22360793471,150,10,2025-09-15,2025-09-26 16:24:42.124,HH,C,762535924,HAWK11,1,1,73,2,1,1,225,2,1,0,0,12,1,225,2,1,-151011.00818045562,-4785818.754854049,4204946.415495396,2.69866,2.18353,-0.783864,-55.625,77.625,87.625,-0.1875,-7.26562,6.98438,0.0117188,0.0,0.015625,4,0,41.48003953303614,-91.80730279333778,12059.990589039577,-25.198349747105663,2.489248727033042,1.390897316933284,191.139,10094.22773008973,12108.22360793471,150,True,17.59333313809079,False,126.63777803217755,163.17320217394476,False,70.18780249200543,False,False
10,1970-07-23 11:12:14.828366341,2025-09-15,2025-09-26 16:24:42.836,HH,C,1814024288,JASSM,3,105,76,2,2,1,225,9,2,0,1,26,0,0,0,0,-183453.01892264312,-4787059.483369674,4201771.790495396,-2.30145,-0.152727,0.128663,88.375,-13.5,-11.5,0.0,0.0,0.0,0.0,0.0,0.0,2,0,41.44449282436151,-92.19465470649716,10997.376680249032,99.85326026365476,-0.0028391215356741,0.0036301017701564,,10094.22773008973,12108.22360793471,150,10,2025-09-15,2025-09-26 16:24:42.716,HH,C,763371024,HAWK11,1,1,73,2,1,1,225,2,1,0,0,12,1,225,2,1,-151049.81482108062,-4785764.157197799,4205007.845182896,2.71189,2.17614,-0.788179,-55.375,77.625,87.75,-0.203125,-7.14062,6.95312,0.00390625,0.00976562,0.00390625,4,0,41.48077163699154,-91.8077875338125,12062.36132921178,-24.820317147044086,2.577073706718461,1.866424627140074,191.176,10094.22773008973,12108.22360793471,150,True,17.535303007927947,False,126.51898888679295,162.98123095954097,False,70.49870009432576,False,False
10,1970-07-23 11:12:14.838367916,2025-09-15,2025-09-26 16:24:43.836,HH,C,1815217336,JASSM,3,105,76,2,2,1,225,9,2,0,1,26,0,0,0,0,-183364.5550554556,-4787073.108369674,4201760.206511021,-2.30145,-0.152727,0.128663,88.375,-13.5,-11.5,0.0,0.0,0.0,0.0,0.0,0.0,2,0,41.44435375730131,-92.19359120701006,10997.375487413608,99.853964186814,-0.002029885674289,0.0036295117368431,,10094.22773008973,12108.22360793471,150,10,2025-09-15,2025-09-26 16:24:43.716,HH,C,764444722,HAWK11,1,1,73,2,1,1,225,2,1,0,0,12,1,225,2,1,-151099.50232108062,-4785693.807588424,4205087.224089146,2.71726,2.1726,-0.784823,-54.875,77.875,88.125,-0.078125,-7.10938,6.82812,0.00976562,0.0,-0.00195312,4,0,41.48171654058586,-91.80840837223636,12065.889350105068,-24.77764689020349,2.3420726374497014,2.0320373209164178,191.188,10094.22773008973,12108.22360793471,150,True,17.468401191517728,False,126.23440393178778,162.7393282020176,False,71.02526129747064,False,False
10,1970-07-23 11:12:14.848144021,2025-09-15,2025-09-26 16:24:44.814,HH,C,1816350522,JASSM,3,105,76,2,2,1,225,9,2,0,1,26,0,0,0,0,-183280.52966483065,-4787086.047822799,4201749.204557896,-2.30145,-0.152727,0.128663,88.375,-13.5,-11.5,0.0,0.0,0.0,0.0,0.0,0.0,2,0,41.444221675681874,-92.1925810713243,10997.375256211548,99.85463278703207,-0.0012612549882324,0.0036289680739509,,10094.22773008973,12108.22360793471,150,10,2025-09-15,2025-09-26 16:24:44.920,HH,C,766114920,HAWK11,1,1,73,2,1,1,225,2,1,0,0,12,1,225,2,1,-151176.12536795562,-4785584.043916549,4205210.427214146,2.75004,2.15496,-0.788466,-54.25,78.375,88.125,-0.1875,-6.85938,6.65625,0.0292969,0.0,0.0,4,0,41.48318662550529,-91.8093662842535,12069.928510906926,-24.044631930942547,2.218381493490817,3.224325128223474,191.384,10094.22773008973,12108.22360793471,150,True,17.393316953357235,False,125.9283063083244,162.3889533184274,False,71.68100385659316,False,False
10,1970-07-23 11:12:14.857185926,2025-09-15,2025-09-26 16:24:45.718,HH,C,1817424688,JASSM,3,105,76,2,2,1,225,9,2,0,1,26,0,0,0,0,-183200.88122733065,-4787098.313447799,4201738.774870396,-2.30145,-0.152727,0.128759,88.375,-13.5,-11.5,0.0,0.0,0.0,0.0,0.0,0.0,2,0,41.44409645929503,-92.19162355814584,10997.37719503088,99.85935730183448,-0.0041988333656124,0.0036282770859033,,10094.22773008973,12108.22360793471,150,10,2025-09-15,2025-09-26 16:24:45.530,HH,C,766830720,HAWK11,1,1,73,2,1,1,225,2,1,0,0,12,1,225,2,1,-151208.42614920562,-4785536.600557174,4205263.505339146,2.7766,2.14834,-0.788658,-53.75,78.625,88.375,-0.09375,-6.89062,6.65625,0.0292969,-0.00195312,0.00976562,4,0,41.483821020045326,-91.80977055205344,12071.237565178451,-23.79891256563604,2.113862473484071,4.4863892147421645,191.42,10094.22773008973,12108.22360793471,150,True,17.33886641994951,False,125.66339825242564,162.21288897319383,False,72.12189683431336,False,False
10,1970-07-23 11:12:14.867327771,2025-09-15,2025-09-26 16:24:46.732,HH,C,1818617298,JASSM,3,105,76,2,2,1,225,9,2,0,1,26,0,0,0,0,-183112.4495867056,-4787111.930635299,4201727.192839146,-2.30145,-0.152727,0.128759,88.375,-13.5,-11.5,0.0,0.0,0.0,0.0,0.0,0.0,2,0,41.44395741654395,-92.19056046032404,10997.375993319169,99.86006095363156,-0.0033898934533668,0.0036277463907077,,10094.22773008973,12108.22360793471,150,10,2025-09-15,2025-09-26 16:24:47.030,HH,C,768659984,HAWK11,1,1,73,2,1,1,225,2,1,0,0,12,1,225,2,1,-151290.36755545562,-4785414.233369674,4205400.519011021,2.81764,2.12907,-0.795753,-52.125,79.375,89.0,-0.3125,-7.28125,6.98438,-0.351562,0.00585938,-0.0195312,4,0,41.48545828095682,-91.81079690430391,12074.767969866503,-22.92443140328509,2.1560306266393106,6.084073733378199,191.53,10094.22773008973,12108.22360793471,150,True,17.260876784008143,False,124.83877364634077,161.82081147484178,False,73.33814058020405,False,False
10,1970-07-23 11:12:14.877366172,2025-09-15,2025-09-26 16:24:47.736,HH,C,1819809960,JASSM,3,105,76,2,2,1,225,9,2,0,1,26,0,0,0,0,-183024.01403983065,-4787125.547822799,4201715.608854771,-2.30145,-0.152631,0.128759,88.375,-13.5,-11.5,0.0,0.0,0.0,0.0,0.0,0.0,2,0,41.44381835167921,-92.1894973203567,10997.374362404624,99.85712883304058,-0.0066378230505781,0.0029221610828606,,10094.22773008973,12108.22360793471,150,10,2025-09-15,2025-09-26 16:24:47.624,HH,C,769375784,HAWK11,1,1,73,2,1,1,225,2,1,0,0,12,1,225,2,1,-151321.06482108062,-4785367.172822799,4205453.186979771,2.50729,2.12332,-0.796232,-52.25,79.25,89.25,0.40625,-7.29688,7.0625,-0.558594,-0.00390625,0.0273438,4,0,41.486087926324856,-91.81118187529398,12076.012673834352,-22.70336663925858,2.085971831115792,-11.92460348018344,191.225,10094.22773008973,12108.22360793471,150,False,17.203205262835446,False,124.86709921677152,161.6378660951691,False,73.49337378638198,False,False
10,1970-07-23 11:12:14.886168510,2025-09-15,2025-09-26 16:24:48.616,HH,C,1820884206,JASSM,3,105,76,2,2,1,225,9,2,0,1,26,0,0,0,0,-182944.35876639312,-4787137.811494674,4201705.177214146,-2.30145,-0.152631,0.128759,88.375,-13.5,-11.5,0.0,0.0,0.0,0.0,0.0,0.0,2,0,41.443693109622544,-92.18853973823175,10997.377536433336,99.8577626418796,-0.0059091699997424,0.0029216550638071,,10094.22773008973,12108.22360793471,150,10,2025-09-15,2025-09-26 16:24:48.624,HH,C,770489250,HAWK11,1,1,73,2,1,1,225,2,1,0,0,12,1,225,2,1,-151371.45153983062,-4785292.754854049,4205537.194792271,2.18132,2.15208,-0.80371,-55.25,78.25,88.625,0.109375,-8.23438,7.96875,-0.121094,0.0429688,-0.0664062,4,0,41.4870881207048,-91.81181271572196,12079.701203414956,-23.564281191088032,2.960473290611211,-29.457013414066665,192.936,10094.22773008973,12108.22360793471,150,False,17.1427062171553,False,126.26716696121181,161.38011194472324,False,72.35189021842143,False,False
10,1970-07-23 11:12:14.896186346,2025-09-15,2025-09-26 16:24:49.618,HH,C,1822075618,JASSM,3,105,76,2,2,1,225,9,2,0,1,26,0,0,0,0,-182856.0159929556,-4787151.413057174,4201693.604948521,-2.30145,-0.152631,0.128759,88.375,-13.5,-11.5,0.0,0.0,0.0,0.0,0.0,0.0,2,0,41.44355417703985,-92.1874777227824,10997.379606652265,99.85846557168458,-0.0051010434591459,0.0029210723276519,,10094.22773008973,12108.22360793471,150,10,2025-09-15,2025-09-26 16:24:49.549,HH,C,771045982,HAWK11,1,1,73,2,1,1,225,2,1,0,0,12,1,225,2,1,-151397.57849295562,-4785257.008760299,4205577.808073521,2.08583,2.21171,-0.772263,-57.75,77.375,88.0,0.0,-8.8125,8.60938,-0.121094,0.0292969,-0.121094,4,0,41.48756995008355,-91.81213875662672,12082.19204993547,-26.529799586801165,2.434775923802649,-32.64486937903547,192.508,10094.22773008973,12108.22360793471,150,False,17.086756190162095,False,127.45062336932627,161.22509241386544,False,71.32389639457298,False,False
