Subject_cm,Timestamp,SampleDate_cm,SampleTime_cm,Configuration_cm,Scenario_cm,DisTime_cm,MarkingTxt_cm,Application_cm,EntId_cm,Site_cm,ExerciseId_cm,ForceId_cm,Category_cm,Country_cm,Domain_cm,Kind_cm,Extra_cm,Specific_cm,Subcategory_cm,AltCategory_cm,AltCountry_cm,AltDomain_cm,AltKind_cm,ECEF_X_cm,ECEF_Y_cm,ECEF_Z_cm,OriPhi_cm,OriPsi_cm,OriTheta_cm,LinVelX_cm,LinVelY_cm,LinVelZ_cm,LinAccX_cm,LinAccY_cm,LinAccZ_cm,AngVelX_cm,AngVelY_cm,AngVelZ_cm,DrAlg_cm,Appearance_cm,Latitude_cm,Longitude_cm,Altitude_cm,Heading_cm,Pitch_cm,Roll_cm,CalibratedAirspeed_cm,CM_Altitude_Lead_cm,CM_Altitude_Wing_cm,CM_Airspeed_cm,Subject_ac,SampleDate_ac,SampleTime_ac,Configuration_ac,Scenario_ac,DisTime_ac,MarkingTxt_ac,Application_ac,EntId_ac,Site_ac,ExerciseId_ac,ForceId_ac,Category_ac,Country_ac,Domain_ac,Kind_ac,Extra_ac,Specific_ac,Subcategory_ac,AltCategory_ac,AltCountry_ac,AltDomain_ac,AltKind_ac,ECEF_X_ac,ECEF_Y_ac,ECEF_Z_ac,OriPhi_ac,OriPsi_ac,OriTheta_ac,LinVelX_ac,LinVelY_ac,LinVelZ_ac,LinAccX_ac,LinAccY_ac,LinAccZ_ac,AngVelX_ac,AngVelY_ac,AngVelZ_ac,DrAlg_ac,Appearance_ac,Latitude_ac,Longitude_ac,Altitude_ac,Heading_ac,Pitch_ac,Roll_ac,CalibratedAirspeed_ac,CM_Altitude_Lead_ac,CM_Altitude_Wing_ac,CM_Airspeed_ac,Bank_Angle_Condition,distance_nm,Distance_Condition,angle_between_vel,angle_between_pos,Cone_Condition,angle_between_pos_nose,Nose_Cone_Condition,Intercept_Criteria
10,1970-07-23 11:12:23.039301721,2025-09-15,2025-09-26 16:38:23.930,HA,C,2793574478,JASSM,3,115,76,2,2,1,225,9,2,0,1,26,0,0,0,0,-163201.89685233062,-4785577.915010299,4204277.224089146,-2.36559,-0.397301,0.382249,75.25,-31.5,-32.75,0.0,0.0,0.0,0.0,0.0,0.0,2,0,41.4745783994122,-91.95319302914277,10997.37517089531,119.85392957636331,-0.0033379012743323,0.0050446805477838,,10033.677516021671,11963.558957041,150,10,2025-09-15,2025-09-26 16:38:23.816,HA,C,1743101362,HAWK11,1,1,73,2,1,1,225,2,1,0,0,12,1,225,2,1,-142298.85778983062,-4792971.701143111,4197104.767057896,2.32168,2.81984,-0.362115,-97.25,39.5,42.125,0.0,-6.79688,7.14062,0.00390625,-0.00195312,0.0078125,4,0,41.38614747978924,-91.70055870486652,11965.407892071946,-63.6383977122028,1.8444623333481545,-1.016358161799486,171.672,10033.677516021671,11963.558957041,150,True,12.535446734868904,False,179.43486651429293,175.0169686057887,False,4.650073704602634,True,False
10,1970-07-23 11:12:23.050323297,2025-09-15,2025-09-26 16:38:25.032,HA,C,2794885698,JASSM,3,115,76,2,2,1,225,9,2,0,1,26,0,0,0,0,-163119.14245779935,-4785612.647432174,4204241.144011021,-2.36559,-0.397301,0.382249,75.25,-31.5,-32.75,0.0,0.0,0.0,0.0,0.0,0.0,2,0,41.47414504559303,-91.9521892372798,10997.37583310907,119.8545943725754,-0.0024698934349084,0.0050432238629059,,10033.677516021671,11963.558957041,150,10,2025-09-15,2025-09-26 16:38:25.222,HA,C,1744652262,HAWK11,1,1,73,2,1,1,225,2,1,0,0,12,1,225,2,1,-142425.24646170562,-4792921.008760299,4197159.181120396,2.30346,2.81955,-0.358856,-97.875,39.5,42.375,0.28125,-6.59375,7.0,-0.0644531,0.00976562,0.00585938,4,0,41.3867939944378,-91.7020862303686,11967.948105815967,-63.76300287996142,1.7048528861287722,-2.0697760889588004,172.809,10033.677516021671,11963.558957041,150,True,12.404995838166938,False,179.3164385721893,174.96780439484553,False,4.643729778888059,True,False
10,1970-07-23 11:12:23.061063847,2025-09-15,2025-09-26 16:38:26.106,HA,C,2796080170,JASSM,3,115,76,2,2,1,225,9,2,0,1,26,0,0,0,0,-163043.75622733062,-4785644.288057174,4204208.274870396,-2.36559,-0.397301,0.382249,75.25,-31.5,-32.75,0.0,0.0,0.0,0.0,0.0,0.0,2,0,41.47375025436118,-91.95127483093115,10997.378960809983,119.8551999651394,-0.0016791627606982,0.0050418847314592,,10033.677516021671,11963.558957041,150,10,2025-09-15,2025-09-26 16:38:26.018,HA,C,1745646426,HAWK11,1,1,73,2,1,1,225,2,1,0,0,12,1,225,2,1,-142507.13513358062,-4792888.174775924,4197194.165495396,2.28247,2.82051,-0.353678,-98.5,39.625,42.125,0.0,-6.625,7.07812,0.0,-0.00976562,-0.00976562,4,0,41.3872109766728,-91.70307594402068,11969.036824782166,-64.0127708863225,1.5364926908262675,-3.260712540017713,173.505,10033.677516021671,11963.558957041,150,True,12.306896725080396,False,179.22133208134073,174.9302347329697,False,4.451539559281374,True,False
10,1970-07-23 11:12:23.071280011,2025-09-15,2025-09-26 16:38:27.128,HA,C,2797332124,JASSM,3,115,76,2,2,1,225,9,2,0,1,26,0,0,0,0,-162964.74255545562,-4785677.448213424,4204173.823698521,-2.36559,-0.397301,0.382249,75.25,-31.5,-32.75,0.0,0.0,0.0,0.0,0.0,0.0,2,0,41.473336473394895,-91.95031643820978,10997.378324656756,119.85583468388852,-0.000850391677003,0.0050404934265249,,10033.677516021671,11963.558957041,150,10,2025-09-15,2025-09-26 16:38:27.222,HA,C,1747078026,HAWK11,1,1,73,2,1,1,225,2,1,0,0,12,1,225,2,1,-142625.68982108062,-4792840.667939986,4197244.444792271,2.2747,2.82722,-0.344187,-99.25,39.75,42.0,-0.171875,-6.67188,7.04688,-0.0078125,-0.0078125,-0.0117188,4,0,41.387811984035885,-91.70450881836642,11969.89039392981,-64.65618725007752,1.420122711128357,-3.590839920800645,174.287,10033.677516021671,11963.558957041,150,True,12.183811543036919,False,179.07081438241013,174.88355743972878,False,4.290138068177865,True,False
10,1970-07-23 11:12:23.081300747,2025-09-15,2025-09-26 16:38:28.130,HA,C,2798526078,JASSM,3,115,76,2,2,1,225,9,2,0,1,26,0,0,0,0,-162889.38855154935,-4785709.071260299,4204140.966276646,-2.36559,-0.397205,0.382249,75.25,-31.5,-32.75,0.0,0.0,0.0,0.0,0.0,0.0,2,0,41.47294184440634,-91.94940244712178,10997.374595024445,119.85280211007236,-0.0036296595930806,0.0029902789046257,,10033.677516021671,11963.558957041,150,10,2025-09-15,2025-09-26 16:38:28.018,HA,C,1748072190,HAWK11,1,1,73,2,1,1,225,2,1,0,0,12,1,225,2,1,-142708.53552420562,-4792807.864229049,4197279.022917271,2.27192,2.83432,-0.342269,-99.75,39.625,41.625,0.0,-6.79688,7.25,0.015625,0.00585938,-0.00195312,4,0,41.38822585301888,-91.70550998267672,11970.253809604064,-65.00140889219571,1.6208676087871012,-3.622548320418128,174.972,10033.677516021671,11963.558957041,150,True,12.085354877494959,False,178.81242491247613,174.84649852175872,False,4.035857948245378,True,False
10,1970-07-23 11:12:23.090482631,2025-09-15,2025-09-26 16:38:29.048,HA,C,2799719242,JASSM,3,115,76,2,2,1,225,9,2,0,1,26,0,0,0,0,-162814.08484061187,-4785740.672822799,4204108.130339146,-2.36559,-0.397205,0.382249,75.25,-31.5,-32.75,0.0,0.0,0.0,0.0,0.0,0.0,2,0,41.47254747077079,-91.9484890772814,10997.372952685308,119.85340700183887,-0.00283979937435,0.0029888969588809,,10033.677516021671,11963.558957041,150,10,2025-09-15,2025-09-26 16:38:29.222,HA,C,1749464022,HAWK11,1,1,73,2,1,1,225,2,1,0,0,12,1,225,2,1,-142825.47693045562,-4792762.154268111,4197327.257292271,2.26464,2.84227,-0.334887,-100.625,39.25,41.5,-0.015625,-6.78125,7.17188,0.0214844,0.0,0.00585938,4,0,41.38880262370882,-91.70692299286102,11970.990613746297,-65.60550454136006,1.6404727949328188,-3.905831479457409,176.096,10033.677516021671,11963.558957041,150,True,11.966026101920628,False,178.43695123778195,174.8035908467769,False,3.7535721222144964,True,False
10,1970-07-23 11:12:23.101483566,2025-09-15,2025-09-26 16:38:30.148,HA,C,2800972020,JASSM,3,115,76,2,2,1,225,9,2,0,1,26,0,0,0,0,-162735.01843436187,-4785773.852510299,4204073.653776646,-2.36559,-0.397205,0.382345,75.25,-31.5,-32.75,0.0,0.0,0.0,0.0,0.0,0.0,2,0,41.47213338964985,-91.94753008143802,10997.3734685152,119.85788949920288,-0.0059312636403124,0.0029871843412131,,10033.677516021671,11963.558957041,150,10,2025-09-15,2025-09-26 16:38:30.127,HA,C,1750617254,HAWK11,1,1,73,2,1,1,225,2,1,0,0,12,1,225,2,1,-142924.04138358062,-4792724.058564986,4197367.526823521,2.28247,2.84985,-0.32971,-101.25,38.875,41.625,-0.109375,-6.96875,7.3125,0.015625,0.0117188,0.00585938,4,0,41.38928358044983,-91.7081138189648,11971.844381585262,-66.10421215746389,1.7340275910865,-2.757270613746529,176.768,10033.677516021671,11963.558957041,150,True,11.85582655427917,False,178.18260467361787,174.76369608970109,False,3.641390055524876,True,False
10,1970-07-23 11:12:23.112241389,2025-09-15,2025-09-26 16:38:31.224,HA,C,2802282598,JASSM,3,115,76,2,2,1,225,9,2,0,1,26,0,0,0,0,-162652.30456717435,-4785808.561494674,4204037.585417271,-2.36559,-0.397205,0.382345,75.25,-31.5,-32.75,0.0,0.0,0.0,0.0,0.0,0.0,2,0,41.47170019664754,-91.94652685917464,10997.372517909203,119.85855388616788,-0.0050636813015381,0.0029857287577839,,10033.677516021671,11963.558957041,150,10,2025-09-15,2025-09-26 16:38:31.313,HA,C,1752009086,HAWK11,1,1,73,2,1,1,225,2,1,0,0,12,1,225,2,1,-143042.70935233062,-4792678.917939986,4197415.315886021,2.27269,2.85551,-0.32856,-102.0,38.75,41.375,-0.015625,-6.95312,7.32812,-0.0117188,0.00390625,0.0,4,0,41.38985362015704,-91.70954729433704,11973.159821157951,-66.36417759090018,1.912404898022838,-3.221152624800744,177.575,10033.677516021671,11963.558957041,150,True,11.731204322588944,False,177.9024741754728,174.7205466711317,False,3.3955062878647313,True,False
10,1970-07-23 11:12:23.122260951,2025-09-15,2025-09-26 16:38:32.226,HA,C,2803475646,JASSM,3,115,76,2,2,1,225,9,2,0,1,26,0,0,0,0,-162577.00915701812,-4785840.157197799,4204004.751432896,-2.36559,-0.397205,0.382345,75.25,-31.5,-32.75,0.0,0.0,0.0,0.0,0.0,0.0,2,0,41.47130584648472,-91.94561362583444,10997.37394987882,119.85915867273692,-0.00427390996683,0.0029844020658936,,10033.677516021671,11963.558957041,150,10,2025-09-15,2025-09-26 16:38:32.520,HA,C,1753361152,HAWK11,1,1,73,2,1,1,225,2,1,0,0,12,1,225,2,1,-143158.98278983062,-4792635.182588424,4197461.837370396,2.25907,2.86107,-0.32041,-102.75,38.25,41.375,0.15625,-6.75,7.125,0.0,0.00390625,-0.0117188,4,0,41.39040715212452,-91.71095169216989,11975.016389682349,-66.91215012446247,1.8122451962008912,-3.917460169294907,178.589,10033.677516021671,11963.558957041,150,True,11.612832656023638,False,177.5478622665644,174.6802873737283,False,3.2154254061646257,True,False
10,1970-07-23 11:12:23.133321004,2025-09-15,2025-09-26 16:38:33.332,HA,C,2804730410,JASSM,3,115,76,2,2,1,225,9,2,0,1,26,0,0,0,0,-162497.81628592435,-4785873.387666549,4203970.218229771,-2.36559,-0.397205,0.382345,75.25,-31.5,-32.75,0.0,0.0,0.0,0.0,0.0,0.0,2,0,41.47089108248948,-91.94465313369597,10997.378776256552,119.85979475122902,-0.0034432616303175,0.0029830121784002,,10033.677516021671,11963.558957041,150,10,2025-09-15,2025-09-26 16:38:33.221,HA,C,1754315552,HAWK11,1,1,73,2,1,1,225,2,1,0,0,12,1,225,2,1,-143241.56872733062,-4792604.373018111,4197494.675261021,2.26262,2.8695,-0.315425,-103.375,38.0,41.375,-0.0625,-7.01562,7.39062,0.00585938,0.00390625,-0.00976562,4,0,41.39079740261053,-91.71194912215492,11976.521774003526,-67.43584616396464,1.9514822305580144,-3.580363926455001,179.139,10033.677516021671,11963.558957041,150,True,11.512742018862154,False,177.31380404559718,174.64436405007584,False,3.1007614873078633,True,False
10,1970-07-23 11:12:23.143320137,2025-09-15,2025-09-26 16:38:34.332,HA,C,2805983074,JASSM,3,115,76,2,2,1,225,9,2,0,1,26,0,0,0,0,-162418.75720389312,-4785906.559541549,4203935.739714146,-2.36559,-0.397205,0.382345,75.25,-31.5,-32.75,0.0,0.0,0.0,0.0,0.0,0.0,2,0,41.47047700115312,-91.94369427743014,10997.374019838016,119.86042974116086,-0.0026140121978097,0.0029816155450011,,10033.677516021671,11963.558957041,150,10,2025-09-15,2025-09-26 16:38:34.127,HA,C,1755269950,HAWK11,1,1,73,2,1,1,225,2,1,0,0,12,1,225,2,1,-143323.65857108062,-4792574.224580611,4197527.079557896,2.32695,2.87295,-0.314083,-103.75,37.875,41.375,-0.15625,-6.96875,7.32812,0.0800781,-0.00390625,-0.00390625,4,0,41.39118087339368,-91.71294040220822,11978.681155784489,-67.62139085387933,2.036777724280472,0.1602674354385374,179.677,10033.677516021671,11963.558957041,150,True,11.413159547190451,False,177.1833785712848,174.6090333387751,False,3.05225223744646,True,False
10,1970-07-23 11:12:23.153465127,2025-09-15,2025-09-26 16:38:35.346,HA,C,2807235316,JASSM,3,115,76,2,2,1,225,9,2,0,1,26,0,0,0,0,-162339.72448904935,-4785939.719697799,4203901.272917271,-2.36559,-0.397205,0.382345,75.25,-31.5,-32.75,0.0,0.0,0.0,0.0,0.0,0.0,2,0,41.47006305528554,-91.94273575341732,10997.372517643376,119.86106450585235,-0.0017850421247399,0.0029802239143444,,10033.677516021671,11963.558957041,150,10,2025-09-15,2025-09-26 16:38:35.346,HA,C,1756303882,HAWK11,1,1,73,2,1,1,225,2,1,0,0,12,1,225,2,1,-143413.61169608062,-4792541.445283736,4197562.620573521,2.39598,2.88005,-0.322615,-104.0,37.75,42.125,0.203125,-7.54688,7.98438,0.109375,0.03125,0.0117188,4,0,41.39159975893384,-91.71402655698692,11981.755888503583,-67.52884248585798,2.653627675559974,4.246330152318556,180.764,10033.677516021671,11963.558957041,150,True,11.308834469815956,False,177.22721040461272,174.5721851446197,False,3.3648776763118966,True,False
10,1970-07-23 11:12:23.164670519,2025-09-15,2025-09-26 16:38:36.467,HA,C,2808428432,JASSM,3,115,76,2,2,1,225,9,2,0,1,26,0,0,0,0,-162264.42321951812,-4785971.313447799,4203868.433073521,-2.36559,-0.397205,0.382345,75.25,-31.5,-32.75,0.0,0.0,0.0,0.0,0.0,0.0,2,0,41.46966864822011,-91.94182249675596,10997.372455402425,119.86166928823666,-0.0009952122595222,0.0029788997861533,,10033.677516021671,11963.558957041,150,10,2025-09-15,2025-09-26 16:38:36.517,HA,C,1758252446,HAWK11,1,1,73,2,1,1,225,2,1,0,0,12,1,225,2,1,-143583.24646170562,-4792479.232393111,4197633.577604771,2.66625,2.86193,-0.358472,-102.875,38.75,45.5,-0.328125,-7.07812,7.375,0.152344,0.00390625,0.0332031,4,0,41.392418586720765,-91.71607502094872,11995.124172503982,-65.35913659430675,3.3464843902353967,19.49824002352884,180.679,10033.677516021671,11963.558957041,150,False,11.157525038467206,False,177.9842249672529,174.51497512493313,False,5.169387150006816,True,False
10,1970-07-23 11:12:23.175238758,2025-09-15,2025-09-26 16:38:37.523,HA,C,2809739420,JASSM,3,115,76,2,2,1,225,9,2,0,1,26,0,0,0,0,-162181.68298514312,-4786006.028291549,4203832.349089146,-2.36559,-0.397109,0.382345,75.25,-31.5,-32.75,0.0,0.0,0.0,0.0,0.0,0.0,2,0,41.469235270319416,-91.94081903282404,10997.377084876316,119.85869618981118,-0.0036970046609919,0.0009280785400475,,10033.677516021671,11963.558957041,150,10,2025-09-15,2025-09-26 16:38:37.517,HA,C,1759167080,HAWK11,1,1,73,2,1,1,225,2,1,0,0,12,1,225,2,1,-143660.93005545562,-4792448.711885299,4197668.247526646,2.76721,2.83288,-0.381961,-101.75,40.75,47.125,-0.234375,-6.92188,7.1875,0.105469,0.0078125,0.0351562,4,0,41.392820314791386,-91.71701385048304,12000.976839599649,-63.3121674795636,3.148397980556381,24.796183756467297,180.972,10033.677516021671,11963.558957041,150,False,11.057343999370882,False,178.3844709512556,174.46561653344122,False,6.3208395479436374,True,False
10,1970-07-23 11:12:23.185261006,2025-09-15,2025-09-26 16:38:38.526,HA,C,2810932968,JASSM,3,115,76,2,2,1,225,9,2,0,1,26,0,0,0,0,-162106.35486014312,-4786037.631807174,4203799.495573521,-2.36559,-0.397109,0.382345,75.25,-31.5,-32.75,0.0,0.0,0.0,0.0,0.0,0.0,2,0,41.4688407030423,-91.93990547431156,10997.377432618976,119.85930116224564,-0.0029068913522775,0.000926699780275,,10033.677516021671,11963.558957041,150,10,2025-09-15,2025-09-26 16:38:38.721,HA,C,1760717978,HAWK11,1,1,73,2,1,1,225,2,1,0,0,12,1,225,2,1,-143791.51794608062,-4792392.206025924,4197730.972136021,2.91869,2.7766,-0.416572,-99.125,45.375,50.625,-0.203125,-6.95312,7.25,0.0917969,0.0117188,0.046875,4,0,41.393556538076,-91.71859393289688,12007.671636986124,-59.81538571460637,2.4075616955905934,32.3909198409108,181.681,10033.677516021671,11963.558957041,150,False,10.92725818383364,False,176.50763568682729,174.38467397116523,False,9.085378016151035,True,False
10,1970-07-23 11:12:23.195299044,2025-09-15,2025-09-26 16:38:39.529,HA,C,2812185014,JASSM,3,115,76,2,2,1,225,9,2,0,1,26,0,0,0,0,-162027.33435233062,-4786070.782197799,4203765.030729771,-2.36559,-0.397109,0.382441,75.25,-31.5,-32.75,0.0,0.0,0.0,0.0,0.0,0.0,2,0,41.4684267943598,-91.9389471484238,10997.374528212436,119.86378331058776,-0.0059987025843152,0.0009249879940374,,10033.677516021671,11963.558957041,150,10,2025-09-15,2025-09-26 16:38:39.627,HA,C,1761831444,HAWK11,1,1,73,2,1,1,225,2,1,0,0,12,1,225,2,1,-143883.62536795562,-4792347.150361861,4197779.138151646,3.00526,2.72914,-0.447827,-96.5,49.5,53.375,-0.15625,-7.28125,7.64062,0.0546875,0.0371094,0.0566406,4,0,41.39413322830242,-91.7197102966602,12008.121381471698,-56.79912710279211,1.9469308092355984,36.32657813196993,182.292,10033.677516021671,11963.558957041,150,False,10.817824022400279,False,174.0680784934333,174.3020825487008,False,11.619985158841484,True,False
10,1970-07-23 11:12:23.206340820,2025-09-15,2025-09-26 16:38:40.634,HA,C,2813497236,JASSM,3,115,76,2,2,1,225,9,2,0,1,26,0,0,0,0,-161944.51599295562,-4786105.526338424,4203728.909636021,-2.36559,-0.397109,0.382441,75.25,-31.5,-32.75,0.0,0.0,0.0,0.0,0.0,0.0,2,0,41.4679929823008,-91.93794277675136,10997.377793992311,119.8644484100636,-0.0051300276607531,0.0009235350820001,,10033.677516021671,11963.558957041,150,10,2025-09-15,2025-09-26 16:38:40.517,HA,C,1762746076,HAWK11,1,1,73,2,1,1,225,2,1,0,0,12,1,225,2,1,-143956.00036795562,-4792307.960908736,4197820.267057896,3.06346,2.67986,-0.478698,-93.875,52.875,56.0,-0.03125,-7.57812,7.98438,0.0410156,0.0273438,0.0664062,4,0,41.39463103739095,-91.72058887115035,12006.284298568937,-53.749221350642046,1.488863808302195,38.49027890493325,183.196,10033.677516021671,11963.558957041,150,False,10.717727856176555,False,171.7538455281511,174.21643182680967,False,13.993018306513845,True,False
10,1970-07-23 11:12:23.217481460,2025-09-15,2025-09-26 16:38:41.748,HA,C,2814809568,JASSM,3,115,76,2,2,1,225,9,2,0,1,26,0,0,0,0,-161861.69079764312,-4786140.270479049,4203692.782682896,-2.36559,-0.397109,0.382441,75.25,-31.5,-32.75,0.0,0.0,0.0,0.0,0.0,0.0,2,0,41.46755912330507,-91.93693833672884,10997.372577030468,119.86511354908042,-0.0042612805655142,0.0009220795616279,,10033.677516021671,11963.558957041,150,10,2025-09-15,2025-09-26 16:38:41.722,HA,C,1764257208,HAWK11,1,1,73,2,1,1,225,2,1,0,0,12,1,225,2,1,-144072.38513358062,-4792236.385713424,4197894.017057896,3.1274,2.60086,-0.530566,-88.5,59.0,60.875,-0.0625,-8.21875,8.4375,-0.0078125,0.0390625,0.0429688,4,0,41.39553380808408,-91.7220047897417,11998.805174660469,-48.81641179409109,1.0521342193172885,40.07360726556349,184.381,10033.677516021671,11963.558957041,150,False,10.58567074616087,False,167.35687760306527,174.06401285755015,False,18.500386493175697,True,False
10,1970-07-23 11:12:23.227222157,2025-09-15,2025-09-26 16:38:42.722,HA,C,2816003850,JASSM,3,115,76,2,2,1,225,9,2,0,1,26,0,0,0,0,-161786.31628592435,-4786171.889619674,4203659.905729771,-2.36549,-0.397109,0.382441,75.25,-31.5,-32.75,0.0,0.0,0.0,0.0,0.0,0.0,2,0,41.46716428332669,-91.93602426429403,10997.373466544388,119.86571884181316,-0.0034706820062407,0.0064122254859602,,10033.677516021671,11963.558957041,150,10,2025-09-15,2025-09-26 16:38:42.923,HA,C,1765847872,HAWK11,1,1,73,2,1,1,225,2,1,0,0,12,1,225,2,1,-144186.13903983062,-4792154.482393111,4197977.876432896,2.95061,2.51745,-0.581954,-82.875,63.5,66.375,-0.078125,-8.51562,8.73438,-0.234375,0.0292969,0.046875,4,0,41.39656670705664,-91.7233930340952,11987.66875724572,-43.81428989970588,0.7279805636267611,27.49665463421524,185.677,10033.677516021671,11963.558957041,150,False,10.4563207432604,False,163.1827073227024,173.86947623116308,False,22.879354380065763,True,False
10,1970-07-23 11:12:23.238665250,2025-09-15,2025-09-26 16:38:43.866,HA,C,2817257086,JASSM,3,115,76,2,2,1,225,9,2,0,1,26,0,0,0,0,-161707.22058279935,-4786205.069307174,4203625.405729771,-2.36549,-0.397109,0.382441,75.25,-31.5,-32.75,0.0,0.0,0.0,0.0,0.0,0.0,2,0,41.46674994576409,-91.93506507680424,10997.3776802964,119.86635400434226,-0.0026410537865154,0.0064108365606939,,10033.677516021671,11963.558957041,150,10,2025-09-15,2025-09-26 16:38:43.814,HA,C,1766722738,HAWK11,1,1,73,2,1,1,225,2,1,0,0,12,1,225,2,1,-144247.18591483062,-4792107.245088424,4198027.880339146,2.82061,2.50048,-0.606689,-80.625,64.5,69.375,0.109375,-8.60938,8.875,-0.148438,0.0234375,0.00390625,4,0,41.397174295597125,-91.72413924499504,11984.46914697106,-42.30527194882638,1.3448867230825294,19.53074201098209,187.009,10033.677516021671,11963.558957041,150,False,10.361465673187698,False,161.51794419895703,173.7321086989519,False,24.70496845061046,True,False
10,1970-07-23 11:12:23.249299447,2025-09-15,2025-09-26 16:38:44.929,HA,C,2818567682,JASSM,3,115,76,2,2,1,225,9,2,0,1,26,0,0,0,0,-161624.50476248687,-4786239.764619674,4203589.323698521,-2.36549,-0.397109,0.382441,75.25,-31.5,-32.75,0.0,0.0,0.0,0.0,0.0,0.0,2,0,41.46631663328492,-91.93406200269696,10997.372954457507,119.86701822248524,-0.0017734538875654,0.0064093813376026,,10033.677516021671,11963.558957041,150,10,2025-09-15,2025-09-26 16:38:45.017,HA,C,1768273636,HAWK11,1,1,73,2,1,1,225,2,1,0,0,12,1,225,2,1,-144349.38318045562,-4792021.665986861,4198120.765104771,2.71534,2.50125,-0.628932,-77.5,65.375,73.625,-0.09375,-7.96875,8.17188,0.00390625,0.00976562,0.0175781,4,0,41.398292029161226,-91.7253908312854,11983.036892047146,-41.5502873699029,2.373368983967332,13.549178118678585,187.363,10033.677516021671,11963.558957041,150,False,10.231345985901688,False,159.2805411513019,173.48547166467065,False,27.21510268696723,True,False
10,1970-07-23 11:12:23.259317176,2025-09-15,2025-09-26 16:38:45.931,HA,C,2819820768,JASSM,3,115,76,2,2,1,225,9,2,0,1,26,0,0,0,0,-161545.41833670562,-4786272.938447799,4203554.825651646,-2.36549,-0.397013,0.382441,75.25,-31.5,-32.75,0.0,0.0,0.0,0.0,0.0,0.0,2,0,41.46590232550217,-91.93310295348944,10997.37676863607,119.86401593847886,-0.0045135641117284,0.0043581863971732,,10033.677516021671,11963.558957041,150,10,2025-09-15,2025-09-26 16:38:45.923,HA,C,1769347336,HAWK11,1,1,73,2,1,1,225,2,1,0,0,12,1,225,2,1,-144417.87732108062,-4791962.444307174,4198187.149870396,2.78092,2.47805,-0.643601,-75.625,66.25,75.625,-0.125,-7.57812,7.82812,0.046875,0.00195312,0.015625,4,0,41.39908013040234,-91.72623035882512,11986.461009225191,-40.18976365194505,2.387726259898096,16.57306661954582,187.718,10033.677516021671,11963.558957041,150,False,10.128525117731138,False,158.00761731530665,173.29426851836087,False,28.68379399297874,True,False
10,1970-07-23 11:12:23.268481567,2025-09-15,2025-09-26 16:38:46.848,HA,C,2820955878,JASSM,3,115,76,2,2,1,225,9,2,0,1,26,0,0,0,0,-161473.77771170562,-4786302.987275924,4203523.573698521,-2.36549,-0.397013,0.382441,75.25,-31.5,-32.75,0.0,0.0,0.0,0.0,0.0,0.0,2,0,41.465527015141824,-91.93223420775804,10997.375738629324,119.86459119746394,-0.0037621304779789,0.0043568766474368,,10033.677516021671,11963.558957041,150,10,2025-09-15,2025-09-26 16:38:46.813,HA,C,1770341500,HAWK11,1,1,73,2,1,1,225,2,1,0,0,12,1,225,2,1,-144480.71130545562,-4791906.232393111,4198250.970182896,2.77411,2.463,-0.658749,-73.75,67.0,77.25,-0.140625,-7.45312,7.625,-0.0253906,0.0,0.0214844,4,0,41.39983402683073,-91.72700120648445,11991.311499367966,-39.11908301320565,2.668987242742412,15.707508074707638,187.84,10033.677516021671,11963.558957041,150,False,10.034112863425673,False,156.8447575128963,173.10602789613836,False,30.037557491318232,False,False
10,1970-07-23 11:12:23.279239057,2025-09-15,2025-09-26 16:38:47.923,HA,C,2822148498,JASSM,3,115,76,2,2,1,225,9,2,0,1,26,0,0,0,0,-161398.50769217435,-4786334.557588424,4203490.739714146,-2.36549,-0.397013,0.382441,75.25,-31.5,-32.75,0.0,0.0,0.0,0.0,0.0,0.0,2,0,41.46513269722413,-91.93132146151744,10997.37918304409,119.86519558773551,-0.0029726350987932,0.0043555118204254,,10033.677516021671,11963.558957041,150,10,2025-09-15,2025-09-26 16:38:48.017,HA,C,1771852632,HAWK11,1,1,73,2,1,1,225,2,1,0,0,12,1,225,2,1,-144572.29528983062,-4791820.790986861,4198349.272917271,2.77382,2.42992,-0.67754,-71.25,68.25,79.5,0.015625,-7.15625,7.375,-0.0136719,-0.00195312,0.0214844,4,0,41.40098938573337,-91.72812605545332,12001.217418708156,-37.28157872952498,2.6599584141569133,14.602234637613924,188.439,10033.677516021671,11963.558957041,150,False,9.91351463752464,False,155.24850883920823,172.82046412320346,False,31.921409793079636,False,False
10,1970-07-23 11:12:23.289261970,2025-09-15,2025-09-26 16:38:48.926,HA,C,2823340796,JASSM,3,115,76,2,2,1,225,9,2,0,1,26,0,0,0,0,-161323.25818045562,-4786366.118135299,4203457.911589146,-2.36549,-0.397013,0.382441,75.25,-31.5,-32.75,0.0,0.0,0.0,0.0,0.0,0.0,2,0,41.46473846559359,-91.9304089754853,10997.377036754926,119.86579980098212,-0.0021833481613822,0.0043541351208958,,10033.677516021671,11963.558957041,150,10,2025-09-15,2025-09-26 16:38:48.924,HA,C,1772966098,HAWK11,1,1,73,2,1,1,225,2,1,0,0,12,1,225,2,1,-144638.42810233062,-4791755.658174361,4198424.237761021,2.78628,2.41247,-0.684251,-69.375,69.375,80.75,-0.28125,-7.07812,7.21875,-0.0449219,0.00976562,0.00976562,4,0,41.40187096706212,-91.72893957206908,12008.564265623523,-36.42524404365631,2.5247701497447355,14.725708410543843,188.879,10033.677516021671,11963.558957041,150,False,9.812414066238128,False,154.1268490245261,172.5849013933758,False,33.27747078974119,False,False
10,1970-07-23 11:12:23.298325753,2025-09-15,2025-09-26 16:38:49.832,HA,C,2824474464,JASSM,3,115,76,2,2,1,225,9,2,0,1,26,0,0,0,0,-161251.70837576812,-4786396.125947799,4203426.698698521,-2.36549,-0.397013,0.382536,75.25,-31.5,-32.75,0.0,0.0,0.0,0.0,0.0,0.0,2,0,41.46436362428291,-91.9295413632827,10997.37877637572,119.87022197269384,-0.0053533856857674,0.0043526104775869,,10033.677516021671,11963.558957041,150,10,2025-09-15,2025-09-26 16:38:49.825,HA,C,1773801198,HAWK11,1,1,73,2,1,1,225,2,1,0,0,12,1,225,2,1,-144686.64099295562,-4791706.462861861,4198480.620573521,2.74142,2.39359,-0.690579,-68.125,70.25,81.5,0.125,-6.82812,7.10938,-0.0585938,0.00390625,0.0253906,4,0,41.40253552876715,-91.7295332820105,12013.471240225592,-35.531007333464714,2.34657073099461,11.506214283876028,189.147,10033.677516021671,11963.558957041,150,False,9.727886998236881,False,153.38247405331293,172.39490137006763,False,34.21013167599224,False,False
10,1970-07-23 11:12:23.307461581,2025-09-15,2025-09-26 16:38:50.746,HA,C,2825608718,JASSM,3,115,76,2,2,1,225,9,2,0,1,26,0,0,0,0,-161180.12194998687,-4786426.147432174,4203395.466276646,-2.36549,-0.397013,0.382536,75.25,-31.5,-32.75,0.0,0.0,0.0,0.0,0.0,0.0,2,0,41.46398857061335,-91.92867331769352,10997.372244110138,119.87079675061187,-0.00460252132744,0.0043513510952428,,10033.677516021671,11963.558957041,150,10,2025-09-15,2025-09-26 16:38:50.719,HA,C,1775073730,HAWK11,1,1,73,2,1,1,225,2,1,0,0,12,1,225,2,1,-144758.54919608062,-4791630.843721236,4198567.436979771,2.71946,2.37412,-0.696811,-66.625,71.25,82.375,-0.21875,-6.5,6.75,-0.0117188,0.0078125,0.0117188,4,0,41.40355843634145,-91.73041961655204,12021.182013270442,-34.620725631851535,2.1628071965715563,9.571069224748909,189.661,10033.677516021671,11963.558957041,150,True,9.623145661330703,False,152.50455341446994,172.1131079440669,False,35.367975560080765,False,False
10,1970-07-23 11:12:23.318661091,2025-09-15,2025-09-26 16:38:51.866,HA,C,2826801336,JASSM,3,115,76,2,2,1,225,9,2,0,1,26,0,0,0,0,-161104.85193045562,-4786457.713838424,4203362.628386021,-2.36549,-0.397013,0.382536,75.25,-31.5,-32.75,0.0,0.0,0.0,0.0,0.0,0.0,2,0,41.46359422125799,-91.92776061617468,10997.373121295032,119.8714010929218,-0.0038130251361579,0.0043500359061356,,10033.677516021671,11963.558957041,150,10,2025-09-15,2025-09-26 16:38:51.923,HA,C,1776584862,HAWK11,1,1,73,2,1,1,225,2,1,0,0,12,1,225,2,1,-144841.63122733062,-4791539.412080611,4198670.737761021,2.78111,2.35687,-0.695852,-65.0,73.0,82.875,-0.015625,-6.32812,6.5,0.0800781,0.00390625,0.0273438,4,0,41.40478465657606,-91.73144517951243,12026.607916821906,-34.01841467319785,1.7002775385392837,12.48922237001966,190.174,10033.677516021671,11963.558957041,150,False,9.50600566705547,False,151.5533533470327,171.76961058127998,False,36.65426598076674,False,False
10,1970-07-23 11:12:23.328286049,2025-09-15,2025-09-26 16:38:52.828,HA,C,2828053904,JASSM,3,115,76,2,2,1,225,9,2,0,1,26,0,0,0,0,-161025.79821951812,-4786490.866182174,4203328.138151646,-2.36549,-0.397013,0.382536,75.25,-31.5,-32.75,0.0,0.0,0.0,0.0,0.0,0.0,2,0,41.46318003482696,-91.92680204700636,10997.372671375771,119.8720358012574,-0.0029838395354971,0.0043486492385997,,10033.677516021671,11963.558957041,150,10,2025-09-15,2025-09-26 16:38:52.867,HA,C,1777499494,HAWK11,1,1,73,2,1,1,225,2,1,0,0,12,1,225,2,1,-144891.51013358062,-4791482.415010299,4198734.329557896,2.8371,2.33779,-0.700454,-63.75,74.375,83.125,-0.03125,-6.32812,6.57812,0.0429688,0.00195312,0.0136719,4,0,41.40554397365162,-91.7320616626375,12028.109522628556,-33.171815486693035,1.469116420718218,15.017936531870934,190.65,10033.677516021671,11963.558957041,150,False,9.414244156029978,False,150.841281964661,171.53260774796678,False,37.5946439702924,False,False
10,1970-07-23 11:12:23.338298706,2025-09-15,2025-09-26 16:38:53.829,HA,C,2829190400,JASSM,3,115,76,2,2,1,225,9,2,0,1,26,0,0,0,0,-160954.07019217435,-4786520.946260299,4203296.843229771,-2.36549,-0.397013,0.382536,75.25,-31.5,-32.75,0.0,0.0,0.0,0.0,0.0,0.0,2,0,41.46280421833313,-91.92593231633828,10997.373997984932,119.87261168143326,-0.0022314899039319,0.0043473870227027,,10033.677516021671,11963.558957041,150,10,2025-09-15,2025-09-26 16:38:53.719,HA,C,1778573192,HAWK11,1,1,73,2,1,1,225,2,1,0,0,12,1,225,2,1,-144948.23278983062,-4791414.633760299,4198808.757292271,2.86011,2.31305,-0.705439,-62.0,76.0,83.625,-0.03125,-6.34375,6.57812,-0.0566406,0.00195312,0.0175781,4,0,41.40643934782001,-91.73276382024312,12027.113557319384,-32.10380205465108,1.1390573425274746,15.444344022179669,191.31,10033.677516021671,11963.558957041,150,False,9.32064697218606,False,149.85750936170294,171.25766786376295,False,38.843353554739224,False,False
10,1970-07-23 11:12:23.348318134,2025-09-15,2025-09-26 16:38:54.831,HA,C,2830380472,JASSM,3,115,76,2,2,1,225,9,2,0,1,26,0,0,0,0,-160878.96032889312,-4786552.442354049,4203264.073698521,-2.36549,-0.397013,0.382536,75.25,-31.5,-32.75,0.0,0.0,0.0,0.0,0.0,0.0,2,0,41.46241069482951,-91.92502159122284,10997.375772023106,119.87321470091707,-0.0014436784849286,0.0043460814759544,,10033.677516021671,11963.558957041,150,10,2025-09-15,2025-09-26 16:38:54.923,HA,C,1780203624,HAWK11,1,1,73,2,1,1,225,2,1,0,0,12,1,225,2,1,-145031.81482108062,-4791308.753877486,4198923.784636021,2.82099,2.27585,-0.714835,-59.5,78.0,85.0,-0.296875,-6.96875,7.125,-0.158203,-0.00390625,0.0136719,4,0,41.40783055714614,-91.73380067041091,12022.5178143144,-30.441054919323197,0.7727892493655403,11.841214350584131,192.361,10033.677516021671,11963.558957041,150,False,9.200491464239164,False,148.39481486626144,170.8371029701577,False,40.719925807553466,False,False
10,1970-07-23 11:12:23.358458341,2025-09-15,2025-09-26 16:38:55.845,HA,C,2831571890,JASSM,3,115,76,2,2,1,225,9,2,0,1,26,0,0,0,0,-160803.76599295562,-4786583.973604049,4203231.265104771,-2.36549,-0.396918,0.382536,75.25,-31.5,-32.75,0.0,0.0,0.0,0.0,0.0,0.0,2,0,41.46201670819147,-91.92410985299382,10997.37606485501,119.87018131105586,-0.0042246096829877,0.0022944521683069,,10033.677516021671,11963.558957041,150,10,2025-09-15,2025-09-26 16:38:55.923,HA,C,1781396622,HAWK11,1,1,73,2,1,1,225,2,1,0,0,12,1,225,2,1,-145091.05700858062,-4791230.579072799,4199008.806120396,2.71361,2.25927,-0.725477,-58.5,78.625,85.875,0.203125,-7.3125,7.48438,-0.0351562,0.0136719,0.00976562,4,0,41.408858800765046,-91.73453673924516,12019.152438662702,-29.51821786931628,0.946369398559504,5.0759338308231055,193.253,10033.677516021671,11963.558957041,150,True,9.101084121829771,False,147.78769086183544,170.5031756253893,False,41.66295916543628,False,False
10,1970-07-23 11:12:23.367260908,2025-09-15,2025-09-26 16:38:56.726,HA,C,2832705284,JASSM,3,115,76,2,2,1,225,9,2,0,1,26,0,0,0,0,-160732.23376639312,-4786613.969697799,4203200.052214146,-2.36549,-0.396918,0.382536,75.25,-31.5,-32.75,0.0,0.0,0.0,0.0,0.0,0.0,2,0,41.46164188547036,-91.92324252822988,10997.376552436615,119.8707555850354,-0.003474308355507,0.0022931352085906,,10033.677516021671,11963.558957041,150,10,2025-09-15,2025-09-26 16:38:56.665,HA,C,1781754522,HAWK11,1,1,73,2,1,1,225,2,1,0,0,12,1,225,2,1,-145108.02185233062,-4791207.769502486,4199033.763151646,2.70307,2.25687,-0.728162,-58.25,78.625,86.25,-0.09375,-7.32812,7.48438,-0.0644531,0.00195312,-0.00195312,4,0,41.40915988575423,-91.7347476804515,12018.473240517678,-29.35319722889932,1.0298901511400018,4.383264827568603,194.109,10033.677516021671,11963.558957041,150,True,9.04153399500103,False,147.6322528375918,170.37043747563493,False,41.95411331396575,False,False
10,1970-07-23 11:12:23.377394345,2025-09-15,2025-09-26 16:38:57.739,HA,C,2833898330,JASSM,3,115,76,2,2,1,225,9,2,0,1,26,0,0,0,0,-160656.93737967435,-4786645.540010299,4203167.198698521,-2.36549,-0.396918,0.382536,75.25,-31.375,-32.75,0.0,0.0,0.0,0.0,0.0,0.0,2,0,41.46124736950162,-91.92232957569664,10997.374578674357,119.87136006550766,-0.00268454459947,0.0022917809911153,,10033.677516021671,11963.558957041,150,10,2025-09-15,2025-09-26 16:38:57.813,HA,C,1783544020,HAWK11,1,1,73,2,1,1,225,2,1,0,0,12,1,225,2,1,-145196.48864920562,-4791089.216768111,4199164.630339146,2.60297,2.26722,-0.729024,-58.375,78.625,87.375,-0.265625,-7.09375,7.21875,0.0,0.0,0.00390625,4,0,41.41073249782978,-91.73584756798792,12017.478942905404,-29.713978023622825,1.293935942262491,-0.9639484380572216,194.793,10033.677516021671,11963.558957041,150,True,8.915988184870947,False,147.46390698505513,169.9040183000728,False,42.59225579614091,False,False
10,1970-07-23 11:12:23.387319211,2025-09-15,2025-09-26 16:38:58.731,HA,C,2835093242,JASSM,3,115,76,2,2,1,225,9,2,0,1,26,0,0,0,0,-160581.52136404935,-4786677.163057174,4203134.290495396,-2.36549,-0.396918,0.382536,75.25,-31.375,-32.75,0.0,0.0,0.0,0.0,0.0,0.0,2,0,41.46085218730709,-91.92141518274777,10997.377511570568,119.87196549496215,-0.0018935093542016,0.0022903971067137,,10033.677516021671,11963.558957041,150,10,2025-09-15,2025-09-26 16:38:58.721,HA,C,1784737020,HAWK11,1,1,73,2,1,1,225,2,1,0,0,12,1,225,2,1,-145255.10388358062,-4791010.742158736,4199252.032682896,2.61956,2.27633,-0.725861,-58.5,78.625,87.875,0.03125,-7.01562,7.0625,0.0234375,0.00585938,0.0,4,0,41.41177869352424,-91.73657632010188,12018.520728706166,-30.142710288705025,1.3334942173547089,0.3235246111712175,195.294,10033.677516021671,11963.558957041,150,True,8.817333464718189,False,147.43603996518414,169.54052838655082,False,42.98803281012833,False,False
10,1970-07-23 11:12:23.397458413,2025-09-15,2025-09-26 16:38:59.745,HA,C,2836286304,JASSM,3,115,76,2,2,1,225,9,2,0,1,26,0,0,0,0,-160506.22253592435,-4786708.733369674,4203101.433073521,-2.36549,-0.396918,0.382632,75.25,-31.375,-32.75,0.0,0.0,0.0,0.0,0.0,0.0,2,0,41.460457630925646,-91.920502223175,10997.374817747434,119.87641778841648,-0.0050240861848929,0.0022888255378535,,10033.677516021671,11963.558957041,150,10,2025-09-15,2025-09-26 16:38:59.923,HA,C,1786168618,HAWK11,1,1,73,2,1,1,225,2,1,0,0,12,1,225,2,1,-145325.51403983062,-4790916.478486861,4199357.585417271,2.58926,2.27077,-0.72797,-58.625,78.75,88.375,-0.09375,-6.92188,7.0625,0.0,0.0,0.00585938,4,0,41.41303919015744,-91.73745174631075,12021.010295779475,-29.87665557395852,1.3199296981496158,-1.6179477431373943,195.869,10033.677516021671,11963.558957041,150,True,8.708678056764592,False,147.39318462642748,169.1035045856175,False,43.47122320017317,False,False
10,1970-07-23 11:12:23.409065926,2025-09-15,2025-09-26 16:39:00.906,HA,C,2837539020,JASSM,3,115,76,2,2,1,225,9,2,0,1,26,0,0,0,0,-160427.15954764312,-4786741.881807174,4203066.933073521,-2.36549,-0.396918,0.382632,75.25,-31.375,-32.75,0.0,0.0,0.0,0.0,0.0,0.0,2,0,41.46004334304412,-91.91954363703184,10997.376013940877,119.877052468694,-0.0041948087712422,0.0022874471492296,,10033.677516021671,11963.558957041,150,10,2025-09-15,2025-09-26 16:39:01.017,HA,C,1787441150,HAWK11,1,1,73,2,1,1,225,2,1,0,0,12,1,225,2,1,-145388.00232108062,-4790832.994111861,4199451.335417271,2.62292,2.28036,-0.72356,-58.875,79.0,88.75,-0.078125,-6.90625,6.95312,0.0390625,0.0,-0.0195312,4,0,41.41415732147933,-91.73822864317184,12023.816134319866,-30.35951708464576,1.309522955919015,0.663620182799861,196.712,10033.677516021671,11963.558957041,150,True,8.60515452485824,False,147.40344516670163,168.69641228071018,False,43.86935243291583,False,False
10,1970-07-23 11:12:23.419240975,2025-09-15,2025-09-26 16:39:01.924,HA,C,2838849472,JASSM,3,115,76,2,2,1,225,9,2,0,1,26,0,0,0,0,-160344.45202811187,-4786776.557588424,4203030.841276646,-2.36549,-0.396918,0.382632,75.25,-31.375,-32.75,0.0,0.0,0.0,0.0,0.0,0.0,2,0,41.45960994353224,-91.91854087670389,10997.377094394262,119.8777163911372,-0.0033273017490141,0.002286000047093,,10033.677516021671,11963.558957041,150,10,2025-09-15,2025-09-26 16:39:02.017,HA,C,1788673916,HAWK11,1,1,73,2,1,1,225,2,1,0,0,12,1,225,2,1,-145449.37341483062,-4790750.781221236,4199543.577604771,2.69818,2.28438,-0.72471,-58.625,79.25,89.125,-0.046875,-6.95312,7.14062,0.166016,0.00195312,0.0117188,4,0,41.41525790793855,-91.73899175632964,12026.403194712266,-30.4756160559858,1.4551834294853043,5.125741256601794,197.005,10033.677516021671,11963.558957041,150,True,8.500754139644373,False,147.2205889311577,168.28163966310052,False,44.468023439938065,False,False
10,1970-07-23 11:12:23.429275510,2025-09-15,2025-09-26 16:39:02.927,HA,C,2840103182,JASSM,3,115,76,2,2,1,225,9,2,0,1,26,0,0,0,0,-160265.32556326812,-4786809.729463424,4202996.310026646,-2.36549,-0.396918,0.382632,75.25,-31.375,-32.75,0.0,0.0,0.0,0.0,0.0,0.0,2,0,41.45919530157709,-91.91758154721148,10997.37176036321,119.87835155290703,-0.0024973567358343,0.002284615637811,,10033.677516021671,11963.558957041,150,10,2025-09-15,2025-09-26 16:39:02.923,HA,C,1789747614,HAWK11,1,1,73,2,1,1,225,2,1,0,0,12,1,225,2,1,-145501.40857108062,-4790679.873018111,4199623.206511021,2.83192,2.27365,-0.730079,-57.5,80.125,89.625,-0.15625,-6.65625,6.75,0.0527344,-0.00195312,0.0136719,4,0,41.41620779153511,-91.7396392388025,12028.728363906675,-29.923900345191942,1.4896748984060153,12.393756923596571,197.506,10033.677516021671,11963.558957041,150,False,8.406734733323374,False,146.61028901681132,167.90732316219962,False,45.44909992177938,False,False
10,1970-07-23 11:12:23.439297164,2025-09-15,2025-09-26 16:39:03.929,HA,C,2841297246,JASSM,3,115,76,2,2,1,225,9,2,0,1,26,0,0,0,0,-160189.96374686187,-4786841.325166549,4202963.423307896,-2.36549,-0.396918,0.382632,75.25,-31.375,-32.75,0.0,0.0,0.0,0.0,0.0,0.0,2,0,41.45880037842716,-91.91666787086297,10997.379357557078,119.87895648336374,-0.0017068972338403,0.0022832961545876,,10033.677516021671,11963.558957041,150,10,2025-09-15,2025-09-26 16:39:03.813,HA,C,1790582714,HAWK11,1,1,73,2,1,1,225,2,1,0,0,12,1,225,2,1,-145541.86560233062,-4790623.146455611,4199686.362761021,2.85781,2.25303,-0.735064,-56.375,80.875,90.125,-0.078125,-6.78125,6.78125,-0.00976562,-0.00390625,0.0351562,4,0,41.416964216730136,-91.74014324491364,12029.319291359418,-29.01992409648818,1.3027593008604983,13.109021922920787,197.799,10033.677516021671,11963.558957041,150,False,8.325041828291255,False,146.01670041197553,167.5906904040351,False,46.35664637346811,False,False
10,1970-07-23 11:12:23.450339486,2025-09-15,2025-09-26 16:39:05.033,HA,C,2842607556,JASSM,3,115,76,2,2,1,225,9,2,0,1,26,0,0,0,0,-160107.26550467435,-4786875.993135299,4202927.331511021,-2.36549,-0.396822,0.382632,75.25,-31.375,-32.75,0.0,0.0,0.0,0.0,0.0,0.0,2,0,41.458366998429256,-91.91566526287212,10997.375774140584,119.87598348199091,-0.0044091148763025,0.0002310575401732,,10033.677516021671,11963.558957041,150,10,2025-09-15,2025-09-26 16:39:05.313,HA,C,1792571044,HAWK11,1,1,73,2,1,1,225,2,1,0,0,12,1,225,2,1,-145633.79138358062,-4790487.838838424,4199836.563932896,2.69846,2.22005,-0.746953,-54.125,82.0,91.5,0.09375,-7.125,7.09375,-0.140625,0.0136719,0.00585938,4,0,41.41876631688974,-91.74129081259248,12029.443827576695,-27.470431549796743,1.23135190461824,2.7379055656855016,199.083,10033.677516021671,11963.558957041,150,True,8.193059448631145,False,144.82597768785456,166.90389968817018,False,48.235012284915456,False,False
10,1970-07-23 11:12:23.461058205,2025-09-15,2025-09-26 16:39:06.105,HA,C,2843862230,JASSM,3,115,76,2,2,1,225,9,2,0,1,26,0,0,0,0,-160028.07800467435,-4786909.188447799,4202892.772917271,-2.36549,-0.396822,0.382632,75.25,-31.375,-32.75,0.0,0.0,0.0,0.0,0.0,0.0,2,0,41.45795202057396,-91.91470523091408,10997.376802466792,119.876619093275,-0.0035785341435319,0.0002296258797906,,10033.677516021671,11963.558957041,150,10,2025-09-15,2025-09-26 16:39:06.017,HA,C,1793406144,HAWK11,1,1,73,2,1,1,225,2,1,0,0,12,1,225,2,1,-145671.81677420562,-4790430.445283736,4199900.722136021,2.63624,2.22456,-0.749637,-54.125,82.0,92.0,0.0625,-7.25,7.25,-0.0566406,0.0117188,-0.00195312,4,0,41.41953390464233,-91.74176604326485,12030.402746394311,-27.56478488668603,1.4571829190651444,-0.6537331090451651,199.498,10033.677516021671,11963.558957041,150,True,8.110914420227699,False,144.7576336141856,166.55773986058608,False,48.6533526571801,False,False
10,1970-07-23 11:12:23.471218670,2025-09-15,2025-09-26 16:39:07.121,HA,C,2845112966,JASSM,3,115,76,2,2,1,225,9,2,0,1,26,0,0,0,0,-159949.13952811187,-4786942.278291549,4202858.321745396,-2.3654,-0.396822,0.382632,75.25,-31.375,-32.75,0.0,0.0,0.0,0.0,0.0,0.0,2,0,41.45753833766206,-91.91374823061132,10997.376831387292,119.87725269217476,-0.0027505645650391,0.0057196688438464,,10033.677516021671,11963.558957041,150,10,2025-09-15,2025-09-26 16:39:07.125,HA,C,1794758208,HAWK11,1,1,73,2,1,1,225,2,1,0,0,12,1,225,2,1,-145733.91443045562,-4790337.325166549,4200005.677214146,2.57076,2.23904,-0.744652,-54.5,81.625,92.375,0.171875,-7.34375,6.9375,-0.0996094,-0.00585938,-0.00976562,4,0,41.42078502542304,-91.74254192571284,12033.863790208072,-28.236549920878307,1.4987652326928027,-3.859282618024412,199.791,10033.677516021671,11963.558957041,150,True,8.008203584372655,False,144.890423286179,166.03316645618736,False,49.05107971879601,False,False
10,1970-07-23 11:12:23.482659125,2025-09-15,2025-09-26 16:39:08.265,HA,C,2846366804,JASSM,3,115,76,2,2,1,225,9,2,0,1,26,0,0,0,0,-159870.00525076812,-4786975.450166549,4202823.782682896,-2.3654,-0.396822,0.382632,75.25,-31.375,-32.75,0.0,0.0,0.0,0.0,0.0,0.0,2,0,41.45712360445495,-91.91278886876914,10997.375845383094,119.87788784935532,-0.001920533170964,0.0057182221113139,,10033.677516021671,11963.558957041,150,10,2025-09-15,2025-09-26 16:39:08.423,HA,C,1796309108,HAWK11,1,1,73,2,1,1,225,2,1,0,0,12,1,225,2,1,-145805.82263358062,-4790231.721650924,4200125.276823521,2.55887,2.2446,-0.739187,-55.25,81.25,91.875,0.0,-7.125,6.09375,0.00195312,-0.00390625,-0.0078125,4,0,41.42220746842034,-91.74343961295934,12039.16187537257,-28.59433109228612,1.3400391694728957,-4.334081594842646,199.461,10033.677516021671,11963.558957041,150,True,7.898055343965397,False,145.2904024179722,165.43365095600598,False,49.25111947732523,False,False
10,1970-07-23 11:12:23.492319916,2025-09-15,2025-09-26 16:39:09.231,HA,C,2847618364,JASSM,3,115,76,2,2,1,225,9,2,0,1,26,0,0,0,0,-159791.01452811187,-4787008.559541549,4202789.306120396,-2.3654,-0.396822,0.382728,75.25,-31.375,-32.75,0.0,0.0,0.0,0.0,0.0,0.0,2,0,41.45670962837832,-91.91183126038854,10997.373195030848,119.88236979941613,-0.0050122483670861,0.0057165837291485,,10033.677516021671,11963.558957041,150,10,2025-09-15,2025-09-26 16:39:09.125,HA,C,1797144206,HAWK11,1,1,73,2,1,1,225,2,1,0,0,12,1,225,2,1,-145844.64685233062,-4790174.898408736,4200189.388151646,2.54094,2.25773,-0.728929,-55.375,81.25,91.25,0.0625,-7.10938,5.875,-0.0214844,0.00585938,0.0,4,0,41.42297119138349,-91.74392423221916,12041.501716879342,-29.369724429367828,1.1017183096184715,-4.873723723402432,198.899,10033.677516021671,11963.558957041,150,True,7.816994934414172,False,145.42714361949814,165.06159257326576,False,49.48269789266175,False,False
10,1970-07-23 11:12:23.503296112,2025-09-15,2025-09-26 16:39:10.329,HA,C,2848871054,JASSM,3,115,76,2,2,1,225,9,2,0,1,26,0,0,0,0,-159711.95251639312,-4787041.698213424,4202754.798307896,-2.3654,-0.396822,0.382728,75.25,-31.375,-32.75,0.0,0.0,0.0,0.0,0.0,0.0,2,0,41.456295273245885,-91.91087280019477,10997.37319944302,119.88300434931377,-0.0041829831558206,0.0057152068321338,,10033.677516021671,11963.558957041,150,10,2025-09-15,2025-09-26 16:39:10.423,HA,C,1798695104,HAWK11,1,1,73,2,1,1,225,2,1,0,0,12,1,225,2,1,-145917.18786795562,-4790069.917939986,4200307.456511021,2.63797,2.26387,-0.7296,-55.5,80.75,90.5,0.0,-7.48438,6.34375,0.0546875,0.0,0.00195312,4,0,41.424379467251285,-91.74482931453632,12045.079582800076,-29.579153693448635,1.266403541767646,0.915190754588758,197.579,10033.677516021671,11963.558957041,150,True,7.708238475716623,False,145.63597819572368,164.44037438288694,False,49.894557311398785,False,False
10,1970-07-23 11:12:23.514262925,2025-09-15,2025-09-26 16:39:11.426,HA,C,2850125066,JASSM,3,115,76,2,2,1,225,9,2,0,1,26,0,0,0,0,-159632.80652029935,-4787074.872041549,4202720.253386021,-2.3654,-0.396822,0.382728,75.25,-31.375,-32.75,0.0,0.0,0.0,0.0,0.0,0.0,2,0,41.45588046714824,-91.90991333410524,10997.376502649968,119.88363955994308,-0.0033528356143242,0.0057138260165921,,10033.677516021671,11963.558957041,150,10,2025-09-15,2025-09-26 16:39:11.627,HA,C,1800047170,HAWK11,1,1,73,2,1,1,225,2,1,0,0,12,1,225,2,1,-145979.98669608062,-4789979.299775924,4200409.325651646,2.60719,2.25706,-0.728257,-55.125,80.25,90.25,0.1875,-7.46875,6.26562,-0.0664062,-0.00195312,0.015625,4,0,41.42559472559014,-91.74561278053898,12048.093467630146,-29.36482996783995,1.0570289032759506,-1.103615053837126,196.26,10033.677516021671,11963.558957041,150,True,7.6084408547582205,False,145.57912891258064,163.87584217263807,False,50.51853995867338,False,False
10,1970-07-23 11:12:23.524454145,2025-09-15,2025-09-26 16:39:12.445,HA,C,2851436112,JASSM,3,115,76,2,2,1,225,9,2,0,1,26,0,0,0,0,-159550.06189139312,-4787109.551729049,4202684.136198521,-2.3654,-0.396822,0.382728,75.25,-31.375,-32.75,0.0,0.0,0.0,0.0,0.0,0.0,2,0,41.45544679624251,-91.90891025680494,10997.375115642337,119.88430363760956,-0.0024849454134241,0.005712385739121,,10033.677516021671,11963.558957041,150,10,2025-09-15,2025-09-26 16:39:12.423,HA,C,1801001568,HAWK11,1,1,73,2,1,1,225,2,1,0,0,12,1,225,2,1,-146024.16833670562,-4789915.498994674,4200481.239714146,2.57134,2.2538,-0.727874,-55.0,80.0,89.75,-0.296875,-7.375,5.78125,-0.0546875,-0.0078125,-0.0234375,4,0,41.42645163963583,-91.74616401663756,12050.636517648716,-29.254589193748537,0.9702927751147616,-3.2804483461572973,195.612,10033.677516021671,11963.558957041,150,True,7.5223503228044715,False,145.62904223209802,163.43176771429802,False,50.91145291147991,False,False
10,1970-07-23 11:12:23.535235748,2025-09-15,2025-09-26 16:39:13.523,HA,C,2852689870,JASSM,3,115,76,2,2,1,225,9,2,0,1,26,0,0,0,0,-159470.93200858062,-4787142.715791549,4202649.595182896,-2.3654,-0.396726,0.382728,75.25,-31.375,-32.75,0.0,0.0,0.0,0.0,0.0,0.0,2,0,41.455032055015,-91.90795101225405,10997.373217834198,119.88130215313365,-0.0052245876098606,0.0036597775761567,,10033.677516021671,11963.558957041,150,10,2025-09-15,2025-09-26 16:39:13.625,HA,C,1802512700,HAWK11,1,1,73,2,1,1,225,2,1,0,0,12,1,225,2,1,-146094.78161795562,-4789814.147432174,4200594.681120396,2.46798,2.27854,-0.717328,-55.625,79.625,88.5,-0.0625,-7.65625,6.29688,-0.0585938,0.00976562,-0.00976562,4,0,41.42780742939655,-91.7470448339584,12052.98658340326,-30.478098419456995,0.976879902740804,-8.28564238789667,194.5,10033.677516021671,11963.558957041,150,True,7.417803984892277,False,146.09838534999915,162.7840284081119,False,51.084531392028154,False,False
10,1970-07-23 11:12:23.546255196,2025-09-15,2025-09-26 16:39:14.625,HA,C,2854001160,JASSM,3,115,76,2,2,1,225,9,2,0,1,26,0,0,0,0,-159388.17126639312,-4787177.401338424,4202613.470182896,-2.3654,-0.396726,0.382728,75.25,-31.375,-32.75,0.0,0.0,0.0,0.0,0.0,0.0,2,0,41.45459828254762,-91.9069477661235,10997.37734626386,119.88196633148964,-0.0043565286302726,0.0036582817739043,,10033.677516021671,11963.558957041,150,10,2025-09-15,2025-09-26 16:39:14.719,HA,C,1803546632,HAWK11,1,1,73,2,1,1,225,2,1,0,0,12,1,225,2,1,-146143.75232108062,-4789745.973604049,4200670.976042271,2.38275,2.28927,-0.711671,-56.625,78.75,87.75,0.25,-7.5,6.14062,-0.136719,0.0,-0.00976562,4,0,41.42871905082979,-91.74765493618987,12054.661887652775,-31.04352834075788,0.934594792475545,-12.775430809051686,193.388,10033.677516021671,11963.558957041,150,False,7.329574385571384,False,146.70493949644776,162.29517726374314,False,50.96964798767265,False,False
10,1970-07-23 11:12:23.557273142,2025-09-15,2025-09-26 16:39:15.727,HA,C,2855313514,JASSM,3,115,76,2,2,1,225,9,2,0,1,26,0,0,0,0,-159305.34314139312,-4787212.112275924,4202577.313932896,-2.3654,-0.396726,0.382728,75.25,-31.375,-32.75,0.0,0.0,0.0,0.0,0.0,0.0,2,0,41.45416415269187,-91.90594371768024,10997.375297351076,119.88263103527778,-0.0034877658390482,0.003656788260119,,10033.677516021671,11963.558957041,150,10,2025-09-15,2025-09-26 16:39:15.813,HA,C,1805097532,HAWK11,1,1,73,2,1,1,225,2,1,0,0,12,1,225,2,1,-146218.60193045562,-4789645.353486861,4200783.200651646,2.24853,2.32197,-0.689908,-59.0,77.75,85.5,0.234375,-7.57812,6.28125,-0.0351562,0.00585938,-0.03125,4,0,41.43006149535806,-91.7485861775562,12056.511010555449,-32.915376826547046,0.6143423287689159,-19.283290812427165,192.569,10033.677516021671,11963.558957041,150,False,7.222495482550723,False,148.1066535520823,161.61784114415062,False,50.23749601132681,False,False
10,1970-07-23 11:12:23.567314660,2025-09-15,2025-09-26 16:39:16.731,HA,C,2856567874,JASSM,3,115,76,2,2,1,225,9,2,0,1,26,0,0,0,0,-159226.17517264312,-4787245.290010299,4202542.753386021,-2.3654,-0.396726,0.382728,75.25,-31.375,-32.75,0.0,0.0,0.0,0.0,0.0,0.0,2,0,41.45374918103825,-91.9049840501624,10997.375059264928,119.883266352495,-0.0026573844397499,0.0036553454805214,,10033.677516021671,11963.558957041,150,10,2025-09-15,2025-09-26 16:39:16.628,HA,C,1806091696,HAWK11,1,1,73,2,1,1,225,2,1,0,0,12,1,225,2,1,-146268.94958670562,-4789581.261689986,4200854.169401646,2.20596,2.34747,-0.671117,-61.125,77.0,83.875,-0.171875,-7.90625,6.40625,-0.00195312,0.00390625,-0.0371094,4,0,41.43091262705514,-91.74921128893224,12056.7794974944,-34.451295662132566,0.3132059612436373,-20.815333596827816,192.068,10033.677516021671,11963.558957041,150,False,7.1377593563424,False,149.29500242045253,161.13678702079835,False,49.523912726943486,False,False
10,1970-07-23 11:12:23.578335672,2025-09-15,2025-09-26 16:39:17.833,HA,C,2857880714,JASSM,3,115,76,2,2,1,225,9,2,0,1,26,0,0,0,0,-159143.31677420562,-4787280.012666549,4202506.581511021,-2.3654,-0.396726,0.382728,75.25,-31.375,-32.75,0.0,0.0,0.0,0.0,0.0,0.0,2,0,41.45331486480728,-91.9039796613262,10997.374819971852,119.88393127043028,-0.0017882990126574,0.0036538421060376,,10033.677516021671,11963.558957041,150,10,2025-09-15,2025-09-26 16:39:17.719,HA,C,1807403996,HAWK11,1,1,73,2,1,1,225,2,1,0,0,12,1,225,2,1,-146338.84021170562,-4789497.788057174,4200946.233854771,2.20654,2.38409,-0.65175,-64.125,75.375,82.0,-0.046875,-7.875,6.6875,0.0898438,0.0117188,-0.0136719,4,0,41.43201788905228,-91.7500770638511,12056.668412227722,-36.44503321414133,0.3008558162217805,-19.50408543243793,190.98,10033.677516021671,11963.558957041,150,False,7.037930676065311,False,150.9968917334333,160.5326682066132,False,48.42776792080717,False,False
10,1970-07-23 11:12:23.589477660,2025-09-15,2025-09-26 16:39:18.947,HA,C,2859192182,JASSM,3,115,76,2,2,1,225,9,2,0,1,26,0,0,0,0,-159060.54431326812,-4787314.698213424,4202470.446745396,-2.3654,-0.396726,0.382824,75.25,-31.375,-32.75,0.0,0.0,0.0,0.0,0.0,0.0,2,0,41.45288099402919,-91.90297632801676,10997.37581528622,119.8884435841135,-0.0048402123681934,0.003652149934102,,10033.677516021671,11963.558957041,150,10,2025-09-15,2025-09-26 16:39:18.923,HA,C,1808795828,HAWK11,1,1,73,2,1,1,225,2,1,0,0,12,1,225,2,1,-146415.33630545562,-4789412.009736861,4201040.374479771,2.24172,2.42033,-0.62922,-66.875,73.75,80.125,-0.078125,-7.64062,6.76562,0.0214844,0.00585938,-0.0195312,4,0,41.433149667337545,-91.75102265769144,12055.905506605348,-38.54921297591695,0.1883079986476714,-16.25620629901855,190.272,10033.677516021671,11963.558957041,150,False,6.9351555008891355,False,152.62074706668156,159.90357521924548,False,47.4346066221261,False,False
10,1970-07-23 11:12:23.600234583,2025-09-15,2025-09-26 16:39:20.023,HA,C,2860503266,JASSM,3,115,76,2,2,1,225,9,2,0,1,26,0,0,0,0,-158977.79626639312,-4787349.372041549,4202434.321745396,-2.3654,-0.396726,0.382824,75.25,-31.375,-32.75,0.0,0.0,0.0,0.0,0.0,0.0,2,0,41.45244724528448,-91.9019733046006,10997.376022206055,119.88910758678848,-0.0039722881352314,0.0036507121377221,,10033.677516021671,11963.558957041,150,10,2025-09-15,2025-09-26 16:39:19.923,HA,C,1810028592,HAWK11,1,1,73,2,1,1,225,2,1,0,0,12,1,225,2,1,-146486.51013358062,-4789336.870088424,4201122.718229771,2.17068,2.44076,-0.618386,-69.75,72.625,78.75,-0.125,-7.45312,7.34375,-0.00195312,0.0195312,-0.0136719,4,0,41.43413949505406,-91.7519007833844,12055.296909490884,-39.683283026837564,0.2384691582501992,-19.647481769137983,190.272,10033.677516021671,11963.558957041,150,False,6.837621017656257,False,154.13565460723842,159.32167552706548,False,46.50248225428568,False,False
10,1970-07-23 11:12:23.611259770,2025-09-15,2025-09-26 16:39:21.125,HA,C,2861756738,JASSM,3,115,76,2,2,1,225,9,2,0,1,26,0,0,0,0,-158898.68493826812,-4787382.520479049,4202399.782682896,-2.3654,-0.396726,0.382824,75.25,-31.375,-32.75,0.0,0.0,0.0,0.0,0.0,0.0,2,0,41.45203254854262,-91.90101437645193,10997.37326823806,119.8897423930031,-0.0031425075234687,0.0036493348951119,,10033.677516021671,11963.558957041,150,10,2025-09-15,2025-09-26 16:39:21.125,HA,C,1811420424,HAWK11,1,1,73,2,1,1,225,2,1,0,0,12,1,225,2,1,-146571.11950858062,-4789253.228486861,4201214.624479771,2.16694,2.47891,-0.588953,-73.125,71.125,77.625,-0.0625,-7.28125,7.4375,-0.0683594,-0.00390625,-0.0351562,4,0,41.435241987656326,-91.7529426299327,12055.567832617604,-42.1342978903555,-0.0407546457105007,-18.624764460882933,190.895,10033.677516021671,11963.558957041,150,False,6.7346541065999705,False,155.84525181041508,158.68278223105258,False,45.44076705737416,False,False
10,1970-07-23 11:12:23.622276498,2025-09-15,2025-09-26 16:39:22.227,HA,C,2863127968,JASSM,3,115,76,2,2,1,225,9,2,0,1,26,0,0,0,0,-158812.14099295562,-4787418.784150924,4202361.997526646,-2.3654,-0.396726,0.382824,75.25,-31.375,-32.75,0.0,0.0,0.0,0.0,0.0,0.0,2,0,41.45157886853622,-91.8999653693306,10997.375090730677,119.8904368251207,-0.002234761238111,0.0036478172964024,,10033.677516021671,11963.558957041,150,10,2025-09-15,2025-09-26 16:39:22.313,HA,C,1812772490,HAWK11,1,1,73,2,1,1,225,2,1,0,0,12,1,225,2,1,-146655.66443045562,-4789174.281221236,4201301.118620396,2.14489,2.50911,-0.576106,-76.625,69.75,76.0,-0.09375,-7.625,7.75,0.0761719,0.015625,-0.0195312,4,0,41.43628002776296,-91.75398202316627,12055.635534530727,-43.72840713744596,0.2616393518395367,-18.93940831270688,191.909,10033.677516021671,11963.558957041,150,False,6.628868991392042,False,157.6686488875004,158.04174367540315,False,44.26040693786151,False,False
10,1970-07-23 11:12:23.634256121,2025-09-15,2025-09-26 16:39:23.425,HA,C,2864382468,JASSM,3,115,76,2,2,1,225,9,2,0,1,26,0,0,0,0,-158732.96423514312,-4787451.957979049,4202327.429167271,-2.3654,-0.39663,0.382824,75.25,-31.375,-32.75,0.0,0.0,0.0,0.0,0.0,0.0,2,0,41.45116381912548,-91.8990056744974,10997.374979127797,119.88743585919664,-0.0049739131924271,0.0015947158813044,,10033.677516021671,11963.558957041,150,10,2025-09-15,2025-09-26 16:39:23.517,HA,C,1814243854,HAWK11,1,1,73,2,1,1,225,2,1,0,0,12,1,225,2,1,-146753.14685233062,-4789089.314424361,4201394.897917271,2.22542,2.54938,-0.548398,-79.625,68.0,75.125,-0.078125,-7.35938,7.34375,0.119141,0.0,-0.0234375,4,0,41.43740067728921,-91.755178290733,12057.707982201788,-46.24507095414743,0.2481463841073193,-13.10635260705847,192.569,10033.677516021671,11963.558957041,150,False,6.520593653412772,False,159.2116051690038,157.36036167875017,False,43.41227753351172,False,False
10,1970-07-23 11:12:23.644315823,2025-09-15,2025-09-26 16:39:24.431,HA,C,2865752666,JASSM,3,115,76,2,2,1,225,9,2,0,1,26,0,0,0,0,-158646.48474295562,-4787488.190400924,4202289.671354771,-2.3654,-0.39663,0.382824,75.25,-31.375,-32.75,0.0,0.0,0.0,0.0,0.0,0.0,2,0,41.45071047851665,-91.89795747826358,10997.374701497103,119.88812974265694,-0.0040668539107709,0.0015931583819089,,10033.677516021671,11963.558957041,150,10,2025-09-15,2025-09-26 16:39:24.423,HA,C,1815277788,HAWK11,1,1,73,2,1,1,225,2,1,0,0,12,1,225,2,1,-146822.57068045562,-4789031.415986861,4201458.862761021,2.31459,2.56875,-0.544371,-81.125,67.0,74.75,-0.1875,-7.59375,7.67188,0.0703125,0.00585938,0.00195312,4,0,41.43816417467148,-91.75602930152787,12059.486815211423,-47.12268569583074,0.6767875646017724,-7.428335507504884,192.887,10033.677516021671,11963.558957041,150,True,6.426965012732323,False,159.98444035659494,156.81287111401997,False,43.19390861903865,False,False
10,1970-07-23 11:12:23.655354555,2025-09-15,2025-09-26 16:39:25.535,HA,C,2867065022,JASSM,3,115,76,2,2,1,225,9,2,0,1,26,0,0,0,0,-158563.65661795562,-4787522.893525924,4202253.505339146,-2.3654,-0.39663,0.382824,75.25,-31.375,-32.75,0.0,0.0,0.0,0.0,0.0,0.0,2,0,41.45027625055487,-91.89695355281278,10997.375368233035,119.88879431395664,-0.0031980828980847,0.0015916498012993,,10033.677516021671,11963.558957041,150,10,2025-09-15,2025-09-26 16:39:25.423,HA,C,1816510552,HAWK11,1,1,73,2,1,1,225,2,1,0,0,12,1,225,2,1,-146908.12732108062,-4788962.305635299,4201536.173307896,2.34555,2.57527,-0.546385,-82.375,66.125,74.875,-0.171875,-7.3125,7.40625,0.0,0.00976562,-0.00585938,4,0,41.43908149187307,-91.7570772764155,12063.90356571786,-47.29361510641891,0.9717782946069938,-5.462852637797867,193.388,10033.677516021671,11963.558957041,150,True,6.326250976948197,False,160.5311641559679,156.18327264319313,False,43.28317215653019,False,False
10,1970-07-23 11:12:23.666319500,2025-09-15,2025-09-26 16:39:26.631,HA,C,2868319754,JASSM,3,115,76,2,2,1,225,9,2,0,1,26,0,0,0,0,-158484.46521170562,-4787556.069307174,4202218.927214146,-2.3654,-0.39663,0.382824,75.25,-31.375,-32.75,0.0,0.0,0.0,0.0,0.0,0.0,2,0,41.449861101313246,-91.89599372048666,10997.371467473253,119.88942969145415,-0.0023674683775324,0.0015902254186727,,10033.677516021671,11963.558957041,150,10,2025-09-15,2025-09-26 16:39:26.719,HA,C,1818061450,HAWK11,1,1,73,2,1,1,225,2,1,0,0,12,1,225,2,1,-147016.65271170562,-4788876.805635299,4201632.431120396,2.23961,2.59156,-0.53766,-84.0,65.375,74.375,-0.046875,-6.98438,7.1875,-0.0566406,0.0,-0.00976562,4,0,41.44021998376784,-91.75840584104148,12070.913687677885,-48.22789525264767,1.110766557300305,-11.068186159474694,194.036,10033.677516021671,11963.558957041,150,False,6.214599221134752,False,161.3203825795705,155.43170708027966,False,43.24710237488133,False,False
10,1970-07-23 11:12:23.677335977,2025-09-15,2025-09-26 16:39:27.733,HA,C,2869689724,JASSM,3,115,76,2,2,1,225,9,2,0,1,26,0,0,0,0,-158398.00036795562,-4787592.293916549,4202181.173307896,-2.3654,-0.39663,0.382824,75.25,-31.375,-32.75,0.0,0.0,0.0,0.0,0.0,0.0,2,0,41.449407803136914,-91.89494574439584,10997.376749181572,119.89012341125472,-0.0014605595674489,0.0015886619051408,,10033.677516021671,11963.558957041,150,10,2025-09-15,2025-09-26 16:39:27.625,HA,C,1819214684,HAWK11,1,1,73,2,1,1,225,2,1,0,0,12,1,225,2,1,-147098.27966483062,-4788814.280244674,4201703.046354771,2.3097,2.60374,-0.527689,-85.375,64.875,73.625,0.015625,-7.03125,7.03125,0.220703,0.00585938,-0.0234375,4,0,41.44105363120968,-91.75940449110549,12076.70394885636,-49.05692293755152,1.0718345579932669,-6.714304264534555,194.695,10033.677516021671,11963.558957041,150,True,6.1161942017129665,False,162.03879739769332,154.793460078516,False,43.16694290014164,False,False
