Subject_cm,Timestamp,SampleDate_cm,SampleTime_cm,Configuration_cm,Scenario_cm,DisTime_cm,MarkingTxt_cm,Application_cm,EntId_cm,Site_cm,ExerciseId_cm,ForceId_cm,Category_cm,Country_cm,Domain_cm,Kind_cm,Extra_cm,Specific_cm,Subcategory_cm,AltCategory_cm,AltCountry_cm,AltDomain_cm,AltKind_cm,ECEF_X_cm,ECEF_Y_cm,ECEF_Z_cm,OriPhi_cm,OriPsi_cm,OriTheta_cm,LinVelX_cm,LinVelY_cm,LinVelZ_cm,LinAccX_cm,LinAccY_cm,LinAccZ_cm,AngVelX_cm,AngVelY_cm,AngVelZ_cm,DrAlg_cm,Appearance_cm,Latitude_cm,Longitude_cm,Altitude_cm,Heading_cm,Pitch_cm,Roll_cm,CalibratedAirspeed_cm,CM_Altitude_Lead_cm,CM_Altitude_Wing_cm,CM_Airspeed_cm,Subject_ac,SampleDate_ac,SampleTime_ac,Configuration_ac,Scenario_ac,DisTime_ac,MarkingTxt_ac,Application_ac,EntId_ac,Site_ac,ExerciseId_ac,ForceId_ac,Category_ac,Country_ac,Domain_ac,Kind_ac,Extra_ac,Specific_ac,Subcategory_ac,AltCategory_ac,AltCountry_ac,AltDomain_ac,AltKind_ac,ECEF_X_ac,ECEF_Y_ac,ECEF_Z_ac,OriPhi_ac,OriPsi_ac,OriTheta_ac,LinVelX_ac,LinVelY_ac,LinVelZ_ac,LinAccX_ac,LinAccY_ac,LinAccZ_ac,AngVelX_ac,AngVelY_ac,AngVelZ_ac,DrAlg_ac,Appearance_ac,Latitude_ac,Longitude_ac,Altitude_ac,Heading_ac,Pitch_ac,Roll_ac,CalibratedAirspeed_ac,CM_Altitude_Lead_ac,CM_Altitude_Wing_ac,CM_Airspeed_ac,Bank_Angle_Condition,distance_nm,Distance_Condition,angle_between_vel,angle_between_pos,Cone_Condition,angle_between_pos_nose,Nose_Cone_Condition,Intercept_Criteria
10,1970-07-23 11:12:23.037323472,2025-09-15,2025-09-26 16:38:23.732,HA,C,2793334748,JASSM,3,117,76,2,2,1,225,9,2,0,1,26,0,0,0,0,-180635.95153983065,-4778187.973604049,4211911.132292271,-2.36693,-0.400848,0.381002,75.0,-31.625,-32.5,0.0,0.0,0.0,0.0,0.0,0.0,2,0,41.56633263439714,-92.16499465313936,10997.375415740267,119.79827323549112,-0.003525533340167,0.0045540798056503,,10033.677516021671,11963.558957041,150,10,2025-09-15,2025-09-26 16:38:23.816,HA,C,1743101362,HAWK11,1,1,73,2,1,1,225,2,1,0,0,12,1,225,2,1,-142298.85778983062,-4792971.701143111,4197104.767057896,2.32168,2.81984,-0.362115,-97.25,39.5,42.125,0.0,-6.79688,7.14062,0.00390625,-0.00195312,0.0078125,4,0,41.38614747978924,-91.70055870486652,11965.407892071946,-63.6383977122028,1.8444623333481545,-1.016358161799486,171.672,10033.677516021671,11963.558957041,150,True,23.485445845054397,False,179.289127847126,177.43950440023667,False,2.2598381213763985,True,False
10,1970-07-23 11:12:23.047461083,2025-09-15,2025-09-26 16:38:24.746,HA,C,2794529876,JASSM,3,117,76,2,2,1,225,9,2,0,1,26,0,0,0,0,-180560.80310233065,-4778219.831025924,4211878.433073521,-2.36693,-0.400848,0.381002,75.0,-31.625,-32.5,0.0,0.0,0.0,0.0,0.0,0.0,2,0,41.56593934285169,-92.16408041062654,10997.373460460847,119.79887982095389,-0.0027365023348819,0.0045527192128757,,10033.677516021671,11963.558957041,150,10,2025-09-15,2025-09-26 16:38:24.722,HA,C,1744135296,HAWK11,1,1,73,2,1,1,225,2,1,0,0,12,1,225,2,1,-142383.44958670562,-4792937.860322799,4197141.149870396,2.32312,2.81955,-0.360485,-97.75,39.5,42.25,-0.15625,-6.70312,7.10938,-0.0273438,-0.0078125,-0.00976562,4,0,41.38657942688064,-91.70158104161202,11967.243121813832,-63.695516221174486,1.7693437378201122,-0.9416088789444595,172.332,10033.677516021671,11963.558957041,150,True,23.385588611237104,False,179.19801980608716,177.42975827666572,False,2.2048195805779276,True,False
10,1970-07-23 11:12:23.057242083,2025-09-15,2025-09-26 16:38:25.724,HA,C,2795722394,JASSM,3,117,76,2,2,1,225,9,2,0,1,26,0,0,0,0,-180485.81872733065,-4778251.620088424,4211845.804167271,-2.36693,-0.400848,0.381098,75.0,-31.625,-32.5,0.0,0.0,0.0,0.0,0.0,0.0,2,0,41.56554688831056,-92.16316817458224,10997.376049189355,119.80332709120998,-0.0058752402842395,0.0045510869702428,,10033.677516021671,11963.558957041,150,10,2025-09-15,2025-09-26 16:38:25.518,HA,C,1745129460,HAWK11,1,1,73,2,1,1,225,2,1,0,0,12,1,225,2,1,-142465.13122733062,-4792905.070283736,4197176.177214146,2.28812,2.82118,-0.356459,-98.125,39.75,42.125,-0.0625,-6.67188,7.01562,-0.0078125,-0.00390625,0.00390625,4,0,41.386996478862976,-91.70256826051386,11968.51565945159,-63.92292239276422,1.672696337666721,-2.9207192645252675,173.029,10033.677516021671,11963.558957041,150,True,23.28764488248603,False,179.24359483558567,177.42011184846945,False,2.105246811823131,True,False
10,1970-07-23 11:12:23.068319617,2025-09-15,2025-09-26 16:38:26.831,HA,C,2796973752,JASSM,3,117,76,2,2,1,225,9,2,0,1,26,0,0,0,0,-180407.13513358065,-4778284.975557174,4211811.565886021,-2.36693,-0.400848,0.381098,75.0,-31.625,-32.5,0.0,0.0,0.0,0.0,0.0,0.0,2,0,41.565135078068,-92.1622109477272,10997.379162895988,119.80396218622006,-0.0050490904537505,0.0045497159429634,,10033.677516021671,11963.558957041,150,10,2025-09-15,2025-09-26 16:38:26.722,HA,C,1746561060,HAWK11,1,1,73,2,1,1,225,2,1,0,0,12,1,225,2,1,-142583.35974295562,-4792857.628877486,4197226.569792271,2.28084,2.8255,-0.348214,-98.875,39.75,41.875,-0.09375,-6.64062,7.10938,-0.00976562,-0.00390625,-0.00585938,4,0,41.387597926002734,-91.70399720653896,11969.74862188887,-64.42509905103113,1.5127862996254735,-3.2668934111408583,173.982,10033.677516021671,11963.558957041,150,True,23.164682133913978,False,179.0518723099978,177.40851006067697,False,1.8352417402765582,True,False
10,1970-07-23 11:12:23.077468161,2025-09-15,2025-09-26 16:38:27.746,HA,C,2798108776,JASSM,3,117,76,2,2,1,225,9,2,0,1,26,0,0,0,0,-180335.7659929556,-4778315.227510299,4211780.507292271,-2.36693,-0.400848,0.381098,75.0,-31.625,-32.5,0.0,0.0,0.0,0.0,0.0,0.0,2,0,41.56476153854216,-92.1613427167701,10997.372154782,119.80453823030808,-0.0042997383729631,0.0045484680659479,,10033.677516021671,11963.558957041,150,10,2025-09-15,2025-09-26 16:38:27.612,HA,C,1747594992,HAWK11,1,1,73,2,1,1,225,2,1,0,0,12,1,225,2,1,-142669.27966483062,-4792823.431611861,4197262.604948521,2.26885,2.8323,-0.342269,-99.5,39.625,41.75,-0.0625,-6.75,7.21875,-0.00195312,0.0,-0.00195312,4,0,41.38802937972648,-91.70503557798216,11970.066646592142,-64.9258334411391,1.5420442511695265,-3.834944045721573,174.715,10033.677516021671,11963.558957041,150,True,23.066572123782027,False,178.8326822409827,177.39970243728405,False,1.6319905097671084,True,False
10,1970-07-23 11:12:23.087245531,2025-09-15,2025-09-26 16:38:28.724,HA,C,2799301878,JASSM,3,117,76,2,2,1,225,9,2,0,1,26,0,0,0,0,-180260.74548514312,-4778347.028291549,4211747.860807896,-2.36693,-0.400848,0.381098,75.0,-31.625,-32.5,0.0,0.0,0.0,0.0,0.0,0.0,2,0,41.56436888206154,-92.16043007592395,10997.373754356073,119.80514373438524,-0.0035120483141905,0.004547157416549,,10033.677516021671,11963.558957041,150,10,2025-09-15,2025-09-26 16:38:28.314,HA,C,1748390324,HAWK11,1,1,73,2,1,1,225,2,1,0,0,12,1,225,2,1,-142735.20739920562,-4792797.323213424,4197290.155729771,2.27422,2.83547,-0.34179,-100.0,39.5,41.75,-0.328125,-6.90625,7.3125,-0.0273438,-0.00195312,-0.0078125,4,0,41.388358979159925,-91.70583229948484,11970.422172763116,-65.06444217538143,1.6469669232284845,-3.4704151705620734,175.241,10033.677516021671,11963.558957041,150,True,22.97861273829524,False,178.6653226083708,177.39156841265336,False,1.517938041952956,True,False
10,1970-07-23 11:12:23.097283734,2025-09-15,2025-09-26 16:38:29.728,HA,C,2800494744,JASSM,3,117,76,2,2,1,225,9,2,0,1,26,0,0,0,0,-180185.7386492056,-4778378.823213424,4211715.220182896,-2.36693,-0.400848,0.381098,75.0,-31.625,-32.5,0.0,0.0,0.0,0.0,0.0,0.0,2,0,41.56397628964544,-92.15951761247578,10997.378958610008,119.80574911606898,-0.002724501658398,0.0045458467679836,,10033.677516021671,11963.558957041,150,10,2025-09-15,2025-09-26 16:38:29.816,HA,C,1749980988,HAWK11,1,1,73,2,1,1,225,2,1,0,0,12,1,225,2,1,-142869.72302420562,-4792745.063447799,4197345.317839146,2.27346,2.84755,-0.331723,-100.875,39.125,41.5,-0.03125,-6.89062,7.25,0.0292969,0.00390625,-0.015625,4,0,41.38901835410569,-91.7074575549584,11971.36286280462,-65.93418071846776,1.722581227530628,-3.3112856908284463,176.475,10033.677516021671,11963.558957041,150,True,22.848533882101833,False,178.26426366761453,177.38238038934722,False,1.2250765980399607,True,False
10,1970-07-23 11:12:23.108282006,2025-09-15,2025-09-26 16:38:30.828,HA,C,2801746032,JASSM,3,117,76,2,2,1,225,9,2,0,1,26,0,0,0,0,-180107.05896170562,-4778412.172822799,4211680.977995396,-2.36693,-0.400848,0.381098,75.0,-31.625,-32.5,0.0,0.0,0.0,0.0,0.0,0.0,2,0,41.5635644566802,-92.15856048139874,10997.376167496051,119.80638412782706,-0.0018983875526322,0.0045444639789684,,10033.677516021671,11963.558957041,150,10,2025-09-15,2025-09-26 16:38:30.721,HA,C,1751213754,HAWK11,1,1,73,2,1,1,225,2,1,0,0,12,1,225,2,1,-142974.72497733062,-4792704.736299361,4197387.952604771,2.28093,2.85282,-0.328847,-101.5,38.75,41.625,0.015625,-6.89062,7.28125,-0.00585938,0.0,0.00390625,4,0,41.38952740225107,-91.70872607449422,11972.332715630724,-66.25148393003758,1.817383051534264,-2.7946847755291206,177.11,10033.677516021671,11963.558957041,150,True,22.734516828536865,False,177.9990673099512,177.37434010137716,False,1.2123529156776318,True,False
10,1970-07-23 11:12:23.117319183,2025-09-15,2025-09-26 16:38:31.731,HA,C,2802880266,JASSM,3,117,76,2,2,1,225,9,2,0,1,26,0,0,0,0,-180035.73962576812,-4778442.401338424,4211649.940886021,-2.36693,-0.400752,0.381098,75.0,-31.625,-32.5,0.0,0.0,0.0,0.0,0.0,0.0,2,0,41.56319116278551,-92.1576928993997,10997.37809873158,119.8033154018481,-0.0047160120124274,0.0025002793097391,,10033.677516021671,11963.558957041,150,10,2025-09-15,2025-09-26 16:38:31.627,HA,C,1752406754,HAWK11,1,1,73,2,1,1,225,2,1,0,0,12,1,225,2,1,-143076.79138358062,-4792666.004854049,4197429.095182896,2.26866,2.85551,-0.326834,-102.25,38.5,41.625,-0.109375,-6.84375,7.25,-0.0136719,-0.0078125,-0.0136719,4,0,41.39001739347098,-91.70995898182132,11973.783364206629,-66.43628612369837,1.844768793543384,-3.454244080463039,177.795,10033.677516021671,11963.558957041,150,True,22.627066816290647,False,177.73114504062323,177.3674600120595,False,1.169727046877284,True,False
10,1970-07-23 11:12:23.127467854,2025-09-15,2025-09-26 16:38:32.746,HA,C,2804073300,JASSM,3,117,76,2,2,1,225,9,2,0,1,26,0,0,0,0,-179960.72302420562,-4778474.196260299,4211617.292448521,-2.36693,-0.400752,0.381098,75.0,-31.625,-32.5,0.0,0.0,0.0,0.0,0.0,0.0,2,0,41.56279849815979,-92.15678035216202,10997.377268296146,119.8039208251189,-0.0039283643092933,0.0024989182172445,,10033.677516021671,11963.558957041,150,10,2025-09-15,2025-09-26 16:38:32.815,HA,C,1753838352,HAWK11,1,1,73,2,1,1,225,2,1,0,0,12,1,225,2,1,-143200.21521170562,-4792619.742158736,4197478.251432896,2.25965,2.86615,-0.317534,-103.125,38.125,41.375,-0.140625,-6.98438,7.26562,0.0,0.00390625,-0.0175781,4,0,41.39060246824181,-91.71144969521788,11975.665776206082,-67.22218627095866,1.900768922729156,-3.80326947118362,178.76,10033.677516021671,11963.558957041,150,True,22.50439334277437,False,177.34120071688852,177.36089854948855,False,1.1281708532780752,True,False
10,1970-07-23 11:12:23.137241991,2025-09-15,2025-09-26 16:38:33.724,HA,C,2805265212,JASSM,3,117,76,2,2,1,225,9,2,0,1,26,0,0,0,0,-179885.77673514312,-4778505.959932174,4211584.673307896,-2.36693,-0.400752,0.381098,75.0,-31.625,-32.5,0.0,0.0,0.0,0.0,0.0,0.0,2,0,41.562406194179005,-92.15586867193454,10997.373998788536,119.80452566848616,-0.0031414551640365,0.0024975580063578,,10033.677516021671,11963.558957041,150,10,2025-09-15,2025-09-26 16:38:33.814,HA,C,1754832518,HAWK11,1,1,73,2,1,1,225,2,1,0,0,12,1,225,2,1,-143286.27771170562,-4792587.970674361,4197512.292448521,2.291,2.87267,-0.315425,-103.625,37.875,41.25,-0.140625,-7.0625,7.35938,0.101562,0.00390625,0.00390625,4,0,41.39100593942764,-91.71248900006884,11977.67251571244,-67.55423896963866,2.07758333224947,-1.902330752778762,179.554,10033.677516021671,11963.558957041,150,True,22.404769433415783,False,177.1091524150186,177.3550955725251,False,1.183762258869986,True,False
10,1970-07-23 11:12:23.147257942,2025-09-15,2025-09-26 16:38:34.725,HA,C,2806460188,JASSM,3,117,76,2,2,1,225,9,2,0,1,26,0,0,0,0,-179810.63708670562,-4778537.805635299,4211551.970182896,-2.36693,-0.400752,0.381098,75.0,-31.625,-32.5,0.0,0.0,0.0,0.0,0.0,0.0,2,0,41.56201287145216,-92.15495465063088,10997.375262909249,119.80513206030496,-0.0023525160699557,0.0024961948502858,,10033.677516021671,11963.558957041,150,10,2025-09-15,2025-09-26 16:38:34.722,HA,C,1755786916,HAWK11,1,1,73,2,1,1,225,2,1,0,0,12,1,225,2,1,-143368.86560233062,-4792557.817354049,4197544.772917271,2.35543,2.8742,-0.314274,-103.875,37.75,41.625,-0.109375,-7.20312,7.35938,0.0742188,-0.00195312,-0.00195312,4,0,41.39138986017244,-91.7134862370018,11980.02421102182,-67.66021847677625,2.0942995311211097,1.812386367886395,180.019,10033.677516021671,11963.558957041,150,True,22.30723996784158,False,177.07755650386937,177.34964436819854,False,1.3508913175486217,True,False
10,1970-07-23 11:12:23.157300151,2025-09-15,2025-09-26 16:38:35.730,HA,C,2807651306,JASSM,3,117,76,2,2,1,225,9,2,0,1,26,0,0,0,0,-179735.74060233062,-4778569.547822799,4211519.372526646,-2.36693,-0.400752,0.381194,75.0,-31.625,-32.5,0.0,0.0,0.0,0.0,0.0,0.0,2,0,41.561620814605575,-92.15404359848571,10997.378560515428,119.80957863925975,-0.0054920463209377,0.0024945995865198,,10033.677516021671,11963.558957041,150,10,2025-09-15,2025-09-26 16:38:35.722,HA,C,1757298048,HAWK11,1,1,73,2,1,1,225,2,1,0,0,12,1,225,2,1,-143500.76989920562,-4792509.907197799,4197598.202604771,2.52311,2.8788,-0.341982,-103.75,37.625,43.75,-0.28125,-7.70312,8.0625,0.181641,0.00195312,0.00976562,4,0,41.39201202666368,-91.71507889732874,11987.772684729856,-66.6710767658904,3.362249344513214,11.551940517921317,180.764,10033.677516021671,11963.558957041,150,False,22.179552481666533,False,177.27361175569,177.3429919780325,False,2.163496499242921,True,False
10,1970-07-23 11:12:23.166438152,2025-09-15,2025-09-26 16:38:36.643,HA,C,2808784702,JASSM,3,117,76,2,2,1,225,9,2,0,1,26,0,0,0,0,-179664.47400076812,-4778599.748994674,4211488.352995396,-2.36693,-0.400752,0.381194,75.0,-31.625,-32.5,0.0,0.0,0.0,0.0,0.0,0.0,2,0,41.561247756170914,-92.15317671218862,10997.375166828411,119.810153751436,-0.004743775632422,0.00249335998158,,10033.677516021671,11963.558957041,150,10,2025-09-15,2025-09-26 16:38:36.517,HA,C,1758252446,HAWK11,1,1,73,2,1,1,225,2,1,0,0,12,1,225,2,1,-143583.24646170562,-4792479.232393111,4197633.577604771,2.66625,2.86193,-0.358472,-102.875,38.75,45.5,-0.328125,-7.07812,7.375,0.152344,0.00390625,0.0332031,4,0,41.392418586720765,-91.71607502094872,11995.124172503982,-65.35913659430675,3.3464843902353967,19.49824002352884,180.679,10033.677516021671,11963.558957041,150,False,22.083875382396247,False,177.81853729199392,177.33435965940077,False,2.7925450360117403,True,False
10,1970-07-23 11:12:23.176219755,2025-09-15,2025-09-26 16:38:37.621,HA,C,2809919520,JASSM,3,117,76,2,2,1,225,9,2,0,1,26,0,0,0,0,-179593.11755545562,-4778629.989229049,4211457.294401646,-2.36693,-0.400752,0.381194,75.0,-31.625,-32.5,0.0,0.0,0.0,0.0,0.0,0.0,2,0,41.560874215250486,-92.1523087425782,10997.377867486744,119.81072957805976,-0.0039945584940799,0.0024921140835809,,10033.677516021671,11963.558957041,150,10,2025-09-15,2025-09-26 16:38:37.517,HA,C,1759167080,HAWK11,1,1,73,2,1,1,225,2,1,0,0,12,1,225,2,1,-143660.93005545562,-4792448.711885299,4197668.247526646,2.76721,2.83288,-0.381961,-101.75,40.75,47.125,-0.234375,-6.92188,7.1875,0.105469,0.0078125,0.0351562,4,0,41.392820314791386,-91.71701385048304,12000.976839599649,-63.3121674795636,3.148397980556381,24.796183756467297,180.972,10033.677516021671,11963.558957041,150,False,21.990560339395607,False,178.2207278053012,177.32330133265964,False,3.633823781924047,True,False
10,1970-07-23 11:12:23.186258167,2025-09-15,2025-09-26 16:38:38.625,HA,C,2811111142,JASSM,3,117,76,2,2,1,225,9,2,0,1,26,0,0,0,0,-179518.18884451812,-4778661.741182174,4211424.679167271,-2.36693,-0.400752,0.381194,75.0,-31.625,-32.5,0.0,0.0,0.0,0.0,0.0,0.0,2,0,41.560481967962616,-92.15139733217784,10997.37535298599,119.81133421950852,-0.0032078349338732,0.0024908063006317,,10033.677516021671,11963.558957041,150,10,2025-09-15,2025-09-26 16:38:38.721,HA,C,1760717978,HAWK11,1,1,73,2,1,1,225,2,1,0,0,12,1,225,2,1,-143791.51794608062,-4792392.206025924,4197730.972136021,2.91869,2.7766,-0.416572,-99.125,45.375,50.625,-0.203125,-6.95312,7.25,0.0917969,0.0117188,0.046875,4,0,41.393556538076,-91.71859393289688,12007.671636986124,-59.81538571460637,2.4075616955905934,32.3909198409108,181.681,10033.677516021671,11963.558957041,150,False,21.860216905221886,False,176.47752295231453,177.29992304494928,False,6.180550213892528,True,False
10,1970-07-23 11:12:23.196297659,2025-09-15,2025-09-26 16:38:39.629,HA,C,2812244702,JASSM,3,117,76,2,2,1,225,9,2,0,1,26,0,0,0,0,-179446.91150076812,-4778691.946260299,4211393.653776646,-2.36693,-0.400752,0.381194,75.0,-31.625,-32.5,0.0,0.0,0.0,0.0,0.0,0.0,2,0,41.56010882915248,-92.15053034594816,10997.37870609875,119.8119093850382,-0.0024594494503537,0.0024895627423611,,10033.677516021671,11963.558957041,150,10,2025-09-15,2025-09-26 16:38:39.627,HA,C,1761831444,HAWK11,1,1,73,2,1,1,225,2,1,0,0,12,1,225,2,1,-143883.62536795562,-4792347.150361861,4197779.138151646,3.00526,2.72914,-0.447827,-96.5,49.5,53.375,-0.15625,-7.28125,7.64062,0.0546875,0.0371094,0.0566406,4,0,41.39413322830242,-91.7197102966602,12008.121381471698,-56.79912710279211,1.9469308092355984,36.32657813196993,182.292,10033.677516021671,11963.558957041,150,False,21.755060187536454,False,174.07921506586803,177.27403725846347,False,8.646619910498043,True,False
10,1970-07-23 11:12:23.206341476,2025-09-15,2025-09-26 16:38:40.634,HA,C,2813497236,JASSM,3,117,76,2,2,1,225,9,2,0,1,26,0,0,0,0,-179368.15368826812,-4778725.319307174,4211359.370573521,-2.36693,-0.400752,0.381194,75.0,-31.625,-32.5,0.0,0.0,0.0,0.0,0.0,0.0,2,0,41.559696522597314,-92.14957238309609,10997.377840964828,119.81254490024742,-0.0016325225404334,0.0024881885988123,,10033.677516021671,11963.558957041,150,10,2025-09-15,2025-09-26 16:38:40.517,HA,C,1762746076,HAWK11,1,1,73,2,1,1,225,2,1,0,0,12,1,225,2,1,-143956.00036795562,-4792307.960908736,4197820.267057896,3.06346,2.67986,-0.478698,-93.875,52.875,56.0,-0.03125,-7.57812,7.98438,0.0410156,0.0273438,0.0664062,4,0,41.39463103739095,-91.72058887115035,12006.284298568937,-53.749221350642046,1.488863808302195,38.49027890493325,183.196,10033.677516021671,11963.558957041,150,False,21.656868829706077,False,171.77710771147872,177.24554231558685,False,10.969898401630845,True,False
10,1970-07-23 11:12:23.216459553,2025-09-15,2025-09-26 16:38:41.645,HA,C,2814690282,JASSM,3,117,76,2,2,1,225,9,2,0,1,26,0,0,0,0,-179293.13513358062,-4778757.106416549,4211326.714323521,-2.36693,-0.400657,0.381194,75.0,-31.625,-32.5,0.0,0.0,0.0,0.0,0.0,0.0,2,0,41.55930378773216,-92.1486599143136,10997.375890953126,119.80950617613703,-0.004411299252838,0.0004434262712055,,10033.677516021671,11963.558957041,150,10,2025-09-15,2025-09-26 16:38:41.722,HA,C,1764257208,HAWK11,1,1,73,2,1,1,225,2,1,0,0,12,1,225,2,1,-144072.38513358062,-4792236.385713424,4197894.017057896,3.1274,2.60086,-0.530566,-88.5,59.0,60.875,-0.0625,-8.21875,8.4375,-0.0078125,0.0390625,0.0429688,4,0,41.39553380808408,-91.7220047897417,11998.805174660469,-48.81641179409109,1.0521342193172885,40.07360726556349,184.381,10033.677516021671,11963.558957041,150,False,21.52847229699252,False,167.38994060377874,177.18952244525929,False,15.396881743067267,True,False
10,1970-07-23 11:12:23.226239551,2025-09-15,2025-09-26 16:38:42.623,HA,C,2815884588,JASSM,3,117,76,2,2,1,225,9,2,0,1,26,0,0,0,0,-179218.03845389312,-4778788.926729049,4211294.022917271,-2.36693,-0.400657,0.381194,75.0,-31.625,-32.5,0.0,0.0,0.0,0.0,0.0,0.0,2,0,41.55891062826696,-92.14774650629892,10997.375650706726,119.8101121241036,-0.0036228109005668,0.0004420615394002,,10033.677516021671,11963.558957041,150,10,2025-09-15,2025-09-26 16:38:42.346,HA,C,1764654874,HAWK11,1,1,73,2,1,1,225,2,1,0,0,12,1,225,2,1,-144101.08630545562,-4792216.736299361,4197914.026823521,3.11369,2.58111,-0.543125,-87.125,60.25,62.25,-0.125,-8.3125,8.60938,-0.115234,0.0371094,0.0507812,4,0,41.39578062460145,-91.72235468768083,11996.00021449357,-47.60986752019509,0.9658667910281856,38.730574152250526,184.87,10033.677516021671,11963.558957041,150,False,21.46058604540319,False,166.32073065705995,177.16738097298216,False,16.48854312681454,True,False
10,1970-07-23 11:12:23.236281359,2025-09-15,2025-09-26 16:38:43.628,HA,C,2817078228,JASSM,3,117,76,2,2,1,225,9,2,0,1,26,0,0,0,0,-179142.98278983062,-4778820.727510299,4211261.349089146,-2.36693,-0.400657,0.381194,75.0,-31.625,-32.5,0.0,0.0,0.0,0.0,0.0,0.0,2,0,41.55851768723011,-92.1468336091898,10997.373492556031,119.81071772843391,-0.0028347592257307,0.0004407066827404,,10033.677516021671,11963.558957041,150,10,2025-09-15,2025-09-26 16:38:43.547,HA,C,1766245538,HAWK11,1,1,73,2,1,1,225,2,1,0,0,12,1,225,2,1,-144214.09216483062,-4792132.625947799,4198000.636198521,2.88954,2.50336,-0.595472,-81.625,64.25,67.75,-0.046875,-8.5,8.75,-0.21875,0.0253906,0.0351562,4,0,41.39684534462795,-91.72373480087448,11985.348673968,-42.80761070282358,0.9213320897214718,23.563579077350216,186.642,10033.677516021671,11963.558957041,150,False,21.329205145429725,False,162.3124547601242,177.0854617232436,False,20.58583543645548,True,False
10,1970-07-23 11:12:23.247322384,2025-09-15,2025-09-26 16:38:44.732,HA,C,2818390378,JASSM,3,117,76,2,2,1,225,9,2,0,1,26,0,0,0,0,-179060.47595389312,-4778855.686494674,4211225.431120396,-2.36684,-0.400657,0.381194,75.0,-31.625,-32.5,0.0,0.0,0.0,0.0,0.0,0.0,2,0,41.558085718534805,-92.1458300962018,10997.377615556035,119.811383440759,-0.0019684681596498,0.0059306809542711,,10033.677516021671,11963.558957041,150,10,2025-09-15,2025-09-26 16:38:44.721,HA,C,1767875970,HAWK11,1,1,73,2,1,1,225,2,1,0,0,12,1,225,2,1,-144322.91052420562,-4792044.012666549,4198095.993620396,2.72099,2.50614,-0.624043,-78.125,65.25,72.625,-0.171875,-8.32812,8.45312,-0.0664062,0.00976562,0.00390625,4,0,41.39799663542031,-91.72506655835788,11982.303443022098,-41.90174231131896,2.2922333625715963,14.023236671041934,187.204,10033.677516021671,11963.558957041,150,False,21.192771072618932,False,159.77228443280958,176.9864291010334,False,23.237555724184272,True,False
10,1970-07-23 11:12:23.257459168,2025-09-15,2025-09-26 16:38:45.745,HA,C,2819643048,JASSM,3,117,76,2,2,1,225,9,2,0,1,26,0,0,0,0,-178981.70837576812,-4778889.057588424,4211191.140104771,-2.36684,-0.400657,0.38129,75.0,-31.625,-32.5,0.0,0.0,0.0,0.0,0.0,0.0,2,0,41.5576733339046,-92.14487207705886,10997.375468154663,119.81586127059649,-0.0050672244763282,0.0059290553947514,,10033.677516021671,11963.558957041,150,10,2025-09-15,2025-09-26 16:38:45.627,HA,C,1768989436,HAWK11,1,1,73,2,1,1,225,2,1,0,0,12,1,225,2,1,-144395.56872733062,-4791981.951143111,4198165.173307896,2.75465,2.48514,-0.63967,-76.375,65.75,75.0,-0.125,-7.73438,7.96875,0.0898438,0.00390625,0.0234375,4,0,41.39881975121028,-91.72595684329384,11985.11183812248,-40.5854355095056,2.4059363692590967,15.294685574883689,187.718,10033.677516021671,11963.558957041,150,False,21.085328353699737,False,158.51432492253937,176.9093417597394,False,24.57517387088369,True,False
10,1970-07-23 11:12:23.268482651,2025-09-15,2025-09-26 16:38:46.848,HA,C,2820836652,JASSM,3,117,76,2,2,1,225,9,2,0,1,26,0,0,0,0,-178906.65564139312,-4778920.856416549,4211158.464323521,-2.36684,-0.400657,0.38129,75.0,-31.625,-32.5,0.0,0.0,0.0,0.0,0.0,0.0,2,0,41.55728036780887,-92.14395925072397,10997.377014596292,119.8164668132566,-0.0042791948122084,0.0059277380402971,,10033.677516021671,11963.558957041,150,10,2025-09-15,2025-09-26 16:38:46.813,HA,C,1770341500,HAWK11,1,1,73,2,1,1,225,2,1,0,0,12,1,225,2,1,-144480.71130545562,-4791906.232393111,4198250.970182896,2.77411,2.463,-0.658749,-73.75,67.0,77.25,-0.140625,-7.45312,7.625,-0.0253906,0.0,0.0214844,4,0,41.39983402683073,-91.72700120648445,11991.311499367966,-39.11908301320565,2.668987242742412,15.707508074707638,187.84,10033.677516021671,11963.558957041,150,False,20.968910693091733,False,156.85781738363303,176.8124238926472,False,26.329035683247213,True,False
10,1970-07-23 11:12:23.279239485,2025-09-15,2025-09-26 16:38:47.923,HA,C,2822148498,JASSM,3,117,76,2,2,1,225,9,2,0,1,26,0,0,0,0,-178824.16736014312,-4778955.803682174,4211122.550261021,-2.36684,-0.400657,0.38129,75.0,-31.625,-32.5,0.0,0.0,0.0,0.0,0.0,0.0,2,0,41.55684846600767,-92.14295600341173,10997.376309149977,119.81713233315986,-0.0034130968754309,0.0059262934774025,,10033.677516021671,11963.558957041,150,10,2025-09-15,2025-09-26 16:38:48.017,HA,C,1771852632,HAWK11,1,1,73,2,1,1,225,2,1,0,0,12,1,225,2,1,-144572.29528983062,-4791820.790986861,4198349.272917271,2.77382,2.42992,-0.67754,-71.25,68.25,79.5,0.015625,-7.15625,7.375,-0.0136719,-0.00195312,0.0214844,4,0,41.40098938573337,-91.72812605545332,12001.217418708156,-37.28157872952498,2.6599584141569133,14.602234637613924,188.439,10033.677516021671,11963.558957041,150,False,20.840858362158194,False,155.26065241189784,176.69731944079396,False,28.041610770988076,True,False
10,1970-07-23 11:12:23.289262410,2025-09-15,2025-09-26 16:38:48.926,HA,C,2823401126,JASSM,3,117,76,2,2,1,225,9,2,0,1,26,0,0,0,0,-178745.40173514312,-4778989.170869674,4211088.257292271,-2.36684,-0.400657,0.38129,75.0,-31.625,-32.5,0.0,0.0,0.0,0.0,0.0,0.0,2,0,41.556436067058726,-92.14199804594294,10997.373600718398,119.8177678040294,-0.0025860960216803,0.0059249305305742,,10033.677516021671,11963.558957041,150,10,2025-09-15,2025-09-26 16:38:48.924,HA,C,1772966098,HAWK11,1,1,73,2,1,1,225,2,1,0,0,12,1,225,2,1,-144638.42810233062,-4791755.658174361,4198424.237761021,2.78628,2.41247,-0.684251,-69.375,69.375,80.75,-0.28125,-7.07812,7.21875,-0.0449219,0.00976562,0.00976562,4,0,41.40187096706212,-91.72893957206908,12008.564265623523,-36.42524404365631,2.5247701497447355,14.725708410543843,188.879,10033.677516021671,11963.558957041,150,False,20.73507517701953,False,154.13969376430495,176.60437838465188,False,29.255300731621865,True,False
10,1970-07-23 11:12:23.300276038,2025-09-15,2025-09-26 16:38:50.027,HA,C,2824652218,JASSM,3,117,76,2,2,1,225,9,2,0,1,26,0,0,0,0,-178666.73376639312,-4779022.497041549,4211054.007292271,-2.36684,-0.400561,0.38129,75.0,-31.625,-32.5,0.0,0.0,0.0,0.0,0.0,0.0,2,0,41.55602417234637,-92.14104128817952,10997.377102506667,119.81475868823362,-0.0053265550885147,0.0038796831132359,,10033.677516021671,11963.558957041,150,10,2025-09-15,2025-09-26 16:38:50.127,HA,C,1774198864,HAWK11,1,1,73,2,1,1,225,2,1,0,0,12,1,225,2,1,-144708.84411795562,-4791683.346650924,4198507.204557896,2.73892,2.38333,-0.693263,-67.625,70.5,81.875,-0.0625,-6.6875,6.95312,-0.0234375,0.0,0.0214844,4,0,41.40284848784183,-91.72980686901964,12015.941120660693,-35.07015761411665,2.219302194607559,11.006731005734258,189.306,10033.677516021671,11963.558957041,150,False,20.624680993709532,False,153.09775268179862,176.4992634186744,False,30.40204376295249,False,False
10,1970-07-23 11:12:23.310316695,2025-09-15,2025-09-26 16:38:51.031,HA,C,2825846052,JASSM,3,117,76,2,2,1,225,9,2,0,1,26,0,0,0,0,-178591.66638358062,-4779054.297822799,4211021.321745396,-2.36684,-0.400561,0.38129,75.0,-31.625,-32.5,0.0,0.0,0.0,0.0,0.0,0.0,2,0,41.55563110158168,-92.14012833200718,10997.377474262665,119.81536429736995,-0.0045383739873849,0.0038783167537991,,10033.677516021671,11963.558957041,150,10,2025-09-15,2025-09-26 16:38:51.017,HA,C,1775352096,HAWK11,1,1,73,2,1,1,225,2,1,0,0,12,1,225,2,1,-144773.63903983062,-4791614.464814986,4198585.954557896,2.72052,2.37182,-0.695469,-66.375,71.75,82.25,0.078125,-6.48438,6.70312,0.0214844,-0.00390625,0.0078125,4,0,41.403778146973664,-91.73060580036405,12022.19540245528,-34.57936326490949,2.0429461428685376,9.548460100115262,189.783,10033.677516021671,11963.558957041,150,True,20.520640789322158,False,152.38225180232766,176.39680062679432,False,31.21870209572257,False,False
10,1970-07-23 11:12:23.320504070,2025-09-15,2025-09-26 16:38:52.050,HA,C,2827099538,JASSM,3,117,76,2,2,1,225,9,2,0,1,26,0,0,0,0,-178512.84704764312,-4779087.684541549,4210987.003386021,-2.36684,-0.400561,0.38129,75.0,-31.625,-32.5,0.0,0.0,0.0,0.0,0.0,0.0,2,0,41.5552184034648,-92.1391697587194,10997.375385979498,119.81600016153706,-0.0037108128840674,0.0038769045653749,,10033.677516021671,11963.558957041,150,10,2025-09-15,2025-09-26 16:38:51.923,HA,C,1776584862,HAWK11,1,1,73,2,1,1,225,2,1,0,0,12,1,225,2,1,-144841.63122733062,-4791539.412080611,4198670.737761021,2.78111,2.35687,-0.695852,-65.0,73.0,82.875,-0.015625,-6.32812,6.5,0.0800781,0.00390625,0.0273438,4,0,41.40478465657606,-91.73144517951243,12026.607916821906,-34.01841467319785,1.7002775385392837,12.48922237001966,190.174,10033.677516021671,11963.558957041,150,False,20.410645553822626,False,151.5712592541412,176.28364436593887,False,32.141492978587884,False,False
10,1970-07-23 11:12:23.331216528,2025-09-15,2025-09-26 16:38:53.121,HA,C,2828410316,JASSM,3,117,76,2,2,1,225,9,2,0,1,26,0,0,0,0,-178430.42614920562,-4779122.598604049,4210951.114714146,-2.36684,-0.400561,0.38129,75.0,-31.625,-32.5,0.0,0.0,0.0,0.0,0.0,0.0,2,0,41.554786813766384,-92.13816739673445,10997.377501117631,119.81666506714164,-0.0028454241721993,0.0038754062264646,,10033.677516021671,11963.558957041,150,10,2025-09-15,2025-09-26 16:38:53.127,HA,C,1777817626,HAWK11,1,1,73,2,1,1,225,2,1,0,0,12,1,225,2,1,-144908.02966483062,-4791462.845674361,4198755.825651646,2.85215,2.33069,-0.701221,-63.25,74.875,83.25,-0.0625,-6.375,6.67188,0.0371094,0.0,0.0195312,4,0,41.40580250749655,-91.7322660906562,12027.848894448238,-32.88585732107239,1.3403648168470406,15.625228197747884,190.809,10033.677516021671,11963.558957041,150,False,20.298915878213492,False,150.57981526469263,176.16618769910843,False,33.246712844981104,False,False
10,1970-07-23 11:12:23.342238678,2025-09-15,2025-09-26 16:38:54.223,HA,C,2829664590,JASSM,3,117,76,2,2,1,225,9,2,0,1,26,0,0,0,0,-178351.55798514312,-4779156.004854049,4210916.772917271,-2.36684,-0.400561,0.38129,75.0,-31.625,-32.5,0.0,0.0,0.0,0.0,0.0,0.0,2,0,41.55437383577215,-92.1372082550978,10997.376794277996,119.81730129770015,-0.002017346736621,0.0038739861385992,,10033.677516021671,11963.558957041,150,10,2025-09-15,2025-09-26 16:38:54.313,HA,C,1779368524,HAWK11,1,1,73,2,1,1,225,2,1,0,0,12,1,225,2,1,-144989.18396170562,-4791363.367158736,4198864.503386021,2.8673,2.28822,-0.710137,-60.75,77.0,84.25,0.203125,-6.60938,6.9375,0.00390625,0.0,0.0273438,4,0,41.40711321983992,-91.73327160099852,12025.031317723073,-31.03945265998289,0.8115661792187879,14.949403140236203,191.86,10033.677516021671,11963.558957041,150,False,20.174350837671646,False,149.15807840618567,176.01377662975253,False,34.81719095270598,False,False
10,1970-07-23 11:12:23.351296930,2025-09-15,2025-09-26 16:38:55.129,HA,C,2830797780,JASSM,3,117,76,2,2,1,225,9,2,0,1,26,0,0,0,0,-178280.30310233062,-4779186.186494674,4210885.743620396,-2.36684,-0.400561,0.381386,75.0,-31.625,-32.5,0.0,0.0,0.0,0.0,0.0,0.0,2,0,41.55400069810877,-92.13634171150436,10997.374695679397,119.82171854394862,-0.0051948360161239,0.0038724705467106,,10033.677516021671,11963.558957041,150,10,2025-09-15,2025-09-26 16:38:55.219,HA,C,1780402458,HAWK11,1,1,73,2,1,1,225,2,1,0,0,12,1,225,2,1,-145041.13513358062,-4791296.476533736,4198937.073698521,2.79721,2.27384,-0.714931,-59.25,78.0,85.25,0.109375,-7.04688,7.125,-0.148438,0.0,0.0136719,4,0,41.4079916111174,-91.73391646352988,12021.852017626656,-30.36305761293453,0.7339410911430945,10.404311607799857,192.679,10033.677516021671,11963.558957041,150,False,20.080585775022328,False,148.28219063846632,175.906564097657,False,35.79998892406387,False,False
10,1970-07-23 11:12:23.361317491,2025-09-15,2025-09-26 16:38:56.131,HA,C,2831930180,JASSM,3,117,76,2,2,1,225,9,2,0,1,26,0,0,0,0,-178209.09802420562,-4779216.344697799,4210854.737761021,-2.36684,-0.400561,0.381386,75.0,-31.625,-32.5,0.0,0.0,0.0,0.0,0.0,0.0,2,0,41.553627840455,-92.13547578459662,10997.374228004504,119.82229293346104,-0.0044472214474839,0.003871244670447,,10033.677516021671,11963.558957041,150,10,2025-09-15,2025-09-26 16:38:55.923,HA,C,1781396622,HAWK11,1,1,73,2,1,1,225,2,1,0,0,12,1,225,2,1,-145091.05700858062,-4791230.579072799,4199008.806120396,2.71361,2.25927,-0.725477,-58.5,78.625,85.875,0.203125,-7.3125,7.48438,-0.0351562,0.0136719,0.00976562,4,0,41.408858800765046,-91.73453673924516,12019.152438662702,-29.51821786931628,0.946369398559504,5.0759338308231055,193.253,10033.677516021671,11963.558957041,150,True,19.988210450459174,False,147.81229108181898,175.7986758547248,False,36.37769351442034,False,False
10,1970-07-23 11:12:23.370476756,2025-09-15,2025-09-26 16:38:57.047,HA,C,2833004478,JASSM,3,117,76,2,2,1,225,9,2,0,1,26,0,0,0,0,-178141.54626639312,-4779244.956025924,4210825.321745396,-2.36684,-0.400561,0.381386,75.0,-31.625,-32.5,0.0,0.0,0.0,0.0,0.0,0.0,2,0,41.55327409770463,-92.13465429481508,10997.376070651331,119.82283784287914,-0.0037379599719423,0.003870073704103,,10033.677516021671,11963.558957041,150,10,2025-09-15,2025-09-26 16:38:56.923,HA,C,1782589622,HAWK11,1,1,73,2,1,1,225,2,1,0,0,12,1,225,2,1,-145149.58239920562,-4791152.071260299,4199095.087370396,2.63854,2.26368,-0.727874,-58.125,78.625,86.875,-0.125,-7.29688,7.3125,-0.0878906,0.0078125,-0.00585938,4,0,41.409897652495175,-91.73526438798974,12017.65709446975,-29.614794025587276,1.160370373301668,0.940866032143364,194.145,10033.677516021671,11963.558957041,150,True,19.889394225670646,False,147.51071370070315,175.66966801364592,False,36.81105991002354,False,False
10,1970-07-23 11:12:23.379280018,2025-09-15,2025-09-26 16:38:57.928,HA,C,2834138678,JASSM,3,117,76,2,2,1,225,9,2,0,1,26,0,0,0,0,-178070.22790701812,-4779275.163057174,4210794.263151646,-2.36684,-0.400561,0.381386,75.0,-31.625,-32.5,0.0,0.0,0.0,0.0,0.0,0.0,2,0,41.5529006060808,-92.13378700934562,10997.377235611246,119.8234131252932,-0.0029891417432503,0.0038688216662785,,10033.677516021671,11963.558957041,150,10,2025-09-15,2025-09-26 16:38:57.813,HA,C,1783544020,HAWK11,1,1,73,2,1,1,225,2,1,0,0,12,1,225,2,1,-145196.48864920562,-4791089.216768111,4199164.630339146,2.60297,2.26722,-0.729024,-58.375,78.625,87.375,-0.265625,-7.09375,7.21875,0.0,0.0,0.00390625,4,0,41.41073249782978,-91.73584756798792,12017.478942905404,-29.713978023622825,1.293935942262491,-0.9639484380572216,194.793,10033.677516021671,11963.558957041,150,True,19.799444926785416,False,147.53115030463766,175.56246313031426,False,36.89916439201004,False,False
10,1970-07-23 11:12:23.389299876,2025-09-15,2025-09-26 16:38:58.929,HA,C,2835270332,JASSM,3,117,76,2,2,1,225,9,2,0,1,26,0,0,0,0,-177999.06970389312,-4779305.299775924,4210763.274870396,-2.36684,-0.400561,0.381386,75.0,-31.625,-32.5,0.0,0.0,0.0,0.0,0.0,0.0,2,0,41.55252796523698,-92.13292168255408,10997.377115248188,119.82398710425576,-0.0022420150148932,0.00386758812918,,10033.677516021671,11963.558957041,150,10,2025-09-15,2025-09-26 16:38:59.017,HA,C,1784975618,HAWK11,1,1,73,2,1,1,225,2,1,0,0,12,1,225,2,1,-145266.82653983062,-4790995.009736861,4199269.608854771,2.62176,2.27825,-0.725669,-58.5,78.625,88.0,0.0,-7.07812,7.14062,0.0136719,0.0136719,0.0,4,0,41.41198880114499,-91.73672208224016,12018.845585950172,-30.219343966134744,1.365667496629431,0.5209638706809793,195.416,10033.677516021671,11963.558957041,150,True,19.68700759235716,False,147.48270469808628,175.4045017863267,False,37.10708141104787,False,False
10,1970-07-23 11:12:23.398365448,2025-09-15,2025-09-26 16:38:59.836,HA,C,2836403726,JASSM,3,117,76,2,2,1,225,9,2,0,1,26,0,0,0,0,-177927.80212576812,-4779335.481416549,4210732.237761021,-2.36684,-0.400465,0.381386,75.0,-31.625,-32.5,0.0,0.0,0.0,0.0,0.0,0.0,2,0,41.552154745359495,-92.1320550362828,10997.374524188315,119.82091843668468,-0.0050601684237118,0.0018219599214158,,10033.677516021671,11963.558957041,150,10,2025-09-15,2025-09-26 16:38:59.923,HA,C,1786168618,HAWK11,1,1,73,2,1,1,225,2,1,0,0,12,1,225,2,1,-145325.51403983062,-4790916.478486861,4199357.585417271,2.58926,2.27077,-0.72797,-58.625,78.75,88.375,-0.09375,-6.92188,7.0625,0.0,0.0,0.00585938,4,0,41.41303919015744,-91.73745174631075,12021.010295779475,-29.87665557395852,1.3199296981496158,-1.6179477431373943,195.869,10033.677516021671,11963.558957041,150,True,19.58580152504964,False,147.4585384543501,175.2690796182224,False,37.26724900953207,False,False
10,1970-07-23 11:12:23.409066178,2025-09-15,2025-09-26 16:39:00.906,HA,C,2837539020,JASSM,3,117,76,2,2,1,225,9,2,0,1,26,0,0,0,0,-177856.41443045562,-4779365.713838424,4210701.147917271,-2.36684,-0.400465,0.381386,75.0,-31.625,-32.5,0.0,0.0,0.0,0.0,0.0,0.0,2,0,41.55178088754545,-92.13118693936588,10997.374373615326,119.8214942446811,-0.0043106315415086,0.0018206726743162,,10033.677516021671,11963.558957041,150,10,2025-09-15,2025-09-26 16:39:01.017,HA,C,1787441150,HAWK11,1,1,73,2,1,1,225,2,1,0,0,12,1,225,2,1,-145388.00232108062,-4790832.994111861,4199451.335417271,2.62292,2.28036,-0.72356,-58.875,79.0,88.75,-0.078125,-6.90625,6.95312,0.0390625,0.0,-0.0195312,4,0,41.41415732147933,-91.73822864317184,12023.816134319866,-30.35951708464576,1.309522955919015,0.663620182799861,196.712,10033.677516021671,11963.558957041,150,True,19.4809874165182,False,147.4685883535685,175.12408345256483,False,37.40249176145621,False,False
10,1970-07-23 11:12:23.418265881,2025-09-15,2025-09-26 16:39:01.826,HA,C,2838730168,JASSM,3,117,76,2,2,1,225,9,2,0,1,26,0,0,0,0,-177781.51599295562,-4779397.432588424,4210668.528776646,-2.36684,-0.400465,0.381386,75.0,-31.625,-32.5,0.0,0.0,0.0,0.0,0.0,0.0,2,0,41.55138863729741,-92.13027616167294,10997.376197027656,119.82209835822748,-0.0035242338212959,0.001819322376651,,10033.677516021671,11963.558957041,150,10,2025-09-15,2025-09-26 16:39:01.719,HA,C,1788276248,HAWK11,1,1,73,2,1,1,225,2,1,0,0,12,1,225,2,1,-145429.35974295562,-4790777.737275924,4199513.308073521,2.64372,2.2888,-0.721738,-58.75,79.125,89.0,0.03125,-6.9375,7.03125,0.0703125,0.0,0.00585938,4,0,41.414896858270495,-91.73874284253668,12025.50759891405,-30.72527710969675,1.404688124309845,2.166649355072264,196.822,10033.677516021671,11963.558957041,150,True,19.394379455181564,False,147.3673050484717,175.0227760307319,False,37.605328977294135,False,False
10,1970-07-23 11:12:23.427297191,2025-09-15,2025-09-26 16:39:02.729,HA,C,2839803910,JASSM,3,117,76,2,2,1,225,9,2,0,1,26,0,0,0,0,-177713.99841483062,-4779426.024385299,4210639.122526646,-2.36684,-0.400465,0.381386,75.0,-31.625,-32.5,0.0,0.0,0.0,0.0,0.0,0.0,2,0,41.55103503195336,-92.12945514646664,10997.374806555064,119.82264292882373,-0.0028153303309326,0.0018181021765694,,10033.677516021671,11963.558957041,150,10,2025-09-15,2025-09-26 16:39:02.627,HA,C,1789389714,HAWK11,1,1,73,2,1,1,225,2,1,0,0,12,1,225,2,1,-145484.43396170562,-4790703.320283736,4199596.933073521,2.8046,2.27767,-0.730271,-58.0,79.625,89.5,-0.046875,-6.73438,6.84375,0.113281,-0.00976562,0.015625,4,0,41.415894039495285,-91.73942790407293,12028.10082950509,-30.066827759409392,1.5853136869515154,10.9782739527881,197.433,10033.677516021671,11963.558957041,150,False,19.29899488446733,False,146.94446040088056,174.88995898224985,False,38.160837566691896,False,False
10,1970-07-23 11:12:23.437314349,2025-09-15,2025-09-26 16:39:03.731,HA,C,2840996956,JASSM,3,117,76,2,2,1,225,9,2,0,1,26,0,0,0,0,-177638.97986014312,-4779457.791963424,4210606.450651646,-2.36684,-0.400465,0.381386,75.0,-31.625,-32.5,0.0,0.0,0.0,0.0,0.0,0.0,2,0,41.55064214817393,-92.12854293001688,10997.378227368989,119.82324798776304,-0.0020276765645162,0.0018167574088094,,10033.677516021671,11963.558957041,150,10,2025-09-15,2025-09-26 16:39:03.813,HA,C,1790582714,HAWK11,1,1,73,2,1,1,225,2,1,0,0,12,1,225,2,1,-145541.86560233062,-4790623.146455611,4199686.362761021,2.85781,2.25303,-0.735064,-56.375,80.875,90.125,-0.078125,-6.78125,6.78125,-0.00976562,-0.00390625,0.0351562,4,0,41.416964216730136,-91.74014324491364,12029.319291359418,-29.01992409648818,1.3027593008604983,13.109021922920787,197.799,10033.677516021671,11963.558957041,150,False,19.195954154828335,False,146.08377654290362,174.74443468693457,False,39.16532249128779,False,False
10,1970-07-23 11:12:23.447454804,2025-09-15,2025-09-26 16:39:04.745,HA,C,2842190002,JASSM,3,117,76,2,2,1,225,9,2,0,1,26,0,0,0,0,-177563.96228201812,-4779489.557588424,4210573.776823521,-2.36684,-0.400465,0.381482,75.0,-31.625,-32.5,0.0,0.0,0.0,0.0,0.0,0.0,2,0,41.55024925541133,-92.12763073717328,10997.376653644616,119.8276956108164,-0.0051655322012102,0.0018151916458433,,10033.677516021671,11963.558957041,150,10,2025-09-15,2025-09-26 16:39:04.723,HA,C,1791775712,HAWK11,1,1,73,2,1,1,225,2,1,0,0,12,1,225,2,1,-145597.29724295562,-4790542.406221236,4199775.933073521,2.80402,2.22437,-0.743501,-54.75,81.875,90.875,0.046875,-6.98438,7.03125,-0.136719,-0.00976562,0.015625,4,0,41.418039070195945,-91.74083491656076,12029.309720895226,-27.72375587913123,1.1421555898955518,8.948303852117753,198.374,10033.677516021671,11963.558957041,150,True,19.093889949970876,False,145.23692015996866,174.59528354589892,False,40.16039396296521,False,False
10,1970-07-23 11:12:23.457234949,2025-09-15,2025-09-26 16:39:05.723,HA,C,2843442700,JASSM,3,117,76,2,2,1,225,9,2,0,1,26,0,0,0,0,-177485.19177420562,-4779522.913057174,4210539.466276646,-2.36684,-0.400465,0.381482,75.0,-31.625,-32.5,0.0,0.0,0.0,0.0,0.0,0.0,2,0,41.54983668094018,-92.12667292133092,10997.376321011505,119.82833090522236,-0.0043384722618102,0.0018138125820918,,10033.677516021671,11963.558957041,150,10,2025-09-15,2025-09-26 16:39:05.627,HA,C,1792968710,HAWK11,1,1,73,2,1,1,225,2,1,0,0,12,1,225,2,1,-145652.30114920562,-4790459.964814986,4199867.645964146,2.66088,2.22082,-0.748487,-54.125,82.125,91.75,-0.03125,-7.20312,7.3125,-0.0820312,0.00585938,0.0,4,0,41.41913857788079,-91.741522117934,12029.744252714938,-27.45753992761232,1.3244607138010234,0.6147474790865993,199.229,10033.677516021671,11963.558957041,150,True,18.989180313592392,False,144.8456576960232,174.43950793264526,False,40.708772566246154,False,False
10,1970-07-23 11:12:23.468253730,2025-09-15,2025-09-26 16:39:06.825,HA,C,2844695400,JASSM,3,117,76,2,2,1,225,9,2,0,1,26,0,0,0,0,-177406.42126639312,-4779556.264619674,4210505.157682896,-2.36684,-0.400465,0.381482,75.0,-31.625,-32.5,0.0,0.0,0.0,0.0,0.0,0.0,2,0,41.54942413491475,-92.12571511940388,10997.375018852616,119.82896618521536,-0.0035114315221903,0.0018124644611737,,10033.677516021671,11963.558957041,150,10,2025-09-15,2025-09-26 16:39:06.816,HA,C,1794320776,HAWK11,1,1,73,2,1,1,225,2,1,0,0,12,1,225,2,1,-145713.56677420562,-4790367.809541549,4199971.194792271,2.59521,2.23645,-0.747145,-54.25,81.625,92.375,0.0,-7.29688,7.01562,-0.0214844,-0.00390625,-0.00976562,4,0,41.42037462031044,-91.74228769794232,12032.45955267334,-28.0720611489068,1.5709950403342832,-2.5547416097308604,199.828,10033.677516021671,11963.558957041,150,True,18.87804362239441,False,144.85771598045295,174.26377152073994,False,40.8747954744783,False,False
10,1970-07-23 11:12:23.478296764,2025-09-15,2025-09-26 16:39:07.829,HA,C,2845949330,JASSM,3,117,76,2,2,1,225,9,2,0,1,26,0,0,0,0,-177327.57458670562,-4779589.651338424,4210470.811979771,-2.36684,-0.400465,0.381482,75.0,-31.625,-32.5,0.0,0.0,0.0,0.0,0.0,0.0,2,0,41.54901113812213,-92.12475640217852,10997.376656608472,119.82960206711056,-0.0026835683355136,0.0018110774747618,,10033.677516021671,11963.558957041,150,10,2025-09-15,2025-09-26 16:39:07.719,HA,C,1795434242,HAWK11,1,1,73,2,1,1,225,2,1,0,0,12,1,225,2,1,-145765.30310233062,-4790291.252900924,4200057.851042271,2.55015,2.23942,-0.743501,-54.875,81.375,92.375,-0.15625,-7.21875,6.59375,0.0,0.00585938,-0.00585938,4,0,41.42140556990993,-91.74293376168428,12036.16456438768,-28.28279018278585,1.449515017945918,-5.026644838641907,199.681,10033.677516021671,11963.558957041,150,True,18.776954690767727,False,145.12544533366906,174.1133284072617,False,40.758097578441806,False,False
10,1970-07-23 11:12:23.489313959,2025-09-15,2025-09-26 16:39:08.931,HA,C,2847202150,JASSM,3,117,76,2,2,1,225,9,2,0,1,26,0,0,0,0,-177248.79626639312,-4779623.004854049,4210436.497526646,-2.36674,-0.400369,0.381482,75.0,-31.625,-32.5,0.0,0.0,0.0,0.0,0.0,0.0,2,0,41.54859852669159,-92.12379853022992,10997.375419370224,119.82659413378822,-0.0054228633057896,0.0052563351530728,,10033.677516021671,11963.558957041,150,10,2025-09-15,2025-09-26 16:39:08.813,HA,C,1796746540,HAWK11,1,1,73,2,1,1,225,2,1,0,0,12,1,225,2,1,-145825.77575858062,-4790202.498018111,4200158.298307896,2.55197,2.25303,-0.733339,-55.375,81.25,91.5,0.015625,-7.10938,6.0,-0.00390625,0.0,-0.0214844,4,0,41.42260058149044,-91.74368868169654,12040.471427082812,-29.07078167158052,1.2228073248475375,-4.4156510758798895,199.193,10033.677516021671,11963.558957041,150,True,18.667583777657928,False,145.457122500425,173.9398671136283,False,40.59880703375192,False,False
10,1970-07-23 11:12:23.499456786,2025-09-15,2025-09-26 16:39:09.945,HA,C,2848513404,JASSM,3,117,76,2,2,1,225,9,2,0,1,26,0,0,0,0,-177166.34509451812,-4779657.913057174,4210400.581511021,-2.36674,-0.400369,0.381482,75.0,-31.625,-32.5,0.0,0.0,0.0,0.0,0.0,0.0,2,0,41.54816666002045,-92.12279601298016,10997.374193306016,119.8272590557457,-0.0045571691208646,0.0052548525456243,,10033.677516021671,11963.558957041,150,10,2025-09-15,2025-09-26 16:39:10.127,HA,C,1798257672,HAWK11,1,1,73,2,1,1,225,2,1,0,0,12,1,225,2,1,-145896.26599295562,-4790099.959932174,4200273.644011021,2.60738,2.26185,-0.730654,-55.625,80.75,90.75,-0.171875,-7.48438,6.42188,0.117188,0.00390625,-0.00390625,4,0,41.42397632500318,-91.74456835762084,12043.987259856784,-29.474348483829708,1.275793595681239,-0.9117143990688362,197.812,10033.677516021671,11963.558957041,150,True,18.546602769995477,False,145.71462083681647,173.74004335522713,False,40.54095530416624,False,False
10,1970-07-23 11:12:23.511055572,2025-09-15,2025-09-26 16:39:11.105,HA,C,2849767316,JASSM,3,117,76,2,2,1,225,9,2,0,1,26,0,0,0,0,-177087.49841483062,-4779691.295869674,4210366.235807896,-2.36674,-0.400369,0.381482,75.0,-31.625,-32.5,0.0,0.0,0.0,0.0,0.0,0.0,2,0,41.54775366210037,-92.12183733464384,10997.37956226472,119.82789489612864,-0.003729318557257,0.005253432379608,,10033.677516021671,11963.558957041,150,10,2025-09-15,2025-09-26 16:39:11.219,HA,C,1799609736,HAWK11,1,1,73,2,1,1,225,2,1,0,0,12,1,225,2,1,-145959.70739920562,-4790008.171846236,4200376.835417271,2.6326,2.26511,-0.728066,-55.125,80.375,90.375,0.046875,-7.51562,6.26562,-0.0644531,0.0,0.0,4,0,41.42520735318143,-91.74535991909624,12047.039015570022,-29.669429837000887,1.217516537709313,0.6531235702890552,196.675,10033.677516021671,11963.558957041,150,True,18.435193936600676,False,145.61321101797486,173.55812660411908,False,40.82442621759192,False,False
10,1970-07-23 11:12:23.521233147,2025-09-15,2025-09-26 16:39:12.123,HA,C,2851020716,JASSM,3,117,76,2,2,1,225,9,2,0,1,26,0,0,0,0,-177008.68396170562,-4779724.661104049,4210331.901823521,-2.36674,-0.400369,0.381482,75.0,-31.625,-32.5,0.0,0.0,0.0,0.0,0.0,0.0,2,0,41.547340832808985,-92.12087906208188,10997.374600713822,119.82853046219368,-0.0029018113307915,0.0052520189141082,,10033.677516021671,11963.558957041,150,10,2025-09-15,2025-09-26 16:39:11.923,HA,C,1800484602,HAWK11,1,1,73,2,1,1,225,2,1,0,0,12,1,225,2,1,-146000.60583670562,-4789949.400361861,4200443.060026646,2.59636,2.2515,-0.729216,-55.125,80.375,90.0,0.03125,-7.35938,6.14062,-0.015625,0.0136719,0.0078125,4,0,41.42599654444388,-91.7458700805064,12049.349220704877,-29.130939517930308,0.9886061615925832,-1.932358098213475,195.954,10033.677516021671,11963.558957041,150,True,18.346103579192313,False,145.66764090549444,173.43401930408504,False,40.893407257234564,False,False
10,1970-07-23 11:12:23.532258731,2025-09-15,2025-09-26 16:39:13.225,HA,C,2852390550,JASSM,3,117,76,2,2,1,225,9,2,0,1,26,0,0,0,0,-176922.54919608062,-4779761.125947799,4210294.378386021,-2.36674,-0.400369,0.381482,75.0,-31.625,-32.5,0.0,0.0,0.0,0.0,0.0,0.0,2,0,41.54688964346423,-92.11983179850816,10997.37464377527,119.82922504485192,-0.0019974411436748,0.0052504680142585,,10033.677516021671,11963.558957041,150,10,2025-09-15,2025-09-26 16:39:13.219,HA,C,1801955968,HAWK11,1,1,73,2,1,1,225,2,1,0,0,12,1,225,2,1,-146068.37146170562,-4789851.597627486,4200552.860807896,2.50432,2.26809,-0.716848,-55.25,79.875,89.125,0.125,-7.32812,6.07812,-0.0605469,0.0,-0.0175781,4,0,41.42730716870528,-91.74671556051103,12052.303634270893,-30.101237011425606,0.7261294772097223,-6.591599824589906,194.891,10033.677516021671,11963.558957041,150,True,18.22635705117773,False,145.8984086880364,173.2357759348282,False,40.86035093133039,False,False
10,1970-07-23 11:12:23.543279382,2025-09-15,2025-09-26 16:39:14.327,HA,C,2853644438,JASSM,3,117,76,2,2,1,225,9,2,0,1,26,0,0,0,0,-176843.70349295562,-4779794.504854049,4210260.028776646,-2.36674,-0.400369,0.381482,75.0,-31.625,-32.5,0.0,0.0,0.0,0.0,0.0,0.0,2,0,41.54647661751583,-92.11887317132258,10997.37553865774,119.82986083525545,-0.0011695975058591,0.0052490399460965,,10033.677516021671,11963.558957041,150,10,2025-09-15,2025-09-26 16:39:14.423,HA,C,1803467100,HAWK11,1,1,73,2,1,1,225,2,1,0,0,12,1,225,2,1,-146139.24255545562,-4789751.864229049,4200665.288542271,2.41295,2.28534,-0.711384,-56.0,76.375,90.625,-0.078125,-7.60938,6.32812,-0.0722656,0.0,-0.0078125,4,0,41.428646437017136,-91.74759889182307,12056.460282021231,-30.9050990284634,0.8334225290182158,-11.1900137939228,193.779,10033.677516021671,11963.558957041,150,False,18.109145955177816,False,146.32609672398897,173.03377907988983,False,40.63995580774095,False,False
10,1970-07-23 11:12:23.553332914,2025-09-15,2025-09-26 16:39:15.333,HA,C,2854838314,JASSM,3,117,76,2,2,1,225,9,2,0,1,26,0,0,0,0,-176768.63220389312,-4779826.284150924,4210227.323698521,-2.36674,-0.400369,0.381578,75.0,-31.625,-32.5,0.0,0.0,0.0,0.0,0.0,0.0,2,0,41.54608336760494,-92.11796044658072,10997.376608587914,119.83430890249583,-0.0043067537353473,0.0052475327487439,,10033.677516021671,11963.558957041,150,10,2025-09-15,2025-09-26 16:39:15.423,HA,C,1804620332,HAWK11,1,1,73,2,1,1,225,2,1,0,0,12,1,225,2,1,-146195.49646170562,-4789675.832979049,4200749.292448521,2.2795,2.3097,-0.699016,-58.125,78.0,86.375,0.171875,-7.42188,6.15625,-0.115234,0.0,-0.0175781,4,0,41.429655509653166,-91.74829891879224,12056.104643367387,-32.18133743578834,0.774424087189115,-17.950058024420567,192.801,10033.677516021671,11963.558957041,150,False,18.00978436577703,False,147.66325110354978,172.87790415812375,False,39.45251024612786,False,False
10,1970-07-23 11:12:23.563473943,2025-09-15,2025-09-26 16:39:16.347,HA,C,2856031022,JASSM,3,117,76,2,2,1,225,9,2,0,1,26,0,0,0,0,-176693.63415701812,-4779858.030244674,4210194.649870396,-2.36674,-0.400369,0.381578,75.0,-31.625,-32.5,0.0,0.0,0.0,0.0,0.0,0.0,2,0,41.54569050277897,-92.11704862434296,10997.3748100903,119.83491364101644,-0.0035193197177326,0.0052462440266146,,10033.677516021671,11963.558957041,150,10,2025-09-15,2025-09-26 16:39:16.219,HA,C,1805614498,HAWK11,1,1,73,2,1,1,225,2,1,0,0,12,1,225,2,1,-146244.87536795562,-4789611.555635299,4200820.909636021,2.22705,2.33625,-0.680129,-60.0,77.375,84.75,0.140625,-7.64062,6.25,-0.0214844,0.00585938,-0.0253906,4,0,41.4305122983297,-91.74891251235998,12057.249094040995,-33.75039943490745,0.477625235876232,-20.00391116489888,192.337,10033.677516021671,11963.558957041,150,False,17.91770799739514,False,148.73519206514,172.74230991624682,False,38.513865871147495,False,False
10,1970-07-23 11:12:23.573236656,2025-09-15,2025-09-26 16:39:17.323,HA,C,2857282042,JASSM,3,117,76,2,2,1,225,9,2,0,1,26,0,0,0,0,-176614.97009451812,-4779891.329072799,4210160.376432896,-2.36674,-0.400369,0.381578,75.0,-31.625,-32.5,0.0,0.0,0.0,0.0,0.0,0.0,2,0,41.545278404147446,-92.11609224233028,10997.374115567469,119.83554792741396,-0.0026933833900829,0.0052448731788633,,10033.677516021671,11963.558957041,150,10,2025-09-15,2025-09-26 16:39:17.423,HA,C,1806887030,HAWK11,1,1,73,2,1,1,225,2,1,0,0,12,1,225,2,1,-146310.77380545562,-4789530.734346236,4200909.739714146,2.18909,2.37125,-0.659324,-63.0,76.0,82.75,0.09375,-7.89062,6.71875,0.0136719,0.0117188,-0.0273438,4,0,41.43158068027959,-91.74972959561696,12056.333727751928,-35.71847439974114,0.335743533969681,-20.948473480291437,191.371,10033.677516021671,11963.558957041,150,False,17.810141333038818,False,150.4171422137899,172.57814521846748,False,36.99517127412755,False,False
10,1970-07-23 11:12:23.583292226,2025-09-15,2025-09-26 16:39:18.329,HA,C,2858416880,JASSM,3,117,76,2,2,1,225,9,2,0,1,26,0,0,0,0,-176543.61071951812,-4779921.534150924,4210129.286589146,-2.36674,-0.400273,0.381578,75.0,-31.625,-32.5,0.0,0.0,0.0,0.0,0.0,0.0,2,0,41.54490458225011,-92.1152246804874,10997.375362519211,119.8324803213427,-0.0055105668601372,0.0031983018569883,,10033.677516021671,11963.558957041,150,10,2025-09-15,2025-09-26 16:39:18.517,HA,C,1808318628,HAWK11,1,1,73,2,1,1,225,2,1,0,0,12,1,225,2,1,-146389.12536795562,-4789440.909150924,4201008.573698521,2.23127,2.40931,-0.635643,-66.0,74.125,80.875,-0.125,-7.79688,6.71875,0.0546875,0.00195312,-0.03125,4,0,41.43276787575248,-91.75069883154453,12055.945839935428,-37.92049514973748,0.1957965895698689,-17.226215419191657,190.54,10033.677516021671,11963.558957041,150,False,17.698246374091227,False,152.16581682513564,172.4011435979424,False,35.42496672316529,False,False
10,1970-07-23 11:12:23.593312733,2025-09-15,2025-09-26 16:39:19.331,HA,C,2859608602,JASSM,3,117,76,2,2,1,225,9,2,0,1,26,0,0,0,0,-176468.67419608062,-4779953.252900924,4210096.638151646,-2.36674,-0.400273,0.381578,75.0,-31.625,-32.5,0.0,0.0,0.0,0.0,0.0,0.0,2,0,41.54451201619872,-92.11431363991385,10997.379158101876,119.83308452745344,-0.0047237782243663,0.0031969623363491,,10033.677516021671,11963.558957041,150,10,2025-09-15,2025-09-26 16:39:19.313,HA,C,1809273026,HAWK11,1,1,73,2,1,1,225,2,1,0,0,12,1,225,2,1,-146443.26403983062,-4789382.270479049,4201072.884245396,2.21325,2.42839,-0.622317,-68.0,73.125,79.75,-0.125,-7.70312,7.10938,-0.0703125,0.0136719,-0.0078125,4,0,41.43354092764007,-91.7513673135517,12055.469992775004,-39.08347716566275,0.0833821238269369,-17.618701660156983,190.076,10033.677516021671,11963.558957041,150,False,17.60618610826542,False,153.28181242419322,172.27880041423126,False,34.4317598208509,False,False
10,1970-07-23 11:12:23.602455504,2025-09-15,2025-09-26 16:39:20.245,HA,C,2860802730,JASSM,3,117,76,2,2,1,225,9,2,0,1,26,0,0,0,0,-176393.58728201812,-4779985.034150924,4210063.921354771,-2.36674,-0.400273,0.381578,75.0,-31.625,-32.5,0.0,0.0,0.0,0.0,0.0,0.0,2,0,41.54411864282776,-92.11340078253204,10997.377912396783,119.83368993377584,-0.0039354047808384,0.003195609313799,,10033.677516021671,11963.558957041,150,10,2025-09-15,2025-09-26 16:39:20.313,HA,C,1810466026,HAWK11,1,1,73,2,1,1,225,2,1,0,0,12,1,225,2,1,-146513.31872733062,-4789310.107393111,4201152.015104771,2.17413,2.44862,-0.613017,-71.0,72.0,78.5,-0.09375,-7.48438,7.34375,0.0449219,0.0136719,-0.0214844,4,0,41.43449156347518,-91.75223098538146,12055.123127005929,-40.16187412850616,0.2070991353522495,-19.19148676814096,190.663,10033.677516021671,11963.558957041,150,False,17.5019848511862,False,154.81866263394537,172.13376098141683,False,33.040666547414105,False,False
10,1970-07-23 11:12:23.613216547,2025-09-15,2025-09-26 16:39:21.321,HA,C,2861995942,JASSM,3,117,76,2,2,1,225,9,2,0,1,26,0,0,0,0,-176318.55700858062,-4780016.790010299,4210031.227995396,-2.36674,-0.400273,0.381578,75.0,-31.625,-32.5,0.0,0.0,0.0,0.0,0.0,0.0,2,0,41.54372555901281,-92.11248862542824,10997.374450064446,119.83429487097034,-0.0031476264293917,0.0031942571221454,,10033.677516021671,11963.558957041,150,10,2025-09-15,2025-09-26 16:39:21.423,HA,C,1811659024,HAWK11,1,1,73,2,1,1,225,2,1,0,0,12,1,225,2,1,-146585.31091483062,-4789239.591768111,4201229.352995396,2.14153,2.48745,-0.583584,-73.75,70.875,77.25,0.0625,-7.39062,7.45312,-0.0761719,0.015625,-0.0371094,4,0,41.43541993736203,-91.75311723723824,12055.087908289985,-42.64478114392804,-0.0379630240117412,-19.809643734812653,191.127,10033.677516021671,11963.558957041,150,False,17.397491117073553,False,156.25785798708185,171.99229487101888,False,31.743628083429527,False,False
10,1970-07-23 11:12:23.623252501,2025-09-15,2025-09-26 16:39:22.325,HA,C,2863188610,JASSM,3,117,76,2,2,1,225,9,2,0,1,26,0,0,0,0,-176243.56189139312,-4780048.530244674,4209998.550261021,-2.36674,-0.400273,0.381578,75.0,-31.625,-32.5,0.0,0.0,0.0,0.0,0.0,0.0,2,0,41.54333265863252,-92.1115769070952,10997.373783582125,119.83489951247536,-0.0023602205973514,0.0031929110556064,,10033.677516021671,11963.558957041,150,10,2025-09-15,2025-09-26 16:39:22.313,HA,C,1812772490,HAWK11,1,1,73,2,1,1,225,2,1,0,0,12,1,225,2,1,-146655.66443045562,-4789174.281221236,4201301.118620396,2.14489,2.50911,-0.576106,-76.625,69.75,76.0,-0.09375,-7.625,7.75,0.0761719,0.015625,-0.0195312,4,0,41.43628002776296,-91.75398202316627,12055.635534530727,-43.72840713744596,0.2616393518395367,-18.93940831270688,191.909,10033.677516021671,11963.558957041,150,False,17.29554340164222,False,157.73706160896018,171.86046404386505,False,30.39698183382405,False,False
10,1970-07-23 11:12:23.634258767,2025-09-15,2025-09-26 16:39:23.425,HA,C,2864382468,JASSM,3,117,76,2,2,1,225,9,2,0,1,26,0,0,0,0,-176168.49157889312,-4780080.301729049,4209965.839323521,-2.36674,-0.400273,0.381578,75.0,-31.625,-32.5,0.0,0.0,0.0,0.0,0.0,0.0,2,0,41.542939357514896,-92.1106642859183,10997.37471448001,119.8355047480316,-0.0015720256060153,0.0031915639280271,,10033.677516021671,11963.558957041,150,10,2025-09-15,2025-09-26 16:39:23.517,HA,C,1814243854,HAWK11,1,1,73,2,1,1,225,2,1,0,0,12,1,225,2,1,-146753.14685233062,-4789089.314424361,4201394.897917271,2.22542,2.54938,-0.548398,-79.625,68.0,75.125,-0.078125,-7.35938,7.34375,0.119141,0.0,-0.0234375,4,0,41.43740067728921,-91.755178290733,12057.707982201788,-46.24507095414743,0.2481463841073193,-13.10635260705847,192.569,10033.677516021671,11963.558957041,150,False,17.174037922549207,False,159.2758017368623,171.6971137118343,False,29.02536771058514,True,False
10,1970-07-23 11:12:23.643314932,2025-09-15,2025-09-26 16:39:24.331,HA,C,2865634724,JASSM,3,117,76,2,2,1,225,9,2,0,1,26,0,0,0,0,-176089.74841483062,-4780113.625947799,4209931.526823521,-2.36674,-0.400273,0.381674,75.0,-31.625,-32.5,0.0,0.0,0.0,0.0,0.0,0.0,2,0,41.542526808441664,-92.10970702694148,10997.373244310282,119.83998244810132,-0.0046704954244255,0.0031899709579739,,10033.677516021671,11963.558957041,150,10,2025-09-15,2025-09-26 16:39:24.423,HA,C,1815277788,HAWK11,1,1,73,2,1,1,225,2,1,0,0,12,1,225,2,1,-146822.57068045562,-4789031.415986861,4201458.862761021,2.31459,2.56875,-0.544371,-81.125,67.0,74.75,-0.1875,-7.59375,7.67188,0.0703125,0.00585938,0.00195312,4,0,41.43816417467148,-91.75602930152787,12059.486815211423,-47.12268569583074,0.6767875646017724,-7.428335507504884,192.887,10033.677516021671,11963.558957041,150,True,17.07266842336439,False,160.0455706045666,171.57782140878086,False,28.376278251578253,True,False
10,1970-07-23 11:12:23.652472574,2025-09-15,2025-09-26 16:39:25.247,HA,C,2866768118,JASSM,3,117,76,2,2,1,225,9,2,0,1,26,0,0,0,0,-176018.47986014312,-4780143.788057174,4209900.470182896,-2.36674,-0.400273,0.381674,75.0,-31.625,-32.5,0.0,0.0,0.0,0.0,0.0,0.0,2,0,41.54215339815237,-92.1088406447152,10997.375861662907,119.84055700977709,-0.0039222101473674,0.0031887308331214,,10033.677516021671,11963.558957041,150,10,2025-09-15,2025-09-26 16:39:25.125,HA,C,1816152652,HAWK11,1,1,73,2,1,1,225,2,1,0,0,12,1,225,2,1,-146882.51989920562,-4788982.468721236,4201513.696745396,2.35169,2.57258,-0.547727,-82.0,66.5,74.875,-0.0625,-7.39062,7.48438,0.00976562,0.0,0.0,4,0,41.4388145142932,-91.7567638019027,12062.73671299566,-47.143376512055845,0.9456193361070092,-5.188760322181437,193.156,10033.677516021671,11963.558957041,150,True,16.983370328554507,False,160.39931794078763,171.47422790733793,False,28.126449550795318,True,False
