Subject_cm,Timestamp,SampleDate_cm,SampleTime_cm,Configuration_cm,Scenario_cm,DisTime_cm,MarkingTxt_cm,Application_cm,EntId_cm,Site_cm,ExerciseId_cm,ForceId_cm,Category_cm,Country_cm,Domain_cm,Kind_cm,Extra_cm,Specific_cm,Subcategory_cm,AltCategory_cm,AltCountry_cm,AltDomain_cm,AltKind_cm,ECEF_X_cm,ECEF_Y_cm,ECEF_Z_cm,OriPhi_cm,OriPsi_cm,OriTheta_cm,LinVelX_cm,LinVelY_cm,LinVelZ_cm,LinAccX_cm,LinAccY_cm,LinAccZ_cm,AngVelX_cm,AngVelY_cm,AngVelZ_cm,DrAlg_cm,Appearance_cm,Latitude_cm,Longitude_cm,Altitude_cm,Heading_cm,Pitch_cm,Roll_cm,CalibratedAirspeed_cm,CM_Altitude_Lead_cm,CM_Altitude_Wing_cm,CM_Airspeed_cm,Subject_ac,SampleDate_ac,SampleTime_ac,Configuration_ac,Scenario_ac,DisTime_ac,MarkingTxt_ac,Application_ac,EntId_ac,Site_ac,ExerciseId_ac,ForceId_ac,Category_ac,Country_ac,Domain_ac,Kind_ac,Extra_ac,Specific_ac,Subcategory_ac,AltCategory_ac,AltCountry_ac,AltDomain_ac,AltKind_ac,ECEF_X_ac,ECEF_Y_ac,ECEF_Z_ac,OriPhi_ac,OriPsi_ac,OriTheta_ac,LinVelX_ac,LinVelY_ac,LinVelZ_ac,LinAccX_ac,LinAccY_ac,LinAccZ_ac,AngVelX_ac,AngVelY_ac,AngVelZ_ac,DrAlg_ac,Appearance_ac,Latitude_ac,Longitude_ac,Altitude_ac,Heading_ac,Pitch_ac,Roll_ac,CalibratedAirspeed_ac,CM_Altitude_Lead_ac,CM_Altitude_Wing_ac,CM_Airspeed_ac,Bank_Angle_Condition,distance_nm,Distance_Condition,angle_between_vel,angle_between_pos,Cone_Condition,angle_between_pos_nose,Nose_Cone_Condition,Intercept_Criteria
10,1970-07-23 11:28:50.070392636,2025-09-16,2025-09-26 20:03:27.039,AH,C,1332568782,JASSM,3,104,76,2,2,1,225,9,2,0,1,26,0,0,0,0,-180526.96716483065,-4778003.247041549,4211665.749479771,-2.36693,-0.400848,0.381002,76.0,-32.125,-33.0,0.0,0.0,0.0,0.0,0.0,0.0,2,0,41.5658071984258,-92.163773246158,10000.003018586687,119.79908361866796,-0.0024714015096777,0.0045522579095325,,8959.781364859911,11075.263430171775,150,10,2025-09-16,2025-09-26 20:03:26.968,AH,C,4220605154,AMBUSH51,1,1,48,2,1,1,225,2,1,0,0,9,1,225,2,1,-146080.58006981527,-4791955.720478678,4196745.503170051,2.23599,2.78187,-0.420295,-82.4267,37.9352,44.4828,-0.0884889,-6.30773,6.48275,-0.0339834,0.00302831,-0.0180336,4,0,41.38908744967748,-91.74609490024277,8966.389369500137,-59.875635078557785,2.7690685667103336,-6.589829746703689,166.1,8959.781364859911,11075.263430171775,150,True,21.540663085286322,False,175.38058562982079,179.19517183128457,False,4.889887402564138,True,False
10,1970-07-23 11:28:50.080287540,2025-09-16,2025-09-26 20:03:28.028,AH,C,1333763504,JASSM,3,104,76,2,2,1,225,9,2,0,1,26,0,0,0,0,-180450.77868826807,-4778035.543916549,4211632.595182896,-2.36693,-0.400848,0.381098,76.0,-32.125,-33.0,0.0,0.0,0.0,0.0,0.0,0.0,2,0,41.565408426447526,-92.16284632237516,9999.997393468437,119.80354063231728,-0.0055974624334625,0.0045506270858656,,8959.781364859911,11075.263430171775,150,10,2025-09-16,2025-09-26 20:03:28.066,AH,C,4221917454,AMBUSH51,1,1,48,2,1,1,225,2,1,0,0,9,1,225,2,1,-146170.9235300066,-4791913.9009481305,4196792.899331341,2.2072,2.79775,-0.402245,-83.1468,37.99,43.1514,-0.140062,-6.54889,6.67672,-0.0086792,-0.00352141,-0.00908908,4,0,41.38963983112797,-91.74718934095876,8973.092405351705,-61.20018486662724,2.6391105686352607,-7.938171588747588,166.283,8959.781364859911,11075.263430171775,150,True,21.433684604615493,False,176.21727837933426,179.1871494988871,False,4.112092332568285,True,False
10,1970-07-23 11:28:50.090216942,2025-09-16,2025-09-26 20:03:29.021,AH,C,1335015796,JASSM,3,104,76,2,2,1,225,9,2,0,1,26,0,0,0,0,-180370.9183367056,-4778069.397432174,4211597.845182896,-2.36693,-0.400848,0.381098,76.0,-32.125,-33.0,0.0,0.0,0.0,0.0,0.0,0.0,2,0,41.564990441642735,-92.161874738037,10000.000830623285,119.80418525133896,-0.0047589208534669,0.0045492413862728,,8959.781364859911,11075.263430171775,150,10,2025-09-16,2025-09-26 20:03:28.933,AH,C,4222951386,AMBUSH51,1,1,48,2,1,1,225,2,1,0,0,9,1,225,2,1,-146243.07781926024,-4791880.83200095,4196829.651313673,2.20637,2.80433,-0.388831,-83.7371,37.7667,42.3144,0.0590261,-6.45014,6.53445,0.0143322,-0.00622202,-0.000970597,4,0,41.39007158453561,-91.74806332618884,8976.874558899308,-61.99426445226256,2.3514763736439983,-7.874676292855862,166.32,8959.781364859911,11075.263430171775,150,True,21.336575291699837,False,176.81036081632183,179.1804428692595,False,3.5372614633795556,True,False
10,1970-07-23 11:28:50.100292088,2025-09-16,2025-09-26 20:03:30.029,AH,C,1336266750,JASSM,3,104,76,2,2,1,225,9,2,0,1,26,0,0,0,0,-180291.14392264312,-4778103.213838424,4211563.128386021,-2.36693,-0.400848,0.381098,76.0,-32.125,-33.0,0.0,0.0,0.0,0.0,0.0,0.0,2,0,41.56457287423779,-92.16090421202868,9999.997953053378,119.80482916287498,-0.0039212697528039,0.0045478360585003,,8959.781364859911,11075.263430171775,150,10,2025-09-16,2025-09-26 20:03:30.166,AH,C,4224422750,AMBUSH51,1,1,48,2,1,1,225,2,1,0,0,9,1,225,2,1,-146347.37298553588,-4791833.673967821,4196881.193833135,2.23563,2.81559,-0.378957,-84.6315,37.421,41.3635,-0.0202483,-6.8515,7.04382,0.0946098,-0.00606389,-0.00360671,4,0,41.39068116238892,-91.74932641098673,8980.497760929158,-62.818185733759904,2.386964843922589,-5.991209119459911,166.821,8959.781364859911,11075.263430171775,150,True,21.219062856749886,False,177.55587173446563,179.17221408109148,False,2.7988220276867493,True,False
10,1970-07-23 11:28:50.110332001,2025-09-16,2025-09-26 20:03:31.033,AH,C,1337461378,JASSM,3,104,76,2,2,1,225,9,2,0,1,26,0,0,0,0,-180214.9613054556,-4778135.506807174,4211529.976042271,-2.36693,-0.400848,0.381098,76.0,-32.125,-33.0,0.0,0.0,0.0,0.0,0.0,0.0,2,0,41.564174114186095,-92.15997739545276,10000.000179274954,119.80544406970502,-0.00312134071428,0.0045465062308353,,8959.781364859911,11075.263430171775,150,10,2025-09-16,2025-09-26 20:03:31.033,AH,C,4225456682,AMBUSH51,1,1,48,2,1,1,225,2,1,0,0,9,1,225,2,1,-146420.49675170123,-4791800.883897815,4196916.721669097,2.34662,2.81021,-0.373268,-85.1191,37.5368,41.2032,-0.250857,-6.67183,6.76209,0.111531,-0.0125054,-0.0097403,4,0,41.39110279867637,-91.75021190307687,8982.392945315361,-62.85320503743283,1.955135130065272,0.2535752966061974,167.004,8959.781364859911,11075.263430171775,150,True,21.12411395069682,False,177.75687756715905,179.16613836260436,False,2.6208243939385065,True,False
10,1970-07-23 11:28:50.121351601,2025-09-16,2025-09-26 20:03:32.135,AH,C,1338772038,JASSM,3,104,76,2,2,1,225,9,2,0,1,26,0,0,0,0,-180131.37927420562,-4778170.934541549,4211493.602995396,-2.36693,-0.400848,0.381098,76.0,-32.125,-33.0,0.0,0.0,0.0,0.0,0.0,0.0,2,0,41.56373662079207,-92.1589605735664,10000.00145773217,119.80611868599192,-0.0022437200327412,0.0045450519238422,,8959.781364859911,11075.263430171775,150,10,2025-09-16,2025-09-26 20:03:32.168,AH,C,4226808748,AMBUSH51,1,1,48,2,1,1,225,2,1,0,0,9,1,225,2,1,-146517.38901612893,-4791757.0680878665,4196963.473228477,2.43999,2.80469,-0.379072,-85.101,38.2391,41.5976,-0.113051,-6.84875,6.85242,0.040194,-0.00299294,0.0211253,4,0,41.39166147047411,-91.75138537136247,8983.302375241707,-62.41037410648157,1.977681120990762,5.502716288009981,167.138,8959.781364859911,11075.263430171775,150,True,21.00921305514969,False,177.4752969468566,179.1579026169095,False,2.976861525526809,True,False
10,1970-07-23 11:28:50.132369700,2025-09-16,2025-09-26 20:03:33.236,AH,C,1340026390,JASSM,3,104,76,2,2,1,225,9,2,0,1,26,0,0,0,0,-180051.38806326812,-4778204.838838424,4211458.790495396,-2.36693,-0.400848,0.381098,76.0,-32.125,-33.0,0.0,0.0,0.0,0.0,0.0,0.0,2,0,41.56331790862391,-92.15798744948589,9999.999271189585,119.80676430525908,-0.0014038008560778,0.0045436548329816,,8959.781364859911,11075.263430171775,150,10,2025-09-16,2025-09-26 20:03:33.333,AH,C,4228200580,AMBUSH51,1,1,48,2,1,1,225,2,1,0,0,9,1,225,2,1,-146615.50030653636,-4791711.380152528,4197012.301345658,2.43976,2.78884,-0.395954,-84.6864,39.1247,42.6925,-0.15042,-6.87118,7.0622,-0.0303507,-0.00440566,0.00080623,4,0,41.39224506486999,-91.75257410652524,8984.209544794925,-61.13088712983782,2.055602253628911,5.190855830997347,167.627,8959.781364859911,11075.263430171775,150,True,20.895237793818655,False,176.71506152541264,179.14781415303838,False,3.7728944910005837,True,False
10,1970-07-23 11:28:50.142249064,2025-09-16,2025-09-26 20:03:34.224,AH,C,1341220076,JASSM,3,104,76,2,2,1,225,9,2,0,1,26,0,0,0,0,-179975.26501639312,-4778237.104463424,4211425.661589146,-2.36693,-0.400752,0.381098,76.0,-32.125,-33.0,0.0,0.0,0.0,0.0,0.0,0.0,2,0,41.562919432552135,-92.15706139440412,10000.003790090304,119.8037343700515,-0.0041709425664836,0.0024993391453989,,8959.781364859911,11075.263430171775,150,10,2025-09-16,2025-09-26 20:03:34.133,AH,C,4229154980,AMBUSH51,1,1,48,2,1,1,225,2,1,0,0,9,1,225,2,1,-146683.22820531618,-4791679.656135373,4197046.404821936,2.3342,2.78242,-0.397302,-84.7024,39.4578,43.0846,-0.134125,-6.90569,6.98529,-0.166153,-0.00297213,0.0100066,4,0,41.3926517001301,-91.75339479064893,8985.245587366293,-60.8377694073232,1.869204771982035,-0.989619667782068,167.847,8959.781364859911,11075.263430171775,150,True,20.8033021812597,False,176.4892044537346,179.13992604788066,False,4.01404338479825,True,False
10,1970-07-23 11:28:50.153289515,2025-09-16,2025-09-26 20:03:35.328,AH,C,1342530134,JASSM,3,104,76,2,2,1,225,9,2,0,1,26,0,0,0,0,-179891.72204764312,-4778272.512666549,4211389.300261021,-2.36693,-0.400752,0.381098,76.0,-32.125,-33.0,0.0,0.0,0.0,0.0,0.0,0.0,2,0,41.56248209994386,-92.1560450883942,10000.00036569225,119.80440862745763,-0.003293723965888,0.0024978136553941,,8959.781364859911,11075.263430171775,150,10,2025-09-16,2025-09-26 20:03:35.399,AH,C,4230666110,AMBUSH51,1,1,48,2,1,1,225,2,1,0,0,9,1,225,2,1,-146790.98276393572,-4791629.325565495,4197100.94231921,2.22425,2.78646,-0.394383,-85.2707,39.2425,42.6413,-0.057745,-6.90753,6.8313,-0.0606753,-0.00456587,-0.0335548,4,0,41.39329968087757,-91.75470046159984,8987.856187343905,-61.10797668801558,1.9047155704373324,-7.208432267592347,168.788,8959.781364859911,11075.263430171775,150,True,20.680623883317068,False,176.8912713357636,179.12840774937084,False,3.629345437867696,True,False
10,1970-07-23 11:28:50.163308624,2025-09-16,2025-09-26 20:03:36.330,AH,C,1343782832,JASSM,3,104,76,2,2,1,225,9,2,0,1,26,0,0,0,0,-179811.83532889312,-4778306.370088424,4211354.530729771,-2.36693,-0.400752,0.381098,76.0,-32.125,-33.0,0.0,0.0,0.0,0.0,0.0,0.0,2,0,41.56206390856078,-92.15507327425306,9999.999848331545,119.80505336175594,-0.0024549019153342,0.0024963632368177,,8959.781364859911,11075.263430171775,150,10,2025-09-16,2025-09-26 20:03:36.199,AH,C,4231620510,AMBUSH51,1,1,48,2,1,1,225,2,1,0,0,9,1,225,2,1,-146859.45826321846,-4791597.952335229,4197134.673219083,2.19375,2.79722,-0.374356,-85.8968,38.9164,41.9227,-0.184969,-6.85758,6.70975,-0.0191987,0.0017529,-0.0215914,4,0,41.393701562320494,-91.75552997463288,8989.012299511784,-62.32782243777637,1.507810347680541,-8.761390882625491,168.788,8959.781364859911,11075.263430171775,150,True,20.586116945769323,False,177.44779688915906,179.12103333301835,False,3.092807364953589,True,False
10,1970-07-23 11:28:50.173346178,2025-09-16,2025-09-26 20:03:37.334,AH,C,1344978224,JASSM,3,104,76,2,2,1,225,9,2,0,1,26,0,0,0,0,-179735.60388358062,-4778338.676729049,4211321.352995396,-2.36693,-0.400752,0.381194,76.0,-32.125,-33.0,0.0,0.0,0.0,0.0,0.0,0.0,2,0,41.56166485975427,-92.1541459385666,10000.001531351878,119.8095107442317,-0.0055803849411713,0.0024947498548921,,8959.781364859911,11075.263430171775,150,10,2025-09-16,2025-09-26 20:03:37.499,AH,C,4233171408,AMBUSH51,1,1,48,2,1,1,225,2,1,0,0,9,1,225,2,1,-146971.501569629,-4791547.652639668,4197188.062547393,2.25103,2.81062,-0.362811,-86.7144,38.0623,40.7642,-0.176033,-7.32081,6.83228,0.136411,-0.00983393,-0.0137933,4,0,41.39434080023424,-91.75688691123912,8989.545957358721,-63.302740727654935,1.5591533844409555,-5.228722981213314,169.314,8959.781364859911,11075.263430171775,150,True,20.46628868345158,False,178.342253394711,179.11177213967022,False,2.1887414633043587,True,False
10,1970-07-23 11:28:50.184365912,2025-09-16,2025-09-26 20:03:38.436,AH,C,1346288314,JASSM,3,104,76,2,2,1,225,9,2,0,1,26,0,0,0,0,-179652.05798514312,-4778374.082979049,4211284.987761021,-2.36693,-0.400752,0.381194,76.0,-32.125,-33.0,0.0,0.0,0.0,0.0,0.0,0.0,2,0,41.561227487289344,-92.15312963767174,9999.998628870317,119.81018498162544,-0.0047031368881689,0.0024932836570557,,8959.781364859911,11075.263430171775,150,10,2025-09-16,2025-09-26 20:03:38.366,AH,C,4234205340,AMBUSH51,1,1,48,2,1,1,225,2,1,0,0,9,1,225,2,1,-147046.56241668243,-4791514.513845734,4197223.136477065,2.34538,2.82068,-0.352447,-86.801,37.7422,40.6759,-0.211298,-7.17628,6.56289,0.0793695,-4.47328e-05,-0.00972782,4,0,41.3947610336961,-91.75779576997428,8989.77867040896,-64.10558244082888,1.5340327802647291,0.3570813649443702,168.959,8959.781364859911,11075.263430171775,150,True,20.365836167412837,False,178.44606507464482,179.1053200707584,False,2.040118941117062,True,False
10,1970-07-23 11:28:50.194246433,2025-09-16,2025-09-26 20:03:39.424,AH,C,1347482122,JASSM,3,104,76,2,2,1,225,9,2,0,1,26,0,0,0,0,-179575.92712576812,-4778406.344697799,4211251.851042271,-2.36693,-0.400752,0.381194,76.0,-32.125,-33.0,0.0,0.0,0.0,0.0,0.0,0.0,2,0,41.56082894440188,-92.15220355049595,9999.997225900644,119.810799364087,-0.0039037580916099,0.0024919635539367,,8959.781364859911,11075.263430171775,150,10,2025-09-16,2025-09-26 20:03:39.433,AH,C,4235477872,AMBUSH51,1,1,48,2,1,1,225,2,1,0,0,9,1,225,2,1,-147139.36088792587,-4791473.540354961,4197266.399114175,2.4291,2.80897,-0.364467,-86.5107,37.9134,41.0619,-0.254339,-7.38908,6.78365,0.0673416,0.00292636,0.00301374,4,0,41.39527991182492,-91.75891941856396,8989.846902500696,-63.17441592890071,1.5638181450731967,4.943622663149895,168.825,8959.781364859911,11075.263430171775,150,True,20.258739569002195,False,178.16648198165575,179.09803948681446,False,2.326460608917505,True,False
10,1970-07-23 11:28:50.205264567,2025-09-16,2025-09-26 20:03:40.526,AH,C,1348794602,JASSM,3,104,76,2,2,1,225,9,2,0,1,26,0,0,0,0,-179492.22888358062,-4778441.813447799,4211215.419401646,-2.36693,-0.400752,0.381194,76.0,-32.125,-33.0,0.0,0.0,0.0,0.0,0.0,0.0,2,0,41.5603907687926,-92.1511854235852,9999.998458185892,119.81147480173836,-0.0030249166723709,0.0024905043825435,,8959.781364859911,11075.263430171775,150,10,2025-09-16,2025-09-26 20:03:40.666,AH,C,4236949238,AMBUSH51,1,1,48,2,1,1,225,2,1,0,0,9,1,225,2,1,-147245.46404738558,-4791426.049400015,4197317.215195879,2.47746,2.79526,-0.376949,-85.6292,38.7084,41.8911,-0.254468,-7.39352,6.83764,0.0113236,0.0044868,0.0186848,4,0,41.39588611400109,-91.7602044246911,8991.281292668067,-62.15157455578314,1.5414329840002725,7.457399280696543,168.654,8959.781364859911,11075.263430171775,150,True,20.138002027575343,False,177.42072016495416,179.08876836277497,False,3.138781123983839,True,False
10,1970-07-23 11:28:50.216286437,2025-09-16,2025-09-26 20:03:41.628,AH,C,1350046792,JASSM,3,104,76,2,2,1,225,9,2,0,1,26,0,0,0,0,-179412.37536795562,-4778475.653291549,4211180.659636021,-2.36693,-0.400752,0.381194,76.0,-32.125,-33.0,0.0,0.0,0.0,0.0,0.0,0.0,2,0,41.55997269938457,-92.15021407757068,10000.00158329878,119.81211919892864,-0.0021864385967967,0.0024891008013362,,8959.781364859911,11075.263430171775,150,10,2025-09-16,2025-09-26 20:03:41.633,AH,C,4238102470,AMBUSH51,1,1,48,2,1,1,225,2,1,0,0,9,1,225,2,1,-147326.93075156538,-4791388.586756203,4197357.406827771,2.47623,2.78178,-0.389027,-84.8515,39.1661,42.7609,-0.207407,-7.48345,6.63366,-0.0305067,0.0050548,0.0124513,4,0,41.396365422590335,-91.76119144383208,8992.479817838734,-61.15627242919966,1.518663957718429,7.124802262861393,167.982,8959.781364859911,11075.263430171775,150,True,20.03507415323206,False,176.72792623587384,179.0796203936328,False,3.838339628345421,True,False
10,1970-07-23 11:28:50.226308009,2025-09-16,2025-09-26 20:03:42.630,AH,C,1351240596,JASSM,3,104,76,2,2,1,225,9,2,0,1,26,0,0,0,0,-179336.24450858062,-4778507.913057174,4211147.520964146,-2.36693,-0.400657,0.381194,76.0,-32.125,-33.0,0.0,0.0,0.0,0.0,0.0,0.0,2,0,41.55957413142992,-92.14928802710112,10000.00397483012,119.80908948813416,-0.0049535000403143,0.0004443571116252,,8959.781364859911,11075.263430171775,150,10,2025-09-16,2025-09-26 20:03:42.633,AH,C,4239295468,AMBUSH51,1,1,48,2,1,1,225,2,1,0,0,9,1,225,2,1,-147411.96025575016,-4791348.498834811,4197400.638370702,2.44491,2.76671,-0.406542,-84.0125,39.6851,43.4654,-0.247182,-7.44335,6.77157,-0.0425284,0.00155524,0.0119062,4,0,41.396880211323634,-91.76222200658066,8994.090056838642,-59.883724027702655,1.664063897961901,5.03091205758789,167.811,8959.781364859911,11075.263430171775,150,True,19.93174049918726,False,176.07150227876065,179.06869494834365,False,4.519449982691824,True,False
10,1970-07-23 11:28:50.236347344,2025-09-16,2025-09-26 20:03:43.634,AH,C,1352433668,JASSM,3,104,76,2,2,1,225,9,2,0,1,26,0,0,0,0,-179260.16052420562,-4778540.151338424,4211114.399870396,-2.36693,-0.400657,0.381194,76.0,-32.125,-33.0,0.0,0.0,0.0,0.0,0.0,0.0,2,0,41.55917579204596,-92.14836255891365,10000.000310051226,119.80970343997704,-0.0041546089369159,0.0004429768616563,,8959.781364859911,11075.263430171775,150,10,2025-09-16,2025-09-26 20:03:43.632,AH,C,4240488468,AMBUSH51,1,1,48,2,1,1,225,2,1,0,0,9,1,225,2,1,-147495.32312642384,-4791308.588208126,4197444.143771897,2.37627,2.76204,-0.414358,-83.3586,39.8818,43.8963,-0.0304049,-7.1997,6.52147,-0.0959602,-1.97656e-05,-0.00191935,4,0,41.39739609014093,-91.76323260903784,8996.609870501841,-59.39395870565376,1.808722681759652,1.0058878709517594,167.542,8959.781364859911,11075.263430171775,150,True,19.829185922138997,False,175.6472192469666,179.05683021339718,False,4.956473596137122,True,False
10,1970-07-23 11:28:50.246387745,2025-09-16,2025-09-26 20:03:44.638,AH,C,1353626814,JASSM,3,104,76,2,2,1,225,9,2,0,1,26,0,0,0,0,-179184.07263358062,-4778572.391572799,4211081.276823521,-2.36693,-0.400657,0.381194,76.0,-32.125,-33.0,0.0,0.0,0.0,0.0,0.0,0.0,2,0,41.55877742125505,-92.1474370544442,10000.000898926386,119.81031741105532,-0.0033556749454073,0.0004415935395704,,8959.781364859911,11075.263430171775,150,10,2025-09-16,2025-09-26 20:03:44.566,AH,C,4241601932,AMBUSH51,1,1,48,2,1,1,225,2,1,0,0,9,1,225,2,1,-147572.77160947048,-4791271.083849894,4197485.081581803,2.31192,2.76096,-0.412909,-83.1578,40.0027,43.7635,-0.0128289,-7.29821,6.56663,-0.0410865,0.00135759,-0.00104342,4,0,41.39788139450815,-91.7641716823718,8999.035562872383,-59.41329491973007,1.7110361671202947,-2.706239649462392,167.175,8959.781364859911,11075.263430171775,150,True,19.730327833730158,False,175.61347876321912,179.04479277452964,False,5.021939286710136,True,False
10,1970-07-23 11:28:50.256284834,2025-09-16,2025-09-26 20:03:45.628,AH,C,1354879924,JASSM,3,104,76,2,2,1,225,9,2,0,1,26,0,0,0,0,-179104.15954764312,-4778606.250947799,4211046.489714146,-2.36693,-0.400657,0.381194,76.0,-32.125,-33.0,0.0,0.0,0.0,0.0,0.0,0.0,2,0,41.55835903273104,-92.14646503473335,10000.0042610621,119.81096223470746,-0.002516585104714,0.0004401557687782,,8959.781364859911,11075.263430171775,150,10,2025-09-16,2025-09-26 20:03:45.433,AH,C,4242635864,AMBUSH51,1,1,48,2,1,1,225,2,1,0,0,9,1,225,2,1,-147644.79287519638,-4791236.573035521,4197522.833552355,2.28418,2.76527,-0.404938,-83.2817,39.6648,43.5396,-0.0577793,-7.02596,6.46632,-0.034697,0.00354637,-0.0088831,4,0,41.398328369308125,-91.76504482777158,9001.50634537959,-59.89661221467541,1.5477819879488706,-4.211396557118428,167.09,8959.781364859911,11075.263430171775,150,True,19.63277247302495,False,175.8157021399091,179.03366510563393,False,4.819820368379929,True,False
10,1970-07-23 11:28:50.267306863,2025-09-16,2025-09-26 20:03:46.730,AH,C,1356132726,JASSM,3,104,76,2,2,1,225,9,2,0,1,26,0,0,0,0,-179024.26696951812,-4778640.100557174,4211011.708464146,-2.36684,-0.400657,0.38129,76.0,-32.125,-33.0,0.0,0.0,0.0,0.0,0.0,0.0,2,0,41.55794072909487,-92.14549327748502,10000.00279528926,119.81544918146488,-0.0056034818778996,0.0059299337492588,,8959.781364859911,11075.263430171775,150,10,2025-09-16,2025-09-26 20:03:46.766,AH,C,4244226530,AMBUSH51,1,1,48,2,1,1,225,2,1,0,0,9,1,225,2,1,-147755.86081557273,-4791184.008869692,4197580.054610406,2.28045,2.77759,-0.395225,-83.6331,39.2612,42.6805,-0.117283,-7.01508,6.61385,0.0273442,0.00250192,-0.00386679,4,0,41.39900701291242,-91.76639113417464,9004.774321580839,-60.75093969871012,1.6157783753448327,-4.173575840667037,166.821,8959.781364859911,11075.263430171775,150,True,19.50990289737737,False,176.3688756458108,179.0186394714239,False,4.2988982756903615,True,False
10,1970-07-23 11:28:50.277347836,2025-09-16,2025-09-26 20:03:47.734,AH,C,1357383564,JASSM,3,104,76,2,2,1,225,9,2,0,1,26,0,0,0,0,-178944.49841483062,-4778673.895479049,4210976.979948521,-2.36684,-0.400657,0.38129,76.0,-32.125,-33.0,0.0,0.0,0.0,0.0,0.0,0.0,2,0,41.55752307088802,-92.14452304223302,9999.997820636292,119.81609281078788,-0.0047659054031553,0.0059285455252476,,8959.781364859911,11075.263430171775,150,10,2025-09-16,2025-09-26 20:03:47.633,AH,C,4245260462,AMBUSH51,1,1,48,2,1,1,225,2,1,0,0,9,1,225,2,1,-147828.3958748302,-4791150.163030995,4197616.679963928,2.28413,2.78223,-0.39114,-83.8909,38.858,42.369,-0.326651,-7.15645,6.77161,0.00611591,-0.00514635,-0.0193131,4,0,41.39944231431916,-91.76727020266,9006.485654066699,-61.09089778259915,1.6260916911575771,-3.870346538950906,166.466,8959.781364859911,11075.263430171775,150,True,19.41254968835602,False,176.6622632007376,179.00850692129444,False,3.9989396860063593,True,False
10,1970-07-23 11:28:50.288366666,2025-09-16,2025-09-26 20:03:48.836,AH,C,1358637210,JASSM,3,104,76,2,2,1,225,9,2,0,1,26,0,0,0,0,-178864.55212576812,-4778707.766572799,4210942.175261021,-2.36684,-0.400657,0.38129,76.0,-32.125,-33.0,0.0,0.0,0.0,0.0,0.0,0.0,2,0,41.55710447676892,-92.14355065731812,10000.002095122883,119.8167378608119,-0.0039264638427932,0.005927156857537,,8959.781364859911,11075.263430171775,150,10,2025-09-16,2025-09-26 20:03:48.833,AH,C,4246692060,AMBUSH51,1,1,48,2,1,1,225,2,1,0,0,9,1,225,2,1,-147928.35202759103,-4791104.351042097,4197666.985357459,2.32453,2.78867,-0.387745,-84.0368,36.317,44.1969,-0.0274988,-6.91294,6.631,0.0627122,0.00163431,-0.000358903,4,0,41.400036115159615,-91.76848130668309,9010.529731934132,-61.47023097099813,1.7331471093286217,-1.4267350458570436,166.735,8959.781364859911,11075.263430171775,150,True,19.29743164802648,False,176.00688738922838,178.99656137640707,False,4.287899522473963,True,False
10,1970-07-23 11:28:50.299387706,2025-09-16,2025-09-26 20:03:49.938,AH,C,1359949794,JASSM,3,104,76,2,2,1,225,9,2,0,1,26,0,0,0,0,-178780.84607108062,-4778743.227510299,4210905.731901646,-2.36684,-0.400657,0.38129,76.0,-32.125,-33.0,0.0,0.0,0.0,0.0,0.0,0.0,2,0,41.55666619370425,-92.14253255728076,9999.999826267633,119.8174132311129,-0.0030475482008971,0.0059257073762979,,8959.781364859911,11075.263430171775,150,10,2025-09-16,2025-09-26 20:03:50.134,AH,C,4248242960,AMBUSH51,1,1,48,2,1,1,225,2,1,0,0,9,1,225,2,1,-148037.65629082613,-4791053.559859166,4197720.693107887,2.37054,2.78935,-0.387079,-84.2469,38.7855,41.8388,-0.0715099,-7.01357,6.86994,0.0686149,-0.00401867,0.00948439,4,0,41.40068077588128,-91.76980595689348,9010.42604896496,-61.52365192693967,1.7332290259482623,1.2221233054682064,166.65,8959.781364859911,11075.263430171775,150,True,19.17401136450534,False,177.01289366845006,178.9825347341526,False,3.7046503056797047,True,False
10,1970-07-23 11:28:50.310408163,2025-09-16,2025-09-26 20:03:51.040,AH,C,1361262920,JASSM,3,104,76,2,2,1,225,9,2,0,1,26,0,0,0,0,-178697.10583670562,-4778778.704072799,4210869.270964146,-2.36684,-0.400657,0.38129,76.0,-32.125,-33.0,0.0,0.0,0.0,0.0,0.0,0.0,2,0,41.55622769762652,-92.14151405477442,9999.999428209718,119.81808886254434,-0.0021682608421077,0.0059242357680311,,8959.781364859911,11075.263430171775,150,10,2025-09-16,2025-09-26 20:03:51.034,AH,C,4249316658,AMBUSH51,1,1,48,2,1,1,225,2,1,0,0,9,1,225,2,1,-148113.68709882384,-4791018.2080612425,4197758.614299164,2.42608,2.78733,-0.390713,-84.0643,39.0371,42.2383,-0.230996,-6.93891,6.7325,0.0360265,0.00195472,0.000477496,4,0,41.40113311527862,-91.7707273921649,9011.525894941584,-61.30075605183843,1.8041012715650624,4.367315497250655,167.004,8959.781364859911,11075.263430171775,150,True,19.07200209801806,False,176.73541380213794,178.9716152522047,False,3.9922561219229813,True,False
10,1970-07-23 11:28:50.321266396,2025-09-16,2025-09-26 20:03:52.126,AH,C,1362633256,JASSM,3,104,76,2,2,1,225,9,2,0,1,26,0,0,0,0,-178609.71716483062,-4778815.723604049,4210831.222136021,-2.36684,-0.400561,0.38129,76.0,-32.125,-33.0,0.0,0.0,0.0,0.0,0.0,0.0,2,0,41.55577010776591,-92.14045119351404,9999.999100404328,119.8151501278478,-0.0048171094765564,0.0038787979478912,,8959.781364859911,11075.263430171775,150,10,2025-09-16,2025-09-26 20:03:52.199,AH,C,4250708490,AMBUSH51,1,1,48,2,1,1,225,2,1,0,0,9,1,225,2,1,-148210.78097084083,-4790972.074370232,4197807.820392745,2.45653,2.77673,-0.398233,-83.6549,39.8947,42.9467,-0.115023,-6.9354,6.71124,0.00965084,-0.0023854,0.0166562,4,0,41.40172189847774,-91.77190447937971,9012.19710884692,-60.600552328951,1.7102460359911826,5.899878170398742,167.053,8959.781364859911,11075.263430171775,150,True,18.95368615152617,False,176.12626853525785,178.9565705214675,False,4.647259385716441,True,False
10,1970-07-23 11:28:50.332307362,2025-09-16,2025-09-26 20:03:53.230,AH,C,1363887252,JASSM,3,104,76,2,2,1,225,9,2,0,1,26,0,0,0,0,-178529.74841483062,-4778849.598604049,4210796.403776646,-2.36684,-0.400561,0.38129,76.0,-32.125,-33.0,0.0,0.0,0.0,0.0,0.0,0.0,2,0,41.55535136871941,-92.1394785904827,9999.99997411204,119.8157953003005,-0.0039774371424931,0.0038773606930577,,8959.781364859911,11075.263430171775,150,10,2025-09-16,2025-09-26 20:03:53.032,AH,C,4251702656,AMBUSH51,1,1,48,2,1,1,225,2,1,0,0,9,1,225,2,1,-148280.09045387825,-4790938.513044541,4197843.425465547,2.4414,2.76669,-0.404639,-83.2906,40.6503,43.2529,-0.0411827,-6.64267,6.69583,-0.0395677,-0.00374403,0.0121538,4,0,41.40214917068439,-91.77274497687776,9012.173885025297,-59.96677704887898,1.5953741344918524,4.826793011076682,167.224,8959.781364859911,11075.263430171775,150,True,18.85795599765584,False,175.70377948938525,178.94401114085878,False,5.118359695909602,True,False
10,1970-07-23 11:28:50.343331126,2025-09-16,2025-09-26 20:03:54.333,AH,C,1365258088,JASSM,3,104,76,2,2,1,225,9,2,0,1,26,0,0,0,0,-178442.32751639312,-4778886.629854049,4210758.337370396,-2.36684,-0.400561,0.38129,76.0,-32.125,-33.0,0.0,0.0,0.0,0.0,0.0,0.0,2,0,41.55489357886641,-92.13841536685896,9999.997478268291,119.8165005794631,-0.0030595074389632,0.0038757722014355,,8959.781364859911,11075.263430171775,150,10,2025-09-16,2025-09-26 20:03:54.300,AH,C,4253213788,AMBUSH51,1,1,48,2,1,1,225,2,1,0,0,9,1,225,2,1,-148384.98238573613,-4790886.614643905,4197898.260864638,2.36771,2.75918,-0.412648,-83.0143,41.1993,43.7128,-0.144646,-6.8985,6.91115,-0.0789201,0.00821523,-0.00631773,4,0,41.40280879486146,-91.77401740384722,9011.486329155165,-59.36377010628377,1.6432082965285215,0.4504260945954653,167.578,8959.781364859911,11075.263430171775,150,True,18.733812002177476,False,175.29814722040302,178.92411642322432,False,5.555550092661113,True,False
10,1970-07-23 11:28:50.355345546,2025-09-16,2025-09-26 20:03:55.534,AH,C,1366629772,JASSM,3,104,76,2,2,1,225,9,2,0,1,26,0,0,0,0,-178354.85290701812,-4778923.682588424,4210720.249479771,-2.36684,-0.400561,0.38129,76.0,-32.125,-33.0,0.0,0.0,0.0,0.0,0.0,0.0,2,0,41.55443551825304,-92.13735150558058,10000.001395139836,119.8172062752188,-0.0021410241920234,0.0038742001619391,,8959.781364859911,11075.263430171775,150,10,2025-09-16,2025-09-26 20:03:55.566,AH,C,4254724918,AMBUSH51,1,1,48,2,1,1,225,2,1,0,0,9,1,225,2,1,-148490.85528689,-4790833.828028462,4197953.782429284,2.27478,2.76069,-0.403081,-83.4132,41.4067,43.5058,-0.0742869,-6.98321,6.78254,-0.0782917,-0.00773461,-0.0118209,4,0,41.40347814053814,-91.77530190616238,9010.186266849214,-59.80740748623894,1.3114573027754113,-4.8513885682309255,168.031,8959.781364859911,11075.263430171775,150,True,18.6088793507082,False,175.4458384912288,178.90304319588628,False,5.452113474919227,True,False
10,1970-07-23 11:28:50.365385350,2025-09-16,2025-09-26 20:03:56.538,AH,C,1367884554,JASSM,3,104,76,2,2,1,225,9,2,0,1,26,0,0,0,0,-178274.83337576812,-4778957.577119674,4210685.403776646,-2.36684,-0.400561,0.381386,76.0,-32.125,-33.0,0.0,0.0,0.0,0.0,0.0,0.0,2,0,41.55401646353322,-92.13637832586066,10000.00037069414,119.82169425669888,-0.0052264475131376,0.0038725223488792,,8959.781364859911,11075.263430171775,150,10,2025-09-16,2025-09-26 20:03:56.466,AH,C,4255798618,AMBUSH51,1,1,48,2,1,1,225,2,1,0,0,9,1,225,2,1,-148565.71699372257,-4790796.854787416,4197992.538512822,2.24638,2.76893,-0.394808,-83.9206,41.063,43.1492,0.0114914,-6.95932,6.61519,-0.0116045,-0.00600772,-0.0125741,4,0,41.40394593410158,-91.77621005106352,9009.046554652128,-60.45111180989887,1.2837653998180305,-6.309709841398605,168.47,8959.781364859911,11075.263430171775,150,True,18.50928288111245,False,175.8333825806294,178.88782143086286,False,5.0805970708560215,True,False
10,1970-07-23 11:28:50.376246364,2025-09-16,2025-09-26 20:03:57.624,AH,C,1369196404,JASSM,3,104,76,2,2,1,225,9,2,0,1,26,0,0,0,0,-178191.17419608062,-4778993.010713424,4210648.974089146,-2.36684,-0.400561,0.381386,76.0,-32.125,-33.0,0.0,0.0,0.0,0.0,0.0,0.0,2,0,41.55357836150094,-92.13536089615538,9999.99978295563,119.82236914132596,-0.0043480254031474,0.0038710745894298,,8959.781364859911,11075.263430171775,150,10,2025-09-16,2025-09-26 20:03:57.732,AH,C,4257309750,AMBUSH51,1,1,48,2,1,1,225,2,1,0,0,9,1,225,2,1,-148672.76202748687,-4790745.005495273,4198046.534150106,2.22647,2.78262,-0.380037,-84.8183,40.4511,42.3391,-0.107191,-6.91023,6.78055,-0.00914942,0.000213261,-0.0108826,4,0,41.404599161296,-91.7775082558518,9006.845354863748,-61.56430735672883,1.2022426298796256,-7.178356760732539,168.739,8959.781364859911,11075.263430171775,150,True,18.38668557475343,False,176.58222894105148,178.86879545052753,False,4.361509443803136,True,False
10,1970-07-23 11:28:50.387285011,2025-09-16,2025-09-26 20:03:58.728,AH,C,1370507832,JASSM,3,104,76,2,2,1,225,9,2,0,1,26,0,0,0,0,-178107.54138358062,-4779028.432588424,4210612.554167271,-2.36684,-0.400561,0.381386,76.0,-32.125,-33.0,0.0,0.0,0.0,0.0,0.0,0.0,2,0,41.55314038024576,-92.1343438010967,9999.999030243467,119.82304379813348,-0.0034698761285945,0.0038696199807846,,8959.781364859911,11075.263430171775,150,10,2025-09-16,2025-09-26 20:03:58.866,AH,C,4258661814,AMBUSH51,1,1,48,2,1,1,225,2,1,0,0,9,1,225,2,1,-148769.12870113077,-4790699.632813245,4198094.303263933,2.22608,2.79509,-0.370624,-85.4637,38.0071,43.7549,-0.266665,-7.06952,6.95404,0.0160299,0.00687741,-0.0125054,4,0,41.40517378101868,-91.77867649572973,9006.256400794382,-62.41618330377527,1.2977157131227326,-6.957296026706511,168.837,8959.781364859911,11075.263430171775,150,True,18.27149808848143,False,176.5868377337327,178.85322672417982,False,4.03059415685095,True,False
10,1970-07-23 11:28:50.398289229,2025-09-16,2025-09-26 20:03:59.828,AH,C,1371819426,JASSM,3,104,76,2,2,1,225,9,2,0,1,26,0,0,0,0,-178023.89880545562,-4779063.856416549,4210576.130339146,-2.36684,-0.400561,0.381386,76.0,-32.125,-33.0,0.0,0.0,0.0,0.0,0.0,0.0,2,0,41.55270235417285,-92.1333266019814,9999.998596729296,119.8237185181214,-0.0025916325162906,0.0038681781225651,,8959.781364859911,11075.263430171775,150,10,2025-09-16,2025-09-26 20:03:59.799,AH,C,4259775280,AMBUSH51,1,1,48,2,1,1,225,2,1,0,0,9,1,225,2,1,-148848.8581712664,-4790662.467072904,4198132.262311529,2.26753,2.79559,-0.361021,-86.2337,39.4073,41.2124,-0.274966,-7.08668,6.77155,0.0397362,-0.00325509,-0.0170515,4,0,41.40563641306368,-91.77964292200598,9003.301781243517,-62.82805028725318,0.931935380837232,-4.580158296754584,169.008,8959.781364859911,11075.263430171775,150,True,18.167490147910964,False,177.724238419534,178.84052102211066,False,3.251917468275102,True,False
10,1970-07-23 11:28:50.409306364,2025-09-16,2025-09-26 20:04:00.930,AH,C,1373131804,JASSM,3,104,76,2,2,1,225,9,2,0,1,26,0,0,0,0,-177940.20642264312,-4779099.301729049,4210539.683073521,-2.36684,-0.400465,0.381386,76.0,-32.125,-33.0,0.0,0.0,0.0,0.0,0.0,0.0,2,0,41.55226404412544,-92.13230881075025,10000.0002429245,119.8207501074771,-0.0052792867531914,0.0018223443540018,,8959.781364859911,11075.263430171775,150,10,2025-09-16,2025-09-26 20:04:00.999,AH,C,4261206878,AMBUSH51,1,1,48,2,1,1,225,2,1,0,0,9,1,225,2,1,-148952.54537209112,-4790615.019294761,4198181.426737606,2.35776,2.79504,-0.359201,-86.6241,39.2338,41.0897,-0.28669,-7.18566,6.66751,0.0909126,0.00121195,0.00374195,4,0,41.40623142218541,-91.78089943938768,9001.20927709101,-62.88230457728809,0.8386327400891005,0.5774873818813513,168.788,8959.781364859911,11075.263430171775,150,True,18.048207173170294,False,177.93492444167052,178.82623271990164,False,3.050390157451209,True,False
10,1970-07-23 11:28:50.420348469,2025-09-16,2025-09-26 20:04:02.034,AH,C,1374386110,JASSM,3,104,76,2,2,1,225,9,2,0,1,26,0,0,0,0,-177860.21618826812,-4779133.178682174,4210504.847136021,-2.36684,-0.400465,0.381386,76.0,-32.125,-33.0,0.0,0.0,0.0,0.0,0.0,0.0,2,0,41.55184511069601,-92.1313360547506,10000.003358647771,119.82139533686718,-0.0044393840498343,0.0018208970844122,,8959.781364859911,11075.263430171775,150,10,2025-09-16,2025-09-26 20:04:02.233,AH,C,4262678244,AMBUSH51,1,1,48,2,1,1,225,2,1,0,0,9,1,225,2,1,-149059.88043289704,-4790565.852927247,4198232.432690769,2.41262,2.78713,-0.362222,-86.5519,39.5892,41.6406,0.0658059,-7.04604,6.6466,0.0221823,-0.00193807,0.00232506,4,0,41.40684839860805,-91.7822002055458,8999.172940531169,-62.46228655431761,0.6593790637295687,3.5663289545971777,168.605,8959.781364859911,11075.263430171775,150,True,17.92887554118256,False,177.60966436376987,178.81140268345737,False,3.3763579968984283,True,False
10,1970-07-23 11:28:50.431368596,2025-09-16,2025-09-26 20:04:03.136,AH,C,1375696826,JASSM,3,104,76,2,2,1,225,9,2,0,1,26,0,0,0,0,-177776.62927420562,-4779168.575166549,4210468.442839146,-2.36684,-0.400465,0.381386,76.0,-32.125,-33.0,0.0,0.0,0.0,0.0,0.0,0.0,2,0,41.55140734021748,-92.13031957483922,9999.997971985382,119.82206956263283,-0.0035617213045955,0.0018193916272026,,8959.781364859911,11075.263430171775,150,10,2025-09-16,2025-09-26 20:04:03.299,AH,C,4263950776,AMBUSH51,1,1,48,2,1,1,225,2,1,0,0,9,1,225,2,1,-149151.00855307706,-4790523.542145348,4198276.631176651,2.41391,2.77676,-0.375634,-86.1778,39.98,42.2498,-0.242664,-7.39449,6.96449,-0.0335402,-0.00188398,0.000194536,4,0,41.4073816203862,-91.78330479484237,8997.993380373413,-61.527001527882696,0.8080492820527052,3.437873335807246,168.788,8959.781364859911,11075.263430171775,150,True,17.817423530701074,False,177.16301810802545,178.79683084967056,False,3.8256234913975025,True,False
10,1970-07-23 11:28:50.443105723,2025-09-16,2025-09-26 20:04:04.310,AH,C,1376951616,JASSM,3,104,76,2,2,1,225,9,2,0,1,26,0,0,0,0,-177696.60876639312,-4779202.461885299,4210433.591276646,-2.36684,-0.400465,0.381386,76.0,-32.125,-33.0,0.0,0.0,0.0,0.0,0.0,0.0,2,0,41.55098823312749,-92.1293464777458,9999.99748939344,119.82271500733732,-0.0027215023756487,0.001817944781782,,8959.781364859911,11075.263430171775,150,10,2025-09-16,2025-09-26 20:04:04.132,AH,C,4264944942,AMBUSH51,1,1,48,2,1,1,225,2,1,0,0,9,1,225,2,1,-149222.77121868957,-4790489.953460298,4198311.90040908,2.37491,2.77786,-0.376164,-86.0916,40.31,42.5866,-0.235974,-7.42043,6.65974,-0.0877397,-0.000352661,-0.00989843,4,0,41.40780625028269,-91.78417476310338,8997.411853018213,-61.54758560355019,0.871949077324333,1.2262090954765532,168.739,8959.781364859911,11075.263430171775,150,True,17.72058723666308,False,176.92462418027716,178.78402470812534,False,4.080560944287837,True,False
10,1970-07-23 11:28:50.452264155,2025-09-16,2025-09-26 20:04:05.226,AH,C,1378263546,JASSM,3,104,76,2,2,1,225,9,2,0,1,26,0,0,0,0,-177612.94470389312,-4779237.891572799,4210397.153776646,-2.36684,-0.400465,0.381386,76.0,-32.125,-33.0,0.0,0.0,0.0,0.0,0.0,0.0,2,0,41.550550040420255,-92.12832908629088,10000.003901522074,119.82338982629037,-0.0018430290345509,0.0018164375077885,,8959.781364859911,11075.263430171775,150,10,2025-09-16,2025-09-26 20:04:04.999,AH,C,4265978874,AMBUSH51,1,1,48,2,1,1,225,2,1,0,0,9,1,225,2,1,-149297.24840733438,-4790454.908031497,4198348.886415474,2.31433,2.77478,-0.375929,-86.1269,40.2557,42.8075,-0.00387332,-6.85031,6.5029,-0.0452311,-0.00525454,0.00134719,4,0,41.40825062643018,-91.7850777205001,8997.184838470663,-61.44177978647782,0.746800599966427,-2.3083795602540844,168.483,8959.781364859911,11075.263430171775,150,True,17.619590404043855,False,176.86427874644895,178.7701339255937,False,4.135680475420472,True,False
10,1970-07-23 11:28:50.464301384,2025-09-16,2025-09-26 20:04:06.430,AH,C,1379634490,JASSM,3,104,76,2,2,1,225,9,2,0,1,26,0,0,0,0,-177525.51696951812,-4779274.911104049,4210359.073698521,-2.36684,-0.400465,0.381482,76.0,-32.125,-33.0,0.0,0.0,0.0,0.0,0.0,0.0,2,0,41.55009212644728,-92.12726594339829,9999.998661747712,119.82793756967664,-0.0048505406645118,0.0018146686778954,,8959.781364859911,11075.263430171775,150,10,2025-09-16,2025-09-26 20:04:06.267,AH,C,4267490006,AMBUSH51,1,1,48,2,1,1,225,2,1,0,0,9,1,225,2,1,-149406.5934067631,-4790403.542195544,4198402.883311413,2.26731,2.78142,-0.373784,-86.3911,40.2531,42.2174,-0.239024,-7.171,6.7811,-0.0497938,0.00672968,-0.0222031,4,0,41.40890045899612,-91.78640340335278,8996.411086579072,-61.77953774873434,0.9123890559675232,-4.868212990579754,168.299,8959.781364859911,11075.263430171775,150,True,17.493650339437874,False,177.16929904388633,178.75128360753726,False,3.8929706456068702,True,False
10,1970-07-23 11:28:50.475301657,2025-09-16,2025-09-26 20:04:07.530,AH,C,1380948530,JASSM,3,104,76,2,2,1,225,9,2,0,1,26,0,0,0,0,-177441.71716483062,-4779310.395479049,4210322.573698521,-2.36684,-0.400465,0.381482,76.0,-32.125,-33.0,0.0,0.0,0.0,0.0,0.0,0.0,2,0,41.54965319817922,-92.12624693065943,10000.000956031006,119.8286134521205,-0.003970639568618,0.001813212138748,,8959.781364859911,11075.263430171775,150,10,2025-09-16,2025-09-26 20:04:07.434,AH,C,4268881838,AMBUSH51,1,1,48,2,1,1,225,2,1,0,0,9,1,225,2,1,-149506.98193396593,-4790356.953888179,4198451.396057907,2.24683,2.78426,-0.36957,-86.9296,39.925,41.5339,-0.105323,-7.11519,6.73164,0.0038543,-0.00125564,-0.00443271,4,0,41.40948649420354,-91.78762030996565,8994.80787868594,-62.05856800269201,0.8512077402550956,-5.98676972783786,167.945,8959.781364859911,11075.263430171775,150,True,17.376119427249417,False,177.67309239518877,178.73475490204785,False,3.4342880520519783,True,False
10,1970-07-23 11:28:50.527279919,2025-09-16,2025-09-26 20:04:12.727,AH,C,1387151334,JASSM,3,104,76,2,2,1,225,9,2,0,1,26,0,0,0,0,-177046.15075858062,-4779477.875947799,4210150.267057896,-2.36674,-0.400369,0.381482,76.0,-32.125,-33.0,0.0,0.0,0.0,0.0,0.0,0.0,2,0,41.54758119639006,-92.12143700415449,10000.003470922868,119.82816041252624,-0.0033836169045892,0.0052528395825381,,8959.781364859911,11075.263430171775,150,10,2025-09-16,2025-09-26 20:04:12.734,AH,C,4275204730,AMBUSH51,1,1,48,2,1,1,225,2,1,0,0,9,1,225,2,1,-149970.96367966512,-4790148.241217701,4198666.119548832,2.35119,2.79877,-0.362704,-87.4895,39.0892,40.7869,-0.239119,-7.52263,6.81617,-0.047888,0.0029222,0.0135478,4,0,41.41209146237839,-91.79324249519252,8983.149348283201,-62.8874826717748,1.132969310729793,0.2758853521502195,168.703,8959.781364859911,11075.263430171775,150,True,16.83081471784491,False,178.34676059788893,178.66863904424653,False,2.818979080388205,True,False
10,1970-07-23 11:28:50.536365447,2025-09-16,2025-09-26 20:04:13.636,AH,C,1388284850,JASSM,3,104,76,2,2,1,225,9,2,0,1,26,0,0,0,0,-176973.86364920562,-4779508.477510299,4210118.776823521,-2.36674,-0.400369,0.381482,76.0,-32.125,-33.0,0.0,0.0,0.0,0.0,0.0,0.0,2,0,41.54720254036577,-92.12055805745722,9999.99998696967,119.8287433646002,-0.0026246090208057,0.0052515464124184,,8959.781364859911,11075.263430171775,150,10,2025-09-16,2025-09-26 20:04:13.636,AH,C,4276278430,AMBUSH51,1,1,48,2,1,1,225,2,1,0,0,9,1,225,2,1,-150049.56575153104,-4790113.089844758,4198702.848162051,2.31535,2.80365,-0.368167,-87.3581,38.7799,40.9663,0.025521,-7.80636,6.85453,-0.0105601,0.0255424,0.00488836,4,0,41.412533891585774,-91.79419490450027,8982.4624862698,-62.84703476481412,1.5392996456398562,-1.6771792710131097,168.654,8959.781364859911,11075.263430171775,150,True,16.73508783413336,False,178.30906858169826,178.65693635024115,False,2.8073938211607063,True,False
10,1970-07-23 11:28:50.546381023,2025-09-16,2025-09-26 20:04:14.638,AH,C,1389417608,JASSM,3,104,76,2,2,1,225,9,2,0,1,26,0,0,0,0,-176901.62536795562,-4779539.059541549,4210087.306120396,-2.36674,-0.400369,0.381482,76.0,-32.125,-33.0,0.0,0.0,0.0,0.0,0.0,0.0,2,0,41.54682411486523,-92.11967971420772,9999.999187917489,119.82932591208426,-0.0018661042413072,0.0052502382147048,,8959.781364859911,11075.263430171775,150,10,2025-09-16,2025-09-26 20:04:14.602,AH,C,4277431662,AMBUSH51,1,1,48,2,1,1,225,2,1,0,0,9,1,225,2,1,-150134.76016400038,-4790075.598662866,4198742.981337124,2.36715,2.80955,-0.368372,-87.3128,38.0931,41.4933,-0.0770072,-7.34009,6.80668,0.125294,0.000452529,-0.00852316,4,0,41.41301198633268,-91.79522697901774,8983.92261998449,-63.05954128844016,1.7741996840909309,1.4060935488054132,168.519,8959.781364859911,11075.263430171775,150,True,16.63522526194538,False,178.15931144069506,178.64528877303036,False,2.7861393874012204,True,False
10,1970-07-23 11:28:50.555260101,2025-09-16,2025-09-26 20:04:15.526,AH,C,1390550832,JASSM,3,104,76,2,2,1,225,9,2,0,1,26,0,0,0,0,-176829.35681326812,-4779569.653291549,4210055.821745396,-2.36674,-0.400369,0.381482,76.0,-32.125,-33.0,0.0,0.0,0.0,0.0,0.0,0.0,2,0,41.54644552732864,-92.1188010136003,9999.99831747307,119.82990869221858,-0.0011072834923911,0.0052489321139961,,8959.781364859911,11075.263430171775,150,10,2025-09-16,2025-09-26 20:04:15.568,AH,C,4278584894,AMBUSH51,1,1,48,2,1,1,225,2,1,0,0,9,1,225,2,1,-150218.70274235893,-4790038.204078208,4198783.00606019,2.53053,2.8058,-0.375819,-86.8985,39.0152,41.9249,-0.313288,-7.01053,7.01963,0.19663,0.00276199,0.0276022,4,0,41.41348899850154,-91.79624407329264,8985.293679145328,-62.61476758059828,1.9295118451941464,10.703603311574469,168.031,8959.781364859911,11075.263430171775,150,False,16.53596446116161,False,177.72172288886702,178.63267988021045,False,3.35414335477397,True,False
10,1970-07-23 11:28:50.565301388,2025-09-16,2025-09-26 20:04:16.530,AH,C,1391685830,JASSM,3,104,76,2,2,1,225,9,2,0,1,26,0,0,0,0,-176756.97497733062,-4779600.293916549,4210024.288542271,-2.36674,-0.400369,0.381578,76.0,-32.125,-33.0,0.0,0.0,0.0,0.0,0.0,0.0,2,0,41.5460663495739,-92.1179209463806,9999.99961598672,119.83433509990616,-0.0042726425634688,0.0052474774864579,,8959.781364859911,11075.263430171775,150,10,2025-09-16,2025-09-26 20:04:16.534,AH,C,4279738126,AMBUSH51,1,1,48,2,1,1,225,2,1,0,0,9,1,225,2,1,-150301.27495671168,-4790000.155263731,4198823.449429782,2.6822,2.78062,-0.403174,-85.9103,40.3361,43.6255,-0.2736,-7.15837,7.22797,0.109214,0.0128903,0.0372666,4,0,41.41397297621979,-91.79724505208796,8985.86380788184,-60.56109141108456,2.077978139107124,18.917287420437003,168.434,8959.781364859911,11075.263430171775,150,False,16.437065456341216,False,176.4558195361483,178.6175511418643,False,4.651366677162403,True,False
10,1970-07-23 11:28:50.574339579,2025-09-16,2025-09-26 20:04:17.433,AH,C,1392819434,JASSM,3,104,76,2,2,1,225,9,2,0,1,26,0,0,0,0,-176684.68200858062,-4779630.895479049,4209992.792448521,-2.36674,-0.400369,0.381578,76.0,-32.125,-33.0,0.0,0.0,0.0,0.0,0.0,0.0,2,0,41.545687628402696,-92.11704197057172,9999.997556336835,119.8349180539121,-0.0035135698640078,0.005246228108205,,8959.781364859911,11075.263430171775,150,10,2025-09-16,2025-09-26 20:04:17.300,AH,C,4280652758,AMBUSH51,1,1,48,2,1,1,225,2,1,0,0,9,1,225,2,1,-150366.6409268027,-4789968.260033157,4198857.310519991,2.7785,2.74373,-0.433343,-84.4825,42.0998,45.3249,-0.229863,-7.22447,7.29176,0.112809,0.0146089,0.0453455,4,0,41.41437911405332,-91.7980381251232,8985.958367100844,-57.97164704133998,1.9414388962789837,23.667066051462378,169.277,8959.781364859911,11075.263430171775,150,False,16.34865419847072,False,174.94730094757722,178.60094680811392,False,6.213783419865414,True,False
10,1970-07-23 11:28:50.584378431,2025-09-16,2025-09-26 20:04:18.437,AH,C,1393951078,JASSM,3,104,76,2,2,1,225,9,2,0,1,26,0,0,0,0,-176612.51501639312,-4779661.444307174,4209961.351042271,-2.36674,-0.400369,0.381578,76.0,-32.125,-33.0,0.0,0.0,0.0,0.0,0.0,0.0,2,0,41.54530955560411,-92.11616453642182,10000.00018961178,119.8354999811063,-0.0027558172771265,0.0052449767639208,,8959.781364859911,11075.263430171775,150,10,2025-09-16,2025-09-26 20:04:18.600,AH,C,4282203656,AMBUSH51,1,1,48,2,1,1,225,2,1,0,0,9,1,225,2,1,-150474.652664956,-4789910.401343288,4198918.324406897,2.91182,2.68157,-0.476792,-81.2428,45.9244,48.7649,-0.281572,-7.44111,7.3804,0.049411,0.0167415,0.0414194,4,0,41.41511504484921,-91.79935056792814,8984.430393418508,-53.93881344849305,1.5279360060184035,29.861791349825467,169.851,8959.781364859911,11075.263430171775,150,False,16.23035443678908,False,171.69114878426726,178.56509780763986,False,9.54920714752067,True,False
10,1970-07-23 11:28:50.594283564,2025-09-16,2025-09-26 20:04:19.428,AH,C,1395145876,JASSM,3,104,76,2,2,1,225,9,2,0,1,26,0,0,0,0,-176536.31970389312,-4779693.696260299,4209928.153776646,-2.36674,-0.400273,0.381578,76.0,-32.125,-33.0,0.0,0.0,0.0,0.0,0.0,0.0,2,0,41.54491037867965,-92.1152381364189,10000.00003000362,119.83247139727484,-0.0055221867307688,0.0031983202342767,,8959.781364859911,11075.263430171775,150,10,2025-09-16,2025-09-26 20:04:19.400,AH,C,4283158056,AMBUSH51,1,1,48,2,1,1,225,2,1,0,0,9,1,225,2,1,-150537.81918299702,-4789872.472283166,4198957.560380256,2.97742,2.62951,-0.512221,-78.6115,48.7834,51.059,-0.279115,-7.76588,7.75343,0.071457,0.0378075,0.0550286,4,0,41.41559376302072,-91.80011965059953,8981.190821065602,-50.630710075103714,1.25909666154004,32.28479749656465,170.56,8959.781364859911,11075.263430171775,150,False,16.138343518185604,False,169.27666108144606,178.53348645772104,False,12.017798820815011,True,False
10,1970-07-23 11:28:50.603920411,2025-09-16,2025-09-26 20:04:20.392,AH,C,1396276844,JASSM,3,104,76,2,2,1,225,9,2,0,1,26,0,0,0,0,-176464.19470389312,-4779724.223604049,4209896.729948521,-2.36674,-0.400273,0.381578,76.0,-32.125,-33.0,0.0,0.0,0.0,0.0,0.0,0.0,2,0,41.54453252936032,-92.11436123546667,9999.99952787468,119.83305296198952,-0.0047648847071084,0.0031970357972479,,8959.781364859911,11075.263430171775,150,10,2025-09-16,2025-09-26 20:04:20.301,AH,C,4284231754,AMBUSH51,1,1,48,2,1,1,225,2,1,0,0,9,1,225,2,1,-150606.62879624063,-4789826.860024396,4199004.623568929,3.06996,2.56681,-0.551195,-74.9919,52.0333,54.0062,-0.264336,-7.92359,7.8713,0.0587133,0.0225027,0.0393701,4,0,41.41616997085389,-91.80095906752793,8976.484690161462,-46.82806726249915,0.925185287293378,35.83702854364013,171.562,8959.781364859911,11075.263430171775,150,False,16.043318533008947,False,166.2129625573643,178.4900576690592,False,15.136044519267577,True,False
10,1970-07-23 11:28:50.612387742,2025-09-16,2025-09-26 20:04:21.238,AH,C,1397350620,JASSM,3,104,76,2,2,1,225,9,2,0,1,26,0,0,0,0,-176395.71716483062,-4779753.207979049,4209866.892057896,-2.36674,-0.400273,0.381578,76.0,-32.125,-33.0,0.0,0.0,0.0,0.0,0.0,0.0,2,0,41.54417375556093,-92.11352868968476,9999.99751977448,119.83360510613336,-0.0040458669574694,0.003195793325449,,8959.781364859911,11075.263430171775,150,10,2025-09-16,2025-09-26 20:04:21.300,AH,C,4285424754,AMBUSH51,1,1,48,2,1,1,225,2,1,0,0,9,1,225,2,1,-150679.11881681363,-4789772.610570118,4199059.993096497,3.13823,2.49277,-0.59309,-70.3612,55.7641,57.4472,-0.325524,-8.32338,8.31419,0.0288506,0.0382902,0.0680511,4,0,41.41685294532751,-91.80184572854256,8968.855742359812,-42.54554750208568,0.5593947513117542,37.50596414921013,172.124,8959.781364859911,11075.263430171775,150,False,15.945664896563578,False,162.5252935869046,178.43085427400686,False,18.892093859656793,True,False
10,1970-07-23 11:28:50.622404071,2025-09-16,2025-09-26 20:04:22.240,AH,C,1398484278,JASSM,3,104,76,2,2,1,225,9,2,0,1,26,0,0,0,0,-176323.42126639312,-4779783.807588424,4209835.392057896,-2.36674,-0.400273,0.381578,76.0,-32.125,-33.0,0.0,0.0,0.0,0.0,0.0,0.0,2,0,41.54379498667687,-92.11264973093093,10000.000275184682,119.83418802709602,-0.0032867649064735,0.003194496115564,,8959.781364859911,11075.263430171775,150,10,2025-09-16,2025-09-26 20:04:22.300,AH,C,4286617752,AMBUSH51,1,1,48,2,1,1,225,2,1,0,0,9,1,225,2,1,-150747.0005013704,-4789714.2129569445,4199119.510493718,-3.06983,2.40626,-0.642125,-64.9354,59.1651,61.3813,-0.197888,-8.94004,8.94721,0.0152934,0.0639564,0.0659788,4,0,41.4175894573113,-91.80267889748085,8959.677718236151,-37.62700602258381,0.4318917372155858,38.9803776001128,174.153,8959.781364859911,11075.263430171775,150,False,15.846204845389078,False,158.50980521778916,178.35725753532998,False,22.97985813912469,True,False
10,1970-07-23 11:28:50.631280477,2025-09-16,2025-09-26 20:04:23.128,AH,C,1399559730,JASSM,3,104,76,2,2,1,225,9,2,0,1,26,0,0,0,0,-176254.83630545562,-4779812.834932174,4209805.507292271,-2.36674,-0.400273,0.381578,76.0,-32.125,-33.0,0.0,0.0,0.0,0.0,0.0,0.0,2,0,41.54343565205326,-92.11181589918218,9999.998777579436,119.83474101602349,-0.0025666270349416,0.0031932637658315,,8959.781364859911,11075.263430171775,150,10,2025-09-16,2025-09-26 20:04:23.234,AH,C,4287731218,AMBUSH51,1,1,48,2,1,1,225,2,1,0,0,9,1,225,2,1,-150804.31996741556,-4789657.565880738,4199177.946619326,-3.06308,2.32602,-0.691647,-58.8917,62.2727,65.1719,-0.192998,-9.56971,9.53279,-0.061441,0.0543275,0.0666092,4,0,41.41831022763788,-91.80338520295656,8951.645700977895,-33.050150409960466,0.8061495603617074,36.571290475998005,175.473,8959.781364859911,11075.263430171775,150,False,15.754567022314273,False,154.37049062331164,178.2767278063509,False,27.199319833018194,True,False
10,1970-07-23 11:28:50.640720351,2025-09-16,2025-09-26 20:04:24.072,AH,C,1400633470,JASSM,3,104,76,2,2,1,225,9,2,0,1,26,0,0,0,0,-176186.36071951812,-4779841.815400924,4209775.671354771,-2.36674,-0.400273,0.381578,76.0,-32.125,-33.0,0.0,0.0,0.0,0.0,0.0,0.0,2,0,41.54307689578248,-92.11098340664424,10000.001695607489,119.8352931128792,-0.0018476433693782,0.0031920431156667,,8959.781364859911,11075.263430171775,150,10,2025-09-16,2025-09-26 20:04:23.967,AH,C,4288606084,AMBUSH51,1,1,48,2,1,1,225,2,1,0,0,9,1,225,2,1,-150846.15384884013,-4789610.467479277,4199227.785092773,-3.11769,2.27062,-0.727026,-54.5377,63.257,68.8371,-0.306746,-9.82262,9.85311,-0.20587,0.0590504,0.0467291,4,0,41.41891904429978,-91.80390286735955,8947.239165986553,-29.9413615039202,1.299911941718788,31.43209483485633,176.744,8959.781364859911,11075.263430171775,150,False,15.673680423800667,False,151.45063134025537,178.2018562836862,False,30.174528919585903,False,False
10,1970-07-23 11:28:50.650382034,2025-09-16,2025-09-26 20:04:25.038,AH,C,1401885800,JASSM,3,104,76,2,2,1,225,9,2,0,1,26,0,0,0,0,-176106.49646170562,-4779875.614229049,4209740.870573521,-2.36674,-0.400273,0.381578,76.0,-32.125,-33.0,0.0,0.0,0.0,0.0,0.0,0.0,2,0,41.54265845641351,-92.1100124685568,9999.99967343967,119.83593701984734,-0.0010090766816507,0.0031906121323522,,8959.781364859911,11075.263430171775,150,10,2025-09-16,2025-09-26 20:04:25.068,AH,C,4289918382,AMBUSH51,1,1,48,2,1,1,225,2,1,0,0,9,1,225,2,1,-150901.93931822968,-4789540.743588643,4199305.583877815,2.91617,2.21715,-0.780284,-48.8985,63.3811,73.2801,0.0267453,-9.50132,9.48051,-0.317949,0.0394117,0.0147088,4,0,41.419848598392775,-91.8045957929765,8948.968046680257,-26.50441095741648,2.8817333150953086,15.174461452736429,177.929,8959.781364859911,11075.263430171775,150,False,15.569617621387238,False,147.9083234505055,178.08224370748437,False,33.80915269302327,False,False
10,1970-07-23 11:28:50.661399661,2025-09-16,2025-09-26 20:04:26.139,AH,C,1403136896,JASSM,3,104,76,2,2,1,225,9,2,0,1,26,0,0,0,0,-176026.71130545562,-4779909.379854049,4209706.102995396,-2.36674,-0.400273,0.381674,76.0,-32.125,-33.0,0.0,0.0,0.0,0.0,0.0,0.0,2,0,41.54224041312121,-92.10904250451485,10000.000050280052,119.84042314209896,-0.0040965613561076,0.0031890306450324,,8959.781364859911,11075.263430171775,150,10,2025-09-16,2025-09-26 20:04:26.267,AH,C,4291349980,AMBUSH51,1,1,48,2,1,1,225,2,1,0,0,9,1,225,2,1,-150958.6075450374,-4789465.267924853,4199395.684953325,2.50821,2.24044,-0.801569,-47.1943,61.7135,75.7498,0.0998632,-8.29623,8.35891,-0.304248,0.0223029,-0.0290794,4,0,41.42089524059639,-91.80530145465322,8963.33182463609,-26.746708754220634,4.402691059570506,-7.266531269092644,177.795,8959.781364859911,11075.263430171775,150,True,15.461872793835708,False,146.80566788086523,177.9423791459646,False,35.02515000047944,False,False
10,1970-07-23 11:28:50.671280005,2025-09-16,2025-09-26 20:04:27.128,AH,C,1404391946,JASSM,3,104,76,2,2,1,225,9,2,0,1,26,0,0,0,0,-175946.67273123687,-4779943.250947799,4209671.224089146,-2.36674,-0.400273,0.381674,76.0,-32.0,-33.0,0.0,0.0,0.0,0.0,0.0,0.0,2,0,41.54182103833413,-92.10806947295808,9999.998608444164,119.84106842682922,-0.0032561617836556,0.0031876477152998,,8959.781364859911,11075.263430171775,150,10,2025-09-16,2025-09-26 20:04:27.134,AH,C,4292383912,AMBUSH51,1,1,48,2,1,1,225,2,1,0,0,9,1,225,2,1,-150999.96781056793,-4789412.758356147,4199461.227855831,2.31182,2.2825,-0.790356,-48.7962,60.3053,75.6192,0.105941,-7.83358,7.62756,-0.0705374,0.00211076,-0.0394221,4,0,41.4216423284557,-91.80581553624688,8979.684124670372,-28.5346673161977,4.684365088054928,-16.938449889276523,177.428,8959.781364859911,11075.263430171775,150,False,15.370108452184855,False,147.70531974990513,177.90350645378314,False,34.182015391931586,False,False
10,1970-07-23 11:28:50.682337926,2025-09-16,2025-09-26 20:04:28.233,AH,C,1405701946,JASSM,3,104,76,2,2,1,225,9,2,0,1,26,0,0,0,0,-175863.13025076812,-4779978.604463424,4209634.817839146,-2.36674,-0.400177,0.381674,76.0,-32.0,-33.0,0.0,0.0,0.0,0.0,0.0,0.0,2,0,41.54138329485042,-92.10705385787608,10000.000060079105,119.83809923300132,-0.0059453801258606,0.0011404007262655,,8959.781364859911,11075.263430171775,150,10,2025-09-16,2025-09-26 20:04:28.268,AH,C,4293735978,AMBUSH51,1,1,48,2,1,1,225,2,1,0,0,9,1,225,2,1,-151056.3943815451,-4789344.590743193,4199546.479613032,2.30361,2.34681,-0.76139,-51.2147,58.9401,74.3671,-0.0697518,-7.33327,7.2814,0.18817,0.000215342,-0.0305795,4,0,41.4226127843312,-91.80651559221688,9001.487981803086,-31.654867322721124,4.6596527821560745,-15.081684607151065,176.243,8959.781364859911,11075.263430171775,150,False,15.26255637250834,False,149.2683324696289,177.7707097523668,False,32.75475097552055,False,False
10,1970-07-23 11:28:50.693379852,2025-09-16,2025-09-26 20:04:29.337,AH,C,1406954644,JASSM,3,104,76,2,2,1,225,9,2,0,1,26,0,0,0,0,-175783.24255545562,-4780012.409150924,4209600.003386021,-2.36674,-0.400177,0.381674,76.0,-32.0,-33.0,0.0,0.0,0.0,0.0,0.0,0.0,2,0,41.54096470028399,-92.10608268732176,9999.998715494316,119.83874327275193,-0.0051065687089071,0.001138972233719,,8959.781364859911,11075.263430171775,150,10,2025-09-16,2025-09-26 20:04:29.433,AH,C,160514,AMBUSH51,1,1,48,2,1,1,225,2,1,0,0,9,1,225,2,1,-151116.724826467,-4789275.382953589,4199632.415676087,2.69391,2.3646,-0.756394,-51.8267,58.4487,74.0686,-0.463952,-6.71309,6.78984,0.303398,0.014948,0.00520877,4,0,41.42359330955052,-91.80726271678355,9022.530206530424,-32.43350669067945,4.826943779501463,7.917685356956961,175.473,8959.781364859911,11075.263430171775,150,True,15.155247199687263,False,149.67806419674608,177.63648933146217,False,32.48470909922037,False,False
10,1970-07-23 11:28:50.703400539,2025-09-16,2025-09-26 20:04:30.340,AH,C,1408147692,JASSM,3,104,76,2,2,1,225,9,2,0,1,26,0,0,0,0,-175707.15808279935,-4780044.604463424,4209566.845182896,-2.36674,-0.400177,0.381674,76.0,-32.0,-33.0,0.0,0.0,0.0,0.0,0.0,0.0,2,0,41.54056601847874,-92.10515776305432,9999.998995884143,119.83935663894016,-0.004307686821461,0.001137605060739,,8959.781364859911,11075.263430171775,150,10,2025-09-16,2025-09-26 20:04:29.433,AH,C,160514,AMBUSH51,1,1,48,2,1,1,225,2,1,0,0,9,1,225,2,1,-151116.724826467,-4789275.382953589,4199632.415676087,2.69391,2.3646,-0.756394,-51.8267,58.4487,74.0686,-0.463952,-6.71309,6.78984,0.303398,0.014948,0.00520877,4,0,41.42359330955052,-91.80726271678355,9022.530206530424,-32.43350669067945,4.826943779501463,7.917685356956961,175.473,8959.781364859911,11075.263430171775,150,True,15.10742436647351,False,149.67806419674608,177.62864842120445,False,32.49193629390583,False,False
10,1970-07-23 11:28:50.713277205,2025-09-16,2025-09-26 20:04:31.327,AH,C,1409400390,JASSM,3,104,76,2,2,1,225,9,2,0,1,26,0,0,0,0,-175627.26989920562,-4780078.409150924,4209532.028776646,-2.36674,-0.400177,0.381674,76.0,-32.0,-33.0,0.0,0.0,0.0,0.0,0.0,0.0,2,0,41.54014739479111,-92.10418661111036,10000.00212333756,119.84000065594024,-0.0034688649974695,0.0011361673562116,,8959.781364859911,11075.263430171775,150,10,2025-09-16,2025-09-26 20:04:29.433,AH,C,160514,AMBUSH51,1,1,48,2,1,1,225,2,1,0,0,9,1,225,2,1,-151116.724826467,-4789275.382953589,4199632.415676087,2.69391,2.3646,-0.756394,-51.8267,58.4487,74.0686,-0.463952,-6.71309,6.78984,0.303398,0.014948,0.00520877,4,0,41.42359330955052,-91.80726271678355,9022.530206530424,-32.43350669067945,4.826943779501463,7.917685356956961,175.473,8959.781364859911,11075.263430171775,150,True,15.057210688249913,False,149.67806419674608,177.62036169898573,False,32.49957509904762,False,False
10,1970-07-23 11:28:50.723322717,2025-09-16,2025-09-26 20:04:32.332,AH,C,1410595418,JASSM,3,104,76,2,2,1,225,9,2,0,1,26,0,0,0,0,-175551.05944998687,-4780110.655244674,4209498.813932896,-2.36674,-0.400177,0.381674,76.0,-32.0,-33.0,0.0,0.0,0.0,0.0,0.0,0.0,2,0,41.53974804088265,-92.10326017985324,10000.000787063786,119.8406150115582,-0.002668662639134,0.0011348003456935,,8959.781364859911,11075.263430171775,150,10,2025-09-16,2025-09-26 20:04:34.000,AH,C,5608542,AMBUSH51,1,1,48,2,1,1,225,2,1,0,0,9,1,225,2,1,-151326.01237478387,-4788988.247835698,4199970.28962424,2.64555,2.15031,-0.775557,-41.3403,64.4649,76.4375,0.0687169,-6.48522,6.48281,-0.242965,0.00436821,0.00704593,4,0,41.427543082529205,-91.80987243983832,9066.213145956195,-24.19308828157726,1.4189668954612962,-2.932234168360712,176.12,8959.781364859911,11075.263430171775,150,True,14.796284271057322,False,143.51788576071365,177.04049769591705,False,39.324188110004805,False,False
10,1970-07-23 11:28:50.734355475,2025-09-16,2025-09-26 20:04:33.435,AH,C,1411846336,JASSM,3,104,76,2,2,1,225,9,2,0,1,26,0,0,0,0,-175471.28503592435,-4780144.407197799,4209464.046354771,-2.36674,-0.400177,0.381674,76.0,-32.0,-33.0,0.0,0.0,0.0,0.0,0.0,0.0,2,0,41.53933001961583,-92.10229043738616,9999.999755055676,119.8412580834667,-0.0018310476824042,0.0011333832192536,,8959.781364859911,11075.263430171775,150,10,2025-09-16,2025-09-26 20:04:34.000,AH,C,5608542,AMBUSH51,1,1,48,2,1,1,225,2,1,0,0,9,1,225,2,1,-151326.01237478387,-4788988.247835698,4199970.28962424,2.64555,2.15031,-0.775557,-41.3403,64.4649,76.4375,0.0687169,-6.48522,6.48281,-0.242965,0.00436821,0.00704593,4,0,41.427543082529205,-91.80987243983832,9066.213145956195,-24.19308828157726,1.4189668954612962,-2.932234168360712,176.12,8959.781364859911,11075.263430171775,150,True,14.746166407007085,False,143.51788576071365,177.0300530156111,False,39.334247482864754,False,False
