Subject_cm,Timestamp,SampleDate_cm,SampleTime_cm,Configuration_cm,Scenario_cm,DisTime_cm,MarkingTxt_cm,Application_cm,EntId_cm,Site_cm,ExerciseId_cm,ForceId_cm,Category_cm,Country_cm,Domain_cm,Kind_cm,Extra_cm,Specific_cm,Subcategory_cm,AltCategory_cm,AltCountry_cm,AltDomain_cm,AltKind_cm,ECEF_X_cm,ECEF_Y_cm,ECEF_Z_cm,OriPhi_cm,OriPsi_cm,OriTheta_cm,LinVelX_cm,LinVelY_cm,LinVelZ_cm,LinAccX_cm,LinAccY_cm,LinAccZ_cm,AngVelX_cm,AngVelY_cm,AngVelZ_cm,DrAlg_cm,Appearance_cm,Latitude_cm,Longitude_cm,Altitude_cm,Heading_cm,Pitch_cm,Roll_cm,CalibratedAirspeed_cm,CM_Altitude_Lead_cm,CM_Altitude_Wing_cm,CM_Airspeed_cm,Subject_ac,SampleDate_ac,SampleTime_ac,Configuration_ac,Scenario_ac,DisTime_ac,MarkingTxt_ac,Application_ac,EntId_ac,Site_ac,ExerciseId_ac,ForceId_ac,Category_ac,Country_ac,Domain_ac,Kind_ac,Extra_ac,Specific_ac,Subcategory_ac,AltCategory_ac,AltCountry_ac,AltDomain_ac,AltKind_ac,ECEF_X_ac,ECEF_Y_ac,ECEF_Z_ac,OriPhi_ac,OriPsi_ac,OriTheta_ac,LinVelX_ac,LinVelY_ac,LinVelZ_ac,LinAccX_ac,LinAccY_ac,LinAccZ_ac,AngVelX_ac,AngVelY_ac,AngVelZ_ac,DrAlg_ac,Appearance_ac,Latitude_ac,Longitude_ac,Altitude_ac,Heading_ac,Pitch_ac,Roll_ac,CalibratedAirspeed_ac,CM_Altitude_Lead_ac,CM_Altitude_Wing_ac,CM_Airspeed_ac,Bank_Angle_Condition,distance_nm,Distance_Condition,angle_between_vel,angle_between_pos,Cone_Condition,angle_between_pos_nose,Nose_Cone_Condition,Intercept_Criteria
10,1970-07-23 11:28:50.060367836,2025-09-16,2025-09-26 20:03:26.036,AH,C,1331436600,JASSM,3,102,76,2,2,1,225,9,2,0,1,26,0,0,0,0,-163190.34021170562,-4785351.868135299,4204074.233854771,-2.36559,-0.397301,0.382249,74.5,-31.125,-32.375,0.0,0.0,0.0,0.0,0.0,0.0,2,0,41.47455852459142,-91.9531470123908,9999.999192852152,119.85396005268947,-0.0032981050657807,0.0050446060218855,,8959.781364859911,11075.263430171775,150,10,2025-09-16,2025-09-26 20:03:26.200,AH,C,4219690522,AMBUSH51,1,1,48,2,1,1,225,2,1,0,0,9,1,225,2,1,-146017.61810074953,-4791985.028071727,4196711.392815699,2.27125,2.78181,-0.42869,-82.0729,37.7943,45.123,0.108177,-6.26541,6.28595,-0.0652859,-0.0150229,0.0013243,4,0,41.38869422382814,-91.74533211626134,8959.781364859911,-59.53070194292935,3.10460400195732,-4.552955673836213,165.819,8959.781364859911,11075.263430171775,150,True,10.668670492922159,False,174.95329499167732,178.55573068202412,False,5.767315761996299,True,False
10,1970-07-23 11:28:50.070390392,2025-09-16,2025-09-26 20:03:27.039,AH,C,1332689344,JASSM,3,102,76,2,2,1,225,9,2,0,1,26,0,0,0,0,-163112.03015311187,-4785384.735322799,4204040.091276646,-2.36559,-0.397301,0.382249,74.5,-31.125,-32.375,0.0,0.0,0.0,0.0,0.0,0.0,2,0,41.47414842266053,-91.95219708432953,9999.999687366731,119.85458917561527,-0.002476673728117,0.0050432259773422,,8959.781364859911,11075.263430171775,150,10,2025-09-16,2025-09-26 20:03:26.968,AH,C,4220605154,AMBUSH51,1,1,48,2,1,1,225,2,1,0,0,9,1,225,2,1,-146080.58006981527,-4791955.720478678,4196745.503170051,2.23599,2.78187,-0.420295,-82.4267,37.9352,44.4828,-0.0884889,-6.30773,6.48275,-0.0339834,0.00302831,-0.0180336,4,0,41.38908744967748,-91.74609490024277,8966.389369500137,-59.875635078557785,2.7690685667103336,-6.589829746703689,166.1,8959.781364859911,11075.263430171775,150,True,10.57802483938441,False,175.3451019128465,178.5342541925433,False,5.449796801977371,True,False
10,1970-07-23 11:28:50.081288457,2025-09-16,2025-09-26 20:03:28.128,AH,C,1334002014,JASSM,3,102,76,2,2,1,225,9,2,0,1,26,0,0,0,0,-163029.97448904935,-4785419.172822799,4204004.313932896,-2.36559,-0.397301,0.382249,74.5,-31.125,-32.375,0.0,0.0,0.0,0.0,0.0,0.0,2,0,41.47371869575048,-91.9512017343368,9999.996833141002,119.85524837530954,-0.001615952773538,0.005041778608008,,8959.781364859911,11075.263430171775,150,10,2025-09-16,2025-09-26 20:03:28.066,AH,C,4221917454,AMBUSH51,1,1,48,2,1,1,225,2,1,0,0,9,1,225,2,1,-146170.9235300066,-4791913.9009481305,4196792.899331341,2.2072,2.79775,-0.402245,-83.1468,37.99,43.1514,-0.140062,-6.54889,6.67672,-0.0086792,-0.00352141,-0.00908908,4,0,41.38963983112797,-91.74718934095876,8973.092405351705,-61.20018486662724,2.6391105686352607,-7.938171588747588,166.283,8959.781364859911,11075.263430171775,150,True,10.467360223149072,False,176.17035900901314,178.5062567179654,False,4.747347450088215,True,False
10,1970-07-23 11:28:50.093165396,2025-09-16,2025-09-26 20:03:29.316,AH,C,1335371856,JASSM,3,102,76,2,2,1,225,9,2,0,1,26,0,0,0,0,-162944.34460623687,-4785455.110322799,4203966.977995396,-2.36559,-0.397301,0.382249,74.5,-31.125,-32.375,0.0,0.0,0.0,0.0,0.0,0.0,2,0,41.47327024037908,-91.9501630424637,9999.998377828762,119.8559362734465,-0.0007177395812699,0.0050402672802436,,8959.781364859911,11075.263430171775,150,10,2025-09-16,2025-09-26 20:03:29.300,AH,C,4223388818,AMBUSH51,1,1,48,2,1,1,225,2,1,0,0,9,1,225,2,1,-146274.278245033,-4791866.501196414,4196845.381475892,2.21185,2.80742,-0.386098,-83.9988,37.8332,41.8603,-0.145847,-6.63011,6.87689,0.00967581,0.00930962,-0.0123057,4,0,41.39025737176753,-91.7484412633627,8978.08292907878,-62.22112816942478,2.359786565658487,-7.503299777557999,166.552,8959.781364859911,11075.263430171775,150,True,10.346364467092377,False,177.03681338113932,178.47556183647245,False,3.998965004381199,True,False
10,1970-07-23 11:28:50.103246827,2025-09-16,2025-09-26 20:03:30.324,AH,C,1336624796,JASSM,3,102,76,2,2,1,225,9,2,0,1,26,0,0,0,0,-162866.02234061187,-4785487.979463424,4203932.827604771,-2.36559,-0.397205,0.382249,74.5,-31.125,-32.375,0.0,0.0,0.0,0.0,0.0,0.0,2,0,41.472860051875394,-91.94921300524128,9999.99919985235,119.8529275709575,-0.0034658373282453,0.0029899952675722,,8959.781364859911,11075.263430171775,150,10,2025-09-16,2025-09-26 20:03:30.166,AH,C,4224422750,AMBUSH51,1,1,48,2,1,1,225,2,1,0,0,9,1,225,2,1,-146347.37298553588,-4791833.673967821,4196881.193833135,2.23563,2.81559,-0.378957,-84.6315,37.421,41.3635,-0.0202483,-6.8515,7.04382,0.0946098,-0.00606389,-0.00360671,4,0,41.39068116238892,-91.74932641098673,8980.497760929158,-62.818185733759904,2.386964843922589,-5.991209119459911,166.821,8959.781364859911,11075.263430171775,150,True,10.250013084246753,False,177.5153567726811,178.45373177369655,False,3.5206020838488437,True,False
10,1970-07-23 11:28:50.115266867,2025-09-16,2025-09-26 20:03:31.526,AH,C,1337996742,JASSM,3,102,76,2,2,1,225,9,2,0,1,26,0,0,0,0,-162780.26111014312,-4785523.969697799,4203895.431120396,-2.36559,-0.397205,0.382249,74.5,-31.125,-32.375,0.0,0.0,0.0,0.0,0.0,0.0,2,0,41.472410882697424,-91.94817274855878,9999.997629507385,119.85361649379306,-0.0025662430491969,0.0029884172440177,,8959.781364859911,11075.263430171775,150,10,2025-09-16,2025-09-26 20:03:31.400,AH,C,4225894116,AMBUSH51,1,1,48,2,1,1,225,2,1,0,0,9,1,225,2,1,-146452.13200406695,-4791786.539446685,4196932.044936521,2.38496,2.81215,-0.373028,-85.1252,37.8498,41.1474,-0.244429,-6.74547,6.76661,0.100319,-0.00263091,0.00356926,4,0,41.39128583347178,-91.7505950515035,8982.721904656555,-62.93558661416412,2.0202541810495003,2.488233398462734,166.906,8959.781364859911,11075.263430171775,150,True,10.128651554946057,False,177.68661734515229,178.42423225915314,False,3.4750167926650293,True,False
10,1970-07-23 11:28:50.125306912,2025-09-16,2025-09-26 20:03:32.530,AH,C,1339251468,JASSM,3,102,76,2,2,1,225,9,2,0,1,26,0,0,0,0,-162701.82702811187,-4785556.883760299,4203861.229948521,-2.36559,-0.397205,0.382345,74.5,-31.125,-32.375,0.0,0.0,0.0,0.0,0.0,0.0,2,0,41.47200009033097,-91.9472213809739,9999.99816539371,119.85809393762284,-0.0056643002856799,0.0029867334098492,,8959.781364859911,11075.263430171775,150,10,2025-09-16,2025-09-26 20:03:32.533,AH,C,4227246182,AMBUSH51,1,1,48,2,1,1,225,2,1,0,0,9,1,225,2,1,-146547.78000485746,-4791742.862094116,4196978.62000146,2.45343,2.7992,-0.386253,-84.9362,38.5678,41.9729,-0.120563,-6.97423,6.99215,-0.0174073,0.00348812,0.0138765,4,0,41.39184271242871,-91.75175361174634,8983.497738170276,-61.91206557721026,2.0568995507634664,6.172339635910578,167.395,8959.781364859911,11075.263430171775,150,True,10.017616171588617,False,177.13114716290508,178.39471678937122,False,4.0729361376487665,True,False
10,1970-07-23 11:28:50.136329397,2025-09-16,2025-09-26 20:03:33.632,AH,C,1340562540,JASSM,3,102,76,2,2,1,225,9,2,0,1,26,0,0,0,0,-162619.87097342435,-4785591.274385299,4203825.493620396,-2.36559,-0.397205,0.382345,74.5,-31.125,-32.375,0.0,0.0,0.0,0.0,0.0,0.0,2,0,41.47157085583712,-91.94622730696088,10000.001208973092,119.85875226441672,-0.004804632123019,0.0029853020529643,,8959.781364859911,11075.263430171775,150,10,2025-09-16,2025-09-26 20:03:33.699,AH,C,4228638012,AMBUSH51,1,1,48,2,1,1,225,2,1,0,0,9,1,225,2,1,-146647.1053609362,-4791696.589606204,4197028.161426295,2.40318,2.78564,-0.396482,-84.6506,39.4542,42.8098,-0.184581,-6.92388,6.94247,-0.149925,-0.00567274,0.00397706,4,0,41.392434375209206,-91.7529570705598,8984.607888858745,-60.99077732088461,1.9568697035383695,3.029298823613487,167.713,8959.781364859911,11075.263430171775,150,True,9.901597275266294,False,176.50277386756784,178.36024161963863,False,4.763710237722707,True,False
10,1970-07-23 11:28:50.147345463,2025-09-16,2025-09-26 20:03:34.734,AH,C,1341875304,JASSM,3,102,76,2,2,1,225,9,2,0,1,26,0,0,0,0,-162537.80896170562,-4785625.709932174,4203789.708464146,-2.36559,-0.397205,0.382345,74.5,-31.125,-32.375,0.0,0.0,0.0,0.0,0.0,0.0,2,0,41.47114103731801,-91.94523196071134,10000.004404802943,119.85941142813974,-0.0039438421701257,0.002983851142828,,8959.781364859911,11075.263430171775,150,10,2025-09-16,2025-09-26 20:03:34.566,AH,C,4229671946,AMBUSH51,1,1,48,2,1,1,225,2,1,0,0,9,1,225,2,1,-146720.27067230258,-4791662.27348946,4197065.158128341,2.27285,2.77869,-0.404267,-84.7568,39.3857,43.0466,0.066413,-6.93925,7.05936,-0.109442,-0.00196512,0.000639783,4,0,41.39287497052664,-91.75384366391728,8985.954703849711,-60.41600383064434,2.0110277680732214,-4.573368642801588,168.067,8959.781364859911,11075.263430171775,150,True,9.802360999489244,False,176.45540743076953,178.3309570523204,False,4.812477425296184,True,False
10,1970-07-23 11:28:50.158369093,2025-09-16,2025-09-26 20:03:35.836,AH,C,1343186310,JASSM,3,102,76,2,2,1,225,9,2,0,1,26,0,0,0,0,-162455.85681326812,-4785660.096650924,4203753.970182896,-2.36559,-0.397205,0.382345,74.5,-31.125,-32.375,0.0,0.0,0.0,0.0,0.0,0.0,2,0,41.47071179487552,-91.94423796124514,10000.003370662078,119.86006969435564,-0.0030842098992758,0.0029824097638781,,8959.781364859911,11075.263430171775,150,10,2025-09-16,2025-09-26 20:03:35.834,AH,C,4231183076,AMBUSH51,1,1,48,2,1,1,225,2,1,0,0,9,1,225,2,1,-146827.4451063889,-4791612.5802092105,4197119.026551603,2.20666,2.79222,-0.382329,-85.592,38.9688,42.4244,-0.107743,-6.8233,6.69263,-0.0292147,-0.0178421,-0.0298097,4,0,41.39351474358659,-91.75514218006198,8988.640909858279,-61.81495713396479,1.6378459690349296,-8.113148396918003,168.788,8959.781364859911,11075.263430171775,150,True,9.681216498406894,False,177.05640606057602,178.29307587663834,False,4.2578027297498044,True,False
10,1970-07-23 11:28:50.169388255,2025-09-16,2025-09-26 20:03:36.938,AH,C,1344499968,JASSM,3,102,76,2,2,1,225,9,2,0,1,26,0,0,0,0,-162373.73864920562,-4785694.551729049,4203718.157682896,-2.36559,-0.397205,0.382345,74.5,-31.125,-32.375,0.0,0.0,0.0,0.0,0.0,0.0,2,0,41.47028166970244,-91.9432419618526,9999.999912583027,119.86072927938449,-0.002222834235248,0.0029809612936866,,8959.781364859911,11075.263430171775,150,10,2025-09-16,2025-09-26 20:03:36.866,AH,C,4232415842,AMBUSH51,1,1,48,2,1,1,225,2,1,0,0,9,1,225,2,1,-146916.13820624482,-4791572.162487706,4197162.006532735,2.18743,2.80419,-0.368566,-86.3363,38.5239,41.2813,0.0745723,-7.18129,6.98753,0.049592,0.00688573,-0.00701264,4,0,41.394029182190486,-91.7562165382308,8989.138676915349,-62.825696121419774,1.5422031537387526,-8.991986863135779,168.959,8959.781364859911,11075.263430171775,150,True,9.57241788721619,False,177.8492765305585,178.26186542725912,False,3.568025980413975,True,False
10,1970-07-23 11:28:50.180248609,2025-09-16,2025-09-26 20:03:38.024,AH,C,1345753562,JASSM,3,102,76,2,2,1,225,9,2,0,1,26,0,0,0,0,-162295.37536795562,-4785727.430635299,4203683.983854771,-2.36559,-0.397205,0.382345,74.5,-31.125,-32.375,0.0,0.0,0.0,0.0,0.0,0.0,2,0,41.46987121589825,-91.94229151745483,10000.001765169463,119.86135869108546,-0.0014008512906789,0.002979589156979,,8959.781364859911,11075.263430171775,150,10,2025-09-16,2025-09-26 20:03:37.933,AH,C,4233688374,AMBUSH51,1,1,48,2,1,1,225,2,1,0,0,9,1,225,2,1,-147008.8249839283,-4791531.245738224,4197205.473629069,2.30395,2.81536,-0.356389,-86.8555,37.8934,40.6033,-0.32526,-7.20881,6.58311,0.126046,-0.00144497,-0.0148378,4,0,41.39454913912788,-91.75733880655632,8989.772830017073,-63.74404511612803,1.4854043267518011,-2.1130016938657645,169.265,8959.781364859911,11075.263430171775,150,True,9.463931378259517,False,178.42110322379176,178.23385532845307,False,3.0173451456352884,True,False
10,1970-07-23 11:28:50.191287866,2025-09-16,2025-09-26 20:03:39.128,AH,C,1347123360,JASSM,3,102,76,2,2,1,225,9,2,0,1,26,0,0,0,0,-162209.74792654935,-4785763.356416549,4203646.638151646,-2.36559,-0.397109,0.382345,74.5,-31.125,-32.375,0.0,0.0,0.0,0.0,0.0,0.0,2,0,41.4694226832332,-91.94125298236276,9999.997666256128,119.85840882012474,-0.0040723099623853,0.0009287279767768,,8959.781364859911,11075.263430171775,150,10,2025-09-16,2025-09-26 20:03:39.134,AH,C,4235119972,AMBUSH51,1,1,48,2,1,1,225,2,1,0,0,9,1,225,2,1,-147113.33046642167,-4791485.06695924,4197254.197042316,2.40642,2.81439,-0.36061,-86.6146,37.8256,40.8901,-0.201968,-7.28107,6.7472,0.0805575,0.000991403,0.00714164,4,0,41.39513371649293,-91.75860421564968,8989.76446714647,-63.53492680831695,1.6174373031822564,3.7440786143088434,168.556,8959.781364859911,11075.263430171775,150,True,9.343374061336366,False,178.23796411163028,178.20179055927366,False,3.173753228227988,True,False
10,1970-07-23 11:28:50.202305290,2025-09-16,2025-09-26 20:03:40.230,AH,C,1348376148,JASSM,3,102,76,2,2,1,225,9,2,0,1,26,0,0,0,0,-162131.43493826812,-4785796.211885299,4203612.483854771,-2.36559,-0.397109,0.382345,74.5,-31.125,-32.375,0.0,0.0,0.0,0.0,0.0,0.0,2,0,41.46901247409492,-91.94030317397127,9999.997575916612,119.8590378000234,-0.0032508540071346,0.0009273021670086,,8959.781364859911,11075.263430171775,150,10,2025-09-16,2025-09-26 20:03:40.266,AH,C,4236472038,AMBUSH51,1,1,48,2,1,1,225,2,1,0,0,9,1,225,2,1,-147210.36361954897,-4791441.887486176,4197300.235073821,2.46922,2.79903,-0.371881,-85.9695,38.4714,41.578,-0.175648,-7.39727,6.6121,0.0274129,-0.0114818,0.00726856,4,0,41.39568367345706,-91.75977927707822,8990.751676972062,-62.4993709857892,1.481075801938211,7.054920763871017,168.605,8959.781364859911,11075.263430171775,150,True,9.231977724762407,False,177.6281995299711,178.1701114607448,False,3.836922359276422,True,False
10,1970-07-23 11:28:50.212328900,2025-09-16,2025-09-26 20:03:41.232,AH,C,1349630788,JASSM,3,102,76,2,2,1,225,9,2,0,1,26,0,0,0,0,-162053.00622733062,-4785829.116182174,4203578.278776646,-2.36559,-0.397109,0.382345,74.5,-31.125,-32.375,0.0,0.0,0.0,0.0,0.0,0.0,2,0,41.46860164714775,-91.9393519739418,10000.001806113436,119.85966769636224,-0.002428182189209,0.0009258710005546,,8959.781364859911,11075.263430171775,150,10,2025-09-16,2025-09-26 20:03:41.266,AH,C,4237665036,AMBUSH51,1,1,48,2,1,1,225,2,1,0,0,9,1,225,2,1,-147295.83736123933,-4791402.951521684,4197341.968130444,2.48292,2.78891,-0.381783,-85.1562,39.1057,42.4163,-0.260892,-7.4247,6.67646,-0.00871665,-0.000531592,0.0198104,4,0,41.39618142415207,-91.76081470223257,8991.970876557336,-61.71720478248486,1.495278543099969,7.646990223386253,167.982,8959.781364859911,11075.263430171775,150,True,9.127522673366133,False,176.8974769660954,178.1369311701986,False,4.59683128830434,True,False
10,1970-07-23 11:28:50.223346683,2025-09-16,2025-09-26 20:03:42.334,AH,C,1350941346,JASSM,3,102,76,2,2,1,225,9,2,0,1,26,0,0,0,0,-161971.08191092435,-4785863.485322799,4203542.546354771,-2.36559,-0.397109,0.382441,74.5,-31.125,-32.375,0.0,0.0,0.0,0.0,0.0,0.0,2,0,41.468172492311,-91.9383583919881,10000.000520231304,119.86417318846348,-0.0054894892228653,0.0009241312107996,,8959.781364859911,11075.263430171775,150,10,2025-09-16,2025-09-26 20:03:42.466,AH,C,4239096636,AMBUSH51,1,1,48,2,1,1,225,2,1,0,0,9,1,225,2,1,-147397.1119420554,-4791355.536979106,4197392.992218201,2.45225,2.76773,-0.404829,-84.1153,39.7485,43.2348,-0.174993,-7.38169,6.86843,-0.0373373,-0.00272246,0.0100982,4,0,41.39678943837622,-91.76204202907468,8993.691327895367,-59.99067121548294,1.6321289315161815,5.4715912989041415,167.847,8959.781364859911,11075.263430171775,150,True,9.010136989841511,False,176.09699080249638,178.09328374223725,False,5.442463176139988,True,False
10,1970-07-23 11:28:50.234388101,2025-09-16,2025-09-26 20:03:43.438,AH,C,1352196168,JASSM,3,102,76,2,2,1,225,9,2,0,1,26,0,0,0,0,-161892.64148123687,-4785896.391572799,4203508.333464146,-2.36559,-0.397109,0.382441,74.5,-31.125,-32.375,0.0,0.0,0.0,0.0,0.0,0.0,2,0,41.46776158726643,-91.93740707559007,10000.000431471492,119.86480315146306,-0.0046666947642002,0.0009227540727385,,8959.781364859911,11075.263430171775,150,10,2025-09-16,2025-09-26 20:03:43.632,AH,C,4240488468,AMBUSH51,1,1,48,2,1,1,225,2,1,0,0,9,1,225,2,1,-147495.32312642384,-4791308.588208126,4197444.143771897,2.37627,2.76204,-0.414358,-83.3586,39.8818,43.8963,-0.0304049,-7.1997,6.52147,-0.0959602,-1.97656e-05,-0.00191935,4,0,41.39739609014093,-91.76323260903784,8996.609870501841,-59.39395870565376,1.808722681759652,1.0058878709517594,167.542,8959.781364859911,11075.263430171775,150,True,8.89643942439224,False,175.56223288893852,178.04589133887742,False,5.990042746660511,True,False
10,1970-07-23 11:28:50.245245589,2025-09-16,2025-09-26 20:03:44.524,AH,C,1353506294,JASSM,3,102,76,2,2,1,225,9,2,0,1,26,0,0,0,0,-161810.74402029935,-4785930.747041549,4203472.612761021,-2.36549,-0.397109,0.382441,74.5,-31.125,-32.375,0.0,0.0,0.0,0.0,0.0,0.0,2,0,41.46733257061883,-91.93641384595402,10000.002467334152,119.86546086398866,-0.0038076413813522,0.0064127935664813,,8959.781364859911,11075.263430171775,150,10,2025-09-16,2025-09-26 20:03:44.534,AH,C,4241562166,AMBUSH51,1,1,48,2,1,1,225,2,1,0,0,9,1,225,2,1,-147569.1663254532,-4791272.826243738,4197483.193118094,2.31367,2.76102,-0.413362,-83.1639,39.8905,43.895,-0.184266,-7.28622,6.70585,-0.0561813,0.0100857,-0.00311777,4,0,41.39785894026653,-91.76412796878397,8998.951389336513,-59.397086964909846,1.7315225409287025,-2.604194920627348,167.138,8959.781364859911,11075.263430171775,150,True,8.796352383113668,False,175.49860020690824,178.00409152657457,False,6.100491672052692,True,False
10,1970-07-23 11:28:50.255292922,2025-09-16,2025-09-26 20:03:45.529,AH,C,1354759498,JASSM,3,102,76,2,2,1,225,9,2,0,1,26,0,0,0,0,-161732.40466483062,-4785963.608369674,4203438.440886021,-2.36549,-0.397109,0.382441,74.5,-31.125,-32.375,0.0,0.0,0.0,0.0,0.0,0.0,2,0,41.46692217324414,-91.93546378090753,9999.998332872892,119.86608998786848,-0.0029859048432015,0.0064114128221885,,8959.781364859911,11075.263430171775,150,10,2025-09-16,2025-09-26 20:03:45.433,AH,C,4242635864,AMBUSH51,1,1,48,2,1,1,225,2,1,0,0,9,1,225,2,1,-147644.79287519638,-4791236.573035521,4197522.833552355,2.28418,2.76527,-0.404938,-83.2817,39.6648,43.5396,-0.0577793,-7.02596,6.46632,-0.034697,0.00354637,-0.0088831,4,0,41.398328369308125,-91.76504482777158,9001.50634537959,-59.89661221467541,1.5477819879488706,-4.211396557118428,167.09,8959.781364859911,11075.263430171775,150,True,8.697467809311805,False,175.7302611663465,177.96238509980236,False,5.919213025690668,True,False
10,1970-07-23 11:28:50.266307412,2025-09-16,2025-09-26 20:03:46.630,AH,C,1356012516,JASSM,3,102,76,2,2,1,225,9,2,0,1,26,0,0,0,0,-161654.07751639312,-4785996.463838424,4203404.274870396,-2.36549,-0.397109,0.382441,74.5,-31.125,-32.375,0.0,0.0,0.0,0.0,0.0,0.0,2,0,41.46651183995042,-91.93451387617992,9999.997852755923,119.86671900046848,-0.0021643004718688,0.0064100390901488,,8959.781364859911,11075.263430171775,150,10,2025-09-16,2025-09-26 20:03:46.766,AH,C,4244226530,AMBUSH51,1,1,48,2,1,1,225,2,1,0,0,9,1,225,2,1,-147755.86081557273,-4791184.008869692,4197580.054610406,2.28045,2.77759,-0.395225,-83.6331,39.2612,42.6805,-0.117283,-7.01508,6.61385,0.0273442,0.00250192,-0.00386679,4,0,41.39900701291242,-91.76639113417464,9004.774321580839,-60.75093969871012,1.6157783753448327,-4.173575840667037,166.821,8959.781364859911,11075.263430171775,150,True,8.575647867992567,False,176.28100788062437,177.9078742445688,False,5.458894101571091,True,False
10,1970-07-23 11:28:50.277347544,2025-09-16,2025-09-26 20:03:47.734,AH,C,1357383564,JASSM,3,102,76,2,2,1,225,9,2,0,1,26,0,0,0,0,-161568.37146170562,-4786032.415010299,4203366.890104771,-2.36549,-0.397109,0.382441,74.5,-31.125,-32.375,0.0,0.0,0.0,0.0,0.0,0.0,2,0,41.46606283796246,-91.93347449801516,10000.00330956695,119.8674072551675,-0.0012652937884162,0.0064085327593712,,8959.781364859911,11075.263430171775,150,10,2025-09-16,2025-09-26 20:03:47.633,AH,C,4245260462,AMBUSH51,1,1,48,2,1,1,225,2,1,0,0,9,1,225,2,1,-147828.3958748302,-4791150.163030995,4197616.679963928,2.28413,2.78223,-0.39114,-83.8909,38.858,42.369,-0.326651,-7.15645,6.77161,0.00611591,-0.00514635,-0.0193131,4,0,41.39944231431916,-91.76727020266,9006.485654066699,-61.09089778259915,1.6260916911575771,-3.870346538950906,166.466,8959.781364859911,11075.263430171775,150,True,8.47460829717771,False,176.58138309165582,177.86770882006215,False,5.182427770698933,True,False
10,1970-07-23 11:28:50.288366141,2025-09-16,2025-09-26 20:03:48.836,AH,C,1358637210,JASSM,3,102,76,2,2,1,225,9,2,0,1,26,0,0,0,0,-161490.00427420562,-4786065.284150924,4203332.704557896,-2.36549,-0.397013,0.382441,74.5,-31.125,-32.375,0.0,0.0,0.0,0.0,0.0,0.0,2,0,41.46565228308321,-91.93252413407888,9999.999692243342,119.86439921688516,-0.0040129144398934,0.0043573263157798,,8959.781364859911,11075.263430171775,150,10,2025-09-16,2025-09-26 20:03:48.833,AH,C,4246692060,AMBUSH51,1,1,48,2,1,1,225,2,1,0,0,9,1,225,2,1,-147928.35202759103,-4791104.351042097,4197666.985357459,2.32453,2.78867,-0.387745,-84.0368,36.317,44.1969,-0.0274988,-6.91294,6.631,0.0627122,0.00163431,-0.000358903,4,0,41.400036115159615,-91.76848130668309,9010.529731934132,-61.47023097099813,1.7331471093286217,-1.4267350458570436,166.735,8959.781364859911,11075.263430171775,150,True,8.360536961535574,False,176.02816585922938,177.82028182987654,False,5.16855202176565,True,False
10,1970-07-23 11:28:50.299387091,2025-09-16,2025-09-26 20:03:49.938,AH,C,1359949794,JASSM,3,102,76,2,2,1,225,9,2,0,1,26,0,0,0,0,-161407.95300467435,-4786099.700166549,4203296.911589146,-2.36549,-0.397013,0.382441,74.5,-31.125,-32.375,0.0,0.0,0.0,0.0,0.0,0.0,2,0,41.465222407053474,-91.93152910521331,10000.003910312806,119.86505809338573,-0.0031522429151754,0.0043558258418812,,8959.781364859911,11075.263430171775,150,10,2025-09-16,2025-09-26 20:03:50.134,AH,C,4248242960,AMBUSH51,1,1,48,2,1,1,225,2,1,0,0,9,1,225,2,1,-148037.65629082613,-4791053.559859166,4197720.693107887,2.37054,2.78935,-0.387079,-84.2469,38.7855,41.8388,-0.0715099,-7.01357,6.86994,0.0686149,-0.00401867,0.00948439,4,0,41.40068077588128,-91.76980595689348,9010.42604896496,-61.52365192693967,1.7332290259482623,1.2221233054682064,166.65,8959.781364859911,11075.263430171775,150,True,8.238215138190876,False,176.92554852051111,177.76611112076594,False,4.990029524589065,True,False
10,1970-07-23 11:28:50.310407648,2025-09-16,2025-09-26 20:03:51.040,AH,C,1361262920,JASSM,3,102,76,2,2,1,225,9,2,0,1,26,0,0,0,0,-161325.86804373687,-4786134.127900924,4203261.101042271,-2.36549,-0.397013,0.382441,74.5,-31.125,-32.375,0.0,0.0,0.0,0.0,0.0,0.0,2,0,41.46479234080807,-91.9305336819001,10000.000671772892,119.86571722545688,-0.002291216035618,0.004354319964686,,8959.781364859911,11075.263430171775,150,10,2025-09-16,2025-09-26 20:03:51.034,AH,C,4249316658,AMBUSH51,1,1,48,2,1,1,225,2,1,0,0,9,1,225,2,1,-148113.68709882384,-4791018.2080612425,4197758.614299164,2.42608,2.78733,-0.390713,-84.0643,39.0371,42.2383,-0.230996,-6.93891,6.7325,0.0360265,0.00195472,0.000477496,4,0,41.40113311527862,-91.7707273921649,9011.525894941584,-61.30075605183843,1.8041012715650624,4.367315497250655,167.004,8959.781364859911,11075.263430171775,150,True,8.137302890364268,False,176.6474777636714,177.72232373685546,False,5.301647733489143,True,False
10,1970-07-23 11:28:50.321265896,2025-09-16,2025-09-26 20:03:52.126,AH,C,1362633256,JASSM,3,102,76,2,2,1,225,9,2,0,1,26,0,0,0,0,-161240.20642264312,-4786170.053682174,4203223.731901646,-2.36549,-0.397013,0.382536,74.5,-31.125,-32.375,0.0,0.0,0.0,0.0,0.0,0.0,2,0,41.46434355040549,-91.9294949002018,10000.00111057617,119.870252738413,-0.0053131955760485,0.0043525439366188,,8959.781364859911,11075.263430171775,150,10,2025-09-16,2025-09-26 20:03:52.199,AH,C,4250708490,AMBUSH51,1,1,48,2,1,1,225,2,1,0,0,9,1,225,2,1,-148210.78097084083,-4790972.074370232,4197807.820392745,2.45653,2.77673,-0.398233,-83.6549,39.8947,42.9467,-0.115023,-6.9354,6.71124,0.00965084,-0.0023854,0.0166562,4,0,41.40172189847774,-91.77190447937971,9012.19710884692,-60.600552328951,1.7102460359911826,5.899878170398742,167.053,8959.781364859911,11075.263430171775,150,True,8.020156991891682,False,176.02704702193216,177.66433353911106,False,6.006929772527061,True,False
10,1970-07-23 11:28:50.332306675,2025-09-16,2025-09-26 20:03:53.230,AH,C,1363887252,JASSM,3,102,76,2,2,1,225,9,2,0,1,26,0,0,0,0,-161161.81726248687,-4786202.928682174,4203189.532682896,-2.36549,-0.397013,0.382536,74.5,-31.125,-32.375,0.0,0.0,0.0,0.0,0.0,0.0,2,0,41.46393283983304,-91.92854432137784,9999.998426982918,119.87088216538469,-0.0044909406166107,0.0043511684266468,,8959.781364859911,11075.263430171775,150,10,2025-09-16,2025-09-26 20:03:53.032,AH,C,4251702656,AMBUSH51,1,1,48,2,1,1,225,2,1,0,0,9,1,225,2,1,-148280.09045387825,-4790938.513044541,4197843.425465547,2.4414,2.76669,-0.404639,-83.2906,40.6503,43.2529,-0.0411827,-6.64267,6.69583,-0.0395677,-0.00374403,0.0121538,4,0,41.40214917068439,-91.77274497687776,9012.173885025297,-59.96677704887898,1.5953741344918524,4.826793011076682,167.224,8959.781364859911,11075.263430171775,150,True,7.925497709324765,False,175.5924212964392,177.61586354170063,False,6.532545172163506,True,False
10,1970-07-23 11:28:50.343330179,2025-09-16,2025-09-26 20:03:54.333,AH,C,1365258088,JASSM,3,102,76,2,2,1,225,9,2,0,1,26,0,0,0,0,-161076.12439139312,-4786238.866182174,4203152.147917271,-2.36549,-0.397013,0.382536,74.5,-31.125,-32.375,0.0,0.0,0.0,0.0,0.0,0.0,2,0,41.46348386249382,-91.92750518873002,10000.000999174954,119.87157022251786,-0.0035920787807216,0.0043496725863129,,8959.781364859911,11075.263430171775,150,10,2025-09-16,2025-09-26 20:03:54.300,AH,C,4253213788,AMBUSH51,1,1,48,2,1,1,225,2,1,0,0,9,1,225,2,1,-148384.98238573613,-4790886.614643905,4197898.260864638,2.36771,2.75918,-0.412648,-83.0143,41.1993,43.7128,-0.144646,-6.8985,6.91115,-0.0789201,0.00821523,-0.00631773,4,0,41.40280879486146,-91.77401740384722,9011.486329155165,-59.36377010628377,1.6432082965285215,0.4504260945954653,167.578,8959.781364859911,11075.263430171775,150,True,7.802571437973327,False,175.18312053929506,177.54216028336464,False,7.025281421046883,True,False
10,1970-07-23 11:28:50.355344842,2025-09-16,2025-09-26 20:03:55.534,AH,C,1366629772,JASSM,3,102,76,2,2,1,225,9,2,0,1,26,0,0,0,0,-160990.37878592435,-4786274.825166549,4203114.737761021,-2.36549,-0.397013,0.382536,74.5,-31.125,-32.375,0.0,0.0,0.0,0.0,0.0,0.0,2,0,41.46303458710658,-91.9264654312155,10000.002002244231,119.8722586872732,-0.0026926577534413,0.0043481650044298,,8959.781364859911,11075.263430171775,150,10,2025-09-16,2025-09-26 20:03:55.566,AH,C,4254724918,AMBUSH51,1,1,48,2,1,1,225,2,1,0,0,9,1,225,2,1,-148490.85528689,-4790833.828028462,4197953.782429284,2.27478,2.76069,-0.403081,-83.4132,41.4067,43.5058,-0.0742869,-6.98321,6.78254,-0.0782917,-0.00773461,-0.0118209,4,0,41.40347814053814,-91.77530190616238,9010.186266849214,-59.80740748623894,1.3114573027754113,-4.8513885682309255,168.031,8959.781364859911,11075.263430171775,150,True,7.678872479674816,False,175.32439991265605,177.46375308332384,False,6.996134801072828,True,False
10,1970-07-23 11:28:50.365384750,2025-09-16,2025-09-26 20:03:56.538,AH,C,1367884554,JASSM,3,102,76,2,2,1,225,9,2,0,1,26,0,0,0,0,-160911.94030936187,-4786307.717744674,4203080.515104771,-2.36549,-0.397013,0.382536,74.5,-31.125,-32.375,0.0,0.0,0.0,0.0,0.0,0.0,2,0,41.462623598527614,-91.92551429386972,10000.001272708192,119.8728884677224,-0.0018698888707327,0.004346792845429,,8959.781364859911,11075.263430171775,150,10,2025-09-16,2025-09-26 20:03:56.466,AH,C,4255798618,AMBUSH51,1,1,48,2,1,1,225,2,1,0,0,9,1,225,2,1,-148565.71699372257,-4790796.854787416,4197992.538512822,2.24638,2.76893,-0.394808,-83.9206,41.063,43.1492,0.0114914,-6.95932,6.61519,-0.0116045,-0.00600772,-0.0125741,4,0,41.40394593410158,-91.77621005106352,9009.046554652128,-60.45111180989887,1.2837653998180305,-6.309709841398605,168.47,8959.781364859911,11075.263430171775,150,True,7.580382032329145,False,175.7129614225795,177.40446254046557,False,6.67229466767669,True,False
10,1970-07-23 11:28:50.376245863,2025-09-16,2025-09-26 20:03:57.624,AH,C,1369196404,JASSM,3,102,76,2,2,1,225,9,2,0,1,26,0,0,0,0,-160829.93444998687,-4786342.106416549,4203044.733854771,-2.36549,-0.396918,0.382536,74.5,-31.125,-32.375,0.0,0.0,0.0,0.0,0.0,0.0,2,0,41.46219389443634,-91.92451991157374,10000.00080605079,119.86990980115526,-0.004579327934296,0.0022950568267599,,8959.781364859911,11075.263430171775,150,10,2025-09-16,2025-09-26 20:03:57.732,AH,C,4257309750,AMBUSH51,1,1,48,2,1,1,225,2,1,0,0,9,1,225,2,1,-148672.76202748687,-4790745.005495273,4198046.534150106,2.22647,2.78262,-0.380037,-84.8183,40.4511,42.3391,-0.107191,-6.91023,6.78055,-0.00914942,0.000213261,-0.0108826,4,0,41.404599161296,-91.7775082558518,9006.845354863748,-61.56430735672883,1.2022426298796256,-7.178356760732539,168.739,8959.781364859911,11075.263430171775,150,True,7.45895960057985,False,176.46066183309543,177.3290297769494,False,6.02517014879844,True,False
10,1970-07-23 11:28:50.387283880,2025-09-16,2025-09-26 20:03:58.728,AH,C,1370507832,JASSM,3,102,76,2,2,1,225,9,2,0,1,26,0,0,0,0,-160747.95544608062,-4786376.481416549,4203008.964323521,-2.36549,-0.396918,0.382536,74.5,-31.125,-32.375,0.0,0.0,0.0,0.0,0.0,0.0,2,0,41.46176433680295,-91.92352586901067,9999.999138311114,119.87056797961084,-0.0037194212996182,0.0022935669150514,,8959.781364859911,11075.263430171775,150,10,2025-09-16,2025-09-26 20:03:58.866,AH,C,4258661814,AMBUSH51,1,1,48,2,1,1,225,2,1,0,0,9,1,225,2,1,-148769.12870113077,-4790699.632813245,4198094.303263933,2.22608,2.79509,-0.370624,-85.4637,38.0071,43.7549,-0.266665,-7.06952,6.95404,0.0160299,0.00687741,-0.0125054,4,0,41.40517378101868,-91.77867649572973,9006.256400794382,-62.41618330377527,1.2977157131227326,-6.957296026706511,168.837,8959.781364859911,11075.263430171775,150,True,7.344928553438513,False,176.56559192302853,177.2626131496897,False,5.493094325243985,True,False
10,1970-07-23 11:28:50.398288464,2025-09-16,2025-09-26 20:03:59.828,AH,C,1371819426,JASSM,3,102,76,2,2,1,225,9,2,0,1,26,0,0,0,0,-160665.96569998687,-4786410.860322799,4202973.188932896,-2.36549,-0.396918,0.382536,74.5,-31.125,-32.375,0.0,0.0,0.0,0.0,0.0,0.0,2,0,41.461334709914425,-91.92253170955472,9999.998173194454,119.87122622985576,-0.0028593999143102,0.0022920729139298,,8959.781364859911,11075.263430171775,150,10,2025-09-16,2025-09-26 20:03:59.799,AH,C,4259775280,AMBUSH51,1,1,48,2,1,1,225,2,1,0,0,9,1,225,2,1,-148848.8581712664,-4790662.467072904,4198132.262311529,2.26753,2.79559,-0.361021,-86.2337,39.4073,41.2124,-0.274966,-7.08668,6.77155,0.0397362,-0.00325509,-0.0170515,4,0,41.40563641306368,-91.77964292200598,9003.301781243517,-62.82805028725318,0.931935380837232,-4.580158296754584,169.008,8959.781364859911,11075.263430171775,150,True,7.242050514129857,False,177.60671797706365,177.2056375366585,False,5.031265049220146,True,False
10,1970-07-23 11:28:50.409305588,2025-09-16,2025-09-26 20:04:00.930,AH,C,1373131804,JASSM,3,102,76,2,2,1,225,9,2,0,1,26,0,0,0,0,-160583.92663748687,-4786445.258760299,4202937.392057896,-2.36549,-0.396918,0.382536,74.5,-31.125,-32.375,0.0,0.0,0.0,0.0,0.0,0.0,2,0,41.46090482304136,-91.9215369657123,9999.999186071953,119.87188486141888,-0.0019988649843249,0.0022905839314495,,8959.781364859911,11075.263430171775,150,10,2025-09-16,2025-09-26 20:04:00.999,AH,C,4261206878,AMBUSH51,1,1,48,2,1,1,225,2,1,0,0,9,1,225,2,1,-148952.54537209112,-4790615.019294761,4198181.426737606,2.35776,2.79504,-0.359201,-86.6241,39.2338,41.0897,-0.28669,-7.18566,6.66751,0.0909126,0.00121195,0.00374195,4,0,41.40623142218541,-91.78089943938768,9001.20927709101,-62.88230457728809,0.8386327400891005,0.5774873818813513,168.788,8959.781364859911,11075.263430171775,150,True,7.123911326963035,False,177.8209745523178,177.13902570964447,False,4.883687003518419,True,False
10,1970-07-23 11:28:50.420347742,2025-09-16,2025-09-26 20:04:02.034,AH,C,1374386110,JASSM,3,102,76,2,2,1,225,9,2,0,1,26,0,0,0,0,-160505.51794608062,-4786478.133760299,4202903.179167271,-2.36549,-0.396918,0.382632,74.5,-31.125,-32.375,0.0,0.0,0.0,0.0,0.0,0.0,2,0,41.46049395816188,-91.92058625379322,10000.00131171802,119.87636215146036,-0.0050967864345137,0.0022889558875592,,8959.781364859911,11075.263430171775,150,10,2025-09-16,2025-09-26 20:04:02.233,AH,C,4262678244,AMBUSH51,1,1,48,2,1,1,225,2,1,0,0,9,1,225,2,1,-149059.88043289704,-4790565.852927247,4198232.432690769,2.41262,2.78713,-0.362222,-86.5519,39.5892,41.6406,0.0658059,-7.04604,6.6466,0.0221823,-0.00193807,0.00232506,4,0,41.40684839860805,-91.7822002055458,8999.172940531169,-62.46228655431761,0.6593790637295687,3.5663289545971777,168.605,8959.781364859911,11075.263430171775,150,True,7.005688442456273,False,177.49881083881417,177.06911819793922,False,5.24927983134592,True,False
10,1970-07-23 11:28:50.431367465,2025-09-16,2025-09-26 20:04:03.136,AH,C,1375696826,JASSM,3,102,76,2,2,1,225,9,2,0,1,26,0,0,0,0,-160423.58288748687,-4786512.487275924,4202867.425261021,-2.36549,-0.396918,0.382632,74.5,-31.125,-32.375,0.0,0.0,0.0,0.0,0.0,0.0,2,0,41.46006459096811,-91.91959279720568,10000.0030813868,119.87701991984956,-0.004237338347823,0.0022875189174421,,8959.781364859911,11075.263430171775,150,10,2025-09-16,2025-09-26 20:04:03.299,AH,C,4263950776,AMBUSH51,1,1,48,2,1,1,225,2,1,0,0,9,1,225,2,1,-149151.00855307706,-4790523.542145348,4198276.631176651,2.41391,2.77676,-0.375634,-86.1778,39.98,42.2498,-0.242664,-7.39449,6.96449,-0.0335402,-0.00188398,0.000194536,4,0,41.4073816203862,-91.78330479484237,8997.993380373413,-61.527001527882696,0.8080492820527052,3.437873335807246,168.788,8959.781364859911,11075.263430171775,150,True,6.895401995839102,False,177.0540968703367,177.00025080188848,False,5.735077321649362,True,False
10,1970-07-23 11:28:50.440244913,2025-09-16,2025-09-26 20:04:04.024,AH,C,1376770568,JASSM,3,102,76,2,2,1,225,9,2,0,1,26,0,0,0,0,-160356.46130545562,-4786540.627900924,4202838.134245396,-2.36549,-0.396918,0.382632,74.5,-31.125,-32.375,0.0,0.0,0.0,0.0,0.0,0.0,2,0,41.45971284804536,-91.91877896347783,10000.000574772344,119.87755875562824,-0.0035332764687575,0.0022863441165214,,8959.781364859911,11075.263430171775,150,10,2025-09-16,2025-09-26 20:04:04.132,AH,C,4264944942,AMBUSH51,1,1,48,2,1,1,225,2,1,0,0,9,1,225,2,1,-149222.77121868957,-4790489.953460298,4198311.90040908,2.37491,2.77786,-0.376164,-86.0916,40.31,42.5866,-0.235974,-7.42043,6.65974,-0.0877397,-0.000352661,-0.00989843,4,0,41.40780625028269,-91.78417476310338,8997.411853018213,-61.54758560355019,0.871949077324333,1.2262090954765532,168.739,8959.781364859911,11075.263430171775,150,True,6.806792038529346,False,176.81366298134907,176.94203234009785,False,6.032049574880555,True,False
10,1970-07-23 11:28:50.450286875,2025-09-16,2025-09-26 20:04:05.028,AH,C,1378023268,JASSM,3,102,76,2,2,1,225,9,2,0,1,26,0,0,0,0,-160278.15319998687,-4786573.457979049,4202803.960417271,-2.36549,-0.396918,0.382632,74.5,-31.125,-32.375,0.0,0.0,0.0,0.0,0.0,0.0,2,0,41.459302471207565,-91.91782950703671,9999.997960353016,119.8781873818664,-0.0027118728292895,0.0022849691504478,,8959.781364859911,11075.263430171775,150,10,2025-09-16,2025-09-26 20:04:04.999,AH,C,4265978874,AMBUSH51,1,1,48,2,1,1,225,2,1,0,0,9,1,225,2,1,-149297.24840733438,-4790454.908031497,4198348.886415474,2.31433,2.77478,-0.375929,-86.1269,40.2557,42.8075,-0.00387332,-6.85031,6.5029,-0.0452311,-0.00525454,0.00134719,4,0,41.40825062643018,-91.7850777205001,8997.184838470663,-61.44177978647782,0.746800599966427,-2.3083795602540844,168.483,8959.781364859911,11075.263430171775,150,True,6.709300389116174,False,176.75960847215003,176.8761196051688,False,6.12471595634214,True,False
10,1970-07-23 11:28:50.459324744,2025-09-16,2025-09-26 20:04:05.932,AH,C,1379097038,JASSM,3,102,76,2,2,1,225,9,2,0,1,26,0,0,0,0,-160211.03015311187,-4786601.598604049,4202774.669401646,-2.36549,-0.396918,0.382632,74.5,-31.125,-32.375,0.0,0.0,0.0,0.0,0.0,0.0,2,0,41.4589507160558,-91.91701567484952,10000.002186317945,119.87872620848078,-0.0020077996208376,0.002283801087221,,8959.781364859911,11075.263430171775,150,10,2025-09-16,2025-09-26 20:04:05.899,AH,C,4267052572,AMBUSH51,1,1,48,2,1,1,225,2,1,0,0,9,1,225,2,1,-149374.42401826393,-4790418.731191589,4198387.0073481295,2.27964,2.77936,-0.375906,-86.2452,40.1561,42.4412,-0.0105206,-6.889,6.51199,-0.035729,-0.010042,-0.0126011,4,0,41.40870888770007,-91.78601335488142,8996.849107521923,-61.61567475810887,0.9198679034399052,-4.202283240093626,168.385,8959.781364859911,11075.263430171775,150,True,6.617155376735093,False,176.9564244779999,176.81091737221345,False,6.022529457018001,True,False
10,1970-07-23 11:28:50.469384545,2025-09-16,2025-09-26 20:04:06.938,AH,C,1380230402,JASSM,3,102,76,2,2,1,225,9,2,0,1,26,0,0,0,0,-160140.18152029935,-4786631.299775924,4202743.749479771,-2.36549,-0.396822,0.382632,74.5,-31.125,-32.375,0.0,0.0,0.0,0.0,0.0,0.0,2,0,41.458579417813006,-91.91615668194918,9999.99989583572,119.87565812464014,-0.0048342698968909,0.0002317960584924,,8959.781364859911,11075.263430171775,150,10,2025-09-16,2025-09-26 20:04:07.067,AH,C,4268444404,AMBUSH51,1,1,48,2,1,1,225,2,1,0,0,9,1,225,2,1,-149475.86271476062,-4790371.3456036365,4198436.422245262,2.24885,2.7827,-0.370923,-86.8045,40.0419,41.7532,-0.0863674,-6.89957,6.59096,0.00109335,-0.0119457,-0.00705426,4,0,41.409305565559904,-91.78724310007338,8995.320924292,-61.9446665695582,0.8462973099294299,-5.901540009347801,167.945,8959.781364859911,11075.263430171775,150,True,6.507123103685624,False,177.4007538955853,176.729604412659,False,5.7251981176788185,True,False
10,1970-07-23 11:28:50.478423043,2025-09-16,2025-09-26 20:04:07.842,AH,C,1381363796,JASSM,3,102,76,2,2,1,225,9,2,0,1,26,0,0,0,0,-160069.33093436187,-4786661.000947799,4202712.829557896,-2.36549,-0.396822,0.382632,74.5,-31.125,-32.375,0.0,0.0,0.0,0.0,0.0,0.0,2,0,41.45820811352104,-91.91529767549466,10000.000968839748,119.8762268523039,-0.0040910967816783,0.0002305134592534,,8959.781364859911,11075.263430171775,150,10,2025-09-16,2025-09-26 20:04:07.867,AH,C,4269398804,AMBUSH51,1,1,48,2,1,1,225,2,1,0,0,9,1,225,2,1,-149545.2858930298,-4790339.411329357,4198469.600449389,2.24837,2.78591,-0.365487,-87.1758,39.7994,41.2497,-0.147257,-6.92778,6.44559,0.0076285,-0.005163,-0.0200829,4,0,41.40970664165033,-91.78808454806536,8994.108493830136,-62.2873047275588,0.7498494370958843,-5.86799216873732,168.483,8959.781364859911,11075.263430171775,150,True,6.417985053621235,False,177.75609844482568,176.66780438763584,False,5.466504542504063,True,False
10,1970-07-23 11:28:50.534361991,2025-09-16,2025-09-26 20:04:13.436,AH,C,1387987192,JASSM,3,102,76,2,2,1,225,9,2,0,1,26,0,0,0,0,-159655.28991873687,-4786834.553682174,4202532.120573521,-2.3654,-0.396822,0.382728,74.5,-31.125,-32.375,0.0,0.0,0.0,0.0,0.0,0.0,2,0,41.45603811766704,-91.91027796335364,9999.998971122206,119.88339815924466,-0.0036683250912,0.0057143583569871,,8959.781364859911,11075.263430171775,150,10,2025-09-16,2025-09-26 20:04:13.468,AH,C,4276079596,AMBUSH51,1,1,48,2,1,1,225,2,1,0,0,9,1,225,2,1,-150035.8785929886,-4790119.172663466,4198696.437572638,2.3191,2.80117,-0.365537,-87.3716,39.0004,40.8093,-0.0978579,-7.81236,6.83636,-0.0280683,0.00576845,0.00661109,4,0,41.41245697714996,-91.79402907264192,8982.455445828406,-62.86195661329066,1.3389817219954354,-1.513400664074129,168.654,8959.781364859911,11075.263430171775,150,True,5.8449879932124365,False,178.21463315158326,176.24970796708828,False,5.40111657718287,True,False
10,1970-07-23 11:28:50.543399396,2025-09-16,2025-09-26 20:04:14.339,AH,C,1389118598,JASSM,3,102,76,2,2,1,225,9,2,0,1,26,0,0,0,0,-159584.56384451812,-4786864.198213424,4202501.249479771,-2.3654,-0.396822,0.382728,74.5,-31.125,-32.375,0.0,0.0,0.0,0.0,0.0,0.0,2,0,41.45566741122418,-91.90942053521204,10000.001225463737,119.88396581341824,-0.0029264534271766,0.0057131177051245,,8959.781364859911,11075.263430171775,150,10,2025-09-16,2025-09-26 20:04:14.234,AH,C,4276994228,AMBUSH51,1,1,48,2,1,1,225,2,1,0,0,9,1,225,2,1,-150101.98191128054,-4790089.958679864,4198727.51449939,2.33139,2.80913,-0.369823,-87.3618,38.3377,41.2643,-0.0879647,-7.70254,7.15566,0.0769102,-0.00384598,0.0041227,4,0,41.41282825273358,-91.79482991436032,8983.145522841993,-62.98435191891233,1.8160359203192933,-0.6487844433282123,168.654,8959.781364859911,11075.263430171775,150,True,5.758411006249538,False,178.19538025546188,176.181938390854,False,5.31214327729015,True,False
10,1970-07-23 11:28:50.553522893,2025-09-16,2025-09-26 20:04:15.352,AH,C,1390192342,JASSM,3,102,76,2,2,1,225,9,2,0,1,26,0,0,0,0,-159517.44177420562,-4786892.329072799,4202471.950651646,-2.3654,-0.396822,0.382728,74.5,-31.125,-32.375,0.0,0.0,0.0,0.0,0.0,0.0,2,0,41.45531560163128,-91.90860680947569,9999.997247322895,119.88450453086614,-0.0022223925138627,0.005711950727635,,8959.781364859911,11075.263430171775,150,10,2025-09-16,2025-09-26 20:04:15.235,AH,C,4278187228,AMBUSH51,1,1,48,2,1,1,225,2,1,0,0,9,1,225,2,1,-150189.15806229247,-4790051.598057131,4198768.773891695,2.4648,2.8075,-0.367804,-87.2042,38.5372,41.7012,-0.274067,-6.97698,6.95029,0.181714,0.00354221,0.0089476,4,0,41.41331874724455,-91.79588600497792,8985.067666160683,-63.00692400516264,1.6736729348032866,6.960713583874427,168.299,8959.781364859911,11075.263430171775,150,True,5.660641427258669,False,177.92439669881963,176.1012779777003,False,5.630077608377663,True,False
10,1970-07-23 11:28:50.561338098,2025-09-16,2025-09-26 20:04:16.133,AH,C,1391267960,JASSM,3,102,76,2,2,1,225,9,2,0,1,26,0,0,0,0,-159450.20251639312,-4786920.510713424,4202442.601042271,-2.3654,-0.396726,0.382728,74.5,-31.125,-32.375,0.0,0.0,0.0,0.0,0.0,0.0,2,0,41.45496316459751,-91.9077916712192,10000.001338780765,119.88140764195252,-0.0050867198716461,0.0036595423707202,,8959.781364859911,11075.263430171775,150,10,2025-09-16,2025-09-26 20:04:16.133,AH,C,4279260926,AMBUSH51,1,1,48,2,1,1,225,2,1,0,0,9,1,225,2,1,-150266.95802673636,-4790016.104432744,4198806.418255889,2.62766,2.79519,-0.388023,-86.4537,39.6682,42.8875,-0.298372,-7.12644,7.15479,0.139569,0.00797388,0.0323231,4,0,41.41376952180384,-91.79682899347286,8985.47714215432,-61.720578216733166,2.0162152443090173,16.07305613146127,168.397,8959.781364859911,11075.263430171775,150,False,5.568423688545257,False,176.97497447504006,176.01612320318495,False,6.681955750769409,True,False
10,1970-07-23 11:28:50.570400748,2025-09-16,2025-09-26 20:04:17.040,AH,C,1392341702,JASSM,3,102,76,2,2,1,225,9,2,0,1,26,0,0,0,0,-159383.08142264312,-4786948.641572799,4202413.302214146,-2.3654,-0.396726,0.382728,74.5,-31.125,-32.375,0.0,0.0,0.0,0.0,0.0,0.0,2,0,41.45461134324631,-91.9069779747617,10000.003771980231,119.88194633256886,-0.004382666438296,0.003658326128966,,8959.781364859911,11075.263430171775,150,10,2025-09-16,2025-09-26 20:04:16.968,AH,C,4280255092,AMBUSH51,1,1,48,2,1,1,225,2,1,0,0,9,1,225,2,1,-150339.2001330419,-4789981.828691407,4198842.826343396,2.73545,2.76333,-0.414714,-85.1966,41.4998,44.53,-0.163333,-7.24051,7.24065,0.108111,0.0248205,0.0487327,4,0,41.414205735079605,-91.79770512280376,8985.774126657476,-59.45069433813813,1.9020405516477688,21.613182248386323,168.886,8959.781364859911,11075.263430171775,150,False,5.479374239446122,False,175.51131688668895,175.92331257067713,False,8.272631596223064,True,False
10,1970-07-23 11:28:50.580280169,2025-09-16,2025-09-26 20:04:18.028,AH,C,1393534272,JASSM,3,102,76,2,2,1,225,9,2,0,1,26,0,0,0,0,-159308.53064139312,-4786979.883760299,4202380.759245396,-2.3654,-0.396726,0.382728,74.5,-31.125,-32.375,0.0,0.0,0.0,0.0,0.0,0.0,2,0,41.45422057967199,-91.90607422089548,10000.00180299986,119.88254463939012,-0.0036006853170103,0.003656981739521,,8959.781364859911,11075.263430171775,150,10,2025-09-16,2025-09-26 20:04:18.000,AH,C,4281487858,AMBUSH51,1,1,48,2,1,1,225,2,1,0,0,9,1,225,2,1,-150425.7836017183,-4789937.598756107,4198889.843340926,2.85856,2.71705,-0.449104,-82.9887,44.017,47.1994,-0.18504,-7.25444,7.2055,0.0803869,0.0109533,0.0343205,4,0,41.414770101323775,-91.79875637711211,8985.727427572398,-56.35060431507407,1.6265991761766716,27.651908455664568,169.717,8959.781364859911,11075.263430171775,150,False,5.375218016538899,False,173.19301576322107,175.78925305255245,False,10.717641814845312,True,False
10,1970-07-23 11:28:50.591300505,2025-09-16,2025-09-26 20:04:19.130,AH,C,1394785624,JASSM,3,102,76,2,2,1,225,9,2,0,1,26,0,0,0,0,-159230.30603201812,-4787012.665010299,4202346.610807896,-2.3654,-0.396726,0.382728,74.5,-31.125,-32.375,0.0,0.0,0.0,0.0,0.0,0.0,2,0,41.45381054307759,-91.90512594233228,9999.998773261985,119.88317241764688,-0.0027801642690911,0.0036555634345164,,8959.781364859911,11075.263430171775,150,10,2025-09-16,2025-09-26 20:04:19.135,AH,C,4282839922,AMBUSH51,1,1,48,2,1,1,225,2,1,0,0,9,1,225,2,1,-150516.70568288054,-4789885.532933051,4198944.017707948,2.95061,2.65299,-0.495463,-79.6301,47.9051,50.2612,-0.358548,-7.70628,7.7185,0.0504992,0.038619,0.0521283,4,0,41.41542858462824,-91.79986243857,8982.285771964174,-52.14887615691803,1.333619358486922,31.36390705850185,170.12,8959.781364859911,11075.263430171775,150,False,5.2640976308179335,False,169.99427139371687,175.60533265876776,False,14.144781934214667,True,False
10,1970-07-23 11:28:50.601338918,2025-09-16,2025-09-26 20:04:20.133,AH,C,1395978616,JASSM,3,102,76,2,2,1,225,9,2,0,1,26,0,0,0,0,-159155.72986014312,-4787043.916963424,4202314.054167271,-2.3654,-0.396726,0.382728,74.5,-31.125,-32.375,0.0,0.0,0.0,0.0,0.0,0.0,2,0,41.4534196195572,-91.90422190325168,9999.997030989,119.88377090377874,-0.0019979108332534,0.0036542077733603,,8959.781364859911,11075.263430171775,150,10,2025-09-16,2025-09-26 20:04:20.133,AH,C,4284032922,AMBUSH51,1,1,48,2,1,1,225,2,1,0,0,9,1,225,2,1,-150594.18936983758,-4789835.648590187,4198995.561369922,3.04957,2.58613,-0.537756,-75.8972,51.4447,53.5017,-0.375047,-7.94761,8.02524,0.0653172,0.0271195,0.0488243,4,0,41.41605883448423,-91.80080711238382,8977.467287471303,-48.04859929489322,0.9487634527633392,35.222785811541925,171.342,8959.781364859911,11075.263430171775,150,False,5.162594588915582,False,166.72147738034298,175.39879730859613,False,17.629848895407402,True,False
10,1970-07-23 11:28:50.610382559,2025-09-16,2025-09-26 20:04:21.038,AH,C,1397114364,JASSM,3,102,76,2,2,1,225,9,2,0,1,26,0,0,0,0,-159084.73181326812,-4787073.668916549,4202283.060026646,-2.3654,-0.396726,0.382824,74.5,-31.125,-32.375,0.0,0.0,0.0,0.0,0.0,0.0,2,0,41.45304745200934,-91.90336124978889,9999.99863045613,119.88818876393272,-0.0051732880654058,0.0036527066973119,,8959.781364859911,11075.263430171775,150,10,2025-09-16,2025-09-26 20:04:21.000,AH,C,4285066854,AMBUSH51,1,1,48,2,1,1,225,2,1,0,0,9,1,225,2,1,-150658.47974793162,-4789788.825020732,4199043.439002787,3.11646,2.52144,-0.5774,-71.9503,54.5359,56.5263,-0.227222,-8.16705,8.12056,0.0195503,0.0320713,0.0671085,4,0,41.4166485887492,-91.80159299103975,8971.204220557644,-44.177632754426064,0.6979860342098293,37.14870821832636,172.039,8959.781364859911,11075.263430171775,150,False,5.0708968717160126,False,163.57297482046837,175.1765565290214,False,20.99856865528587,True,False
10,1970-07-23 11:28:50.621421415,2025-09-16,2025-09-26 20:04:22.142,AH,C,1398365058,JASSM,3,102,76,2,2,1,225,9,2,0,1,26,0,0,0,0,-159006.54821951812,-4787106.430635299,4202248.927214146,-2.3654,-0.396726,0.382824,74.5,-31.125,-32.375,0.0,0.0,0.0,0.0,0.0,0.0,2,0,41.4526376065492,-91.9024135035176,9999.997174641234,119.88881617529388,-0.0043531968746773,0.0036513425314981,,8959.781364859911,11075.263430171775,150,10,2025-09-16,2025-09-26 20:04:22.300,AH,C,4286617752,AMBUSH51,1,1,48,2,1,1,225,2,1,0,0,9,1,225,2,1,-150747.0005013704,-4789714.2129569445,4199119.510493718,-3.06983,2.40626,-0.642125,-64.9354,59.1651,61.3813,-0.197888,-8.94004,8.94721,0.0152934,0.0639564,0.0659788,4,0,41.4175894573113,-91.80267889748085,8959.677718236151,-37.62700602258381,0.4318917372155858,38.9803776001128,174.153,8959.781364859911,11075.263430171775,150,False,4.953597097880164,False,158.37786342826232,174.79309522411296,False,26.570232365731762,True,False
10,1970-07-23 11:28:50.631141209,2025-09-16,2025-09-26 20:04:23.114,AH,C,1399498924,JASSM,3,102,76,2,2,1,225,9,2,0,1,26,0,0,0,0,-158935.66736014312,-4787136.131807174,4202217.983854771,-2.3654,-0.396726,0.382824,74.5,-31.125,-32.375,0.0,0.0,0.0,0.0,0.0,0.0,2,0,41.45226604716203,-91.90155429192188,10000.00126071222,119.88938497197992,-0.0036097119282018,0.0036501154470565,,8959.781364859911,11075.263430171775,150,10,2025-09-16,2025-09-26 20:04:23.234,AH,C,4287731218,AMBUSH51,1,1,48,2,1,1,225,2,1,0,0,9,1,225,2,1,-150804.31996741556,-4789657.565880738,4199177.946619326,-3.06308,2.32602,-0.691647,-58.8917,62.2727,65.1719,-0.192998,-9.56971,9.53279,-0.061441,0.0543275,0.0666092,4,0,41.41831022763788,-91.80338520295656,8951.645700977895,-33.050150409960466,0.8061495603617074,36.571290475998005,175.473,8959.781364859911,11075.263430171775,150,False,4.862143485882813,False,154.2400370515399,174.45332338359444,False,31.03531619482186,False,False
10,1970-07-23 11:28:50.640719777,2025-09-16,2025-09-26 20:04:24.071,AH,C,1400691550,JASSM,3,102,76,2,2,1,225,9,2,0,1,26,0,0,0,0,-158861.11364920562,-4787167.370088424,4202185.435026646,-2.3654,-0.396726,0.382824,74.5,-31.125,-32.375,0.0,0.0,0.0,0.0,0.0,0.0,2,0,41.45187522513744,-91.90065056968456,10000.00014314037,119.88998323011523,-0.0028277008315056,0.0036488222960773,,8959.781364859911,11075.263430171775,150,10,2025-09-16,2025-09-26 20:04:23.967,AH,C,4288606084,AMBUSH51,1,1,48,2,1,1,225,2,1,0,0,9,1,225,2,1,-150846.15384884013,-4789610.467479277,4199227.785092773,-3.11769,2.27062,-0.727026,-54.5377,63.257,68.8371,-0.306746,-9.82262,9.85311,-0.20587,0.0590504,0.0467291,4,0,41.41891904429978,-91.80390286735955,8947.239165986553,-29.9413615039202,1.299911941718788,31.43209483485633,176.744,8959.781364859911,11075.263430171775,150,False,4.779077026753792,False,151.3266676001887,174.12962664876338,False,34.21791868903588,False,False
10,1970-07-23 11:28:50.650381460,2025-09-16,2025-09-26 20:04:25.038,AH,C,1401885800,JASSM,3,102,76,2,2,1,225,9,2,0,1,26,0,0,0,0,-158786.45837576812,-4787198.651338424,4202152.839323521,-2.3654,-0.39663,0.382824,74.5,-31.125,-32.375,0.0,0.0,0.0,0.0,0.0,0.0,2,0,41.45148384400604,-91.8997456270373,9999.998445966869,119.88694602270238,-0.0056142293412818,0.0015958222542554,,8959.781364859911,11075.263430171775,150,10,2025-09-16,2025-09-26 20:04:25.068,AH,C,4289918382,AMBUSH51,1,1,48,2,1,1,225,2,1,0,0,9,1,225,2,1,-150901.93931822968,-4789540.743588643,4199305.583877815,2.91617,2.21715,-0.780284,-48.8985,63.3811,73.2801,0.0267453,-9.50132,9.48051,-0.317949,0.0394117,0.0147088,4,0,41.419848598392775,-91.8045957929765,8948.968046680257,-26.50441095741648,2.8817333150953086,15.174461452736429,177.929,8959.781364859911,11075.263430171775,150,False,4.681082174838429,False,147.79353851066955,173.6310294419704,False,38.170281120099915,False,False
10,1970-07-23 11:28:50.660421260,2025-09-16,2025-09-26 20:04:26.042,AH,C,1403019438,JASSM,3,102,76,2,2,1,225,9,2,0,1,26,0,0,0,0,-158715.59216483062,-4787228.342744674,4202121.899870396,-2.3654,-0.39663,0.382824,74.5,-31.125,-32.375,0.0,0.0,0.0,0.0,0.0,0.0,2,0,41.451112346224505,-91.89888662488792,9999.999160261972,119.8875146678018,-0.0048709013091399,0.0015945517967185,,8959.781364859911,11075.263430171775,150,10,2025-09-16,2025-09-26 20:04:25.900,AH,C,4290912548,AMBUSH51,1,1,48,2,1,1,225,2,1,0,0,9,1,225,2,1,-150941.3864152773,-4789488.546722998,4199367.576154134,2.63817,2.22591,-0.801467,-47.1713,62.237,75.22,0.115204,-8.77855,8.66476,-0.342827,0.0318154,-0.0132315,4,0,41.4205702257177,-91.8050868771777,8958.227956476141,-26.240299455304257,4.118716180330633,-0.380495192203256,177.966,8959.781364859911,11075.263430171775,150,True,4.599145837333429,False,146.7357613672028,173.21070594910702,False,39.58961295588321,False,False
10,1970-07-23 11:28:50.669297770,2025-09-16,2025-09-26 20:04:26.929,AH,C,1404152832,JASSM,3,102,76,2,2,1,225,9,2,0,1,26,0,0,0,0,-158644.74157889312,-4787258.028291549,4202090.964323521,-2.3654,-0.39663,0.382824,74.5,-31.125,-32.375,0.0,0.0,0.0,0.0,0.0,0.0,2,0,41.450740900159495,-91.89802782166235,9999.998755769131,119.88808317702882,-0.0041277251068788,0.0015932610951621,,8959.781364859911,11075.263430171775,150,10,2025-09-16,2025-09-26 20:04:26.733,AH,C,4291906714,AMBUSH51,1,1,48,2,1,1,225,2,1,0,0,9,1,225,2,1,-150980.94803628884,-4789436.512039788,4199431.365595548,2.37497,2.26235,-0.798029,-47.8839,60.8424,75.916,0.294908,-8.01512,7.95497,-0.184429,0.010352,-0.031907,4,0,41.42130299234196,-91.8055792794007,8971.800602138666,-27.610945203047365,4.6564145272907504,-14.06838784574738,177.636,8959.781364859911,11075.263430171775,150,False,4.517183845017848,False,147.0894255751256,172.76837584653637,False,39.63554416237248,False,False
10,1970-07-23 11:28:50.679354272,2025-09-16,2025-09-26 20:04:27.935,AH,C,1405285394,JASSM,3,102,76,2,2,1,225,9,2,0,1,26,0,0,0,0,-158573.94275076812,-4787287.690400924,4202060.052214146,-2.3654,-0.39663,0.382824,74.5,-31.125,-32.375,0.0,0.0,0.0,0.0,0.0,0.0,2,0,41.450369735100594,-91.89716965629071,9999.99938784935,119.88865125982426,-0.0033851002283802,0.0015919849951898,,8959.781364859911,11075.263430171775,150,10,2025-09-16,2025-09-26 20:04:27.900,AH,C,4293298546,AMBUSH51,1,1,48,2,1,1,225,2,1,0,0,9,1,225,2,1,-151037.65056050787,-4789366.838946076,4199518.733297735,2.27758,2.32835,-0.769068,-50.4739,59.2312,74.9202,-0.0931142,-7.41771,7.26542,0.0551202,0.00293468,-0.0370231,4,0,41.42229663856117,-91.80628319410678,8994.514203134107,-30.772172597639813,4.618894812196054,-17.234647316453454,176.793,8959.781364859911,11075.263430171775,150,False,4.42078926108763,False,148.70217461423385,172.17701200927263,False,38.60637955618907,False,False
10,1970-07-23 11:28:50.688279501,2025-09-16,2025-09-26 20:04:28.827,AH,C,1406359734,JASSM,3,102,76,2,2,1,225,9,2,0,1,26,0,0,0,0,-158506.78259451812,-4787315.827119674,4202030.727995396,-2.3654,-0.39663,0.382824,74.5,-31.125,-32.375,0.0,0.0,0.0,0.0,0.0,0.0,2,0,41.45001763988797,-91.89635560532354,9999.99919067662,119.88919013618354,-0.0026806423598331,0.0015907742609315,,8959.781364859911,11075.263430171775,150,10,2025-09-16,2025-09-26 20:04:28.933,AH,C,4294531310,AMBUSH51,1,1,48,2,1,1,225,2,1,0,0,9,1,225,2,1,-151090.861241927,-4789305.114744341,4199595.559143915,2.51032,2.36114,-0.756217,-52.0274,58.3375,74.0483,-0.262144,-7.10575,6.94191,0.409187,0.00552918,-0.0154474,4,0,41.423172481544704,-91.80694239930412,9013.627708809345,-32.31811187174956,4.738334960908908,-2.7279024802469287,175.864,8959.781364859911,11075.263430171775,150,True,4.331692707477724,False,149.7274881501739,171.63229973243344,False,38.13285048648047,False,False
10,1970-07-23 11:28:50.697318254,2025-09-16,2025-09-26 20:04:29.731,AH,C,1407434122,JASSM,3,102,76,2,2,1,225,9,2,0,1,26,0,0,0,0,-158439.62048514312,-4787343.965791549,4202001.401823521,-2.3654,-0.39663,0.382824,74.5,-31.125,-32.375,0.0,0.0,0.0,0.0,0.0,0.0,2,0,41.44966551447427,-91.89554153903676,10000.002559687257,119.8897290189197,-0.0019761566034778,0.0015895513406358,,8959.781364859911,11075.263430171775,150,10,2025-09-16,2025-09-26 20:04:29.433,AH,C,160514,AMBUSH51,1,1,48,2,1,1,225,2,1,0,0,9,1,225,2,1,-151116.724826467,-4789275.382953589,4199632.415676087,2.69391,2.3646,-0.756394,-51.8267,58.4487,74.0686,-0.463952,-6.71309,6.78984,0.303398,0.014948,0.00520877,4,0,41.42359330955052,-91.80726271678355,9022.530206530424,-32.43350669067945,4.826943779501463,7.917685356956961,175.473,8959.781364859911,11075.263430171775,150,True,4.267178190841136,False,149.6167187860226,171.31748340786845,False,38.569041906128994,False,False
10,1970-07-23 11:28:50.706360671,2025-09-16,2025-09-26 20:04:30.636,AH,C,1408567068,JASSM,3,102,76,2,2,1,225,9,2,0,1,26,0,0,0,0,-158368.79724295562,-4787373.635713424,4201970.476042271,-2.3654,-0.39663,0.382824,74.5,-31.125,-32.375,0.0,0.0,0.0,0.0,0.0,0.0,2,0,41.449294196867335,-91.89468310704856,10000.000911169856,119.89029726608322,-0.0012332731659615,0.0015882692184575,,8959.781364859911,11075.263430171775,150,10,2025-09-16,2025-09-26 20:04:29.433,AH,C,160514,AMBUSH51,1,1,48,2,1,1,225,2,1,0,0,9,1,225,2,1,-151116.724826467,-4789275.382953589,4199632.415676087,2.69391,2.3646,-0.756394,-51.8267,58.4487,74.0686,-0.463952,-6.71309,6.78984,0.303398,0.014948,0.00520877,4,0,41.42359330955052,-91.80726271678355,9022.530206530424,-32.43350669067945,4.826943779501463,7.917685356956961,175.473,8959.781364859911,11075.263430171775,150,True,4.223118935860451,False,149.6167187860226,171.22539379468824,False,38.65704008586448,False,False
10,1970-07-23 11:28:50.716398286,2025-09-16,2025-09-26 20:04:31.639,AH,C,1409758304,JASSM,3,102,76,2,2,1,225,9,2,0,1,26,0,0,0,0,-158294.33044608062,-4787404.831025924,4201937.958464146,-2.3654,-0.39663,0.38292,74.5,-31.125,-32.375,0.0,0.0,0.0,0.0,0.0,0.0,2,0,41.44890377019669,-91.8937805233377,9999.998785374068,119.89474297692972,-0.0043721286079509,0.0015867594529039,,8959.781364859911,11075.263430171775,150,10,2025-09-16,2025-09-26 20:04:29.433,AH,C,160514,AMBUSH51,1,1,48,2,1,1,225,2,1,0,0,9,1,225,2,1,-151116.724826467,-4789275.382953589,4199632.415676087,2.69391,2.3646,-0.756394,-51.8267,58.4487,74.0686,-0.463952,-6.71309,6.78984,0.303398,0.014948,0.00520877,4,0,41.42359330955052,-91.80726271678355,9022.530206530424,-32.43350669067945,4.826943779501463,7.917685356956961,175.473,8959.781364859911,11075.263430171775,150,True,4.176804204496985,False,149.6167187860226,171.1264775930836,False,38.75158210939862,False,False
10,1970-07-23 11:28:50.726277084,2025-09-16,2025-09-26 20:04:32.627,AH,C,1410892608,JASSM,3,102,76,2,2,1,225,9,2,0,1,26,0,0,0,0,-158223.42224295562,-4787434.536104049,4201906.995573521,-2.3654,-0.39663,0.38292,74.5,-31.125,-32.375,0.0,0.0,0.0,0.0,0.0,0.0,2,0,41.44853199647,-91.89292108184254,10000.003274892904,119.89531188382894,-0.0036283551824924,0.0015855278188209,,8959.781364859911,11075.263430171775,150,10,2025-09-16,2025-09-26 20:04:34.000,AH,C,5608542,AMBUSH51,1,1,48,2,1,1,225,2,1,0,0,9,1,225,2,1,-151326.01237478387,-4788988.247835698,4199970.28962424,2.64555,2.15031,-0.775557,-41.3403,64.4649,76.4375,0.0687169,-6.48522,6.48281,-0.242965,0.00436821,0.00704593,4,0,41.427543082529205,-91.80987243983832,9066.213145956195,-24.19308828157726,1.4189668954612962,-2.932234168360712,176.12,8959.781364859911,11075.263430171775,150,True,3.941544623474701,False,143.44701051905457,168.5117766133245,False,47.747603992684276,False,False
