Subject_cm,Timestamp,SampleDate_cm,SampleTime_cm,Configuration_cm,Scenario_cm,DisTime_cm,MarkingTxt_cm,Application_cm,EntId_cm,Site_cm,ExerciseId_cm,ForceId_cm,Category_cm,Country_cm,Domain_cm,Kind_cm,Extra_cm,Specific_cm,Subcategory_cm,AltCategory_cm,AltCountry_cm,AltDomain_cm,AltKind_cm,ECEF_X_cm,ECEF_Y_cm,ECEF_Z_cm,OriPhi_cm,OriPsi_cm,OriTheta_cm,LinVelX_cm,LinVelY_cm,LinVelZ_cm,LinAccX_cm,LinAccY_cm,LinAccZ_cm,AngVelX_cm,AngVelY_cm,AngVelZ_cm,DrAlg_cm,Appearance_cm,Latitude_cm,Longitude_cm,Altitude_cm,Heading_cm,Pitch_cm,Roll_cm,CalibratedAirspeed_cm,CM_Altitude_Lead_cm,CM_Altitude_Wing_cm,CM_Airspeed_cm,Subject_ac,SampleDate_ac,SampleTime_ac,Configuration_ac,Scenario_ac,DisTime_ac,MarkingTxt_ac,Application_ac,EntId_ac,Site_ac,ExerciseId_ac,ForceId_ac,Category_ac,Country_ac,Domain_ac,Kind_ac,Extra_ac,Specific_ac,Subcategory_ac,AltCategory_ac,AltCountry_ac,AltDomain_ac,AltKind_ac,ECEF_X_ac,ECEF_Y_ac,ECEF_Z_ac,OriPhi_ac,OriPsi_ac,OriTheta_ac,LinVelX_ac,LinVelY_ac,LinVelZ_ac,LinAccX_ac,LinAccY_ac,LinAccZ_ac,AngVelX_ac,AngVelY_ac,AngVelZ_ac,DrAlg_ac,Appearance_ac,Latitude_ac,Longitude_ac,Altitude_ac,Heading_ac,Pitch_ac,Roll_ac,CalibratedAirspeed_ac,CM_Altitude_Lead_ac,CM_Altitude_Wing_ac,CM_Airspeed_ac,Bank_Angle_Condition,distance_nm,Distance_Condition,angle_between_vel,angle_between_pos,Cone_Condition,angle_between_pos_nose,Nose_Cone_Condition,Intercept_Criteria
10,1970-07-23 11:12:23.035459581,2025-09-15,2025-09-26 16:38:23.545,HA,C,2793155806,JASSM,3,116,76,2,2,1,225,9,2,0,1,26,0,0,0,0,-173030.46765311187,-4770005.727510299,4221429.866667271,-2.51458,-0.703426,0.607361,53.625,-45.375,-48.75,0.0,0.0,0.0,0.0,0.0,0.0,2,0,41.68092199108541,-92.07747560513072,10997.37121409728,139.8281221446052,-0.0014706522663769,0.0009622888116921,,10033.677516021671,11963.558957041,150,10,2025-09-15,2025-09-26 16:38:23.359,HA,C,2424600132,AMBUSH51,1,1,48,2,1,1,225,2,1,0,0,9,1,225,2,1,-141546.20875843588,-4793884.760554887,4195204.443964556,2.27974,2.97832,-0.226712,-100.146,24.9757,29.1333,-0.231961,-8.49385,7.84515,0.000687637,0.00790314,-0.00239789,4,0,41.36801828706616,-91.6912473317025,10036.23179161259,-75.23222293715993,2.9250709132556945,-1.2431591033528016,170.963,10033.677516021671,11963.558957041,150,True,25.534700532485893,False,149.77986621755252,177.20447773978947,False,27.454363472625705,True,False
10,1970-07-23 11:12:23.045219591,2025-09-15,2025-09-26 16:38:24.521,HA,C,2794230118,JASSM,3,116,76,2,2,1,225,9,2,0,1,26,0,0,0,0,-172982.21277029935,-4770046.665010299,4221385.886198521,-2.51458,-0.703426,0.607361,53.625,-45.375,-48.75,0.0,0.0,0.0,0.0,0.0,0.0,2,0,41.68039205944921,-92.07687893569606,10997.378636555108,139.82851891682952,-0.0007782564315428,0.0009609531492264,,10033.677516021671,11963.558957041,150,10,2025-09-15,2025-09-26 16:38:24.493,HA,C,2425952198,AMBUSH51,1,1,48,2,1,1,225,2,1,0,0,9,1,225,2,1,-141660.3456941636,-4793856.729111104,4195237.41124875,2.27932,2.97435,-0.224132,-99.9032,24.1511,29.3428,-0.214894,-7.33275,6.80933,0.0114485,-0.000134198,-0.00330086,4,0,41.36838756226861,-91.69262018131089,10047.023114818408,-75.19516722400192,2.662474207770976,-1.3160493308267245,170.132,10033.677516021671,11963.558957041,150,True,25.43532309804605,False,149.6094945189959,177.2677399115652,False,27.683247457758547,True,False
10,1970-07-23 11:12:23.054279795,2025-09-15,2025-09-26 16:38:25.427,HA,C,2795304768,JASSM,3,116,76,2,2,1,225,9,2,0,1,26,0,0,0,0,-172933.94275076812,-4770087.614229049,4221341.890104771,-2.51458,-0.703426,0.607456,53.625,-45.375,-48.75,0.0,0.0,0.0,0.0,0.0,0.0,2,0,41.67986195285519,-92.07628208938011,10997.382378632554,139.83213773844162,-0.0045325927400259,0.0009594833221854,,10033.677516021671,11963.558957041,150,10,2025-09-15,2025-09-26 16:38:25.593,HA,C,2427264496,AMBUSH51,1,1,48,2,1,1,225,2,1,0,0,9,1,225,2,1,-141769.4675847721,-4793830.123909316,4195268.961323222,2.28682,2.97876,-0.223022,-99.6161,23.994,29.1298,-0.196409,-7.35336,6.71313,0.00269541,0.00179035,0.000308968,4,0,41.36873965108688,-91.69393265397431,10057.894237011324,-75.4083263485745,2.804660049457524,-0.8406437771131282,169.521,10033.677516021671,11963.558957041,150,True,25.338552374564983,False,149.53258174190466,177.32857292232882,False,27.821992429954776,True,False
10,1970-07-23 11:12:23.063318946,2025-09-15,2025-09-26 16:38:26.331,HA,C,2796378576,JASSM,3,116,76,2,2,1,225,9,2,0,1,26,0,0,0,0,-172885.71081717435,-4770128.528291549,4221297.925261021,-2.51458,-0.703426,0.607456,53.625,-45.375,-48.75,0.0,0.0,0.0,0.0,0.0,0.0,2,0,41.6793322551231,-92.07568572500942,10997.374644282489,139.83253429963457,-0.0038405177849354,0.0009581785586132,,10033.677516021671,11963.558957041,150,10,2025-09-15,2025-09-26 16:38:26.293,HA,C,2428099596,AMBUSH51,1,1,48,2,1,1,225,2,1,0,0,9,1,225,2,1,-141839.12479026447,-4793813.378075438,4195288.903954581,2.28835,2.97441,-0.225528,-99.4086,23.8787,28.9194,-0.128156,-7.18826,6.4089,0.00367537,-0.0117065,-0.00021118,4,0,41.36896165352548,-91.6947703846415,10064.994225204411,-75.1394765752131,2.720348554813093,-0.7957569542036228,169.167,10033.677516021671,11963.558957041,150,True,25.261969357422718,False,149.4559319755009,177.36627974485089,False,27.93731455403365,True,False
10,1970-07-23 11:12:23.072271318,2025-09-15,2025-09-26 16:38:27.227,HA,C,2797452770,JASSM,3,116,76,2,2,1,225,9,2,0,1,26,0,0,0,0,-172837.46130545562,-4770169.457979049,4221253.948698521,-2.51458,-0.703426,0.607456,53.625,-45.375,-48.75,0.0,0.0,0.0,0.0,0.0,0.0,2,0,41.678802385857615,-92.07508915276904,10997.381099588676,139.83293099491686,-0.0031482092338284,0.0009568893848305,,10033.677516021671,11963.558957041,150,10,2025-09-15,2025-09-26 16:38:27.059,HA,C,2429014228,AMBUSH51,1,1,48,2,1,1,225,2,1,0,0,9,1,225,2,1,-141915.24463297357,-4793794.888712911,4195310.87966053,2.30027,2.97211,-0.229717,-99.1862,23.7916,28.9421,0.114461,-7.0297,6.44814,0.0281536,0.00103302,0.00600564,4,0,41.36920660956439,-91.69568591104876,10072.685312796595,-74.8752466971027,2.7857329476721766,-0.1297031895859439,168.593,10033.677516021671,11963.558957041,150,True,25.18201313736042,False,149.4750289190548,177.40792200550382,False,27.95986728830832,True,False
10,1970-07-23 11:12:23.081301012,2025-09-15,2025-09-26 16:38:28.130,HA,C,2798585762,JASSM,3,116,76,2,2,1,225,9,2,0,1,26,0,0,0,0,-172786.57068045562,-4770212.625947799,4221207.558073521,-2.51458,-0.703426,0.607456,53.625,-45.375,-48.75,0.0,0.0,0.0,0.0,0.0,0.0,2,0,41.6782434757348,-92.07445993650964,10997.371009420194,139.83334939260868,-0.0024179797184382,0.0009555077269963,,10033.677516021671,11963.558957041,150,10,2025-09-15,2025-09-26 16:38:27.959,HA,C,2430087926,AMBUSH51,1,1,48,2,1,1,225,2,1,0,0,9,1,225,2,1,-142004.08299224993,-4793773.254076939,4195336.742601802,2.32369,2.97146,-0.232771,-98.7612,23.9059,28.9965,-0.0656936,-7.26754,6.53038,0.0233432,0.00516924,-0.00835463,4,0,41.3694942724057,-91.69675443621304,10081.99511233747,-74.72119777036131,2.876337996981392,1.2111106188527478,168.324,10033.677516021671,11963.558957041,150,True,25.093285007847918,False,149.6167137480427,177.45718285744348,False,27.868397746376285,True,False
10,1970-07-23 11:12:23.090482886,2025-09-15,2025-09-26 16:38:29.048,HA,C,2799659558,JASSM,3,116,76,2,2,1,225,9,2,0,1,26,0,0,0,0,-172738.33923514312,-4770253.540010299,4221163.597136021,-2.51448,-0.703426,0.607456,53.625,-45.375,-48.75,0.0,0.0,0.0,0.0,0.0,0.0,2,0,41.67771379454726,-92.07386360787882,10997.3811669904,139.8337459174061,-0.0017259273714352,0.0064456885241603,,10033.677516021671,11963.558957041,150,10,2025-09-15,2025-09-26 16:38:29.192,HA,C,2431559292,AMBUSH51,1,1,48,2,1,1,225,2,1,0,0,9,1,225,2,1,-142126.1375114588,-4793743.313252866,4195372.39111324,2.34095,2.97046,-0.235794,-98.2272,24.1024,29.249,0.0240798,-6.99051,6.67336,0.0120831,-0.0111343,-0.0019568,4,0,41.36989154551155,-91.6982225675652,10094.509587163824,-74.55618253513191,2.95213768307659,2.1954205772682758,167.346,10033.677516021671,11963.558957041,150,True,24.989933293715957,False,149.88112561732552,177.52708031674172,False,27.6745574871118,True,False
10,1970-07-23 11:12:23.099239773,2025-09-15,2025-09-26 16:38:29.923,HA,C,2800733372,JASSM,3,116,76,2,2,1,225,9,2,0,1,26,0,0,0,0,-172690.10632498687,-4770294.450166549,4221119.628386021,-2.51448,-0.70333,0.607456,53.625,-45.375,-48.75,0.0,0.0,0.0,0.0,0.0,0.0,2,0,41.67718408138292,-92.07326727315288,10997.367637882646,139.83049111013102,-0.0036794852574657,0.0033101113460984,,10033.677516021671,11963.558957041,150,10,2025-09-15,2025-09-26 16:38:29.892,HA,C,2432394392,AMBUSH51,1,1,48,2,1,1,225,2,1,0,0,9,1,225,2,1,-142194.55648366513,-4793726.376144083,4195392.643170776,2.35292,2.96608,-0.243234,-97.8478,24.2415,29.4118,-0.0652036,-7.25307,6.40841,0.0157511,-0.00341738,0.0104539,4,0,41.3701169613156,-91.69904560577405,10101.733952644352,-74.0760649276128,3.0563862119172764,2.846417053822793,167.077,10033.677516021671,11963.558957041,150,True,24.91369825794125,False,150.06401765682116,177.56443407331565,False,27.52945156548652,True,False
10,1970-07-23 11:12:23.109281301,2025-09-15,2025-09-26 16:38:30.928,HA,C,2801926152,JASSM,3,116,76,2,2,1,225,9,2,0,1,26,0,0,0,0,-172636.53015311187,-4770339.895479049,4221070.792448521,-2.51448,-0.70333,0.607456,53.625,-45.375,-48.75,0.0,0.0,0.0,0.0,0.0,0.0,2,0,41.67659568887362,-92.0726048863324,10997.37185725376,139.8309315505194,-0.0029107381164147,0.0033086221339918,,10033.677516021671,11963.558957041,150,10,2025-09-15,2025-09-26 16:38:30.726,HA,C,2433388556,AMBUSH51,1,1,48,2,1,1,225,2,1,0,0,9,1,225,2,1,-142275.88142093798,-4793705.895977149,4195417.117453415,2.36919,2.96266,-0.24459,-97.437,24.7005,29.6202,-0.18869,-7.10241,6.6607,0.0145569,0.000242389,0.00698768,4,0,41.37038967528844,-91.70002402487546,10110.339551374069,-73.89124627801486,2.967540501091076,3.7414066353337376,166.808,10033.677516021671,11963.558957041,150,True,24.82610364325595,False,150.38608201382849,177.60900323142027,False,27.254016311136237,True,False
10,1970-07-23 11:12:23.119309047,2025-09-15,2025-09-26 16:38:31.930,HA,C,2803117730,JASSM,3,116,76,2,2,1,225,9,2,0,1,26,0,0,0,0,-172583.00818045562,-4770385.293916549,4221022.003386021,-2.51448,-0.70333,0.607456,53.625,-45.375,-48.75,0.0,0.0,0.0,0.0,0.0,0.0,2,0,41.67600787611914,-92.0719431820408,10997.372109364744,139.8313715319818,-0.002142759901696,0.0033071266948917,,10033.677516021671,11963.558957041,150,10,2025-09-15,2025-09-26 16:38:31.992,HA,C,2434899688,AMBUSH51,1,1,48,2,1,1,225,2,1,0,0,9,1,225,2,1,-142398.19399740643,-4793674.332858045,4195454.356925966,2.38385,2.95169,-0.248662,-96.8017,25.4495,29.9609,0.0521854,-6.90017,6.20059,0.014792,-0.00273494,0.0175529,4,0,41.37080725041732,-91.70149584947256,10122.349775594988,-73.31011969761406,2.6726979562373465,4.456189737385184,165.586,10033.677516021671,11963.558957041,150,True,24.717276468634438,False,150.90690785833485,177.67808937574134,False,26.805769771307467,True,False
10,1970-07-23 11:12:23.128500245,2025-09-15,2025-09-26 16:38:32.850,HA,C,2804191472,JASSM,3,116,76,2,2,1,225,9,2,0,1,26,0,0,0,0,-172534.77868826812,-4770426.204072799,4220978.038542271,-2.51448,-0.70333,0.607456,53.625,-45.375,-48.75,0.0,0.0,0.0,0.0,0.0,0.0,2,0,41.675478178349024,-92.0713469198058,10997.377235012364,139.83176799524838,-0.0014507169372285,0.0033057747393831,,10033.677516021671,11963.558957041,150,10,2025-09-15,2025-09-26 16:38:32.892,HA,C,2435973388,AMBUSH51,1,1,48,2,1,1,225,2,1,0,0,9,1,225,2,1,-142485.13794511827,-4793650.949569153,4195481.392682625,2.39982,2.9415,-0.251356,-96.3864,26.2232,30.2588,-0.324946,-6.804,6.55507,0.0164211,-0.0104956,0.0123265,4,0,41.37111351027927,-91.70254241917188,10129.785973047972,-72.81591751889685,2.357924497800376,5.248451160047515,165.183,10033.677516021671,11963.558957041,150,True,24.630766985262753,False,151.37702142546706,177.72575715212852,False,26.387215027870553,True,False
10,1970-07-23 11:12:23.139218373,2025-09-15,2025-09-26 16:38:33.921,HA,C,2805446090,JASSM,3,116,76,2,2,1,225,9,2,0,1,26,0,0,0,0,-172478.42468436187,-4770474.000947799,4220926.667448521,-2.51448,-0.70333,0.607456,53.625,-45.375,-48.75,0.0,0.0,0.0,0.0,0.0,0.0,2,0,41.67485927405119,-92.0706502285344,10997.374998704516,139.83223122997708,-0.0006421178850053,0.0033042117762174,,10033.677516021671,11963.558957041,150,10,2025-09-15,2025-09-26 16:38:33.926,HA,C,2437206152,AMBUSH51,1,1,48,2,1,1,225,2,1,0,0,9,1,225,2,1,-142584.35225130065,-4793623.333154322,4195512.619230504,2.41292,2.93093,-0.255666,-95.8396,27.3448,30.452,-0.192428,-6.90936,6.3376,0.010893,-0.0084753,0.00954265,4,0,41.371471062423446,-91.70373703327388,10136.79464715884,-72.23896633024461,2.0915564225590524,5.869547905056019,165.0,10033.677516021671,11963.558957041,150,True,24.530569437875645,False,151.95922719892758,177.77955923700117,False,25.866254263675845,True,False
10,1970-07-23 11:12:23.150238035,2025-09-15,2025-09-26 16:38:35.023,HA,C,2806816162,JASSM,3,116,76,2,2,1,225,9,2,0,1,26,0,0,0,0,-172416.88513358062,-4770526.196260299,4220870.569792271,-2.51448,-0.70333,0.607552,53.625,-45.25,-48.75,0.0,0.0,0.0,0.0,0.0,0.0,2,0,41.674183416306974,-92.06988944468786,10997.379064514344,139.83596125796194,-0.0042086563593023,0.003302394299865,,10033.677516021671,11963.558957041,150,10,2025-09-15,2025-09-26 16:38:35.225,HA,C,2438757052,AMBUSH51,1,1,48,2,1,1,225,2,1,0,0,9,1,225,2,1,-142709.0732169095,-4793586.840945394,4195552.534266446,2.41377,2.91468,-0.260828,-95.2253,28.58,30.8992,-0.159275,-6.92662,6.32948,-0.0265536,-0.00940949,0.00844826,4,0,41.37193553906605,-91.70523941537252,10142.675350560414,-71.41334849692596,1.6286326754877172,5.707055545154853,164.633,10033.677516021671,11963.558957041,150,True,24.411941502654773,False,152.7220885238745,177.8944752353184,False,25.21453307949079,True,False
10,1970-07-23 11:12:23.161259576,2025-09-15,2025-09-26 16:38:36.125,HA,C,2808068874,JASSM,3,116,76,2,2,1,225,9,2,0,1,26,0,0,0,0,-172360.61657889312,-4770573.918916549,4220819.272917271,-2.51448,-0.70333,0.607552,53.625,-45.25,-48.75,0.0,0.0,0.0,0.0,0.0,0.0,2,0,41.67356542722317,-92.0691938384328,10997.373243515844,139.83642375959164,-0.0034012725714947,0.0033008694529801,,10033.677516021671,11963.558957041,150,10,2025-09-15,2025-09-26 16:38:36.025,HA,C,2439711450,AMBUSH51,1,1,48,2,1,1,225,2,1,0,0,9,1,225,2,1,-142785.18875786924,-4793563.516726768,4195577.2950173095,2.39942,2.90411,-0.261767,-94.9565,29.4441,31.0898,-0.0509705,-6.89236,6.16082,-0.0277583,-0.00836295,0.02104,4,0,41.37222796615476,-91.70615668395668,10144.546139400158,-70.978102945302,1.2359878700539912,4.7393029873008405,164.413,10033.677516021671,11963.558957041,150,True,24.323083901177373,False,153.14696179581492,177.93365435248347,False,24.83486295382533,True,False
10,1970-07-23 11:12:23.171279379,2025-09-15,2025-09-26 16:38:37.127,HA,C,2809321572,JASSM,3,116,76,2,2,1,225,9,2,0,1,26,0,0,0,0,-172304.34900076812,-4770621.641572799,4220767.976042271,-2.51448,-0.70333,0.607552,53.625,-45.25,-48.75,0.0,0.0,0.0,0.0,0.0,0.0,2,0,41.67294743365181,-92.06849825719782,10997.371663341271,139.83688623896066,-0.0025938941781729,0.0032993377591335,,10033.677516021671,11963.558957041,150,10,2025-09-15,2025-09-26 16:38:37.359,HA,C,2441302116,AMBUSH51,1,1,48,2,1,1,225,2,1,0,0,9,1,225,2,1,-142910.90987985992,-4793523.52736626,4195618.630906119,2.39529,2.88169,-0.271374,-94.5569,30.7928,31.299,-0.000958741,-6.81353,6.18919,-0.0275335,-0.00654035,-0.00415183,4,0,41.37272262246736,-91.70767228854363,10144.990373963648,-69.73189512541734,0.7036452411450629,4.185329049897028,165.049,10033.677516021671,11963.558957041,150,True,24.207292182272024,False,153.7660502823913,178.0003698048185,False,24.293751113214427,True,False
10,1970-07-23 11:12:23.182304409,2025-09-15,2025-09-26 16:38:38.230,HA,C,2810575778,JASSM,3,116,76,2,2,1,225,9,2,0,1,26,0,0,0,0,-172248.01355154935,-4770669.418916549,4220716.620573521,-2.51448,-0.70333,0.607552,53.625,-45.25,-48.75,0.0,0.0,0.0,0.0,0.0,0.0,2,0,41.67232872961751,-92.06780185151472,10997.374356580802,139.83734926085378,-0.0017855724226886,0.0032978288013487,,10033.677516021671,11963.558957041,150,10,2025-09-15,2025-09-26 16:38:38.192,HA,C,2442296280,AMBUSH51,1,1,48,2,1,1,225,2,1,0,0,9,1,225,2,1,-142989.62547249306,-4793497.424588866,4195644.698786031,2.37465,2.88443,-0.264197,-94.3961,31.7239,31.2754,-0.221476,-6.94279,6.24669,-0.0636589,-0.00013836,-0.00717285,4,0,41.373039917319545,-91.7086216188628,10143.058214731733,-70.13641599926082,0.5344714979447216,3.0400791245198358,164.768,10033.677516021671,11963.558957041,150,True,24.11633919265193,False,154.09763588959157,178.03994853896697,False,24.011677721413385,True,False
10,1970-07-23 11:12:23.193321953,2025-09-15,2025-09-26 16:38:39.332,HA,C,2811888084,JASSM,3,116,76,2,2,1,225,9,2,0,1,26,0,0,0,0,-172189.06823904935,-4770719.411104049,4220662.882292271,-2.51448,-0.70333,0.607552,53.625,-45.25,-48.75,0.0,0.0,0.0,0.0,0.0,0.0,2,0,41.671681324895815,-92.0670731969598,10997.377213584,139.83783371814098,-0.0009397775611237,0.003296228808336,,10033.677516021671,11963.558957041,150,10,2025-09-15,2025-09-26 16:38:39.426,HA,C,2443767646,AMBUSH51,1,1,48,2,1,1,225,2,1,0,0,9,1,225,2,1,-143106.77401218153,-4793457.600608351,4195683.11662393,2.30785,2.87262,-0.255694,-94.4563,32.4915,30.8986,-0.0333684,-6.33028,5.74026,0.00315106,-0.0329826,0.000329774,4,0,41.373515372481904,-91.71003482598118,10136.967730638517,-70.04632395491548,-0.2745536792911027,-0.961075759142988,164.902,10033.677516021671,11963.558957041,150,True,24.002220342578443,False,154.18435472458074,178.10046659684173,False,23.998602924226343,True,False
10,1970-07-23 11:12:23.203459358,2025-09-15,2025-09-26 16:38:40.345,HA,C,2813200114,JASSM,3,116,76,2,2,1,225,9,2,0,1,26,0,0,0,0,-172130.13513358062,-4770769.391572799,4220609.155729771,-2.51448,-0.703234,0.607552,53.625,-45.25,-48.75,0.0,0.0,0.0,0.0,0.0,0.0,2,0,41.67103406168758,-92.0663447084911,10997.382569712574,139.83466484528515,-0.0027414770091285,0.000157918535064,,10033.677516021671,11963.558957041,150,10,2025-09-15,2025-09-26 16:38:40.226,HA,C,2444722044,AMBUSH51,1,1,48,2,1,1,225,2,1,0,0,9,1,225,2,1,-143182.38557738237,-4793431.187631377,4195707.539263424,2.34313,2.86696,-0.250154,-94.5612,33.404,30.3017,-0.183147,-6.45,5.98507,0.0384712,-0.0018923,-0.0110698,4,0,41.37382393260285,-91.71094722124668,10130.485938767362,-70.06326470744712,-0.719853288269789,0.9789588789214329,165.501,10033.677516021671,11963.558957041,150,True,23.910559381682937,False,154.21171667888265,178.13783915646258,False,24.025219735862112,True,False
10,1970-07-23 11:12:23.215478968,2025-09-15,2025-09-26 16:38:41.547,HA,C,2814511324,JASSM,3,116,76,2,2,1,225,9,2,0,1,26,0,0,0,0,-172071.23913748687,-4770819.336885299,4220555.460417271,-2.51448,-0.703234,0.607552,53.625,-45.25,-48.75,0.0,0.0,0.0,0.0,0.0,0.0,2,0,41.670387206046,-92.06561669491704,10997.37782257976,139.83514886414943,-0.001896403586849,0.0001562755350108,,10033.677516021671,11963.558957041,150,10,2025-09-15,2025-09-26 16:38:41.592,HA,C,2446352476,AMBUSH51,1,1,48,2,1,1,225,2,1,0,0,9,1,225,2,1,-143311.80856136553,-4793384.617896074,4195748.751838295,2.35631,2.86452,-0.244305,-94.8092,34.2071,30.3122,-0.0526701,-6.80228,6.23847,0.0156929,-0.00352349,0.0156991,4,0,41.37435616148313,-91.71250945874108,10114.772832908677,-70.2151581706428,-1.0471696737588811,1.7021314038770212,166.136,10033.677516021671,11963.558957041,150,True,23.78954253716428,False,154.40019305944762,178.20428169047014,False,23.91661094315054,True,False
10,1970-07-23 11:12:23.225257538,2025-09-15,2025-09-26 16:38:42.525,HA,C,2815765328,JASSM,3,116,76,2,2,1,225,9,2,0,1,26,0,0,0,0,-172014.91247733062,-4770867.102510299,4220504.104948521,-2.51448,-0.703234,0.607552,53.625,-45.25,-48.75,0.0,0.0,0.0,0.0,0.0,0.0,2,0,41.66976855244885,-92.06492045490413,10997.369821714989,139.8356117526375,-0.0010881868961617,0.0001546958358732,,10033.677516021671,11963.558957041,150,10,2025-09-15,2025-09-26 16:38:42.560,HA,C,2447505708,AMBUSH51,1,1,48,2,1,1,225,2,1,0,0,9,1,225,2,1,-143404.07959067688,-4793350.9325046325,4195777.961889288,2.38152,2.85565,-0.246099,-95.0507,34.8718,30.41,-0.304618,-6.95159,6.60721,0.0149813,-0.00221479,-0.00992132,4,0,41.3747373119804,-91.71362343270832,10102.01275710389,-69.80265469125915,-1.3339471462937411,3.014632636662838,167.163,10033.677516021671,11963.558957041,150,True,23.690890830007103,False,154.57856705615856,178.25052188586116,False,23.795035258318556,True,False
10,1970-07-23 11:12:23.236280760,2025-09-15,2025-09-26 16:38:43.628,HA,C,2817078228,JASSM,3,116,76,2,2,1,225,9,2,0,1,26,0,0,0,0,-171955.94030936187,-4770917.114229049,4220450.339323521,-2.51448,-0.703234,0.607648,53.625,-45.25,-48.75,0.0,0.0,0.0,0.0,0.0,0.0,2,0,41.6691208343797,-92.06419152754796,10997.376530821864,139.83931879165343,-0.004688606466908,0.0001529017112653,,10033.677516021671,11963.558957041,150,10,2025-09-15,2025-09-26 16:38:43.668,HA,C,2448818008,AMBUSH51,1,1,48,2,1,1,225,2,1,0,0,9,1,225,2,1,-143508.78578527056,-4793311.857829236,4195811.285655383,2.38183,2.85008,-0.241702,-95.2639,35.6525,30.6628,-0.186521,-7.03692,6.38581,-0.01314,-0.00899337,0.014534,4,0,41.375176064662455,-91.71488785568005,10085.83303730508,-69.77314594695476,-1.7310733785998604,2.954193304654724,167.481,10033.677516021671,11963.558957041,150,True,23.58292271139747,False,154.8541299867326,178.302731619116,False,23.5835949263968,True,False
10,1970-07-23 11:12:23.247321266,2025-09-15,2025-09-26 16:38:44.732,HA,C,2818390378,JASSM,3,116,76,2,2,1,225,9,2,0,1,26,0,0,0,0,-171897.00207694,-4770967.094697799,4220396.604948521,-2.51448,-0.703234,0.607648,53.625,-45.25,-48.75,0.0,0.0,0.0,0.0,0.0,0.0,2,0,41.66847350120831,-92.0634630353218,10997.38242140984,139.83980311062783,-0.0038429269442538,0.0001513049929166,,10033.677516021671,11963.558957041,150,10,2025-09-15,2025-09-26 16:38:44.692,HA,C,2450050772,AMBUSH51,1,1,48,2,1,1,225,2,1,0,0,9,1,225,2,1,-143606.31850185536,-4793274.542669319,4195842.562368114,2.38572,2.83926,-0.242423,-95.4586,36.6873,30.7358,0.0108519,-6.78269,6.13916,0.00633437,-0.00757857,0.00489876,4,0,41.37559179544961,-91.71606599767894,10069.021986681755,-69.3287688714495,-2.137462348083065,3.013448270545017,168.287,10033.677516021671,11963.558957041,150,True,23.47860518340889,False,155.12949658049467,178.3503655509877,False,23.37324772403843,True,False
10,1970-07-23 11:12:23.259317423,2025-09-15,2025-09-26 16:38:45.931,HA,C,2819760728,JASSM,3,116,76,2,2,1,225,9,2,0,1,26,0,0,0,0,-171835.449342565,-4771019.290010299,4220340.483854771,-2.51448,-0.703234,0.607648,53.625,-45.25,-48.75,0.0,0.0,0.0,0.0,0.0,0.0,2,0,41.66779744043892,-92.06270224372734,10997.38115205196,139.84030889640297,-0.0029597281746151,0.0001496324192348,,10033.677516021671,11963.558957041,150,10,2025-09-15,2025-09-26 16:38:45.926,HA,C,2451522138,AMBUSH51,1,1,48,2,1,1,225,2,1,0,0,9,1,225,2,1,-143724.16054419323,-4793228.565142574,4195880.363880351,2.39475,2.83424,-0.24033,-95.7397,37.8377,30.8847,-0.0742854,-6.80218,6.34314,0.00723527,-0.0102813,0.0037794,4,0,41.37609946529964,-91.7174898072826,10046.54903847564,-69.22316480069678,-2.42114870345397,3.458003416496993,169.13,10033.677516021671,11963.558957041,150,True,23.360634309598144,False,155.43702680379218,178.4078382065298,False,23.14389578934578,True,False
10,1970-07-23 11:12:23.269458950,2025-09-15,2025-09-26 16:38:46.945,HA,C,2821073886,JASSM,3,116,76,2,2,1,225,9,2,0,1,26,0,0,0,0,-171776.46569998687,-4771069.305635299,4220286.702604771,-2.51439,-0.703234,0.607648,53.625,-45.25,-48.75,0.0,0.0,0.0,0.0,0.0,0.0,2,0,41.667149582161706,-92.06197322153406,10997.376223690126,139.8407935550833,-0.0021133847765988,0.0056394948741262,,10033.677516021671,11963.558957041,150,10,2025-09-15,2025-09-26 16:38:46.795,HA,C,2452556070,AMBUSH51,1,1,48,2,1,1,225,2,1,0,0,9,1,225,2,1,-143808.03236709564,-4793195.098989319,4195907.454087925,2.46716,2.82922,-0.245485,-95.8343,38.4803,31.4169,-0.315782,-7.10867,6.49489,0.209792,-0.00733722,0.000333935,4,0,41.37646644881651,-91.7185034579786,10029.135317872904,-68.81725736130043,-2.4171430683867667,7.520125555544382,169.79,10033.677516021671,11963.558957041,150,True,23.263390622366067,False,155.796797430935,178.44708040508604,False,22.832900139728956,True,False
10,1970-07-23 11:12:23.280258790,2025-09-15,2025-09-26 16:38:48.025,HA,C,2822326768,JASSM,3,116,76,2,2,1,225,9,2,0,1,26,0,0,0,0,-171720.18908865875,-4771117.024385299,4220235.390104771,-2.51439,-0.703234,0.607648,53.625,-45.25,-48.75,0.0,0.0,0.0,0.0,0.0,0.0,2,0,41.66653146447247,-92.0612776717718,10997.373329024584,139.84125595531188,-0.0013058931767141,0.0056379663197933,,10033.677516021671,11963.558957041,150,10,2025-09-15,2025-09-26 16:38:48.162,HA,C,2454186502,AMBUSH51,1,1,48,2,1,1,225,2,1,0,0,9,1,225,2,1,-143938.71331865483,-4793141.1451677,4195951.324057168,2.63815,2.82104,-0.275968,-95.2328,40.1843,34.02,-0.164017,-7.93742,7.22689,0.0274836,0.0057414,0.0465689,4,0,41.37706020823102,-91.72008350557589,10001.159164612787,-67.24526357689736,-1.5304285858388784,17.142366501423847,170.499,10033.677516021671,11963.558957041,150,False,23.141495152217775,False,157.40511981534166,178.5081862875628,False,21.29453530806046,True,False
10,1970-07-23 11:12:23.291246419,2025-09-15,2025-09-26 16:38:49.124,HA,C,2823639370,JASSM,3,116,76,2,2,1,225,9,2,0,1,26,0,0,0,0,-171661.23034842435,-4771167.016572799,4220181.632292271,-2.51439,-0.703234,0.607648,53.625,-45.25,-48.75,0.0,0.0,0.0,0.0,0.0,0.0,2,0,41.66588388933731,-92.06054898691366,10997.373228369632,139.84174037765678,-0.0004599217576691,0.0056363688584582,,10033.677516021671,11963.558957041,150,10,2025-09-15,2025-09-26 16:38:49.158,HA,C,2455379500,AMBUSH51,1,1,48,2,1,1,225,2,1,0,0,9,1,225,2,1,-144033.43011419708,-4793099.653573904,4195986.514052298,2.70457,2.78189,-0.309479,-94.1939,42.0506,36.7559,-0.126413,-7.94154,7.0688,0.0818163,0.0127322,0.0240881,4,0,41.37752765333601,-91.72122959188046,9982.376490127184,-64.37049627552176,-1.7219769142022332,20.21878581055315,172.027,10033.677516021671,11963.558957041,150,False,23.03586212097289,False,159.19053398932311,178.54813203316382,False,19.55709743545099,True,False
10,1970-07-23 11:12:23.302301529,2025-09-15,2025-09-26 16:38:50.230,HA,C,2824950480,JASSM,3,116,76,2,2,1,225,9,2,0,1,26,0,0,0,0,-171602.33825858062,-4771216.950166549,4220127.933073521,-2.51439,-0.703138,0.607648,53.625,-45.25,-48.75,0.0,0.0,0.0,0.0,0.0,0.0,2,0,41.66523703937082,-92.05982114127892,10997.367838749498,139.83857368165758,-0.0022605941304419,0.0024995399323356,,10033.677516021671,11963.558957041,150,10,2025-09-15,2025-09-26 16:38:50.271,HA,C,2456691800,AMBUSH51,1,1,48,2,1,1,225,2,1,0,0,9,1,225,2,1,-144135.48849927125,-4793051.8812613655,4196028.259008079,2.76293,2.76484,-0.336891,-92.5281,44.8038,39.8482,-0.31691,-7.81331,7.39649,0.0176611,0.0205074,0.0343392,4,0,41.37807538874554,-91.7224656337751,9962.903967938682,-62.60439808357177,-1.2679548467580772,23.20577553064142,172.21,10033.677516021671,11963.558957041,150,False,22.924020383514822,False,161.46829092785862,178.5875078037759,False,17.340214726897276,True,False
10,1970-07-23 11:12:23.313277373,2025-09-15,2025-09-26 16:38:51.327,HA,C,2826264514,JASSM,3,116,76,2,2,1,225,9,2,0,1,26,0,0,0,0,-171543.31506522125,-4771266.997041549,4220074.116667271,-2.51439,-0.703138,0.607648,53.625,-45.25,-48.75,0.0,0.0,0.0,0.0,0.0,0.0,2,0,41.66458874787011,-92.05909168904324,10997.377335826202,139.83905860186132,-0.0014136985345402,0.0024978873328747,,10033.677516021671,11963.558957041,150,10,2025-09-15,2025-09-26 16:38:51.359,HA,C,2458004098,AMBUSH51,1,1,48,2,1,1,225,2,1,0,0,9,1,225,2,1,-144236.69515020784,-4793000.613778297,4196073.827452122,2.80512,2.71526,-0.378761,-90.4544,47.332,43.242,-0.155171,-7.99461,7.3633,0.040427,0.0210629,0.048791,4,0,41.37866986821954,-91.7236927824495,9943.067406383114,-59.025103600973154,-1.4124104200817436,24.54437139517372,172.906,10033.677516021671,11963.558957041,150,False,22.810233855356906,False,163.88614180492854,178.62172921046837,False,14.974683213920393,True,False
10,1970-07-23 11:12:23.325298183,2025-09-15,2025-09-26 16:38:52.529,HA,C,2827635122,JASSM,3,116,76,2,2,1,225,9,2,0,1,26,0,0,0,0,-171481.75036795562,-4771319.196260299,4220017.979948521,-2.51439,-0.703138,0.607744,53.625,-45.25,-48.75,0.0,0.0,0.0,0.0,0.0,0.0,2,0,41.66391253188946,-92.05833084375816,10997.379069009014,139.84278905790666,-0.0049795205354081,0.0024960049924433,,10033.677516021671,11963.558957041,150,10,2025-09-15,2025-09-26 16:38:52.425,HA,C,2459276630,AMBUSH51,1,1,48,2,1,1,225,2,1,0,0,9,1,225,2,1,-144331.2776008268,-4792948.689992391,4196121.29664788,2.86666,2.68249,-0.410155,-87.9848,50.1622,46.6884,-0.152259,-7.95288,7.27288,0.0388457,0.0131483,0.0279934,4,0,41.379282260329234,-91.72484107669771,9925.255002437689,-56.52966955011924,-1.2971552093487753,27.289143567304677,173.554,10033.677516021671,11963.558957041,150,False,22.69579410673775,False,166.47369930439197,178.64832223009165,False,12.443539487837045,True,False
10,1970-07-23 11:12:23.335317211,2025-09-15,2025-09-26 16:38:53.531,HA,C,2828889102,JASSM,3,116,76,2,2,1,225,9,2,0,1,26,0,0,0,0,-171425.42444022125,-4771366.950166549,4219966.616667271,-2.51439,-0.703138,0.607744,53.625,-45.25,-48.75,0.0,0.0,0.0,0.0,0.0,0.0,2,0,41.66329385084732,-92.05763475708284,10997.368957754385,139.8432517857697,-0.0041713228078493,0.0024944677918819,,10033.677516021671,11963.558957041,150,10,2025-09-15,2025-09-26 16:38:53.491,HA,C,2460549162,AMBUSH51,1,1,48,2,1,1,225,2,1,0,0,9,1,225,2,1,-144424.30205700247,-4792892.790374339,4196172.712366724,2.89472,2.63502,-0.441704,-85.1705,53.4666,49.8106,-0.251607,-7.97197,7.22931,-0.015179,0.0245104,0.049386,4,0,41.3799452142971,-91.7259722174583,9906.110325813488,-53.48181639571533,-1.6340506458640678,27.69469270114006,173.811,10033.677516021671,11963.558957041,150,False,22.584084010636314,False,169.09299941342744,178.66897232489086,False,9.913531328711379,True,False
10,1970-07-23 11:12:23.345458098,2025-09-15,2025-09-26 16:38:54.545,HA,C,2830141926,JASSM,3,116,76,2,2,1,225,9,2,0,1,26,0,0,0,0,-171369.15051444,-4771414.661104049,4219915.304167271,-2.51439,-0.703138,0.607744,53.625,-45.25,-48.75,0.0,0.0,0.0,0.0,0.0,0.0,2,0,41.66267575261941,-92.05693932588282,10997.373084393512,139.84371407227192,-0.0033638830705191,0.0024929425174231,,10033.677516021671,11963.558957041,150,10,2025-09-15,2025-09-26 16:38:54.592,HA,C,2461861460,AMBUSH51,1,1,48,2,1,1,225,2,1,0,0,9,1,225,2,1,-144516.0457773037,-4792832.610334981,4196229.105883948,2.91887,2.58136,-0.483378,-81.8113,56.2815,53.3399,-0.206877,-8.18073,7.50816,-0.00346731,0.0216101,0.032991,4,0,41.380667456494464,-91.72708962816677,9887.14156152471,-49.83846798981231,-1.6428863336559203,27.601939626048253,174.972,10033.677516021671,11963.558957041,150,False,22.470149807481864,False,171.88334701773604,178.6831652667724,False,7.225120790207842,True,False
10,1970-07-23 11:12:23.357218157,2025-09-15,2025-09-26 16:38:55.721,HA,C,2831452584,JASSM,3,116,76,2,2,1,225,9,2,0,1,26,0,0,0,0,-171310.27868826812,-4771464.575166549,4219861.620573521,-2.51439,-0.703138,0.607744,53.625,-45.25,-48.75,0.0,0.0,0.0,0.0,0.0,0.0,2,0,41.6620290968892,-92.05621180392616,10997.378281806135,139.84419768501942,-0.0025191535057974,0.0024913351568517,,10033.677516021671,11963.558957041,150,10,2025-09-15,2025-09-26 16:38:55.558,HA,C,2463014692,AMBUSH51,1,1,48,2,1,1,225,2,1,0,0,9,1,225,2,1,-144593.0955989883,-4792777.253472422,4196281.5407756,2.92232,2.54327,-0.511595,-78.8005,58.7395,56.2481,-0.387877,-8.00532,7.46703,-0.024912,0.0137288,0.0479983,4,0,41.38133691141532,-91.7280298274417,9870.371893707985,-47.32968246431714,-1.6280016003375148,26.6857930860102,175.314,10033.677516021671,11963.558957041,150,False,22.361595737392435,False,174.20230834833876,178.6887083189666,False,5.0761670841420745,True,False
10,1970-07-23 11:12:23.368238140,2025-09-15,2025-09-26 16:38:56.823,HA,C,2832767016,JASSM,3,116,76,2,2,1,225,9,2,0,1,26,0,0,0,0,-171251.23718436187,-4771514.629854049,4219807.780729771,-2.51439,-0.703138,0.607744,53.625,-45.25,-48.75,0.0,0.0,0.0,0.0,0.0,0.0,2,0,41.66138058178221,-92.05548220115143,10997.376810218646,139.84468267478474,-0.0016719968171528,0.0024897281986903,,10033.677516021671,11963.558957041,150,10,2025-09-15,2025-09-26 16:38:56.893,HA,C,2464605358,AMBUSH51,1,1,48,2,1,1,225,2,1,0,0,9,1,225,2,1,-144696.07538489468,-4792696.295446923,4196359.443551791,2.85131,2.49615,-0.570048,-74.6413,61.2736,60.5542,-0.290401,-9.86618,9.05014,-0.103902,0.0752,0.0308459,4,0,41.38232592787557,-91.72928898312792,9847.778510651511,-43.43389160729264,-0.4476962639779064,21.15645727510189,176.072,10033.677516021671,11963.558957041,150,False,22.229050000488158,False,177.22230968451214,178.68880791023966,False,2.615605129252407,True,False
10,1970-07-23 11:12:23.379279393,2025-09-15,2025-09-26 16:38:57.927,HA,C,2834077286,JASSM,3,116,76,2,2,1,225,9,2,0,1,26,0,0,0,0,-171192.38269217435,-4771564.528291549,4219754.108854771,-2.51439,-0.703138,0.607744,53.625,-45.25,-48.75,0.0,0.0,0.0,0.0,0.0,0.0,2,0,41.66073408515567,-92.0547549229488,10997.379922278353,139.84516611317073,-0.0008274992122649,0.0024881068872679,,10033.677516021671,11963.558957041,150,10,2025-09-15,2025-09-26 16:38:57.759,HA,C,2465639290,AMBUSH51,1,1,48,2,1,1,225,2,1,0,0,9,1,225,2,1,-144759.83180075893,-4792643.426374128,4196413.792568466,2.78914,2.47977,-0.593612,-72.1126,61.1008,64.2964,-0.376924,-8.85472,7.93087,-0.0553698,-0.0128009,0.00860846,4,0,41.38299588573756,-91.73006955773712,9840.308191273836,-41.9901431470976,0.1462469666695181,17.07441141048908,176.841,10033.677516021671,11963.558957041,150,False,22.125192917023806,False,179.42684123120904,178.68382456063893,False,1.4594766238080172,True,False
10,1970-07-23 11:12:23.389299447,2025-09-15,2025-09-26 16:38:58.929,HA,C,2835331862,JASSM,3,116,76,2,2,1,225,9,2,0,1,26,0,0,0,0,-171136.02990897125,-4771612.301729049,4219702.718229771,-2.51439,-0.703138,0.607744,53.625,-45.25,-48.75,0.0,0.0,0.0,0.0,0.0,0.0,2,0,41.66011508728668,-92.05405857427408,10997.377048836452,139.84562898622733,-1.8916492420562408e-05,0.0024865681358258,,10033.677516021671,11963.558957041,150,10,2025-09-15,2025-09-26 16:38:58.925,HA,C,2467031122,AMBUSH51,1,1,48,2,1,1,225,2,1,0,0,9,1,225,2,1,-144842.08582359893,-4792571.962716354,4196489.528730515,2.71952,2.45975,-0.607032,-69.7216,61.9259,66.4661,-0.177382,-7.88934,6.98993,-0.065288,0.00552086,0.0202431,4,0,41.3839175144665,-91.731077799685,9834.854548556652,-40.77205210538489,0.1928532554693983,12.441237185510287,176.072,10033.677516021671,11963.558957041,150,False,22.005399380515122,False,178.62685603373401,178.6742161763495,False,2.6422893699551206,True,False
10,1970-07-23 11:12:23.400315679,2025-09-15,2025-09-26 16:39:00.031,HA,C,2836584818,JASSM,3,116,76,2,2,1,225,9,2,0,1,26,0,0,0,0,-171079.74963553375,-4771660.012666549,4219651.394011021,-2.51439,-0.703043,0.607744,53.625,-45.25,-48.75,0.0,0.0,0.0,0.0,0.0,0.0,2,0,41.65949688965694,-92.05336313535248,10997.376429867472,139.8424388136321,-0.001858738886214,-0.0006526031166506,,10033.677516021671,11963.558957041,150,10,2025-09-15,2025-09-26 16:38:59.892,HA,C,2468184354,AMBUSH51,1,1,48,2,1,1,225,2,1,0,0,9,1,225,2,1,-144908.66946214752,-4792512.030024111,4196553.984736572,2.68095,2.44118,-0.624042,-68.2711,61.6653,68.1093,-0.154846,-7.96945,6.95428,-0.0369774,0.00157605,0.0130172,4,0,41.38469720781146,-91.7318947331542,9832.148718187493,-39.495630009752034,0.4647053991816546,9.624420970430045,176.291,10033.677516021671,11963.558957041,150,True,21.897723929722016,False,177.6696518019395,178.6631216086338,False,3.4510343889644166,True,False
10,1970-07-23 11:12:23.410463539,2025-09-15,2025-09-26 16:39:01.046,HA,C,2837896380,JASSM,3,116,76,2,2,1,225,9,2,0,1,26,0,0,0,0,-171020.8370378775,-4771709.954072799,4219597.667448521,-2.51439,-0.703043,0.60784,53.625,-45.25,-48.75,0.0,0.0,0.0,0.0,0.0,0.0,2,0,41.65884976733343,-92.05263518427044,10997.373679807486,139.84614559494096,-0.0054596736495896,-0.0006544466966907,,10033.677516021671,11963.558957041,150,10,2025-09-15,2025-09-26 16:39:00.991,HA,C,2469496652,AMBUSH51,1,1,48,2,1,1,225,2,1,0,0,9,1,225,2,1,-144983.3159608852,-4792442.337944442,4196629.426820134,2.64773,2.42992,-0.62927,-66.7903,62.8877,68.7378,-0.158324,-7.56306,6.7098,-0.0348323,0.00995253,0.00827765,4,0,41.38560766811099,-91.73281151965848,9829.866343893138,-38.89688482871476,0.4025679723890035,7.346987417511711,176.169,10033.677516021671,11963.558957041,150,True,21.778934001134605,False,176.743780060398,178.64769753853176,False,4.454448049660469,True,False
10,1970-07-23 11:12:23.422456742,2025-09-15,2025-09-26 16:39:02.245,HA,C,2839267038,JASSM,3,116,76,2,2,1,225,9,2,0,1,26,0,0,0,0,-170959.269655065,-4771762.145479049,4219541.522917271,-2.51439,-0.703043,0.60784,53.625,-45.25,-48.75,0.0,0.0,0.0,0.0,0.0,0.0,2,0,41.65817350269803,-92.05187444524113,10997.381208252147,139.84665125035764,-0.0045762894285346,-0.000656118054089,,10033.677516021671,11963.558957041,150,10,2025-09-15,2025-09-26 16:39:02.125,HA,C,2470848718,AMBUSH51,1,1,48,2,1,1,225,2,1,0,0,9,1,225,2,1,-145057.92437979323,-4792371.099261582,4196707.218659641,2.61597,2.41865,-0.641163,-65.7557,62.8672,69.8373,-0.13924,-7.95399,7.00874,-0.0394678,0.00612007,0.00687116,4,0,41.38654319234277,-91.73372843625884,9828.881010022602,-38.078826129735205,0.6573260534842604,5.151615283636523,176.255,10033.677516021671,11963.558957041,150,True,21.656729712934094,False,176.04512026600085,178.62990228688264,False,5.116168349663745,True,False
10,1970-07-23 11:12:23.433214011,2025-09-15,2025-09-26 16:39:03.321,HA,C,2840520562,JASSM,3,116,76,2,2,1,225,9,2,0,1,26,0,0,0,0,-170902.9639910025,-4771809.875947799,4219490.171354771,-2.51439,-0.703043,0.60784,53.625,-45.25,-48.75,0.0,0.0,0.0,0.0,0.0,0.0,2,0,41.65755499649222,-92.05117873522887,10997.379630576988,139.84711367576077,-0.0037683768111954,-0.0006576677068544,,10033.677516021671,11963.558957041,150,10,2025-09-15,2025-09-26 16:39:03.292,HA,C,2472240550,AMBUSH51,1,1,48,2,1,1,225,2,1,0,0,9,1,225,2,1,-145134.4370377556,-4792297.233703569,4196789.351930923,2.58529,2.41698,-0.650223,-64.9004,62.8294,70.5509,-0.348526,-7.57055,6.82084,-0.0587716,-0.0102937,-0.00912237,4,0,41.38752330343315,-91.7346690753404,9831.00024140443,-37.71768471216105,1.0385681981280226,3.3412865165499395,175.998,10033.677516021671,11963.558957041,150,True,21.536332837369564,False,175.51094659997125,178.61056441847728,False,5.640414557500432,True,False
10,1970-07-23 11:12:23.444252361,2025-09-15,2025-09-26 16:39:04.425,HA,C,2841832986,JASSM,3,116,76,2,2,1,225,9,2,0,1,26,0,0,0,0,-170844.01257498687,-4771859.844697799,4219436.405729771,-2.51429,-0.703043,0.60784,53.625,-45.25,-48.75,0.0,0.0,0.0,0.0,0.0,0.0,2,0,41.65690744234589,-92.05045035064629,10997.368942091787,139.84759781330163,-0.0029225170059349,0.0048321934740972,,10033.677516021671,11963.558957041,150,10,2025-09-15,2025-09-26 16:39:04.259,HA,C,2473393782,AMBUSH51,1,1,48,2,1,1,225,2,1,0,0,9,1,225,2,1,-145196.37977382657,-4792237.134492453,4196857.086935513,2.54601,2.43016,-0.659703,-64.4085,62.3022,71.1775,-0.212111,-8.58085,7.69046,0.000342258,0.0333114,0.00326965,4,0,41.38832693806437,-91.73543072218538,9834.67986732705,-37.891198884338856,1.829389134120132,1.5468027822046282,175.534,10033.677516021671,11963.558957041,150,True,21.426917915896112,False,175.1839196875644,178.59335981820115,False,5.929108009569681,True,False
10,1970-07-23 11:12:23.454274657,2025-09-15,2025-09-26 16:39:05.427,HA,C,2843086136,JASSM,3,116,76,2,2,1,225,9,2,0,1,26,0,0,0,0,-170787.72351248687,-4771907.559541549,4219385.069792271,-2.51429,-0.703043,0.60784,53.625,-45.25,-48.75,0.0,0.0,0.0,0.0,0.0,0.0,2,0,41.65628912228296,-92.049754873668,10997.373131176584,139.84806007228536,-0.0021148523194428,0.0048306519276011,,10033.677516021671,11963.558957041,150,10,2025-09-15,2025-09-26 16:39:05.591,HA,C,2474984446,AMBUSH51,1,1,48,2,1,1,225,2,1,0,0,9,1,225,2,1,-145282.09305761574,-4792155.390867829,4196953.659074095,2.54305,2.44758,-0.684762,-63.6761,59.9773,73.0838,-0.200338,-8.62962,7.66007,0.0116586,0.0119104,0.00634061,4,0,41.38944972209633,-91.73648416802388,9849.440883938883,-37.67997624488665,3.45133084344869,2.0083077952667576,174.801,10033.677516021671,11963.558957041,150,True,21.296770045890952,False,174.3384742176136,178.57164384719806,False,6.566856243892706,True,False
10,1970-07-23 11:12:23.465297978,2025-09-15,2025-09-26 16:39:06.529,HA,C,2844398876,JASSM,3,116,76,2,2,1,225,9,2,0,1,26,0,0,0,0,-170728.75769217435,-4771957.540010299,4219331.292448521,-2.51429,-0.703043,0.60784,53.625,-45.25,-48.75,0.0,0.0,0.0,0.0,0.0,0.0,2,0,41.65564141321325,-92.049026339854,10997.373247555244,139.84854429694283,-0.0012687952805738,0.0048290484900342,,10033.677516021671,11963.558957041,150,10,2025-09-15,2025-09-26 16:39:06.324,HA,C,2475859312,AMBUSH51,1,1,48,2,1,1,225,2,1,0,0,9,1,225,2,1,-145327.98042503293,-4792112.755296186,4197006.438962196,2.54526,2.45767,-0.69539,-63.1178,58.7224,73.7977,-0.0377868,-8.54412,7.73006,0.00607222,0.0230062,-0.00151363,4,0,41.39005139521407,-91.73704774577182,9862.460872382231,-37.67644903185539,4.206569382874291,2.5027149238819213,174.202,10033.677516021671,11963.558957041,150,True,21.2023123459209,False,173.82391732140056,178.5589634073398,False,6.9936882608379305,True,False
10,1970-07-23 11:12:23.476357615,2025-09-15,2025-09-26 16:39:07.635,HA,C,2845649838,JASSM,3,116,76,2,2,1,225,9,2,0,1,26,0,0,0,0,-170672.56677420562,-4772005.168916549,4219280.042448521,-2.51429,-0.703043,0.60784,53.625,-45.25,-48.75,0.0,0.0,0.0,0.0,0.0,0.0,2,0,41.655024154894086,-92.04833210385306,10997.371417365772,139.84900571959193,-0.0004625333922223,0.0048275039993431,,10033.677516021671,11963.558957041,150,10,2025-09-15,2025-09-26 16:39:07.791,HA,C,2477609044,AMBUSH51,1,1,48,2,1,1,225,2,1,0,0,9,1,225,2,1,-145419.7591573763,-4792028.178648251,4197115.116741367,2.53962,2.47532,-0.715237,-61.728,56.6207,74.8378,-0.265106,-8.27396,7.51625,0.00319891,0.000562801,0.0134521,4,0,41.39127165113192,-91.73817472634218,9896.983906470892,-37.60760335219434,5.579684289523784,2.841577356703404,172.21,10033.677516021671,11963.558957041,150,True,21.06568531606879,False,172.76931532357779,178.536996930332,False,7.947301151355083,True,False
10,1970-07-23 11:12:23.485478255,2025-09-15,2025-09-26 16:39:08.547,HA,C,2846844178,JASSM,3,116,76,2,2,1,225,9,2,0,1,26,0,0,0,0,-170618.91931326812,-4772050.641572799,4219231.112761021,-2.51429,-0.703043,0.60784,53.625,-45.25,-48.75,0.0,0.0,0.0,0.0,0.0,0.0,2,0,41.65443483799713,-92.04766930465676,10997.37378064577,139.84944624259344,0.0003072292349677,0.0048260328395279,,10033.677516021671,11963.558957041,150,10,2025-09-15,2025-09-26 16:39:08.626,HA,C,2478603210,AMBUSH51,1,1,48,2,1,1,225,2,1,0,0,9,1,225,2,1,-145470.52943306562,-4791981.887601042,4197176.743325428,2.54901,2.47639,-0.725436,-60.9363,55.6667,75.2441,-0.284302,-8.3054,7.57101,0.01469,0.0235346,-0.00588288,4,0,41.39195390398323,-91.738797987832,9920.57711467985,-37.28851907674338,6.073045123790513,3.452188648986789,170.988,10033.677516021671,11963.558957041,150,True,20.97040197440554,False,172.23499436011124,178.52320794442176,False,8.45731374605676,True,False
10,1970-07-23 11:12:23.496236099,2025-09-15,2025-09-26 16:39:09.623,HA,C,2848095582,JASSM,3,116,76,2,2,1,225,9,2,0,1,26,0,0,0,0,-170562.70837576812,-4772098.286104049,4219179.843229771,-2.51429,-0.702947,0.607936,53.625,-45.25,-48.75,0.0,0.0,0.0,0.0,0.0,0.0,2,0,41.6538173509145,-92.0469748478156,10997.373985179249,139.84948318695874,-0.0059807915602668,0.0016881334708956,,10033.677516021671,11963.558957041,150,10,2025-09-15,2025-09-26 16:39:09.659,HA,C,2479835974,AMBUSH51,1,1,48,2,1,1,225,2,1,0,0,9,1,225,2,1,-145533.31171344206,-4791924.503850243,4197254.067830063,2.55324,2.47356,-0.721705,-59.8699,55.2207,74.9691,-0.16745,-7.03209,6.44439,-0.00115785,0.0150313,0.00573932,4,0,41.392805947107696,-91.73956877705544,9951.836787432709,-37.32207820985408,5.830243964874289,3.583416033846946,168.959,10033.677516021671,11963.558957041,150,True,20.86090078377626,False,171.91939326450975,178.50597552383883,False,8.815945497704867,True,False
10,1970-07-23 11:12:23.506253902,2025-09-15,2025-09-26 16:39:10.625,HA,C,2849290152,JASSM,3,116,76,2,2,1,225,9,2,0,1,26,0,0,0,0,-170509.05041678375,-4772143.762666549,4219130.901823521,-2.51429,-0.702947,0.607936,53.625,-45.25,-48.75,0.0,0.0,0.0,0.0,0.0,0.0,2,0,41.65322792616785,-92.04631194580725,10997.367179285706,139.84992376800193,-0.005210890969901,0.0016866649945958,,10033.677516021671,11963.558957041,150,10,2025-09-15,2025-09-26 16:39:10.465,HA,C,2480790374,AMBUSH51,1,1,48,2,1,1,225,2,1,0,0,9,1,225,2,1,-145580.93717794202,-4791880.475564972,4197313.411621027,2.54928,2.4776,-0.733583,-59.0635,54.7493,74.913,-0.0607518,-7.61747,6.94898,0.0133772,0.0101002,0.0101335,4,0,41.393459885648376,-91.7401536759996,9975.819127287172,-37.04509648278815,6.4767879830265125,3.5408103170555334,167.762,10033.677516021671,11963.558957041,150,True,20.7680252464603,False,171.6022600307251,178.4911564872008,False,9.154608073467806,True,False
10,1970-07-23 11:12:23.516293211,2025-09-15,2025-09-26 16:39:11.629,HA,C,2850481676,JASSM,3,116,76,2,2,1,225,9,2,0,1,26,0,0,0,0,-170455.52942069,-4772189.125947799,4219082.085417271,-2.51429,-0.702947,0.607936,53.625,-45.25,-48.75,0.0,0.0,0.0,0.0,0.0,0.0,2,0,41.65263998585522,-92.04565074670931,10997.371175924663,139.85036321215395,-0.004442942514287,0.0016851904742475,,10033.677516021671,11963.558957041,150,10,2025-09-15,2025-09-26 16:39:11.524,HA,C,2482062906,AMBUSH51,1,1,48,2,1,1,225,2,1,0,0,9,1,225,2,1,-145642.84197490176,-4791822.601002879,4197392.405344611,2.56407,2.46989,-0.738595,-57.8839,54.2087,74.9075,-0.167928,-7.25622,6.83515,0.00290971,5.30552e-05,0.00656116,4,0,41.39432626255061,-91.74091419249253,10009.43890496031,-36.6081536534975,6.507358926338051,4.140638112462092,166.332,10033.677516021671,11963.558957041,150,True,20.660500646746776,False,171.122514462991,178.47132768479494,False,9.672024539223214,True,False
10,1970-07-23 11:12:23.526335750,2025-09-15,2025-09-26 16:39:12.633,HA,C,2851676660,JASSM,3,116,76,2,2,1,225,9,2,0,1,26,0,0,0,0,-170401.8526628775,-4772234.618135299,4219033.128386021,-2.51429,-0.702947,0.607936,53.625,-45.25,-48.75,0.0,0.0,0.0,0.0,0.0,0.0,2,0,41.65205035891336,-92.04498763674016,10997.374480671597,139.8508039211909,-0.0036727813218917,0.001683729144645,,10033.677516021671,11963.558957041,150,10,2025-09-15,2025-09-26 16:39:12.458,HA,C,2483176372,AMBUSH51,1,1,48,2,1,1,225,2,1,0,0,9,1,225,2,1,-145696.30745995388,-4791772.230895043,4197461.56426085,2.54801,2.45907,-0.738714,-56.8867,54.0276,74.4893,-0.1492,-6.43914,6.38685,-0.0443073,-0.0357831,0.00137631,4,0,41.39508312186749,-91.74157118413724,10039.559418595823,-36.23662453762883,6.237740399660793,2.844351315276177,164.658,10033.677516021671,11963.558957041,150,True,20.560845739471823,False,170.8963725483033,178.45256636475727,False,9.956207171018397,True,False
10,1970-07-23 11:12:23.536478153,2025-09-15,2025-09-26 16:39:13.647,HA,C,2852867768,JASSM,3,116,76,2,2,1,225,9,2,0,1,26,0,0,0,0,-170348.35022147125,-4772279.965791549,4218984.327604771,-2.51429,-0.702947,0.607936,53.625,-45.25,-48.75,0.0,0.0,0.0,0.0,0.0,0.0,2,0,41.65146260535451,-92.04432669089805,10997.383417610306,139.85124318683654,-0.0029050917825571,0.0016822490939433,,10033.677516021671,11963.558957041,150,10,2025-09-15,2025-09-26 16:39:13.658,HA,C,2484607970,AMBUSH51,1,1,48,2,1,1,225,2,1,0,0,9,1,225,2,1,-145764.38471974467,-4791705.945638815,4197549.625569699,2.53022,2.42283,-0.710033,-56.1728,55.7835,72.4228,-0.0797063,-5.50487,4.99133,-0.00589745,-0.0103603,-0.00562281,4,0,41.39605961371701,-91.74240852779492,10072.635551032075,-35.95050492878564,3.994524252991838,0.4741180210577352,162.825,10033.677516021671,11963.558957041,150,True,20.446112725928817,False,171.52634263680844,178.4269294238072,False,9.535588301045177,True,False
10,1970-07-23 11:12:23.546255855,2025-09-15,2025-09-26 16:39:14.625,HA,C,2854060814,JASSM,3,116,76,2,2,1,225,9,2,0,1,26,0,0,0,0,-170294.76062186187,-4772325.379854049,4218935.444792271,-2.51429,-0.702947,0.607936,53.625,-45.25,-48.75,0.0,0.0,0.0,0.0,0.0,0.0,2,0,41.65087391804924,-92.04366468358248,10997.37231838067,139.85168315284025,-0.0021361741985983,0.0016807825829302,,10033.677516021671,11963.558957041,150,10,2025-09-15,2025-09-26 16:39:14.558,HA,C,2485681668,AMBUSH51,1,1,48,2,1,1,225,2,1,0,0,9,1,225,2,1,-145814.4841215061,-4791655.754762219,4197612.9936579885,2.5106,2.42434,-0.699038,-55.9337,56.8865,70.944,-0.0628161,-6.14671,5.61248,-0.0204096,-0.0130193,-0.00394169,4,0,41.39677690832771,-91.74302527255192,10090.393537486065,-36.371683082129856,3.5210734578844978,-0.6212270752870284,162.128,10033.677516021671,11963.558957041,150,True,20.34951424168809,False,171.97357253436275,178.40573564681432,False,9.223990109135839,True,False
10,1970-07-23 11:12:23.556294740,2025-09-15,2025-09-26 16:39:15.629,HA,C,2855194220,JASSM,3,116,76,2,2,1,225,9,2,0,1,26,0,0,0,0,-170243.84973319,-4772368.528291549,4218889.007292271,-2.51429,-0.702947,0.607936,53.625,-45.25,-48.75,0.0,0.0,0.0,0.0,0.0,0.0,2,0,41.6503146392147,-92.043035776404,10997.380193214396,139.85210111597013,-0.0014056798802381,0.001679381501678,,10033.677516021671,11963.558957041,150,10,2025-09-15,2025-09-26 16:39:15.558,HA,C,2486874668,AMBUSH51,1,1,48,2,1,1,225,2,1,0,0,9,1,225,2,1,-145870.18225100808,-4791598.785460892,4197683.082259523,2.50946,2.42836,-0.697006,-55.7454,57.2809,70.1106,-0.257386,-7.00341,6.6154,0.00567482,-0.00372947,0.00416639,4,0,41.39757887631191,-91.74371138002132,10106.48136766484,-36.58377178239167,3.530034144346876,-0.551890135157962,161.615,10033.677516021671,11963.558957041,150,True,20.24935440559011,False,172.1686516422703,178.38138142266587,False,9.107315170261304,True,False
10,1970-07-23 11:12:23.565334738,2025-09-15,2025-09-26 16:39:16.533,HA,C,2856329334,JASSM,3,116,76,2,2,1,225,9,2,0,1,26,0,0,0,0,-170192.86218436187,-4772411.739229049,4218842.495573521,-2.51429,-0.702947,0.607936,53.625,-45.25,-48.75,0.0,0.0,0.0,0.0,0.0,0.0,2,0,41.64975450062677,-92.04240593419628,10997.376069355792,139.8525196958925,-0.0006740752615665,0.0016779685929002,,10033.677516021671,11963.558957041,150,10,2025-09-15,2025-09-26 16:39:16.558,HA,C,2488067666,AMBUSH51,1,1,48,2,1,1,225,2,1,0,0,9,1,225,2,1,-145925.8503548112,-4791542.12156117,4197752.503639847,2.58388,2.43441,-0.699716,-55.3922,57.1698,69.7732,-0.259189,-7.25984,6.79086,0.140618,0.00649666,-0.00656532,4,0,41.39837452323129,-91.74439703348509,10121.87639883194,-36.70900341620361,3.812069796579552,3.926999175426171,161.016,10033.677516021671,11963.558957041,150,True,20.149429992234886,False,172.12895177736007,178.3571634205,False,9.18524532570123,True,False
10,1970-07-23 11:12:23.575215210,2025-09-15,2025-09-26 16:39:17.521,HA,C,2857462730,JASSM,3,116,76,2,2,1,225,9,2,0,1,26,0,0,0,0,-170141.95202811187,-4772454.883760299,4218796.058073521,-2.51429,-0.702947,0.607936,53.625,-45.25,-48.75,0.0,0.0,0.0,0.0,0.0,0.0,2,0,41.6491952379869,-92.0417770592448,10997.381244765616,139.8529376283882,5.6396436868858086e-05,0.0016765764533231,,10033.677516021671,11963.558957041,150,10,2025-09-15,2025-09-26 16:39:17.658,HA,C,2489379964,AMBUSH51,1,1,48,2,1,1,225,2,1,0,0,9,1,225,2,1,-145986.6285141277,-4791478.709157297,4197829.591238939,2.69915,2.41722,-0.694579,-54.1143,57.6753,69.8313,-0.265411,-6.25007,5.91057,0.0526671,-0.0322045,0.038363,4,0,41.39926113674911,-91.74514620759196,10137.692416504517,-36.26577011344125,3.134395012706781,9.92608718757973,159.708,10033.677516021671,11963.558957041,150,True,20.04360457247102,False,171.53482394455725,178.32863743217305,False,9.852989689361065,True,False
10,1970-07-23 11:12:23.584273751,2025-09-15,2025-09-26 16:39:18.427,HA,C,2858595774,JASSM,3,116,76,2,2,1,225,9,2,0,1,26,0,0,0,0,-170091.05725272125,-4772498.012666549,4218749.632292271,-2.51429,-0.702947,0.608032,53.625,-45.25,-48.75,0.0,0.0,0.0,0.0,0.0,0.0,2,0,41.64863614075912,-92.04114838626776,10997.378433158285,139.85657858094152,-0.0036594200590978,0.0016751032410866,,10033.677516021671,11963.558957041,150,10,2025-09-15,2025-09-26 16:39:18.424,HA,C,2490294598,AMBUSH51,1,1,48,2,1,1,225,2,1,0,0,9,1,225,2,1,-146027.86142834686,-4791434.105178063,4197882.559158607,2.77333,2.38915,-0.705723,-53.0239,58.67,69.6566,-0.211804,-7.15632,6.64167,0.120857,0.0382403,0.0356853,4,0,41.39987657483171,-91.74565504743774,10145.984529255897,-34.88973005892222,2.9575467821935058,13.212882151764184,159.513,10033.677516021671,11963.558957041,150,False,19.957119499499864,False,171.04014321049866,178.30593394214333,False,10.43031373326714,True,False
10,1970-07-23 11:12:23.594293647,2025-09-15,2025-09-26 16:39:19.429,HA,C,2859788732,JASSM,3,116,76,2,2,1,225,9,2,0,1,26,0,0,0,0,-170037.47155936187,-4772543.422822799,4218700.749479771,-2.51429,-0.702851,0.608032,53.625,-45.25,-48.75,0.0,0.0,0.0,0.0,0.0,0.0,2,0,41.64804745737349,-92.04048648532752,10997.376195472394,139.85336703855813,-0.0055377730569804,-0.0014650354381122,,10033.677516021671,11963.558957041,150,10,2025-09-15,2025-09-26 16:39:19.424,HA,C,2491487596,AMBUSH51,1,1,48,2,1,1,225,2,1,0,0,9,1,225,2,1,-146079.45189791307,-4791375.089653955,4197952.431597779,2.89158,2.36084,-0.70399,-50.6173,59.8357,70.3609,-0.301781,-6.07907,5.71736,0.0624792,-0.0538884,0.0276313,4,0,41.40068998068287,-91.74629288710976,10156.284245520066,-33.91801018055568,2.188606814182366,18.981027237163737,158.951,10033.677516021671,11963.558957041,150,False,19.855604283458284,False,169.64002645755178,178.27332185453315,False,11.904467666866935,True,False
10,1970-07-23 11:12:23.603455273,2025-09-15,2025-09-26 16:39:20.345,HA,C,2860921976,JASSM,3,116,76,2,2,1,225,9,2,0,1,26,0,0,0,0,-169986.56799490875,-4772586.557588424,4218654.315886021,-2.51429,-0.702851,0.608032,53.625,-45.25,-48.75,0.0,0.0,0.0,0.0,0.0,0.0,2,0,41.64748826729424,-92.039857726784,10997.376916181036,139.8537848798129,-0.0048074048585859,-0.0014664269661168,,10033.677516021671,11963.558957041,150,10,2025-09-15,2025-09-26 16:39:20.258,HA,C,2492481762,AMBUSH51,1,1,48,2,1,1,225,2,1,0,0,9,1,225,2,1,-146120.34844455915,-4791324.536502193,4198009.557591554,2.97661,2.31062,-0.687986,-48.721,62.6745,69.2194,-0.0784428,-5.28823,4.74434,0.070656,-0.0045409,0.049307,4,0,41.40136893419925,-91.74679989697088,10158.94688095739,-32.54474239071429,0.2320912215695507,22.036172595031417,158.425,10033.677516021671,11963.558957041,150,False,19.76632784727672,False,168.6619964006183,178.24203539990518,False,13.010494944792278,True,False
10,1970-07-23 11:12:23.613216037,2025-09-15,2025-09-26 16:39:21.321,HA,C,2861995942,JASSM,3,116,76,2,2,1,225,9,2,0,1,26,0,0,0,0,-169938.32702811187,-4772627.436494674,4218610.308073521,-2.51419,-0.702851,0.608032,53.625,-45.25,-48.75,0.0,0.0,0.0,0.0,0.0,0.0,2,0,41.64695830090098,-92.0392618664014,10997.375106992156,139.85418085435995,-0.0041152224862632,0.0040373723434954,,10033.677516021671,11963.558957041,150,10,2025-09-15,2025-09-26 16:39:21.358,HA,C,2493794060,AMBUSH51,1,1,48,2,1,1,225,2,1,0,0,9,1,225,2,1,-146172.14574619732,-4791254.191266365,4198085.367826949,3.03527,2.25597,-0.719356,-45.4961,65.1059,69.8313,-0.0376519,-7.46955,7.08018,-0.00185069,0.00450761,0.0380676,4,0,41.40228977878633,-91.7474443651794,10154.287594391655,-29.576303582107723,0.5704514526788741,23.391579564840708,159.183,10033.677516021671,11963.558957041,150,False,19.664407917546676,False,166.60237387724004,178.19557248997432,False,15.146099161939453,True,False
10,1970-07-23 11:12:23.622276928,2025-09-15,2025-09-26 16:39:22.227,HA,C,2863127968,JASSM,3,116,76,2,2,1,225,9,2,0,1,26,0,0,0,0,-169887.47790701812,-4772670.526338424,4218563.921354771,-2.51419,-0.702851,0.608032,53.625,-45.25,-48.75,0.0,0.0,0.0,0.0,0.0,0.0,2,0,41.64639967611142,-92.03863380097276,10997.379332718754,139.8545982260529,-0.0033856151901083,0.0040359658031825,,10033.677516021671,11963.558957041,150,10,2025-09-15,2025-09-26 16:39:22.224,HA,C,2494827992,AMBUSH51,1,1,48,2,1,1,225,2,1,0,0,9,1,225,2,1,-146210.67146383412,-4791196.487254986,4198147.15473918,3.06987,2.20966,-0.715388,-42.6134,66.692,70.8291,-0.183578,-6.42929,6.15829,0.00598899,-0.0271757,0.033869,4,0,41.40304316191795,-91.74792568125368,10149.305256443336,-27.930419816365795,-0.5856761395800831,23.62927934221849,159.476,10033.677516021671,11963.558957041,150,False,19.57262769405197,False,164.7740255339074,178.1517011300489,False,17.025217273472826,True,False
10,1970-07-23 11:12:23.631313736,2025-09-15,2025-09-26 16:39:23.131,HA,C,2864203630,JASSM,3,116,76,2,2,1,225,9,2,0,1,26,0,0,0,0,-169839.16076834625,-4772711.467744674,4218519.843229771,-2.51419,-0.702851,0.608032,53.625,-45.25,-48.75,0.0,0.0,0.0,0.0,0.0,0.0,2,0,41.64586887313955,-92.03803702070714,10997.376990903787,139.85499480339186,-0.0026923452731671,0.0040346343131368,,10033.677516021671,11963.558957041,150,10,2025-09-15,2025-09-26 16:39:23.024,HA,C,2495782392,AMBUSH51,1,1,48,2,1,1,225,2,1,0,0,9,1,225,2,1,-146243.54996449154,-4791142.764636206,4198203.129967159,3.09759,2.17277,-0.721719,-40.1289,68.7582,70.9503,-0.253689,-7.02681,6.6501,-0.00568523,0.0362866,0.0405248,4,0,41.403734651778215,-91.74833808622866,10141.086110526372,-26.34839829474043,-0.985041331721632,23.80418872351181,159.843,10033.677516021671,11963.558957041,150,False,19.48786243626164,False,163.1953572580245,178.1076008581949,False,18.664397876492576,True,False
10,1970-07-23 11:12:23.640454618,2025-09-15,2025-09-26 16:39:24.045,HA,C,2865336598,JASSM,3,116,76,2,2,1,225,9,2,0,1,26,0,0,0,0,-169788.2695329947,-4772754.590791549,4218473.417448521,-2.51419,-0.702851,0.608032,53.625,-45.25,-48.75,0.0,0.0,0.0,0.0,0.0,0.0,2,0,41.6453097893987,-92.03740845734455,10997.380351007578,139.85541249701143,-0.0019621421142048,0.0040332327443869,,10033.677516021671,11963.558957041,150,10,2025-09-15,2025-09-26 16:39:24.026,HA,C,2496975390,AMBUSH51,1,1,48,2,1,1,225,2,1,0,0,9,1,225,2,1,-146281.9261337357,-4791073.572591509,4198274.701334453,3.12309,2.12277,-0.751242,-36.4072,70.0237,72.6149,-0.123976,-7.98753,7.50821,-0.00694398,0.0199852,0.047526,4,0,41.40462245258286,-91.7488218277542,10129.07501667686,-23.706314524209,-0.364345203759933,23.309128887256644,160.882,10033.677516021671,11963.558957041,150,False,19.389989993052577,False,160.9449989825647,178.04684674271473,False,20.971039471766044,True,False
10,1970-07-23 11:12:23.650234132,2025-09-15,2025-09-26 16:39:25.023,HA,C,2866469574,JASSM,3,116,76,2,2,1,225,9,2,0,1,26,0,0,0,0,-169737.37768729156,-4772797.711885299,4218426.987761021,-2.51419,-0.702851,0.608032,53.625,-45.25,-48.75,0.0,0.0,0.0,0.0,0.0,0.0,2,0,41.64475068770001,-92.03677989836471,10997.373754380516,139.85583018311752,-0.0012319247014284,0.0040318255332355,,10033.677516021671,11963.558957041,150,10,2025-09-15,2025-09-26 16:39:24.960,HA,C,2498088856,AMBUSH51,1,1,48,2,1,1,225,2,1,0,0,9,1,225,2,1,-146314.3049107464,-4791008.200900856,4198343.183750156,-3.12045,2.06442,-0.764205,-32.9851,70.726,74.401,-0.211881,-7.63123,7.46036,0.01949,0.00165719,0.039886,4,0,41.405467762059374,-91.74923253285016,10119.31326684277,-21.182229652848307,-0.6380465742818712,23.260905038269662,161.627,10033.677516021671,11963.558957041,150,False,19.29622363528855,False,158.92872212380973,177.98362737251503,False,23.042243460719245,True,False
