Subject_cm,Timestamp,SampleDate_cm,SampleTime_cm,Configuration_cm,Scenario_cm,DisTime_cm,MarkingTxt_cm,Application_cm,EntId_cm,Site_cm,ExerciseId_cm,ForceId_cm,Category_cm,Country_cm,Domain_cm,Kind_cm,Extra_cm,Specific_cm,Subcategory_cm,AltCategory_cm,AltCountry_cm,AltDomain_cm,AltKind_cm,ECEF_X_cm,ECEF_Y_cm,ECEF_Z_cm,OriPhi_cm,OriPsi_cm,OriTheta_cm,LinVelX_cm,LinVelY_cm,LinVelZ_cm,LinAccX_cm,LinAccY_cm,LinAccZ_cm,AngVelX_cm,AngVelY_cm,AngVelZ_cm,DrAlg_cm,Appearance_cm,Latitude_cm,Longitude_cm,Altitude_cm,Heading_cm,Pitch_cm,Roll_cm,CalibratedAirspeed_cm,CM_Altitude_Lead_cm,CM_Altitude_Wing_cm,CM_Airspeed_cm,Subject_ac,SampleDate_ac,SampleTime_ac,Configuration_ac,Scenario_ac,DisTime_ac,MarkingTxt_ac,Application_ac,EntId_ac,Site_ac,ExerciseId_ac,ForceId_ac,Category_ac,Country_ac,Domain_ac,Kind_ac,Extra_ac,Specific_ac,Subcategory_ac,AltCategory_ac,AltCountry_ac,AltDomain_ac,AltKind_ac,ECEF_X_ac,ECEF_Y_ac,ECEF_Z_ac,OriPhi_ac,OriPsi_ac,OriTheta_ac,LinVelX_ac,LinVelY_ac,LinVelZ_ac,LinAccX_ac,LinAccY_ac,LinAccZ_ac,AngVelX_ac,AngVelY_ac,AngVelZ_ac,DrAlg_ac,Appearance_ac,Latitude_ac,Longitude_ac,Altitude_ac,Heading_ac,Pitch_ac,Roll_ac,CalibratedAirspeed_ac,CM_Altitude_Lead_ac,CM_Altitude_Wing_ac,CM_Airspeed_ac,Bank_Angle_Condition,distance_nm,Distance_Condition,angle_between_vel,angle_between_pos,Cone_Condition,angle_between_pos_nose,Nose_Cone_Condition,Intercept_Criteria
10,1970-07-23 11:29:06.617255433,2025-09-16,2025-09-26 20:31:01.725,AA,D,3306704016,JASSM,3,125,76,2,2,1,225,9,2,0,1,26,0,0,0,0,-188369.29528983065,-4786300.784150924,4202414.202604771,-2.30155,-0.153302,0.128183,89.0,-13.625,-11.5,0.0,0.0,0.0,0.0,0.0,0.0,2,0,41.45220567814157,-92.25376527812574,10997.37620550978,99.81549607464332,-0.0051387499015641,0.0023915486881525,,10098.377684851064,11929.638060800664,150,10,2025-09-16,2025-09-26 20:31:01.809,AA,D,1214584782,HAWK11,1,1,73,2,1,1,225,2,1,0,0,12,1,225,2,1,-147392.06677420562,-4789179.633760299,4201211.136198521,2.43472,2.72972,-0.422036,-101.25,43.5,45.375,-0.140625,-7.67188,6.125,0.0117188,0.00976562,0.0195312,4,0,41.43550654738485,-91.76278178437848,11929.00349223067,-57.87858843198403,0.956498757967191,3.606627018596172,187.534,10098.377684851064,11929.638060800664,150,True,22.10249096021424,False,159.40135328792695,172.70809748510834,False,27.889198532325445,True,False
10,1970-07-23 11:29:06.627272392,2025-09-16,2025-09-26 20:31:02.727,AA,D,3307956988,JASSM,3,125,76,2,2,1,225,9,2,0,1,26,0,0,0,0,-188275.8323992056,-4786315.235322799,4202402.013151646,-2.30155,-0.153302,0.128183,89.0,-13.625,-11.5,0.0,0.0,0.0,0.0,0.0,0.0,2,0,41.452059326500645,-92.25264138897364,10997.374400036411,99.81624008268656,-0.0042837660576999,0.0023909479518883,,10098.377684851064,11929.638060800664,150,10,2025-09-16,2025-09-26 20:31:02.809,AA,D,1215738014,HAWK11,1,1,73,2,1,1,225,2,1,0,0,12,1,225,2,1,-147489.33239920562,-4789137.525361861,4201254.993620396,2.47134,2.72234,-0.421365,-100.5,44.0,45.625,-0.34375,-7.3125,6.125,0.0449219,0.00390625,0.0,4,0,41.43603524905036,-91.76395982819427,11928.06584369385,-57.62856174553026,0.6616813137355435,5.535445239599063,186.728,10098.377684851064,11929.638060800664,150,True,21.997320848991045,False,159.000635501548,172.6153174183731,False,28.38193243982324,True,False
10,1970-07-23 11:29:06.639133265,2025-09-16,2025-09-26 20:31:03.913,AA,D,3309326884,JASSM,3,125,76,2,2,1,225,9,2,0,1,26,0,0,0,0,-188173.64685233065,-4786331.034150924,4202388.686979771,-2.30155,-0.153302,0.128183,89.0,-13.625,-11.5,0.0,0.0,0.0,0.0,0.0,0.0,2,0,41.451899315841175,-92.2514126163448,10997.377162416256,99.81705352050446,-0.0033489911356525,0.0023903030423436,,10098.377684851064,11929.638060800664,150,10,2025-09-16,2025-09-26 20:31:03.919,AA,D,1217090078,HAWK11,1,1,73,2,1,1,225,2,1,0,0,12,1,225,2,1,-147603.36560233062,-4789086.825166549,4201307.200651646,2.51362,2.71141,-0.432966,-99.375,44.625,46.125,-0.265625,-7.35938,6.34375,0.0332031,0.0,0.00976562,4,0,41.43666833435229,-91.76534146990736,11925.411889940122,-56.75797676018405,0.7479276340899765,7.709240645038335,185.848,10098.377684851064,11929.638060800664,150,True,21.878056277043033,False,158.3883826783439,172.50476364138433,False,29.1040861314808,True,False
10,1970-07-23 11:29:06.649176688,2025-09-16,2025-09-26 20:31:04.917,AA,D,3310581866,JASSM,3,125,76,2,2,1,225,9,2,0,1,26,0,0,0,0,-188080.03357108065,-4786345.506807174,4202376.476042271,-2.30155,-0.153302,0.128183,89.0,-13.625,-11.5,0.0,0.0,0.0,0.0,0.0,0.0,2,0,41.45175270358309,-92.25028693017744,10997.37673722532,99.8177987136293,-0.0024926317546377,0.0023896990898527,,10098.377684851064,11929.638060800664,150,10,2025-09-16,2025-09-26 20:31:04.623,AA,D,1217726344,HAWK11,1,1,73,2,1,1,225,2,1,0,0,12,1,225,2,1,-147656.51208670562,-4789062.839814986,4201331.874479771,2.53586,2.70201,-0.435459,-98.875,45.25,46.375,-0.15625,-6.98438,6.09375,0.0371094,-0.00390625,0.015625,4,0,41.436967812337365,-91.76598554036556,11924.046010277394,-56.306131216082825,0.5152987554190213,8.762172676005788,185.689,10098.377684851064,11929.638060800664,150,True,21.797482291280204,False,158.01402045792426,172.44329947946085,False,29.538487739058205,True,False
10,1970-07-23 11:29:06.661194350,2025-09-16,2025-09-26 20:31:06.119,AA,D,3311953784,JASSM,3,125,76,2,2,1,225,9,2,0,1,26,0,0,0,0,-187977.69763358065,-4786361.325166549,4202363.126432896,-2.30155,-0.153302,0.128183,89.0,-13.625,-11.5,0.0,0.0,0.0,0.0,0.0,0.0,2,0,41.45159242857491,-92.24905636245562,10997.372767276333,99.81861333482657,-0.001556481704472,0.0023890493138062,,10098.377684851064,11929.638060800664,150,10,2025-09-16,2025-09-26 20:31:06.623,AA,D,1220271408,HAWK11,1,1,73,2,1,1,225,2,1,0,0,12,1,225,2,1,-147865.98864920562,-4788963.849580611,4201432.302214146,2.53433,2.67756,-0.458181,-97.625,47.5,48.625,-0.21875,-7.23438,7.35938,-0.0625,0.015625,0.0136719,4,0,41.43819609581925,-91.7685258419338,11914.63350498692,-54.495733389369256,0.6026010157551609,8.086698322258462,186.825,10098.377684851064,11929.638060800664,150,True,21.62484124981036,False,156.40487180180497,172.24236600685703,False,31.347562825417914,False,False
10,1970-07-23 11:29:06.672216640,2025-09-16,2025-09-26 20:31:07.221,AA,D,3313264994,JASSM,3,125,76,2,2,1,225,9,2,0,1,26,0,0,0,0,-187879.88903983065,-4786376.444307174,4202350.366667271,-2.30155,-0.153302,0.128183,89.0,-13.625,-11.5,0.0,0.0,0.0,0.0,0.0,0.0,2,0,41.45143922332952,-92.24788024045928,10997.374029004575,99.81939191117976,-0.0006617452725699,0.0023884198965437,,10098.377684851064,11929.638060800664,150,10,2025-09-16,2025-09-26 20:31:06.919,AA,D,1220708842,HAWK11,1,1,73,2,1,1,225,2,1,0,0,12,1,225,2,1,-147902.45739920562,-4788946.011689986,4201450.522917271,2.49943,2.67497,-0.46355,-97.5,47.875,49.125,-0.140625,-7.48438,7.5625,-0.0898438,0.00976562,0.00976562,4,0,41.43841849485288,-91.76896832793132,11913.112549950953,-54.189415076693294,0.7381891744113692,6.024830383679698,187.058,10098.377684851064,11929.638060800664,150,True,21.551323546391444,False,156.1245714860251,172.18965982088508,False,31.680837641833897,False,False
10,1970-07-23 11:29:06.681275546,2025-09-16,2025-09-26 20:31:08.127,AA,D,3314398388,JASSM,3,125,76,2,2,1,225,9,2,0,1,26,0,0,0,0,-187795.34607108065,-4786389.510713424,4202339.337370396,-2.30145,-0.153206,0.128183,89.0,-13.625,-11.5,0.0,0.0,0.0,0.0,0.0,0.0,2,0,41.45130679937494,-92.2468636394982,10997.373701636125,99.8164285152052,-0.0039453009449311,0.0071772741708517,,10098.377684851064,11929.638060800664,150,10,2025-09-16,2025-09-26 20:31:08.217,AA,D,1222219974,HAWK11,1,1,73,2,1,1,225,2,1,0,0,12,1,225,2,1,-148026.18786795562,-4788885.930635299,4201513.261198521,2.35159,2.67152,-0.468631,-98.0,47.625,50.375,-0.0625,-7.17188,7.35938,0.0,0.0,-0.00585938,4,0,41.43917662276244,-91.7704694466506,11911.035464919703,-53.86298859340316,0.8332737754538697,-2.5299588425275443,188.292,10098.377684851064,11929.638060800664,150,True,21.436336947750544,False,155.95226407385854,172.05860123137575,False,31.98803021876879,False,False
10,1970-07-23 11:29:06.692295378,2025-09-16,2025-09-26 20:31:09.229,AA,D,3315651708,JASSM,3,125,76,2,2,1,225,9,2,0,1,26,0,0,0,0,-187701.8558367056,-4786403.959932174,4202327.140104771,-2.30145,-0.153206,0.128279,89.0,-13.625,-11.5,0.0,0.0,0.0,0.0,0.0,0.0,2,0,41.45116034560101,-92.24573945547962,10997.376162793606,99.82126322478452,-0.0067564954160309,0.0071762748961559,,10098.377684851064,11929.638060800664,150,10,2025-09-16,2025-09-26 20:31:09.419,AA,D,1223691338,HAWK11,1,1,73,2,1,1,225,2,1,0,0,12,1,225,2,1,-148148.20935233062,-4788827.002900924,4201575.843229771,2.35945,2.68801,-0.458373,-98.625,47.375,50.75,-0.046875,-7.01562,7.23438,0.00585938,-0.00976562,0.00585938,4,0,41.43992712623378,-91.7719497465804,11911.336092498394,-54.88319644988151,0.9800197260567932,-1.673186691799013,189.208,10098.377684851064,11929.638060800664,150,True,21.317556978880447,False,156.0722617653558,171.92535371865722,False,32.00210113280819,False,False
10,1970-07-23 11:29:06.702173208,2025-09-16,2025-09-26 20:31:10.217,AA,D,3316902872,JASSM,3,125,76,2,2,1,225,9,2,0,1,26,0,0,0,0,-187608.5277117056,-4786418.383760299,4202314.962370396,-2.30145,-0.153206,0.128279,89.0,-13.625,-11.5,0.0,0.0,0.0,0.0,0.0,0.0,2,0,41.451014125897146,-92.24461722596548,10997.378937740805,99.82200611882854,-0.0059027463499982,0.0071756803371163,,10098.377684851064,11929.638060800664,150,10,2025-09-16,2025-09-26 20:31:10.215,AA,D,1224645738,HAWK11,1,1,73,2,1,1,225,2,1,0,0,12,1,225,2,1,-148227.42614920562,-4788788.987275924,4201616.456511021,2.38342,2.68274,-0.467481,-99.125,47.0,51.375,-0.03125,-7.04688,7.21875,0.0449219,0.0117188,0.0195312,4,0,41.44041281148268,-91.77291069200784,11912.095538532289,-54.3298608069622,1.1774304458815814,-0.4243665336365903,189.844,10098.377684851064,11929.638060800664,150,True,21.222798716924274,False,156.10934917658417,171.83133769843224,False,32.059238737938095,False,False
10,1970-07-23 11:29:06.713193686,2025-09-16,2025-09-26 20:31:11.319,AA,D,3318157118,JASSM,3,125,76,2,2,1,225,9,2,0,1,26,0,0,0,0,-187514.9691179556,-4786432.840791549,4202302.753386021,-2.30145,-0.153206,0.128279,89.0,-13.625,-11.5,0.0,0.0,0.0,0.0,0.0,0.0,2,0,41.4508675405562,-92.24349223135668,10997.377897928896,99.82275084114718,-0.0050468909088654,0.0071750904649174,,10098.377684851064,11929.638060800664,150,10,2025-09-16,2025-09-26 20:31:11.309,AA,D,1225918270,HAWK11,1,1,73,2,1,1,225,2,1,0,0,12,1,225,2,1,-148332.95153983062,-4788738.596650924,4201670.667448521,2.43184,2.6836,-0.468535,-99.375,47.5,51.625,0.0,-6.95312,7.0625,0.0195312,-0.00195312,-0.00585938,4,0,41.441059033847935,-91.77419070531424,11913.96809268975,-54.32172867584843,1.2528650019555645,2.372213977259444,190.858,10098.377684851064,11929.638060800664,150,True,21.113359389651613,False,155.98178740668064,171.71158928038923,False,32.30662231031745,False,False
10,1970-07-23 11:29:06.724214043,2025-09-16,2025-09-26 20:31:12.421,AA,D,3319468212,JASSM,3,125,76,2,2,1,225,9,2,0,1,26,0,0,0,0,-187417.1683367056,-4786447.952119674,4202289.989714146,-2.30145,-0.153206,0.128279,89.0,-13.625,-11.5,0.0,0.0,0.0,0.0,0.0,0.0,2,0,41.45071429674419,-92.24231623258292,10997.376418256496,99.82352932481412,-0.004152229152341,0.007174473580988,,10098.377684851064,11929.638060800664,150,10,2025-09-16,2025-09-26 20:31:12.419,AA,D,1227151034,HAWK11,1,1,73,2,1,1,225,2,1,0,0,12,1,225,2,1,-148436.47693045562,-4788688.879854049,4201724.108854771,2.43433,2.68197,-0.471795,-99.5,47.875,52.125,0.015625,-6.95312,7.0625,0.00390625,0.0136719,0.0195312,4,0,41.441696408415496,-91.77544658745624,11915.682216152069,-54.13422403269095,1.3337560611192942,2.477011891582309,191.836,10098.377684851064,11929.638060800664,150,True,21.00281094070701,False,155.77581901201572,171.5910101067333,False,32.63316504782978,False,False
10,1970-07-23 11:29:06.734254138,2025-09-16,2025-09-26 20:31:13.425,AA,D,3320662650,JASSM,3,125,76,2,2,1,225,9,2,0,1,26,0,0,0,0,-187328.07263358065,-4786461.717744674,4202278.360807896,-2.30145,-0.153206,0.128279,89.0,-13.625,-11.5,0.0,0.0,0.0,0.0,0.0,0.0,2,0,41.45057467760515,-92.24124491255448,10997.375035590758,99.8242385115412,-0.0033371990763411,0.0071739067698031,,10098.377684851064,11929.638060800664,150,10,2025-09-16,2025-09-26 20:31:13.419,AA,D,1228423566,HAWK11,1,1,73,2,1,1,225,2,1,0,0,12,1,225,2,1,-148542.16443045562,-4788637.760713424,4201779.489714146,2.43625,2.67795,-0.479465,-99.5,48.125,53.0,-0.15625,-7.17188,7.26562,0.00195312,-0.00390625,-0.00585938,4,0,41.44235480115908,-91.77672885858816,11918.333676466742,-53.68537414089213,1.51680651897372,2.492459307195076,192.581,10098.377684851064,11929.638060800664,150,True,20.895861683087148,False,155.45440388840473,171.46774774219813,False,33.077610055028764,False,False
10,1970-07-23 11:29:06.744291921,2025-09-16,2025-09-26 20:31:14.429,AA,D,3321856208,JASSM,3,125,76,2,2,1,225,9,2,0,1,26,0,0,0,0,-187239.0394304556,-4786475.473604049,4202266.739714146,-2.30145,-0.153206,0.128279,89.0,-13.625,-11.5,0.0,0.0,0.0,0.0,0.0,0.0,2,0,41.45043514476038,-92.24017434868972,10997.376874042357,99.82494719574436,-0.0025227404697048,0.0071733386581012,,10098.377684851064,11929.638060800664,150,10,2025-09-16,2025-09-26 20:31:14.419,AA,D,1229537032,HAWK11,1,1,73,2,1,1,225,2,1,0,0,12,1,225,2,1,-148636.05310233062,-4788592.178682174,4201829.218229771,2.43452,2.679,-0.476013,-99.625,48.375,53.625,0.125,-6.95312,7.03125,0.0078125,0.0,0.00390625,4,0,41.4429442674849,-91.77786806294051,11921.430635300623,-53.86013711621857,1.4095568408245271,2.4169371855934907,192.813,10098.377684851064,11929.638060800664,150,True,20.79556601835854,False,155.2433675473638,171.3541448733278,False,33.401968343866926,False,False
10,1970-07-23 11:29:06.755157001,2025-09-16,2025-09-26 20:31:15.515,AA,D,3323167918,JASSM,3,125,76,2,2,1,225,9,2,0,1,26,0,0,0,0,-187141.19372733065,-4786490.588838424,4202253.968229771,-2.30145,-0.153206,0.128279,89.0,-13.625,-11.5,0.0,0.0,0.0,0.0,0.0,0.0,2,0,41.45028180152637,-92.23899782680152,10997.378131822868,99.82572601901776,-0.0016276695960298,0.0071727260196149,,10098.377684851064,11929.638060800664,150,10,2025-09-16,2025-09-26 20:31:15.621,AA,D,1231127698,HAWK11,1,1,73,2,1,1,225,2,1,0,0,12,1,225,2,1,-148768.67028983062,-4788527.344697799,4201900.423307896,2.46376,2.67018,-0.48445,-99.625,48.75,54.625,-0.140625,-6.85938,7.01562,0.0175781,0.0,0.00195312,4,0,41.44378604402903,-91.7794773838152,11926.804528740971,-53.20367835972243,1.4609451956242232,3.875390129488695,193.547,10098.377684851064,11929.638060800664,150,True,20.669148092608207,False,154.85929051529112,171.19684925131546,False,33.94265767951936,False,False
10,1970-07-23 11:29:06.765191952,2025-09-16,2025-09-26 20:31:16.519,AA,D,3324361080,JASSM,3,125,76,2,2,1,225,9,2,0,1,26,0,0,0,0,-187052.1917742056,-4786504.336885299,4202242.349089146,-2.30145,-0.15311,0.128279,89.0,-13.625,-11.5,0.0,0.0,0.0,0.0,0.0,0.0,2,0,41.450142300173255,-92.2379276497178,10997.376907827243,99.8227981683849,-0.0048704308224183,0.0064696121816665,,10098.377684851064,11929.638060800664,150,10,2025-09-16,2025-09-26 20:31:16.621,AA,D,1232241162,HAWK11,1,1,73,2,1,1,225,2,1,0,0,12,1,225,2,1,-148862.69958670562,-4788481.069307174,4201951.202604771,2.46252,2.66673,-0.486751,-99.625,49.125,55.0,-0.1875,-6.82812,6.95312,0.0332031,0.00390625,0.00390625,4,0,41.44438667236033,-91.78061857586852,11930.506314840248,-52.986409296259176,1.4403878356407909,3.717237079827186,194.048,10098.377684851064,11929.638060800664,150,True,20.568967272847818,False,154.66337881759296,171.078815321642,False,34.25672857033901,False,False
10,1970-07-23 11:29:06.776713405,2025-09-16,2025-09-26 20:31:17.671,AA,D,3325614214,JASSM,3,125,76,2,2,1,225,9,2,0,1,26,0,0,0,0,-186958.7152117056,-4786518.774385299,4202230.145964146,-2.30145,-0.15311,0.128279,89.0,-13.625,-11.5,0.0,0.0,0.0,0.0,0.0,0.0,2,0,41.44999578610605,-92.23680367479328,10997.376290624354,99.82354220286904,-0.0040153294495858,0.0064689759041366,,10098.377684851064,11929.638060800664,150,10,2025-09-16,2025-09-26 20:31:17.809,AA,D,1233632994,HAWK11,1,1,73,2,1,1,225,2,1,0,0,12,1,225,2,1,-148979.07849295562,-4788422.666963424,4202015.007292271,2.47469,2.66328,-0.491161,-99.5,50.125,55.5,-0.203125,-6.79688,6.9375,0.0273438,0.00195312,0.0234375,4,0,41.44514320835998,-91.7820314633157,11934.400790232785,-52.68772247553779,1.5096140950546295,4.329725016936975,194.549,10098.377684851064,11929.638060800664,150,True,20.454099030098842,False,154.25696028460231,170.93302112377893,False,34.80973076194864,False,False
10,1970-07-23 11:29:06.786254317,2025-09-16,2025-09-26 20:31:18.625,AA,D,3326864780,JASSM,3,125,76,2,2,1,225,9,2,0,1,26,0,0,0,0,-186865.43200858065,-4786533.182588424,4202217.966276646,-2.30145,-0.15311,0.128375,89.0,-13.625,-11.5,0.0,0.0,0.0,0.0,0.0,0.0,2,0,41.449849548602906,-92.23568202962574,10997.377804304697,99.82837525786516,-0.0068283684551852,0.0064679689836059,,10098.377684851064,11929.638060800664,150,10,2025-09-16,2025-09-26 20:31:18.809,AA,D,1234825994,HAWK11,1,1,73,2,1,1,225,2,1,0,0,12,1,225,2,1,-149077.95153983062,-4788372.250947799,4202070.093229771,2.48467,2.65628,-0.497777,-99.25,50.625,56.25,0.0,-6.73438,6.82812,0.00585938,-0.00390625,0.0136719,4,0,41.44579661397168,-91.7832321450794,11937.663358896323,-52.172064080224125,1.5521438346746887,4.7245418862615765,195.013,10098.377684851064,11929.638060800664,150,True,20.3490858790873,False,153.85779784078426,170.802604361428,False,35.339206509561066,False,False
10,1970-07-23 11:29:06.796291910,2025-09-16,2025-09-26 20:31:19.629,AA,D,3328117684,JASSM,3,125,76,2,2,1,225,9,2,0,1,26,0,0,0,0,-186771.9730242056,-4786547.614229049,4202205.763151646,-2.30145,-0.15311,0.128375,89.0,-13.625,-11.5,0.0,0.0,0.0,0.0,0.0,0.0,2,0,41.449703043384005,-92.23455827763355,10997.373804329109,99.82911914048638,-0.0059734294324637,0.0064673967827542,,10098.377684851064,11929.638060800664,150,10,2025-09-16,2025-09-26 20:31:19.715,AA,D,1235939460,HAWK11,1,1,73,2,1,1,225,2,1,0,0,12,1,225,2,1,-149171.37536795562,-4788323.690400924,4202122.630339146,2.51199,2.64909,-0.501324,-98.875,51.375,56.625,-0.421875,-7.07812,6.75,0.0078125,0.00585938,0.0,4,0,41.44642277825844,-91.7843670188944,11939.542185193754,-51.76836026610568,1.4603490065675948,6.103411824198146,195.502,10098.377684851064,11929.638060800664,150,True,20.247059959810517,False,153.47786644938984,170.67531461348284,False,35.84675491026921,False,False
10,1970-07-23 11:29:06.807151455,2025-09-16,2025-09-26 20:31:20.715,AA,D,3329370076,JASSM,3,125,76,2,2,1,225,9,2,0,1,26,0,0,0,0,-186678.5511492056,-4786562.041963424,4202193.563932896,-2.30145,-0.15311,0.128375,89.0,-13.625,-11.5,0.0,0.0,0.0,0.0,0.0,0.0,2,0,41.44955656817014,-92.233434976048,10997.376913519678,99.8298627227954,-0.0051188262917162,0.0064668079353478,,10098.377684851064,11929.638060800664,150,10,2025-09-16,2025-09-26 20:31:20.715,AA,D,1237132458,HAWK11,1,1,73,2,1,1,225,2,1,0,0,12,1,225,2,1,-149269.52380545562,-4788271.623994674,4202178.856901646,2.48831,2.6372,-0.511391,-98.125,52.0,57.125,0.0,-7.51562,6.42188,-0.0195312,0.00195312,0.0234375,4,0,41.44709381307487,-91.78555969990408,11941.184999258116,-50.9402417661749,1.4911747581875638,4.437610146330456,195.282,10098.377684851064,11929.638060800664,150,True,20.14253593243791,False,152.984660551489,170.53918919703835,False,36.47614664549773,False,False
10,1970-07-23 11:29:06.817192890,2025-09-16,2025-09-26 20:31:21.719,AA,D,3330563122,JASSM,3,125,76,2,2,1,225,9,2,0,1,26,0,0,0,0,-186589.55700858065,-4786575.784150924,4202181.940886021,-2.30145,-0.15311,0.128375,89.0,-13.625,-11.5,0.0,0.0,0.0,0.0,0.0,0.0,2,0,41.44941702176887,-92.2323649189092,10997.375561726918,99.83057105732516,-0.0043047271456016,0.0064662437168827,,10098.377684851064,11929.638060800664,150,10,2025-09-16,2025-09-26 20:31:21.621,AA,D,1238206156,HAWK11,1,1,73,2,1,1,225,2,1,0,0,12,1,225,2,1,-149357.84021170562,-4788224.315400924,4202230.099089146,2.46587,2.63059,-0.516856,-97.375,52.125,57.25,-0.265625,-7.64062,6.48438,-0.0253906,0.00390625,-0.00585938,4,0,41.44770471436272,-91.786633095564,11942.951972461047,-50.48607932803221,1.5057805202407826,2.977748392656528,194.854,10098.377684851064,11929.638060800664,150,True,20.045904254971635,False,152.70774891832724,170.4129679187146,False,36.87928276159465,False,False
10,1970-07-23 11:29:06.826253139,2025-09-16,2025-09-26 20:31:22.625,AA,D,3331636862,JASSM,3,125,76,2,2,1,225,9,2,0,1,26,0,0,0,0,-186509.46325858065,-4786588.149385299,4202171.481901646,-2.30145,-0.15311,0.128375,89.0,-13.625,-11.5,0.0,0.0,0.0,0.0,0.0,0.0,2,0,41.449291449401926,-92.23140188435067,10997.375155981314,99.83120854555844,-0.0035720522227166,0.0064657617280937,,10098.377684851064,11929.638060800664,150,10,2025-09-16,2025-09-26 20:31:22.513,AA,D,1239240088,HAWK11,1,1,73,2,1,1,225,2,1,0,0,12,1,225,2,1,-149441.96325858062,-4788179.247041549,4202279.854948521,2.48352,2.64918,-0.53162,-96.625,51.25,58.25,-0.203125,-8.875,8.0625,0.0898438,0.0234375,0.00195312,4,0,41.44829302142095,-91.7876555460334,11946.68227475098,-50.607316532422985,2.752615103714199,4.517499271046272,194.549,10098.377684851064,11929.638060800664,150,True,19.95647744122577,False,152.39781908689204,170.29173286322728,False,37.30854616067374,False,False
10,1970-07-23 11:29:06.837271754,2025-09-16,2025-09-26 20:31:23.727,AA,D,3332951324,JASSM,3,125,76,2,2,1,225,9,2,0,1,26,0,0,0,0,-186411.41247733065,-4786603.288057174,4202158.675261021,-2.30145,-0.15311,0.128375,89.0,-13.625,-11.5,0.0,0.0,0.0,0.0,0.0,0.0,2,0,41.4491376873143,-92.2302229418152,10997.3761794798,99.83198895359908,-0.002675106713916,0.0064651466795844,,10098.377684851064,11929.638060800664,150,10,2025-09-16,2025-09-26 20:31:23.715,AA,D,1240592154,HAWK11,1,1,73,2,1,1,225,2,1,0,0,12,1,225,2,1,-149551.59411795562,-4788120.668916549,4202347.479948521,2.68466,2.6442,-0.548111,-94.875,51.25,60.125,-0.234375,-7.78125,7.35938,0.162109,0.0195312,0.0195312,4,0,41.44907753859822,-91.78898799318029,11957.977934150416,-49.79116120415211,3.289650562472109,15.938422230094917,193.29,10098.377684851064,11929.638060800664,150,False,19.84349138383879,False,151.34170653243012,170.13066212105554,False,38.52130206830399,False,False
10,1970-07-23 11:29:06.848291743,2025-09-16,2025-09-26 20:31:24.829,AA,D,3334263804,JASSM,3,125,76,2,2,1,225,9,2,0,1,26,0,0,0,0,-186313.5081804556,-4786618.403291549,4202145.886198521,-2.30145,-0.15311,0.128375,89.0,-13.625,-11.5,0.0,0.0,0.0,0.0,0.0,0.0,2,0,41.44898413728347,-92.22904576651516,10997.376934627213,99.832768189432,-0.0017795005118385,0.0064645269375397,,10098.377684851064,11929.638060800664,150,10,2025-09-16,2025-09-26 20:31:24.919,AA,D,1242143052,HAWK11,1,1,73,2,1,1,225,2,1,0,0,12,1,225,2,1,-149673.37732108062,-4788052.372041549,4202427.380339146,2.87506,2.59952,-0.576297,-91.75,53.5,63.125,-0.34375,-7.39062,7.375,0.113281,0.0136719,0.0449219,4,0,41.45000043893327,-91.7904693805386,11972.989532898857,-47.09601231018024,3.064731875092899,25.63254271124707,193.29,10098.377684851064,11929.638060800664,150,False,19.72406947232238,False,149.0778035252386,169.94370350994026,False,40.97252982652961,False,False
10,1970-07-23 11:29:06.859511064,2025-09-16,2025-09-26 20:31:25.951,AA,D,3335633732,JASSM,3,125,76,2,2,1,225,9,2,0,1,26,0,0,0,0,-186211.3206804556,-4786634.176729049,4202132.536589146,-2.30145,-0.153015,0.128375,89.0,-13.625,-11.5,0.0,0.0,0.0,0.0,0.0,0.0,2,0,41.44882386802861,-92.2278170984662,10997.37338100815,99.82994532903324,-0.0049016426653357,0.0057608215648102,,10098.377684851064,11929.638060800664,150,10,2025-09-16,2025-09-26 20:31:25.809,AA,D,1242938386,HAWK11,1,1,73,2,1,1,225,2,1,0,0,12,1,225,2,1,-149733.68396170562,-4788016.436494674,4202469.247526646,2.95914,2.57584,-0.587227,-89.75,55.25,64.625,-0.15625,-7.20312,7.35938,0.09375,0.015625,0.0292969,4,0,41.45048556058708,-91.7912037642013,11980.2262263682,-45.82643799830685,2.8039893560850238,29.76948358475701,193.327,10098.377684851064,11929.638060800664,150,False,19.635993053780183,False,147.68629298820784,169.8300731760352,False,42.479937789451405,False,False
10,1970-07-23 11:29:06.870169948,2025-09-16,2025-09-26 20:31:27.016,AA,D,3336946250,JASSM,3,125,76,2,2,1,225,9,2,0,1,26,0,0,0,0,-186113.4144304556,-4786649.290010299,4202119.745573521,-2.30145,-0.153015,0.128375,89.0,-13.625,-11.5,0.0,0.0,0.0,0.0,0.0,0.0,2,0,41.4486702922753,-92.22663991207702,10997.375377631815,99.83072456740202,-0.0040060196990139,0.0057601466813078,,10098.377684851064,11929.638060800664,150,10,2025-09-16,2025-09-26 20:31:27.013,AA,D,1244608584,HAWK11,1,1,73,2,1,1,225,2,1,0,0,12,1,225,2,1,-149855.75232108062,-4787935.356416549,4202561.817839146,3.10641,2.50605,-0.624714,-84.125,60.0,68.25,-0.125,-7.70312,7.73438,0.0644531,0.03125,0.0507812,4,0,41.45156994496508,-91.79269340400003,11991.378152079566,-41.9191400884184,2.393474943784085,36.10561468807179,193.669,10098.377684851064,11929.638060800664,150,False,19.516626871025963,False,143.96461127366646,169.6110045178831,False,46.424212526885874,False,False
10,1970-07-23 11:29:06.881212179,2025-09-16,2025-09-26 20:31:28.121,AA,D,3338200290,JASSM,3,125,76,2,2,1,225,9,2,0,1,26,0,0,0,0,-186019.86950858065,-4786663.727510299,4202107.524870396,-2.30145,-0.153015,0.128375,89.0,-13.625,-11.5,0.0,0.0,0.0,0.0,0.0,0.0,2,0,41.44852356513508,-92.22551517095806,10997.376954402542,99.83146908741102,-0.0031502971621097,0.0057595200821559,,10098.377684851064,11929.638060800664,150,10,2025-09-16,2025-09-26 20:31:28.231,AA,D,1246159482,HAWK11,1,1,73,2,1,1,225,2,1,0,0,12,1,225,2,1,-149962.22888358062,-4787853.272432174,4202653.534636021,-3.06662,2.43481,-0.655106,-77.75,64.75,72.375,-0.421875,-8.21875,8.28125,0.0273438,0.0390625,0.0605469,4,0,41.45265743755219,-91.79399706513364,11997.024018428709,-38.25523670370084,1.816443990500316,40.11389351117539,194.402,10098.377684851064,11929.638060800664,150,False,19.4082678470192,False,139.87634313751278,169.39034608510588,False,50.73291416809434,False,False
10,1970-07-23 11:29:06.892234260,2025-09-16,2025-09-26 20:31:29.223,AA,D,3339512832,JASSM,3,125,76,2,2,1,225,9,2,0,1,26,0,0,0,0,-185921.96325858065,-4786678.836885299,4202094.731901646,-2.30145,-0.153015,0.128471,89.0,-13.625,-11.5,0.0,0.0,0.0,0.0,0.0,0.0,2,0,41.44836997589662,-92.2243379972409,10997.37512774525,99.83633892302834,-0.005921001004177,0.005758562955991,,10098.377684851064,11929.638060800664,150,10,2025-09-16,2025-09-26 20:31:29.137,AA,D,1247113880,HAWK11,1,1,73,2,1,1,225,2,1,0,0,12,1,225,2,1,-150022.66638358062,-4787799.784150924,4202712.409636021,-3.01772,2.38285,-0.676581,-73.125,67.75,75.0,0.0,-8.28125,8.4375,0.0195312,0.0371094,0.046875,4,0,41.45336173503328,-91.79473964287553,11998.087724336949,-35.630831249663586,1.484970034334307,41.15154983541767,194.867,10098.377684851064,11929.638060800664,150,False,19.322712894452504,False,137.09213419704832,169.2348905763749,False,53.67150024610773,False,False
10,1970-07-23 11:29:06.903269988,2025-09-16,2025-09-26 20:31:30.326,AA,D,3340882974,JASSM,3,125,76,2,2,1,225,9,2,0,1,26,0,0,0,0,-185819.7581804556,-4786694.610322799,4202081.376432896,-2.30145,-0.153015,0.128471,89.0,-13.625,-11.5,0.0,0.0,0.0,0.0,0.0,0.0,2,0,41.448209620884,-92.22310914227911,10997.378554816882,99.8371523560562,-0.0049860546691292,0.0057579261579662,,10098.377684851064,11929.638060800664,150,10,2025-09-16,2025-09-26 20:31:30.325,AA,D,1248585246,HAWK11,1,1,73,2,1,1,225,2,1,0,0,12,1,225,2,1,-150108.14099295562,-4787712.848604049,4202807.354948521,-2.94342,2.29186,-0.718382,-65.375,71.75,79.5,-0.25,-9.01562,9.07812,0.00390625,0.0449219,0.046875,4,0,41.45450378724995,-91.79579410302304,11997.225646041772,-30.974576437883385,1.362984136408212,42.17421996267753,195.82,10098.377684851064,11929.638060800664,150,False,19.221461444742864,False,132.61097851368012,168.99810423881655,False,58.388791054453804,False,False
10,1970-07-23 11:29:06.914292924,2025-09-16,2025-09-26 20:31:31.429,AA,D,3342135978,JASSM,3,125,76,2,2,1,225,9,2,0,1,26,0,0,0,0,-185726.29138358065,-4786709.032197799,4202069.161589146,-2.30145,-0.153015,0.128471,89.0,-13.625,-11.5,0.0,0.0,0.0,0.0,0.0,0.0,2,0,41.44806297370052,-92.2219853580524,10997.376590050071,99.83789623588694,-0.0041310465281186,0.0057573528133944,,10098.377684851064,11929.638060800664,150,10,2025-09-16,2025-09-26 20:31:31.529,AA,D,1249937312,HAWK11,1,1,73,2,1,1,225,2,1,0,0,12,1,225,2,1,-150176.94958670562,-4787628.092744674,4202899.263151646,-2.86701,2.21229,-0.747336,-56.875,76.125,83.375,-0.171875,-9.14062,9.28125,0.0214844,0.046875,0.0527344,4,0,41.45561548046394,-91.79664852881244,11993.851198540971,-27.208030442404244,1.1493535382166495,43.58352008370586,196.687,10098.377684851064,11929.638060800664,150,False,19.134194540788208,False,127.95821082818328,168.76768067680928,False,63.269403117652374,False,False
10,1970-07-23 11:29:06.925155232,2025-09-16,2025-09-26 20:31:32.515,AA,D,3343448080,JASSM,3,125,76,2,2,1,225,9,2,0,1,26,0,0,0,0,-185628.41638358065,-4786724.133760299,4202056.368620396,-2.30145,-0.153015,0.128471,89.0,-13.625,-11.5,0.0,0.0,0.0,0.0,0.0,0.0,2,0,41.44790938762127,-92.22080857810128,10997.37390419879,99.83867519348703,-0.0032357116844966,0.0057567417523232,,10098.377684851064,11929.638060800664,150,10,2025-09-16,2025-09-26 20:31:32.435,AA,D,1250931476,HAWK11,1,1,73,2,1,1,225,2,1,0,0,12,1,225,2,1,-150221.78161795562,-4787562.737275924,4202970.247526646,-2.80009,2.13664,-0.773318,-50.125,78.625,86.0,-0.34375,-9.40625,9.40625,0.00585938,0.0507812,0.0585938,4,0,41.456475009843736,-91.7972090445527,11990.868911146345,-23.733442073299035,1.0871742010245278,44.49771092297087,197.335,10098.377684851064,11929.638060800664,150,False,19.05767198753478,False,124.49948449399837,168.57997354131942,False,66.91482339907323,False,False
10,1970-07-23 11:29:06.936191394,2025-09-16,2025-09-26 20:31:33.619,AA,D,3344760444,JASSM,3,125,76,2,2,1,225,9,2,0,1,26,0,0,0,0,-185530.5198992056,-4786739.237275924,4202043.573698521,-2.30145,-0.153015,0.128471,89.0,-13.625,-11.5,0.0,0.0,0.0,0.0,0.0,0.0,2,0,41.4477557696568,-92.21963154602048,10997.37484938429,99.83945431560642,-0.002340183120165,0.0057561440997296,,10098.377684851064,11929.638060800664,150,10,2025-09-16,2025-09-26 20:31:33.638,AA,D,1252522142,HAWK11,1,1,73,2,1,1,225,2,1,0,0,12,1,225,2,1,-150280.61755545562,-4787454.313447799,4203087.741667271,-2.70163,2.00942,-0.807737,-38.25,82.375,90.0,-0.15625,-9.78125,9.78125,0.0,0.0507812,0.0605469,4,0,41.45790204932326,-91.79795316993012,11984.153252637689,-18.2432149141152,0.9564393846903022,45.05218059979416,198.166,10098.377684851064,11929.638060800664,150,False,18.974153388363522,False,118.63371685314057,168.28773389690932,False,73.0712804330017,False,False
10,1970-07-23 11:29:06.946211615,2025-09-16,2025-09-26 20:31:34.621,AA,D,3346014358,JASSM,3,125,76,2,2,1,225,9,2,0,1,26,0,0,0,0,-185436.9847429556,-4786753.666963424,4202031.347136021,-2.30145,-0.152919,0.128471,89.0,-13.625,-11.5,0.0,0.0,0.0,0.0,0.0,0.0,2,0,41.44760897870341,-92.21850695682912,10997.37457283831,99.83656263723132,-0.0055414719950613,0.0050520164692966,,10098.377684851064,11929.638060800664,150,10,2025-09-16,2025-09-26 20:31:34.527,AA,D,1253635608,HAWK11,1,1,73,2,1,1,225,2,1,0,0,12,1,225,2,1,-150312.26794608062,-4787377.034150924,4203172.282682896,-2.61688,1.90894,-0.829212,-29.875,84.0,92.5,-0.359375,-9.70312,9.625,0.0136719,0.0625,0.0429688,4,0,41.45892646882173,-91.79836059587149,11980.31301926417,-14.122401951123,0.927265620175939,45.77094111665789,198.997,10098.377684851064,11929.638060800664,150,False,18.907724844004957,False,114.66939613152702,168.06885210853943,False,77.25523783403871,False,False
10,1970-07-23 11:29:06.958230691,2025-09-16,2025-09-26 20:31:35.823,AA,D,3347385244,JASSM,3,125,76,2,2,1,225,9,2,0,1,26,0,0,0,0,-185334.72497733065,-4786769.442354049,4202017.979948521,-2.30145,-0.152919,0.128471,89.0,-13.625,-11.5,0.0,0.0,0.0,0.0,0.0,0.0,2,0,41.44744848331492,-92.21727747608048,10997.378636179275,99.83737647225412,-0.0046060288590274,0.0050513269967631,,10098.377684851064,11929.638060800664,150,10,2025-09-16,2025-09-26 20:31:35.731,AA,D,1254908140,HAWK11,1,1,73,2,1,1,225,2,1,0,0,12,1,225,2,1,-150338.28943045562,-4787285.155244674,4203272.304167271,-2.51736,1.78814,-0.845128,-19.25,86.0,94.375,-0.578125,-9.71875,9.64062,0.0078125,0.0507812,0.0625,4,0,41.46014327969101,-91.7987062146202,11973.794227895369,-9.40370442646997,0.7593985890079522,46.39851715511892,199.596,10098.377684851064,11929.638060800664,150,False,18.84013924544174,False,109.80080675903416,167.8107427190667,False,82.38014908283517,False,False
10,1970-07-23 11:29:06.968274025,2025-09-16,2025-09-26 20:31:36.827,AA,D,3348638112,JASSM,3,125,76,2,2,1,225,9,2,0,1,26,0,0,0,0,-185241.26794608065,-4786783.858369674,4202005.761198521,-2.30145,-0.152919,0.128471,89.0,-13.625,-11.5,0.0,0.0,0.0,0.0,0.0,0.0,2,0,41.4473017854254,-92.2161538375511,10997.378945666824,99.83812024445363,-0.0037511099189454,0.0050506900644502,,10098.377684851064,11929.638060800664,150,10,2025-09-16,2025-09-26 20:31:36.935,AA,D,1256419270,HAWK11,1,1,73,2,1,1,225,2,1,0,0,12,1,225,2,1,-150354.70349295562,-4787175.610322799,4203391.960417271,-2.3909,1.63733,-0.854619,-6.75,87.5,95.875,-0.40625,-9.9375,9.79688,0.0175781,0.0566406,0.0546875,4,0,41.46159950372693,-91.79894360710222,11965.782888605288,-3.680610054662048,0.5627429461819319,47.213755745742425,200.683,10098.377684851064,11929.638060800664,150,False,18.783167866182268,False,104.20716388905258,167.51101833481712,False,88.2718745250447,False,False
10,1970-07-23 11:29:06.979289944,2025-09-16,2025-09-26 20:31:37.928,AA,D,3349952322,JASSM,3,125,76,2,2,1,225,9,2,0,1,26,0,0,0,0,-185143.2347429556,-4786798.977510299,4201992.942839146,-2.30145,-0.152919,0.128471,89.0,-13.625,-11.5,0.0,0.0,0.0,0.0,0.0,0.0,2,0,41.44714790019455,-92.2149751861974,10997.374648361609,99.83890042906904,-0.0028543316484288,0.0050500292185762,,10098.377684851064,11929.638060800664,150,10,2025-09-16,2025-09-26 20:31:37.825,AA,D,1257612270,HAWK11,1,1,73,2,1,1,225,2,1,0,0,12,1,225,2,1,-150355.88708670562,-4787087.297822799,4203487.727995396,-2.30682,1.51989,-0.85366,3.5,88.125,96.25,-0.390625,-10.125,9.875,-0.0195312,0.0527344,0.0566406,4,0,41.46277103441757,-91.7989909245826,11956.89138449367,0.7346924252607259,0.3792769485842744,46.99126337344275,201.392,10098.377684851064,11929.638060800664,150,False,18.731944492339597,False,99.69788437280529,167.26101005992797,False,93.0292417029921,False,False
10,1970-07-23 11:29:06.990151390,2025-09-16,2025-09-26 20:31:39.015,AA,D,3351262478,JASSM,3,125,76,2,2,1,225,9,2,0,1,26,0,0,0,0,-185045.5042742056,-4786814.049775924,4201980.163542271,-2.30145,-0.152919,0.128567,89.0,-13.625,-11.5,0.0,0.0,0.0,0.0,0.0,0.0,2,0,41.44699447573763,-92.2138001802434,10997.37388695649,99.8437688539929,-0.0056265954692186,0.0050490971442355,,10098.377684851064,11929.638060800664,150,10,2025-09-16,2025-09-26 20:31:39.026,AA,D,1258805268,HAWK11,1,1,73,2,1,1,225,2,1,0,0,12,1,225,2,1,-150347.01013358062,-4786999.399385299,4203583.638151646,-2.22178,1.39151,-0.851935,13.875,87.5,96.125,-0.171875,-10.7344,9.70312,0.00195312,0.0703125,0.0703125,4,0,41.46394294320736,-91.79891779189607,11948.559368864751,5.568641450625859,0.5848358410511869,46.36161324258404,201.698,10098.377684851064,11929.638060800664,150,False,18.686653826654595,False,95.13861640421162,167.01052651752624,False,97.83942770943112,False,False
10,1970-07-23 11:29:07.001190601,2025-09-16,2025-09-26 20:31:40.119,AA,D,3352517316,JASSM,3,125,76,2,2,1,225,9,2,0,1,26,0,0,0,0,-184951.90075858065,-4786828.485322799,4201967.923307896,-2.30145,-0.152919,0.128567,89.0,-13.625,-11.5,0.0,0.0,0.0,0.0,0.0,0.0,2,0,41.44684751638281,-92.2126747976368,10997.37607194993,99.84451377397228,-0.0047703378940349,0.0050485225028909,,10098.377684851064,11929.638060800664,150,10,2025-09-16,2025-09-26 20:31:40.231,AA,D,1260395934,HAWK11,1,1,73,2,1,1,225,2,1,0,0,12,1,225,2,1,-150318.92810233062,-4786883.411104049,4203711.333464146,-2.08612,1.22738,-0.833623,27.75,85.25,94.5,-0.40625,-11.1406,9.60938,0.00390625,0.0703125,0.046875,4,0,41.465500076745926,-91.79862555995372,11938.780701952772,11.909694905009854,0.6221962248250581,47.17379408893606,200.989,10098.377684851064,11929.638060800664,150,False,18.6551359833269,False,88.92672160009113,166.69154752121304,False,104.37110589218042,False,False
10,1970-07-23 11:29:07.012209309,2025-09-16,2025-09-26 20:31:41.220,AA,D,3353829702,JASSM,3,125,76,2,2,1,225,9,2,0,1,26,0,0,0,0,-184854.0042742056,-4786843.581025924,4201955.120573521,-2.30145,-0.152919,0.128567,89.0,-13.625,-11.5,0.0,0.0,0.0,0.0,0.0,0.0,2,0,41.446693808977,-92.2114978075524,10997.376245928202,99.8452928519574,-0.0038748107689417,0.0050479250688645,,10098.377684851064,11929.638060800664,150,10,2025-09-16,2025-09-26 20:31:41.136,AA,D,1261270800,HAWK11,1,1,73,2,1,1,225,2,1,0,0,12,1,225,2,1,-150296.26403983062,-4786822.500947799,4203779.507292271,-2.01987,1.13074,-0.820104,35.0,83.125,93.375,-0.28125,-11.4062,9.8125,-0.00976562,0.0683594,0.0527344,4,0,41.46632679572033,-91.79837742177035,11935.465143223846,15.730325926124973,0.8669223682454075,46.94342827014343,200.219,10098.377684851064,11929.638060800664,150,False,18.61711049908864,False,85.57768468003323,166.50338634100748,False,107.91069342479223,False,False
10,1970-07-23 11:29:07.022248818,2025-09-16,2025-09-26 20:31:42.224,AA,D,3355082568,JASSM,3,125,76,2,2,1,225,9,2,0,1,26,0,0,0,0,-184760.5472429556,-4786857.991182174,4201942.897917271,-2.30145,-0.152919,0.128567,89.0,-13.625,-11.5,0.0,0.0,0.0,0.0,0.0,0.0,2,0,41.44654706314592,-92.21037419777154,10997.37768293637,99.84603659402136,-0.0030198951303988,0.0050473570127789,,10098.377684851064,11929.638060800664,150,10,2025-09-16,2025-09-26 20:31:42.026,AA,D,1262622864,HAWK11,1,1,73,2,1,1,225,2,1,0,0,12,1,225,2,1,-150249.58044608062,-4786730.194307174,4203883.724089146,-1.92495,0.989897,-0.789425,46.875,79.375,90.5,-0.21875,-11.6406,10.1406,-0.00195312,0.0605469,0.0683594,4,0,41.46758804228907,-91.79785383968664,11931.458155260798,21.585610127276883,1.1517148399995334,46.664219974327736,199.657,10098.377684851064,11929.638060800664,150,False,18.59576491005625,False,79.93295707277031,166.23884117419152,False,113.82181935979716,False,False
10,1970-07-23 11:29:07.034269766,2025-09-16,2025-09-26 20:31:43.426,AA,D,3356454468,JASSM,3,125,76,2,2,1,225,9,2,0,1,26,0,0,0,0,-184658.2113054556,-4786873.768525924,4201929.513151646,-2.30145,-0.152823,0.128567,89.0,-13.625,-11.5,0.0,0.0,0.0,0.0,0.0,0.0,2,0,41.44638636810494,-92.20914384585367,10997.378118030249,99.84321499948628,-0.0061406761424622,0.0043427043632797,,10098.377684851064,11929.638060800664,150,10,2025-09-16,2025-09-26 20:31:43.325,AA,D,1264094230,HAWK11,1,1,73,2,1,1,225,2,1,0,0,12,1,225,2,1,-150183.33435233062,-4786634.930635299,4203993.372526646,-1.83934,0.857591,-0.751842,59.125,74.375,86.5,-0.40625,-11.2969,9.79688,-0.0078125,0.0546875,0.0585938,4,0,41.46890718034399,-91.79709741489096,11930.488921849785,27.419807580187783,1.5662220257915178,46.42267297241071,198.203,10098.377684851064,11929.638060800664,150,False,18.580791306691967,False,73.79900758976727,165.9616003613316,False,120.23522589001587,False,False
10,1970-07-23 11:29:07.045288002,2025-09-16,2025-09-26 20:31:44.528,AA,D,3357824234,JASSM,3,125,76,2,2,1,225,9,2,0,1,26,0,0,0,0,-184556.03357108065,-4786889.520479049,4201916.145964146,-2.30145,-0.152823,0.128567,89.0,-13.625,-11.5,0.0,0.0,0.0,0.0,0.0,0.0,2,0,41.44622589330312,-92.20791540247966,10997.374916688235,99.8440281281945,-0.0052059854859234,0.0043420138108205,,10098.377684851064,11929.638060800664,150,10,2025-09-16,2025-09-26 20:31:44.527,AA,D,1265565594,HAWK11,1,1,73,2,1,1,225,2,1,0,0,12,1,225,2,1,-150103.65661795562,-4786546.643525924,4204096.087370396,-1.76206,0.747049,-0.701988,69.75,69.375,81.5,-0.15625,-10.5781,9.0625,0.00390625,0.0585938,0.0585938,4,0,41.47014051593768,-91.79617772178668,11930.575680154208,32.947292731160104,1.4845079423800145,46.78460721552901,196.846,10098.377684851064,11929.638060800664,150,False,18.573261396920973,False,68.09888471938392,165.70143752575768,False,126.19581545007271,False,False
10,1970-07-23 11:29:07.056171521,2025-09-16,2025-09-26 20:31:45.617,AA,D,3359079022,JASSM,3,125,76,2,2,1,225,9,2,0,1,26,0,0,0,0,-184462.43200858065,-4786903.948213424,4201903.901823521,-2.30145,-0.152823,0.128567,89.0,-13.625,-11.5,0.0,0.0,0.0,0.0,0.0,0.0,2,0,41.446078896067895,-92.206790073381,10997.374089705543,99.84477300143912,-0.0043497511038106,0.0043414005722568,,10098.377684851064,11929.638060800664,150,10,2025-09-16,2025-09-26 20:31:45.731,AA,D,1266917660,HAWK11,1,1,73,2,1,1,225,2,1,0,0,12,1,225,2,1,-150019.39099295562,-4786470.741182174,4204184.770964146,-1.7054,0.650983,-0.647628,78.625,64.75,75.625,-0.125,-10.2188,8.67188,-0.0117188,0.0488281,0.0527344,4,0,41.47120632328346,-91.7951984869174,11930.26630455352,38.25224090687863,1.301062863895152,46.71852117585925,195.478,10098.377684851064,11929.638060800664,150,False,18.572517706902197,False,62.89912770777176,165.47619267034244,False,131.61822443494742,False,False
10,1970-07-23 11:29:07.068310287,2025-09-16,2025-09-26 20:31:46.831,AA,D,3360391172,JASSM,3,125,76,2,2,1,225,9,2,0,1,26,0,0,0,0,-184364.55310233065,-4786919.036104049,4201891.095182896,-2.30145,-0.152823,0.128567,89.0,-13.625,-11.5,0.0,0.0,0.0,0.0,0.0,0.0,2,0,41.44592514455956,-92.20561332476368,10997.373853189934,99.84555190775852,-0.0034543844708907,0.0043407345743203,,10098.377684851064,11929.638060800664,150,10,2025-09-16,2025-09-26 20:31:46.940,AA,D,1268229958,HAWK11,1,1,73,2,1,1,225,2,1,0,0,12,1,225,2,1,-149928.41247733062,-4786402.215791549,4204264.450651646,-1.65785,0.564505,-0.591254,86.5,59.875,69.75,-0.28125,-10.4688,9.01562,0.00390625,0.0546875,0.0625,4,0,41.47216872400752,-91.79413617834308,11928.013176105029,43.41841169453847,1.1482381389398473,46.67462378210921,194.671,10098.377684851064,11929.638060800664,150,False,18.572989221072685,False,57.9454362681762,165.26903755313683,False,136.77642872529927,False,False
10,1970-07-23 11:29:07.078231109,2025-09-16,2025-09-26 20:31:47.823,AA,D,3361762860,JASSM,3,125,76,2,2,1,225,9,2,0,1,26,0,0,0,0,-184262.23278983065,-4786934.805635299,4201877.708464146,-2.30145,-0.152823,0.128567,89.0,-13.625,-11.5,0.0,0.0,0.0,0.0,0.0,0.0,2,0,41.44576442833318,-92.2043831866823,10997.373982664554,99.84636615076587,-0.0025183944414871,0.0043400626297286,,10098.377684851064,11929.638060800664,150,10,2025-09-16,2025-09-26 20:31:47.824,AA,D,1269303658,HAWK11,1,1,73,2,1,1,225,2,1,0,0,12,1,225,2,1,-149847.06286795562,-4786350.063447799,4204325.165495396,-1.62027,0.496914,-0.541783,92.5,55.125,64.75,-0.46875,-10.7188,9.15625,-0.0078125,0.0546875,0.0644531,4,0,41.47290392067708,-91.7931828599375,11925.532929649067,47.74319288427815,1.0292475561226728,46.8305135642522,193.974,10098.377684851064,11929.638060800664,150,False,18.56526741233414,False,53.79384692978939,165.1004009705147,False,141.09647667672238,False,False
10,1970-07-23 11:29:07.089250574,2025-09-16,2025-09-26 20:31:48.925,AA,D,3363075400,JASSM,3,125,76,2,2,1,225,9,2,0,1,26,0,0,0,0,-184164.32361014312,-4786949.895479049,4201864.895964146,-2.30145,-0.152823,0.128663,89.0,-13.625,-11.5,0.0,0.0,0.0,0.0,0.0,0.0,2,0,41.44561060797904,-92.20320608671987,10997.373431277572,99.85123598588795,-0.0052889747747292,0.0043391527324394,,10098.377684851064,11929.638060800664,150,10,2025-09-16,2025-09-26 20:31:49.027,AA,D,1270973856,HAWK11,1,1,73,2,1,1,225,2,1,0,0,12,1,225,2,1,-149710.66833670562,-4786278.418916549,4204409.479948521,-1.58489,0.390877,-0.460386,101.25,47.0,55.875,-0.296875,-11.125,9.67188,0.0117188,0.0664062,0.0527344,4,0,41.47392459558027,-91.79157852415544,11922.21386538886,54.82378924039297,1.1015437997089377,46.066315851910126,193.046,10098.377684851064,11929.638060800664,150,False,18.59075915776802,False,46.99417794758357,164.8891398836413,False,148.10575677282284,False,False
10,1970-07-23 11:29:07.100272333,2025-09-16,2025-09-26 20:31:50.027,AA,D,3364388278,JASSM,3,125,76,2,2,1,225,9,2,0,1,26,0,0,0,0,-184066.39001639312,-4786964.987275924,4201852.081511021,-2.30145,-0.152823,0.128663,89.0,-13.625,-11.5,0.0,0.0,0.0,0.0,0.0,0.0,2,0,41.44545675636419,-92.20202869963671,10997.37625416894,99.85201530760652,-0.0043931131440644,0.0043385720789351,,10098.377684851064,11929.638060800664,150,10,2025-09-16,2025-09-26 20:31:49.935,AA,D,1272047554,HAWK11,1,1,73,2,1,1,225,2,1,0,0,12,1,225,2,1,-149617.33044608062,-4786239.092744674,4204456.935026646,-1.55105,0.320123,-0.407943,106.0,40.875,49.875,-0.28125,-11.3281,10.0,0.0117188,0.0664062,0.0605469,4,0,41.474496198567685,-91.7904769842816,11921.531664422038,59.558382975483575,1.4912188019389527,46.40611557841552,192.154,10098.377684851064,11929.638060800664,150,False,18.59143471027676,False,42.49754573058019,164.75434461080349,False,152.73958436215958,False,False
10,1970-07-23 11:29:07.112309760,2025-09-16,2025-09-26 20:31:51.230,AA,D,3365699164,JASSM,3,125,76,2,2,1,225,9,2,0,1,26,0,0,0,0,-183968.60486014312,-4786980.055635299,4201839.282682896,-2.30145,-0.152823,0.128663,89.0,-13.625,-11.5,0.0,0.0,0.0,0.0,0.0,0.0,2,0,41.44530310364712,-92.20085310292292,10997.374555877115,99.85279344189333,-0.0034986057237593,0.0043379702866433,,10098.377684851064,11929.638060800664,150,10,2025-09-16,2025-09-26 20:31:51.136,AA,D,1273320086,HAWK11,1,1,73,2,1,1,225,2,1,0,0,12,1,225,2,1,-149502.23669608062,-4786200.157197799,4204505.933073521,-1.5149,0.246012,-0.341023,110.875,33.25,42.5,-0.34375,-11.0156,9.82812,0.0078125,0.0683594,0.0488281,4,0,41.475079915588026,-91.78911509273736,11923.498540219574,65.06528949385721,1.6186086099032704,47.0718834618336,190.785,10098.377684851064,11929.638060800664,150,False,18.604016749221998,False,37.10761279926139,164.62074488516507,False,158.2670218610143,False,False
10,1970-07-23 11:29:07.122170517,2025-09-16,2025-09-26 20:31:52.217,AA,D,3367012316,JASSM,3,125,76,2,2,1,225,9,2,0,1,26,0,0,0,0,-183870.64978201807,-4786995.147432174,4201826.462370396,-2.30145,-0.152727,0.128663,89.0,-13.625,-11.5,0.0,0.0,0.0,0.0,0.0,0.0,2,0,41.445149193329634,-92.19967547018987,10997.372869776818,99.84993702769124,-0.0066594598595838,0.0036328635902399,,10098.377684851064,11929.638060800664,150,10,2025-09-16,2025-09-26 20:31:52.027,AA,D,1274393786,HAWK11,1,1,73,2,1,1,225,2,1,0,0,12,1,225,2,1,-149399.89099295562,-4786172.959932174,4204541.690886021,-1.50378,0.191556,-0.282252,114.375,27.0,36.25,-0.234375,-10.5156,9.71875,-0.0078125,0.0644531,0.0585938,4,0,41.47550205290207,-91.78790125499104,11926.5223108527,69.55434652036112,1.460581483755956,46.87247054100318,189.954,10098.377684851064,11929.638060800664,150,False,18.60903197647188,False,32.691374503607946,164.51487656338216,False,162.79154254284668,False,False
10,1970-07-23 11:29:07.133189484,2025-09-16,2025-09-26 20:31:53.318,AA,D,3368265430,JASSM,3,125,76,2,2,1,225,9,2,0,1,26,0,0,0,0,-183777.17419608065,-4787009.549775924,4201814.227995396,-2.30145,-0.152727,0.128663,89.0,-13.625,-11.5,0.0,0.0,0.0,0.0,0.0,0.0,2,0,41.44500230368761,-92.1985516955502,10997.377021721766,99.85068085620176,-0.0058043780652004,0.0036322477111062,,10098.377684851064,11929.638060800664,150,10,2025-09-16,2025-09-26 20:31:53.230,AA,D,1275984450,HAWK11,1,1,73,2,1,1,225,2,1,0,0,12,1,225,2,1,-149245.17028983062,-4786142.932588424,4204582.423307896,-1.49506,0.116007,-0.195678,118.75,18.5,25.875,-0.359375,-9.95312,9.84375,0.00390625,0.0585938,0.0605469,4,0,41.47598430643722,-91.78606207636123,11929.395301569217,76.05436124680469,1.2030661488062333,46.497622750444606,189.991,10098.377684851064,11929.638060800664,150,False,18.644820913168505,False,26.120000708128973,164.4085102818353,False,169.4620908356671,False,False
10,1970-07-23 11:29:07.144229576,2025-09-16,2025-09-26 20:31:54.422,AA,D,3369577676,JASSM,3,125,76,2,2,1,225,9,2,0,1,26,0,0,0,0,-183679.28747733065,-4787024.629854049,4201801.413542271,-2.30145,-0.152727,0.128663,89.0,-13.625,-11.5,0.0,0.0,0.0,0.0,0.0,0.0,2,0,41.44484846346982,-92.19737489605838,10997.375727895282,99.85145977963568,-0.0049089441980333,0.0036315956629359,,10098.377684851064,11929.638060800664,150,10,2025-09-16,2025-09-26 20:31:54.433,AA,D,1277376282,HAWK11,1,1,73,2,1,1,225,2,1,0,0,12,1,225,2,1,-149103.77380545562,-4786125.573213424,4204607.102995396,-1.47214,0.052443,-0.122239,121.625,10.875,17.5,-0.375,-9.75,9.82812,0.00195312,0.0664062,0.0488281,4,0,41.47628036418156,-91.7843775040837,11929.544161943775,81.58941861932362,1.0699488690831087,47.34331571156075,190.43,10098.377684851064,11929.638060800664,150,False,18.670295783144336,False,20.684797171996077,164.3324235051335,False,174.9687016552818,False,False
10,1970-07-23 11:29:07.154249628,2025-09-16,2025-09-26 20:31:55.424,AA,D,3370830444,JASSM,3,125,76,2,2,1,225,9,2,0,1,26,0,0,0,0,-183585.83728201807,-4787039.024385299,4201789.179167271,-2.30145,-0.152727,0.128663,89.0,-13.625,-11.5,0.0,0.0,0.0,0.0,0.0,0.0,2,0,41.44470159205336,-92.19625143883104,10997.372632903714,99.85220339361148,-0.0040540960813198,0.0036309804224294,,10098.377684851064,11929.638060800664,150,10,2025-09-16,2025-09-26 20:31:55.324,AA,D,1278489748,HAWK11,1,1,73,2,1,1,225,2,1,0,0,12,1,225,2,1,-148990.27966483062,-4786117.840791549,4204619.454557896,-1.5708,0.00527306,-0.0632767,123.0,4.625,12.5,-0.125,-9.625,9.71875,-0.255859,0.0507812,0.0585938,4,0,41.47643075716636,-91.78302303546764,11928.7018076711,85.90361473127415,0.8408518060261159,41.51235629964076,190.43,10098.377684851064,11929.638060800664,150,False,18.682483450602778,False,16.981377165477838,164.28061937308783,False,178.71417833652845,False,False
10,1970-07-23 11:29:07.165505585,2025-09-16,2025-09-26 20:31:56.550,AA,D,3372140790,JASSM,3,125,76,2,2,1,225,9,2,0,1,26,0,0,0,0,-183488.09118826807,-4787054.081025924,4201776.382292271,-2.30145,-0.152727,0.128663,89.0,-13.625,-11.5,0.0,0.0,0.0,0.0,0.0,0.0,2,0,41.444547954296624,-92.19507634160072,10997.375168906166,99.85298118567708,-0.0031599500031342,0.0036303339915813,,10098.377684851064,11929.638060800664,150,10,2025-09-16,2025-09-26 20:31:56.526,AA,D,1279642980,HAWK11,1,1,73,2,1,1,225,2,1,0,0,12,1,225,2,1,-148871.02575858062,-4786115.491182174,4204625.774870396,-1.91192,-0.0553192,-0.017449,123.5,-0.875,6.125,-0.09375,-9.71875,9.84375,-0.330078,0.0527344,0.0253906,4,0,41.47650947217011,-91.78159767304102,11927.545487052568,90.17010156149912,1.702004052721257,21.922248373525843,191.261,10098.377684851064,11929.638060800664,150,False,18.69514944702354,False,13.074558717373506,164.24094981130534,False,177.29858990347674,False,False
10,1970-07-23 11:29:07.176148299,2025-09-16,2025-09-26 20:31:57.614,AA,D,3373394840,JASSM,3,125,76,2,2,1,225,9,2,0,1,26,0,0,0,0,-183394.54528983065,-4787068.489229049,4201764.134245396,-2.30145,-0.152727,0.128663,89.0,-13.625,-11.5,0.0,0.0,0.0,0.0,0.0,0.0,2,0,41.444400908644944,-92.19395174470192,10997.376521392527,99.85372554955764,-0.0023042265171191,0.0036297166514218,,10098.377684851064,11929.638060800664,150,10,2025-09-16,2025-09-26 20:31:57.731,AA,D,1281193878,HAWK11,1,1,73,2,1,1,225,2,1,0,0,12,1,225,2,1,-148710.91833670562,-4786120.280244674,4204631.554167271,-2.26243,-0.0847524,-0.0482245,123.625,-6.375,5.75,-0.046875,-9.1875,9.32812,-0.0839844,0.0214844,-0.0117188,4,0,41.47654955887686,-91.77968105824549,11939.64078609314,89.96466304503014,4.133932652911204,1.773378312239669,191.848,10098.377684851064,11929.638060800664,150,True,18.731778418194754,False,11.476691224991084,164.216975638796,False,175.04127886209454,False,False
10,1970-07-23 11:29:07.186189786,2025-09-16,2025-09-26 20:31:58.618,AA,D,3374647582,JASSM,3,125,76,2,2,1,225,9,2,0,1,26,0,0,0,0,-183301.09704764312,-4787082.879854049,4201751.897917271,-2.30145,-0.152727,0.128663,89.0,-13.625,-11.5,0.0,0.0,0.0,0.0,0.0,0.0,2,0,41.444254013418885,-92.19282832804548,10997.373989227812,99.85446913007335,-0.0014493985421904,0.0036291075468515,,10098.377684851064,11929.638060800664,150,10,2025-09-16,2025-09-26 20:31:58.636,AA,D,1282148278,HAWK11,1,1,73,2,1,1,225,2,1,0,0,12,1,225,2,1,-148611.13513358062,-4786125.981416549,4204636.222136021,-2.25783,-0.093477,-0.0659612,123.5,-8.5,7.25,-0.09375,-8.65625,8.85938,0.0625,0.0214844,0.00585938,4,0,41.476565531423695,-91.77848556407808,11956.176460844095,89.53122165975587,5.181002954980568,1.973276877449286,191.103,10098.377684851064,11929.638060800664,150,True,18.736053533728306,False,11.646256863088713,164.18748328830094,False,174.3215094361458,False,False
10,1970-07-23 11:29:07.197227722,2025-09-16,2025-09-26 20:31:59.722,AA,D,3375900918,JASSM,3,125,76,2,2,1,225,9,2,0,1,26,0,0,0,0,-183207.60388358065,-4787097.278291549,4201739.653776646,-2.30145,-0.152727,0.128759,89.0,-13.625,-11.5,0.0,0.0,0.0,0.0,0.0,0.0,2,0,41.444107018249255,-92.19170437600876,10997.37413290449,99.85930380937414,-0.0042603278736894,0.003628306785778,,10098.377684851064,11929.638060800664,150,10,2025-09-16,2025-09-26 20:31:59.824,AA,D,1283818476,HAWK11,1,1,73,2,1,1,225,2,1,0,0,12,1,225,2,1,-148439.07653983062,-4786138.827119674,4204645.159636021,-2.09149,-0.116103,-0.0617427,122.875,-11.5,7.125,-0.25,-7.75,7.95312,0.0800781,0.0117188,0.015625,4,0,41.47658107284772,-91.77642302924028,11994.03949904979,90.57363453914024,5.9941574550278265,11.522579627250831,190.039,10098.377684851064,11929.638060800664,150,False,18.779092578826436,False,11.10056055843243,164.1699141605237,False,172.93671525325735,False,False
10,1970-07-23 11:29:07.207251042,2025-09-16,2025-09-26 20:32:00.725,AA,D,3377094124,JASSM,3,125,76,2,2,1,225,9,2,0,1,26,0,0,0,0,-183118.59704764312,-4787110.983369674,4201727.997526646,-2.30145,-0.152727,0.128759,89.0,-13.625,-11.5,0.0,0.0,0.0,0.0,0.0,0.0,2,0,41.44396708340623,-92.19063436334584,10997.373365816104,99.86001203816365,-0.0034461285016974,0.0036277840093028,,10098.377684851064,11929.638060800664,150,10,2025-09-16,2025-09-26 20:32:00.731,AA,D,1284772874,HAWK11,1,1,73,2,1,1,225,2,1,0,0,12,1,225,2,1,-148340.13122733062,-4786147.873994674,4204649.976042271,-2.04547,-0.134127,-0.0505255,122.5,-13.25,6.125,0.046875,-7.39062,7.60938,0.0722656,0.0078125,0.0253906,4,0,41.47657792681976,-91.77523632011165,12019.195591947797,91.74509601900031,6.34368532142887,14.227170170233906,189.453,10098.377684851064,11929.638060800664,150,False,18.78520597961876,False,10.43474139301619,164.14579585623878,False,172.01511446869384,False,False
10,1970-07-23 11:29:07.217289983,2025-09-16,2025-09-26 20:32:01.728,AA,D,3378344808,JASSM,3,125,76,2,2,1,225,9,2,0,1,26,0,0,0,0,-183025.30212576807,-4787125.348604049,4201715.778776646,-2.30145,-0.152631,0.128759,89.0,-13.625,-11.5,0.0,0.0,0.0,0.0,0.0,0.0,2,0,41.44382039059128,-92.18951280562712,10997.374793095494,99.85711858356444,-0.0066496085749273,0.0029221827285961,,10098.377684851064,11929.638060800664,150,10,2025-09-16,2025-09-26 20:32:01.637,AA,D,1286005640,HAWK11,1,1,73,2,1,1,225,2,1,0,0,12,1,225,2,1,-148214.30114920562,-4786161.383760299,4204654.272917271,-1.9982,-0.147166,-0.031926,121.875,-15.25,4.0,-0.203125,-6.85938,7.07812,-0.0253906,-0.00195312,0.00195312,4,0,41.4765496399719,-91.77372642804085,12052.147079350529,93.04667393862272,6.198201556356274,17.04660195549337,188.463,10098.377684851064,11929.638060800664,150,False,18.80335954162539,False,9.277474973764091,164.12870010685052,False,170.80845175654557,False,False
10,1970-07-23 11:29:07.228167785,2025-09-16,2025-09-26 20:32:02.816,AA,D,3379599054,JASSM,3,125,76,2,2,1,225,9,2,0,1,26,0,0,0,0,-182931.74060233065,-4787139.754854049,4201703.522917271,-2.30145,-0.152631,0.128759,89.0,-13.625,-11.5,0.0,0.0,0.0,0.0,0.0,0.0,2,0,41.44367325301387,-92.18838804801103,10997.376048562975,99.85786304315413,-0.0057937412998624,0.0029215588567219,,10098.377684851064,11929.638060800664,150,10,2025-09-16,2025-09-26 20:32:02.932,AA,D,1287516772,HAWK11,1,1,73,2,1,1,225,2,1,0,0,12,1,225,2,1,-148060.68982108062,-4786179.920869674,4204655.983854771,-2.06014,-0.155603,0.00383495,121.375,-16.25,0.625,0.0,-5.90625,6.26562,-0.0800781,-0.0175781,0.0214844,4,0,41.47647907061042,-91.77188242794148,12089.72772208722,94.90977444803764,5.199838508444917,13.676159001638784,187.986,10098.377684851064,11929.638060800664,150,False,18.83605358554994,False,7.647144141035423,164.12376315979066,False,169.7468685163309,False,False
10,1970-07-23 11:29:07.238188267,2025-09-16,2025-09-26 20:32:03.818,AA,D,3380852370,JASSM,3,125,76,2,2,1,225,9,2,0,1,26,0,0,0,0,-182838.24939139312,-4787154.147432174,4201691.276823521,-2.30145,-0.152631,0.128759,89.0,-13.625,-11.5,0.0,0.0,0.0,0.0,0.0,0.0,2,0,41.4435262357058,-92.18726414203776,10997.376188741084,99.85860693688088,-0.0049385216969697,0.0029209556210608,,10098.377684851064,11929.638060800664,150,10,2025-09-16,2025-09-26 20:32:03.824,AA,D,1288471170,HAWK11,1,1,73,2,1,1,225,2,1,0,0,12,1,225,2,1,-147962.79138358062,-4786192.268525924,4204655.571745396,-2.10798,-0.151672,0.0209005,121.25,-16.375,-1.0,-0.203125,-5.67188,5.98438,-0.0273438,-0.015625,0.0117188,4,0,41.476420771131735,-91.77070703161807,12111.73116728844,95.49230068241611,4.381749937794565,10.980891593401648,187.705,10098.377684851064,11929.638060800664,150,False,18.83895590402253,False,6.884858102655633,164.10748299825443,False,169.3173439175284,False,False
10,1970-07-23 11:29:07.249918121,2025-09-16,2025-09-26 20:32:04.991,AA,D,3382102728,JASSM,3,125,76,2,2,1,225,9,2,0,1,26,0,0,0,0,-182744.97888358065,-4787168.504854049,4201679.058073521,-2.30145,-0.152631,0.128759,89.0,-13.625,-11.5,0.0,0.0,0.0,0.0,0.0,0.0,2,0,41.44337955097746,-92.18614289484468,10997.374683973696,99.85934906864456,-0.004085320766864,0.0029203502137438,,10098.377684851064,11929.638060800664,150,10,2025-09-16,2025-09-26 20:32:05.026,AA,D,1289863002,HAWK11,1,1,73,2,1,1,225,2,1,0,0,12,1,225,2,1,-147822.06286795562,-4786209.405244674,4204652.085417271,-2.16876,-0.143235,0.0465947,121.25,-15.625,-3.625,-0.03125,-5.35938,5.60938,-0.0234375,-0.0234375,0.0175781,4,0,41.4763210856334,-91.76901763969518,12135.575381654677,96.27102736602494,3.041913374622487,7.532296683058941,187.546,10098.377684851064,11929.638060800664,150,True,18.864706059910393,False,5.742710575292465,164.10595103873968,False,168.93580481749385,False,False
10,1970-07-23 11:29:07.259267413,2025-09-16,2025-09-26 20:32:05.926,AA,D,3383295776,JASSM,3,125,76,2,2,1,225,9,2,0,1,26,0,0,0,0,-182655.98278983065,-4787182.204072799,4201667.397917271,-2.30145,-0.152631,0.128759,89.0,-13.625,-11.5,0.0,0.0,0.0,0.0,0.0,0.0,2,0,41.44323957047584,-92.18507303713994,10997.374046738816,99.86005718468876,-0.0032712191591798,0.0029197647447216,,10098.377684851064,11929.638060800664,150,10,2025-09-16,2025-09-26 20:32:05.932,AA,D,1291016234,HAWK11,1,1,73,2,1,1,225,2,1,0,0,12,1,225,2,1,-147703.61755545562,-4786223.225557174,4204646.886198521,-2.18592,-0.134127,0.0642354,121.5,-14.625,-5.875,-0.171875,-5.4375,5.625,-0.111328,-0.00585938,0.0,4,0,41.476225487003134,-91.7675959786139,12149.249117924848,96.6787622498412,1.9809430565882613,6.537968836211852,188.072,10098.377684851064,11929.638060800664,150,True,18.88076120430562,False,4.8868430541710195,164.10201923909204,False,168.63889243445448,False,False
10,1970-07-23 11:29:07.270290067,2025-09-16,2025-09-26 20:32:07.029,AA,D,3384548532,JASSM,3,125,76,2,2,1,225,9,2,0,1,26,0,0,0,0,-182562.53259451807,-4787196.588838424,4201655.153776646,-2.30145,-0.152631,0.128759,89.0,-13.625,-11.5,0.0,0.0,0.0,0.0,0.0,0.0,2,0,41.4430925711378,-92.18394963987956,10997.376849650136,99.86080073530748,-0.0024163727682682,0.0029191476223671,,10098.377684851064,11929.638060800664,150,10,2025-09-16,2025-09-26 20:32:07.136,AA,D,1292328534,HAWK11,1,1,73,2,1,1,225,2,1,0,0,12,1,225,2,1,-147569.27966483062,-4786237.887666549,4204639.144011021,-2.30989,-0.124157,0.0856153,122.125,-13.375,-7.625,-0.109375,-5.40625,5.65625,-0.0292969,-0.0253906,0.015625,4,0,41.47611063053304,-91.76598394468874,12158.268755832576,97.2141443778995,0.7412784959415799,-0.5947322768362053,188.671,10098.377684851064,11929.638060800664,150,True,18.90286191055445,False,4.456153449272466,164.10222739955356,False,168.51161167266096,False,False
