Subject_cm,Timestamp,SampleDate_cm,SampleTime_cm,Configuration_cm,Scenario_cm,DisTime_cm,MarkingTxt_cm,Application_cm,EntId_cm,Site_cm,ExerciseId_cm,ForceId_cm,Category_cm,Country_cm,Domain_cm,Kind_cm,Extra_cm,Specific_cm,Subcategory_cm,AltCategory_cm,AltCountry_cm,AltDomain_cm,AltKind_cm,ECEF_X_cm,ECEF_Y_cm,ECEF_Z_cm,OriPhi_cm,OriPsi_cm,OriTheta_cm,LinVelX_cm,LinVelY_cm,LinVelZ_cm,LinAccX_cm,LinAccY_cm,LinAccZ_cm,AngVelX_cm,AngVelY_cm,AngVelZ_cm,DrAlg_cm,Appearance_cm,Latitude_cm,Longitude_cm,Altitude_cm,Heading_cm,Pitch_cm,Roll_cm,CalibratedAirspeed_cm,CM_Altitude_Lead_cm,CM_Altitude_Wing_cm,CM_Airspeed_cm,Subject_ac,SampleDate_ac,SampleTime_ac,Configuration_ac,Scenario_ac,DisTime_ac,MarkingTxt_ac,Application_ac,EntId_ac,Site_ac,ExerciseId_ac,ForceId_ac,Category_ac,Country_ac,Domain_ac,Kind_ac,Extra_ac,Specific_ac,Subcategory_ac,AltCategory_ac,AltCountry_ac,AltDomain_ac,AltKind_ac,ECEF_X_ac,ECEF_Y_ac,ECEF_Z_ac,OriPhi_ac,OriPsi_ac,OriTheta_ac,LinVelX_ac,LinVelY_ac,LinVelZ_ac,LinAccX_ac,LinAccY_ac,LinAccZ_ac,AngVelX_ac,AngVelY_ac,AngVelZ_ac,DrAlg_ac,Appearance_ac,Latitude_ac,Longitude_ac,Altitude_ac,Heading_ac,Pitch_ac,Roll_ac,CalibratedAirspeed_ac,CM_Altitude_Lead_ac,CM_Altitude_Wing_ac,CM_Airspeed_ac,Bank_Angle_Condition,distance_nm,Distance_Condition,angle_between_vel,angle_between_pos,Cone_Condition,angle_between_pos_nose,Nose_Cone_Condition,Intercept_Criteria
10,1970-07-23 11:28:58.606202257,2025-09-16,2025-09-26 20:17:40.620,AA,C,2351012488,JASSM,3,117,76,2,2,1,225,9,2,0,1,26,0,0,0,0,-188204.77966483065,-4786326.219697799,4202392.747526646,-2.30155,-0.153302,0.128183,89.0,-13.625,-11.5,0.0,0.0,0.0,0.0,0.0,0.0,2,0,41.45194807690648,-92.25178698564925,10997.374211211363,99.81680569124173,-0.0036337904299947,0.0023905086513201,,10029.28805283672,11950.90527396306,150,10,2025-09-16,2025-09-26 20:17:40.470,AA,C,257879318,HAWK11,1,1,73,2,1,1,225,2,1,0,0,12,1,225,2,1,-148617.07653983062,-4790793.197236861,4199350.520964146,2.45677,2.67229,-0.504488,-81.0,45.25,47.5,-0.046875,-7.1875,6.40625,0.0234375,-0.00195312,0.0078125,4,0,41.4131242201918,-91.77682505350658,11950.8246162953,-52.49934831540786,2.355947641328555,3.57837095981376,162.715,10029.28805283672,11950.90527396306,150,True,21.48600383005373,False,152.23375199528428,176.31764645170438,False,31.440192686672283,False,False
10,1970-07-23 11:28:58.617266036,2025-09-16,2025-09-26 20:17:41.726,AA,C,2352266914,JASSM,3,117,76,2,2,1,225,9,2,0,1,26,0,0,0,0,-188111.20935233065,-4786340.686494674,4202380.542448521,-2.30155,-0.153302,0.128183,89.0,-13.625,-11.5,0.0,0.0,0.0,0.0,0.0,0.0,2,0,41.45180153266119,-92.2506618141203,10997.374706526492,99.8175505444024,-0.0027778233528889,0.0023899021323611,,10029.28805283672,11950.90527396306,150,10,2025-09-16,2025-09-26 20:17:41.836,AA,C,260225548,HAWK11,1,1,73,2,1,1,225,2,1,0,0,12,1,225,2,1,-148775.43591483062,-4790704.424775924,4199445.554167271,2.46933,2.65848,-0.515993,-79.5,45.5,48.25,-0.15625,-7.46875,6.5625,0.0136719,-0.00390625,-0.00195312,4,0,41.41426450381724,-91.77875007795303,11950.840633314672,-51.5455159984938,2.375067009576896,3.951050096480055,161.92,10029.28805283672,11950.90527396306,150,True,21.34140961827596,False,151.39556332355448,176.15264870931514,False,32.44476501722844,False,False
10,1970-07-23 11:28:58.627266858,2025-09-16,2025-09-26 20:17:42.726,AA,C,2353460046,JASSM,3,117,76,2,2,1,225,9,2,0,1,26,0,0,0,0,-188022.20935233065,-4786354.444307174,4202368.933073521,-2.30155,-0.153302,0.128183,89.0,-13.625,-11.5,0.0,0.0,0.0,0.0,0.0,0.0,2,0,41.45166214713396,-92.24959160585286,10997.372737860838,99.8182590103812,-0.0019636675136522,0.0023893360748685,,10029.28805283672,11950.90527396306,150,10,2025-09-16,2025-09-26 20:17:42.632,AA,C,261100414,HAWK11,1,1,73,2,1,1,225,2,1,0,0,12,1,225,2,1,-148833.12146170562,-4790671.661104049,4199480.983854771,2.48476,2.64957,-0.516664,-79.125,43.75,50.0,0.1875,-7.09375,6.3125,0.015625,-0.0078125,0.0175781,4,0,41.4146878841471,-91.77945148139464,11951.565041424708,-51.19147044368984,2.104870800246413,4.5970906732439785,161.407,10029.28805283672,11950.90527396306,150,True,21.258680428653964,False,151.13827353875408,176.08500291287396,False,32.77638135058897,False,False
10,1970-07-23 11:28:58.638383237,2025-09-16,2025-09-26 20:17:43.838,AA,C,2354770728,JASSM,3,117,76,2,2,1,225,9,2,0,1,26,0,0,0,0,-187924.43982108065,-4786369.557588424,4202356.179167271,-2.30155,-0.153302,0.128183,89.0,-13.625,-11.5,0.0,0.0,0.0,0.0,0.0,0.0,2,0,41.4515090126339,-92.24841595096986,10997.373769835338,99.81903727858904,-0.0010692890642732,0.0023887109653863,,10029.28805283672,11950.90527396306,150,10,2025-09-16,2025-09-26 20:17:43.632,AA,C,262372946,HAWK11,1,1,73,2,1,1,225,2,1,0,0,12,1,225,2,1,-148917.53552420562,-4790622.225557174,4199533.323698521,2.50672,2.64928,-0.521458,-78.0,46.25,48.875,-0.0625,-7.26562,6.45312,0.00585938,0.0078125,0.00976562,4,0,41.41531963282095,-91.78047844918802,11950.03578095886,-50.99681207146427,2.2996234668836286,5.854359878902395,160.613,10029.28805283672,11950.90527396306,150,True,21.155333895577403,False,150.45098713170847,175.9866422341169,False,33.5546144303319,False,False
10,1970-07-23 11:28:58.647442814,2025-09-16,2025-09-26 20:17:44.744,AA,C,2355965272,JASSM,3,117,76,2,2,1,225,9,2,0,1,26,0,0,0,0,-187835.3363054556,-4786383.331025924,4202344.554167271,-2.30145,-0.153206,0.128183,89.0,-13.625,-11.5,0.0,0.0,0.0,0.0,0.0,0.0,2,0,41.45136943198591,-92.24734450775291,10997.375160558484,99.81611018823286,-0.0043111219414768,0.0071775421384199,,10029.28805283672,11950.90527396306,150,10,2025-09-16,2025-09-26 20:17:44.930,AA,C,263884078,HAWK11,1,1,73,2,1,1,225,2,1,0,0,12,1,225,2,1,-149014.92419608062,-4790563.588838424,4199595.841276646,2.54555,2.62905,-0.5321,-76.5,47.0,49.5,-0.28125,-7.21875,6.4375,0.0175781,-0.00585938,0.0078125,4,0,41.416072402510544,-91.78166388461106,11948.96700246517,-49.84404917381187,2.08426067306053,7.540457054746868,159.904,10029.28805283672,11950.90527396306,150,True,21.048968917358906,False,149.49680144379204,175.87068683934993,False,34.62396506051104,False,False
10,1970-07-23 11:28:58.658461454,2025-09-16,2025-09-26 20:17:45.846,AA,C,2357218348,JASSM,3,117,76,2,2,1,225,9,2,0,1,26,0,0,0,0,-187741.8636492056,-4786397.776338424,4202332.358854771,-2.30145,-0.153206,0.128279,89.0,-13.625,-11.5,0.0,0.0,0.0,0.0,0.0,0.0,2,0,41.45122301523511,-92.24622053349928,10997.371961468394,99.82094475986224,-0.0071224784695766,0.0071765215194822,,10029.28805283672,11950.90527396306,150,10,2025-09-16,2025-09-26 20:17:45.836,AA,C,264957778,HAWK11,1,1,73,2,1,1,225,2,1,0,0,12,1,225,2,1,-149083.40857108062,-4790521.167939986,4199640.966276646,2.56376,2.62109,-0.538715,-75.5,47.75,50.0,-0.21875,-7.15625,6.5625,0.0117188,-0.00195312,0.0078125,4,0,41.41661665475821,-91.78249794875404,11947.823616979567,-49.29936564877758,2.1083226067196312,8.371473505068131,159.721,10029.28805283672,11950.90527396306,150,True,20.957263041098944,False,148.762220087589,175.782559147776,False,35.445488170629154,False,False
10,1970-07-23 11:28:58.669221716,2025-09-16,2025-09-26 20:17:46.922,AA,C,2358528510,JASSM,3,117,76,2,2,1,225,9,2,0,1,26,0,0,0,0,-187644.13513358065,-4786412.879854049,4202319.608854771,-2.30145,-0.153206,0.128279,89.0,-13.625,-11.5,0.0,0.0,0.0,0.0,0.0,0.0,2,0,41.45106992118163,-92.24504538927518,10997.376080648995,99.82172268332442,-0.006228478153823,0.0071759139146853,,10029.28805283672,11950.90527396306,150,10,2025-09-16,2025-09-26 20:17:47.132,AA,C,266548442,HAWK11,1,1,73,2,1,1,225,2,1,0,0,12,1,225,2,1,-149183.77185233062,-4790456.492158736,4199709.126432896,2.53864,2.59837,-0.550412,-74.375,49.0,51.375,0.09375,-6.82812,7.20312,-0.0625,0.00195312,0.0195312,4,0,41.41744286395278,-91.78372122149254,11944.39321774639,-48.01997435630373,1.8810751389256688,6.302349155484261,159.855,10029.28805283672,11950.90527396306,150,True,20.84421602583057,False,147.57525232454375,175.65198285855297,False,36.76298076562757,False,False
10,1970-07-23 11:28:58.680245149,2025-09-16,2025-09-26 20:17:48.024,AA,C,2359781664,JASSM,3,117,76,2,2,1,225,9,2,0,1,26,0,0,0,0,-187550.6566179556,-4786427.325166549,4202307.409636021,-2.30145,-0.153206,0.128279,89.0,-13.625,-11.5,0.0,0.0,0.0,0.0,0.0,0.0,2,0,41.4509234569792,-92.24392135532987,10997.37338487644,99.82246677052994,-0.0053733535803439,0.0071753162119731,,10029.28805283672,11950.90527396306,150,10,2025-09-16,2025-09-26 20:17:48.025,AA,C,267582374,HAWK11,1,1,73,2,1,1,225,2,1,0,0,12,1,225,2,1,-149248.21521170562,-4790413.998994674,4199754.026823521,2.5303,2.59041,-0.558273,-74.125,49.375,52.375,-0.140625,-6.76562,7.40625,-0.0078125,-0.0078125,0.0,4,0,41.41798676477838,-91.78450706181508,11942.28592530619,-47.43248207350361,1.9701828235390448,5.604196990262605,161.126,10029.28805283672,11950.90527396306,150,True,20.754792931359148,False,147.07603449480143,175.56150560344176,False,37.354574552288604,False,False
10,1970-07-23 11:28:58.689389459,2025-09-16,2025-09-26 20:17:48.938,AA,C,2360916244,JASSM,3,117,76,2,2,1,225,9,2,0,1,26,0,0,0,0,-187466.02575858065,-4786440.403291549,4202296.364714146,-2.30145,-0.153206,0.128279,89.0,-13.625,-11.5,0.0,0.0,0.0,0.0,0.0,0.0,2,0,41.45079084336992,-92.24290371451104,10997.374334501612,99.82314042582288,-0.0045991652829047,0.0071747724522403,,10029.28805283672,11950.90527396306,150,10,2025-09-16,2025-09-26 20:17:48.930,AA,C,268656074,HAWK11,1,1,73,2,1,1,225,2,1,0,0,12,1,225,2,1,-149315.00427420562,-4790369.188447799,4199801.569792271,2.50585,2.59281,-0.558177,-74.0,50.0,53.375,-0.140625,-6.85938,7.45312,-0.0214844,0.00585938,-0.0078125,4,0,41.41856184706872,-91.78532180732928,11940.399455309873,-47.5250129133976,2.042756816542333,4.272956410773997,161.884,10029.28805283672,11950.90527396306,150,True,20.668789868942568,False,146.5662690285853,175.4665295420242,False,37.96024355683256,False,False
10,1970-07-23 11:28:58.699422299,2025-09-16,2025-09-26 20:17:49.942,AA,C,2362108132,JASSM,3,117,76,2,2,1,225,9,2,0,1,26,0,0,0,0,-187377.1175554556,-4786454.139619674,4202284.763151646,-2.30145,-0.153206,0.128279,89.0,-13.625,-11.5,0.0,0.0,0.0,0.0,0.0,0.0,2,0,41.45065154484208,-92.24183464668732,10997.37605959646,99.82384812272312,-0.0037858541807885,0.007174227836706,,10029.28805283672,11950.90527396306,150,10,2025-09-16,2025-09-26 20:17:50.132,AA,C,270087672,HAWK11,1,1,73,2,1,1,225,2,1,0,0,12,1,225,2,1,-149403.31482108062,-4790308.906221236,4199865.966276646,2.50758,2.58131,-0.568148,-73.875,50.75,54.375,0.015625,-6.85938,7.39062,0.0,0.0,0.00976562,4,0,41.41933872229304,-91.7863994958624,11938.702294416033,-46.73030034422749,2.1157827818070003,4.048751039641271,163.411,10029.28805283672,11950.90527396306,150,True,20.56762214351827,False,146.0325446044843,175.3398991481742,False,38.62111028505263,False,False
10,1970-07-23 11:28:58.709461918,2025-09-16,2025-09-26 20:17:50.946,AA,C,2363303056,JASSM,3,117,76,2,2,1,225,9,2,0,1,26,0,0,0,0,-187287.98278983065,-4786467.911104049,4202273.128386021,-2.30145,-0.153206,0.128279,89.0,-13.625,-11.5,0.0,0.0,0.0,0.0,0.0,0.0,2,0,41.450511855914,-92.24076285910591,10997.374500300257,99.82455761807466,-0.0029704661234946,0.0071736567242394,,10029.28805283672,11950.90527396306,150,10,2025-09-16,2025-09-26 20:17:50.930,AA,C,271121604,HAWK11,1,1,73,2,1,1,225,2,1,0,0,12,1,225,2,1,-149467.43200858062,-4790264.865205611,4199913.175261021,2.50624,2.58121,-0.5716,-73.75,51.125,55.25,0.0,-6.84375,7.42188,0.0214844,0.00976562,0.0117188,4,0,41.4199074545278,-91.7871820614652,11937.788693942734,-46.5990942748672,2.2642558953623424,3.973903044305398,164.291,10029.28805283672,11950.90527396306,150,True,20.48076809276695,False,145.63389991670718,175.24318545911362,False,39.117641598976846,False,False
10,1970-07-23 11:28:58.719241046,2025-09-16,2025-09-26 20:17:51.924,AA,C,2364495830,JASSM,3,117,76,2,2,1,225,9,2,0,1,26,0,0,0,0,-187199.01013358065,-4786481.657197799,4202261.515104771,-2.30145,-0.153206,0.128279,89.0,-13.625,-11.5,0.0,0.0,0.0,0.0,0.0,0.0,2,0,41.45037241531389,-92.23969302553128,10997.377036097989,99.82526581796334,-0.002156561834466,0.0071730907668358,,10029.28805283672,11950.90527396306,150,10,2025-09-16,2025-09-26 20:17:52.023,AA,C,272195302,HAWK11,1,1,73,2,1,1,225,2,1,0,0,12,1,225,2,1,-149533.89880545562,-4790218.445283736,4199963.183073521,2.53452,2.57709,-0.578982,-73.625,51.5,56.25,-0.109375,-6.89062,7.53125,0.03125,0.0117188,0.015625,4,0,41.42050878725677,-91.78799360445603,11937.284895728477,-46.1744765228988,2.459357934500916,5.483384457469368,165.574,10029.28805283672,11950.90527396306,150,True,20.392591716269944,False,145.2022087857789,175.1405389662408,False,39.65327494104266,False,False
10,1970-07-23 11:28:58.729280674,2025-09-16,2025-09-26 20:17:52.928,AA,C,2365686974,JASSM,3,117,76,2,2,1,225,9,2,0,1,26,0,0,0,0,-187110.15857108065,-4786495.381807174,4202249.917448521,-2.30145,-0.153206,0.128279,89.0,-13.625,-11.5,0.0,0.0,0.0,0.0,0.0,0.0,2,0,41.45023316986555,-92.23862465389348,10997.376577082445,99.82597304813476,-0.0013437688368891,0.0071725404533191,,10029.28805283672,11950.90527396306,150,10,2025-09-16,2025-09-26 20:17:52.930,AA,C,273229236,HAWK11,1,1,73,2,1,1,225,2,1,0,0,12,1,225,2,1,-149597.78943045562,-4790173.155244674,4200012.356901646,2.56683,2.56836,-0.587898,-73.125,52.25,57.25,-0.125,-6.9375,7.5625,-0.00195312,0.00390625,0.015625,4,0,41.42109824181544,-91.7887739569515,11937.556086057397,-45.52609757260109,2.581750755581157,7.08770132584631,166.307,10029.28805283672,11950.90527396306,150,True,20.306006827717493,False,144.54192365288452,175.03864035980357,False,40.4157206199543,False,False
10,1970-07-23 11:28:58.739421824,2025-09-16,2025-09-26 20:17:53.942,AA,C,2366879920,JASSM,3,117,76,2,2,1,225,9,2,0,1,26,0,0,0,0,-187021.1722429556,-4786509.127900924,4202238.300261021,-2.30145,-0.15311,0.128279,89.0,-13.625,-11.5,0.0,0.0,0.0,0.0,0.0,0.0,2,0,41.45009368620611,-92.23755466607076,10997.377771965066,99.82304507154848,-0.0045866722767014,0.0064694054430614,,10029.28805283672,11950.90527396306,150,10,2025-09-16,2025-09-26 20:17:53.836,AA,C,274581300,HAWK11,1,1,73,2,1,1,225,2,1,0,0,12,1,225,2,1,-149680.23669608062,-4790113.746064986,4200077.282682896,2.51458,2.55532,-0.598157,-72.875,52.75,58.625,0.0625,-6.95312,7.64062,-0.0371094,0.0195312,0.00390625,4,0,41.42187455131635,-91.7897813391762,11938.729982673727,-44.6736684273412,2.637406919295852,3.715237977697989,167.481,10029.28805283672,11950.90527396306,150,True,20.20829726111262,False,143.93620369443482,174.90680843049776,False,41.154659760202186,False,False
10,1970-07-23 11:28:58.749464152,2025-09-16,2025-09-26 20:17:54.946,AA,C,2368075146,JASSM,3,117,76,2,2,1,225,9,2,0,1,26,0,0,0,0,-186932.0159929556,-4786522.897432174,4202226.659636021,-2.30145,-0.15311,0.128279,89.0,-13.625,-11.5,0.0,0.0,0.0,0.0,0.0,0.0,2,0,41.44995393448862,-92.23648264098586,10997.373581942224,99.82375471630831,-0.0037710913010459,0.0064687925849078,,10029.28805283672,11950.90527396306,150,10,2025-09-16,2025-09-26 20:17:55.024,AA,C,276012898,HAWK11,1,1,73,2,1,1,225,2,1,0,0,12,1,225,2,1,-149767.65075858062,-4790050.136689986,4200147.757292271,2.463,2.56501,-0.59528,-72.75,52.875,59.625,0.046875,-7.125,7.3125,-0.03125,0.0117188,-0.0117188,4,0,41.422712364369374,-91.79084966642874,11942.009674400011,-45.13300525972805,2.8056037779770544,1.049873076451309,168.385,10029.28805283672,11950.90527396306,150,True,20.107571724429157,False,143.5748588720233,174.76383932463773,False,41.660097333002376,False,False
10,1970-07-23 11:28:58.759244416,2025-09-16,2025-09-26 20:17:55.924,AA,C,2369267776,JASSM,3,117,76,2,2,1,225,9,2,0,1,26,0,0,0,0,-186843.05310233065,-4786536.637666549,4202215.044401646,-2.30145,-0.15311,0.128375,89.0,-13.625,-11.5,0.0,0.0,0.0,0.0,0.0,0.0,2,0,41.44981447350685,-92.23541294519865,10997.375340629464,99.8285533820874,-0.0066236529434446,0.0064678366840496,,10029.28805283672,11950.90527396306,150,10,2025-09-16,2025-09-26 20:17:55.930,AA,C,277086598,HAWK11,1,1,73,2,1,1,225,2,1,0,0,12,1,225,2,1,-149833.12146170562,-4790002.307588424,4200201.140104771,2.4466,2.56606,-0.598636,-72.625,52.625,59.875,-0.125,-7.45312,6.90625,0.0214844,0.00195312,0.00585938,4,0,41.42334501560253,-91.79164990168182,11945.31161887911,-45.04828007343524,2.985952601413671,0.1487909212552686,168.336,10029.28805283672,11950.90527396306,150,True,20.020071010788236,False,143.508964526305,174.65160828606238,False,41.838754882944826,False,False
10,1970-07-23 11:28:58.769269088,2025-09-16,2025-09-26 20:17:56.926,AA,C,2370461078,JASSM,3,117,76,2,2,1,225,9,2,0,1,26,0,0,0,0,-186754.0394304556,-4786550.383760299,4202203.421354771,-2.30145,-0.15311,0.128375,89.0,-13.625,-11.5,0.0,0.0,0.0,0.0,0.0,0.0,2,0,41.4496749267937,-92.2343426443254,10997.373891173109,99.82926188158412,-0.0058093768924553,0.006467284197174,,10029.28805283672,11950.90527396306,150,10,2025-09-16,2025-09-26 20:17:56.930,AA,C,278200064,HAWK11,1,1,73,2,1,1,225,2,1,0,0,12,1,225,2,1,-149901.29919608062,-4789952.482393111,4200257.386198521,2.47767,2.56453,-0.604676,-72.125,52.5,60.0,-0.046875,-7.28125,6.89062,0.0,0.0,-0.00390625,4,0,41.424008355834445,-91.79248324759304,11950.133849540767,-44.77065858711881,3.2056290952529656,1.8938242650849095,167.933,10029.28805283672,11950.90527396306,150,True,19.9309934644491,False,143.30346264452595,174.53343345683493,False,42.162629662573984,False,False
10,1970-07-23 11:28:58.779403461,2025-09-16,2025-09-26 20:17:57.940,AA,C,2371653792,JASSM,3,117,76,2,2,1,225,9,2,0,1,26,0,0,0,0,-186665.0706804556,-4786564.123994674,4202191.804167271,-2.30145,-0.15311,0.128375,89.0,-13.625,-11.5,0.0,0.0,0.0,0.0,0.0,0.0,2,0,41.44953543409287,-92.23327288767452,10997.37930823487,99.82997001886608,-0.004995510282843,0.0064667256518744,,10029.28805283672,11950.90527396306,150,10,2025-09-16,2025-09-26 20:17:57.869,AA,C,278955630,HAWK11,1,1,73,2,1,1,225,2,1,0,0,12,1,225,2,1,-149946.44372733062,-4789919.449189986,4200294.827604771,2.49512,2.5628,-0.602087,-71.75,52.375,60.125,-0.109375,-7.29688,6.53125,0.0722656,0.0,0.0136719,4,0,41.42444916597767,-91.79303507991828,11953.657852641732,-44.80376520300519,3.040231388701036,2.8356817624530293,167.481,10029.28805283672,11950.90527396306,150,True,19.855658449874618,False,143.14615173013917,174.44963884032416,False,42.40389850267204,False,False
10,1970-07-23 11:28:58.789441972,2025-09-16,2025-09-26 20:17:58.944,AA,C,2372845066,JASSM,3,117,76,2,2,1,225,9,2,0,1,26,0,0,0,0,-186576.20935233065,-4786577.844697799,4202180.198698521,-2.30145,-0.15311,0.128375,89.0,-13.625,-11.5,0.0,0.0,0.0,0.0,0.0,0.0,2,0,41.44939610182381,-92.2322044286056,10997.376701738507,99.83067729524257,-0.0041826276688846,0.0064661694785632,,10029.28805283672,11950.90527396306,150,10,2025-09-16,2025-09-26 20:17:58.836,AA,C,280546294,HAWK11,1,1,73,2,1,1,225,2,1,0,0,12,1,225,2,1,-150041.61169608062,-4789848.632783736,4200375.095182896,2.6348,2.5536,-0.611004,-70.125,52.75,60.625,-0.28125,-7.40625,6.54688,0.0566406,-0.00585938,0.0195312,4,0,41.42539446952414,-91.79419884832504,11961.09816405649,-44.14379721177567,3.1573067492661,10.574285662527233,166.307,10029.28805283672,11950.90527396306,150,False,19.750750756560166,False,142.27307805354772,174.28409255172144,False,43.44250450855478,False,False
10,1970-07-23 11:28:58.799222266,2025-09-16,2025-09-26 20:17:59.922,AA,C,2373978460,JASSM,3,117,76,2,2,1,225,9,2,0,1,26,0,0,0,0,-186491.66638358065,-4786590.897432174,4202169.155729771,-2.30145,-0.15311,0.128375,89.0,-13.625,-11.5,0.0,0.0,0.0,0.0,0.0,0.0,2,0,41.44926352846753,-92.2311878978242,10997.371989108631,99.83135019539316,-0.0034092482820379,0.0064656373221406,,10029.28805283672,11950.90527396306,150,10,2025-09-16,2025-09-26 20:17:59.930,AA,C,281779060,HAWK11,1,1,73,2,1,1,225,2,1,0,0,12,1,225,2,1,-150113.20349295562,-4789793.151338424,4200437.540495396,2.6651,2.51899,-0.627111,-68.25,53.75,61.125,-0.171875,-7.3125,6.53125,-0.0332031,-0.00585938,0.0351562,4,0,41.42613264322323,-91.79507516266544,11965.749309573232,-42.306486901090665,2.8563235729051257,11.255714418200418,165.623,10029.28805283672,11950.90527396306,150,False,19.662135671256607,False,141.15619308505936,174.15079776737022,False,44.69208989492246,False,False
10,1970-07-23 11:28:58.808707574,2025-09-16,2025-09-26 20:18:00.870,AA,C,2375054196,JASSM,3,117,76,2,2,1,225,9,2,0,1,26,0,0,0,0,-186411.42028983065,-4786603.288057174,4202158.675261021,-2.30145,-0.15311,0.128375,89.0,-13.625,-11.5,0.0,0.0,0.0,0.0,0.0,0.0,2,0,41.44913768550321,-92.23022303518944,10997.376927107578,99.83198889179016,-0.0026751753647807,0.0064651329439617,,10029.28805283672,11950.90527396306,150,10,2025-09-16,2025-09-26 20:18:00.835,AA,C,282812992,HAWK11,1,1,73,2,1,1,225,2,1,0,0,12,1,225,2,1,-150171.98278983062,-4789746.373018111,4200490.194792271,2.58102,2.50096,-0.639958,-67.0,54.125,61.625,-0.1875,-7.45312,6.625,-0.167969,-0.00390625,0.0117188,4,0,41.42675534300276,-91.795795120472,11969.563483321126,-41.19619979600447,2.919345560562571,5.882776245049536,165.171,10029.28805283672,11950.90527396306,150,True,19.583461412270996,False,140.4209525362692,174.03572422933897,False,45.542402312916686,False,False
10,1970-07-23 11:28:58.820301467,2025-09-16,2025-09-26 20:18:02.030,AA,C,2376246958,JASSM,3,117,76,2,2,1,225,9,2,0,1,26,0,0,0,0,-186322.44763358065,-4786617.022432174,4202147.054167271,-2.30145,-0.15311,0.128375,89.0,-13.625,-11.5,0.0,0.0,0.0,0.0,0.0,0.0,2,0,41.448998163916976,-92.22915325223164,10997.375379373463,99.83269703893632,-0.0018612778257578,0.0064645891749114,,10029.28805283672,11950.90527396306,150,10,2025-09-16,2025-09-26 20:18:01.930,AA,C,284165056,HAWK11,1,1,73,2,1,1,225,2,1,0,0,12,1,225,2,1,-150247.48669608062,-4789684.849580611,4200559.556120396,2.41746,2.50394,-0.640149,-66.25,54.125,61.25,0.15625,-7.21875,6.51562,-0.09375,0.00195312,-0.00976562,4,0,41.42757539536233,-91.79672048735468,11974.685643087854,-41.29773357330254,3.0132534266950297,-3.392108721933141,164.719,10029.28805283672,11950.90527396306,150,True,19.490106549580464,False,140.2078984296455,173.8854767520429,False,45.90530019575064,False,False
10,1970-07-23 11:28:58.826462968,2025-09-16,2025-09-26 20:18:02.646,AA,C,2377320820,JASSM,3,117,76,2,2,1,225,9,2,0,1,26,0,0,0,0,-186242.3441179556,-4786629.387666549,4202136.589323521,-2.30145,-0.153015,0.128375,89.0,-13.625,-11.5,0.0,0.0,0.0,0.0,0.0,0.0,2,0,41.44887252739434,-92.22819011334444,10997.372747956277,99.82969841139028,-0.0051854374415472,0.0057610339312138,,10029.28805283672,11950.90527396306,150,10,2025-09-16,2025-09-26 20:18:02.521,AA,C,284960390,HAWK11,1,1,73,2,1,1,225,2,1,0,0,12,1,225,2,1,-150291.33239920562,-4789649.089814986,4200599.815886021,2.37268,2.51304,-0.628932,-66.375,54.0,60.875,-0.265625,-7.14062,6.3125,-0.0351562,0.0,-0.0273438,4,0,41.4280516691652,-91.7972578777864,11977.542252585305,-42.02688553900692,2.7691406869099384,-5.684815896422157,164.352,10029.28805283672,11950.90527396306,150,True,19.420451975889428,False,140.38938970169553,173.79249543131394,False,45.81654503891407,False,False
10,1970-07-23 11:28:58.836237297,2025-09-16,2025-09-26 20:18:03.623,AA,C,2378394666,JASSM,3,117,76,2,2,1,225,9,2,0,1,26,0,0,0,0,-186162.2425554556,-4786641.752900924,4202126.124479771,-2.30145,-0.153015,0.128375,89.0,-13.625,-11.5,0.0,0.0,0.0,0.0,0.0,0.0,2,0,41.44874688235337,-92.227227001517,10997.373732316604,99.830335943925,-0.0044526870827094,0.0057604800988234,,10029.28805283672,11950.90527396306,150,10,2025-09-16,2025-09-26 20:18:03.430,AA,C,285914788,HAWK11,1,1,73,2,1,1,225,2,1,0,0,12,1,225,2,1,-150344.46325858062,-4789606.174775924,4200647.827604771,2.35274,2.52455,-0.621646,-66.625,53.625,60.0,-0.1875,-7.25,6.34375,-0.00976562,0.0,0.0,4,0,41.42862109341512,-91.79790892449796,11980.35385315876,-42.7062634345169,2.776436746366304,-6.474419884390392,163.57,10029.28805283672,11950.90527396306,150,True,19.345399007483067,False,140.81545671474407,173.68338397934482,False,45.49904368659325,False,False
10,1970-07-23 11:28:58.846283449,2025-09-16,2025-09-26 20:18:04.628,AA,C,2379585786,JASSM,3,117,76,2,2,1,225,9,2,0,1,26,0,0,0,0,-186073.3909929556,-4786655.467744674,4202114.517057896,-2.30145,-0.153015,0.128375,89.0,-13.625,-11.5,0.0,0.0,0.0,0.0,0.0,0.0,2,0,41.44860751335864,-92.22615868776651,10997.37729761692,99.8310431130839,-0.0036398959273343,0.0057598759946364,,10029.28805283672,11950.90527396306,150,10,2025-09-16,2025-09-26 20:18:04.521,AA,C,287346386,HAWK11,1,1,73,2,1,1,225,2,1,0,0,12,1,225,2,1,-150424.69958670562,-4789542.245088424,4200719.317839146,2.3561,2.53107,-0.622221,-67.0,53.0,59.125,-0.03125,-7.1875,6.35938,0.0175781,-0.00195312,0.00195312,4,0,41.42946892776983,-91.7988918032934,11984.56372635344,-42.92303361706964,2.9935753517476957,-6.075455407739488,163.057,10029.28805283672,11950.90527396306,150,True,19.24974870066497,False,141.352975254738,173.52515226354663,False,45.11961761741613,False,False
10,1970-07-23 11:28:58.854445732,2025-09-16,2025-09-26 20:18:05.444,AA,C,2380661154,JASSM,3,117,76,2,2,1,225,9,2,0,1,26,0,0,0,0,-185993.17419608065,-4786667.846650924,4202104.036589146,-2.30145,-0.153015,0.128375,89.0,-13.625,-11.5,0.0,0.0,0.0,0.0,0.0,0.0,2,0,41.448481691180405,-92.22519420016874,10997.374174144848,99.83168155294968,-0.0029060963376478,0.0057593414108732,,10029.28805283672,11950.90527396306,150,10,2025-09-16,2025-09-26 20:18:05.335,AA,C,288062186,HAWK11,1,1,73,2,1,1,225,2,1,0,0,12,1,225,2,1,-150465.50232108062,-4789510.195283736,4200755.001432896,2.36569,2.5327,-0.614839,-67.25,52.625,58.625,0.03125,-6.875,6.07812,0.00976562,-0.00976562,-0.00585938,4,0,41.429892804182245,-91.79939146531028,11986.382102178097,-43.24883026110699,2.7130186400957887,-5.488200941287788,162.262,10029.28805283672,11950.90527396306,150,True,19.18211028694502,False,141.6817707408696,173.43872306766238,False,44.87720124298846,False,False
10,1970-07-23 11:28:58.864467368,2025-09-16,2025-09-26 20:18:06.446,AA,C,2381735318,JASSM,3,117,76,2,2,1,225,9,2,0,1,26,0,0,0,0,-185913.04919608065,-4786680.213838424,4202093.565886021,-2.30145,-0.153015,0.128471,89.0,-13.625,-11.5,0.0,0.0,0.0,0.0,0.0,0.0,2,0,41.44835597531903,-92.22423081887622,10997.37566240937,99.83640986919602,-0.0058394543588781,0.0057584923662652,,10029.28805283672,11950.90527396306,150,10,2025-09-16,2025-09-26 20:18:06.336,AA,C,289255184,HAWK11,1,1,73,2,1,1,225,2,1,0,0,12,1,225,2,1,-150533.01403983062,-4789457.345674361,4200812.927214146,2.41027,2.54027,-0.606594,-67.375,52.625,57.75,-0.0625,-7.03125,6.10938,0.0195312,0.00976562,-0.0078125,4,0,41.43058554236748,-91.80021814675408,11987.41433371198,-43.82377484200576,2.571342484569308,-2.711533842869905,161.749,10029.28805283672,11950.90527396306,150,True,19.098974920242558,False,141.98217062888318,173.30621550736814,False,44.70770743044648,False,False
10,1970-07-23 11:28:58.874260046,2025-09-16,2025-09-26 20:18:07.426,AA,C,2382926406,JASSM,3,117,76,2,2,1,225,9,2,0,1,26,0,0,0,0,-185824.1995867056,-4786693.924775924,4202081.956511021,-2.30145,-0.153015,0.128471,89.0,-13.625,-11.5,0.0,0.0,0.0,0.0,0.0,0.0,2,0,41.448216588117866,-92.2231625431086,10997.377406087891,99.83711700775758,-0.0050266833313328,0.0057579524474524,,10029.28805283672,11950.90527396306,150,10,2025-09-16,2025-09-26 20:18:07.522,AA,C,290925384,HAWK11,1,1,73,2,1,1,225,2,1,0,0,12,1,225,2,1,-150627.23474295562,-4789384.276338424,4200892.214323521,2.40624,2.53222,-0.608607,-67.375,52.5,56.75,0.0,-7.0,6.26562,-0.0253906,0.0,0.0,4,0,41.43153773972315,-91.80137165029726,11987.180702150936,-43.4573589281769,2.423439934900399,-3.189701095354341,160.772,10029.28805283672,11950.90527396306,150,True,18.995688830608703,False,142.29473654022354,173.12663220848097,False,44.57269806647155,False,False
10,1970-07-23 11:28:58.883278090,2025-09-16,2025-09-26 20:18:08.327,AA,C,2384002220,JASSM,3,117,76,2,2,1,225,9,2,0,1,26,0,0,0,0,-185743.95153983065,-4786706.307588424,4202071.468229771,-2.30145,-0.153015,0.128471,89.0,-13.625,-11.5,0.0,0.0,0.0,0.0,0.0,0.0,2,0,41.44809067208032,-92.22219769178574,10997.374617690291,99.83775568346545,-0.0042925947371369,0.0057574505000617,,10029.28805283672,11950.90527396306,150,10,2025-09-16,2025-09-26 20:18:08.521,AA,C,292118382,HAWK11,1,1,73,2,1,1,225,2,1,0,0,12,1,225,2,1,-150694.87341483062,-4789331.760713424,4200948.558073521,2.32475,2.52675,-0.600649,-67.75,52.5,55.875,-0.03125,-6.84375,6.04688,-0.0527344,-0.00390625,-0.00976562,4,0,41.43221777820921,-91.8021997652014,11985.622346213606,-43.54337001425791,1.907700748977897,-8.040124656592607,160.344,10029.28805283672,11950.90527396306,150,True,18.91270560989252,False,142.70105714997598,172.9937786660524,False,44.29665498668255,False,False
10,1970-07-23 11:28:58.893419745,2025-09-16,2025-09-26 20:18:09.341,AA,C,2385195114,JASSM,3,117,76,2,2,1,225,9,2,0,1,26,0,0,0,0,-185654.96716483065,-4786720.038057174,4202059.839323521,-2.30145,-0.153015,0.128471,89.0,-13.625,-11.5,0.0,0.0,0.0,0.0,0.0,0.0,2,0,41.44795104910157,-92.22112780498276,10997.37712458586,99.8384638847127,-0.003478590379166,0.0057569042592275,,10029.28805283672,11950.90527396306,150,10,2025-09-16,2025-09-26 20:18:09.335,AA,C,292834182,HAWK11,1,1,73,2,1,1,225,2,1,0,0,12,1,225,2,1,-150736.15075858062,-4789300.012666549,4200982.278776646,2.30414,2.53557,-0.592404,-68.125,52.125,55.375,-0.1875,-7.14062,6.25,-0.00585938,0.0,-0.0195312,4,0,41.43262651181092,-91.8027050282636,11983.971126785516,-44.16604504543168,1.8030815269748168,-8.95741551611693,160.295,10029.28805283672,11950.90527396306,150,True,18.840362153647785,False,143.09074631647894,172.9049192749715,False,43.995671490401385,False,False
10,1970-07-23 11:28:58.902459348,2025-09-16,2025-09-26 20:18:10.245,AA,C,2386328536,JASSM,3,117,76,2,2,1,225,9,2,0,1,26,0,0,0,0,-185570.42028983065,-4786733.081025924,4202048.788542271,-2.30145,-0.153015,0.128471,89.0,-13.625,-11.5,0.0,0.0,0.0,0.0,0.0,0.0,2,0,41.44781838417289,-92.22011127716272,10997.372698765455,99.83913676367813,-0.0027051807447508,0.0057563895013231,,10029.28805283672,11950.90527396306,150,10,2025-09-16,2025-09-26 20:18:10.225,AA,C,294027180,HAWK11,1,1,73,2,1,1,225,2,1,0,0,12,1,225,2,1,-150804.69372733062,-4789248.216768111,4201036.852995396,2.29196,2.55801,-0.574476,-68.875,51.625,54.375,0.03125,-7.01562,6.59375,-0.00195312,0.00390625,-0.015625,4,0,41.43329014909862,-91.80354370805632,11980.419101513482,-45.64814518310945,1.6900612976901714,-8.992058336683701,160.014,10029.28805283672,11950.90527396306,150,True,18.754783832873123,False,143.8132320392704,172.7721623614211,False,43.40455573013744,False,False
10,1970-07-23 11:28:58.911265282,2025-09-16,2025-09-26 20:18:11.126,AA,C,2387402278,JASSM,3,117,76,2,2,1,225,9,2,0,1,26,0,0,0,0,-185490.32653983065,-4786745.438447799,4202038.319792271,-2.30145,-0.153015,0.128471,89.0,-13.625,-11.5,0.0,0.0,0.0,0.0,0.0,0.0,2,0,41.447692689828486,-92.21914829351336,10997.3755093003,99.83977419805858,-0.0019725049860456,0.0057558933823242,,10029.28805283672,11950.90527396306,150,10,2025-09-16,2025-09-26 20:18:11.021,AA,C,295100878,HAWK11,1,1,73,2,1,1,225,2,1,0,0,12,1,225,2,1,-150867.25232108062,-4789201.850557174,4201085.593229771,2.31075,2.56309,-0.573709,-69.875,51.375,53.75,-0.09375,-6.98438,7.07812,0.0488281,0.00390625,-0.0078125,4,0,41.43388322534922,-91.80430883758152,11977.091509045407,-45.86478145148005,1.813475391246256,-7.763907427623937,160.344,10029.28805283672,11950.90527396306,150,True,18.675221840488216,False,144.46887884973708,172.65159687787755,False,42.8683519123445,False,False
10,1970-07-23 11:28:58.921279844,2025-09-16,2025-09-26 20:18:12.127,AA,C,2388534626,JASSM,3,117,76,2,2,1,225,9,2,0,1,26,0,0,0,0,-185405.8597429556,-4786758.469697799,4202027.278776646,-2.30145,-0.152919,0.128471,89.0,-13.625,-11.5,0.0,0.0,0.0,0.0,0.0,0.0,2,0,41.44756012456875,-92.2181327362542,10997.378555244655,99.8368103468018,-0.0052567480977621,0.0050518015251678,,10029.28805283672,11950.90527396306,150,10,2025-09-16,2025-09-26 20:18:12.022,AA,C,296214344,HAWK11,1,1,73,2,1,1,225,2,1,0,0,12,1,225,2,1,-150933.07458670562,-4789154.244111861,4201135.688932896,2.34776,2.57316,-0.574859,-71.0,51.0,53.625,-0.0625,-7.5,7.98438,0.0585938,0.0390625,-0.00585938,4,0,41.43449221113437,-91.80511345511997,11973.914958785928,-46.19416147008679,2.1760492988557965,-5.341693766405223,161.566,10029.28805283672,11950.90527396306,150,True,18.591551290659833,False,145.05630059924115,172.52633211195544,False,42.40769847324072,False,False
10,1970-07-23 11:28:58.930420955,2025-09-16,2025-09-26 20:18:13.042,AA,C,2389609258,JASSM,3,117,76,2,2,1,225,9,2,0,1,26,0,0,0,0,-185325.69763358065,-4786770.834932174,4202016.798307896,-2.30145,-0.152919,0.128471,89.0,-13.625,-11.5,0.0,0.0,0.0,0.0,0.0,0.0,2,0,41.447434303859424,-92.2171689396182,10997.375654370297,99.83744831609732,-0.0045234475140738,0.0050512557564013,,10029.28805283672,11950.90527396306,150,10,2025-09-16,2025-09-26 20:18:13.021,AA,C,297407344,HAWK11,1,1,73,2,1,1,225,2,1,0,0,12,1,225,2,1,-151004.57653983062,-4789104.758760299,4201190.288542271,2.37019,2.62426,-0.60295,-71.875,48.75,55.25,-0.109375,-9.0625,9.85938,0.0839844,0.0292969,0.0,4,0,41.43514169443735,-91.8059866790144,11976.34290367996,-46.98140935804584,4.9877396015409445,-2.4787930241216336,164.071,10029.28805283672,11950.90527396306,150,True,18.50713108622343,False,145.46356524653834,172.39370355400717,False,42.142561239223035,False,False
10,1970-07-23 11:28:58.939461802,2025-09-16,2025-09-26 20:18:13.946,AA,C,2390740898,JASSM,3,117,76,2,2,1,225,9,2,0,1,26,0,0,0,0,-185241.28357108065,-4786783.854463424,4202005.763151646,-2.30145,-0.152919,0.128471,89.0,-13.625,-11.5,0.0,0.0,0.0,0.0,0.0,0.0,2,0,41.4473018182525,-92.21615402610276,10997.375074050591,99.83812011964493,-0.0037512547812892,0.0050506982601553,,10029.28805283672,11950.90527396306,150,10,2025-09-16,2025-09-26 20:18:13.836,AA,C,298441276,HAWK11,1,1,73,2,1,1,225,2,1,0,0,12,1,225,2,1,-151066.80505545562,-4789063.961885299,4201239.128386021,2.50931,2.62982,-0.61551,-71.75,47.0,57.0,-0.140625,-7.84375,8.64062,0.179688,0.015625,0.0117188,4,0,41.43570233854632,-91.8067458082364,11986.911442156166,-46.69551852295745,5.699021834941815,5.700762022836293,163.472,10029.28805283672,11950.90527396306,150,True,18.425829181311634,False,145.2607281917986,172.2745452199364,False,42.46090323859485,False,False
10,1970-07-23 11:28:58.948239084,2025-09-16,2025-09-26 20:18:14.823,AA,C,2391814808,JASSM,3,117,76,2,2,1,225,9,2,0,1,26,0,0,0,0,-185161.1761492056,-4786796.209932174,4201995.288542271,-2.30145,-0.152919,0.128471,89.0,-13.625,-11.5,0.0,0.0,0.0,0.0,0.0,0.0,2,0,41.44717606602193,-92.21519089523387,10997.373148834437,99.83875764497832,-0.0030184547498884,0.0050501519441662,,10029.28805283672,11950.90527396306,150,10,2025-09-16,2025-09-26 20:18:14.835,AA,C,299554740,HAWK11,1,1,73,2,1,1,225,2,1,0,0,12,1,225,2,1,-151133.32653983062,-4789020.307588424,4201293.409636021,2.63845,2.61477,-0.634685,-70.5,47.0,58.75,-0.25,-7.3125,8.10938,0.0917969,0.00585938,0.0214844,4,0,41.43631588831601,-91.80755733743544,12002.606903280066,-45.43619126725584,6.054044511302573,12.724328324176856,162.776,10029.28805283672,11950.90527396306,150,False,18.34447932727451,False,144.199589969659,172.14564479571268,False,43.64638702242865,False,False
10,1970-07-23 11:28:58.958280224,2025-09-16,2025-09-26 20:18:15.828,AA,C,2392948464,JASSM,3,117,76,2,2,1,225,9,2,0,1,26,0,0,0,0,-185076.61169608065,-4786809.252900924,4201984.231901646,-2.30145,-0.152919,0.128567,89.0,-13.625,-11.5,0.0,0.0,0.0,0.0,0.0,0.0,2,0,41.44704331313837,-92.21417418152124,10997.376639082007,99.8435212923514,-0.0059111569810604,0.0050492887050664,,10029.28805283672,11950.90527396306,150,10,2025-09-16,2025-09-26 20:18:15.929,AA,C,300906806,HAWK11,1,1,73,2,1,1,225,2,1,0,0,12,1,225,2,1,-151211.84607108062,-4788966.551729049,4201360.526823521,2.75541,2.56424,-0.652709,-68.375,48.25,60.75,-0.078125,-6.64062,7.32812,0.0390625,0.0078125,0.0292969,4,0,41.43707389906413,-91.80851609577354,12022.275051355216,-42.99742278206327,5.323343258793705,17.930120374929764,162.03,10029.28805283672,11950.90527396306,150,False,18.253898609475712,False,142.446522362319,171.9880885109146,False,45.55665588032985,False,False
10,1970-07-23 11:28:58.967419060,2025-09-16,2025-09-26 20:18:16.741,AA,C,2394081406,JASSM,3,117,76,2,2,1,225,9,2,0,1,26,0,0,0,0,-184992.09997733065,-4786822.286104049,4201973.181120396,-2.30145,-0.152919,0.128567,89.0,-13.625,-11.5,0.0,0.0,0.0,0.0,0.0,0.0,2,0,41.4469106367887,-92.21315810672644,10997.37768584217,99.8441938593974,-0.005138069422342,0.0050487747276248,,10029.28805283672,11950.90527396306,150,10,2025-09-16,2025-09-26 20:18:16.835,AA,C,301821438,HAWK11,1,1,73,2,1,1,225,2,1,0,0,12,1,225,2,1,-151264.34607108062,-4788928.483369674,4201406.935026646,2.73959,2.53931,-0.666131,-66.75,49.625,61.5,-0.046875,-6.73438,7.40625,-0.148438,0.0136719,0.0195312,4,0,41.43760370765812,-91.80915795812334,12033.52980413562,-41.63235788114655,5.195121982972674,16.273863859699166,162.03,10029.28805283672,11950.90527396306,150,False,18.17814730157982,False,141.26495291826413,171.8706704596666,False,46.85915774435783,False,False
10,1970-07-23 11:28:58.977457644,2025-09-16,2025-09-26 20:18:17.745,AA,C,2395216670,JASSM,3,117,76,2,2,1,225,9,2,0,1,26,0,0,0,0,-184907.41638358065,-4786835.344697799,4201962.106901646,-2.30145,-0.152919,0.128567,89.0,-13.625,-11.5,0.0,0.0,0.0,0.0,0.0,0.0,2,0,41.44677768174882,-92.212139970166,10997.377730489434,99.84486778940516,-0.0043634099904853,0.0050482597460059,,10029.28805283672,11950.90527396306,150,10,2025-09-16,2025-09-26 20:18:17.725,AA,C,303054204,HAWK11,1,1,73,2,1,1,225,2,1,0,0,12,1,225,2,1,-151332.43982108062,-4788876.495088424,4201470.233854771,2.60671,2.51314,-0.68243,-65.375,50.375,62.875,-0.171875,-6.89062,7.59375,-0.0761719,0.00390625,0.0253906,4,0,41.43832738325116,-91.80999147023503,12048.454161086316,-40.12869233157573,5.186980973382274,7.860097870085415,162.592,10029.28805283672,11950.90527396306,150,True,18.093434260252916,False,140.12838136391096,171.71632611585488,False,48.149395661259554,False,False
10,1970-07-23 11:28:58.988218392,2025-09-16,2025-09-26 20:18:18.821,AA,C,2396408352,JASSM,3,117,76,2,2,1,225,9,2,0,1,26,0,0,0,0,-184818.52185233065,-4786849.051729049,4201950.479948521,-2.30145,-0.152919,0.128567,89.0,-13.625,-11.5,0.0,0.0,0.0,0.0,0.0,0.0,2,0,41.446638097241085,-92.21107121110596,10997.375188877046,99.84557522579698,-0.0035502290346546,0.0050477106815788,,10029.28805283672,11950.90527396306,150,10,2025-09-16,2025-09-26 20:18:18.835,AA,C,304326736,HAWK11,1,1,73,2,1,1,225,2,1,0,0,12,1,225,2,1,-151402.06286795562,-4788821.432588424,4201537.642057896,2.55475,2.51381,-0.677348,-64.375,51.125,63.5,0.015625,-6.375,7.09375,-0.00585938,-0.00195312,-0.0117188,4,0,41.43909678532933,-91.8108444403542,12064.868727727446,-40.33473962521678,4.97878416090291,4.888767213879736,162.873,10029.28805283672,11950.90527396306,150,True,18.00562563170323,False,139.37498854059567,171.5507874904664,False,49.06945829362427,False,False
10,1970-07-23 11:28:58.996399279,2025-09-16,2025-09-26 20:18:19.639,AA,C,2397542208,JASSM,3,117,76,2,2,1,225,9,2,0,1,26,0,0,0,0,-184733.94372733065,-4786862.092744674,4201939.417448521,-2.30145,-0.152919,0.128567,89.0,-13.625,-11.5,0.0,0.0,0.0,0.0,0.0,0.0,2,0,41.44650528317885,-92.21005435169324,10997.37534368193,99.8462483067902,-0.0027765337556931,0.0050471901199173,,10029.28805283672,11950.90527396306,150,10,2025-09-16,2025-09-26 20:18:19.427,AA,C,305122068,HAWK11,1,1,73,2,1,1,225,2,1,0,0,12,1,225,2,1,-151445.27087576812,-4788786.415010299,4201580.089323521,2.55465,2.5118,-0.671212,-64.0,51.875,63.75,0.125,-6.23438,6.90625,0.0195312,0.00195312,0.0117188,4,0,41.43958344735313,-91.81137412212196,12074.312270581197,-40.48377087960537,4.648099971618117,4.798761694586307,162.959,10029.28805283672,11950.90527396306,150,True,17.935230517329646,False,138.99991044055307,171.43774746635023,False,49.55920589168001,False,False
10,1970-07-23 11:28:59.005437864,2025-09-16,2025-09-26 20:18:20.543,AA,C,2398674522,JASSM,3,117,76,2,2,1,225,9,2,0,1,26,0,0,0,0,-184649.47888358065,-4786875.114229049,4201928.370573521,-2.30145,-0.152823,0.128567,89.0,-13.625,-11.5,0.0,0.0,0.0,0.0,0.0,0.0,2,0,41.44637265577138,-92.20903885932071,10997.375995305256,99.84328449205698,-0.0060607951035385,0.0043426471130606,,10029.28805283672,11950.90527396306,150,10,2025-09-16,2025-09-26 20:18:20.632,AA,C,306275300,HAWK11,1,1,73,2,1,1,225,2,1,0,0,12,1,225,2,1,-151506.94177420562,-4788735.397432174,4201641.077604771,2.60364,2.49435,-0.674856,-63.5,53.0,63.875,0.09375,-6.21875,6.82812,0.0507812,0.0,0.0078125,4,0,41.44028694850284,-91.81213054324364,12086.121955819008,-39.73826765154293,4.330311059362396,7.04092153588945,163.472,10029.28805283672,11950.90527396306,150,True,17.854501209451968,False,138.5345983525669,171.28300185603194,False,50.1813346031873,False,False
10,1970-07-23 11:28:59.015457909,2025-09-16,2025-09-26 20:18:21.545,AA,C,2399748264,JASSM,3,117,76,2,2,1,225,9,2,0,1,26,0,0,0,0,-184569.38513358065,-4786887.461885299,4201917.894011021,-2.30145,-0.152823,0.128567,89.0,-13.625,-11.5,0.0,0.0,0.0,0.0,0.0,0.0,2,0,41.44624687414409,-92.20807592293885,10997.377260816233,99.84392187696886,-0.0053281234502987,0.0043421147279496,,10029.28805283672,11950.90527396306,150,10,2025-09-16,2025-09-26 20:18:21.835,AA,C,307786432,HAWK11,1,1,73,2,1,1,225,2,1,0,0,12,1,225,2,1,-151587.08044608062,-4788667.036104049,4201721.579557896,2.68974,2.46875,-0.677157,-62.25,54.5,64.5,-0.109375,-6.03125,6.65625,0.0214844,0.00390625,0.0195312,4,0,41.44122184313403,-91.81311428478269,12099.111766925836,-38.74790526505205,3.740635129885668,11.125800523640674,163.753,10029.28805283672,11950.90527396306,150,False,17.765809119222908,False,137.5357144539002,171.08411533437862,False,51.380082200093995,False,False
10,1970-07-23 11:28:59.025242742,2025-09-16,2025-09-26 20:18:22.524,AA,C,2401000964,JASSM,3,117,76,2,2,1,225,9,2,0,1,26,0,0,0,0,-184475.9378679556,-4786901.866182174,4201905.669401646,-2.30145,-0.152823,0.128567,89.0,-13.625,-11.5,0.0,0.0,0.0,0.0,0.0,0.0,2,0,41.44610011434271,-92.20695244799448,10997.375197301117,99.8446655232312,-0.0044732993031621,0.0043414961618615,,10029.28805283672,11950.90527396306,150,10,2025-09-16,2025-09-26 20:18:22.427,AA,C,308701064,HAWK11,1,1,73,2,1,1,225,2,1,0,0,12,1,225,2,1,-151634.90368826812,-4788624.204072799,4201770.878386021,2.66088,2.44258,-0.681279,-61.5,55.875,64.75,0.15625,-6.03125,6.67188,-0.138672,0.0,0.0332031,4,0,41.441800360048944,-91.8137021224296,12104.593947610372,-37.66854404088275,3.235722856250024,8.595964619575202,163.888,10029.28805283672,11950.90527396306,150,True,17.688206399721032,False,136.88115134250714,170.9476602343412,False,52.17092220868114,False,False
10,1970-07-23 11:28:59.036256926,2025-09-16,2025-09-26 20:18:23.625,AA,C,2402254026,JASSM,3,117,76,2,2,1,225,9,2,0,1,26,0,0,0,0,-184382.46716483065,-4786916.274385299,4201893.438932896,-2.30145,-0.152823,0.128567,89.0,-13.625,-11.5,0.0,0.0,0.0,0.0,0.0,0.0,2,0,41.44595328616348,-92.2058286962016,10997.372456890464,99.84540935057812,-0.0036182571153612,0.0043408571294351,,10029.28805283672,11950.90527396306,150,10,2025-09-16,2025-09-26 20:18:23.427,AA,C,309894064,HAWK11,1,1,73,2,1,1,225,2,1,0,0,12,1,225,2,1,-151696.11169608062,-4788567.043916549,4201835.261198521,2.57575,2.41391,-0.684635,-61.0,57.125,65.0,-0.078125,-6.125,6.67188,-0.0410156,0.0,0.0,4,0,41.44256339552611,-91.81445538499982,12108.655626732538,-36.52020038068518,2.6503117384265757,2.740431666393585,165.036,10029.28805283672,11950.90527396306,150,True,17.60312163402046,False,136.3614854779362,170.77450395567578,False,52.8625395676779,False,False
10,1970-07-23 11:28:59.047398514,2025-09-16,2025-09-26 20:18:24.739,AA,C,2403567720,JASSM,3,117,76,2,2,1,225,9,2,0,1,26,0,0,0,0,-184284.47107108065,-4786931.379854049,4201880.618620396,-2.30145,-0.152823,0.128567,89.0,-13.625,-11.5,0.0,0.0,0.0,0.0,0.0,0.0,2,0,41.44579935481623,-92.20465054346994,10997.378823586563,99.84618918435366,-0.0027218210432905,0.0043402041591886,,10029.28805283672,11950.90527396306,150,10,2025-09-16,2025-09-26 20:18:24.836,AA,C,311564262,HAWK11,1,1,73,2,1,1,225,2,1,0,0,12,1,225,2,1,-151781.24353201812,-4788485.098604049,4201925.573698521,2.58332,2.42033,-0.670254,-60.75,58.875,65.0,-0.21875,-6.20312,6.78125,0.0703125,0.00195312,0.00976562,4,0,41.44364436927491,-91.8155040232479,12109.969197133429,-37.23135504085676,2.144403972870128,3.375349756287165,165.99,10029.28805283672,11950.90527396306,150,True,17.50231614308402,False,135.9197063020335,170.53668853399907,False,53.53812051703985,False,False
10,1970-07-23 11:28:59.057911007,2025-09-16,2025-09-26 20:18:25.791,AA,C,2404820538,JASSM,3,117,76,2,2,1,225,9,2,0,1,26,0,0,0,0,-184191.01794608065,-4786945.782197799,4201868.390104771,-2.30145,-0.152823,0.128567,89.0,-13.625,-11.5,0.0,0.0,0.0,0.0,0.0,0.0,2,0,41.445652548170095,-92.20352701483608,10997.377151737212,99.84693285954766,-0.0018669434864155,0.0043395811413174,,10029.28805283672,11950.90527396306,150,10,2025-09-16,2025-09-26 20:18:25.927,AA,C,312836794,HAWK11,1,1,73,2,1,1,225,2,1,0,0,12,1,225,2,1,-151845.52673514312,-4788421.577119674,4201994.450651646,2.69904,2.39924,-0.682334,-60.125,60.125,65.625,0.0,-6.53125,7.14062,0.0527344,0.0078125,0.0234375,4,0,41.44447499674786,-91.81629649819146,12108.407106855231,-36.062021350198506,2.171651747028278,9.2931915507152,167.578,10029.28805283672,11950.90527396306,150,True,17.415849121714867,False,135.25990237609534,170.34657397928734,False,54.385716864981454,False,False
10,1970-07-23 11:28:59.069101546,2025-09-16,2025-09-26 20:18:26.910,AA,C,2406132376,JASSM,3,117,76,2,2,1,225,9,2,0,1,26,0,0,0,0,-184093.16150076807,-4786960.862275924,4201855.585417271,-2.30145,-0.152823,0.128663,89.0,-13.625,-11.5,0.0,0.0,0.0,0.0,0.0,0.0,2,0,41.44549881780949,-92.20235055365934,10997.378277461188,99.8518022701478,-0.0046380094436963,0.0043387336135627,,10029.28805283672,11950.90527396306,150,10,2025-09-16,2025-09-26 20:18:26.725,AA,C,313830960,HAWK11,1,1,73,2,1,1,225,2,1,0,0,12,1,225,2,1,-151895.83337576812,-4788370.596650924,4202049.444792271,2.75532,2.37757,-0.693935,-59.25,61.0,66.5,-0.203125,-6.60938,7.1875,0.0429688,0.00195312,0.03125,4,0,41.44513995375644,-91.81691716762094,12106.440263592876,-34.89487355572945,2.181593385218631,11.773545099751532,168.25,10029.28805283672,11950.90527396306,150,False,17.334934240064477,False,134.50923708837323,170.1858249922398,False,55.29669969664186,False,False
10,1970-07-23 11:28:59.080301291,2025-09-16,2025-09-26 20:18:28.030,AA,C,2407443436,JASSM,3,117,76,2,2,1,225,9,2,0,1,26,0,0,0,0,-183995.36267264312,-4786975.932588424,4201842.784636021,-2.30145,-0.152823,0.128663,89.0,-13.625,-11.5,0.0,0.0,0.0,0.0,0.0,0.0,2,0,41.445345146709776,-92.20117479113132,10997.374447085314,99.85258051483746,-0.0037433769838129,0.0043381315541605,,10029.28805283672,11950.90527396306,150,10,2025-09-16,2025-09-26 20:18:27.870,AA,C,314745592,HAWK11,1,1,73,2,1,1,225,2,1,0,0,12,1,225,2,1,-151940.90173514312,-4788323.188447799,4202100.513151646,2.77373,2.36166,-0.703522,-58.125,61.875,67.5,-0.296875,-6.84375,7.32812,-0.0214844,0.00585938,0.0136719,4,0,41.44575814957623,-91.81747387799398,12104.324428690808,-34.009030201472044,2.2530449525671883,12.27594793807126,169.228,10029.28805283672,11950.90527396306,150,False,17.257061316697904,False,133.62721037535223,170.03285231126222,False,56.331625205563206,False,False
10,1970-07-23 11:28:59.090418755,2025-09-16,2025-09-26 20:18:29.041,AA,C,2408697668,JASSM,3,117,76,2,2,1,225,9,2,0,1,26,0,0,0,0,-183901.80407889312,-4786990.348604049,4201830.540495396,-2.30145,-0.152823,0.128663,89.0,-13.625,-11.5,0.0,0.0,0.0,0.0,0.0,0.0,2,0,41.44519814344567,-92.20005001139047,10997.376923688453,99.8533250114743,-0.0028875359252047,0.0043375716740283,,10029.28805283672,11950.90527396306,150,10,2025-09-16,2025-09-26 20:18:28.930,AA,C,316455556,HAWK11,1,1,73,2,1,1,225,2,1,0,0,12,1,225,2,1,-152023.20642264312,-4788232.827119674,4202197.892057896,2.62665,2.3306,-0.715794,-56.875,63.125,69.0,-0.109375,-6.85938,7.40625,-0.0449219,0.00976562,0.00195312,4,0,41.446937398287474,-91.81849201650812,12100.110225298233,-32.49290749151332,2.113985576115317,2.7474831823387618,170.56,10029.28805283672,11950.90527396306,150,True,17.161021417566026,False,132.5265560837839,169.7678855131705,False,57.69749544739039,False,False
10,1970-07-23 11:28:59.100435748,2025-09-16,2025-09-26 20:18:30.043,AA,C,2410008464,JASSM,3,117,76,2,2,1,225,9,2,0,1,26,0,0,0,0,-183804.02478201807,-4787005.413057174,4201817.741667271,-2.30145,-0.152727,0.128663,89.0,-13.625,-11.5,0.0,0.0,0.0,0.0,0.0,0.0,2,0,41.44504449241396,-92.1988744958338,10997.374779547315,99.85046719432022,-0.0060499966524695,0.0036324187183768,,10029.28805283672,11950.90527396306,150,10,2025-09-16,2025-09-26 20:18:30.133,AA,C,317847388,HAWK11,1,1,73,2,1,1,225,2,1,0,0,12,1,225,2,1,-152089.44177420562,-4788158.893525924,4202278.270964146,2.58006,2.34201,-0.708891,-56.875,63.5,69.875,-0.0625,-6.96875,7.42188,-0.00976562,0.00390625,0.00195312,4,0,41.44790720705552,-91.81931185983206,12098.113017166796,-33.12356718598305,2.0468801708765003,0.4821729734152666,171.745,10029.28805283672,11950.90527396306,150,True,17.071866675734434,False,132.2781750706774,169.5406915002485,False,58.1745128233717,False,False
10,1970-07-23 11:28:59.111458572,2025-09-16,2025-09-26 20:18:31.145,AA,C,2411261804,JASSM,3,117,76,2,2,1,225,9,2,0,1,26,0,0,0,0,-183710.53357108065,-4787019.815400924,4201805.503386021,-2.30145,-0.152727,0.128663,89.0,-13.625,-11.5,0.0,0.0,0.0,0.0,0.0,0.0,2,0,41.44489757216389,-92.19775053806708,10997.372303298622,99.85121114249633,-0.0051947730298397,0.0036318043128974,,10029.28805283672,11950.90527396306,150,10,2025-09-16,2025-09-26 20:18:31.227,AA,C,319199454,HAWK11,1,1,73,2,1,1,225,2,1,0,0,12,1,225,2,1,-152154.44665701812,-4788086.057588424,4202358.222136021,2.64075,2.33472,-0.714931,-56.875,63.75,70.875,-0.25,-7.01562,7.4375,0.115234,0.0,0.0136719,4,0,41.44886782262529,-91.82011660141828,12097.79709455764,-32.67121739894408,2.1698389627746857,3.703269513236719,172.931,10029.28805283672,11950.90527396306,150,True,16.985967383420174,False,132.02717288087166,169.31443469609533,False,58.65369157767728,False,False
10,1970-07-23 11:28:59.121243446,2025-09-16,2025-09-26 20:18:32.124,AA,C,2412454436,JASSM,3,117,76,2,2,1,225,9,2,0,1,26,0,0,0,0,-183621.56775076807,-4787033.520479049,4201793.856901646,-2.30145,-0.152727,0.128663,89.0,-13.625,-11.5,0.0,0.0,0.0,0.0,0.0,0.0,2,0,41.444757750087625,-92.19668098962498,10997.372687353089,99.85191907510035,-0.0043809455081419,0.0036312164281194,,10029.28805283672,11950.90527396306,150,10,2025-09-16,2025-09-26 20:18:32.269,AA,C,320153852,HAWK11,1,1,73,2,1,1,225,2,1,0,0,12,1,225,2,1,-152199.83532889312,-4788034.586885299,4202415.188932896,2.73375,2.32504,-0.718478,-56.375,64.25,71.625,-0.03125,-6.82812,7.375,0.0761719,0.00976562,0.015625,4,0,41.449549914128944,-91.82067874745952,12098.55235285728,-32.20900822820365,2.119503374132448,8.684474613665405,173.627,10029.28805283672,11950.90527396306,150,True,16.913391180876246,False,131.56961537324142,169.1444035994354,False,59.28165798347953,False,False
10,1970-07-23 11:28:59.131275351,2025-09-16,2025-09-26 20:18:33.127,AA,C,2413589310,JASSM,3,117,76,2,2,1,225,9,2,0,1,26,0,0,0,0,-183536.91150076807,-4787046.561494674,4201782.774870396,-2.30145,-0.152727,0.128663,89.0,-13.625,-11.5,0.0,0.0,0.0,0.0,0.0,0.0,2,0,41.4446246948704,-92.19566325524848,10997.37716901007,99.85259271022294,-0.0036065409522419,0.0036306599403616,,10029.28805283672,11950.90527396306,150,10,2025-09-16,2025-09-26 20:18:33.271,AA,C,320949184,HAWK11,1,1,73,2,1,1,225,2,1,0,0,12,1,225,2,1,-152236.86169608062,-4787992.260713424,4202462.829557896,2.80258,2.31085,-0.726052,-55.875,62.5,74.25,-0.125,-6.8125,7.26562,0.078125,0.00585938,0.0195312,4,0,41.45011623725024,-91.82113746228868,12100.879383401356,-31.461692839423385,2.167571471154616,12.119063239190986,174.19,10029.28805283672,11950.90527396306,150,False,16.847799505453434,False,131.07092708576806,168.99822224223797,False,59.930695869776265,False,False
10,1970-07-23 11:28:59.140415777,2025-09-16,2025-09-26 20:18:34.041,AA,C,2414780650,JASSM,3,117,76,2,2,1,225,9,2,0,1,26,0,0,0,0,-183448.0433367056,-4787060.248994674,4201771.138151646,-2.30145,-0.152727,0.128663,89.0,-13.625,-11.5,0.0,0.0,0.0,0.0,0.0,0.0,2,0,41.44448500161189,-92.19459489094272,10997.373012921837,99.85329985521966,-0.0027936066711066,0.0036300672779231,,10029.28805283672,11950.90527396306,150,10,2025-09-16,2025-09-26 20:18:33.927,AA,C,322341016,HAWK11,1,1,73,2,1,1,225,2,1,0,0,12,1,225,2,1,-152300.07361014312,-4787914.920869674,4202547.327604771,2.88858,2.26895,-0.746857,-53.125,66.125,74.0,-0.046875,-6.9375,7.39062,0.0,0.0136719,0.03125,4,0,41.45113466266038,-91.82192253641716,12099.2474327874,-29.322811461518683,2.282670547780339,15.516939123672914,174.703,10029.28805283672,11950.90527396306,150,False,16.766001481274557,False,129.3626165112315,168.7561579806209,False,61.87709621756238,False,False
10,1970-07-23 11:28:59.150476291,2025-09-16,2025-09-26 20:18:35.047,AA,C,2415915226,JASSM,3,117,76,2,2,1,225,9,2,0,1,26,0,0,0,0,-183363.40954764312,-4787073.284150924,4201760.058073521,-2.30145,-0.152727,0.128663,89.0,-13.625,-11.5,0.0,0.0,0.0,0.0,0.0,0.0,2,0,41.44435197086432,-92.19357743621114,10997.377301066605,99.85397330159996,-0.002019409659284,0.003629518235911,,10029.28805283672,11950.90527396306,150,10,2025-09-16,2025-09-26 20:18:34.927,AA,C,323613548,HAWK11,1,1,73,2,1,1,225,2,1,0,0,12,1,225,2,1,-152355.96228201812,-4787842.872041549,4202626.968229771,2.89136,2.2307,-0.761813,-50.75,67.375,75.25,-0.03125,-7.01562,7.4375,-0.0253906,0.0078125,0.0273438,4,0,41.452090205665314,-91.82261807425076,12099.505841877726,-27.50969746207016,2.249357751962096,14.246883579909968,175.693,10029.28805283672,11950.90527396306,150,False,16.690703485800444,False,127.88156654522287,168.52653201452569,False,63.58714898075614,False,False
10,1970-07-23 11:28:59.161215964,2025-09-16,2025-09-26 20:18:36.121,AA,C,2417107090,JASSM,3,117,76,2,2,1,225,9,2,0,1,26,0,0,0,0,-183274.50232108065,-4787086.975557174,4201748.415495396,-2.30145,-0.152727,0.128759,89.0,-13.625,-11.5,0.0,0.0,0.0,0.0,0.0,0.0,2,0,41.44421220435407,-92.1925086122179,10997.374585289555,99.858771493596,-0.0048722917424611,0.0036287155519563,,10029.28805283672,11950.90527396306,150,10,2025-09-16,2025-09-26 20:18:36.270,AA,C,323176116,HAWK11,1,1,73,2,1,1,225,2,1,0,0,12,1,225,2,1,-152336.82458670562,-4787868.104463424,4202599.085417271,2.89213,2.24067,-0.757499,-51.625,66.875,74.875,-0.046875,-6.9375,7.45312,0.0,0.0175781,0.0253906,4,0,41.45175553666551,-91.82237968878532,12099.466663836838,-27.99197389106318,2.2316790600481133,14.66540070190355,176.585,10029.28805283672,11950.90527396306,150,False,16.653082136621983,False,128.41554910146104,168.5625511046125,False,63.01764987450439,False,False
10,1970-07-23 11:28:59.170277131,2025-09-16,2025-09-26 20:18:37.027,AA,C,2418300126,JASSM,3,117,76,2,2,1,225,9,2,0,1,26,0,0,0,0,-183185.5081804556,-4787100.680635299,4201736.761198521,-2.30145,-0.152727,0.128759,89.0,-13.625,-11.5,0.0,0.0,0.0,0.0,0.0,0.0,2,0,41.44407228727756,-92.19143874782448,10997.376071332714,99.85947962572638,-0.0040582062001942,0.0036281834612132,,10029.28805283672,11950.90527396306,150,10,2025-09-16,2025-09-26 20:18:37.131,AA,C,326198380,HAWK11,1,1,73,2,1,1,225,2,1,0,0,12,1,225,2,1,-152461.65857108062,-4787694.481416549,4202792.388151646,2.84266,2.18247,-0.785015,-46.875,68.875,78.0,-0.125,-7.0625,7.42188,-0.0390625,0.00195312,0.0078125,4,0,41.45406939492952,-91.82393814544784,12102.351587814768,-25.140461497694453,2.510648688897458,9.624258089975497,177.22,10029.28805283672,11950.90527396306,150,True,16.539635005653427,False,125.44371893789075,168.04381695767188,False,66.50946470278417,False,False
10,1970-07-23 11:28:59.180418884,2025-09-16,2025-09-26 20:18:38.041,AA,C,2419493184,JASSM,3,117,76,2,2,1,225,9,2,0,1,26,0,0,0,0,-183096.51111014312,-4787114.385713424,4201725.104948521,-2.30145,-0.152727,0.128759,89.0,-13.625,-11.5,0.0,0.0,0.0,0.0,0.0,0.0,2,0,41.44393234773996,-92.19036885301456,10997.377273154423,99.86018777602344,-0.0032440926377949,0.0036276435031887,,10029.28805283672,11950.90527396306,150,10,2025-09-16,2025-09-26 20:18:38.225,AA,C,327510678,HAWK11,1,1,73,2,1,1,225,2,1,0,0,12,1,225,2,1,-152512.24939139312,-4787618.356416549,4202878.030729771,2.89117,2.16943,-0.792876,-45.125,69.625,79.125,-0.078125,-7.07812,7.4375,-0.0078125,0.0,0.0234375,4,0,41.45509068022082,-91.82457195880714,12105.236619573125,-24.4681253455302,2.6799895106278453,11.904117946533049,177.905,10029.28805283672,11950.90527396306,150,False,16.465780644690074,False,124.3687266372209,167.7926590883417,False,67.83593223574289,False,False
10,1970-07-23 11:28:59.189476891,2025-09-16,2025-09-26 20:18:38.947,AA,C,2420626578,JASSM,3,117,76,2,2,1,225,9,2,0,1,26,0,0,0,0,-183011.9652117056,-4787127.403291549,4201714.032682896,-2.30145,-0.152631,0.128759,89.0,-13.625,-11.5,0.0,0.0,0.0,0.0,0.0,0.0,2,0,41.44379941693435,-92.18935247398606,10997.37948422062,99.85722470471931,-0.0065276068367556,0.0029220935607368,,10029.28805283672,11950.90527396306,150,10,2025-09-16,2025-09-26 20:18:38.927,AA,C,328306010,HAWK11,1,1,73,2,1,1,225,2,1,0,0,12,1,225,2,1,-152542.03161795562,-4787571.473604049,4202930.894011021,2.90191,2.15074,-0.797095,-43.875,70.0,80.0,0.046875,-6.89062,7.26562,-0.0234375,-0.00195312,0.0234375,4,0,41.45572071616318,-91.8249458746672,12107.168054234222,-23.687178006285137,2.5705986628103945,11.790467865754652,178.491,10029.28805283672,11950.90527396306,150,False,16.405268068728947,False,123.61398643678906,167.6244334912709,False,68.75949603606243,False,False
10,1970-07-23 11:28:59.200235566,2025-09-16,2025-09-26 20:18:40.023,AA,C,2421819868,JASSM,3,117,76,2,2,1,225,9,2,0,1,26,0,0,0,0,-182922.95153983065,-4787141.106416549,4201702.372526646,-2.30145,-0.152631,0.128759,89.0,-13.625,-11.5,0.0,0.0,0.0,0.0,0.0,0.0,2,0,41.443659447038286,-92.18828239062468,10997.374098346554,99.85793297602314,-0.00571334552331,0.0029215164278695,,10029.28805283672,11950.90527396306,150,10,2025-09-16,2025-09-26 20:18:40.021,AA,C,329618310,HAWK11,1,1,73,2,1,1,225,2,1,0,0,12,1,225,2,1,-152589.35974295562,-4787492.887666549,4203019.558073521,3.0415,2.11315,-0.79882,-41.5,71.375,81.25,-0.15625,-6.89062,7.26562,0.0566406,0.00195312,0.0,4,0,41.45677764555617,-91.82554164972808,12110.325502795147,-22.28009187560165,2.0313555570951145,18.30331070812005,179.42,10029.28805283672,11950.90527396306,150,False,16.33375366189083,False,122.18405039074918,167.36211806778368,False,70.45104016253774,False,False
10,1970-07-23 11:28:59.209909091,2025-09-16,2025-09-26 20:18:40.990,AA,C,2422953282,JASSM,3,117,76,2,2,1,225,9,2,0,1,26,0,0,0,0,-182838.40466483065,-4787154.123994674,4201691.296354771,-2.30145,-0.152631,0.128759,89.0,-13.625,-11.5,0.0,0.0,0.0,0.0,0.0,0.0,2,0,41.443526471664335,-92.18726600844268,10997.375576848688,99.85860570154256,-0.004939940510383,0.0029209485496985,,10029.28805283672,11950.90527396306,150,10,2025-09-16,2025-09-26 20:18:41.269,AA,C,330851074,HAWK11,1,1,73,2,1,1,225,2,1,0,0,12,1,225,2,1,-152631.01501639312,-4787417.356416549,4203103.950651646,3.07621,2.07202,-0.803422,-38.5,72.875,82.125,-0.171875,-6.59375,7.01562,-0.0585938,-0.00195312,0.0332031,4,0,41.45778865156088,-91.82606845583769,12111.27565024048,-20.66862183174504,1.6282079131594476,18.650848301591207,179.799,10029.28805283672,11950.90527396306,150,False,16.267926941730217,False,120.52366694804175,167.10968592482874,False,72.36198316786918,False,False
