Subject_cm,Timestamp,SampleDate_cm,SampleTime_cm,Configuration_cm,Scenario_cm,DisTime_cm,MarkingTxt_cm,Application_cm,EntId_cm,Site_cm,ExerciseId_cm,ForceId_cm,Category_cm,Country_cm,Domain_cm,Kind_cm,Extra_cm,Specific_cm,Subcategory_cm,AltCategory_cm,AltCountry_cm,AltDomain_cm,AltKind_cm,ECEF_X_cm,ECEF_Y_cm,ECEF_Z_cm,OriPhi_cm,OriPsi_cm,OriTheta_cm,LinVelX_cm,LinVelY_cm,LinVelZ_cm,LinAccX_cm,LinAccY_cm,LinAccZ_cm,AngVelX_cm,AngVelY_cm,AngVelZ_cm,DrAlg_cm,Appearance_cm,Latitude_cm,Longitude_cm,Altitude_cm,Heading_cm,Pitch_cm,Roll_cm,CalibratedAirspeed_cm,CM_Altitude_Lead_cm,CM_Altitude_Wing_cm,CM_Airspeed_cm,Subject_ac,SampleDate_ac,SampleTime_ac,Configuration_ac,Scenario_ac,DisTime_ac,MarkingTxt_ac,Application_ac,EntId_ac,Site_ac,ExerciseId_ac,ForceId_ac,Category_ac,Country_ac,Domain_ac,Kind_ac,Extra_ac,Specific_ac,Subcategory_ac,AltCategory_ac,AltCountry_ac,AltDomain_ac,AltKind_ac,ECEF_X_ac,ECEF_Y_ac,ECEF_Z_ac,OriPhi_ac,OriPsi_ac,OriTheta_ac,LinVelX_ac,LinVelY_ac,LinVelZ_ac,LinAccX_ac,LinAccY_ac,LinAccZ_ac,AngVelX_ac,AngVelY_ac,AngVelZ_ac,DrAlg_ac,Appearance_ac,Latitude_ac,Longitude_ac,Altitude_ac,Heading_ac,Pitch_ac,Roll_ac,CalibratedAirspeed_ac,CM_Altitude_Lead_ac,CM_Altitude_Wing_ac,CM_Airspeed_ac,Bank_Angle_Condition,distance_nm,Distance_Condition,angle_between_vel,angle_between_pos,Cone_Condition,angle_between_pos_nose,Nose_Cone_Condition,Intercept_Criteria
10,1970-07-23 11:28:50.069388019,2025-09-16,2025-09-26 20:03:26.938,AH,C,1332508544,JASSM,3,101,76,2,2,1,225,9,2,0,1,26,0,0,0,0,-155673.22497733062,-4777267.471650924,4213479.772917271,-2.71093,-1.01118,0.751842,34.125,-54.375,-60.0,0.0,0.0,0.0,0.0,0.0,0.0,2,0,41.587630300441134,-91.86639407747624,10000.002644169335,155.93881014841665,-0.0028015177202846,-0.0006587481927312,,8959.781364859911,11075.263430171775,150,10,2025-09-16,2025-09-26 20:03:27.004,AH,C,3535377748,HAWK11,1,1,73,2,1,1,225,2,1,0,0,12,1,225,2,1,-145622.38318045562,-4791820.623018111,4197886.712370396,2.29158,2.7882,-0.372182,-101.125,43.5,45.625,0.0,-7.32812,6.65625,-0.0117188,0.0,-0.00585938,4,0,41.39767880189904,-91.74067051069449,11075.43597884678,-62.06930052523357,1.069519608329579,-3.347921270248496,189.954,8959.781364859911,11075.263430171775,150,True,12.717160855505876,False,144.7752063568468,177.50084569871296,False,32.833589875096656,False,False
10,1970-07-23 11:28:50.079310688,2025-09-16,2025-09-26 20:03:27.931,AH,C,1333763504,JASSM,3,101,76,2,2,1,225,9,2,0,1,26,0,0,0,0,-155637.30993826812,-4777324.819307174,4213416.503386021,-2.71093,-1.01118,0.751842,34.125,-54.375,-60.0,0.0,0.0,0.0,0.0,0.0,0.0,2,0,41.58686903418269,-91.86594140664904,10000.001469373705,155.93911061315828,-0.0019683570670205,-0.000659968620029,,8959.781364859911,11075.263430171775,150,10,2025-09-16,2025-09-26 20:03:27.817,AH,C,3536332146,HAWK11,1,1,73,2,1,1,225,2,1,0,0,12,1,225,2,1,-145703.40661795562,-4791786.017549361,4197923.233854771,2.28841,2.78945,-0.371799,-101.25,43.125,45.375,-0.296875,-7.35938,6.54688,0.00195312,-0.00195312,-0.00390625,4,0,41.3981165389169,-91.74165098328264,11075.603303141135,-62.1323401736006,1.102282628280723,-3.5044618289947778,189.722,8959.781364859911,11075.263430171775,150,True,12.624210060801778,False,144.56583394128887,177.6114620041506,False,33.16150715567328,False,False
10,1970-07-23 11:28:50.090216031,2025-09-16,2025-09-26 20:03:29.021,AH,C,1335015796,JASSM,3,101,76,2,2,1,225,9,2,0,1,26,0,0,0,0,-155601.47204764312,-4777382.041963424,4213353.370573521,-2.71083,-1.01118,0.751842,34.125,-54.375,-60.0,0.0,0.0,0.0,0.0,0.0,0.0,2,0,41.586109417586925,-91.86548971950349,10000.002022147892,155.93941042046976,-0.0011370010797536,0.0048439521821688,,8959.781364859911,11075.263430171775,150,10,2025-09-16,2025-09-26 20:03:29.114,AH,C,3537843278,HAWK11,1,1,73,2,1,1,225,2,1,0,0,12,1,225,2,1,-145831.13903983062,-4791732.147432174,4197980.227995396,2.28736,2.7951,-0.368635,-101.375,42.75,45.0,-0.125,-7.40625,6.67188,-0.00585938,0.0078125,-0.00195312,4,0,41.39879860871628,-91.74319646354289,11076.299865799174,-62.47459613503692,1.191676694414389,-3.454528268733533,189.709,8959.781364859911,11075.263430171775,150,True,12.50710946712558,False,144.3172108292445,177.79371787100249,False,33.60477342201216,False,False
10,1970-07-23 11:28:50.100291027,2025-09-16,2025-09-26 20:03:30.029,AH,C,1336266750,JASSM,3,101,76,2,2,1,225,9,2,0,1,26,0,0,0,0,-155565.67126639312,-4777439.202119674,4213290.304167271,-2.71083,-1.01118,0.751842,34.125,-54.375,-60.0,0.0,0.0,0.0,0.0,0.0,0.0,2,0,41.58535061202893,-91.86503851190903,10000.001254460623,155.9397099049896,-0.0003065302746042,0.0048427516262784,,8959.781364859911,11075.263430171775,150,10,2025-09-16,2025-09-26 20:03:29.816,AH,C,3538638610,HAWK11,1,1,73,2,1,1,225,2,1,0,0,12,1,225,2,1,-145899.47693045562,-4791703.911104049,4198010.577604771,2.28573,2.80277,-0.36921,-101.5,40.625,46.625,-0.296875,-7.70312,7.01562,0.00585938,0.00976562,-0.00585938,4,0,41.3991590720043,-91.74402310869912,11077.805731361752,-62.73863971533716,1.5081485575887397,-3.395680352224243,189.514,8959.781364859911,11075.263430171775,150,True,12.42164747614207,False,144.1960229767333,177.88792275168697,False,33.859092797523004,False,False
10,1970-07-23 11:28:50.110330856,2025-09-16,2025-09-26 20:03:31.033,AH,C,1337461378,JASSM,3,101,76,2,2,1,225,9,2,0,1,26,0,0,0,0,-155531.48278983062,-4777493.788057174,4213230.073698521,-2.71083,-1.01118,0.751842,34.125,-54.375,-60.0,0.0,0.0,0.0,0.0,0.0,0.0,2,0,41.5846259489331,-91.86460763451316,9999.995321923412,155.9399958913554,0.0004865664336153,0.0048415933241785,,8959.781364859911,11075.263430171775,150,10,2025-09-16,2025-09-26 20:03:31.209,AH,C,3540388342,HAWK11,1,1,73,2,1,1,225,2,1,0,0,12,1,225,2,1,-146048.47107108062,-4791642.914033736,4198075.935026646,2.29119,2.80556,-0.368827,-101.625,41.375,44.625,-0.140625,-7.42188,6.60938,0.00976562,0.00195312,0.0078125,4,0,41.39993610567517,-91.74582523269316,11080.728137960936,-62.85942526234594,1.600634888060545,-3.0284258816667213,189.086,8959.781364859911,11075.263430171775,150,True,12.296929808224695,False,143.76317432868186,178.10555595057875,False,34.50742417248391,False,False
10,1970-07-23 11:28:50.121350729,2025-09-16,2025-09-26 20:03:32.135,AH,C,1338772038,JASSM,3,101,76,2,2,1,225,9,2,0,1,26,0,0,0,0,-155493.97400076812,-4777553.674775924,4213163.995573521,-2.71083,-1.01118,0.751842,34.125,-54.375,-60.0,0.0,0.0,0.0,0.0,0.0,0.0,2,0,41.58383092116256,-91.86413492249127,9999.996137961232,155.940309639921,0.0013566733446613,0.0048403285121644,,8959.781364859911,11075.263430171775,150,10,2025-09-16,2025-09-26 20:03:32.208,AH,C,3541621108,HAWK11,1,1,73,2,1,1,225,2,1,0,0,12,1,225,2,1,-146152.79333670562,-4791600.802705611,4198121.440886021,2.28851,2.80929,-0.364992,-101.625,41.0,44.5,-0.234375,-7.29688,6.5625,0.00195312,0.0,0.00195312,4,0,41.40047486854928,-91.74708684596884,11083.69789030636,-63.15730397594243,1.5915414156817866,-3.113698932303942,188.72,8959.781364859911,11075.263430171775,150,True,12.191150933257788,False,143.6206599432855,178.25486813191776,False,34.81969031146263,False,False
10,1970-07-23 11:28:50.131386791,2025-09-16,2025-09-26 20:03:33.138,AH,C,1339965084,JASSM,3,101,76,2,2,1,225,9,2,0,1,26,0,0,0,0,-155459.83142264312,-4777608.186494674,4213103.847136021,-2.71083,-1.01118,0.751938,34.125,-54.375,-60.0,0.0,0.0,0.0,0.0,0.0,0.0,2,0,41.58310724083723,-91.86370464409036,9999.998850936368,155.94288783105156,-0.0028413170135216,0.0048391631202729,,8959.781364859911,11075.263430171775,150,10,2025-09-16,2025-09-26 20:03:32.208,AH,C,3541621108,HAWK11,1,1,73,2,1,1,225,2,1,0,0,12,1,225,2,1,-146152.79333670562,-4791600.802705611,4198121.440886021,2.28851,2.80929,-0.364992,-101.625,41.0,44.5,-0.234375,-7.29688,6.5625,0.00195312,0.0,0.00195312,4,0,41.40047486854928,-91.74708684596884,11083.69789030636,-63.15730397594243,1.5915414156817866,-3.113698932303942,188.72,8959.781364859911,11075.263430171775,150,True,12.143672427462677,False,143.6206599432855,178.24790354085775,False,34.813462576604664,False,False
10,1970-07-23 11:28:50.142248199,2025-09-16,2025-09-26 20:03:34.224,AH,C,1341220076,JASSM,3,101,76,2,2,1,225,9,2,0,1,26,0,0,0,0,-155423.91540701812,-4777665.528291549,4213040.573698521,-2.71083,-1.01109,0.751938,34.125,-54.375,-60.0,0.0,0.0,0.0,0.0,0.0,0.0,2,0,41.58234597226668,-91.86325202702804,10000.000979323238,155.93954375285873,-0.0036827260611595,0.0010871859020262,,8959.781364859911,11075.263430171775,150,10,2025-09-16,2025-09-26 20:03:34.300,AH,C,3544086638,HAWK11,1,1,73,2,1,1,225,2,1,0,0,12,1,225,2,1,-146363.77380545562,-4791516.913057174,4198212.548307896,2.28573,2.81323,-0.361252,-101.75,40.25,43.875,-0.359375,-7.14062,6.51562,-0.00195312,-0.0078125,-0.00976562,4,0,41.40155059277855,-91.74963791896798,11090.862389939048,-63.45947262197417,1.5953124570515964,-3.201466629864804,187.852,8959.781364859911,11075.263430171775,150,True,11.986370787791676,False,143.18618896677899,178.55397302171798,False,35.60607463565318,False,False
10,1970-07-23 11:28:50.153288624,2025-09-16,2025-09-26 20:03:35.328,AH,C,1342589786,JASSM,3,101,76,2,2,1,225,9,2,0,1,26,0,0,0,0,-155384.71618826812,-4777728.110322799,4212971.515104771,-2.71083,-1.01109,0.751938,34.125,-54.375,-60.0,0.0,0.0,0.0,0.0,0.0,0.0,2,0,41.58151511328267,-91.8627580474724,10000.002054609738,155.9398716023963,-0.0027734101747126,0.0010858436296082,,8959.781364859911,11075.263430171775,150,10,2025-09-16,2025-09-26 20:03:35.208,AH,C,3544881970,HAWK11,1,1,73,2,1,1,225,2,1,0,0,12,1,225,2,1,-146431.67224295562,-4791490.321260299,4198241.544401646,2.28429,2.81543,-0.358376,-101.875,39.875,43.75,-0.375,-7.125,6.64062,0.0,-0.0117188,-0.0175781,4,0,41.401892169638806,-91.75045878313053,11093.469067004353,-63.66070788363359,1.566098060424039,-3.2449476771664805,187.608,8959.781364859911,11075.263430171775,150,True,11.897654719590236,False,143.01120775782806,178.6446323976147,False,35.8969436146051,False,False
10,1970-07-23 11:28:50.164309911,2025-09-16,2025-09-26 20:03:36.430,AH,C,1343843078,JASSM,3,101,76,2,2,1,225,9,2,0,1,26,0,0,0,0,-155348.84900076812,-4777785.372041549,4212908.323698521,-2.71083,-1.01109,0.751938,34.125,-54.375,-60.0,0.0,0.0,0.0,0.0,0.0,0.0,2,0,41.5807548615407,-91.86230606877088,9999.999517061196,155.94017157165328,-0.0019413738724592,0.0010846087815613,,8959.781364859911,11075.263430171775,150,10,2025-09-16,2025-09-26 20:03:36.616,AH,C,3546790768,HAWK11,1,1,73,2,1,1,225,2,1,0,0,12,1,225,2,1,-146595.09607108062,-4791427.090791549,4198310.733854771,2.27921,2.82147,-0.352911,-102.125,39.375,43.375,-0.0625,-7.0625,6.54688,-0.00585938,0.0,0.00390625,4,0,41.4027056278362,-91.75243426182514,11100.35359871785,-64.11278687217455,1.5830806041694945,-3.4280461652980025,187.253,8959.781364859911,11075.263430171775,150,True,11.766141978432547,False,142.69195064782346,178.8593293035438,False,36.50511003839566,False,False
10,1970-07-23 11:28:50.175308818,2025-09-16,2025-09-26 20:03:37.530,AH,C,1345155482,JASSM,3,101,76,2,2,1,225,9,2,0,1,26,0,0,0,0,-155311.28943045562,-4777845.332979049,4212842.151823521,-2.71083,-1.01109,0.751938,34.125,-54.375,-60.0,0.0,0.0,0.0,0.0,0.0,0.0,2,0,41.579958759474415,-91.86183277598523,9999.997674059923,155.94048568181535,-0.0010701002418878,0.001083324704914,,8959.781364859911,11075.263430171775,150,10,2025-09-16,2025-09-26 20:03:37.614,AH,C,3547944000,HAWK11,1,1,73,2,1,1,225,2,1,0,0,12,1,225,2,1,-146694.25622733062,-4791388.932588424,4198352.519011021,2.27911,2.82109,-0.353103,-102.375,39.125,43.125,-0.015625,-7.10938,6.76562,0.00195312,-0.0136719,0.0,4,0,41.40319662557961,-91.753632864072,11104.624468419011,-64.09134907297822,1.5769169438605772,-3.4405677530099426,187.094,8959.781364859911,11075.263430171775,150,True,11.664657265108644,False,142.48242504777755,178.97211984853072,False,36.89152717029188,False,False
10,1970-07-23 11:28:50.186345723,2025-09-16,2025-09-26 20:03:38.634,AH,C,1346467336,JASSM,3,101,76,2,2,1,225,9,2,0,1,26,0,0,0,0,-155273.74646170562,-4777905.268525924,4212776.007292271,-2.71083,-1.01109,0.751938,34.125,-54.375,-60.0,0.0,0.0,0.0,0.0,0.0,0.0,2,0,41.57916298777028,-91.86135970358224,9999.999243586011,155.9407996407807,-0.0001991936949484,0.001082033539033,,8959.781364859911,11075.263430171775,150,10,2025-09-16,2025-09-26 20:03:38.504,AH,C,3548818866,HAWK11,1,1,73,2,1,1,225,2,1,0,0,12,1,225,2,1,-146768.47693045562,-4791360.625947799,4198383.519011021,2.28103,2.82185,-0.351665,-102.625,39.0,42.875,-0.234375,-7.17188,6.82812,-0.00390625,-0.00390625,-0.0078125,4,0,41.40356074926221,-91.75452992805518,11107.85293671456,-64.17989069643,1.5500850774220771,-3.3179775770906543,187.094,8959.781364859911,11075.263430171775,150,True,11.575835990400359,False,142.30856303474664,179.04387627434198,False,37.19860525540993,False,False
10,1970-07-23 11:28:50.196367557,2025-09-16,2025-09-26 20:03:39.636,AH,C,1347721912,JASSM,3,101,76,2,2,1,225,9,2,0,1,26,0,0,0,0,-155237.84216483062,-4777962.586885299,4212712.749479771,-2.71083,-1.01109,0.751938,34.125,-54.375,-60.0,0.0,0.0,0.0,0.0,0.0,0.0,2,0,41.57840195226801,-91.86090729110164,10000.001733737325,155.94109988397756,0.0006336956056765,0.0010808001905411,,8959.781364859911,11075.263430171775,150,10,2025-09-16,2025-09-26 20:03:39.709,AH,C,3550568598,HAWK11,1,1,73,2,1,1,225,2,1,0,0,12,1,225,2,1,-146920.21325858062,-4791303.331025924,4198446.286589146,2.27691,2.82674,-0.349844,-103.0,38.5,42.625,-0.203125,-7.09375,6.82812,0.0,0.00585938,-0.015625,4,0,41.40429761038639,-91.75636369955554,11114.55849949063,-64.43897476639822,1.6685427446303764,-3.4652285170270285,187.375,8959.781364859911,11075.263430171775,150,True,11.451693399610397,False,141.99857355036664,179.14852919204023,False,37.79363176620233,False,False
10,1970-07-23 11:28:50.207387390,2025-09-16,2025-09-26 20:03:40.738,AH,C,1349034292,JASSM,3,101,76,2,2,1,225,9,2,0,1,26,0,0,0,0,-155200.28357108062,-4778022.543916549,4212646.577604771,-2.71083,-1.01109,0.752034,34.125,-54.375,-60.0,0.0,0.0,0.0,0.0,0.0,0.0,2,0,41.57760586724614,-91.86043404589104,10000.004671094595,155.94370831226297,-0.0034880183744034,0.0010794767546187,,8959.781364859911,11075.263430171775,150,10,2025-09-16,2025-09-26 20:03:41.114,AH,C,3552159262,HAWK11,1,1,73,2,1,1,225,2,1,0,0,12,1,225,2,1,-147057.22107108062,-4791252.321260299,4198502.128386021,2.26454,2.8346,-0.343612,-103.5,38.375,42.0,-0.296875,-7.0,6.8125,-0.00195312,0.00585938,-0.00976562,4,0,41.40495299213087,-91.7580192424552,11120.5988355435,-64.99128955449605,1.7280552577685595,-4.037175624717031,187.693,8959.781364859911,11075.263430171775,150,True,11.333242286888165,False,141.64853151053558,179.16745611931543,False,38.401723580460754,False,False
10,1970-07-23 11:28:50.218268182,2025-09-16,2025-09-26 20:03:41.826,AH,C,1350344584,JASSM,3,101,76,2,2,1,225,9,2,0,1,26,0,0,0,0,-155162.78454764312,-4778082.403291549,4212580.507292271,-2.71083,-1.01109,0.752034,34.125,-54.375,-60.0,0.0,0.0,0.0,0.0,0.0,0.0,2,0,41.57681103527298,-91.85996156386872,9999.998762534053,155.94402186495765,-0.0026181446408483,0.0010782261213588,,8959.781364859911,11075.263430171775,150,10,2025-09-16,2025-09-26 20:03:41.912,AH,C,3553113662,HAWK11,1,1,73,2,1,1,225,2,1,0,0,12,1,225,2,1,-147140.01599295562,-4791221.967744674,4198535.284636021,2.25879,2.83834,-0.341311,-103.75,38.0,41.625,-0.015625,-7.10938,6.78125,0.0,-0.00585938,-0.00195312,4,0,41.40534224593424,-91.7590195427822,11124.137415178486,-65.22684351593526,1.7834892052799605,-4.302065605712472,187.656,8959.781364859911,11075.263430171775,150,True,11.241558825230742,False,141.36486815140293,179.137229752503,False,38.84765047383891,False,False
10,1970-07-23 11:28:50.229284710,2025-09-16,2025-09-26 20:03:42.928,AH,C,1351597814,JASSM,3,101,76,2,2,1,225,9,2,0,1,26,0,0,0,0,-155126.91833670562,-4778139.657197799,4212517.315886021,-2.71083,-1.01109,0.752034,34.125,-54.375,-60.0,0.0,0.0,0.0,0.0,0.0,0.0,2,0,41.57605081836169,-91.85950966549686,10000.004410660376,155.94432175314302,-0.0017861545136214,0.0010770333544956,,8959.781364859911,11075.263430171775,150,10,2025-09-16,2025-09-26 20:03:43.114,AH,C,3554545260,HAWK11,1,1,73,2,1,1,225,2,1,0,0,12,1,225,2,1,-147265.62146170562,-4791176.062471236,4198585.272917271,2.26205,2.84093,-0.337572,-104.125,37.625,41.375,-0.03125,-7.07812,6.89062,0.00195312,0.0,0.00390625,4,0,41.405929796393686,-91.76053703531916,11129.189264619918,-65.4794793115521,1.7378723598073544,-4.073691732960931,187.766,8959.781364859911,11075.263430171775,150,True,11.132051489022283,False,141.09199916680825,179.0395864113214,False,39.37183649140188,False,False
10,1970-07-23 11:28:50.239340573,2025-09-16,2025-09-26 20:03:43.934,AH,C,1352851500,JASSM,3,101,76,2,2,1,225,9,2,0,1,26,0,0,0,0,-155091.03943045562,-4778196.928682174,4212454.099089146,-2.71083,-1.01109,0.752034,34.125,-54.375,-60.0,0.0,0.0,0.0,0.0,0.0,0.0,2,0,41.575290326173565,-91.8590576188184,10000.001295273209,155.9446217352424,-0.0009538661650033,0.0010758376778725,,8959.781364859911,11075.263430171775,150,10,2025-09-16,2025-09-26 20:03:44.114,AH,C,3555738260,HAWK11,1,1,73,2,1,1,225,2,1,0,0,12,1,225,2,1,-147370.06872733062,-4791138.592744674,4198625.954557896,2.25927,2.84477,-0.3346,-104.5,37.375,40.875,-0.046875,-7.07812,6.79688,0.0,-0.00195312,0.0,4,0,41.40640819629881,-91.76179866868364,11133.203903819822,-65.74682682051132,1.7714864119878055,-4.168744319943391,187.974,8959.781364859911,11075.263430171775,150,True,11.03329452439822,False,140.77613985151245,178.91653396773975,False,39.899391253922076,False,False
10,1970-07-23 11:28:50.251327823,2025-09-16,2025-09-26 20:03:45.132,AH,C,1354222242,JASSM,3,101,76,2,2,1,225,9,2,0,1,26,0,0,0,0,-155051.81091483062,-4778259.547822799,4212384.977995396,-2.71083,-1.01109,0.752034,34.125,-54.375,-60.0,0.0,0.0,0.0,0.0,0.0,0.0,2,0,41.57445881155747,-91.8585633814337,9999.999704401258,155.94494971030423,-4.385639369641912e-05,0.0010745217440408,,8959.781364859911,11075.263430171775,150,10,2025-09-16,2025-09-26 20:03:45.030,AH,C,3556533592,HAWK11,1,1,73,2,1,1,225,2,1,0,0,12,1,225,2,1,-147439.92614920562,-4791113.716768111,4198652.894011021,2.26157,2.8486,-0.332203,-104.75,37.0,40.75,-0.0625,-7.125,6.9375,0.00976562,0.0078125,-0.0078125,4,0,41.40672523660258,-91.76264242849314,11135.762670096785,-65.9901221166756,1.827919986148092,-3.972654134576533,188.329,8959.781364859911,11075.263430171775,150,True,10.946300181872354,False,140.57223524041444,178.81584445710806,False,40.25220910937913,False,False
10,1970-07-23 11:28:50.261385783,2025-09-16,2025-09-26 20:03:46.138,AH,C,1355476820,JASSM,3,101,76,2,2,1,225,9,2,0,1,26,0,0,0,0,-155015.90661795562,-4778316.858369674,4212321.716276646,-2.71074,-1.01099,0.752034,34.125,-54.375,-60.0,0.0,0.0,0.0,0.0,0.0,0.0,2,0,41.57369778476504,-91.85811103764186,10000.001825745154,155.94160130421997,-0.0008877233349413,0.0028087715123844,,8959.781364859911,11075.263430171775,150,10,2025-09-16,2025-09-26 20:03:46.504,AH,C,3558680990,HAWK11,1,1,73,2,1,1,225,2,1,0,0,12,1,225,2,1,-147628.70739920562,-4791047.214814986,4198724.765104771,2.26243,2.85148,-0.328368,-105.375,36.625,40.0,-0.140625,-7.09375,6.82812,0.0,0.0,0.0,5,0,41.4075713967538,-91.7649223615938,11142.453065801466,-66.25843973242458,1.7915233303688367,-3.878278252514863,188.451,8959.781364859911,11075.263430171775,150,True,10.80968189878479,False,140.08588436119985,178.50755441583044,False,41.134934734485434,False,False
10,1970-07-23 11:28:50.272408422,2025-09-16,2025-09-26 20:03:47.240,AH,C,1356788882,JASSM,3,101,76,2,2,1,225,9,2,0,1,26,0,0,0,0,-154978.35681326812,-4778376.793916549,4212255.552214146,-2.71074,-1.01099,0.752034,34.125,-54.375,-60.0,0.0,0.0,0.0,0.0,0.0,0.0,2,0,41.57290186671561,-91.85763797472691,9999.998324201326,155.9419152182135,-1.6672038790141518e-05,0.0028074624884219,,8959.781364859911,11075.263430171775,150,10,2025-09-16,2025-09-26 20:03:47.300,AH,C,3559595622,HAWK11,1,1,73,2,1,1,225,2,1,0,0,12,1,225,2,1,-147709.72888358062,-4791019.034150924,4198755.196745396,2.25831,2.85397,-0.3253,-105.75,36.375,39.875,-0.265625,-7.125,6.90625,0.0,0.00390625,-0.00390625,4,0,41.40792959774406,-91.76590075228668,11145.32024518715,-66.47981350495834,1.7695044844659231,-4.0755203962452455,188.683,8959.781364859911,11075.263430171775,150,True,10.720690081373958,False,139.89140335306993,178.35541100624542,False,41.50935775664698,False,False
10,1970-07-23 11:28:50.283285101,2025-09-16,2025-09-26 20:03:48.328,AH,C,1358101384,JASSM,3,101,76,2,2,1,225,9,2,0,1,26,0,0,0,0,-154940.79431326812,-4778436.748994674,4212189.366667271,-2.71074,-1.01099,0.75213,34.125,-54.375,-60.0,0.0,0.0,0.0,0.0,0.0,0.0,2,0,41.57210568784616,-91.85716476377708,9999.999784727834,155.94452249171124,-0.004135044640418,0.0028060913725897,,8959.781364859911,11075.263430171775,150,10,2025-09-16,2025-09-26 20:03:48.410,AH,C,3560947688,HAWK11,1,1,73,2,1,1,225,2,1,0,0,12,1,225,2,1,-147830.31677420562,-4790977.415986861,4198799.933073521,2.25093,2.85934,-0.322424,-106.0,36.0,39.375,0.015625,-7.10938,6.8125,-0.00976562,0.0,-0.00195312,4,0,41.40845702307712,-91.76735683463524,11149.185792003778,-66.801086825374,1.869247774212673,-4.410827425888999,189.001,8959.781364859911,11075.263430171775,150,True,10.614237051940167,False,139.56884993456555,178.11928259602252,False,42.09968085068175,False,False
10,1970-07-23 11:28:50.294286293,2025-09-16,2025-09-26 20:03:49.428,AH,C,1359413602,JASSM,3,101,76,2,2,1,225,9,2,0,1,26,0,0,0,0,-154903.23962576812,-4778496.690400924,4212123.192839146,-2.71074,-1.01099,0.75213,34.125,-54.375,-60.0,0.0,0.0,0.0,0.0,0.0,0.0,2,0,41.571309665906725,-91.85669166333312,9999.998672209817,155.9448364208449,-0.0032638834111473,0.0028048180147111,,8959.781364859911,11075.263430171775,150,10,2025-09-16,2025-09-26 20:03:49.504,AH,C,3562220220,HAWK11,1,1,73,2,1,1,225,2,1,0,0,12,1,225,2,1,-147943.07458670562,-4790938.998018111,4198841.112761021,2.23693,2.86318,-0.318685,-106.5,35.625,39.0,-0.0625,-7.04688,6.75,-0.0117188,0.00195312,0.0,4,0,41.40894282338596,-91.76871820700909,11152.61878968202,-67.10108287566648,1.874958990977162,-5.153411945516105,189.355,8959.781364859911,11075.263430171775,150,True,10.511939657138647,False,139.23249935115095,177.88559884100937,False,42.69368462452297,False,False
10,1970-07-23 11:28:50.305306776,2025-09-16,2025-09-26 20:03:50.530,AH,C,1360724094,JASSM,3,101,76,2,2,1,225,9,2,0,1,26,0,0,0,0,-154865.73571951812,-4778556.549775924,4212057.106901646,-2.71074,-1.01099,0.75213,34.125,-54.375,-60.0,0.0,0.0,0.0,0.0,0.0,0.0,2,0,41.57051471343265,-91.85621921458517,9999.99652224486,155.94514991261448,-0.0023938957201624,0.0028035441206334,,8959.781364859911,11075.263430171775,150,10,2025-09-16,2025-09-26 20:03:50.410,AH,C,3563095084,HAWK11,1,1,73,2,1,1,225,2,1,0,0,12,1,225,2,1,-148021.35583670562,-4790912.770479049,4198869.323698521,2.23156,2.86634,-0.316767,-106.75,35.375,38.5,-0.1875,-7.0,6.78125,-0.0175781,-0.00390625,-0.00585938,4,0,41.409274886730834,-91.76966317720422,11155.278807525332,-67.29986721353872,1.9257349194984037,-5.411001592508834,189.355,8959.781364859911,11075.263430171775,150,True,10.425441883488718,False,138.94627337701414,177.71352201741107,False,43.163652231293334,False,False
10,1970-07-23 11:28:50.316339839,2025-09-16,2025-09-26 20:03:51.633,AH,C,1362038464,JASSM,3,101,76,2,2,1,225,9,2,0,1,26,0,0,0,0,-154828.11950858062,-4778616.588838424,4211990.823698521,-2.71074,-1.01099,0.75213,34.125,-54.375,-60.0,0.0,0.0,0.0,0.0,0.0,0.0,2,0,41.56971738002805,-91.8557453625642,10000.001651109944,155.94546433057573,-0.001521304155716,0.0028022671621745,,8959.781364859911,11075.263430171775,150,10,2025-09-16,2025-09-26 20:03:51.706,AH,C,3564884582,HAWK11,1,1,73,2,1,1,225,2,1,0,0,12,1,225,2,1,-148181.85778983062,-4790859.318330611,4198925.976042271,2.27882,2.87324,-0.305933,-107.25,35.25,37.625,0.015625,-6.92188,6.75,0.015625,-0.00390625,-0.00195312,4,0,41.40994575256815,-91.7716005826522,11158.958146775976,-68.01168438970117,1.7766114842849765,-2.60472961778848,189.709,8959.781364859911,11075.263430171775,150,True,10.30359701749781,False,138.52234908914775,177.359131017907,False,43.960103738227986,False,False
10,1970-07-23 11:28:50.327364781,2025-09-16,2025-09-26 20:03:52.736,AH,C,1363350510,JASSM,3,101,76,2,2,1,225,9,2,0,1,26,0,0,0,0,-154790.56970389312,-4778676.518525924,4211924.655729771,-2.71074,-1.01099,0.75213,34.125,-54.375,-60.0,0.0,0.0,0.0,0.0,0.0,0.0,2,0,41.56892146036501,-91.85527235999896,9999.999429355536,155.9457781799527,-0.0006502608148011,0.0028009948919628,,8959.781364859911,11075.263430171775,150,10,2025-09-16,2025-09-26 20:03:52.706,AH,C,3566077582,HAWK11,1,1,73,2,1,1,225,2,1,0,0,12,1,225,2,1,-148290.01599295562,-4790823.664033736,4198963.466276646,2.30135,2.87334,-0.309577,-107.5,35.0,37.625,-0.328125,-7.14062,6.79688,0.0410156,-0.00195312,0.00390625,4,0,41.41039100504033,-91.77290603797032,11160.856879357692,-67.86380829485593,1.924312542466126,-1.3074159531520706,189.868,8959.781364859911,11075.263430171775,150,True,10.20516986178675,False,138.39816037019133,177.1067583873858,False,44.35149595819798,False,False
10,1970-07-23 11:28:50.338387776,2025-09-16,2025-09-26 20:03:53.838,AH,C,1364603528,JASSM,3,101,76,2,2,1,225,9,2,0,1,26,0,0,0,0,-154754.70935233062,-4778733.750947799,4211861.464323521,-2.71074,-1.01099,0.75213,34.125,-54.375,-60.0,0.0,0.0,0.0,0.0,0.0,0.0,2,0,41.56816135108064,-91.85482065010422,9999.998571548753,155.9460778964877,0.0001815904218647,0.0027997804347606,,8959.781364859911,11075.263430171775,150,10,2025-09-16,2025-09-26 20:03:53.800,AH,C,3567389880,HAWK11,1,1,73,2,1,1,225,2,1,0,0,12,1,225,2,1,-148407.55896170562,-4790785.028291549,4199004.233854771,2.35562,2.87247,-0.309481,-107.5,35.25,37.625,-0.15625,-7.07812,6.82812,0.125,0.00390625,-0.00195312,4,0,41.41087437126169,-91.77432474458114,11163.257634606069,-67.83652170013842,1.8873810115813685,1.7875603578181976,190.027,8959.781364859911,11075.263430171775,150,True,10.105355454528913,False,138.4703095871246,176.826467139944,False,44.56931858119624,False,False
10,1970-07-23 11:28:50.349245982,2025-09-16,2025-09-26 20:03:54.924,AH,C,1365975004,JASSM,3,101,76,2,2,1,225,9,2,0,1,26,0,0,0,0,-154715.45935233062,-4778796.393525924,4211792.298307896,-2.71074,-1.01099,0.75213,34.125,-54.375,-60.0,0.0,0.0,0.0,0.0,0.0,0.0,2,0,41.56732937903862,-91.85432625498224,10000.000190118995,155.94640593017493,0.0010920826653493,0.0027984462147599,,8959.781364859911,11075.263430171775,150,10,2025-09-16,2025-09-26 20:03:54.800,AH,C,3568543112,HAWK11,1,1,73,2,1,1,225,2,1,0,0,12,1,225,2,1,-148511.23278983062,-4790750.807588424,4199041.337370396,2.7465,2.8742,-0.323382,-107.25,33.5,40.5,-0.21875,-7.125,6.95312,0.521484,0.0195312,0.00585938,4,0,41.41130928013322,-91.77557612543345,11167.516403820238,-67.32018674345503,2.50176147393485,24.2337230149897,190.259,8959.781364859911,11075.263430171775,150,False,10.006467475525675,False,138.92410373909064,176.56973246190898,False,44.414499856401186,False,False
10,1970-07-23 11:28:50.361269533,2025-09-16,2025-09-26 20:03:56.126,AH,C,1367345582,JASSM,3,101,76,2,2,1,225,9,2,0,1,26,0,0,0,0,-154676.23474295562,-4778858.993135299,4211723.177214146,-2.71074,-1.01099,0.752226,34.125,-54.375,-60.0,0.0,0.0,0.0,0.0,0.0,0.0,2,0,41.56649795874964,-91.85383219330284,10000.00146961509,155.94902843039,-0.002990840353557,0.0027970988275123,,8959.781364859911,11075.263430171775,150,10,2025-09-16,2025-09-26 20:03:56.004,AH,C,3569855412,HAWK11,1,1,73,2,1,1,225,2,1,0,0,12,1,225,2,1,-148627.12927420562,-4790708.194307174,4199085.575651646,2.97937,2.81687,-0.393083,-103.875,40.0,43.25,-0.28125,-8.84375,8.51562,0.0585938,0.0410156,0.103516,4,0,41.41184000684879,-91.77697667283608,11167.55775278084,-62.30204999284598,3.026860882614874,36.66605292455471,189.905,8959.781364859911,11075.263430171775,150,False,9.900107170487402,False,142.40936621507157,176.28361719330601,False,41.1935489962047,False,False
10,1970-07-23 11:28:50.371307591,2025-09-16,2025-09-26 20:03:57.130,AH,C,1368598762,JASSM,3,101,76,2,2,1,225,9,2,0,1,26,0,0,0,0,-154640.36950858062,-4778916.229463424,4211659.976042271,-2.71074,-1.01099,0.752226,34.125,-54.375,-60.0,0.0,0.0,0.0,0.0,0.0,0.0,2,0,41.56573775536364,-91.85338045717414,10000.002597086825,155.9493281500834,-0.0021588899512611,0.0027959227091907,,8959.781364859911,11075.263430171775,150,10,2025-09-16,2025-09-26 20:03:57.004,AH,C,3571167710,HAWK11,1,1,73,2,1,1,225,2,1,0,0,12,1,225,2,1,-148738.68786795562,-4790661.603486861,4199135.808073521,3.06115,2.7254,-0.463454,-99.25,44.625,48.75,-0.171875,-9.01562,8.75,0.0273438,0.0351562,0.0390625,4,0,41.41243563859599,-91.77832688788912,11170.503020807768,-56.07561759377331,2.5026792235379776,39.473457143496354,190.663,8959.781364859911,11075.263430171775,150,False,9.795795172337899,False,146.51127694710624,176.01070964933277,False,37.37508370614717,False,False
10,1970-07-23 11:28:50.382346705,2025-09-16,2025-09-26 20:03:58.234,AH,C,1369852958,JASSM,3,101,76,2,2,1,225,9,2,0,1,26,0,0,0,0,-154604.47595389312,-4778973.510713424,4211596.720182896,-2.71074,-1.01089,0.752226,34.125,-54.375,-60.0,0.0,0.0,0.0,0.0,0.0,0.0,2,0,41.564976919254974,-91.85292837504912,9999.997056927314,155.94598481510383,-0.0030008484031966,-0.0009572639364538,,8959.781364859911,11075.263430171775,150,10,2025-09-16,2025-09-26 20:03:58.206,AH,C,3572639074,HAWK11,1,1,73,2,1,1,225,2,1,0,0,12,1,225,2,1,-148857.97107108062,-4790602.612275924,4199199.438932896,3.04601,2.6837,-0.504009,-93.75,50.25,54.375,-0.234375,-8.76562,8.45312,-0.0371094,0.03125,0.0742188,4,0,41.41319403392039,-91.7797740284246,11172.628541018816,-52.93919601237065,2.7277173877469787,37.63705607990976,189.905,8959.781364859911,11075.263430171775,150,False,9.681013361127018,False,151.14882436896514,175.72638755098723,False,33.023069836624146,False,False
10,1970-07-23 11:28:50.393344647,2025-09-16,2025-09-26 20:03:59.334,AH,C,1371222902,JASSM,3,101,76,2,2,1,225,9,2,0,1,26,0,0,0,0,-154565.26892264312,-4779036.079072799,4211527.628386021,-2.71074,-1.01089,0.752226,34.125,-54.375,-60.0,0.0,0.0,0.0,0.0,0.0,0.0,2,0,41.56414587298633,-91.85243457183898,10000.001744391924,155.9463124355981,-0.0020913746268572,-0.000958610068212,,8959.781364859911,11075.263430171775,150,10,2025-09-16,2025-09-26 20:03:59.300,AH,C,3573871840,HAWK11,1,1,73,2,1,1,225,2,1,0,0,12,1,225,2,1,-148953.11364920562,-4790548.429658736,4199258.132292271,3.08023,2.61218,-0.546577,-88.875,54.125,58.875,-0.28125,-8.67188,8.35938,-0.00585938,0.0410156,0.0449219,4,0,41.41389494320062,-91.780930968452,11174.029170622613,-48.67184257166753,2.154662085418983,37.72392276177504,190.382,8959.781364859911,11075.263430171775,150,False,9.569499124999478,False,154.83248564349273,175.4978401946188,False,29.574708662480866,True,False
10,1970-07-23 11:28:50.404364582,2025-09-16,2025-09-26 20:04:00.436,AH,C,1372476380,JASSM,3,101,76,2,2,1,225,9,2,0,1,26,0,0,0,0,-154529.39587576812,-4779093.327119674,4211464.407682896,-2.71074,-1.01089,0.752226,34.125,-54.375,-60.0,0.0,0.0,0.0,0.0,0.0,0.0,2,0,41.56338546385923,-91.85198277037156,10000.002125513089,155.94661218474852,-0.0012592114644896,-0.0009598536031119,,8959.781364859911,11075.263430171775,150,10,2025-09-16,2025-09-26 20:04:00.504,AH,C,3575303438,HAWK11,1,1,73,2,1,1,225,2,1,0,0,12,1,225,2,1,-149056.20349295562,-4790479.993135299,4199331.714323521,3.05483,2.56328,-0.590295,-83.0,58.5,63.75,-0.109375,-8.89062,8.5625,-0.0507812,0.0371094,0.0585938,4,0,41.41477966306028,-91.78218819240398,11173.304673236384,-45.24767296893003,2.523669944670614,34.89939387932443,190.149,8959.781364859911,11075.263430171775,150,False,9.450867778135406,False,159.04096212740464,175.26241545344283,False,25.607096700466094,True,False
10,1970-07-23 11:28:50.415408640,2025-09-16,2025-09-26 20:04:01.540,AH,C,1373849022,JASSM,3,101,76,2,2,1,225,9,2,0,1,26,0,0,0,0,-154490.11169608062,-4779156.014619674,4211395.177214146,-2.71074,-1.01089,0.752226,34.125,-54.375,-60.0,0.0,0.0,0.0,0.0,0.0,0.0,2,0,41.56255278344632,-91.85148802132746,10000.001258438911,155.94694042244078,-0.0003479532682191,-0.0009612012632736,,8959.781364859911,11075.263430171775,150,10,2025-09-16,2025-09-26 20:04:01.410,AH,C,3576456670,HAWK11,1,1,73,2,1,1,225,2,1,0,0,12,1,225,2,1,-149133.51599295562,-4790422.219697799,4199394.765104771,3.05972,2.50576,-0.629028,-78.125,61.25,67.625,-0.25,-9.10938,8.78125,-0.015625,0.0371094,0.0449219,4,0,41.41553462407809,-91.7831334723226,11173.983686302428,-41.74872506275991,2.548045220242488,33.44651320380831,190.382,8959.781364859911,11075.263430171775,150,False,9.339623097499153,False,162.2801983895513,175.08248893324728,False,22.563046657439354,True,False
10,1970-07-23 11:28:50.426264944,2025-09-16,2025-09-26 20:04:02.626,AH,C,1375161404,JASSM,3,101,76,2,2,1,225,9,2,0,1,26,0,0,0,0,-154452.55212576812,-4779215.950166549,4211328.983854771,-2.71074,-1.01089,0.752226,34.125,-54.375,-60.0,0.0,0.0,0.0,0.0,0.0,0.0,2,0,41.561756641229536,-91.85101500403984,10000.000856262155,155.94725423730478,0.0005233138191234,-0.0009624959066369,,8959.781364859911,11075.263430171775,150,10,2025-09-16,2025-09-26 20:04:02.706,AH,C,3577928036,HAWK11,1,1,73,2,1,1,225,2,1,0,0,12,1,225,2,1,-149225.52575858062,-4790344.552705611,4199481.122526646,3.06681,2.449,-0.679362,-71.375,64.25,72.375,-0.3125,-9.04688,8.89062,-0.0410156,0.0410156,0.0449219,4,0,41.4165625144828,-91.78426179717428,11177.45745556709,-37.94535019806359,3.2828024662582838,32.06671641579063,190.149,8959.781364859911,11075.263430171775,150,False,9.212703772773164,False,166.43386966616492,174.88329090879662,False,18.637079120148282,True,False
10,1970-07-23 11:28:50.437283041,2025-09-16,2025-09-26 20:04:03.728,AH,C,1376473184,JASSM,3,101,76,2,2,1,225,9,2,0,1,26,0,0,0,0,-154415.01013358062,-4779275.856416549,4211262.819792271,-2.71064,-1.01089,0.752322,34.125,-54.375,-60.0,0.0,0.0,0.0,0.0,0.0,0.0,2,0,41.56096086567022,-91.8505422202132,9999.998564044396,155.9498614868658,-0.0035953814195666,0.004527636158459,,8959.781364859911,11075.263430171775,150,10,2025-09-16,2025-09-26 20:04:03.706,AH,C,3579160802,HAWK11,1,1,73,2,1,1,225,2,1,0,0,12,1,225,2,1,-149296.03357108062,-4790276.843721236,4199557.708464146,3.07381,2.38841,-0.720779,-65.875,65.75,76.125,-0.203125,-8.96875,8.75,-0.0234375,0.0410156,0.0527344,4,0,41.41746918346371,-91.7851295161553,11182.574392908704,-34.40135862702257,3.683278253430844,30.44553786092688,190.113,8959.781364859911,11075.263430171775,150,False,9.096578453554736,False,169.56213252073053,174.73247409133572,False,15.69440714699374,True,False
10,1970-07-23 11:28:50.448304670,2025-09-16,2025-09-26 20:04:04.830,AH,C,1377726606,JASSM,3,101,76,2,2,1,225,9,2,0,1,26,0,0,0,0,-154379.13806326812,-4779333.096650924,4211199.599089146,-2.71064,-1.01089,0.752322,34.125,-54.375,-60.0,0.0,0.0,0.0,0.0,0.0,0.0,2,0,41.56020049511788,-91.8500904778322,9999.998320583589,155.9501611780559,-0.0027632646352492,0.0045264347319843,,8959.781364859911,11075.263430171775,150,10,2025-09-16,2025-09-26 20:04:04.910,AH,C,3580632166,HAWK11,1,1,73,2,1,1,225,2,1,0,0,12,1,225,2,1,-149373.29919608062,-4790193.350557174,4199654.581511021,3.07045,2.32676,-0.763155,-59.0,67.5,79.875,-0.25,-8.60938,8.39062,-0.123047,0.0117188,0.0371094,4,0,41.41860542213787,-91.78608389214756,11193.434808420794,-30.885285399581942,4.286469358845273,28.11000579954347,189.477,8959.781364859911,11075.263430171775,150,False,8.96853559529413,False,173.1850572669698,174.58190258494562,False,12.226008897828688,True,False
10,1970-07-23 11:28:50.459323972,2025-09-16,2025-09-26 20:04:05.932,AH,C,1379037356,JASSM,3,101,76,2,2,1,225,9,2,0,1,26,0,0,0,0,-154341.62536795562,-4779392.954072799,4211133.485807896,-2.71064,-1.01089,0.752322,34.125,-54.375,-60.0,0.0,0.0,0.0,0.0,0.0,0.0,2,0,41.55940534321908,-91.84961808642016,9999.99850919475,155.9504745632385,-0.0018930874319267,0.004525176741002,,8959.781364859911,11075.263430171775,150,10,2025-09-16,2025-09-26 20:04:05.800,AH,C,3581666098,HAWK11,1,1,73,2,1,1,225,2,1,0,0,12,1,225,2,1,-149422.17810233062,-4790134.538057174,4199723.288542271,2.87382,2.28314,-0.771113,-55.625,68.375,81.375,0.203125,-7.5,7.26562,-0.273438,0.00976562,0.0390625,4,0,41.419409981633954,-91.78668988963948,11201.68587187562,-29.1079001993432,3.739605567198854,15.233028310770951,188.891,8959.781364859911,11075.263430171775,150,False,8.862124570597818,False,174.8479904774829,174.4809920336406,False,10.623250926336514,True,False
10,1970-07-23 11:28:50.469383841,2025-09-16,2025-09-26 20:04:06.938,AH,C,1380290070,JASSM,3,101,76,2,2,1,225,9,2,0,1,26,0,0,0,0,-154305.77282889312,-4779450.161104049,4211070.298307896,-2.71064,-1.01089,0.752322,34.125,-54.375,-60.0,0.0,0.0,0.0,0.0,0.0,0.0,2,0,41.55864538678356,-91.84916661243712,9999.99962645799,155.95077406716428,-0.0010614273337804,0.0045239770070376,,8959.781364859911,11075.263430171775,150,10,2025-09-16,2025-09-26 20:04:07.006,AH,C,3583137464,HAWK11,1,1,73,2,1,1,225,2,1,0,0,12,1,225,2,1,-149490.11755545562,-4790048.706025924,4199824.952604771,2.65983,2.27566,-0.786453,-53.625,68.25,82.625,-0.265625,-7.89062,7.65625,-0.0976562,0.0117188,-0.0273438,4,0,41.42059418585917,-91.7875337461618,11216.497717997448,-28.39837191020007,4.344074125820176,2.721355486858869,189.086,8959.781364859911,11075.263430171775,150,True,8.733050324252234,False,175.57211759063168,174.35794928515222,False,9.901306225953183,True,False
10,1970-07-23 11:28:50.480409015,2025-09-16,2025-09-26 20:04:08.040,AH,C,1381544780,JASSM,3,101,76,2,2,1,225,9,2,0,1,26,0,0,0,0,-154269.86364920562,-4779507.456025924,4211007.011198521,-2.71064,-1.01089,0.752322,34.125,-54.375,-60.0,0.0,0.0,0.0,0.0,0.0,0.0,2,0,41.55788424416228,-91.84871443676964,9999.9995281344,155.95107403207265,-0.0002284684173727,0.0045227813418893,,8959.781364859911,11075.263430171775,150,10,2025-09-16,2025-09-26 20:04:07.912,AH,C,3584211162,HAWK11,1,1,73,2,1,1,225,2,1,0,0,12,1,225,2,1,-149537.84802420562,-4789987.016572799,4199899.255339146,2.63538,2.29253,-0.778879,-52.875,67.875,83.0,-0.21875,-7.1875,7.0,0.00195312,0.0,-0.0195312,4,0,41.4214538299691,-91.78812712834625,11229.745485503989,-29.21203497159219,4.320960337163544,1.9409025556283068,188.292,8959.781364859911,11075.263430171775,150,True,8.62596106983399,False,175.6938229040194,174.26200066065562,False,9.786102882013209,True,False
10,1970-07-23 11:28:50.502280091,2025-09-16,2025-09-26 20:04:10.228,AH,C,1384167790,JASSM,3,101,76,2,2,1,225,9,2,0,1,26,0,0,0,0,-154194.79528983062,-4779627.233369674,4210874.700651646,-2.71064,-1.0108,0.752322,34.125,-54.375,-60.0,0.0,0.0,0.0,0.0,0.0,0.0,2,0,41.55629299614165,-91.84776919429444,9999.99999275988,155.9480582308535,-0.0001617824734415,0.0007676924138045,,8959.781364859911,11075.263430171775,150,10,2025-09-16,2025-09-26 20:04:10.302,AH,C,3587074360,HAWK11,1,1,73,2,1,1,225,2,1,0,0,12,1,225,2,1,-149663.76403983062,-4789821.907197799,4200097.003386021,2.40154,2.26895,-0.769195,-52.875,68.875,81.5,0.03125,-6.70312,6.46875,-0.148438,0.0292969,-0.0234375,4,0,41.423747393602525,-91.78969346430112,11262.659400092616,-28.660662376262035,3.355164517212836,-12.364665049806666,187.217,8959.781364859911,11075.263430171775,150,False,8.369292955413718,False,176.05652322064446,174.01988992412817,False,9.836519341736144,True,False
10,1970-07-23 11:28:50.534361544,2025-09-16,2025-09-26 20:04:13.436,AH,C,1387987192,JASSM,3,101,76,2,2,1,225,9,2,0,1,26,0,0,0,0,-154085.48571951812,-4779801.633760299,4210682.036589146,-2.71064,-1.0108,0.752418,34.125,-54.375,-60.0,0.0,0.0,0.0,0.0,0.0,0.0,2,0,41.55397596490136,-91.84639288217345,10000.002307072107,155.9512665431214,-0.0026186760871063,0.0007638651567496,,8959.781364859911,11075.263430171775,150,10,2025-09-16,2025-09-26 20:04:13.411,AH,C,3590653356,HAWK11,1,1,73,2,1,1,225,2,1,0,0,12,1,225,2,1,-149836.58435233062,-4789620.350557174,4200335.241667271,1.903,2.3979,-0.695277,-63.75,65.125,75.875,0.1875,-6.96875,6.78125,-0.0644531,0.0117188,-0.0566406,4,0,41.42652232014598,-91.79183407123551,11297.502168264857,-35.57528639120379,2.722797787607841,-36.34970436613823,187.302,8959.781364859911,11075.263430171775,150,False,8.03000017958417,False,170.23675982908208,173.61408677543608,False,16.141016924304225,True,False
10,1970-07-23 11:28:50.545380604,2025-09-16,2025-09-26 20:04:14.538,AH,C,1389298308,JASSM,3,101,76,2,2,1,225,9,2,0,1,26,0,0,0,0,-154047.96228201812,-4779861.498994674,4210615.895964146,-2.71064,-1.0108,0.752418,34.125,-54.375,-60.0,0.0,0.0,0.0,0.0,0.0,0.0,2,0,41.55318056825988,-91.84592044975707,9999.999049646023,155.9515799170973,-0.0017482489826953,0.0007625833288171,,8959.781364859911,11075.263430171775,150,10,2025-09-16,2025-09-26 20:04:14.613,AH,C,3592084954,HAWK11,1,1,73,2,1,1,225,2,1,0,0,12,1,225,2,1,-149916.39294608062,-4789541.842744674,4200423.503386021,1.89082,2.44143,-0.636506,-69.0,65.0,71.5,0.0,-7.73438,7.51562,0.0292969,0.0625,-0.0488281,4,0,41.42757024166387,-91.79281721403514,11302.210576814978,-39.12476987965186,1.110987777544956,-35.62469603756375,187.571,8959.781364859911,11075.263430171775,150,False,7.9047957972191165,False,167.32266906933066,173.40509939171946,False,19.18277638234418,True,False
10,1970-07-23 11:28:50.556401062,2025-09-16,2025-09-26 20:04:15.640,AH,C,1390610504,JASSM,3,101,76,2,2,1,225,9,2,0,1,26,0,0,0,0,-154010.40759451812,-4779921.413057174,4210549.702604771,-2.71064,-1.0108,0.752418,34.125,-54.375,-60.0,0.0,0.0,0.0,0.0,0.0,0.0,2,0,41.55238452909958,-91.8454476358869,10000.003206146752,155.95189353916555,-0.0008771170216873,0.0007613090894388,,8959.781364859911,11075.263430171775,150,10,2025-09-16,2025-09-26 20:04:15.506,AH,C,3593118886,HAWK11,1,1,73,2,1,1,225,2,1,0,0,12,1,225,2,1,-149977.83825858062,-4789487.029268111,4200483.659636021,1.87577,2.50087,-0.612154,-73.5,62.875,68.75,-0.03125,-8.625,8.5,0.046875,0.0351562,-0.0273438,4,0,41.42829091879287,-91.79357205816063,11302.75944887998,-42.17237136201954,1.660942666592023,-34.56949620647648,188.011,8959.781364859911,11075.263430171775,150,False,7.801453565464497,False,164.580182922263,173.21981295374218,False,22.09816155606123,True,False
10,1970-07-23 11:28:50.566278805,2025-09-16,2025-09-26 20:04:16.627,AH,C,1391864020,JASSM,3,101,76,2,2,1,225,9,2,0,1,26,0,0,0,0,-153974.53259451812,-4779978.645479049,4210486.466276646,-2.71064,-1.0108,0.752418,34.125,-54.375,-60.0,0.0,0.0,0.0,0.0,0.0,0.0,2,0,41.55162407935209,-91.84499598086494,9999.999279916148,155.95219312175368,-4.493623571795875e-05,0.0007600861632345,,8959.781364859911,11075.263430171775,150,10,2025-09-16,2025-09-26 20:04:16.708,AH,C,3594669786,HAWK11,1,1,73,2,1,1,225,2,1,0,0,12,1,225,2,1,-150078.24450858062,-4789408.200166549,4200570.886198521,1.89773,2.56721,-0.573229,-80.125,58.75,65.125,0.046875,-8.23438,8.15625,0.0371094,0.00976562,-0.046875,4,0,41.42932991101678,-91.79480154371842,11306.035411866163,-46.02847023186036,1.9113884989423224,-31.307520011041813,188.451,8959.781364859911,11075.263430171775,150,False,7.6759852184388615,False,160.43924158582277,172.92184555134645,False,26.550195590704526,True,False
10,1970-07-23 11:28:50.578301061,2025-09-16,2025-09-26 20:04:17.830,AH,C,1393234608,JASSM,3,101,76,2,2,1,225,9,2,0,1,26,0,0,0,0,-153935.30603201812,-4780041.223604049,4210417.323698521,-2.71064,-1.0108,0.752418,34.125,-54.375,-60.0,0.0,0.0,0.0,0.0,0.0,0.0,2,0,41.55079260060566,-91.84450214327596,10000.00049537159,155.95252067886662,0.0008649742165239,0.0007587555565878,,8959.781364859911,11075.263430171775,150,10,2025-09-16,2025-09-26 20:04:17.708,AH,C,3595862784,HAWK11,1,1,73,2,1,1,225,2,1,0,0,12,1,225,2,1,-150161.19763358062,-4789349.812471236,4200634.513151646,1.91853,2.59358,-0.537852,-83.875,57.0,62.0,-0.03125,-7.51562,7.23438,0.046875,0.0234375,-0.0390625,4,0,41.43009125208432,-91.79581481794922,11307.00254925438,-48.32014761723176,1.1978403906791268,-29.38084494406953,187.901,8959.781364859911,11075.263430171775,150,False,7.56485566169686,False,157.96735434593117,172.64426259616695,False,29.27934002044396,True,False
10,1970-07-23 11:28:50.589133545,2025-09-16,2025-09-26 20:04:18.913,AH,C,1394487310,JASSM,3,101,76,2,2,1,225,9,2,0,1,26,0,0,0,0,-153899.45446951812,-4780098.418916549,4210354.126432896,-2.71064,-1.0108,0.752513,34.125,-54.375,-60.0,0.0,0.0,0.0,0.0,0.0,0.0,2,0,41.550032626912426,-91.84405080535932,10000.001587109016,155.95511396453023,-0.0032927801911334,0.0007574946569939,,8959.781364859911,11075.263430171775,150,10,2025-09-16,2025-09-26 20:04:18.720,AH,C,3597016016,HAWK11,1,1,73,2,1,1,225,2,1,0,0,12,1,225,2,1,-150243.58239920562,-4789295.817354049,4200692.446745396,1.94988,2.62723,-0.512829,-87.125,55.125,59.375,-0.046875,-7.60938,7.32812,0.0527344,0.015625,-0.0429688,4,0,41.43078813223914,-91.79681967608526,11306.37271355403,-50.52071038363866,1.2173083447027453,-26.663889280018463,188.487,8959.781364859911,11075.263430171775,150,False,7.462378627278477,False,155.76641365658864,172.35807326100132,False,31.7586891667459,False,False
10,1970-07-23 11:28:50.599385566,2025-09-16,2025-09-26 20:04:19.938,AH,C,1395740098,JASSM,3,101,76,2,2,1,225,9,2,0,1,26,0,0,0,0,-153863.59997733062,-4780155.616182174,4210290.925261021,-2.71064,-1.0108,0.752513,34.125,-54.375,-60.0,0.0,0.0,0.0,0.0,0.0,0.0,2,0,41.5492726139488,-91.84359944218224,10000.00314380497,155.95541333972318,-0.0024610822024516,0.0007563082410416,,8959.781364859911,11075.263430171775,150,10,2025-09-16,2025-09-26 20:04:19.911,AH,C,3598487382,HAWK11,1,1,73,2,1,1,225,2,1,0,0,12,1,225,2,1,-150353.90857108062,-4789228.925752486,4200762.870573521,1.99408,2.66337,-0.480903,-90.75,52.625,56.5,-0.046875,-7.46875,7.20312,0.0429688,0.00976562,-0.0214844,4,0,41.43164081476392,-91.7981633407975,11303.315389723271,-53.099107230212994,1.081364617765879,-23.19593519019832,188.695,8959.781364859911,11075.263430171775,150,False,7.3468752849481245,False,153.23695872070027,171.97152887256186,False,34.67610539369137,False,False
10,1970-07-23 11:28:50.610381978,2025-09-16,2025-09-26 20:04:21.038,AH,C,1397054708,JASSM,3,101,76,2,2,1,225,9,2,0,1,26,0,0,0,0,-153825.97595389312,-4780215.633760299,4210224.602995396,-2.71064,-1.0108,0.752513,34.125,-54.375,-60.0,0.0,0.0,0.0,0.0,0.0,0.0,2,0,41.54847509225729,-91.8431258151729,9999.999077084596,155.95572747698918,-0.0015883396007272,0.0007550635193384,,8959.781364859911,11075.263430171775,150,10,2025-09-16,2025-09-26 20:04:21.207,AH,C,3599998512,HAWK11,1,1,73,2,1,1,225,2,1,0,0,12,1,225,2,1,-150471.57849295562,-4789163.046846236,4200831.319792271,2.03137,2.69798,-0.458277,-94.125,50.5,53.375,0.078125,-7.60938,7.4375,0.046875,0.0273438,-0.0214844,4,0,41.4324727581725,-91.7995944320749,11299.03921407129,-55.27800333789629,1.339928670697325,-20.207665282479663,189.16,8959.781364859911,11075.263430171775,150,False,7.229417596018094,False,150.81440594647708,171.5375539414641,False,37.52520006202347,False,False
10,1970-07-23 11:28:50.621420886,2025-09-16,2025-09-26 20:04:22.142,AH,C,1398365058,JASSM,3,101,76,2,2,1,225,9,2,0,1,26,0,0,0,0,-153788.47400076812,-4780275.456025924,4210158.495573521,-2.71054,-1.0107,0.752513,34.125,-54.375,-60.0,0.0,0.0,0.0,0.0,0.0,0.0,2,0,41.54768015728392,-91.8426537366464,9999.997675193525,155.95239850331706,-0.0023930515651934,0.0024921065156805,,8959.781364859911,11075.263430171775,150,10,2025-09-16,2025-09-26 20:04:22.151,AH,C,3600595012,HAWK11,1,1,73,2,1,1,225,2,1,0,0,12,1,225,2,1,-150519.40857108062,-4789137.877900924,4200857.095182896,2.03051,2.71035,-0.44706,-95.375,49.5,52.25,0.0625,-7.59375,7.40625,0.0175781,0.00195312,-0.0273438,4,0,41.43278752491431,-91.8001755433909,11296.815397788732,-56.18329874271277,1.313680803355351,-19.96815027010101,189.16,8959.781364859911,11075.263430171775,150,False,7.152587699613896,False,149.87671136477604,171.31732750534715,False,38.68429901208023,False,False
10,1970-07-23 11:28:50.632280590,2025-09-16,2025-09-26 20:04:23.228,AH,C,1399677062,JASSM,3,101,76,2,2,1,225,9,2,0,1,26,0,0,0,0,-153750.92517264312,-4780335.354463424,4210092.304167271,-2.71054,-1.0107,0.752513,34.125,-54.375,-60.0,0.0,0.0,0.0,0.0,0.0,0.0,2,0,41.54688420917971,-91.84218107910095,10000.001582211014,155.95271198775146,-0.0015220381458725,0.0024908024782185,,8959.781364859911,11075.263430171775,150,10,2025-09-16,2025-09-26 20:04:23.301,AH,C,3602424276,HAWK11,1,1,73,2,1,1,225,2,1,0,0,12,1,225,2,1,-150669.25232108062,-4789062.784150924,4200934.022917271,2.12581,2.73854,-0.418202,-98.375,47.25,49.25,0.109375,-7.15625,7.0,0.232422,-0.00390625,-0.0117188,4,0,41.43372547110169,-91.8019946939878,11290.79694348128,-58.38824468559099,1.1448156394272306,-13.878060901652402,189.917,8959.781364859911,11075.263430171775,150,False,7.025246037151947,False,147.5817310259219,170.737457972312,False,41.55782588856432,False,False
10,1970-07-23 11:28:50.642299583,2025-09-16,2025-09-26 20:04:24.229,AH,C,1400930050,JASSM,3,101,76,2,2,1,225,9,2,0,1,26,0,0,0,0,-153715.06482108062,-4780392.555635299,4210029.089323521,-2.71054,-1.0107,0.752513,34.125,-54.375,-60.0,0.0,0.0,0.0,0.0,0.0,0.0,2,0,41.546124074197714,-91.84172968805936,10000.000758063845,155.95301136282674,-0.0006902135778982,0.0024895655416441,,8959.781364859911,11075.263430171775,150,10,2025-09-16,2025-09-26 20:04:24.211,AH,C,3603577510,HAWK11,1,1,73,2,1,1,225,2,1,0,0,12,1,225,2,1,-150764.70153983062,-4789017.302705611,4200979.940886021,2.30653,2.7533,-0.408518,-99.5,46.625,48.375,-0.171875,-7.28125,7.03125,0.138672,0.0253906,-0.00976562,4,0,41.43428810716298,-91.80315262036214,11286.059736367642,-59.33068916309684,1.292838950206989,-3.2037005548174604,189.795,8959.781364859911,11075.263430171775,150,True,6.930161497213918,False,146.85567543419776,170.33003665509304,False,42.69240302013421,False,False
10,1970-07-23 11:28:50.653340086,2025-09-16,2025-09-26 20:04:25.334,AH,C,1402243892,JASSM,3,101,76,2,2,1,225,9,2,0,1,26,0,0,0,0,-153677.46325858062,-4780452.536104049,4209962.802214146,-2.71054,-1.0107,0.752513,34.125,-54.375,-60.0,0.0,0.0,0.0,0.0,0.0,0.0,2,0,41.54532699823103,-91.8412563902145,10000.003030212943,155.95332526226946,0.000182028577075,0.002488256643909,,8959.781364859911,11075.263430171775,150,10,2025-09-16,2025-09-26 20:04:25.412,AH,C,3605009108,HAWK11,1,1,73,2,1,1,225,2,1,0,0,12,1,225,2,1,-150884.89099295562,-4788961.208955611,4201037.116667271,2.43155,2.74755,-0.428364,-99.75,46.125,48.875,-0.234375,-7.625,7.29688,0.0878906,0.00585938,0.00976562,4,0,41.434985213646726,-91.80461026497431,11281.598172872456,-58.3185499446244,1.8925231869319012,3.853591647628893,190.345,8959.781364859911,11075.263430171775,150,True,6.821964538248022,False,146.81015141913156,169.81451927562037,False,43.271835681165236,False,False
10,1970-07-23 11:28:50.664358909,2025-09-16,2025-09-26 20:04:26.435,AH,C,1403556060,JASSM,3,101,76,2,2,1,225,9,2,0,1,26,0,0,0,0,-153639.90857108062,-4780512.436494674,4209896.599089146,-2.71054,-1.0107,0.752609,34.125,-54.375,-60.0,0.0,0.0,0.0,0.0,0.0,0.0,2,0,41.5445309545985,-91.84078369603904,10000.000050292274,155.9559344336149,-0.0039392136271478,0.0024869067447668,,8959.781364859911,11075.263430171775,150,10,2025-09-16,2025-09-26 20:04:26.412,AH,C,3606162340,HAWK11,1,1,73,2,1,1,225,2,1,0,0,12,1,225,2,1,-150982.04919608062,-4788915.600557174,4201084.599089146,2.456,2.74161,-0.430953,-99.375,46.625,49.75,-0.15625,-7.03125,6.76562,-0.0566406,-0.0175781,0.00976562,4,0,41.43555881353404,-91.80578871167044,11280.093419931782,-57.99431136766956,1.7825109540070638,5.122868390601122,190.149,8959.781364859911,11075.263430171775,150,True,6.7245334978041855,False,147.29940976131326,169.37048251792444,False,43.23354744941228,False,False
10,1970-07-23 11:28:50.675377544,2025-09-16,2025-09-26 20:04:27.537,AH,C,1404866814,JASSM,3,101,76,2,2,1,225,9,2,0,1,26,0,0,0,0,-153602.39489920562,-4780572.272432174,4209830.466276646,-2.71054,-1.0107,0.752609,34.125,-54.375,-60.0,0.0,0.0,0.0,0.0,0.0,0.0,2,0,41.54373575913354,-91.84031152932376,9999.999938008012,155.9562475731239,-0.0030690301208443,0.0024856433588879,,8959.781364859911,11075.263430171775,150,10,2025-09-16,2025-09-26 20:04:27.614,AH,C,3607593938,HAWK11,1,1,73,2,1,1,225,2,1,0,0,12,1,225,2,1,-151101.23474295562,-4788858.280244674,4201143.833464146,2.41458,2.72435,-0.436322,-99.0,47.5,50.0,-0.140625,-6.9375,6.71875,-0.0234375,0.0078125,0.0117188,4,0,41.43627726502075,-91.8072348772869,11277.027688503713,-57.13730369123338,1.3786742303976611,2.358005755304025,190.858,8959.781364859911,11075.263430171775,150,True,6.616397242868234,False,147.69863608128327,168.82932845134974,False,43.36917160864681,False,False
10,1970-07-23 11:28:50.686297857,2025-09-16,2025-09-26 20:04:28.629,AH,C,1406119762,JASSM,3,101,76,2,2,1,225,9,2,0,1,26,0,0,0,0,-153566.53552420562,-4780629.469697799,4209767.247526646,-2.71054,-1.0107,0.752609,34.125,-54.375,-60.0,0.0,0.0,0.0,0.0,0.0,0.0,2,0,41.54297561320061,-91.83986019526922,9999.99935121366,155.956546891874,-0.0022372061527969,0.0024844293616502,,8959.781364859911,11075.263430171775,150,10,2025-09-16,2025-09-26 20:04:28.505,AH,C,3608747170,HAWK11,1,1,73,2,1,1,225,2,1,0,0,12,1,225,2,1,-151196.41443045562,-4788812.000947799,4201191.761198521,2.39569,2.72828,-0.431816,-99.0,47.875,50.375,-0.125,-7.04688,6.78125,-0.00195312,0.00585938,0.00390625,4,0,41.43685820782824,-91.80838997569654,11274.702747617785,-57.464533744280736,1.3362592693135764,1.3628087431709532,191.127,8959.781364859911,11075.263430171775,150,True,6.522003274455645,False,147.90426133952434,168.37031835056118,False,43.62437992874845,False,False
10,1970-07-23 11:28:50.697317668,2025-09-16,2025-09-26 20:04:29.731,AH,C,1407434122,JASSM,3,101,76,2,2,1,225,9,2,0,1,26,0,0,0,0,-153528.91833670562,-4780689.467744674,4209700.931120396,-2.71054,-1.0107,0.752609,34.125,-54.375,-60.0,0.0,0.0,0.0,0.0,0.0,0.0,2,0,41.54217822990367,-91.83938674951357,9999.998924803573,155.95686086997492,-0.0013646311207199,0.0024831659265262,,8959.781364859911,11075.263430171775,150,10,2025-09-16,2025-09-26 20:04:29.801,AH,C,3610298068,HAWK11,1,1,73,2,1,1,225,2,1,0,0,12,1,225,2,1,-151325.20153983062,-4788749.036104049,4201256.872526646,2.39138,2.72445,-0.438527,-99.0,48.125,50.75,-0.078125,-7.23438,6.98438,-0.00195312,0.0,0.0195312,4,0,41.4376480691157,-91.80995309632698,11271.28660570842,-57.054866113245765,1.4754471662420154,1.0330398941068255,191.677,8959.781364859911,11075.263430171775,150,True,6.4095845135389355,False,148.07739582144848,167.75659227417205,False,44.0695531097467,False,False
10,1970-07-23 11:28:50.708354562,2025-09-16,2025-09-26 20:04:30.835,AH,C,1408746326,JASSM,3,101,76,2,2,1,225,9,2,0,1,26,0,0,0,0,-153491.36364920562,-4780749.366182174,4209634.722136021,-2.71054,-1.0107,0.752609,34.125,-54.375,-60.0,0.0,0.0,0.0,0.0,0.0,0.0,2,0,41.54138215033276,-91.83891410195,9999.99751324789,155.95717431379526,-0.0004934883216629,0.0024818968305223,,8959.781364859911,11075.263430171775,150,10,2025-09-16,2025-09-26 20:04:30.801,AH,C,3611491068,HAWK11,1,1,73,2,1,1,225,2,1,0,0,12,1,225,2,1,-151424.83728201812,-4788700.342744674,4201307.899870396,2.39809,2.72464,-0.444279,-98.875,48.0,51.375,-0.25,-7.29688,7.07812,0.00390625,0.00195312,-0.0078125,4,0,41.43826342734236,-91.81116241878588,11270.12004349287,-56.833676648786174,1.7204406520301556,1.4284133853468617,192.178,8959.781364859911,11075.263430171775,150,True,6.311397130071319,False,148.26195188660895,167.24330962709803,False,44.410651425590494,False,False
10,1970-07-23 11:28:50.719357268,2025-09-16,2025-09-26 20:04:31.935,AH,C,1410056564,JASSM,3,101,76,2,2,1,225,9,2,0,1,26,0,0,0,0,-153453.86462576812,-4780809.174775924,4209568.612761021,-2.71054,-1.0107,0.752609,34.125,-54.375,-60.0,0.0,0.0,0.0,0.0,0.0,0.0,2,0,41.540587264930565,-91.83844216692636,10000.00152533556,155.95748728015988,0.0003763484071302,0.0024806359421747,,8959.781364859911,11075.263430171775,150,10,2025-09-16,2025-09-26 20:04:31.912,AH,C,3612763600,HAWK11,1,1,73,2,1,1,225,2,1,0,0,12,1,225,2,1,-151529.67321951812,-4788649.077119674,4201362.001432896,2.41218,2.72483,-0.446293,-98.75,48.0,51.75,-0.296875,-7.28125,6.85938,0.0292969,-0.00390625,0.00585938,4,0,41.438913845052745,-91.81243489476508,11269.717414009809,-56.76144094504101,1.8114297434788007,2.242885900731184,192.459,8959.781364859911,11075.263430171775,150,True,6.21120646037509,False,148.4045261975549,166.69165422672714,False,44.826570872196925,False,False
10,1970-07-23 11:28:50.729396392,2025-09-16,2025-09-26 20:04:32.939,AH,C,1411311388,JASSM,3,101,76,2,2,1,225,9,2,0,1,26,0,0,0,0,-153417.95153983062,-4780866.452119674,4209505.296354771,-2.71054,-1.0107,0.752609,34.125,-54.375,-60.0,0.0,0.0,0.0,0.0,0.0,0.0,2,0,41.53982598605391,-91.83799020286,9999.999034316475,155.95778699805987,0.0012094058763245,0.0024794240420915,,8959.781364859911,11075.263430171775,150,10,2025-09-16,2025-09-26 20:04:32.801,AH,C,3613757764,HAWK11,1,1,73,2,1,1,225,2,1,0,0,12,1,225,2,1,-151612.13220389312,-4788608.516572799,4201405.188932896,2.44028,2.72128,-0.450128,-98.5,48.375,52.25,-0.109375,-7.29688,7.04688,0.0527344,0.0078125,0.00195312,4,0,41.439431111883046,-91.8134358718596,11270.199167023582,-56.47756059030246,1.843177363218177,3.773352738563021,192.728,8959.781364859911,11075.263430171775,150,True,6.123796113429139,False,148.7120022381656,166.22554386965206,False,44.98766306025616,False,False
10,1970-07-23 11:28:50.740418980,2025-09-16,2025-09-26 20:04:34.041,AH,C,1412623294,JASSM,3,101,76,2,2,1,225,9,2,0,1,26,0,0,0,0,-153380.40466483062,-4780926.334932174,4209439.099089146,-2.71054,-1.01061,0.752705,34.125,-54.375,-60.0,0.0,0.0,0.0,0.0,0.0,0.0,2,0,41.539030071061305,-91.83751768908247,9999.999659063447,155.95674874592447,-0.004585536928618,-0.0012803472045425,,8959.781364859911,11075.263430171775,150,10,2025-09-16,2025-09-26 20:04:34.271,AH,C,3615388196,HAWK11,1,1,73,2,1,1,225,2,1,0,0,12,1,225,2,1,-151746.47986014312,-4788541.565400924,4201476.952604771,2.44708,2.714,-0.457126,-97.875,48.75,53.375,-0.09375,-7.03125,6.71875,-0.0117188,0.0,0.0136719,4,0,41.44028846391497,-91.81506709269898,11271.9029079194,-55.929923682241096,1.8736651789244367,3.998181747023069,192.875,8959.781364859911,11075.263430171775,150,True,6.009679691129938,False,149.30023274980013,165.50768130552373,False,45.1286283567166,False,False
10,1970-07-23 11:28:50.752420337,2025-09-16,2025-09-26 20:04:35.242,AH,C,1413993780,JASSM,3,101,76,2,2,1,225,9,2,0,1,26,0,0,0,0,-153341.18103201812,-4780988.889619674,4209369.946745396,-2.71054,-1.01061,0.752705,34.125,-54.375,-60.0,0.0,0.0,0.0,0.0,0.0,0.0,2,0,41.53819863185954,-91.83702408719576,10000.002171581167,155.95707606560154,-0.0036757050364614,-0.0012816847282141,,8959.781364859911,11075.263430171775,150,10,2025-09-16,2025-09-26 20:04:35.305,AH,C,3616859562,HAWK11,1,1,73,2,1,1,225,2,1,0,0,12,1,225,2,1,-151868.28552420562,-4788480.096650924,4201543.083464146,2.44622,2.70796,-0.4647,-97.5,49.5,53.75,-0.203125,-7.0,6.71875,0.00585938,-0.00976562,-0.00390625,4,0,41.441077524300646,-91.81654635927354,11273.88870026929,-55.40666500173271,1.9744133189389976,3.8123971735415534,193.424,8959.781364859911,11075.263430171775,150,True,5.899392372630981,False,149.69974841479325,164.81533015249983,False,45.417519232113676,False,False
10,1970-07-23 11:28:50.763297141,2025-09-16,2025-09-26 20:04:36.329,AH,C,1415305970,JASSM,3,101,76,2,2,1,225,9,2,0,1,26,0,0,0,0,-153303.62536795562,-4781048.782197799,4209303.733854771,-2.71054,-1.01061,0.752705,34.125,-54.25,-60.0,0.0,0.0,0.0,0.0,0.0,0.0,2,0,41.53740255085046,-91.83655148814024,10000.001956243372,155.95738945273516,-0.0028045668427554,-0.0012829644164057,,8959.781364859911,11075.263430171775,150,10,2025-09-16,2025-09-26 20:04:36.208,AH,C,3617933260,HAWK11,1,1,73,2,1,1,225,2,1,0,0,12,1,225,2,1,-151955.07556326812,-4788435.641572799,4201590.774870396,2.44344,2.70239,-0.465659,-97.125,50.0,54.0,-0.15625,-6.875,6.64062,-0.00390625,0.00390625,0.00585938,4,0,41.44164750467009,-91.81760065009983,11274.93672342903,-55.163106320431,1.8188562854321184,3.518236038875473,193.461,8959.781364859911,11075.263430171775,150,True,5.808002174226093,False,150.02102003212065,164.24362427334813,False,45.658109936423934,False,False
