Subject_cm,Timestamp,SampleDate_cm,SampleTime_cm,Configuration_cm,Scenario_cm,DisTime_cm,MarkingTxt_cm,Application_cm,EntId_cm,Site_cm,ExerciseId_cm,ForceId_cm,Category_cm,Country_cm,Domain_cm,Kind_cm,Extra_cm,Specific_cm,Subcategory_cm,AltCategory_cm,AltCountry_cm,AltDomain_cm,AltKind_cm,ECEF_X_cm,ECEF_Y_cm,ECEF_Z_cm,OriPhi_cm,OriPsi_cm,OriTheta_cm,LinVelX_cm,LinVelY_cm,LinVelZ_cm,LinAccX_cm,LinAccY_cm,LinAccZ_cm,AngVelX_cm,AngVelY_cm,AngVelZ_cm,DrAlg_cm,Appearance_cm,Latitude_cm,Longitude_cm,Altitude_cm,Heading_cm,Pitch_cm,Roll_cm,CalibratedAirspeed_cm,CM_Altitude_Lead_cm,CM_Altitude_Wing_cm,CM_Airspeed_cm,Subject_ac,SampleDate_ac,SampleTime_ac,Configuration_ac,Scenario_ac,DisTime_ac,MarkingTxt_ac,Application_ac,EntId_ac,Site_ac,ExerciseId_ac,ForceId_ac,Category_ac,Country_ac,Domain_ac,Kind_ac,Extra_ac,Specific_ac,Subcategory_ac,AltCategory_ac,AltCountry_ac,AltDomain_ac,AltKind_ac,ECEF_X_ac,ECEF_Y_ac,ECEF_Z_ac,OriPhi_ac,OriPsi_ac,OriTheta_ac,LinVelX_ac,LinVelY_ac,LinVelZ_ac,LinAccX_ac,LinAccY_ac,LinAccZ_ac,AngVelX_ac,AngVelY_ac,AngVelZ_ac,DrAlg_ac,Appearance_ac,Latitude_ac,Longitude_ac,Altitude_ac,Heading_ac,Pitch_ac,Roll_ac,CalibratedAirspeed_ac,CM_Altitude_Lead_ac,CM_Altitude_Wing_ac,CM_Airspeed_ac,Bank_Angle_Condition,distance_nm,Distance_Condition,angle_between_vel,angle_between_pos,Cone_Condition,angle_between_pos_nose,Nose_Cone_Condition,Intercept_Criteria
3,1970-07-23 10:17:04.325288653,2025-09-11,2025-09-26 20:27:12.528,HA,C,2534505224,JASSM,3,112,76,2,2,1,225,9,2,0,1,26,0,0,0,0,-155694.58044608062,-4777234.002900924,4213517.886198521,-2.71093,-1.01118,0.751842,36.25,-57.75,-63.75,0.0,0.0,0.0,0.0,0.0,0.0,2,0,41.588082505903664,-91.8666629991648,10002.625080915032,155.93863164684677,-0.0032964372629734,-0.0006580380915473,,8905.102926237949,10943.217344713625,150,3,2025-09-11,2025-09-26 20:27:12.631,HA,C,938718650,HAWK11,1,1,73,2,1,1,225,2,1,0,0,12,1,225,2,1,-141179.54724295562,-4791612.704072799,4198212.253386021,2.43577,2.78149,-0.375921,-98.125,23.875,20.5,-0.1875,-7.25,6.35938,-0.0371094,-0.00195312,0.015625,4,0,41.40190411969852,-91.68766826280282,10943.217344713625,-61.63049891036181,0.9329005969771929,4.757871689020711,195.099,8905.102926237949,10943.217344713625,150,True,13.75889691014612,False,130.46636461075374,168.16518290143716,False,37.7025514781519,False,False
3,1970-07-23 10:17:04.336334865,2025-09-11,2025-09-26 20:27:13.633,HA,C,2535757994,JASSM,3,112,76,2,2,1,225,9,2,0,1,26,0,0,0,0,-155656.49939139312,-4777294.807588424,4213450.804167271,-2.71093,-1.01118,0.751842,36.25,-57.75,-63.75,0.0,0.0,0.0,0.0,0.0,0.0,2,0,41.58727536060272,-91.86618302233242,10002.624410588864,155.9389502389192,-0.0024130580772372,-0.0006593197838409,,8905.102926237949,10943.217344713625,150,3,2025-09-11,2025-09-26 20:27:13.725,HA,C,939951416,HAWK11,1,1,73,2,1,1,225,2,1,0,0,12,1,225,2,1,-141281.09607108062,-4791587.982393111,4198233.974089146,2.38515,2.77114,-0.375154,-97.75,24.5,20.75,0.078125,-7.17188,6.40625,-0.0351562,0.0,0.0078125,4,0,41.40218000311537,-91.68889018898902,10936.896753244597,-61.27275837327462,0.5119154270691046,1.644605731686341,194.867,8905.102926237949,10943.217344713625,150,True,13.6616295528974,False,130.84475514137557,168.266319103074,False,37.42414004259544,False,False
3,1970-07-23 10:17:04.346313954,2025-09-11,2025-09-26 20:27:14.631,HA,C,2537010798,JASSM,3,112,76,2,2,1,225,9,2,0,1,26,0,0,0,0,-155618.41736014312,-4777355.614229049,4213383.718229771,-2.71083,-1.01118,0.751842,36.25,-57.75,-63.75,0.0,0.0,0.0,0.0,0.0,0.0,2,0,41.586468175420464,-91.86570304499412,10002.624914413616,155.9392688262505,-0.0015296404841224,0.004844524090718,,8905.102926237949,10943.217344713625,150,3,2025-09-11,2025-09-26 20:27:14.725,HA,C,941223948,HAWK11,1,1,73,2,1,1,225,2,1,0,0,12,1,225,2,1,-141385.49255545562,-4791562.024385299,4198256.683073521,2.35591,2.77181,-0.367293,-97.625,24.625,21.0,-0.3125,-7.42188,6.53125,-0.00585938,-0.00976562,-0.015625,4,0,41.40246939991368,-91.69014658371098,10929.891879528835,-61.61740053166546,0.219659769335941,-0.0188615322838556,194.647,8905.102926237949,10943.217344713625,150,True,13.562843305996232,False,131.01025980471388,168.37226177093586,False,37.36489237570472,False,False
3,1970-07-23 10:17:04.357306595,2025-09-11,2025-09-26 20:27:15.730,HA,C,2538322414,JASSM,3,112,76,2,2,1,225,9,2,0,1,26,0,0,0,0,-155578.54821951812,-4777419.272432174,4213313.483854771,-2.71083,-1.01118,0.751842,36.25,-57.75,-63.75,0.0,0.0,0.0,0.0,0.0,0.0,2,0,41.585623118614016,-91.86520055690974,10002.625432920142,155.9396023497604,-0.0006047753286409,0.0048431786143943,,8905.102926237949,10943.217344713625,150,3,2025-09-11,2025-09-26 20:27:15.724,HA,C,942416946,HAWK11,1,1,73,2,1,1,225,2,1,0,0,12,1,225,2,1,-141483.10388358062,-4791537.493135299,4198278.104948521,2.38735,2.7628,-0.368347,-97.5,24.875,21.125,-0.328125,-7.42188,6.48438,0.0527344,-0.00195312,-0.00585938,4,0,41.40274279898659,-91.69132142287263,10923.11719937595,-61.23426552423815,-0.076766980204298,1.5978907429880949,194.414,8905.102926237949,10943.217344713625,150,True,13.464570948429499,False,131.16777056477616,168.46727464825526,False,37.30206765674129,False,False
3,1970-07-23 10:17:04.368295084,2025-09-11,2025-09-26 20:27:16.829,HA,C,2539575478,JASSM,3,112,76,2,2,1,225,9,2,0,1,26,0,0,0,0,-155540.45837576812,-4777480.088838424,4213246.382292271,-2.71083,-1.01118,0.751842,36.25,-57.75,-63.75,0.0,0.0,0.0,0.0,0.0,0.0,2,0,41.58481576713943,-91.86472050664032,10002.62541085012,155.9399209751047,0.0002788201091604,0.0048418904759343,,8905.102926237949,10943.217344713625,150,3,2025-09-11,2025-09-26 20:27:16.725,HA,C,943530412,HAWK11,1,1,73,2,1,1,225,2,1,0,0,12,1,225,2,1,-141573.94568045562,-4791514.295869674,4198298.183073521,2.39061,2.75656,-0.374579,-97.25,25.375,21.25,-0.03125,-7.23438,6.53125,-0.0722656,0.00390625,-0.00390625,4,0,41.40300036964865,-91.69241492389372,10916.22162902684,-60.74733607111949,-0.0565567104825194,1.6546560921075932,194.072,8905.102926237949,10943.217344713625,150,True,13.371645626243193,False,131.43215439024243,168.5553558626058,False,37.12485539190202,False,False
3,1970-07-23 10:17:04.379271440,2025-09-11,2025-09-26 20:27:17.927,HA,C,2540887452,JASSM,3,112,76,2,2,1,225,9,2,0,1,26,0,0,0,0,-155500.57751639312,-4777543.762666549,4213176.124479771,-2.71083,-1.01118,0.751842,36.25,-57.75,-63.75,0.0,0.0,0.0,0.0,0.0,0.0,2,0,41.5839704570262,-91.8642178976948,10002.62293017703,155.9402545679502,0.0012039573570077,0.0048405435871595,,8905.102926237949,10943.217344713625,150,3,2025-09-11,2025-09-26 20:27:18.131,HA,C,945240376,HAWK11,1,1,73,2,1,1,225,2,1,0,0,12,1,225,2,1,-141713.95544608062,-4791478.109346236,4198329.686979771,2.32532,2.74448,-0.380523,-97.25,25.375,21.5,-0.0625,-7.21875,6.40625,0.0078125,-0.00390625,-0.0136719,4,0,41.40340368070355,-91.69410045208969,10905.747984847168,-60.05103377797733,-0.2639708476288055,-2.3430338187101296,193.424,8905.102926237949,10943.217344713625,150,True,13.25384582983522,False,131.53359666662826,168.71486247028582,False,37.18350344647047,False,False
3,1970-07-23 10:17:04.389308951,2025-09-11,2025-09-26 20:27:18.930,HA,C,2542080510,JASSM,3,112,76,2,2,1,225,9,2,0,1,26,0,0,0,0,-155464.31091483062,-4777601.663057174,4213112.237761021,-2.71083,-1.01118,0.751938,36.25,-57.75,-63.75,0.0,0.0,0.0,0.0,0.0,0.0,2,0,41.583201795794096,-91.86376085089309,10002.62672447332,155.94285052623331,-0.0029447973099986,0.0048393177075518,,8905.102926237949,10943.217344713625,150,3,2025-09-11,2025-09-26 20:27:19.036,HA,C,946314076,HAWK11,1,1,73,2,1,1,225,2,1,0,0,12,1,225,2,1,-141801.32458670562,-4791455.694307174,4198349.315886021,2.32877,2.75282,-0.372566,-97.25,25.375,21.375,-0.09375,-7.42188,6.625,0.00195312,0.0078125,-0.00390625,4,0,41.40365415090148,-91.6951522110352,10899.561000744803,-60.68829410861697,-0.2766807982691443,-1.966363297678236,193.033,8905.102926237949,10943.217344713625,150,True,13.164923648579629,False,131.48290437669746,168.8026063713298,False,37.32174740747997,False,False
3,1970-07-23 10:17:04.399309800,2025-09-11,2025-09-26 20:27:19.930,HA,C,2543333210,JASSM,3,112,76,2,2,1,225,9,2,0,1,26,0,0,0,0,-155426.23181326812,-4777662.457979049,4213045.151823521,-2.71083,-1.01109,0.751938,36.25,-57.75,-63.75,0.0,0.0,0.0,0.0,0.0,0.0,2,0,41.582394669319335,-91.8632809735529,10002.623794238463,155.9395245411581,-0.0037360196641511,0.0010872688712881,,8905.102926237949,10943.217344713625,150,3,2025-09-11,2025-09-26 20:27:19.834,HA,C,947268474,HAWK11,1,1,73,2,1,1,225,2,1,0,0,12,1,225,2,1,-141878.86755545562,-4791435.812471236,4198366.645964146,2.34526,2.75225,-0.382536,-97.125,25.125,21.5,-0.171875,-7.5625,6.70312,0.046875,0.00976562,0.0234375,4,0,41.40387575488306,-91.6960856844394,10893.905704632074,-60.2659734884568,0.1093093598682427,-1.0341603944516065,192.618,8905.102926237949,10943.217344713625,150,True,13.078019835897475,False,131.47095331259453,168.87463985270801,False,37.40669312212179,False,False
3,1970-07-23 10:17:04.410248465,2025-09-11,2025-09-26 20:27:21.024,HA,C,2544585908,JASSM,3,112,76,2,2,1,225,9,2,0,1,26,0,0,0,0,-155388.15271170562,-4777723.252900924,4212978.065886021,-2.71083,-1.01109,0.751938,36.25,-57.75,-63.75,0.0,0.0,0.0,0.0,0.0,0.0,2,0,41.58158754072813,-91.8628011081638,10002.625831977211,155.9398430236386,-0.0028526768087704,0.0010859605170942,,8905.102926237949,10943.217344713625,150,3,2025-09-11,2025-09-26 20:27:20.834,HA,C,948421706,HAWK11,1,1,73,2,1,1,225,2,1,0,0,12,1,225,2,1,-141972.60974295562,-4791411.867158736,4198387.962370396,2.40691,2.74199,-0.395575,-97.0,24.875,22.0,-0.3125,-7.53125,6.60938,0.0546875,-0.0175781,0.00585938,4,0,41.4041455784381,-91.69721414365944,10888.08895540124,-59.35524145455892,0.2621223587032292,2.2781413327860074,192.154,8905.102926237949,10943.217344713625,150,True,12.983753528677825,False,131.61037914844124,168.97205179502407,False,37.367007088933164,False,False
3,1970-07-23 10:17:04.420267249,2025-09-11,2025-09-26 20:27:22.026,HA,C,2545778956,JASSM,3,112,76,2,2,1,225,9,2,0,1,26,0,0,0,0,-155351.88708670562,-4777781.149385299,4212914.175261021,-2.71083,-1.01109,0.751938,36.25,-57.75,-63.75,0.0,0.0,0.0,0.0,0.0,0.0,2,0,41.58081887037964,-91.86234410818687,10002.625585586162,155.9401463258242,-0.0020114221703052,0.0010847224128739,,8905.102926237949,10943.217344713625,150,3,2025-09-11,2025-09-26 20:27:22.224,HA,C,950091904,HAWK11,1,1,73,2,1,1,225,2,1,0,0,12,1,225,2,1,-142107.68591483062,-4791377.115205611,4198419.134245396,2.4351,2.7349,-0.41197,-96.25,25.25,22.75,-0.1875,-7.73438,6.90625,0.0,0.0292969,0.015625,4,0,41.40453891490961,-91.69884028284302,10880.0955998651,-58.43274071841345,0.6746338024792865,3.741256732557565,191.384,8905.102926237949,10943.217344713625,150,True,12.873172450103798,False,132.17852581039747,169.13605402681992,False,36.96399521775029,False,False
3,1970-07-23 10:17:04.430291050,2025-09-11,2025-09-26 20:27:23.029,HA,C,2547031654,JASSM,3,112,76,2,2,1,225,9,2,0,1,26,0,0,0,0,-155313.80798514312,-4777841.942354049,4212847.085417271,-2.71083,-1.01109,0.751938,36.25,-57.75,-63.75,0.0,0.0,0.0,0.0,0.0,0.0,2,0,41.580011723020334,-91.86186426688988,10002.624026375512,155.94046478240415,-0.0011280659394003,0.0010834075354511,,8905.102926237949,10943.217344713625,150,3,2025-09-11,2025-09-26 20:27:23.133,HA,C,951245138,HAWK11,1,1,73,2,1,1,225,2,1,0,0,12,1,225,2,1,-142200.57263358062,-4791352.785127486,4198441.811979771,2.48591,2.72771,-0.435075,-95.75,25.0,24.125,-0.078125,-8.04688,7.67188,0.0878906,0.015625,0.0117188,4,0,41.40482034085807,-91.69995868203928,10876.236187625856,-57.24172423613806,1.3638549257067376,6.5047151164901,190.993,8905.102926237949,10943.217344713625,150,True,12.778689525185255,False,132.7392702860011,169.23342764390267,False,36.508208007497075,False,False
3,1970-07-23 10:17:04.440312153,2025-09-11,2025-09-26 20:27:24.031,HA,C,2548225232,JASSM,3,112,76,2,2,1,225,9,2,0,1,26,0,0,0,0,-155277.52673514312,-4777899.864229049,4212783.163542271,-2.71083,-1.01109,0.751938,36.25,-57.75,-63.75,0.0,0.0,0.0,0.0,0.0,0.0,2,0,41.57924268983085,-91.86140709207224,10002.626010135438,155.9407681911845,-0.0002864232482079,0.0010821576792348,,8905.102926237949,10943.217344713625,150,3,2025-09-11,2025-09-26 20:27:24.130,HA,C,952398370,HAWK11,1,1,73,2,1,1,225,2,1,0,0,12,1,225,2,1,-142292.77771170562,-4791328.710908736,4198466.382292271,2.63269,2.71793,-0.457414,-94.875,25.75,26.0,-0.140625,-7.60938,7.71875,0.166016,0.015625,0.0195312,4,0,41.405113129082864,-91.70106885648492,10877.067985546251,-55.9895683110148,1.9349711830357543,14.709190153068308,190.174,8905.102926237949,10943.217344713625,150,False,12.686348684609507,False,133.91710887406273,169.3310454313381,False,35.43460942093565,False,False
3,1970-07-23 10:17:04.451288955,2025-09-11,2025-09-26 20:27:25.128,HA,C,2549537324,JASSM,3,112,76,2,2,1,225,9,2,0,1,26,0,0,0,0,-155237.64196951812,-4777963.534150924,4212712.894011021,-2.71083,-1.01109,0.751938,36.25,-57.75,-63.75,0.0,0.0,0.0,0.0,0.0,0.0,2,0,41.57839730960254,-91.86090452427749,10002.624046954445,155.94110172016448,0.0006387787216881,0.0010807974046848,,8905.102926237949,10943.217344713625,150,3,2025-09-11,2025-09-26 20:27:25.130,HA,C,953551602,HAWK11,1,1,73,2,1,1,225,2,1,0,0,12,1,225,2,1,-142383.82849295562,-4791303.327119674,4198492.737761021,2.77651,2.68408,-0.479848,-93.625,27.625,28.5,-0.0625,-7.15625,7.59375,0.134766,0.0214844,0.0527344,4,0,41.40542595140658,-91.70216571454516,10878.472823359343,-53.84940327491962,1.6785932950167273,22.14072228887407,189.514,8905.102926237949,10943.217344713625,150,False,12.588466312294445,False,135.80874622404758,169.42052448320214,False,33.63588643398643,False,False
3,1970-07-23 10:17:04.462288609,2025-09-11,2025-09-26 20:27:26.228,HA,C,2550789750,JASSM,3,112,76,2,2,1,225,9,2,0,1,26,0,0,0,0,-155199.57068045562,-4778024.309541549,4212645.815886021,-2.71083,-1.01109,0.752034,36.25,-57.75,-63.75,0.0,0.0,0.0,0.0,0.0,0.0,2,0,41.57759033819936,-91.86042481925432,10002.620411746875,155.94371443537247,-0.0034710245841152,0.0010794491689821,,8905.102926237949,10943.217344713625,150,3,2025-09-11,2025-09-26 20:27:26.130,HA,C,954744600,HAWK11,1,1,73,2,1,1,225,2,1,0,0,12,1,225,2,1,-142477.29138358062,-4791274.022432174,4198523.206511021,2.91178,2.64027,-0.504392,-91.625,30.5,31.875,-0.015625,-7.70312,8.17188,0.103516,0.0371094,0.0488281,4,0,41.40578942763533,-91.7032927953972,10879.3402784048,-51.26820445840515,1.2213556345576952,28.77076987499147,189.27,8905.102926237949,10943.217344713625,150,False,12.489818676167042,False,138.54910030932797,169.5107955754615,False,30.98777750886804,False,False
3,1970-07-23 10:17:04.472287294,2025-09-11,2025-09-26 20:27:27.228,HA,C,2551983000,JASSM,3,112,76,2,2,1,225,9,2,0,1,26,0,0,0,0,-155163.29821951812,-4778082.211885299,4212581.909636021,-2.71083,-1.01109,0.752034,36.25,-57.75,-63.75,0.0,0.0,0.0,0.0,0.0,0.0,2,0,41.576821519033125,-91.85996779146868,10002.623405182114,155.94401773217464,-0.0026296168665053,0.0010782455619112,,8905.102926237949,10943.217344713625,150,3,2025-09-11,2025-09-26 20:27:27.130,HA,C,955937598,HAWK11,1,1,73,2,1,1,225,2,1,0,0,12,1,225,2,1,-142568.57653983062,-4791241.474580611,4198557.462370396,2.99155,2.6023,-0.519348,-89.0,34.125,35.75,-0.1875,-7.64062,8.07812,0.046875,0.0195312,0.0566406,4,0,41.40619813570508,-91.70439502247928,10880.294367419448,-49.27971992652174,0.6100059072631131,32.307484881885145,189.196,8905.102926237949,10943.217344713625,150,False,12.392050112336007,False,141.88130339077242,169.59324774346464,False,27.73726386958752,True,False
3,1970-07-23 10:17:04.483267583,2025-09-11,2025-09-26 20:27:28.326,HA,C,2553295544,JASSM,3,112,76,2,2,1,225,9,2,0,1,26,0,0,0,0,-155123.39978201812,-4778145.901338424,4212511.612761021,-2.71083,-1.01109,0.752034,36.25,-57.75,-63.75,0.0,0.0,0.0,0.0,0.0,0.0,2,0,41.57597583414056,-91.85946508984703,10002.624339480795,155.9443513341313,-0.001704090063485,0.0010769178594896,,8905.102926237949,10943.217344713625,150,3,2025-09-11,2025-09-26 20:27:28.334,HA,C,957408964,HAWK11,1,1,73,2,1,1,225,2,1,0,0,12,1,225,2,1,-142678.90075858062,-4791195.165010299,4198605.448698521,3.07199,2.56069,-0.526251,-85.75,39.375,40.875,-0.125,-8.15625,8.65625,0.0527344,0.0488281,0.0546875,4,0,41.406778013249024,-91.70572963707733,10878.593694440233,-47.44971388964424,-0.4236750678287971,35.72895539320434,188.964,8905.102926237949,10943.217344713625,150,False,12.27498701101058,False,146.32628316384512,169.68624939311945,False,23.379148272091477,True,False
3,1970-07-23 10:17:04.494087940,2025-09-11,2025-09-26 20:27:29.408,HA,C,2554547846,JASSM,3,112,76,2,2,1,225,9,2,0,1,26,0,0,0,0,-155085.33239920562,-4778206.666963424,4212444.540495396,-2.71083,-1.01109,0.752034,36.25,-57.75,-63.75,0.0,0.0,0.0,0.0,0.0,0.0,2,0,41.57516895337268,-91.85898547124592,10002.624717644216,155.94466961258073,-0.0008210341126304,0.0010756489320846,,8905.102926237949,10943.217344713625,150,3,2025-09-11,2025-09-26 20:27:29.367,HA,C,958283830,HAWK11,1,1,73,2,1,1,225,2,1,0,0,12,1,225,2,1,-142740.98474295562,-4791165.092744674,4198636.839323521,3.12481,2.51439,-0.561054,-82.625,42.0,44.25,-0.125,-8.46875,8.95312,0.0292969,0.0410156,0.0527344,4,0,41.40715780617468,-91.70648211834684,10877.291528756848,-44.43080111963171,-0.3037710192467498,37.36384405625036,188.805,8905.102926237949,10943.217344713625,150,False,12.185062960939865,False,149.27649168621141,169.71290665521224,False,20.45963407353714,True,False
3,1970-07-23 10:17:04.510865808,2025-09-11,2025-09-26 20:27:31.086,HA,C,2555800546,JASSM,3,112,76,2,2,1,225,9,2,0,1,26,0,0,0,0,-155047.25329764312,-4778267.452119674,4212377.444792271,-2.71083,-1.01109,0.752034,36.25,-57.75,-63.75,0.0,0.0,0.0,0.0,0.0,0.0,2,0,41.57436179839126,-91.85850571662093,10002.62601297096,155.944987976222,6.231554991012051e-05,0.0010743701513275,,8905.102926237949,10943.217344713625,150,3,2025-09-11,2025-09-26 20:27:30.928,HA,C,960550528,HAWK11,1,1,73,2,1,1,225,2,1,0,0,12,1,225,2,1,-142890.92028983062,-4791076.454072799,4198730.655729771,-3.0578,2.39263,-0.622604,-73.625,50.125,53.625,-0.140625,-8.89062,9.51562,0.0078125,0.0507812,0.0546875,4,0,41.40829181194466,-91.70830513628998,10873.848554661035,-37.68127213628416,-0.8969578916576164,39.158521339649205,188.732,8905.102926237949,10943.217344713625,150,False,12.030707785909778,False,157.75354451461232,169.80872019237054,False,12.0827176266685,True,False
3,1970-07-23 10:17:04.514867085,2025-09-11,2025-09-26 20:27:31.486,HA,C,2557053244,JASSM,3,112,76,2,2,1,225,9,2,0,1,26,0,0,0,0,-155009.17419608062,-4778328.233369674,4212310.349089146,-2.71074,-1.01099,0.752034,36.25,-57.75,-63.75,0.0,0.0,0.0,0.0,0.0,0.0,2,0,41.57355466461004,-91.85802597545896,10002.622693829477,155.9416577499503,-0.0007310939093087,0.0028085334976479,,8905.102926237949,10943.217344713625,150,3,2025-09-11,2025-09-26 20:27:31.631,HA,C,961147026,HAWK11,1,1,73,2,1,1,225,2,1,0,0,12,1,225,2,1,-142927.70739920562,-4791049.711885299,4198758.931120396,-3.03115,2.35955,-0.641012,-70.75,52.125,56.375,-0.140625,-9.32812,9.82812,0.00585938,0.0644531,0.0546875,4,0,41.408635238969744,-91.70875420889814,10872.13111462998,-35.82388197749765,-0.8703493784271709,39.53765312302564,188.769,8905.102926237949,10943.217344713625,150,False,11.950216860585863,False,160.1862277880273,169.788511333919,False,9.641854650025216,True,False
3,1970-07-23 10:17:04.524886853,2025-09-11,2025-09-26 20:27:32.488,HA,C,2558246292,JASSM,3,112,76,2,2,1,225,9,2,0,1,26,0,0,0,0,-154972.90759451812,-4778386.120088424,4212246.448698521,-2.71074,-1.01099,0.752034,36.25,-57.75,-63.75,0.0,0.0,0.0,0.0,0.0,0.0,2,0,41.572785966946,-91.85756908082172,10002.624239546943,155.94196093425975,0.0001101709182115,0.0028072777682276,,8905.102926237949,10943.217344713625,150,3,2025-09-11,2025-09-26 20:27:32.536,HA,C,962220726,HAWK11,1,1,73,2,1,1,225,2,1,0,0,12,1,225,2,1,-142988.83435233062,-4791000.452119674,4198812.237761021,-2.97717,2.28707,-0.680608,-64.875,55.375,61.25,-0.203125,-9.57812,10.0781,0.00585938,0.0644531,0.0664062,4,0,41.40927726633427,-91.70950213698568,10871.137568831544,-31.842331107191765,-0.6774522241149766,40.02657030027101,188.805,8905.102926237949,10943.217344713625,150,False,11.84985237716794,False,164.6952694468763,169.77534560480206,False,5.194712484415457,True,False
3,1970-07-23 10:17:04.536487416,2025-09-11,2025-09-26 20:27:33.648,HA,C,2559439338,JASSM,3,112,76,2,2,1,225,9,2,0,1,26,0,0,0,0,-154936.64196951812,-4778444.006807174,4212182.546354771,-2.71074,-1.01099,0.75213,36.25,-57.75,-63.75,0.0,0.0,0.0,0.0,0.0,0.0,2,0,41.57201725402495,-91.8571122087151,10002.62611684643,155.94455736523696,-0.004038264516934,0.0028059468184739,,8905.102926237949,10943.217344713625,150,3,2025-09-11,2025-09-26 20:27:33.725,HA,C,963811390,HAWK11,1,1,73,2,1,1,225,2,1,0,0,12,1,225,2,1,-143068.68005545562,-4790922.063447799,4198898.325651646,-2.85934,2.15869,-0.726244,-55.0,60.25,67.25,-0.078125,-9.45312,9.96875,0.0253906,0.0683594,0.0664062,4,0,41.410310531576194,-91.71048413461804,10871.018772442869,-25.666030600765367,-1.0238644721039012,41.923301761667226,189.001,8905.102926237949,10943.217344713625,150,False,11.724162178004036,False,171.4999547968991,169.74009980342143,False,2.0679901638450304,True,False
3,1970-07-23 10:17:04.545363481,2025-09-11,2025-09-26 20:27:34.536,HA,C,2560692286,JASSM,3,112,76,2,2,1,225,9,2,0,1,26,0,0,0,0,-154898.55407889312,-4778504.797822799,4212115.433073521,-2.71074,-1.01099,0.75213,36.25,-57.75,-63.75,0.0,0.0,0.0,0.0,0.0,0.0,2,0,41.5712099391662,-91.85663239318208,10002.622218583005,155.9448757496233,-0.0031547431523042,0.0028046587394131,,8905.102926237949,10943.217344713625,150,3,2025-09-11,2025-09-26 20:27:34.630,HA,C,964924856,HAWK11,1,1,73,2,1,1,225,2,1,0,0,12,1,225,2,1,-143115.98669608062,-4790864.099580611,4198962.610807896,-2.85953,2.06263,-0.761526,-47.625,62.625,71.375,-0.265625,-9.875,10.375,-0.193359,0.0546875,0.0605469,4,0,41.41108089118145,-91.7110700711756,10871.438535163554,-21.14536327570016,-0.8132662447362228,38.11061053617123,189.086,8905.102926237949,10943.217344713625,150,False,11.619023276183814,False,176.12631580037933,169.67291068232169,False,6.717932471964801,True,False
3,1970-07-23 10:17:04.556310590,2025-09-11,2025-09-26 20:27:35.631,HA,C,2562004388,JASSM,3,112,76,2,2,1,225,9,2,0,1,26,0,0,0,0,-154858.66931326812,-4778568.457979049,4212045.151823521,-2.71074,-1.01099,0.75213,36.25,-57.75,-63.75,0.0,0.0,0.0,0.0,0.0,0.0,2,0,41.5703645162809,-91.85612995370008,10002.62257096089,155.9452091408201,-0.0022295222052478,0.0028033024415338,,8905.102926237949,10943.217344713625,150,3,2025-09-11,2025-09-26 20:27:35.536,HA,C,965720188,HAWK11,1,1,73,2,1,1,225,2,1,0,0,12,1,225,2,1,-143145.62732108062,-4790820.186494674,4199011.563932896,-2.90335,1.9912,-0.783577,-42.25,64.0,74.25,-0.1875,-10.0156,10.4844,-0.0839844,0.0625,0.0585938,4,0,41.411667305577296,-91.71143991638922,10871.849213275284,-17.958234176720676,-0.6560996591017634,32.70227463349425,188.879,8905.102926237949,10943.217344713625,150,False,11.526024290682649,False,178.6194668300206,169.59325593235647,False,10.135249172362695,True,False
3,1970-07-23 10:17:04.567291880,2025-09-11,2025-09-26 20:27:36.729,HA,C,2563316738,JASSM,3,112,76,2,2,1,225,9,2,0,1,26,0,0,0,0,-154818.77575858062,-4778632.129854049,4211974.856901646,-2.71074,-1.01099,0.75213,36.25,-57.75,-63.75,0.0,0.0,0.0,0.0,0.0,0.0,2,0,41.56951893078298,-91.85562741750168,10002.626661566266,155.94554259062235,-0.0013041212604267,0.0028019558124766,,8905.102926237949,10943.217344713625,150,3,2025-09-11,2025-09-26 20:27:36.724,HA,C,967310854,HAWK11,1,1,73,2,1,1,225,2,1,0,0,12,1,225,2,1,-143194.74646170562,-4790733.817354049,4199113.507292271,-3.00603,1.91882,-0.833047,-33.625,64.125,79.625,-0.109375,-9.39062,9.82812,-0.0820312,0.0292969,0.0253906,4,0,41.41286051534482,-91.71205767893176,10884.276361009042,-14.37293639129758,1.1824230228689032,23.83510544248316,188.487,8905.102926237949,10943.217344713625,150,False,11.396710437584881,False,174.40681264621844,169.45459292860082,False,15.655062563700387,True,False
3,1970-07-23 10:17:04.578265600,2025-09-11,2025-09-26 20:27:37.826,HA,C,2564629088,JASSM,3,112,76,2,2,1,225,9,2,0,1,26,0,0,0,0,-154778.88318045562,-4778695.799775924,4211904.560026646,-2.71074,-1.01099,0.75213,36.25,-57.75,-63.75,0.0,0.0,0.0,0.0,0.0,0.0,2,0,41.568673341281965,-91.85512490686357,10002.627238680729,155.94587601789436,-0.0003787224410748,0.0028005999685132,,8905.102926237949,10943.217344713625,150,3,2025-09-11,2025-09-26 20:27:37.928,HA,C,968861752,HAWK11,1,1,73,2,1,1,225,2,1,0,0,12,1,225,2,1,-143232.60778983062,-4790648.324189986,4199217.817839146,-2.96912,1.83943,-0.862097,-26.75,64.0,83.0,-0.03125,-8.51562,8.9375,0.0253906,0.0253906,0.0410156,4,0,41.41406648683768,-91.71254062807554,10903.177870447047,-11.042957566464043,2.0459353169997776,22.63298176122647,188.255,8905.102926237949,10943.217344713625,150,False,11.27026928624299,False,170.44590714140872,169.2848414643253,False,19.877913111317554,True,False
3,1970-07-23 10:17:04.588265464,2025-09-11,2025-09-26 20:27:38.826,HA,C,2565881788,JASSM,3,112,76,2,2,1,225,9,2,0,1,26,0,0,0,0,-154740.80310233062,-4778756.573213424,4211837.456511021,-2.71074,-1.01099,0.75213,36.25,-57.75,-63.75,0.0,0.0,0.0,0.0,0.0,0.0,2,0,41.56786618681203,-91.85464524120292,10002.622679853524,155.94619428180636,0.0005046143618155,0.0027993121713813,,8905.102926237949,10943.217344713625,150,3,2025-09-11,2025-09-26 20:27:38.834,HA,C,969736618,HAWK11,1,1,73,2,1,1,225,2,1,0,0,12,1,225,2,1,-143249.44763358062,-4790599.127900924,4199278.597136021,-2.92597,1.79783,-0.875999,-22.625,64.25,84.25,0.140625,-8.20312,8.57812,-0.0292969,0.0175781,0.0410156,4,0,41.414766424243126,-91.71275942964456,10915.333279016264,-9.371891981378868,2.50936116552253,23.35049695959392,188.451,8905.102926237949,10943.217344713625,150,False,11.17810936926504,False,168.25864682515922,169.15281812639589,False,22.27968953825886,True,False
3,1970-07-23 10:17:04.599406204,2025-09-11,2025-09-26 20:27:39.940,HA,C,2567135072,JASSM,3,112,76,2,2,1,225,9,2,0,1,26,0,0,0,0,-154702.70544608062,-4778817.375947799,4211770.321745396,-2.71074,-1.01099,0.752226,36.25,-57.75,-63.75,0.0,0.0,0.0,0.0,0.0,0.0,2,0,41.56705864836846,-91.8541653655903,10002.625543196928,155.94880737302333,-0.0036044440655903,0.002797975936376,,8905.102926237949,10943.217344713625,150,3,2025-09-11,2025-09-26 20:27:40.036,HA,C,971207982,HAWK11,1,1,73,2,1,1,225,2,1,0,0,12,1,225,2,1,-143272.77966483062,-4790517.498994674,4199381.206511021,-2.88887,1.71336,-0.882998,-16.75,64.75,85.375,0.109375,-7.32812,7.82812,-0.015625,0.0175781,0.0351562,4,0,41.41594049944146,-91.71306740468894,10938.99312996666,-6.260023863440599,2.412943149782978,21.88073900923063,187.986,8905.102926237949,10943.217344713625,150,False,11.060362920753695,False,165.23434894700688,168.95074601182017,False,25.607439532824092,True,False
3,1970-07-23 10:17:04.610406561,2025-09-11,2025-09-26 20:27:41.040,HA,C,2568446814,JASSM,3,112,76,2,2,1,225,9,2,0,1,26,0,0,0,0,-154662.83142264312,-4778881.012666549,4211700.054167271,-2.71074,-1.01099,0.752226,36.25,-57.75,-63.75,0.0,0.0,0.0,0.0,0.0,0.0,2,0,41.56621344394895,-91.8536631281764,10002.625769543763,155.94914060292348,-0.0026794742981226,0.0027966561593786,,8905.102926237949,10943.217344713625,150,3,2025-09-11,2025-09-26 20:27:40.969,HA,C,972082848,HAWK11,1,1,73,2,1,1,225,2,1,0,0,12,1,225,2,1,-143282.94763358062,-4790468.736299361,4199441.726042271,-2.85666,1.67885,-0.887216,-13.5,65.125,85.625,-0.25,-7.17188,7.51562,0.00195312,0.00390625,0.0195312,4,0,41.41663728759806,-91.71320633577528,10951.16906009502,-4.987203641232942,2.5084054760969083,22.25047773885885,188.341,8905.102926237949,10943.217344713625,150,False,10.968120763267022,False,163.6036767669509,168.7960664609712,False,27.443186346398548,True,False
3,1970-07-23 10:17:04.620385185,2025-09-11,2025-09-26 20:27:42.038,HA,C,2569699536,JASSM,3,112,76,2,2,1,225,9,2,0,1,26,0,0,0,0,-154624.75036795562,-4778941.784150924,4211632.946745396,-2.71074,-1.01089,0.752226,36.25,-57.75,-63.75,0.0,0.0,0.0,0.0,0.0,0.0,2,0,41.56540626857787,-91.85318348796368,10002.622978509253,155.9458155548429,-0.0034707142615959,-0.0009565619107543,,8905.102926237949,10943.217344713625,150,3,2025-09-11,2025-09-26 20:27:42.130,HA,C,973832580,HAWK11,1,1,73,2,1,1,225,2,1,0,0,12,1,225,2,1,-143297.76989920562,-4790369.048799361,4199565.567839146,-2.77746,1.58901,-0.878779,-7.375,66.625,85.625,-0.03125,-6.73438,7.17188,0.0136719,0.00976562,0.0410156,4,0,41.41806362287196,-91.7134190913162,10975.890845705171,-1.7597624732167103,1.800160401216814,22.93127119859028,188.304,8905.102926237949,10943.217344713625,150,False,10.84076732071258,False,160.58886363041677,168.5215006847716,False,30.82301777871429,False,False
3,1970-07-23 10:17:04.631348253,2025-09-11,2025-09-26 20:27:43.134,HA,C,2570952398,JASSM,3,112,76,2,2,1,225,9,2,0,1,26,0,0,0,0,-154586.66540701812,-4779002.563447799,4211565.831511021,-2.71074,-1.01089,0.752226,36.25,-57.75,-63.75,0.0,0.0,0.0,0.0,0.0,0.0,2,0,41.56459899261889,-91.8527038098797,10002.627007634504,155.9461338066042,-0.0025872553353609,-0.0009578750991836,,8905.102926237949,10943.217344713625,150,3,2025-09-11,2025-09-26 20:27:43.334,HA,C,975343712,HAWK11,1,1,73,2,1,1,225,2,1,0,0,12,1,225,2,1,-143303.21325858062,-4790282.601533736,4199670.931120396,-2.7371,1.51327,-0.871109,-2.125,68.0,85.0,-0.046875,-6.51562,6.90625,-0.166016,0.0078125,0.0175781,4,0,41.419288131452056,-91.71351504280884,10992.388138329405,1.0192237017615695,1.340732611148291,21.98879021606369,188.463,8905.102926237949,10943.217344713625,150,False,10.726556669797105,False,158.0003691407591,168.2557868967723,False,33.72356457106544,False,False
3,1970-07-23 10:17:04.640870178,2025-09-11,2025-09-26 20:27:44.087,HA,C,2572085792,JASSM,3,112,76,2,2,1,225,9,2,0,1,26,0,0,0,0,-154552.21228201812,-4779057.543916549,4211505.114714146,-2.71074,-1.01089,0.752226,36.25,-57.75,-63.75,0.0,0.0,0.0,0.0,0.0,0.0,2,0,41.56386870280197,-91.85226988596143,10002.624149674926,155.9464216974999,-0.0017880490831533,-0.0009590617939127,,8905.102926237949,10943.217344713625,150,3,2025-09-11,2025-09-26 20:27:44.224,HA,C,976337878,HAWK11,1,1,73,2,1,1,225,2,1,0,0,12,1,225,2,1,-143303.93786795562,-4790224.266572799,4199740.991667271,-2.9044,1.46821,-0.858742,0.125,68.75,85.0,-0.078125,-6.4375,6.85938,-0.226562,0.00195312,0.0332031,4,0,41.420107946764126,-91.71354455670416,11001.053855888767,2.71963601801463,0.696493502505657,10.468451188717244,188.5,8905.102926237949,10943.217344713625,150,False,10.638947255361643,False,156.87152433087124,168.05413935815452,False,35.06409793387263,False,False
3,1970-07-23 10:17:04.650331429,2025-09-11,2025-09-26 20:27:45.033,HA,C,2573219024,JASSM,3,112,76,2,2,1,225,9,2,0,1,26,0,0,0,0,-154517.76403983062,-4779112.516572799,4211444.405729771,-2.71074,-1.01089,0.752226,36.25,-57.75,-63.75,0.0,0.0,0.0,0.0,0.0,0.0,2,0,41.56313850953993,-91.85183603331764,10002.623582668124,155.94670953695413,-0.0009889512364129,-0.0009602504663023,,8905.102926237949,10943.217344713625,150,3,2025-09-11,2025-09-26 20:27:45.224,HA,C,977530876,HAWK11,1,1,73,2,1,1,225,2,1,0,0,12,1,225,2,1,-143302.90466483062,-4790154.639619674,4199824.735807896,-2.99337,1.44884,-0.853373,1.625,69.75,84.875,-0.03125,-6.3125,6.71875,-0.0449219,-0.0078125,-0.0195312,4,0,41.42108761426191,-91.71355710170856,11011.527483953629,3.4645169035423344,0.4353141598529191,4.540157516112372,188.744,8905.102926237949,10943.217344713625,150,True,10.544171202803144,False,156.1490333562766,167.81505670395956,False,36.03297427659482,False,False
3,1970-07-23 10:17:04.659364643,2025-09-11,2025-09-26 20:27:45.936,HA,C,2574352418,JASSM,3,112,76,2,2,1,225,9,2,0,1,26,0,0,0,0,-154483.31091483062,-4779167.497041549,4211383.688932896,-2.71074,-1.01089,0.752226,36.25,-57.75,-63.75,0.0,0.0,0.0,0.0,0.0,0.0,2,0,41.56240821626249,-91.85140212894063,10002.62885744347,155.94699740657632,-0.0001897447807352,-0.0009614371915294,,8905.102926237949,10943.217344713625,150,3,2025-09-11,2025-09-26 20:27:46.130,HA,C,978485276,HAWK11,1,1,73,2,1,1,225,2,1,0,0,12,1,225,2,1,-143300.39294608062,-4790097.654268111,4199892.091276646,-3.03671,1.46677,-0.852414,2.5,70.25,84.75,0.046875,-6.32812,6.59375,0.0,-0.0078125,0.00195312,4,0,41.42188171793439,-91.71354745832168,11017.411646748127,2.7935292230839357,0.3392353986138799,2.8264450627817688,188.94,8905.102926237949,10943.217344713625,150,True,10.459137773011872,False,155.723151710212,167.6036199973852,False,36.672358086652395,False,False
3,1970-07-23 10:17:04.669331627,2025-09-11,2025-09-26 20:27:46.933,HA,C,2575486046,JASSM,3,112,76,2,2,1,225,9,2,0,1,26,0,0,0,0,-154448.84997733062,-4779222.485322799,4211322.956511021,-2.71074,-1.01089,0.752226,36.25,-57.75,-63.75,0.0,0.0,0.0,0.0,0.0,0.0,2,0,41.56167777092692,-91.85096813774832,10002.622738705904,155.94728532963933,0.0006096285071546,-0.0009626192076456,,8905.102926237949,10943.217344713625,150,3,2025-09-11,2025-09-26 20:27:46.724,HA,C,979280608,HAWK11,1,1,73,2,1,1,225,2,1,0,0,12,1,225,2,1,-143298.18200858062,-4790050.846650924,4199947.056120396,-2.99423,1.45364,-0.851551,3.25,70.875,84.5,0.015625,-6.09375,6.5,0.0742188,-0.0078125,0.0175781,4,0,41.42253158405462,-91.71353777056191,11021.453934435074,3.29118151918973,0.3204882101540334,4.696423463819004,188.781,8905.102926237949,10943.217344713625,150,True,10.381198392382071,False,155.36825076272555,167.4172126015819,False,37.214532424866896,False,False
3,1970-07-23 10:17:04.679344662,2025-09-11,2025-09-26 20:27:47.934,HA,C,2576678858,JASSM,3,112,76,2,2,1,225,9,2,0,1,26,0,0,0,0,-154412.59118826812,-4779280.346650924,4211259.054167271,-2.71064,-1.01089,0.752322,36.25,-57.75,-63.75,0.0,0.0,0.0,0.0,0.0,0.0,2,0,41.560909180507664,-91.85051151382804,10002.627972109502,155.94988185798425,-0.0035388195143103,0.004527554107786,,8905.102926237949,10943.217344713625,150,3,2025-09-11,2025-09-26 20:27:47.926,HA,C,980791740,HAWK11,1,1,73,2,1,1,225,2,1,0,0,12,1,225,2,1,-143293.05700858062,-4789959.346650924,4200053.093229771,-2.91917,1.42948,-0.847045,4.875,72.25,84.0,0.09375,-6.20312,6.67188,0.0292969,0.0,0.00390625,4,0,41.42379258494952,-91.71350923523016,11026.24664930787,4.222188584355764,0.1322840921657894,7.961949585656044,188.353,8905.102926237949,10943.217344713625,150,True,10.272043222962099,False,154.58832405149604,167.09900697832464,False,38.308095783731645,False,False
3,1970-07-23 10:17:04.690119779,2025-09-11,2025-09-26 20:27:49.011,HA,C,2577812914,JASSM,3,112,76,2,2,1,225,9,2,0,1,26,0,0,0,0,-154378.11755545562,-4779335.354463424,4211198.298307896,-2.71064,-1.01089,0.752322,36.25,-57.75,-63.75,0.0,0.0,0.0,0.0,0.0,0.0,2,0,41.56017845969416,-91.8500773831031,10002.626106527938,155.95016986518544,-0.0027391489850408,0.0045264022909506,,8905.102926237949,10943.217344713625,150,3,2025-09-11,2025-09-26 20:27:48.630,HA,C,981666606,HAWK11,1,1,73,2,1,1,225,2,1,0,0,12,1,225,2,1,-143289.21130545562,-4789905.947236861,4200114.063932896,-2.90574,1.41529,-0.844552,5.875,72.625,84.0,0.046875,-6.29688,6.6875,-0.0664062,-0.00976562,0.0195312,4,0,41.42452249914671,-91.71348236628806,11027.004553061754,4.771864473635943,0.0385488991728641,8.12332892071775,188.231,8905.102926237949,10943.217344713625,150,True,10.191016654532117,False,154.08741054256464,166.8858145790866,False,39.02002823120625,False,False
3,1970-07-23 10:17:04.698271976,2025-09-11,2025-09-26 20:27:49.827,HA,C,2578945798,JASSM,3,112,76,2,2,1,225,9,2,0,1,26,0,0,0,0,-154343.67907889312,-4779390.305635299,4211137.602995396,-2.71064,-1.01089,0.752322,36.25,-57.75,-63.75,0.0,0.0,0.0,0.0,0.0,0.0,2,0,41.55944847607625,-91.84964370508108,10002.623900925011,155.95045756790597,-0.0019402882020038,0.0045252489367492,,8905.102926237949,10943.217344713625,150,3,2025-09-11,2025-09-26 20:27:49.428,HA,C,982581238,HAWK11,1,1,73,2,1,1,225,2,1,0,0,12,1,225,2,1,-143284.41638358062,-4789849.870088424,4200177.511198521,-2.94879,1.3942,-0.839567,6.875,73.375,83.875,0.0,-6.32812,6.70312,-0.0292969,0.00195312,0.0234375,4,0,41.425285230311175,-91.71344510974832,11026.487628545934,5.601540739985492,-0.1629412055624269,4.754460661452084,188.39,8905.102926237949,10943.217344713625,150,True,10.108894459361252,False,153.60030237989136,166.66049806724357,False,39.7266986172512,False,False
3,1970-07-23 10:17:04.707330418,2025-09-11,2025-09-26 20:27:50.733,HA,C,2580079042,JASSM,3,112,76,2,2,1,225,9,2,0,1,26,0,0,0,0,-154309.22986014312,-4779445.274385299,4211076.888151646,-2.71064,-1.01089,0.752322,36.25,-57.75,-63.75,0.0,0.0,0.0,0.0,0.0,0.0,2,0,41.55871825638562,-91.8492099013802,10002.625529700694,155.95074534984977,-0.0011411720145183,0.0045240926155906,,8905.102926237949,10943.217344713625,150,3,2025-09-11,2025-09-26 20:27:50.646,HA,C,983535636,HAWK11,1,1,73,2,1,1,225,2,1,0,0,12,1,225,2,1,-143278.64294608062,-4789790.879854049,4200244.171354771,-2.95943,1.38173,-0.839854,7.625,73.875,84.25,0.109375,-6.75,7.20312,-0.0136719,0.0175781,-0.00390625,4,0,41.42608715304102,-91.7133971991842,11025.713900643235,6.073369547518445,-0.0913100426229088,3.612087739627916,188.659,8905.102926237949,10943.217344713625,150,True,10.025340310371936,False,153.24011524211915,166.42115307353708,False,40.32477459723634,False,False
3,1970-07-23 10:17:04.717331522,2025-09-11,2025-09-26 20:27:51.733,HA,C,2581153624,JASSM,3,112,76,2,2,1,225,9,2,0,1,26,0,0,0,0,-154276.56482108062,-4779497.395479049,4211019.315886021,-2.71064,-1.01089,0.752322,36.25,-57.75,-63.75,0.0,0.0,0.0,0.0,0.0,0.0,2,0,41.55802584567054,-91.84879857436684,10002.624797662183,155.9510182171009,-0.0003834354038652,0.0045229924427897,,8905.102926237949,10943.217344713625,150,3,2025-09-11,2025-09-26 20:27:51.630,HA,C,985245602,HAWK11,1,1,73,2,1,1,225,2,1,0,0,12,1,225,2,1,-143267.36364920562,-4789685.162080611,4200363.770964146,-2.9833,1.37857,-0.85203,8.625,74.125,84.625,-0.078125,-6.875,7.1875,0.0,0.00390625,0.0078125,4,0,41.4275253835955,-91.71330018867287,11024.565034174386,6.109032886071025,0.6171410974993242,2.1088419890567294,188.94,8905.102926237949,10943.217344713625,150,True,9.91554571663297,False,152.74814148701418,166.0363020564233,False,41.20203066070106,False,False
3,1970-07-23 10:17:04.727658264,2025-09-11,2025-09-26 20:27:52.765,HA,C,2582345828,JASSM,3,112,76,2,2,1,225,9,2,0,1,26,0,0,0,0,-154240.32361014312,-4779555.219697799,4210955.440886021,-2.71064,-1.01089,0.752322,36.25,-57.75,-63.75,0.0,0.0,0.0,0.0,0.0,0.0,2,0,41.55725764833022,-91.8483422267014,10002.621278604112,155.95132094590713,0.0004572394102826,0.0045217792986206,,8905.102926237949,10943.217344713625,150,3,2025-09-11,2025-09-26 20:27:52.536,HA,C,986200000,HAWK11,1,1,73,2,1,1,225,2,1,0,0,12,1,225,2,1,-143260.45739920562,-4789625.889619674,4200431.067839146,-3.00833,1.36745,-0.858454,9.0,74.25,85.0,-0.015625,-7.04688,7.40625,-0.125,0.0,0.00195312,4,0,41.42833348381819,-91.71323883643316,11024.407741064748,6.47772793264406,1.0354693498261105,0.1995563474935103,189.331,8905.102926237949,10943.217344713625,150,True,9.830122895150081,False,152.57043506094925,165.7792685941738,False,41.6381917376675,False,False
3,1970-07-23 10:17:04.735287068,2025-09-11,2025-09-26 20:27:53.528,HA,C,2583419570,JASSM,3,112,76,2,2,1,225,9,2,0,1,26,0,0,0,0,-154207.68396170562,-4779607.297822799,4210897.913542271,-2.71064,-1.0108,0.752322,36.25,-57.75,-63.75,0.0,0.0,0.0,0.0,0.0,0.0,2,0,41.556565788349104,-91.84793123886593,10002.622598949458,155.94795073739235,-0.0004603105040184,0.0007681428525598,,8905.102926237949,10943.217344713625,150,3,2025-09-11,2025-09-26 20:27:53.538,HA,C,987472532,HAWK11,1,1,73,2,1,1,225,2,1,0,0,12,1,225,2,1,-143250.91247733062,-4789545.713838424,4200522.479948521,-3.1043,1.36802,-0.858838,8.75,74.375,85.625,0.0,-6.875,7.09375,-0.138672,0.00195312,-0.00585938,4,0,41.42942918599736,-91.7131534177831,11025.015933188324,6.453587731128798,1.055571366629252,-5.27453681475326,189.722,8905.102926237949,10943.217344713625,150,True,9.73689755703447,False,152.71177200454562,165.45710253957435,False,41.82203587836715,False,False
3,1970-07-23 10:17:04.745306202,2025-09-11,2025-09-26 20:27:54.530,HA,C,2584612618,JASSM,3,112,76,2,2,1,225,9,2,0,1,26,0,0,0,0,-154171.41638358062,-4779665.163057174,4210833.991667271,-2.71064,-1.0108,0.752418,36.25,-57.75,-63.75,0.0,0.0,0.0,0.0,0.0,0.0,2,0,41.55579703204493,-91.84747458015244,10002.624173477428,155.95054901242122,-0.0046115377113673,0.0007667917433308,,8905.102926237949,10943.217344713625,150,3,2025-09-11,2025-09-26 20:27:54.724,HA,C,988864364,HAWK11,1,1,73,2,1,1,225,2,1,0,0,12,1,225,2,1,-143241.45935233062,-4789459.054658736,4200621.671354771,3.06604,1.39228,-0.865645,7.375,74.75,86.25,0.078125,-7.04688,7.28125,-0.00585938,0.00585938,-0.0136719,4,0,41.43061595082239,-91.71307141100566,11026.586198401235,5.508801684739133,1.3353879003965743,-10.704348215406982,189.954,8905.102926237949,10943.217344713625,150,False,9.634752699506938,False,153.42278573761223,165.10133964318752,False,41.46846027633729,False,False
3,1970-07-23 10:17:04.756331029,2025-09-11,2025-09-26 20:27:55.633,HA,C,2585865316,JASSM,3,112,76,2,2,1,225,9,2,0,1,26,0,0,0,0,-154133.33532889312,-4779725.920869674,4210766.872526646,-2.71064,-1.0108,0.752418,36.25,-57.75,-63.75,0.0,0.0,0.0,0.0,0.0,0.0,2,0,41.55498983206871,-91.84699509924528,10002.62644091492,155.9508670732155,-0.0037281864474955,0.000765496499236,,8905.102926237949,10943.217344713625,150,3,2025-09-11,2025-09-26 20:27:55.833,HA,C,990176662,HAWK11,1,1,73,2,1,1,225,2,1,0,0,12,1,225,2,1,-143234.19763358062,-4789376.684541549,4200716.196745396,3.07285,1.42871,-0.868808,5.75,75.25,86.625,-0.234375,-6.875,7.03125,0.0644531,0.00390625,-0.0078125,4,0,41.431745312929145,-91.71301406070248,11028.742040108256,4.146829838966648,1.385222312438964,-8.754815939819178,190.626,8905.102926237949,10943.217344713625,150,True,9.532525776635104,False,154.25328815990213,164.75217046469172,False,40.98686505173802,False,False
3,1970-07-23 10:17:04.768492948,2025-09-11,2025-09-26 20:27:56.849,HA,C,2587118014,JASSM,3,112,76,2,2,1,225,9,2,0,1,26,0,0,0,0,-154095.25525076812,-4779786.674775924,4210699.753386021,-2.71064,-1.0108,0.752418,36.25,-57.75,-63.75,0.0,0.0,0.0,0.0,0.0,0.0,2,0,41.554182653098735,-91.84651564347108,10002.624168200546,155.95118511226335,-0.0028448601976832,0.0007642016358681,,8905.102926237949,10943.217344713625,150,3,2025-09-11,2025-09-26 20:27:56.427,HA,C,990812928,HAWK11,1,1,73,2,1,1,225,2,1,0,0,12,1,225,2,1,-143231.45349295562,-4789336.685518111,4200762.024870396,3.0811,1.44357,-0.877437,5.0,75.375,86.625,-0.0625,-7.04688,7.32812,0.0195312,0.0136719,-0.0136719,4,0,41.43229309705721,-91.71299555936972,11029.689762350414,3.5625323185019218,1.835726156709782,-7.646297221212978,190.968,8905.102926237949,10943.217344713625,150,True,9.456512957013155,False,154.6304375423347,164.5380575465598,False,40.823407474267874,False,False
3,1970-07-23 10:17:04.777386345,2025-09-11,2025-09-26 20:27:57.738,HA,C,2588370714,JASSM,3,112,76,2,2,1,225,9,2,0,1,26,0,0,0,0,-154057.17517264312,-4779847.430635299,4210632.632292271,-2.71064,-1.0108,0.752418,36.25,-57.75,-63.75,0.0,0.0,0.0,0.0,0.0,0.0,2,0,41.55337544720938,-91.84603619887254,10002.627405557972,155.95150313882394,-0.0019615109401538,0.0007628971600393,,8905.102926237949,10943.217344713625,150,3,2025-09-11,2025-09-26 20:27:57.567,HA,C,991687794,HAWK11,1,1,73,2,1,1,225,2,1,0,0,12,1,225,2,1,-143228.05505545562,-4789281.362275924,4200825.653776646,3.09107,1.44367,-0.881943,4.25,75.5,87.125,-0.15625,-7.28125,7.46875,0.0,0.00585938,0.00585938,4,0,41.4330523164106,-91.7129747148802,11031.561237973356,3.5402319200373147,2.093721371406674,-7.071508734538676,191.506,8905.102926237949,10943.217344713625,150,True,9.370922942971534,False,155.00682054241193,164.27055445621227,False,40.71665224360003,False,False
3,1970-07-23 10:17:04.787262935,2025-09-11,2025-09-26 20:27:58.726,HA,C,2589563766,JASSM,3,112,76,2,2,1,225,9,2,0,1,26,0,0,0,0,-154020.90759451812,-4779905.290010299,4210568.706511021,-2.71064,-1.0108,0.752418,36.25,-57.75,-63.75,0.0,0.0,0.0,0.0,0.0,0.0,2,0,41.55260669160577,-91.84557958732884,10002.6248010477,155.95180601497893,-0.0011202358246688,0.0007616664053073,,8905.102926237949,10943.217344713625,150,3,2025-09-11,2025-09-26 20:27:58.646,HA,C,993159160,HAWK11,1,1,73,2,1,1,225,2,1,0,0,12,1,225,2,1,-143223.48669608062,-4789188.564424361,4200932.936979771,3.08215,1.45709,-0.883189,3.0,75.375,87.75,-0.046875,-6.73438,7.01562,-0.0488281,-0.00976562,-0.00585938,4,0,41.43432934556349,-91.71295328157171,11035.993895393489,3.0477219269429665,2.133113964316957,-7.00649333034232,192.044,8905.102926237949,10943.217344713625,150,True,9.264161717783772,False,155.61826150814093,163.87903418053648,False,40.500197200050835,False,False
3,1970-07-23 10:17:04.797303403,2025-09-11,2025-09-26 20:27:59.730,HA,C,2590816458,JASSM,3,112,76,2,2,1,225,9,2,0,1,26,0,0,0,0,-153982.82751639312,-4779966.041963424,4210501.583464146,-2.71064,-1.0108,0.752418,36.25,-57.75,-63.75,0.0,0.0,0.0,0.0,0.0,0.0,2,0,41.551799491744376,-91.84510016752752,10002.623901655284,155.9521240151834,-0.0002368960552455,0.000760365000167,,8905.102926237949,10943.217344713625,150,3,2025-09-11,2025-09-26 20:27:59.724,HA,C,994908892,HAWK11,1,1,73,2,1,1,225,2,1,0,0,12,1,225,2,1,-143220.16443045562,-4789077.631807174,4201060.923307896,3.01092,1.47924,-0.892969,1.125,75.75,87.625,0.234375,-7.01562,7.26562,-0.00195312,0.00390625,-0.00195312,4,0,41.43585378245275,-91.71295322466524,11040.89394338452,2.2170853767394183,2.6504341023645286,-10.137976067991644,193.437,8905.102926237949,10943.217344713625,150,False,9.143502730128773,False,156.5560815299125,163.41822012921216,False,40.02191720171777,False,False
3,1970-07-23 10:17:04.808330294,2025-09-11,2025-09-26 20:28:00.833,HA,C,2592069250,JASSM,3,112,76,2,2,1,225,9,2,0,1,26,0,0,0,0,-153944.74353201812,-4780026.797822799,4210434.454557896,-2.71064,-1.0108,0.752418,36.25,-57.75,-63.75,0.0,0.0,0.0,0.0,0.0,0.0,2,0,41.5509922277539,-91.84462071137403,10002.624496565097,155.95244203442516,0.000646515195927,0.0007590713001442,,8905.102926237949,10943.217344713625,150,3,2025-09-11,2025-09-26 20:28:00.926,HA,C,996300724,HAWK11,1,1,73,2,1,1,225,2,1,0,0,12,1,225,2,1,-143219.59802420562,-4788989.620088424,4201162.378386021,2.92511,1.51318,-0.890092,-0.5,76.125,87.75,-0.015625,-6.76562,6.875,-0.136719,0.0078125,-0.0175781,4,0,41.43706228594804,-91.71297791597966,11044.755935805984,1.0004859012755885,2.445995516322516,-13.595388798832715,194.769,8905.102926237949,10943.217344713625,150,False,9.037048091030938,False,157.36329031328208,163.02921168391657,False,39.60308449368675,False,False
3,1970-07-23 10:17:04.818363853,2025-09-11,2025-09-26 20:28:01.836,HA,C,2593262594,JASSM,3,112,76,2,2,1,225,9,2,0,1,26,0,0,0,0,-153908.46716483062,-4780084.668916549,4210370.511198521,-2.71064,-1.0108,0.752513,36.25,-57.75,-63.75,0.0,0.0,0.0,0.0,0.0,0.0,2,0,41.55022327959677,-91.84416402361316,10002.625672952656,155.95503886966867,-0.0035014126210672,0.0007577991554228,,8905.102926237949,10943.217344713625,150,3,2025-09-11,2025-09-26 20:28:01.724,HA,C,997215356,HAWK11,1,1,73,2,1,1,225,2,1,0,0,12,1,225,2,1,-143220.80310233062,-4788930.995088424,4201229.602995396,2.89462,1.52267,-0.889901,-2.25,76.375,88.0,-0.03125,-6.79688,7.07812,0.0332031,-0.00195312,-0.0078125,4,0,41.43786459794853,-91.71301327829536,11046.678962277,0.6581028657300143,2.4299118069258867,-14.934142490183463,195.563,8905.102926237949,10943.217344713625,150,False,8.95144376127289,False,158.22239236500286,162.74098108079443,False,39.03274755452196,False,False
3,1970-07-23 10:17:04.829384916,2025-09-11,2025-09-26 20:28:02.938,HA,C,2594574556,JASSM,3,112,76,2,2,1,225,9,2,0,1,26,0,0,0,0,-153868.58532889312,-4780148.291963424,4210300.208464146,-2.71064,-1.0108,0.752513,36.25,-57.75,-63.75,0.0,0.0,0.0,0.0,0.0,0.0,2,0,41.54937787535725,-91.8436619585619,10002.623726949796,155.95537187481642,-0.0025762729039429,0.0007564701633129,,8905.102926237949,10943.217344713625,150,3,2025-09-11,2025-09-26 20:28:03.036,HA,C,998806020,HAWK11,1,1,73,2,1,1,225,2,1,0,0,12,1,225,2,1,-143225.79919608062,-4788828.467744674,4201346.286589146,2.88484,1.57118,-0.87945,-5.0,77.5,87.625,0.125,-6.59375,6.73438,-0.0175781,0.0,-0.0117188,4,0,41.43926126100284,-91.71310965370846,11048.34631815864,-1.106716881154486,1.840618763437668,-13.40938825892006,196.846,8905.102926237949,10943.217344713625,150,False,8.832767295036328,False,159.58509618137185,162.2977394886759,False,38.1045596034371,False,False
3,1970-07-23 10:17:04.839262543,2025-09-11,2025-09-26 20:28:03.926,HA,C,2595767644,JASSM,3,112,76,2,2,1,225,9,2,0,1,26,0,0,0,0,-153832.31677420562,-4780206.149385299,4210236.276823521,-2.71064,-1.0108,0.752513,36.25,-57.75,-63.75,0.0,0.0,0.0,0.0,0.0,0.0,2,0,41.54860908216863,-91.8432053923355,10002.626933379246,155.95567469708473,-0.001734968592246,0.0007552692245356,,8905.102926237949,10943.217344713625,150,3,2025-09-11,2025-09-26 20:28:03.926,HA,C,999800186,HAWK11,1,1,73,2,1,1,225,2,1,0,0,12,1,225,2,1,-143230.43005545562,-4788763.530244674,4201419.552214146,2.91102,1.58326,-0.887216,-6.5,77.625,87.625,-0.15625,-7.17188,7.375,0.015625,0.00390625,-0.00195312,4,0,41.44014129671518,-91.713188227295,11048.131324446776,-1.533975637580076,2.2982410535832805,-11.390209481886084,197.897,8905.102926237949,10943.217344713625,150,False,8.742995249571141,False,160.31681969388785,161.98490377411454,False,37.68536769008826,False,False
3,1970-07-23 10:17:04.849286646,2025-09-11,2025-09-26 20:28:04.928,HA,C,2597020300,JASSM,3,112,76,2,2,1,225,9,2,0,1,26,0,0,0,0,-153794.23767264312,-4780266.893525924,4210169.151823521,-2.71054,-1.0107,0.752513,36.25,-57.75,-63.75,0.0,0.0,0.0,0.0,0.0,0.0,2,0,41.54780190511495,-91.84272604630448,10002.627291437344,155.95235054437086,-0.0025262849110911,0.0024922984188486,,8905.102926237949,10943.217344713625,150,3,2025-09-11,2025-09-26 20:28:04.631,HA,C,1000714818,HAWK11,1,1,73,2,1,1,225,2,1,0,0,12,1,225,2,1,-143236.29724295562,-4788704.686494674,4201485.880339146,2.87535,1.60387,-0.887791,-8.0,77.625,87.75,0.140625,-6.75,7.0,0.00585938,0.00390625,-0.0175781,4,0,41.440938032126574,-91.713279403296,11047.928502265804,-2.2784001184238742,2.361423794593517,-12.547985644958258,198.679,8905.102926237949,10943.217344713625,150,False,8.654420194770465,False,161.04339416199403,161.68533459688643,False,37.26024805365489,False,False
3,1970-07-23 10:17:04.860324960,2025-09-11,2025-09-26 20:28:06.032,HA,C,2598272998,JASSM,3,112,76,2,2,1,225,9,2,0,1,26,0,0,0,0,-153756.15661795562,-4780327.637666549,4210102.022917271,-2.71054,-1.0107,0.752513,36.25,-57.75,-63.75,0.0,0.0,0.0,0.0,0.0,0.0,2,0,41.54699470001476,-91.84224668881218,10002.62396297041,155.95266847319417,-0.0016429484814526,0.0024909850399413,,8905.102926237949,10943.217344713625,150,3,2025-09-11,2025-09-26 20:28:06.130,HA,C,1002504316,HAWK11,1,1,73,2,1,1,225,2,1,0,0,12,1,225,2,1,-143250.73669608062,-4788588.045869674,4201617.265104771,2.84927,1.64702,-0.888175,-11.0,77.75,88.0,-0.203125,-7.28125,7.51562,0.0253906,0.00390625,-0.0175781,4,0,41.4425162105956,-91.71349372512682,11047.546500774826,-3.83506323650848,2.48375709975669,-12.190010294532826,200.268,8905.102926237949,10943.217344713625,150,False,8.527824832373861,False,162.48645181527775,161.19432338274143,False,36.31079227760851,False,False
3,1970-07-23 10:17:04.871243850,2025-09-11,2025-09-26 20:28:07.124,HA,C,2599525772,JASSM,3,112,76,2,2,1,225,9,2,0,1,26,0,0,0,0,-153718.07361014312,-4780388.385713424,4210034.888151646,-2.71054,-1.0107,0.752513,36.25,-57.75,-63.75,0.0,0.0,0.0,0.0,0.0,0.0,2,0,41.54618743040914,-91.8417673183551,10002.62228528196,155.9529864055415,-0.0007595473583866,0.0024896632287983,,8905.102926237949,10943.217344713625,150,3,2025-09-11,2025-09-26 20:28:07.036,HA,C,1003538248,HAWK11,1,1,73,2,1,1,225,2,1,0,0,12,1,225,2,1,-143260.93591483062,-4788520.832979049,4201693.561979771,2.95263,1.66581,-0.890092,-12.375,77.5,88.375,-0.140625,-7.03125,7.14062,0.175781,0.00585938,-0.0214844,4,0,41.44342924923659,-91.71363968875042,11048.748306896028,-4.502167164541437,2.652799224604066,-5.462151782073758,200.781,8905.102926237949,10943.217344713625,150,True,8.433105676466445,False,163.13478497867135,160.85870152890863,False,36.00288284135164,False,False
3,1970-07-23 10:17:04.881363255,2025-09-11,2025-09-26 20:28:08.136,HA,C,2600838588,JASSM,3,112,76,2,2,1,225,9,2,0,1,26,0,0,0,0,-153678.16540701812,-4780452.043916549,4209964.536589146,-2.71054,-1.0107,0.752513,36.25,-57.75,-63.75,0.0,0.0,0.0,0.0,0.0,0.0,2,0,41.545341481565565,-91.8412649865206,10002.624308821703,155.9533195610924,0.0001661805694446,0.0024882829404611,,8905.102926237949,10943.217344713625,150,3,2025-09-11,2025-09-26 20:28:08.130,HA,C,1004890314,HAWK11,1,1,73,2,1,1,225,2,1,0,0,12,1,225,2,1,-143275.40466483062,-4788432.225557174,4201794.216276646,3.03028,1.66772,-0.890188,-12.75,77.375,88.75,-0.25,-7.03125,7.17188,0.0078125,0.00195312,0.00976562,4,0,41.44463321567211,-91.7138443502092,11050.571108754972,-4.570681590908224,2.6659952120069983,-0.9304320901195312,200.085,8905.102926237949,10943.217344713625,150,True,8.321795943508691,False,163.29554792511559,160.44034920334866,False,36.26272434592657,False,False
3,1970-07-23 10:17:04.893423999,2025-09-11,2025-09-26 20:28:09.342,HA,C,2602210066,JASSM,3,112,76,2,2,1,225,9,2,0,1,26,0,0,0,0,-153636.47302420562,-4780518.545869674,4209891.038542271,-2.71054,-1.0107,0.752609,36.25,-57.75,-63.75,0.0,0.0,0.0,0.0,0.0,0.0,2,0,41.544457715036415,-91.84074021173264,10002.624029504366,155.95596327247878,-0.0038590686050377,0.0024867876463458,,8905.102926237949,10943.217344713625,150,3,2025-09-11,2025-09-26 20:28:09.332,HA,C,1006361680,HAWK11,1,1,73,2,1,1,225,2,1,0,0,12,1,225,2,1,-143291.53357108062,-4788336.059541549,4201903.763151646,2.97621,1.65066,-0.884532,-13.0,77.75,89.0,0.03125,-6.85938,6.95312,-0.125,0.0078125,-0.0136719,4,0,41.44594187520369,-91.71407157043836,11053.256585554442,-3.983980220630664,2.289814668495893,-4.761324204899235,199.388,8905.102926237949,10943.217344713625,150,True,8.20337990479811,False,163.39598727264382,159.97944188835743,False,36.6226737977539,False,False
3,1970-07-23 10:17:04.904445636,2025-09-11,2025-09-26 20:28:10.444,HA,C,2603522692,JASSM,3,112,76,2,2,1,225,9,2,0,1,26,0,0,0,0,-153596.57068045562,-4780582.192354049,4209820.694792271,-2.71054,-1.0107,0.752609,36.25,-57.75,-63.75,0.0,0.0,0.0,0.0,0.0,0.0,2,0,41.54361188285706,-91.84023798133389,10002.625908689106,155.95629634948088,-0.0029334739830144,0.0024854428404332,,8905.102926237949,10943.217344713625,150,3,2025-09-11,2025-09-26 20:28:10.536,HA,C,1007753512,HAWK11,1,1,73,2,1,1,225,2,1,0,0,12,1,225,2,1,-143307.30310233062,-4788245.383760299,4202006.991667271,2.85608,1.67261,-0.87993,-14.375,78.125,89.125,-0.15625,-7.10938,7.10938,0.0214844,0.00390625,-0.0195312,4,0,41.44717528770408,-91.71429253888144,11055.700788832568,-4.80460177125002,2.1007046061711456,-10.704270155616852,198.423,8905.102926237949,10943.217344713625,150,False,8.091266488401173,False,164.03843807909203,159.53220226338684,False,36.426770323981536,False,False
3,1970-07-23 10:17:04.915284613,2025-09-11,2025-09-26 20:28:11.528,HA,C,2604894408,JASSM,3,112,76,2,2,1,225,9,2,0,1,26,0,0,0,0,-153554.87146170562,-4780648.702119674,4209747.183073521,-2.71054,-1.0107,0.752609,36.25,-57.75,-63.75,0.0,0.0,0.0,0.0,0.0,0.0,2,0,41.542727973992015,-91.83971314966598,10002.626171812186,155.95664440959288,-0.0019662121768937,0.0024840428808237,,8905.102926237949,10943.217344713625,150,3,2025-09-11,2025-09-26 20:28:11.630,HA,C,1009105576,HAWK11,1,1,73,2,1,1,225,2,1,0,0,12,1,225,2,1,-143324.84021170562,-4788156.112275924,4202108.644011021,2.83508,1.70051,-0.871013,-16.25,78.375,89.25,0.046875,-6.70312,6.73438,0.0175781,-0.00195312,0.00195312,4,0,41.4483893907802,-91.71453414526628,11058.313716456698,-5.878922217927227,1.7056204649401177,-10.715424563595636,197.861,8905.102926237949,10943.217344713625,150,False,7.977494346392483,False,164.91462141300283,159.07660542684368,False,36.00624414579049,False,False
3,1970-07-23 10:17:04.932041657,2025-09-11,2025-09-26 20:28:13.204,HA,C,2606266410,JASSM,3,112,76,2,2,1,225,9,2,0,1,26,0,0,0,0,-153513.16443045562,-4780715.225557174,4209673.653776646,-2.71054,-1.0107,0.752609,36.25,-57.75,-63.75,0.0,0.0,0.0,0.0,0.0,0.0,2,0,41.54184386413478,-91.8391882335016,10002.627085971932,155.9569925196566,-0.0009987388538495,0.0024826295682694,,8905.102926237949,10943.217344713625,150,3,2025-09-11,2025-09-26 20:28:13.169,HA,C,1010457642,HAWK11,1,1,73,2,1,1,225,2,1,0,0,12,1,225,2,1,-143343.98278983062,-4788067.381807174,4202209.048307896,2.90622,1.71202,-0.867179,-17.625,78.75,89.375,-0.125,-6.8125,6.875,0.0605469,0.0078125,-0.00976562,4,0,41.44959156680933,-91.71479476138607,11059.673705381732,-6.328655799690505,1.5413280167273662,-6.148715482224526,197.066,8905.102926237949,10943.217344713625,150,True,7.864126525129022,False,165.54494873102198,158.61599701534826,False,35.83565111953356,False,False
3,1970-07-23 10:17:04.936329851,2025-09-11,2025-09-26 20:28:13.632,HA,C,2607340152,JASSM,3,112,76,2,2,1,225,9,2,0,1,26,0,0,0,0,-153480.52380545562,-4780767.284150924,4209616.108854771,-2.71054,-1.0107,0.752609,36.25,-57.75,-63.75,0.0,0.0,0.0,0.0,0.0,0.0,2,0,41.54115196790392,-91.83877743669488,10002.623457180958,155.95726494463372,-0.0002416009234542,0.0024815325835019,,8905.102926237949,10943.217344713625,150,3,2025-09-11,2025-09-26 20:28:13.724,HA,C,1011610874,HAWK11,1,1,73,2,1,1,225,2,1,0,0,12,1,225,2,1,-143361.69763358062,-4787990.481416549,4202295.593229771,2.90555,1.71739,-0.867179,-18.5,79.125,89.375,0.125,-6.875,7.0,-0.0175781,0.00195312,0.0136719,4,0,41.45063007065819,-91.71503408233126,11059.915765892065,-6.526227152778816,1.5681911901335543,-5.957902731214398,197.066,8905.102926237949,10943.217344713625,150,True,7.770535805181613,False,165.94413912835182,158.22357108016098,False,35.82671389365585,False,False
3,1970-07-23 10:17:04.945381352,2025-09-11,2025-09-26 20:28:14.538,HA,C,2608413894,JASSM,3,112,76,2,2,1,225,9,2,0,1,26,0,0,0,0,-153447.88220389312,-4780819.344697799,4209558.561979771,-2.71054,-1.0107,0.752609,36.25,-57.75,-63.75,0.0,0.0,0.0,0.0,0.0,0.0,2,0,41.54046004550251,-91.83836663620336,10002.623945615054,155.95753736832685,0.000515563376178,0.0024804340595631,,8905.102926237949,10943.217344713625,150,3,2025-09-11,2025-09-26 20:28:14.536,HA,C,1012565272,HAWK11,1,1,73,2,1,1,225,2,1,0,0,12,1,225,2,1,-143376.81286795562,-4787927.268525924,4202366.868620396,2.84515,1.71566,-0.869,-19.375,79.125,89.5,0.015625,-6.95312,7.10938,-0.125,-0.0078125,-0.00976562,4,0,41.45148453986465,-91.71523742936829,11060.4531024694,-6.449299064474182,1.664152061050556,-9.491822748631748,197.188,8905.102926237949,10943.217344713625,150,True,7.6861458473501205,False,166.3445300500994,157.87244609732446,False,35.778777619460406,False,False
3,1970-07-23 10:17:04.954424706,2025-09-11,2025-09-26 20:28:15.442,HA,C,2609547288,JASSM,3,112,76,2,2,1,225,9,2,0,1,26,0,0,0,0,-153413.42810233062,-4780874.295869674,4209497.817839146,-2.71054,-1.0107,0.752609,36.25,-57.75,-63.75,0.0,0.0,0.0,0.0,0.0,0.0,2,0,41.53972968935531,-91.83793303463044,10002.624026665788,155.9578249085879,0.0013147815303103,0.0024792698042283,,8905.102926237949,10943.217344713625,150,3,2025-09-11,2025-09-26 20:28:15.724,HA,C,1013957104,HAWK11,1,1,73,2,1,1,225,2,1,0,0,12,1,225,2,1,-143400.68786795562,-4787835.223604049,4202470.683073521,2.6861,1.74605,-0.858838,-21.875,79.5,89.5,-0.28125,-6.84375,6.84375,-0.0332031,0.00585938,-0.0292969,4,0,41.452728607291846,-91.71555583955204,11061.44581655825,-7.65184862090457,1.249176708518814,-17.311309761455263,197.103,8905.102926237949,10943.217344713625,150,False,7.5798637950084995,False,167.49250020756472,157.40541878696988,False,35.09630942909004,False,False
