Subject_cm,Timestamp,SampleDate_cm,SampleTime_cm,Configuration_cm,Scenario_cm,DisTime_cm,MarkingTxt_cm,Application_cm,EntId_cm,Site_cm,ExerciseId_cm,ForceId_cm,Category_cm,Country_cm,Domain_cm,Kind_cm,Extra_cm,Specific_cm,Subcategory_cm,AltCategory_cm,AltCountry_cm,AltDomain_cm,AltKind_cm,ECEF_X_cm,ECEF_Y_cm,ECEF_Z_cm,OriPhi_cm,OriPsi_cm,OriTheta_cm,LinVelX_cm,LinVelY_cm,LinVelZ_cm,LinAccX_cm,LinAccY_cm,LinAccZ_cm,AngVelX_cm,AngVelY_cm,AngVelZ_cm,DrAlg_cm,Appearance_cm,Latitude_cm,Longitude_cm,Altitude_cm,Heading_cm,Pitch_cm,Roll_cm,CalibratedAirspeed_cm,CM_Altitude_Lead_cm,CM_Altitude_Wing_cm,CM_Airspeed_cm,Subject_ac,SampleDate_ac,SampleTime_ac,Configuration_ac,Scenario_ac,DisTime_ac,MarkingTxt_ac,Application_ac,EntId_ac,Site_ac,ExerciseId_ac,ForceId_ac,Category_ac,Country_ac,Domain_ac,Kind_ac,Extra_ac,Specific_ac,Subcategory_ac,AltCategory_ac,AltCountry_ac,AltDomain_ac,AltKind_ac,ECEF_X_ac,ECEF_Y_ac,ECEF_Z_ac,OriPhi_ac,OriPsi_ac,OriTheta_ac,LinVelX_ac,LinVelY_ac,LinVelZ_ac,LinAccX_ac,LinAccY_ac,LinAccZ_ac,AngVelX_ac,AngVelY_ac,AngVelZ_ac,DrAlg_ac,Appearance_ac,Latitude_ac,Longitude_ac,Altitude_ac,Heading_ac,Pitch_ac,Roll_ac,CalibratedAirspeed_ac,CM_Altitude_Lead_ac,CM_Altitude_Wing_ac,CM_Airspeed_ac,Bank_Angle_Condition,distance_nm,Distance_Condition,angle_between_vel,angle_between_pos,Cone_Condition,angle_between_pos_nose,Nose_Cone_Condition,Intercept_Criteria
3,1970-07-23 10:17:12.103267865,2025-09-11,2025-09-26 20:40:10.326,HA,D,3462288518,JASSM,3,127,76,2,2,1,225,9,2,0,1,26,0,0,0,0,-171305.58435233062,-4793411.471650924,4194623.880339146,-2.29541,0.0350898,-0.0800546,91.25,3.25,7.375,0.0,0.0,0.0,0.0,0.0,0.0,2,0,41.361137722680375,-92.04674931179812,10002.623399709675,83.87915846691104,-0.0051871877873377,0.0066288581189955,,9174.609911748745,11300.678975010827,150,3,2025-09-11,2025-09-26 20:40:10.321,HA,D,2544963242,AMBUSH51,1,1,48,2,1,1,225,2,1,0,0,9,1,225,2,1,-155253.32357332087,-4792358.736305402,4195988.398533446,2.17567,3.06056,0.00900366,-117.882,3.47637,-5.17942,-0.143986,-7.49667,6.74546,-0.0600928,0.00908908,-0.0133252,4,0,41.379863018272765,-91.85550597206571,9025.35657200462,-88.54379014998418,-2.4323543611133,-6.741565820754778,199.461,9174.609911748745,11300.678975010827,150,True,8.685344236227579,False,175.72531830379884,178.2779601684986,False,5.909996698184182,True,False
3,1970-07-23 10:17:12.111267130,2025-09-11,2025-09-26 20:40:11.126,HA,D,3463362260,JASSM,3,127,76,2,2,1,225,9,2,0,1,26,0,0,0,0,-171223.40100272125,-4793408.609346236,4194630.462370396,-2.29541,0.0348022,-0.079767,91.25,3.125,7.25,0.0,0.0,0.0,0.0,0.0,0.0,2,0,41.36121664627579,-92.045769444941,10002.623327804116,83.90303379852777,-0.003073582468658,0.0053119014493405,,9174.609911748745,11300.678975010827,150,3,2025-09-11,2025-09-26 20:40:11.056,HA,D,2545838106,AMBUSH51,1,1,48,2,1,1,225,2,1,0,0,9,1,225,2,1,-155340.07833001303,-4792354.766786492,4195982.470897412,2.13796,3.06456,0.0138122,-118.496,4.52922,-7.66125,-0.114094,-7.61306,6.90574,-0.0564954,-0.00204626,-0.0152164,4,0,41.379829874995615,-91.85654363054108,9009.650987608731,-88.90305396406585,-2.441784247789731,-8.889244434509695,200.378,9174.609911748745,11300.678975010827,150,True,8.594372705646412,False,175.7753506982937,178.14474922602832,False,6.079443811527986,True,False
3,1970-07-23 10:17:12.121306097,2025-09-11,2025-09-26 20:40:12.130,HA,D,3464544698,JASSM,3,127,76,2,2,1,225,9,2,0,1,26,0,0,0,0,-171132.8975847525,-4793405.457002486,4194637.710417271,-2.29541,0.0348022,-0.079767,91.25,3.125,7.25,0.0,0.0,0.0,0.0,0.0,0.0,2,0,41.36130354958766,-92.0446903758114,10002.625911216022,83.90374685228375,-0.0022590295052122,0.0053122972115917,,9174.609911748745,11300.678975010827,150,3,2025-09-11,2025-09-26 20:40:12.055,HA,D,2547031106,AMBUSH51,1,1,48,2,1,1,225,2,1,0,0,9,1,225,2,1,-155458.58466177853,-4792350.756397271,4195974.231768784,2.09662,3.07799,0.0231838,-119.006,3.15389,-8.6124,-0.0805924,-7.82196,6.93278,-0.0334612,0.000392192,-0.00447224,4,0,41.37977523123175,-91.85796051784608,8991.36956648309,-89.81615538391563,-2.21833725794345,-11.235266278683364,201.38,9174.609911748745,11300.678975010827,150,False,8.48181157257447,False,176.50722818460554,178.09076112874845,False,5.399927550201129,True,False
3,1970-07-23 10:17:12.133271849,2025-09-11,2025-09-26 20:40:13.327,HA,D,3465737644,JASSM,3,127,76,2,2,1,225,9,2,0,1,26,0,0,0,0,-171041.589967565,-4793402.274385299,4194645.021940708,-2.29541,0.0348022,-0.079767,91.25,3.125,7.25,0.0,0.0,0.0,0.0,0.0,0.0,2,0,41.36139122202797,-92.04360171629718,10002.625231686628,83.9044662446595,-0.0014372385218465,0.0053127036612419,,9174.609911748745,11300.678975010827,150,3,2025-09-11,2025-09-26 20:40:13.388,HA,D,2548621770,AMBUSH51,1,1,48,2,1,1,225,2,1,0,0,9,1,225,2,1,-155618.0103812479,-4792347.959499903,4195961.257714721,2.07428,3.11159,0.0408312,-119.504,0.733205,-10.1609,-0.208692,-8.40983,7.58868,-0.0134375,0.0326622,-0.0271466,4,0,41.37967347775996,-91.85986563869616,8969.080993618509,-91.84897294995956,-1.4404681595209563,-12.511912361063326,202.871,9174.609911748745,11300.678975010827,150,False,8.346653481668628,False,177.67276438480093,178.03025195949738,False,4.246686957244753,True,False
3,1970-07-23 10:17:12.141645930,2025-09-11,2025-09-26 20:40:14.164,HA,D,3466871084,JASSM,3,127,76,2,2,1,225,9,2,0,1,26,0,0,0,0,-170954.83679373687,-4793399.250947799,4194651.967253208,-2.29541,0.0348981,-0.079767,91.25,3.125,7.25,0.0,0.0,0.0,0.0,0.0,0.0,2,0,41.36147449904668,-92.04256735646098,10002.626365104405,83.90151980253455,-0.0047560576155285,0.005750958512963,,9174.609911748745,11300.678975010827,150,3,2025-09-11,2025-09-26 20:40:14.021,HA,D,2549377336,AMBUSH51,1,1,48,2,1,1,225,2,1,0,0,9,1,225,2,1,-155692.9776112956,-4792347.996758002,4195954.656095251,2.06839,3.13113,0.044168,-119.736,-1.23867,-10.4263,-0.151165,-8.97315,8.18718,-0.0122974,0.0256298,-0.0166853,4,0,41.37961419477686,-91.86076096392686,8960.846261134717,-92.73230269352948,-0.7270247620546905,-12.879903138513004,203.274,9174.609911748745,11300.678975010827,150,False,8.259372954153006,False,178.5679341260357,178.00076240893097,False,3.3371070452917917,True,False
3,1970-07-23 10:17:12.152046427,2025-09-11,2025-09-26 20:40:15.204,HA,D,3468063980,JASSM,3,127,76,2,2,1,225,9,2,0,1,26,0,0,0,0,-170863.53308279935,-4793396.066377486,4194659.275846958,-2.29541,0.0348981,-0.079767,91.25,3.125,7.25,0.0,0.0,0.0,0.0,0.0,0.0,2,0,41.36156214239243,-92.04147873871312,10002.623281115764,83.90223916973515,-0.003934303012376,0.005751307648163,,9174.609911748745,11300.678975010827,150,3,2025-09-11,2025-09-26 20:40:15.357,HA,D,2550968002,AMBUSH51,1,1,48,2,1,1,225,2,1,0,0,9,1,225,2,1,-155852.47015029838,-4792352.54659879,4195940.253618559,2.09701,-3.11789,0.0557076,-119.874,-7.19481,-8.44849,-0.230481,-8.79042,7.92937,0.0355355,0.0151873,-0.0149023,4,0,41.379459048774414,-91.86266402600816,8953.560823395244,-94.52314524568465,0.3028624540932741,-11.331525000777695,203.677,9174.609911748745,11300.678975010827,150,False,8.123892802260777,False,178.44284557125468,177.96533693479745,False,1.0001098729790252,True,False
3,1970-07-23 10:17:12.160284073,2025-09-11,2025-09-26 20:40:16.028,HA,D,3469256806,JASSM,3,127,76,2,2,1,225,9,2,0,1,26,0,0,0,0,-170772.234498815,-4793392.881807174,4194666.584440708,-2.29541,0.0348981,-0.079767,91.25,3.125,7.25,0.0,0.0,0.0,0.0,0.0,0.0,2,0,41.361649774353744,-92.04039017924934,10002.624959253377,83.90295849967556,-0.0031125942149163,0.0057516605439199,,9174.609911748745,11300.678975010827,150,3,2025-09-11,2025-09-26 20:40:16.021,HA,D,2551763334,AMBUSH51,1,1,48,2,1,1,225,2,1,0,0,9,1,225,2,1,-155932.08453925492,-4792356.111718755,4195931.712444633,2.11873,-3.10058,0.0613933,-119.674,-6.94057,-11.6477,-0.231506,-8.53983,7.76745,0.0436082,0.0141179,-0.0109783,4,0,41.37936476850935,-91.86361347773146,8950.180973517514,-95.42394184491658,0.8289964751917708,-10.153753577986576,203.714,9174.609911748745,11300.678975010827,150,False,8.031466547213615,False,178.31220277118265,177.9467102595213,False,0.9639662306171874,True,False
3,1970-07-23 10:17:12.170305248,2025-09-11,2025-09-26 20:40:17.030,HA,D,3470449870,JASSM,3,127,76,2,2,1,225,9,2,0,1,26,0,0,0,0,-170680.91784842435,-4793389.696260299,4194673.892057896,-2.29541,0.0348981,-0.0796711,91.25,3.125,7.25,0.0,0.0,0.0,0.0,0.0,0.0,2,0,41.36173739904826,-92.0393014016049,10002.624846046348,83.90779065596182,-0.0059322733513897,0.0057517041335289,,9174.609911748745,11300.678975010827,150,3,2025-09-11,2025-09-26 20:40:17.021,HA,D,2552956332,AMBUSH51,1,1,48,2,1,1,225,2,1,0,0,9,1,225,2,1,-156051.72245559478,-4792364.047102336,4195919.317406423,2.15814,-3.08517,0.0607626,-119.508,-9.26418,-11.9845,-0.0593913,-8.57109,7.69982,0.032708,0.0115837,-0.00527743,4,0,41.37921071839519,-91.8650392280649,8952.405474209132,-95.98289364585132,1.5133303233623197,-7.9607730118678415,203.714,9174.609911748745,11300.678975010827,150,True,7.91729582298363,False,177.27495985072053,177.93385950148382,False,0.9531509322383388,True,False
3,1970-07-23 10:17:12.180348449,2025-09-11,2025-09-26 20:40:18.034,HA,D,3471642816,JASSM,3,127,76,2,2,1,225,9,2,0,1,26,0,0,0,0,-170589.61023123687,-4793386.508760299,4194681.199675083,-2.29541,0.0348981,-0.0796711,91.25,3.125,7.25,0.0,0.0,0.0,0.0,0.0,0.0,2,0,41.36182502313838,-92.03821272970777,10002.6250313881,83.90851006268018,-0.0051104837045467,0.0057521200979922,,9174.609911748745,11300.678975010827,150,3,2025-09-11,2025-09-26 20:40:18.154,HA,D,2554308398,AMBUSH51,1,1,48,2,1,1,225,2,1,0,0,9,1,225,2,1,-156187.49275027117,-4792375.619488541,4195905.209968081,2.21024,-3.06105,0.06288,-119.063,-11.5618,-11.7888,-0.274198,-8.58517,7.73541,0.0345077,0.0197292,-0.0159238,4,0,41.37902033336072,-91.86665622370046,8961.166007583988,-96.9922902012953,2.464235833883384,-5.096433392403622,203.604,9174.609911748745,11300.678975010827,150,True,7.794304949351515,False,176.2670351788942,177.9305550040819,False,1.713961499830957,True,False
3,1970-07-23 10:17:12.190845374,2025-09-11,2025-09-26 20:40:19.084,HA,D,3472835714,JASSM,3,127,76,2,2,1,225,9,2,0,1,26,0,0,0,0,-170498.30603201812,-4793383.321260299,4194688.505339146,-2.29541,0.0348981,-0.0796711,91.25,3.25,7.25,0.0,0.0,0.0,0.0,0.0,0.0,2,0,41.36191262301312,-92.0371240956941,10002.62559449606,83.90922944562097,-0.0042887259992723,0.0057525254358113,,9174.609911748745,11300.678975010827,150,3,2025-09-11,2025-09-26 20:40:19.157,HA,D,2555501396,AMBUSH51,1,1,48,2,1,1,225,2,1,0,0,9,1,225,2,1,-156305.40817455715,-4792387.725177701,4195893.049083473,2.24541,-3.04923,0.0575073,-118.569,-13.0954,-11.5132,-0.176146,-8.38236,7.60725,0.0419146,0.0128341,-0.00794683,4,0,41.37884336327676,-91.86805976230777,8974.037016169708,-97.21406959948156,3.1745692381952693,-3.1327851512806832,203.018,9174.609911748745,11300.678975010827,150,True,7.6809509220058025,False,175.64371218280442,178.0111777752993,False,2.377972940281964,True,False
3,1970-07-23 10:17:12.201246040,2025-09-11,2025-09-26 20:40:20.124,HA,D,3474029568,JASSM,3,127,76,2,2,1,225,9,2,0,1,26,0,0,0,0,-170406.92859061187,-4793380.129854049,4194695.815886021,-2.29541,0.0348981,-0.0796711,91.25,3.25,7.25,0.0,0.0,0.0,0.0,0.0,0.0,2,0,41.36200028426276,-92.03603458605237,10002.625035901105,83.90994940844409,-0.0034663093882747,0.0057529325130328,,9174.609911748745,11300.678975010827,150,3,2025-09-11,2025-09-26 20:40:20.255,HA,D,2556813696,AMBUSH51,1,1,48,2,1,1,225,2,1,0,0,9,1,225,2,1,-156436.21527882398,-4792402.621253584,4195880.219390912,2.26916,-3.04054,0.0553216,-117.993,-14.3622,-10.8602,-0.160663,-7.88679,7.17002,0.0269551,0.0159883,-0.0026746,4,0,41.37864276513026,-91.86961616686024,8993.36593547086,-97.45360662582716,3.629846331660375,-1.8138623712935995,202.187,9174.609911748745,11300.678975010827,150,True,7.560546759518055,False,175.07045975204431,178.0220030221948,False,2.951665682912816,True,False
3,1970-07-23 10:17:12.212868833,2025-09-11,2025-09-26 20:40:21.286,HA,D,3475221808,JASSM,3,127,76,2,2,1,225,9,2,0,1,26,0,0,0,0,-170315.6749285025,-4793376.942354049,4194703.115690708,-2.29541,0.0348981,-0.0796711,91.25,3.25,7.25,0.0,0.0,0.0,0.0,0.0,0.0,2,0,41.36208781327979,-92.03494654951236,10002.62594338454,83.910668399076,-0.0026450073008124,0.005753335839331,,9174.609911748745,11300.678975010827,150,3,2025-09-11,2025-09-26 20:40:21.154,HA,D,2557887394,AMBUSH51,1,1,48,2,1,1,225,2,1,0,0,9,1,225,2,1,-156541.2079571945,-4792415.554708353,4195870.047465489,2.27641,-3.03701,0.0510095,-117.418,-14.9462,-10.6648,-0.154217,-7.90459,7.18328,-0.00237916,0.0121413,-0.00118698,4,0,41.3784767795987,-91.87086502905385,9011.563893236897,-97.40497464117092,3.946117014722406,-1.4059048231819482,201.417,9174.609911748745,11300.678975010827,150,True,7.454212445334367,False,174.76874834655703,178.03225002689146,False,3.2648572519153145,True,False
3,1970-07-23 10:17:12.220284446,2025-09-11,2025-09-26 20:40:22.028,HA,D,3476415616,JASSM,3,127,76,2,2,1,225,9,2,0,1,26,0,0,0,0,-170224.30114920562,-4793373.748994674,4194710.424284458,-2.29541,0.0348981,-0.0796711,91.25,3.25,7.25,0.0,0.0,0.0,0.0,0.0,0.0,2,0,41.36217545155431,-92.03385707857416,10002.625297303926,83.91138833883501,-0.0018226242111325,0.005753744040206,,9174.609911748745,11300.678975010827,150,3,2025-09-11,2025-09-26 20:40:21.856,HA,D,2558722494,AMBUSH51,1,1,48,2,1,1,225,2,1,0,0,9,1,225,2,1,-156623.1615642108,-4792426.095276784,4195862.333655543,2.27484,-3.03698,0.0464814,-116.972,-15.3857,-10.4546,-0.0819238,-7.63626,6.85153,-0.0027932,-0.00339657,0.00412478,4,0,41.37834608736639,-91.8718396674658,9027.35815010766,-97.21276347300618,4.120936517666203,-1.482803734890961,200.72,9174.609911748745,11300.678975010827,150,True,7.360334137834738,False,174.5404891708815,178.03921370932193,False,3.5024612081411135,True,False
3,1970-07-23 10:17:12.230326424,2025-09-11,2025-09-26 20:40:23.032,HA,D,3477607900,JASSM,3,127,76,2,2,1,225,9,2,0,1,26,0,0,0,0,-170133.04382498687,-4793370.558564986,4194717.723112583,-2.29541,0.0349939,-0.0796711,91.25,3.25,7.25,0.0,0.0,0.0,0.0,0.0,0.0,2,0,41.36226297157051,-92.03276899372284,10002.625179541115,83.9084773504243,-0.0051009104284498,0.0061915337149118,,9174.609911748745,11300.678975010827,150,3,2025-09-11,2025-09-26 20:40:22.987,HA,D,2560074558,AMBUSH51,1,1,48,2,1,1,225,2,1,0,0,9,1,225,2,1,-156756.18466346426,-4792443.6945725335,4195850.0561896125,2.28191,-3.03452,0.0439096,-116.314,-15.8145,-10.2739,-0.156265,-7.5858,6.84687,0.00738923,0.00345899,0.00842537,4,0,41.37813266372146,-91.87342145003277,9054.736115699225,-97.19780980974376,4.325289799103968,-1.082747931279395,199.168,9174.609911748745,11300.678975010827,150,True,7.238762084081658,False,174.29816445782075,178.06124994108836,False,3.769233959727845,True,False
3,1970-07-23 10:17:12.244164212,2025-09-11,2025-09-26 20:40:24.416,HA,D,3478801644,JASSM,3,127,76,2,2,1,225,9,2,0,1,26,0,0,0,0,-170041.6749285025,-4793367.364229049,4194725.028776646,-2.29541,0.0349939,-0.0796711,91.25,3.25,7.25,0.0,0.0,0.0,0.0,0.0,0.0,2,0,41.36235057421346,-92.03167957564804,10002.624837796444,83.90919725773733,-0.0042785727453578,0.0061918794800053,,9174.609911748745,11300.678975010827,150,3,2025-09-11,2025-09-26 20:40:24.454,HA,D,2561824290,AMBUSH51,1,1,48,2,1,1,225,2,1,0,0,9,1,225,2,1,-156926.26272366545,-4792467.060080465,4195834.694867866,2.2559,-3.03357,0.0443047,-115.485,-16.4142,-9.98341,-0.109983,-7.40908,6.76203,-0.0428696,0.00168216,-0.00415599,4,0,41.37785689214606,-91.87544349564976,9092.60831514938,-97.25236060136277,4.352170943408234,-2.5791743871255504,197.152,9174.609911748745,11300.678975010827,150,True,7.096985133441791,False,173.96062660850052,178.09774609493198,False,4.148108607048472,True,False
3,1970-07-23 10:17:12.269366933,2025-09-11,2025-09-26 20:40:26.936,HA,D,3482201958,JASSM,3,127,76,2,2,1,225,9,2,0,1,26,0,0,0,0,-169781.4150408072,-4793358.257783736,4194745.836393833,-2.29541,0.0349939,-0.0795753,91.25,3.25,7.25,0.0,0.0,0.0,0.0,0.0,0.0,2,0,41.362600079399655,-92.0285764080653,10002.624196277722,83.9153605471832,-0.0055777634082656,0.0061926243945921,,9174.609911748745,11300.678975010827,150,3,2025-09-11,2025-09-26 20:40:27.054,HA,D,2564926086,AMBUSH51,1,1,48,2,1,1,225,2,1,0,0,9,1,225,2,1,-157223.97740884213,-4792508.871384816,4195809.347377614,2.41217,-3.04413,0.0311073,-114.191,-15.6495,-8.69814,-0.0909172,-7.39937,6.75507,-0.00450969,0.00392712,0.0260314,4,0,41.37737907861809,-91.87898258815578,9164.523840804472,-96.28517670710224,4.407901258484476,6.471412100500961,193.241,9174.609911748745,11300.678975010827,150,True,6.794702226726288,False,174.24907603602696,178.1533998564988,False,3.955015811280884,True,False
3,1970-07-23 10:17:12.269947258,2025-09-11,2025-09-26 20:40:26.994,HA,D,3481127388,JASSM,3,127,76,2,2,1,225,9,2,0,1,26,0,0,0,0,-169863.664186315,-4793361.136689986,4194739.262175083,-2.29541,0.0349939,-0.0796711,91.25,3.25,7.25,0.0,0.0,0.0,0.0,0.0,0.0,2,0,41.36252124245618,-92.029557094864,10002.626491107952,83.91059983531433,-0.0026764404593497,0.006192577787517,,9174.609911748745,11300.678975010827,150,3,2025-09-11,2025-09-26 20:40:27.054,HA,D,2564926086,AMBUSH51,1,1,48,2,1,1,225,2,1,0,0,9,1,225,2,1,-157223.97740884213,-4792508.871384816,4195809.347377614,2.41217,-3.04413,0.0311073,-114.191,-15.6495,-8.69814,-0.0909172,-7.39937,6.75507,-0.00450969,0.00392712,0.0260314,4,0,41.37737907861809,-91.87898258815578,9164.523840804472,-96.28517670710224,4.407901258484476,6.471412100500961,193.241,9174.609911748745,11300.678975010827,150,True,6.839112909198869,False,174.24907603602696,178.16558605316928,False,3.9667742875426826,True,False
3,1970-07-23 10:17:12.272566196,2025-09-11,2025-09-26 20:40:27.256,HA,D,3479993994,JASSM,3,127,76,2,2,1,225,9,2,0,1,26,0,0,0,0,-169950.41247733062,-4793364.171846236,4194732.326628208,-2.29541,0.0349939,-0.0796711,91.25,3.25,7.25,0.0,0.0,0.0,0.0,0.0,0.0,2,0,41.36243807973173,-92.03059142458378,10002.625970801724,83.9099163290387,-0.0034571920461786,0.006192240005744,,9174.609911748745,11300.678975010827,150,3,2025-09-11,2025-09-26 20:40:27.321,HA,D,2565244220,AMBUSH51,1,1,48,2,1,1,225,2,1,0,0,9,1,225,2,1,-157255.44447929983,-4792513.186156384,4195806.873799229,2.41193,-3.0479,0.026851,-114.036,-15.5981,-8.37681,-0.0620407,-7.25149,6.57621,0.00124732,0.0015386,0.0141761,4,0,41.37733057912207,-91.87935669042672,9172.316334544836,-95.95899312378916,4.40959857047698,6.489261335283972,193.205,9174.609911748745,11300.678975010827,150,True,6.868870976096002,False,174.2552947360152,178.18785911097467,False,3.9971992559937215,True,False
3,1970-07-23 10:17:12.282504164,2025-09-11,2025-09-26 20:40:28.250,HA,D,3483394176,JASSM,3,127,76,2,2,1,225,9,2,0,1,26,0,0,0,0,-169690.16272147125,-4793355.063447799,4194753.130339146,-2.29541,0.0349939,-0.0795753,91.25,3.25,7.25,0.0,0.0,0.0,0.0,0.0,0.0,2,0,41.36268753866389,-92.0274883704714,10002.625224044772,83.9160795470441,-0.0047564754530997,0.006193036640515,,9174.609911748745,11300.678975010827,150,3,2025-09-11,2025-09-26 20:40:28.354,HA,D,2566476986,AMBUSH51,1,1,48,2,1,1,225,2,1,0,0,9,1,225,2,1,-157372.65879695554,-4792528.445910092,4195798.628274135,2.40789,-3.05135,0.0255022,-113.606,-14.6348,-7.47983,-0.147612,-7.05381,6.52714,-0.011332,0.00254769,0.00653827,4,0,41.377161281978765,-91.88075052656905,9201.448525540354,-95.77005907050358,4.314327802455325,6.277344581925465,191.628,9174.609911748745,11300.678975010827,150,True,6.664791355739669,False,174.6524836925298,178.1814577672301,False,3.6618543526386014,True,False
3,1970-07-23 10:17:12.294752424,2025-09-11,2025-09-26 20:40:29.475,HA,D,3484528318,JASSM,3,127,76,2,2,1,225,9,2,0,1,26,0,0,0,0,-169603.355592565,-4793352.023408736,4194760.067839146,-2.29541,0.0349939,-0.0795753,91.25,3.25,7.25,0.0,0.0,0.0,0.0,0.0,0.0,2,0,41.36277072808319,-92.02645333249536,10002.624518919283,83.91676352472064,-0.0039751954555626,0.0061934289337739,,9174.609911748745,11300.678975010827,150,3,2025-09-11,2025-09-26 20:40:29.488,HA,D,2567829050,AMBUSH51,1,1,48,2,1,1,225,2,1,0,0,9,1,225,2,1,-157501.5467478882,-4792544.229595102,4195790.29458238,2.40113,-3.0635,0.0196893,-113.169,-13.2893,-6.98396,-0.151017,-6.97508,6.31147,0.00764098,-0.00151779,0.0094511,4,0,41.37698597671883,-91.88228355595024,9232.6297606321,-95.05791826517014,4.016937072959468,5.957421683117058,190.113,9174.609911748745,11300.678975010827,150,True,6.54810167458969,False,175.2405151883758,178.19916112663194,False,3.171559086257481,True,False
3,1970-07-23 10:17:12.304311195,2025-09-11,2025-09-26 20:40:30.431,HA,D,3485660964,JASSM,3,127,76,2,2,1,225,9,2,0,1,26,0,0,0,0,-169516.66272147125,-4793348.986299361,4194766.995573521,-2.29541,0.0349939,-0.0795753,91.25,3.25,7.25,0.0,0.0,0.0,0.0,0.0,0.0,2,0,41.36285380079982,-92.025419654685,10002.623692792133,83.91744660469826,-0.0031949439273196,0.0061938227847247,,9174.609911748745,11300.678975010827,150,3,2025-09-11,2025-09-26 20:40:30.421,HA,D,2568942516,AMBUSH51,1,1,48,2,1,1,225,2,1,0,0,9,1,225,2,1,-157606.90351263905,-4792556.197309339,4195784.038133312,2.41322,-3.06786,0.0176052,-112.826,-12.5237,-6.27648,-0.236516,-6.99364,6.41332,0.00606597,-0.00221063,0.00443895,4,0,41.37685197098744,-91.88353705624944,9257.030919161458,-94.80277123136376,3.9101652439888537,6.672686487098313,189.294,9174.609911748745,11300.678975010827,150,True,6.444277351566961,False,175.50041327294835,178.20672281718564,False,3.042309613851184,True,False
3,1970-07-23 10:17:12.307346203,2025-09-11,2025-09-26 20:40:30.734,HA,D,3486794358,JASSM,3,127,76,2,2,1,225,9,2,0,1,26,0,0,0,0,-169429.91259940094,-4793345.946260299,4194773.927214146,-2.29541,0.0349939,-0.0795753,91.25,3.25,7.25,0.0,0.0,0.0,0.0,0.0,0.0,2,0,41.3629369200567,-92.02438529200404,10002.623034232776,83.91813013838657,-0.0024141773290202,0.00619421786074,,9174.609911748745,11300.678975010827,150,3,2025-09-11,2025-09-26 20:40:30.721,HA,D,2569300416,AMBUSH51,1,1,48,2,1,1,225,2,1,0,0,9,1,225,2,1,-157640.73173474905,-4792559.846814147,4195782.146773128,2.41335,-3.06935,0.0163145,-112.733,-12.2008,-6.07451,-0.253583,-6.8861,6.53886,-0.00547509,-0.00100805,0.00538978,4,0,41.37681088289256,-91.88393960751252,9264.646516615516,-94.6908495420072,3.8957617481268927,6.689244001865871,189.098,9174.609911748745,11300.678975010827,150,True,6.379142411387428,False,175.61703815594953,178.19908543663456,False,2.971773970988169,True,False
3,1970-07-23 10:17:12.320312528,2025-09-11,2025-09-26 20:40:32.031,HA,D,3487927750,JASSM,3,127,76,2,2,1,225,9,2,0,1,26,0,0,0,0,-169343.16272147125,-4793342.906221236,4194780.858854771,-2.29541,0.0349939,-0.0795753,91.25,3.25,7.25,0.0,0.0,0.0,0.0,0.0,0.0,2,0,41.36302002996436,-92.02335092960558,10002.62629003638,83.91881367301977,-0.0016334129227884,0.006194613082175,,9174.609911748745,11300.678975010827,150,3,2025-09-11,2025-09-26 20:40:31.921,HA,D,2570732014,AMBUSH51,1,1,48,2,1,1,225,2,1,0,0,9,1,225,2,1,-157775.7070721051,-4792573.593429275,4195774.996635921,2.43757,-3.08006,0.00500501,-112.336,-10.9496,-5.25642,-0.136167,-6.90879,6.54292,0.0568637,-0.00192351,0.0099338,4,0,41.376654449863416,-91.88554610820648,9293.893230084504,-93.79815920587788,3.867842009327748,8.143716778687203,188.158,9174.609911748745,11300.678975010827,150,True,6.259351859364954,False,176.0123183899931,178.20410384883547,False,2.8436191531304202,True,False
3,1970-07-23 10:17:12.327042519,2025-09-11,2025-09-26 20:40:32.704,HA,D,3489001564,JASSM,3,127,76,2,2,1,225,9,2,0,1,26,0,0,0,0,-169260.9729021353,-4793340.024385299,4194787.424284458,-2.29541,0.0350898,-0.0795753,91.25,3.25,7.25,0.0,0.0,0.0,0.0,0.0,0.0,2,0,41.36309875960939,-92.022370937324,10002.625032558366,83.91583120668582,-0.0049933153455576,0.0066318310884504,,9174.609911748745,11300.678975010827,150,3,2025-09-11,2025-09-26 20:40:32.722,HA,D,2571686414,AMBUSH51,1,1,48,2,1,1,225,2,1,0,0,9,1,225,2,1,-157865.3575380161,-4792581.940156904,4195770.879670125,2.47237,-3.08495,0.000513166,-112.056,-9.96265,-4.5404,-0.158415,-6.89047,6.38631,0.0361118,-0.00736426,0.0108784,4,0,41.37655946434937,-91.8866134457178,9312.766511064092,-93.41941923229872,3.8291743237307614,10.164021892620683,187.84,9174.609911748745,11300.678975010827,150,False,6.1665774456644575,False,176.23441165590452,178.19895002463804,False,2.9039069650556755,True,False
3,1970-07-23 10:17:12.343526373,2025-09-11,2025-09-26 20:40:34.352,HA,D,3490135642,JASSM,3,127,76,2,2,1,225,9,2,0,1,26,0,0,0,0,-169174.17041190094,-4793336.980439986,4194794.357878208,-2.29541,0.0350898,-0.0795753,91.25,3.25,7.25,0.0,0.0,0.0,0.0,0.0,0.0,2,0,41.36318189885628,-92.02133594334342,10002.62592225256,83.91651516086634,-0.0042120783790757,0.0066321741252103,,9174.609911748745,11300.678975010827,150,3,2025-09-11,2025-09-26 20:40:34.454,HA,D,2573754278,AMBUSH51,1,1,48,2,1,1,225,2,1,0,0,9,1,225,2,1,-158058.95855888433,-4792596.568514916,4195764.50231943,2.51037,-3.10948,-0.0207703,-111.494,-7.14713,-2.49938,-0.132557,-7.07812,6.659,0.0060951,-0.00717077,0.0276771,4,0,41.37639147714368,-91.88891969161148,9350.630898984791,-91.57280515846467,3.584341381700355,12.4468073455308,186.569,9174.609911748745,11300.678975010827,150,False,6.015431012974885,False,176.35865832181668,178.18155900369325,False,3.698402945530956,True,False
3,1970-07-23 10:17:12.349737226,2025-09-11,2025-09-26 20:40:34.973,HA,D,3491268602,JASSM,3,127,76,2,2,1,225,9,2,0,1,26,0,0,0,0,-169087.4533708853,-4793333.938447799,4194801.283659458,-2.29541,0.0350898,-0.0795753,91.25,3.25,7.25,0.0,0.0,0.0,0.0,0.0,0.0,2,0,41.36326494649904,-92.02030196603006,10002.625995688935,83.91719844433369,-0.0034316108586437,0.0066325163610306,,9174.609911748745,11300.678975010827,150,3,2025-09-11,2025-09-26 20:40:34.821,HA,D,2574191710,AMBUSH51,1,1,48,2,1,1,225,2,1,0,0,9,1,225,2,1,-158099.07288135157,-4792599.012545189,4195763.691144795,2.51486,-3.11448,-0.0250358,-111.388,-6.53699,-1.98644,-0.168925,-7.13136,6.70279,0.00572476,-0.00200257,0.0142885,4,0,41.37636360012915,-91.8893977767477,9358.141040219827,-91.19976024859275,3.5314265282612527,12.720389570854495,186.569,9174.609911748745,11300.678975010827,150,False,5.9470493149483,False,176.2417245439517,178.1625418778795,False,4.001743234435022,True,False
3,1970-07-23 10:17:12.354327191,2025-09-11,2025-09-26 20:40:35.432,HA,D,3492401678,JASSM,3,127,76,2,2,1,225,9,2,0,1,26,0,0,0,0,-169000.7276628775,-4793330.894502486,4194808.209440708,-2.29541,0.0350898,-0.0795753,91.25,3.25,7.25,0.0,0.0,0.0,0.0,0.0,0.0,2,0,41.36334799827566,-92.01926788344008,10002.624400957864,83.91788179850039,-0.0026510653202365,0.0066328637480825,,9174.609911748745,11300.678975010827,150,3,2025-09-11,2025-09-26 20:40:35.421,HA,D,2574907510,AMBUSH51,1,1,48,2,1,1,225,2,1,0,0,9,1,225,2,1,-158165.48598730064,-4792602.677395619,4195762.80920878,2.51719,-3.12175,-0.0310055,-111.295,-7.03336,-0.197944,-0.228782,-7.2465,6.80456,0.00241245,-0.00143873,0.014921,4,0,41.37632282453616,-91.89018944121032,9370.63780869988,-90.6675577399668,3.4456498888687146,12.87487927378343,186.373,9174.609911748745,11300.678975010827,150,False,5.86456504228596,False,175.29081641307565,178.13723613911841,False,4.927169737028484,True,False
3,1970-07-23 10:17:12.373244243,2025-09-11,2025-09-26 20:40:37.324,HA,D,3494608812,JASSM,3,127,76,2,2,1,225,9,2,0,1,26,0,0,0,0,-168831.7929704947,-4793324.963838424,4194821.697721958,-2.29541,0.0350898,-0.0794794,91.25,3.25,7.25,0.0,0.0,0.0,0.0,0.0,0.0,2,0,41.36350974006881,-92.01725356686217,10002.623658078366,83.92332555011303,-0.0047722391353465,0.0066333188809121,,9174.609911748745,11300.678975010827,150,3,2025-09-11,2025-09-26 20:40:37.487,HA,D,2577373040,AMBUSH51,1,1,48,2,1,1,225,2,1,0,0,9,1,225,2,1,-158394.62336714074,-4792610.966553093,4195763.755816859,2.41686,3.13539,-0.0585525,-110.426,-2.96371,2.01229,-0.075368,-7.25014,6.73986,-0.112268,0.00334664,0.0099338,4,0,41.37623493763227,-91.89292253269484,9411.706683899894,-88.49581171597275,3.369953930538975,7.188892135508138,185.848,9174.609911748745,11300.678975010827,150,True,5.650685734345875,False,174.39401300552643,178.03725007254025,False,6.628647303366467,True,False
3,1970-07-23 10:17:12.374082661,2025-09-11,2025-09-26 20:40:37.408,HA,D,3493535070,JASSM,3,127,76,2,2,1,225,9,2,0,1,26,0,0,0,0,-168913.9775408072,-4793327.849580611,4194815.136198521,-2.29541,0.0350898,-0.0795753,91.25,3.25,7.25,0.0,0.0,0.0,0.0,0.0,0.0,2,0,41.36343105827356,-92.0182335071664,10002.624294106316,83.91856534787279,-0.0018703007211801,0.0066332053728746,,9174.609911748745,11300.678975010827,150,3,2025-09-11,2025-09-26 20:40:37.487,HA,D,2577373040,AMBUSH51,1,1,48,2,1,1,225,2,1,0,0,9,1,225,2,1,-158394.62336714074,-4792610.966553093,4195763.755816859,2.41686,3.13539,-0.0585525,-110.426,-2.96371,2.01229,-0.075368,-7.25014,6.73986,-0.112268,0.00334664,0.0099338,4,0,41.37623493763227,-91.89292253269484,9411.706683899894,-88.49581171597275,3.369953930538975,7.188892135508138,185.848,9174.609911748745,11300.678975010827,150,True,5.695054437137755,False,174.39401300552643,178.0527016138759,False,6.619128494311814,True,False
3,1970-07-23 10:17:12.383724315,2025-09-11,2025-09-26 20:40:38.372,HA,D,3495861512,JASSM,3,127,76,2,2,1,225,9,2,0,1,26,0,0,0,0,-168735.91101248687,-4793321.596650924,4194829.352018833,-2.29541,0.0350898,-0.0794794,91.25,3.25,7.25,0.0,0.0,0.0,0.0,0.0,0.0,2,0,41.36360152234586,-92.0161103008814,10002.624369770168,83.9240810598029,-0.0039092872509659,0.0066337578337498,,9174.609911748745,11300.678975010827,150,3,2025-09-11,2025-09-26 20:40:38.322,HA,D,2578367206,AMBUSH51,1,1,48,2,1,1,225,2,1,0,0,9,1,225,2,1,-158487.3496276954,-4792613.108392769,4195765.663592253,2.32296,3.13171,-0.0656647,-110.184,-2.51345,2.66546,0.00282381,-7.27397,6.83523,-0.109003,0.00461788,0.00735178,4,0,41.376216860328064,-91.89402902130442,9428.656819677057,-88.05068711320432,3.481489081365337,1.8224465063016104,185.775,9174.609911748745,11300.678975010827,150,True,5.549410319862508,False,174.0296336002682,177.97863523462135,False,7.103846489271411,True,False
3,1970-07-23 10:17:12.395302509,2025-09-11,2025-09-26 20:40:39.530,HA,D,3497173862,JASSM,3,127,76,2,2,1,225,9,2,0,1,26,0,0,0,0,-168635.4634416861,-4793318.067354049,4194837.370573521,-2.29541,0.0350898,-0.0794794,91.25,3.25,7.25,0.0,0.0,0.0,0.0,0.0,0.0,2,0,41.3636976719163,-92.01491259328508,10002.625380484358,83.9248725478755,-0.0030052437827012,0.0066342267283672,,9174.609911748745,11300.678975010827,150,3,2025-09-11,2025-09-26 20:40:39.720,HA,D,2580037404,AMBUSH51,1,1,48,2,1,1,225,2,1,0,0,9,1,225,2,1,-158640.64207021578,-4792616.800473512,4195769.497309166,2.19904,3.13744,-0.064257,-109.797,-2.92643,2.66054,-0.0971528,-7.29011,7.00328,-0.0368442,0.00885605,-0.0109221,4,0,41.37619064410935,-91.895858172055,9458.534446351205,-88.32889710199821,3.6756003755085978,-5.27371429461068,184.65,9174.609911748745,11300.678975010827,150,True,5.4133816863511415,False,174.0504200839888,177.88636358314852,False,7.1480759561495555,True,False
3,1970-07-23 10:17:12.406125714,2025-09-11,2025-09-26 20:40:40.612,HA,D,3498486214,JASSM,3,127,76,2,2,1,225,9,2,0,1,26,0,0,0,0,-168535.01550467435,-4793314.537080611,4194845.387175083,-2.29541,0.0350898,-0.0794794,91.25,3.25,7.25,0.0,0.0,0.0,0.0,0.0,0.0,2,0,41.36379380170863,-92.01371487820124,10002.624941360247,83.92566404241217,-0.0021011981466209,0.0066346879903755,,9174.609911748745,11300.678975010827,150,3,2025-09-11,2025-09-26 20:40:40.587,HA,D,2581071336,AMBUSH51,1,1,48,2,1,1,225,2,1,0,0,9,1,225,2,1,-158735.72576569067,-4792619.672839953,4195771.66649651,2.18367,-3.13883,-0.0604393,-109.568,-3.59947,2.27829,-0.196764,-7.13891,6.75075,-0.0294331,0.00483426,-0.00751615,4,0,41.376169496344886,-91.89699251757388,9478.052789841006,-88.75599736215206,3.829606870535693,-6.157486241537869,183.844,9174.609911748745,11300.678975010827,150,True,5.30839980648721,False,174.26740165026462,177.82025286705058,False,6.926266557846378,True,False
3,1970-07-23 10:17:12.418858344,2025-09-11,2025-09-26 20:40:41.885,HA,D,3499739368,JASSM,3,127,76,2,2,1,225,9,2,0,1,26,0,0,0,0,-168439.09857352203,-4793311.165010299,4194853.041471958,-2.29541,0.0351857,-0.0794794,91.25,3.25,7.25,0.0,0.0,0.0,0.0,0.0,0.0,2,0,41.36388558515359,-92.0125711867997,10002.625333511844,83.92278984658307,-0.005337401201876,0.007071456289922,,9174.609911748745,11300.678975010827,150,3,2025-09-11,2025-09-26 20:40:41.720,HA,D,2582423402,AMBUSH51,1,1,48,2,1,1,225,2,1,0,0,9,1,225,2,1,-158859.92636271386,-4792624.044817645,4195773.890174111,2.17809,-3.13472,-0.0557676,-109.321,-4.17834,1.38554,-0.121046,-7.18465,6.73942,0.00331543,0.00135135,-0.00544388,4,0,41.37613405135027,-91.89847397710372,9503.758328077687,-89.1140773717458,3.830874582897109,-6.487462648152118,182.829,9174.609911748745,11300.678975010827,150,True,5.190279748992125,False,174.73243642802677,177.74128833382477,False,6.490440786734304,True,False
3,1970-07-23 10:17:12.462242916,2025-09-11,2025-09-26 20:40:46.224,HA,D,3505226924,JASSM,3,127,76,2,2,1,225,9,2,0,1,26,0,0,0,0,-168019.07856924957,-4793296.385713424,4194886.547331333,-2.29541,0.0351857,-0.0794794,91.25,3.25,7.25,0.0,0.0,0.0,0.0,0.0,0.0,2,0,41.36428736508039,-92.00756293258932,10002.624447927325,83.92609950900224,-0.0015571672817581,0.0070731463664639,,9174.609911748745,11300.678975010827,150,3,2025-09-11,2025-09-26 20:40:46.255,HA,D,2587831662,AMBUSH51,1,1,48,2,1,1,225,2,1,0,0,9,1,225,2,1,-159353.41820781602,-4792644.693331445,4195769.458422915,2.23634,-3.13643,-0.00372139,-108.767,-3.06804,-3.97898,-0.136465,-5.61821,5.69537,0.00127853,-0.0117502,-0.000402595,4,0,41.37588394490077,-91.90435897417647,9585.265354287045,-91.29481699388737,1.79194961018555,-3.259015922782557,182.377,9174.609911748745,11300.678975010827,150,True,4.699214730261449,False,177.5180361135986,177.41901490783343,False,4.573277106362631,True,False
3,1970-07-23 10:17:12.494323205,2025-09-11,2025-09-26 20:40:49.432,HA,D,3509044676,JASSM,3,127,76,2,2,1,225,9,2,0,1,26,0,0,0,0,-167726.86567862457,-4793286.090791549,4194909.848112583,-2.29541,0.0351857,-0.0793835,91.25,3.25,7.25,0.0,0.0,0.0,0.0,0.0,0.0,2,0,41.36456677044921,-92.00407859984774,10002.62528563795,83.93251471327535,-0.0025688605971413,0.0070742792497688,,9174.609911748745,11300.678975010827,150,3,2025-09-11,2025-09-26 20:40:49.320,HA,D,2591490192,AMBUSH51,1,1,48,2,1,1,225,2,1,0,0,9,1,225,2,1,-159688.96251274462,-4792650.787506774,4195750.772339313,1.89952,-3.13558,0.00996455,-110.037,-2.8222,-7.9875,0.225912,-7.42977,7.32666,-0.347698,0.0228834,-0.00115577,4,0,41.37565511267217,-91.90836352219128,9587.21791467227,-91.9179038768991,1.312710009316958,-22.57428424930365,185.335,9174.609911748745,11300.678975010827,150,False,4.36120859895304,False,179.31050119454937,177.15471749046526,False,3.53310406453453,True,False
3,1970-07-23 10:17:12.510462059,2025-09-11,2025-09-26 20:40:51.046,HA,D,3510357360,JASSM,3,127,76,2,2,1,225,9,2,0,1,26,0,0,0,0,-167626.39216788238,-4793282.548799361,4194917.856901646,-2.29541,0.0352816,-0.0793835,91.25,3.25,7.25,0.0,0.0,0.0,0.0,0.0,0.0,2,0,41.36466280967235,-92.00288055248086,10002.624083064582,83.92967624991489,-0.0057642201146564,0.0075105912982543,,9174.609911748745,11300.678975010827,150,3,2025-09-11,2025-09-26 20:40:50.887,HA,D,2593359224,AMBUSH51,1,1,48,2,1,1,225,2,1,0,0,9,1,225,2,1,-159861.6476963072,-4792660.152190995,4195733.172592394,1.5132,-3.06758,0.0993361,-110.088,-8.84285,-16.1181,0.139668,-8.85191,8.75874,-0.0603341,0.0502412,-0.0867556,4,0,41.37544634687714,-91.9104219385738,9586.25841676938,-98.33187423794443,0.8280992180119038,-45.04188446120319,188.512,9174.609911748745,11300.678975010827,150,False,4.213488723315782,False,175.4618693317913,177.08923242789137,False,2.32800909342545,True,False
3,1970-07-23 10:17:12.516503272,2025-09-11,2025-09-26 20:40:51.650,HA,D,3511669658,JASSM,3,127,76,2,2,1,225,9,2,0,1,26,0,0,0,0,-167525.94790823883,-4793279.006807174,4194925.862761021,-2.29541,0.0352816,-0.0793835,91.25,3.25,7.25,0.0,0.0,0.0,0.0,0.0,0.0,2,0,41.364758810556815,-92.00168285081354,10002.624266524135,83.93046775070874,-0.0048602114213932,0.0075110026451995,,9174.609911748745,11300.678975010827,150,3,2025-09-11,2025-09-26 20:40:51.620,HA,D,2594234090,AMBUSH51,1,1,48,2,1,1,225,2,1,0,0,9,1,225,2,1,-159942.2184831479,-4792668.236345368,4195719.678935402,1.51213,-3.03418,0.154927,-109.587,-12.8255,-20.78,-0.155385,-8.96542,8.93289,-0.00513387,0.0408681,-0.0589693,4,0,41.375291170353634,-91.91138086168873,9583.50195889373,-101.97127533522612,0.1161634104947433,-45.37608209208963,188.793,9174.609911748745,11300.678975010827,150,False,4.115205153800652,False,172.3437588777207,177.07956730442922,False,5.135640122199905,True,False
3,1970-07-23 10:17:12.531641864,2025-09-11,2025-09-26 20:40:53.164,HA,D,3513041382,JASSM,3,127,76,2,2,1,225,9,2,0,1,26,0,0,0,0,-167420.9553240103,-4793275.302705611,4194934.230925083,-2.29541,0.0352816,-0.0793835,91.25,3.25,7.25,0.0,0.0,0.0,0.0,0.0,0.0,2,0,41.36485915399442,-92.0004309116831,10002.625332179636,83.93129509593031,-0.0039152669637035,0.0075114413357382,,9174.609911748745,11300.678975010827,150,3,2025-09-11,2025-09-26 20:40:53.220,HA,D,2596142888,AMBUSH51,1,1,48,2,1,1,225,2,1,0,0,9,1,225,2,1,-160115.21540415593,-4792695.229458489,4195676.822864692,1.53744,-2.97101,0.242989,-107.457,-20.4408,-32.2939,-0.0568076,-8.68707,8.57061,-0.02899,0.0383339,-0.0480607,4,0,41.3748069094464,-91.9134359473008,9571.196483361631,-108.09135590723956,-0.6584629143781044,-44.61297732569365,190.932,9174.609911748745,11300.678975010827,150,False,3.962677829538125,False,165.32999288171536,177.215903462656,False,12.286009851795379,True,False
3,1970-07-23 10:17:12.538261632,2025-09-11,2025-09-26 20:40:53.826,HA,D,3514294080,JASSM,3,127,76,2,2,1,225,9,2,0,1,26,0,0,0,0,-167325.07287772125,-4793271.918916549,4194941.870573521,-2.29541,0.0352816,-0.0793835,91.25,3.25,7.25,0.0,0.0,0.0,0.0,0.0,0.0,2,0,41.36495076896131,-91.99928759958752,10002.623367810043,83.93205065631201,-0.003052316112825,0.0075118321706096,,9174.609911748745,11300.678975010827,150,3,2025-09-11,2025-09-26 20:40:53.787,HA,D,2596818920,AMBUSH51,1,1,48,2,1,1,225,2,1,0,0,9,1,225,2,1,-160175.787831644,-4792707.742043193,4195657.06914419,1.5254,-2.944,0.281907,-106.393,-23.3506,-36.0665,-0.0383048,-9.01522,8.74164,-0.0309,0.0412218,-0.0660495,4,0,41.37458707471788,-91.91415427810308,9564.127532973209,-110.7428561473427,-1.080189990752629,-45.66402217728785,191.591,9174.609911748745,11300.678975010827,150,False,3.8769870057326297,False,162.91114488937413,177.28008485775945,False,14.775811071092736,True,False
3,1970-07-23 10:17:12.547303414,2025-09-11,2025-09-26 20:40:54.730,HA,D,3515427474,JASSM,3,127,76,2,2,1,225,9,2,0,1,26,0,0,0,0,-167238.32354910797,-4793268.857393111,4194948.782682896,-2.29541,0.0352816,-0.0793835,91.25,3.25,7.25,0.0,0.0,0.0,0.0,0.0,0.0,2,0,41.36503364891684,-91.99825318897916,10002.625914399874,83.93273425008698,-0.0022715640420674,0.0075121871370218,,9174.609911748745,11300.678975010827,150,3,2025-09-11,2025-09-26 20:40:54.620,HA,D,2597813086,AMBUSH51,1,1,48,2,1,1,225,2,1,0,0,9,1,225,2,1,-160264.2528633896,-4792729.305999472,4195623.639925099,1.53216,-2.90432,0.327633,-104.352,-27.7177,-42.0902,-0.0511429,-9.05619,8.89038,0.0181792,0.0530604,-0.0460384,4,0,41.37421551735618,-91.91520206703858,9551.971229023471,-114.13815319589952,-1.3013693561149509,-45.88852356368109,192.019,9174.609911748745,11300.678975010827,150,False,3.780223468072533,False,159.1193871020687,177.43431661605118,False,18.75622700496174,True,False
3,1970-07-23 10:17:12.558343670,2025-09-11,2025-09-26 20:40:55.834,HA,D,3516740098,JASSM,3,127,76,2,2,1,225,9,2,0,1,26,0,0,0,0,-167137.85284598297,-4793265.309541549,4194956.786589146,-2.29541,0.0352816,-0.0793835,91.25,3.25,7.25,0.0,0.0,0.0,0.0,0.0,0.0,2,0,41.36512962875258,-91.99705516044943,10002.625339726772,83.93352597273217,-0.0013673187499012,0.0075126004181077,,9174.609911748745,11300.678975010827,150,3,2025-09-11,2025-09-26 20:40:55.920,HA,D,2599363984,AMBUSH51,1,1,48,2,1,1,225,2,1,0,0,9,1,225,2,1,-160397.216056036,-4792769.62240185,4195562.618870618,1.58401,-2.84002,0.405765,-100.467,-34.1692,-50.8243,-0.0185734,-9.05378,8.88826,0.0118126,0.0485143,-0.0667965,4,0,41.373537261183735,-91.9167737172413,9529.79243549006,-119.74696634254607,-1.9599275787084285,-44.08016558554589,193.095,9174.609911748745,11300.678975010827,150,False,3.650164426708747,False,153.5263690472721,177.76457298073004,False,24.777748130206803,True,False
3,1970-07-23 10:17:12.570262271,2025-09-11,2025-09-26 20:40:57.026,HA,D,3518052176,JASSM,3,127,76,2,2,1,225,9,2,0,1,26,0,0,0,0,-167037.42529471344,-4793261.761689986,4194964.786589146,-2.29541,0.0352816,-0.0793835,91.25,3.25,7.25,0.0,0.0,0.0,0.0,0.0,0.0,2,0,41.365225560792304,-91.99585764358504,10002.625218107894,83.93431735875258,-0.0004634616940949,0.0075130193838192,,9174.609911748745,11300.678975010827,150,3,2025-09-11,2025-09-26 20:40:57.020,HA,D,2600676282,AMBUSH51,1,1,48,2,1,1,225,2,1,0,0,9,1,225,2,1,-160505.61096663316,-4792810.166610342,4195502.099687591,1.64418,-2.78091,0.462383,-96.653,-39.6019,-57.7096,-0.194279,-9.17576,9.03587,0.0606878,0.0570884,-0.0565329,4,0,41.3728659090962,-91.918051873878,9507.249625698476,-124.21558386075203,-2.1155913149187544,-41.89903380999379,194.011,9174.609911748745,11300.678975010827,150,False,3.5335140695662783,False,148.97470496833017,178.08500211034297,False,29.811043122176518,True,False
3,1970-07-23 10:17:12.581281746,2025-09-11,2025-09-26 20:40:58.128,HA,D,3519364522,JASSM,3,127,76,2,2,1,225,9,2,0,1,26,0,0,0,0,-166936.97717459625,-4793258.212861861,4194972.786589146,-2.29541,0.0352816,-0.0792876,91.25,3.25,7.25,0.0,0.0,0.0,0.0,0.0,0.0,2,0,41.36532149043208,-91.99465987803951,10002.626147951629,83.93922147957282,-0.0032010959561623,0.0075133297961771,,9174.609911748745,11300.678975010827,150,3,2025-09-11,2025-09-26 20:40:58.120,HA,D,2601988582,AMBUSH51,1,1,48,2,1,1,225,2,1,0,0,9,1,225,2,1,-160608.67927564392,-4792856.378694521,4195434.636624019,1.70843,-2.72005,0.513483,-92.2737,-45.0126,-64.0712,-0.178661,-9.20539,8.93741,0.0103416,0.0495525,-0.0489512,4,0,41.37211500800724,-91.91926413397702,9483.165550329071,-128.46816966771894,-2.1426768942631464,-39.69559202424082,194.964,9174.609911748745,11300.678975010827,150,False,3.419501913212153,False,144.55768458767628,178.36767926991925,False,34.82553541320134,False,False
3,1970-07-23 10:17:12.591344660,2025-09-11,2025-09-26 20:40:59.134,HA,D,3520617226,JASSM,3,127,76,2,2,1,225,9,2,0,1,26,0,0,0,0,-166841.09417899078,-4793254.823213424,4194980.421354771,-2.29541,0.0353774,-0.0792876,91.25,3.25,7.25,0.0,0.0,0.0,0.0,0.0,0.0,2,0,41.36541305001883,-91.99351654563944,10002.623136763816,83.93634681010428,-0.006437776931193,0.0079491470139031,,9174.609911748745,11300.678975010827,150,3,2025-09-11,2025-09-26 20:40:59.120,HA,D,2603181580,AMBUSH51,1,1,48,2,1,1,225,2,1,0,0,9,1,225,2,1,-160698.66299398066,-4792903.673530821,4195367.03620005,1.73349,-2.65917,0.550359,-87.9341,-49.8116,-69.2887,-0.152279,-9.34098,9.13499,0.00325509,0.0520554,-0.0470787,4,0,41.37135933579804,-91.92031969406634,9460.37724882446,-132.12136124121648,-1.7251853333899914,-39.90607334159681,196.101,9174.609911748745,11300.678975010827,150,False,3.315351701270043,False,140.7242995600873,178.45020151057156,False,39.31533103795295,False,False
3,1970-07-23 10:17:12.603120980,2025-09-11,2025-09-26 20:41:00.312,HA,D,3521930224,JASSM,3,127,76,2,2,1,225,9,2,0,1,26,0,0,0,0,-166740.59619315094,-4793251.270479049,4194988.424284458,-2.29541,0.0353774,-0.0792876,91.25,3.25,7.25,0.0,0.0,0.0,0.0,0.0,0.0,2,0,41.365509008607305,-91.99231817949529,10002.62673939648,83.93713876178786,-0.0055332871588893,0.0079495699718416,,9174.609911748745,11300.678975010827,150,3,2025-09-11,2025-09-26 20:41:00.320,HA,D,2604613178,AMBUSH51,1,1,48,2,1,1,225,2,1,0,0,9,1,225,2,1,-160800.0736311894,-4792966.635859189,4195278.878757464,1.77512,-2.57922,0.601357,-81.8329,-55.5149,-75.2874,-0.248427,-9.63847,9.29261,0.00786569,0.0510505,-0.0425055,4,0,41.37036938705578,-91.9215054014271,9432.51769244892,-136.94593997304122,-1.5253309298079123,-39.88004779816672,198.252,9174.609911748745,11300.678975010827,150,False,3.202045026700629,False,136.03346624104964,178.12016168610347,False,44.94429889572327,False,False
3,1970-07-23 10:17:12.624423534,2025-09-11,2025-09-26 20:41:02.442,HA,D,3524613932,JASSM,3,127,76,2,2,1,225,9,2,0,1,26,0,0,0,0,-166535.1826189322,-4793244.003877486,4195004.776823521,-2.29541,0.0353774,-0.0792876,91.25,3.25,7.25,0.0,0.0,0.0,0.0,0.0,0.0,2,0,41.3657051000458,-91.98986876158592,10002.627068063528,83.93875748765608,-0.0036845509559467,0.0079504295457216,,9174.609911748745,11300.678975010827,150,3,2025-09-11,2025-09-26 20:41:02.287,HA,D,2606959410,AMBUSH51,1,1,48,2,1,1,225,2,1,0,0,9,1,225,2,1,-160949.80859396345,-4793084.495152012,4195121.08718395,1.93201,-2.43715,0.664077,-70.4319,-64.5051,-83.2567,-0.216365,-9.80328,9.4927,0.0627351,0.0481231,-0.047734,4,0,41.36857310166149,-91.92324608219285,9392.761999940927,-144.3653000990837,-0.5561884443999118,-35.57702522687393,200.024,9174.609911748745,11300.678975010827,150,False,3.0049774437689942,False,128.59930180298343,176.62839400806985,False,54.28544037198145,False,False
3,1970-07-23 10:17:12.635640687,2025-09-11,2025-09-26 20:41:03.564,HA,D,3525926274,JASSM,3,127,76,2,2,1,225,9,2,0,1,26,0,0,0,0,-166434.7346208853,-4793240.448213424,4195012.770964146,-2.29541,0.0353774,-0.0792876,91.25,3.25,7.25,0.0,0.0,0.0,0.0,0.0,0.0,2,0,41.36580096837694,-91.98867098275,10002.624580127467,83.93954905581337,-0.002780513060286,0.0079508477691025,,9174.609911748745,11300.678975010827,150,3,2025-09-11,2025-09-26 20:41:03.520,HA,D,2608430774,AMBUSH51,1,1,48,2,1,1,225,2,1,0,0,9,1,225,2,1,-161031.9136049908,-4793166.43359894,4195016.432903661,2.08404,-2.35565,0.69288,-63.862,-69.7327,-86.1655,-0.258993,-9.33285,8.92263,0.106423,0.0337733,-0.0329847,4,0,41.36736273910029,-91.92419357696298,9374.263977200002,-148.3198678200507,-0.0082795093837292,-29.77888842794076,201.319,9174.609911748745,11300.678975010827,150,False,2.9049512473404606,False,124.74858663916407,175.32765356334863,False,59.53047251204106,False,False
3,1970-07-23 10:17:12.645021512,2025-09-11,2025-09-26 20:41:04.502,HA,D,3523301580,JASSM,3,127,76,2,2,1,225,9,2,0,1,26,0,0,0,0,-166635.63134940094,-4793247.557588424,4194996.780729771,-2.29541,0.0353774,-0.0792876,91.25,3.25,7.25,0.0,0.0,0.0,0.0,0.0,0.0,2,0,41.36560921751261,-91.99106654645996,10002.625797196224,83.93796591701931,-0.0045885961804551,0.0079500103078204,,9174.609911748745,11300.678975010827,150,3,2025-09-11,2025-09-26 20:41:04.553,HA,D,2609663540,AMBUSH51,1,1,48,2,1,1,225,2,1,0,0,9,1,225,2,1,-161095.2111424416,-4793239.9077769965,4194925.219858138,2.22487,-2.29645,0.705068,-59.143,-73.4111,-87.6585,-0.0409275,-8.9382,8.45069,0.101859,0.0274482,-0.027055,4,0,41.36629722896933,-91.92491987467535,9362.536702566702,-150.92138200051025,0.6737396430358882,-23.907877973775093,202.015,9174.609911748745,11300.678975010827,150,False,2.9789019270141113,False,122.12994188187713,174.36845686648599,False,63.166916285456104,False,False
3,1970-07-23 10:17:12.646241925,2025-09-11,2025-09-26 20:41:04.624,HA,D,3527178980,JASSM,3,127,76,2,2,1,225,9,2,0,1,26,0,0,0,0,-166338.85132010406,-4793237.053682174,4195020.401823521,-2.29541,0.0353774,-0.0792876,91.25,3.25,7.25,0.0,0.0,0.0,0.0,0.0,0.0,2,0,41.36589247115903,-91.98752763194736,10002.625969533685,83.94030465588637,-0.0019175575803309,0.0079512496063052,,9174.609911748745,11300.678975010827,150,3,2025-09-11,2025-09-26 20:41:04.553,HA,D,2609663540,AMBUSH51,1,1,48,2,1,1,225,2,1,0,0,9,1,225,2,1,-161095.2111424416,-4793239.9077769965,4194925.219858138,2.22487,-2.29645,0.705068,-59.143,-73.4111,-87.6585,-0.0409275,-8.9382,8.45069,0.101859,0.0274482,-0.027055,4,0,41.36629722896933,-91.92491987467535,9362.536702566702,-150.92138200051025,0.6737396430358882,-23.907877973775093,202.015,9174.609911748745,11300.678975010827,150,False,2.819349218079225,False,122.12994188187713,174.04891097273384,False,63.46821641643789,False,False
3,1970-07-23 10:17:12.657460961,2025-09-11,2025-09-26 20:41:05.746,HA,D,3528432498,JASSM,3,127,76,2,2,1,225,9,2,0,1,26,0,0,0,0,-166242.90564139312,-4793233.655244674,4195028.036589146,-2.29541,0.0353774,-0.0792876,91.25,3.25,7.25,0.0,0.0,0.0,0.0,0.0,0.0,2,0,41.36598402504318,-91.98638353482234,10002.625648071553,83.94106075055504,-0.0010540409231292,0.0079516546466749,,9174.609911748745,11300.678975010827,150,3,2025-09-11,2025-09-26 20:41:05.853,HA,D,2611214438,AMBUSH51,1,1,48,2,1,1,225,2,1,0,0,9,1,225,2,1,-161168.81166868703,-4793336.601074973,4194809.448374159,2.39179,-2.23837,0.710364,-54.6864,-77.1171,-88.4017,-0.287168,-8.83951,8.53163,0.092652,0.0196543,-0.022305,4,0,41.36492574739192,-91.92575984338472,9355.564997049953,-153.30496562753655,1.574261002299463,-16.554138159520868,202.846,9174.609911748745,11300.678975010827,150,False,2.730636103552481,False,119.74375165050883,172.29788912448436,False,67.63101799722682,False,False
3,1970-07-23 10:17:12.668299822,2025-09-11,2025-09-26 20:41:06.829,HA,D,3529804002,JASSM,3,127,76,2,2,1,225,9,2,0,1,26,0,0,0,0,-166137.92932303375,-4793229.935518111,4195036.388151646,-2.29541,0.0353774,-0.0792876,91.25,3.25,7.25,0.0,0.0,0.0,0.0,0.0,0.0,2,0,41.36608417941193,-91.9851317494186,10002.623342568391,83.94188801430354,-0.0001092488378017,0.0079520940716639,,9174.609911748745,11300.678975010827,150,3,2025-09-11,2025-09-26 20:41:06.786,HA,D,2612327904,AMBUSH51,1,1,48,2,1,1,225,2,1,0,0,9,1,225,2,1,-161218.29417936076,-4793408.837881923,4194725.909812156,2.49837,-2.20794,0.71099,-52.3108,-79.291,-88.4725,-0.281085,-8.65428,8.34179,0.0841195,0.0155015,-0.0201037,4,0,41.36392218127737,-91.92632164201416,9356.308777354596,-154.51116186942744,2.118663794243379,-11.62383931498387,203.36,9174.609911748745,11300.678975010827,150,False,2.651402768455375,False,118.49471519569245,170.86955850537518,False,70.31434149195474,False,False
3,1970-07-23 10:17:12.680172386,2025-09-11,2025-09-26 20:41:08.017,HA,D,3531056740,JASSM,3,127,76,2,2,1,225,9,2,0,1,26,0,0,0,0,-166042.0432146353,-4793226.538057174,4195044.016081333,-2.29541,0.0354733,-0.0791918,91.25,3.25,7.25,0.0,0.0,0.0,0.0,0.0,0.0,2,0,41.366175645231245,-91.983988356394,10002.625652997052,83.94312587837602,-0.0069876147706026,0.0083872877138344,,9174.609911748745,11300.678975010827,150,3,2025-09-11,2025-09-26 20:41:08.086,HA,D,2613878802,AMBUSH51,1,1,48,2,1,1,225,2,1,0,0,9,1,225,2,1,-161284.60171613973,-4793512.282401456,4194609.72961795,2.63163,-2.17923,0.705452,-50.4267,-81.6584,-87.8267,-0.276652,-8.48258,8.14565,0.0901178,0.0132066,-0.00927425,4,0,41.3625092559116,-91.92707176638768,9364.486913134557,-155.5155774020081,2.930076671684479,-5.1028055493271225,203.58,9174.609911748745,11300.678975010827,150,True,2.5723820908189734,False,117.50744393373866,168.8234278744931,False,73.34647120547083,False,False
3,1970-07-23 10:17:12.695240578,2025-09-11,2025-09-26 20:41:09.524,HA,D,3532368734,JASSM,3,127,76,2,2,1,225,9,2,0,1,26,0,0,0,0,-165941.62182791656,-4793222.977510299,4195052.003386021,-2.29551,0.0354733,-0.0791918,91.25,3.25,7.25,0.0,0.0,0.0,0.0,0.0,0.0,2,0,41.36627142972641,-91.98279088004024,10002.624219557732,83.94391725398876,-0.0060838179648447,0.0028962440390642,,9174.609911748745,11300.678975010827,150,3,2025-09-11,2025-09-26 20:41:09.653,HA,D,2615747834,AMBUSH51,1,1,48,2,1,1,225,2,1,0,0,9,1,225,2,1,-161362.67317522224,-4793640.633009507,4194472.184980917,2.73925,-2.1688,0.688366,-49.8565,-83.7282,-86.0005,-0.139109,-8.16113,7.74769,0.0490303,0.0206385,-0.00275159,4,0,41.36080161619641,-91.92795229762426,9388.63246469047,-155.53793476762488,4.012507501118052,0.6783289658327547,203.396,9174.609911748745,11300.678975010827,150,True,2.4910953577457824,False,117.2186604085809,166.2196921144298,False,76.22148900535066,False,False
3,1970-07-23 10:17:12.703644356,2025-09-11,2025-09-26 20:41:10.364,HA,D,3533681084,JASSM,3,127,76,2,2,1,225,9,2,0,1,26,0,0,0,0,-165841.1729753775,-4793219.415010299,4195059.992643833,-2.29551,0.0354733,-0.0791918,91.25,3.25,7.25,0.0,0.0,0.0,0.0,0.0,0.0,2,0,41.36636723221007,-91.981593073061,10002.62509294767,83.94470884961108,-0.0051797738334673,0.0028966767928258,,9174.609911748745,11300.678975010827,150,3,2025-09-11,2025-09-26 20:41:10.486,HA,D,2616742000,AMBUSH51,1,1,48,2,1,1,225,2,1,0,0,9,1,225,2,1,-161404.52189116165,-4793710.445169054,4194399.62578533,2.78525,-2.16443,0.681188,-50.088,-84.3106,-84.9632,-0.217685,-8.04553,7.66201,0.0395365,0.00905787,0.00155733,4,0,41.35988814721628,-91.92842386289664,9406.609595435451,-155.551133819415,4.46805661125315,3.154779707327545,203.25,9174.609911748745,11300.678975010827,150,True,2.425561540373942,False,117.35201811658035,164.5964250660325,False,77.70095694087702,False,False
3,1970-07-23 10:17:12.710264968,2025-09-11,2025-09-26 20:41:11.026,HA,D,3534814478,JASSM,3,127,76,2,2,1,225,9,2,0,1,26,0,0,0,0,-165754.42321951812,-4793216.337861861,4195066.891081333,-2.29551,0.0354733,-0.0791918,91.25,3.25,7.25,0.0,0.0,0.0,0.0,0.0,0.0,2,0,41.36644995371503,-91.98055861897086,10002.626101639104,83.94539249129903,-0.0043990229277204,0.002897045022613,,9174.609911748745,11300.678975010827,150,3,2025-09-11,2025-09-26 20:41:11.019,HA,D,2617378266,AMBUSH51,1,1,48,2,1,1,225,2,1,0,0,9,1,225,2,1,-161431.29729037205,-4793754.909488921,4194354.005977277,2.79739,-2.16572,0.676263,-50.362,-84.3667,-84.4194,-0.174491,-7.72679,7.47075,0.001807,0.00630732,-0.000585687,4,0,41.35931033529534,-91.92872565107908,9419.36075530212,-155.38490410360114,4.704157392923825,3.910165744147987,203.03,9174.609911748745,11300.678975010827,150,True,2.3730184193231505,False,117.51626839771627,163.4361028132638,False,78.6949091361178,False,False
3,1970-07-23 10:17:12.730858264,2025-09-11,2025-09-26 20:41:13.085,HA,D,3536067862,JASSM,3,127,76,2,2,1,225,9,2,0,1,26,0,0,0,0,-165658.48620779935,-4793212.933564986,4195074.519011021,-2.29551,0.0354733,-0.0791918,91.25,3.25,7.25,0.0,0.0,0.0,0.0,0.0,0.0,2,0,41.36654142518332,-91.97941460821647,10002.626283891728,83.94614853722388,-0.0035355867769033,0.0028974523987749,,9174.609911748745,11300.678975010827,150,3,2025-09-11,2025-09-26 20:41:12.953,HA,D,2619684730,AMBUSH51,1,1,48,2,1,1,225,2,1,0,0,9,1,225,2,1,-161529.17465513945,-4793914.878636902,4194190.518712904,2.75805,-2.1908,0.69433,-51.2531,-82.8842,-84.4102,-0.0871882,-5.44945,5.33454,-0.0202952,-0.0232184,0.00972158,4,0,41.3572355485884,-91.9298298218164,9466.769377520208,-154.7914311090736,3.307144254919695,2.6072130829322404,202.639,9174.609911748745,11300.678975010827,150,True,2.301549114983077,False,118.07820483138428,159.85250271058317,False,81.78705076265038,False,False
3,1970-07-23 10:17:12.731322175,2025-09-11,2025-09-26 20:41:13.132,HA,D,3537379996,JASSM,3,127,76,2,2,1,225,9,2,0,1,26,0,0,0,0,-165558.0538347525,-4793209.368135299,4195082.503386021,-2.29551,0.0354733,-0.0791918,91.25,3.25,7.25,0.0,0.0,0.0,0.0,0.0,0.0,2,0,41.3666371735724,-91.97821698929792,10002.625474096336,83.94694001281688,-0.0026316924286343,0.0028978818423659,,9174.609911748745,11300.678975010827,150,3,2025-09-11,2025-09-26 20:41:13.220,HA,D,2620002862,AMBUSH51,1,1,48,2,1,1,225,2,1,0,0,9,1,225,2,1,-161543.19286744087,-4793937.248352316,4194167.200652446,2.75142,-2.19445,0.70127,-51.3459,-82.2031,-84.933,-0.0757955,-5.12479,5.05576,-0.00467822,-0.0205698,0.00235003,4,0,41.3569422656617,-91.929988175242,9472.43955225709,-154.81203429764244,2.8793550839779973,2.360455668794361,202.565,9174.609911748745,11300.678975010827,150,True,2.2482856214209264,False,118.14672421160408,158.9042612131413,False,82.6894168225175,False,False
3,1970-07-23 10:17:12.743239126,2025-09-11,2025-09-26 20:41:14.323,HA,D,3538632228,JASSM,3,127,76,2,2,1,225,9,2,0,1,26,0,0,0,0,-165462.2061785025,-4793205.964814986,4195090.122526646,-2.29551,0.0354733,-0.0791918,91.25,3.25,7.25,0.0,0.0,0.0,0.0,0.0,0.0,2,0,41.36672853825624,-91.97707403842652,10002.62633877193,83.94769536110817,-0.0017690610079048,0.0028982904785473,,9174.609911748745,11300.678975010827,150,3,2025-09-11,2025-09-26 20:41:14.319,HA,D,2621315162,AMBUSH51,1,1,48,2,1,1,225,2,1,0,0,9,1,225,2,1,-161599.9389856438,-4794025.748171479,4194072.085535464,2.78438,-2.2084,0.720921,-51.8292,-79.8603,-86.7843,-0.0575947,-5.4779,5.17431,0.169359,-0.008958,0.00973198,4,0,41.355762367297366,-91.93063000528628,9488.777888743622,-154.7389768119947,1.604378841287464,4.773548257711004,201.979,9174.609911748745,11300.678975010827,150,True,2.192422125065493,False,118.43295970844608,156.45705639819406,False,84.93647243150095,False,False
3,1970-07-23 10:17:12.752379463,2025-09-11,2025-09-26 20:41:15.237,HA,D,3539836538,JASSM,3,127,76,2,2,1,225,9,2,0,1,26,0,0,0,0,-165370.02673514312,-4793202.690400924,4195097.448698521,-2.29551,0.0354733,-0.0791918,91.25,3.25,7.25,0.0,0.0,0.0,0.0,0.0,0.0,2,0,41.36681639428768,-91.97597482729005,10002.625367935336,83.94842180417393,-0.0009394441625146,0.0028986821867669,,9174.609911748745,11300.678975010827,150,3,2025-09-11,2025-09-26 20:41:15.286,HA,D,2622468394,AMBUSH51,1,1,48,2,1,1,225,2,1,0,0,9,1,225,2,1,-161650.15811339137,-4794101.1830773065,4193988.116882688,2.98341,-2.21237,0.71917,-53.1241,-78.2565,-87.3482,-0.302307,-6.56613,6.23838,0.205404,0.0161007,0.0100836,4,0,41.35473672280276,-91.93119915279564,9496.590348023983,-154.54174886887736,1.6229832541020248,16.33293116846184,202.015,9174.609911748745,11300.678975010827,150,False,2.142545086302345,False,119.0999372421526,154.1651215779883,False,86.60216589984007,False,False
3,1970-07-23 10:17:12.763399721,2025-09-11,2025-09-26 20:41:16.339,HA,D,3541077970,JASSM,3,127,76,2,2,1,225,9,2,0,1,26,0,0,0,0,-165275.00598319,-4793199.313447799,4195105.000456333,-2.29551,0.0355692,-0.0791918,91.25,3.25,7.25,0.0,0.0,0.0,0.0,0.0,0.0,2,0,41.36690695536368,-91.97484173200156,10002.624500745049,83.9455403012825,-0.0041838658341454,0.0033337891577566,,9174.609911748745,11300.678975010827,150,3,2025-09-11,2025-09-26 20:41:16.287,HA,D,2623661392,AMBUSH51,1,1,48,2,1,1,225,2,1,0,0,9,1,225,2,1,-161705.23476632105,-4794178.807607292,4193900.164492296,-3.11182,-2.25048,0.701923,-56.3215,-76.679,-86.5812,-0.137984,-7.8753,7.20606,0.259911,0.0367319,0.0399713,4,0,41.3536701762219,-91.9318253872643,9501.567934775649,-152.62001188706682,1.7820147883623458,28.58371575939896,201.979,9174.609911748745,11300.678975010827,150,False,2.0935049971858266,False,120.70371239995302,151.6573953297683,False,87.52420625741016,False,False
3,1970-07-23 10:17:12.773260565,2025-09-11,2025-09-26 20:41:17.326,HA,D,3542330672,JASSM,3,127,76,2,2,1,225,9,2,0,1,26,0,0,0,0,-165179.12243826812,-4793195.906221236,4195112.619596958,-2.29551,0.0355692,-0.0790959,91.25,3.25,7.25,0.0,0.0,0.0,0.0,0.0,0.0,2,0,41.366998317092566,-91.97369834480864,10002.626743759763,83.95040842752849,-0.0069626821316034,0.0033337705634353,,9174.609911748745,11300.678975010827,150,3,2025-09-11,2025-09-26 20:41:17.254,HA,D,2624814624,AMBUSH51,1,1,48,2,1,1,225,2,1,0,0,9,1,225,2,1,-161762.21371638164,-4794251.654175167,4193817.026510008,-2.89717,-2.30361,0.664902,-62.169,-73.9672,-84.5353,-0.610891,-9.0787,8.58836,0.235695,0.0457908,0.0373893,4,0,41.35266416541994,-91.93247623379108,9505.387564592078,-149.53995043529474,2.5529899410287973,42.92149628500671,202.052,9174.609911748745,11300.678975010827,150,False,2.04577750988381,False,123.70936518936183,149.10484272008833,False,87.08763083133344,False,False
