Subject_cm,Timestamp,SampleDate_cm,SampleTime_cm,Configuration_cm,Scenario_cm,DisTime_cm,MarkingTxt_cm,Application_cm,EntId_cm,Site_cm,ExerciseId_cm,ForceId_cm,Category_cm,Country_cm,Domain_cm,Kind_cm,Extra_cm,Specific_cm,Subcategory_cm,AltCategory_cm,AltCountry_cm,AltDomain_cm,AltKind_cm,ECEF_X_cm,ECEF_Y_cm,ECEF_Z_cm,OriPhi_cm,OriPsi_cm,OriTheta_cm,LinVelX_cm,LinVelY_cm,LinVelZ_cm,LinAccX_cm,LinAccY_cm,LinAccZ_cm,AngVelX_cm,AngVelY_cm,AngVelZ_cm,DrAlg_cm,Appearance_cm,Latitude_cm,Longitude_cm,Altitude_cm,Heading_cm,Pitch_cm,Roll_cm,CalibratedAirspeed_cm,CM_Altitude_Lead_cm,CM_Altitude_Wing_cm,CM_Airspeed_cm,Subject_ac,SampleDate_ac,SampleTime_ac,Configuration_ac,Scenario_ac,DisTime_ac,MarkingTxt_ac,Application_ac,EntId_ac,Site_ac,ExerciseId_ac,ForceId_ac,Category_ac,Country_ac,Domain_ac,Kind_ac,Extra_ac,Specific_ac,Subcategory_ac,AltCategory_ac,AltCountry_ac,AltDomain_ac,AltKind_ac,ECEF_X_ac,ECEF_Y_ac,ECEF_Z_ac,OriPhi_ac,OriPsi_ac,OriTheta_ac,LinVelX_ac,LinVelY_ac,LinVelZ_ac,LinAccX_ac,LinAccY_ac,LinAccZ_ac,AngVelX_ac,AngVelY_ac,AngVelZ_ac,DrAlg_ac,Appearance_ac,Latitude_ac,Longitude_ac,Altitude_ac,Heading_ac,Pitch_ac,Roll_ac,CalibratedAirspeed_ac,CM_Altitude_Lead_ac,CM_Altitude_Wing_ac,CM_Airspeed_ac,Bank_Angle_Condition,distance_nm,Distance_Condition,angle_between_vel,angle_between_pos,Cone_Condition,angle_between_pos_nose,Nose_Cone_Condition,Intercept_Criteria
3,1970-07-23 10:16:58.172418271,2025-09-11,2025-09-26 20:16:57.241,HH,C,1800244216,JASSM,3,101,76,2,2,1,225,9,2,0,1,26,0,0,0,0,-155663.77185233062,-4777283.196260299,4213463.616667271,-2.71093,-1.01118,0.751842,36.25,-57.75,-63.75,0.0,0.0,0.0,0.0,0.0,0.0,2,0,41.58742951045391,-91.86627468383324,10002.629513145916,155.9388893975674,-0.0025817657452477,-0.000659072140103,,8988.574530004647,11016.82538521552,150,3,2025-09-11,2025-09-26 20:16:57.528,HH,C,204865352,HAWK11,1,1,73,2,1,1,225,2,1,0,0,12,1,225,2,1,-148580.99841483062,-4791213.332002486,4198445.054167271,2.43433,2.5303,-0.59739,-88.875,37.375,39.25,-0.125,-7.125,6.5625,-0.00585938,0.0175781,0.00976562,4,0,41.40452002018327,-91.77623832001936,11016.48771964879,-43.77401872869677,1.833919222823599,-1.6499092300774438,195.184,8988.574530004647,11016.82538521552,150,True,11.694744155059487,False,144.2130288852108,176.16997305547616,False,39.554231571438194,False,False
3,1970-07-23 10:16:58.181240063,2025-09-11,2025-09-26 20:16:58.124,HH,C,1801497002,JASSM,3,101,76,2,2,1,225,9,2,0,1,26,0,0,0,0,-155625.69079764312,-4777344.000947799,4213396.530729771,-2.71083,-1.01118,0.751842,36.25,-57.75,-63.75,0.0,0.0,0.0,0.0,0.0,0.0,2,0,41.5866223371468,-91.86579471667368,10002.624355840053,155.93920797911233,-0.0016983624502741,0.0048447679035451,,8988.574530004647,11016.82538521552,150,3,2025-09-11,2025-09-26 20:16:57.933,HH,C,205382320,HAWK11,1,1,73,2,1,1,225,2,1,0,0,12,1,225,2,1,-148618.96521170562,-4791197.356416549,4198461.784636021,2.43472,2.52915,-0.59739,-88.875,37.25,39.25,-0.28125,-6.9375,6.51562,0.0,-0.00585938,0.00390625,4,0,41.40472098364084,-91.77669783040672,11016.392640514665,-43.73186006346239,1.800114363156899,-1.6635475778912985,195.416,8988.574530004647,11016.82538521552,150,True,11.623446601022309,False,144.17445757541745,176.07850191478218,False,39.68615261681738,False,False
3,1970-07-23 10:16:58.194019095,2025-09-11,2025-09-26 20:16:59.401,HH,C,1802809926,JASSM,3,101,76,2,2,1,225,9,2,0,1,26,0,0,0,0,-155585.78064139312,-4777407.723604049,4213326.226042271,-2.71083,-1.01118,0.751842,36.25,-57.75,-63.75,0.0,0.0,0.0,0.0,0.0,0.0,2,0,41.5857764306574,-91.8652917096693,10002.625571051052,155.9395418480656,-0.0007725635612597,0.0048434286198066,,8988.574530004647,11016.82538521552,150,3,2025-09-11,2025-09-26 20:16:59.527,HH,C,207251350,HAWK11,1,1,73,2,1,1,225,2,1,0,0,12,1,225,2,1,-148758.16443045562,-4791138.661104049,4198522.661589146,2.44114,2.52771,-0.599307,-89.0,37.25,39.0,-0.25,-7.04688,6.5,0.00390625,-0.00195312,0.00585938,4,0,41.405455379552336,-91.77838262213588,11014.745400981285,-43.61098605143872,1.8444423223672497,-1.3376376384060968,195.869,8988.574530004647,11016.82538521552,150,True,11.500812433867242,False,144.04991152934622,175.78383308797316,False,40.10729984898559,False,False
3,1970-07-23 10:16:58.203259725,2025-09-11,2025-09-26 20:17:00.325,HH,C,1804121612,JASSM,3,101,76,2,2,1,225,9,2,0,1,26,0,0,0,0,-155545.90857108062,-4777471.385713424,4213255.983854771,-2.71083,-1.01118,0.751842,36.25,-57.75,-63.75,0.0,0.0,0.0,0.0,0.0,0.0,2,0,41.58493129661231,-91.86478919568977,10002.622881942583,155.93987538420745,0.0001523816668894,0.0048420774236336,,8988.574530004647,11016.82538521552,150,3,2025-09-11,2025-09-26 20:17:00.326,HH,C,208205750,HAWK11,1,1,73,2,1,1,225,2,1,0,0,12,1,225,2,1,-148829.24646170562,-4791108.297822799,4198553.759245396,2.44804,2.52359,-0.599787,-88.875,37.5,38.875,-0.046875,-6.95312,6.48438,0.0117188,0.00195312,0.00976562,4,0,41.40583278574948,-91.77924312010468,11012.97249625863,-43.442158446769625,1.7445776597413265,-1.069897330108617,196.247,8988.574530004647,11016.82538521552,150,True,11.411126315769907,False,144.11793532956017,175.6207846604602,False,40.201028088760005,False,False
3,1970-07-23 10:16:58.214118927,2025-09-11,2025-09-26 20:17:01.411,HH,C,1805374990,JASSM,3,101,76,2,2,1,225,9,2,0,1,26,0,0,0,0,-155507.80993826812,-4777532.215791549,4213188.866667271,-2.71083,-1.01118,0.751842,36.25,-57.75,-63.75,0.0,0.0,0.0,0.0,0.0,0.0,2,0,41.58412375823276,-91.86430904504392,10002.625926542512,155.94019407182083,0.0010361799552994,0.0048407893663424,,8988.574530004647,11016.82538521552,150,3,2025-09-11,2025-09-26 20:17:01.433,HH,C,209557814,HAWK11,1,1,73,2,1,1,225,2,1,0,0,12,1,225,2,1,-148930.43200858062,-4791064.751924361,4198597.847136021,2.47786,2.52004,-0.598732,-88.875,37.875,38.625,-0.296875,-7.04688,6.39062,0.0664062,0.0,0.00585938,4,0,41.40637072612639,-91.78046817992366,11009.268842781144,-43.34948287174028,1.5936459525979514,0.526849588380324,196.504,8988.574530004647,11016.82538521552,150,True,11.309461691555422,False,144.14297325384487,175.39469128047315,False,40.39946826395148,False,False
3,1970-07-23 10:16:58.225161609,2025-09-11,2025-09-26 20:17:02.516,HH,C,1806686666,JASSM,3,101,76,2,2,1,225,9,2,0,1,26,0,0,0,0,-155467.93786795562,-4777595.873994674,4213118.624479771,-2.71083,-1.01118,0.751938,36.25,-57.75,-63.75,0.0,0.0,0.0,0.0,0.0,0.0,2,0,41.58327864296944,-91.86380655821446,10002.624307953936,155.9428201899383,-0.0030289064389338,0.0048394252338508,,8988.574530004647,11016.82538521552,150,3,2025-09-11,2025-09-26 20:17:02.637,HH,C,210711046,HAWK11,1,1,73,2,1,1,225,2,1,0,0,12,1,225,2,1,-149015.32068045562,-4791027.566377486,4198635.310026646,2.60067,2.51391,-0.60458,-88.25,38.375,39.0,-0.140625,-6.95312,6.53125,0.134766,0.0117188,0.0136719,4,0,41.40682911310408,-91.78149619106784,11005.593283643064,-42.91461396272398,1.6766071938781903,7.377285557951223,197.066,8988.574530004647,11016.82538521552,150,True,11.212937566630695,False,144.60926685501377,175.19772149612942,False,40.1304497302274,False,False
3,1970-07-23 10:16:58.235200017,2025-09-11,2025-09-26 20:17:03.520,HH,C,1807939686,JASSM,3,101,76,2,2,1,225,9,2,0,1,26,0,0,0,0,-155429.84900076812,-4777656.684541549,4213051.522917271,-2.71083,-1.01109,0.751938,36.25,-57.75,-63.75,0.0,0.0,0.0,0.0,0.0,0.0,2,0,41.58247132013501,-91.86332655665665,10002.624426838122,155.93949428778552,-0.0038199117803494,0.0010873856758725,,8988.574530004647,11016.82538521552,150,3,2025-09-11,2025-09-26 20:17:03.527,HH,C,211824512,HAWK11,1,1,73,2,1,1,225,2,1,0,0,12,1,225,2,1,-149098.00036795562,-4790990.279268111,4198672.436979771,2.71745,2.49665,-0.614935,-87.125,39.375,39.875,-0.234375,-7.3125,6.64062,0.107422,0.0078125,0.03125,4,0,41.40728623676003,-91.78249786295092,11000.775007344182,-41.91092452144546,1.6441166971953791,13.531057139330937,197.408,8988.574530004647,11016.82538521552,150,False,11.119478032081789,False,145.55424921019025,175.0040275452133,False,39.37866547556193,False,False
3,1970-07-23 10:16:58.248025868,2025-09-11,2025-09-26 20:17:04.802,HH,C,1809251774,JASSM,3,101,76,2,2,1,225,9,2,0,1,26,0,0,0,0,-155389.96423514312,-4777720.360322799,4212981.257292271,-2.71083,-1.01109,0.751938,36.25,-57.75,-63.75,0.0,0.0,0.0,0.0,0.0,0.0,2,0,41.58162594009168,-91.86282393651412,10002.624527050022,155.93982787277622,-0.0028947017085183,0.0010860234987643,,8988.574530004647,11016.82538521552,150,3,2025-09-11,2025-09-26 20:17:04.731,HH,C,213494710,HAWK11,1,1,73,2,1,1,225,2,1,0,0,12,1,225,2,1,-149218.48669608062,-4790933.378877486,4198729.153776646,2.82425,2.4537,-0.630466,-84.5,41.5,41.625,-0.328125,-7.25,6.64062,0.015625,0.015625,0.0351562,4,0,41.4079852577722,-91.78395854546208,10993.1283618678,-39.78054254665183,1.1475893740089094,18.26725197966149,197.702,8988.574530004647,11016.82538521552,150,False,11.003280816621398,False,147.60973728408337,174.72906154242122,False,37.59393605958131,False,False
3,1970-07-23 10:16:58.257237641,2025-09-11,2025-09-26 20:17:05.723,HH,C,1810504994,JASSM,3,101,76,2,2,1,225,9,2,0,1,26,0,0,0,0,-155351.86950858062,-4777781.178682174,4212914.144011021,-2.71083,-1.01109,0.751938,36.25,-57.75,-63.75,0.0,0.0,0.0,0.0,0.0,0.0,2,0,41.580818488535805,-91.86234388619864,10002.627999951404,155.94014647315257,-0.0020110058033032,0.0010847183638097,,8988.574530004647,11016.82538521552,150,3,2025-09-11,2025-09-26 20:17:05.733,HH,C,214647942,HAWK11,1,1,73,2,1,1,225,2,1,0,0,12,1,225,2,1,-149299.90466483062,-4790891.481416549,4198770.749479771,2.82617,2.43481,-0.625097,-82.625,43.125,43.5,-0.296875,-7.3125,6.875,-0.0078125,0.00585938,0.0234375,4,0,41.4085001854268,-91.7849468954542,10986.583826264185,-39.255213408399264,0.3835601529498196,17.748765881554707,198.007,8988.574530004647,11016.82538521552,150,False,10.90703184192312,False,149.34037432951297,174.5361824693685,False,36.05726382261386,False,False
3,1970-07-23 10:16:58.269218648,2025-09-11,2025-09-26 20:17:06.921,HH,C,1811816766,JASSM,3,101,76,2,2,1,225,9,2,0,1,26,0,0,0,0,-155311.99450858062,-4777844.836885299,4212843.890104771,-2.71083,-1.01109,0.751938,36.25,-57.75,-63.75,0.0,0.0,0.0,0.0,0.0,0.0,2,0,41.57997328587928,-91.86184141551894,10002.6219336374,155.94047994806138,-0.0010859993490725,0.001083345733421,,8988.574530004647,11016.82538521552,150,3,2025-09-11,2025-09-26 20:17:06.731,HH,C,215840942,HAWK11,1,1,73,2,1,1,225,2,1,0,0,12,1,225,2,1,-149382.08630545562,-4790846.319307174,4198815.532682896,2.8254,2.42072,-0.620304,-80.625,45.125,45.25,-0.171875,-7.3125,6.8125,-0.0136719,0.0136719,0.0234375,4,0,41.40905590025101,-91.78594560208812,10978.990812433014,-38.88227405994532,-0.2206013654769465,17.234622181552737,198.19,8988.574530004647,11016.82538521552,150,False,10.805973820647006,False,151.17432762959993,174.3402907441357,False,34.41419477932786,False,False
3,1970-07-23 10:16:58.278140468,2025-09-11,2025-09-26 20:17:07.814,HH,C,1813069466,JASSM,3,101,76,2,2,1,225,9,2,0,1,26,0,0,0,0,-155273.91540701812,-4777905.627900924,4212776.804167271,-2.71083,-1.01109,0.751938,36.25,-57.75,-63.75,0.0,0.0,0.0,0.0,0.0,0.0,2,0,41.579166174258525,-91.86136158750084,10002.629293545668,155.94079839051014,-0.0002026778778062,0.001082045790805,,8988.574530004647,11016.82538521552,150,3,2025-09-11,2025-09-26 20:17:07.731,HH,C,217033940,HAWK11,1,1,73,2,1,1,225,2,1,0,0,12,1,225,2,1,-149462.38318045562,-4790799.356416549,4198862.022917271,2.82128,2.40643,-0.616085,-78.875,46.875,47.0,-0.140625,-7.32812,6.89062,-0.0136719,0.0,0.0273438,4,0,41.40963419196918,-91.78692247869184,10970.534208972971,-38.47629587998906,-0.8010561056722513,16.520632209726376,198.337,8988.574530004647,11016.82538521552,150,False,10.706551209661956,False,152.8490152341308,174.1492415789282,False,32.92802231274415,False,False
3,1970-07-23 10:16:58.289238782,2025-09-11,2025-09-26 20:17:08.923,HH,C,1814381816,JASSM,3,101,76,2,2,1,225,9,2,0,1,26,0,0,0,0,-155234.02380545562,-4777969.311494674,4212706.519011021,-2.71083,-1.01109,0.751938,36.25,-57.75,-63.75,0.0,0.0,0.0,0.0,0.0,0.0,2,0,41.57832060834747,-91.860858933684,10002.626794689177,155.94113197607385,0.0007227200597357,0.0010806694709897,,8988.574530004647,11016.82538521552,150,3,2025-09-11,2025-09-26 20:17:08.823,HH,C,218386006,HAWK11,1,1,73,2,1,1,225,2,1,0,0,12,1,225,2,1,-149550.84802420562,-4790744.329072799,4198916.311979771,2.82157,2.3792,-0.626344,-76.75,48.875,48.75,-0.34375,-7.46875,6.90625,-0.0175781,0.0117188,0.0175781,4,0,41.410311576655126,-91.78799997231332,10959.800686599616,-37.09809658564996,-1.0320067615833814,15.60724828458632,198.606,8988.574530004647,11016.82538521552,150,False,10.59769058559944,False,154.7147566261408,173.93997079945925,False,31.26445553163744,False,False
3,1970-07-23 10:16:58.300180321,2025-09-11,2025-09-26 20:17:10.018,HH,C,1815694346,JASSM,3,101,76,2,2,1,225,9,2,0,1,26,0,0,0,0,-155194.12536795562,-4778033.002900924,4212636.222136021,-2.71083,-1.01109,0.752034,36.25,-57.75,-63.75,0.0,0.0,0.0,0.0,0.0,0.0,2,0,41.57747491591391,-91.86035620805332,10002.622852365148,155.94375996803552,-0.003344705365016,0.0010792665426404,,8988.574530004647,11016.82538521552,150,3,2025-09-11,2025-09-26 20:17:10.137,HH,C,219976670,HAWK11,1,1,73,2,1,1,225,2,1,0,0,12,1,225,2,1,-149652.24450858062,-4790676.357393111,4198983.415495396,2.8277,2.34642,-0.634205,-74.25,51.0,50.875,-0.0625,-7.25,6.78125,-0.00976562,0.0,0.03125,4,0,41.41115005241714,-91.7892368300859,10946.041798037071,-35.58337531881271,-1.4895457336585265,14.81840911018502,198.569,8988.574530004647,11016.82538521552,150,False,10.47758049746601,False,156.8648729235812,173.70530108840356,False,29.34327826442336,True,False
3,1970-07-23 10:16:58.311198265,2025-09-11,2025-09-26 20:17:11.119,HH,C,1817006518,JASSM,3,101,76,2,2,1,225,9,2,0,1,26,0,0,0,0,-155154.23864920562,-4778096.674775924,4212565.948698521,-2.71083,-1.01109,0.752034,36.25,-57.75,-63.75,0.0,0.0,0.0,0.0,0.0,0.0,2,0,41.57662949325487,-91.85985364351126,10002.62841614383,155.9440934833282,-0.002419461377004,0.0010779444574323,,8988.574530004647,11016.82538521552,150,3,2025-09-11,2025-09-26 20:17:11.137,HH,C,221169670,HAWK11,1,1,73,2,1,1,225,2,1,0,0,12,1,225,2,1,-149725.76794608062,-4790623.527314986,4199035.491667271,2.8323,2.32264,-0.641683,-72.5,52.625,52.5,-0.34375,-7.57812,7.03125,-0.0117188,0.0234375,0.0136719,4,0,41.411802186762685,-91.79013503005248,10934.77674801557,-34.429877898757184,-1.7129023551966809,14.238662610581564,198.679,8988.574530004647,11016.82538521552,150,False,10.372907569429866,False,158.43586022639454,173.52640803321523,False,27.945780138405564,True,False
3,1970-07-23 10:16:58.322219881,2025-09-11,2025-09-26 20:17:12.221,HH,C,1818259216,JASSM,3,101,76,2,2,1,225,9,2,0,1,26,0,0,0,0,-155116.15857108062,-4778157.459932174,4212498.852995396,-2.71083,-1.01109,0.752034,36.25,-57.75,-63.75,0.0,0.0,0.0,0.0,0.0,0.0,2,0,41.57582234229096,-91.8593738555721,10002.620644021425,155.94441187826135,-0.001536108545472,0.0010766737783765,,8988.574530004647,11016.82538521552,150,3,2025-09-11,2025-09-26 20:17:12.323,HH,C,222521734,HAWK11,1,1,73,2,1,1,225,2,1,0,0,12,1,225,2,1,-149807.12536795562,-4790562.082979049,4199096.436979771,2.83863,2.2957,-0.651846,-70.5,53.875,54.375,-0.203125,-7.53125,7.03125,-0.00976562,0.0136719,0.0234375,4,0,41.412563970357496,-91.79113007143634,10922.182333843735,-33.07529320352871,-1.8584252843235003,13.628965552140832,198.716,8988.574530004647,11016.82538521552,150,False,10.26325749756448,False,160.09144193922762,173.33326052208153,False,26.48846652666129,True,False
3,1970-07-23 10:16:58.333628492,2025-09-11,2025-09-26 20:17:13.362,HH,C,1819511916,JASSM,3,101,76,2,2,1,225,9,2,0,1,26,0,0,0,0,-155078.07946951812,-4778218.245088424,4212431.759245396,-2.71083,-1.01109,0.752034,36.25,-57.75,-63.75,0.0,0.0,0.0,0.0,0.0,0.0,2,0,41.57501520217095,-91.8588940912768,10002.622169994122,155.9447302524286,-0.000652770990557,0.0010754003725272,,8988.574530004647,11016.82538521552,150,3,2025-09-11,2025-09-26 20:17:13.282,HH,C,223277300,HAWK11,1,1,73,2,1,1,225,2,1,0,0,12,1,225,2,1,-149850.57263358062,-4790527.328096236,4199130.915495396,2.84323,2.28189,-0.657023,-69.25,55.0,55.375,-0.34375,-7.8125,7.20312,-0.0136719,0.0234375,0.0175781,4,0,41.41299537441705,-91.79166218868887,10914.876744696969,-32.38424054035597,-1.9236275585672875,13.388417374481332,198.973,8988.574530004647,11016.82538521552,150,False,10.178809750429126,False,161.14023890357421,173.21440519038245,False,25.551237898471552,True,False
3,1970-07-23 10:16:58.343259269,2025-09-11,2025-09-26 20:17:14.325,HH,C,1820765304,JASSM,3,101,76,2,2,1,225,9,2,0,1,26,0,0,0,0,-155039.97888358062,-4778279.061494674,4212364.628386021,-2.71083,-1.01099,0.752034,36.25,-57.75,-63.75,0.0,0.0,0.0,0.0,0.0,0.0,2,0,41.57420762773559,-91.85841406943584,10002.62282105523,155.94140021649014,-0.001445693893958,-0.0026818580332463,,8988.574530004647,11016.82538521552,150,3,2025-09-11,2025-09-26 20:17:14.433,HH,C,224987266,HAWK11,1,1,73,2,1,1,225,2,1,0,0,12,1,225,2,1,-149947.54919608062,-4790446.766572799,4199212.854948521,2.84199,2.24977,-0.687799,-66.5,55.75,58.5,-0.453125,-8.125,7.4375,-0.0136719,0.0078125,0.0273438,4,0,41.41400967554728,-91.7928510459803,10902.044259638284,-30.257624993928317,-1.1107396439584765,12.114490068669186,198.936,8988.574530004647,11016.82538521552,150,False,10.052290582125444,False,163.35467371873025,172.991686546368,False,23.596762483012146,True,False
3,1970-07-23 10:16:58.354117304,2025-09-11,2025-09-26 20:17:15.411,HH,C,1822076968,JASSM,3,101,76,2,2,1,225,9,2,0,1,26,0,0,0,0,-155000.10681326812,-4778342.706025924,4212294.374479771,-2.71074,-1.01099,0.752034,36.25,-57.75,-63.75,0.0,0.0,0.0,0.0,0.0,0.0,2,0,41.57336248797428,-91.85791174163153,10002.62605822016,155.9417335532066,-0.0005207727305294,0.0028082248408746,,8988.574530004647,11016.82538521552,150,3,2025-09-11,2025-09-26 20:17:15.528,HH,C,226379098,HAWK11,1,1,73,2,1,1,225,2,1,0,0,12,1,225,2,1,-150024.02575858062,-4790380.796846236,4199282.376432896,2.84026,2.22657,-0.707069,-64.25,56.25,60.375,-0.234375,-7.82812,7.26562,-0.0117188,0.015625,0.0234375,4,0,41.41485715420945,-91.79378952872072,10896.578191005916,-28.83293943026424,-0.6340782787582728,11.140269284858965,198.936,8988.574530004647,11016.82538521552,150,False,9.936312722828383,False,164.93097196980372,172.80621272823277,False,22.225495400979394,True,False
3,1970-07-23 10:16:58.365134500,2025-09-11,2025-09-26 20:17:16.513,HH,C,1823389318,JASSM,3,101,76,2,2,1,225,9,2,0,1,26,0,0,0,0,-154960.21423514312,-4778406.381807174,4212224.081511021,-2.71074,-1.01099,0.75213,36.25,-57.75,-63.75,0.0,0.0,0.0,0.0,0.0,0.0,2,0,41.5725169003525,-91.8574091691422,10002.624730456011,155.9443603128752,-0.0045850749950832,0.0028067464087558,,8988.574530004647,11016.82538521552,150,3,2025-09-11,2025-09-26 20:17:16.324,HH,C,227333496,HAWK11,1,1,73,2,1,1,225,2,1,0,0,12,1,225,2,1,-150074.59021170562,-4790335.507783736,4199330.940886021,2.83499,2.21258,-0.721354,-62.75,56.5,61.5,-0.140625,-7.82812,7.32812,-0.0351562,0.0175781,0.0234375,4,0,41.41544496535832,-91.79441067018064,10894.497551707836,-27.91295149278841,-0.1974057064517006,10.306248054582005,198.826,8988.574530004647,11016.82538521552,150,False,9.83942374504951,False,165.9270966930677,172.6696996730614,False,21.377593208093405,True,False
3,1970-07-23 10:16:58.375176742,2025-09-11,2025-09-26 20:17:17.517,HH,C,1824642534,JASSM,3,101,76,2,2,1,225,9,2,0,1,26,0,0,0,0,-154922.11950858062,-4778467.186494674,4212156.956511021,-2.71074,-1.01099,0.75213,36.25,-57.75,-63.75,0.0,0.0,0.0,0.0,0.0,0.0,2,0,41.57170942762672,-91.85692925902568,10002.625240324584,155.94467876316605,-0.0037013817667475,0.0028054530211869,,8988.574530004647,11016.82538521552,150,3,2025-09-11,2025-09-26 20:17:17.483,HH,C,228287896,HAWK11,1,1,73,2,1,1,225,2,1,0,0,12,1,225,2,1,-150124.42419608062,-4790290.070283736,4199380.431120396,2.8325,2.19388,-0.731901,-61.625,56.75,62.5,-0.15625,-7.53125,7.15625,-0.0117188,0.00585938,0.0214844,4,0,41.41604004058765,-91.79502315012031,10894.008432363087,-26.924157786785635,-0.0306715079989016,9.449940730709807,198.569,8988.574530004647,11016.82538521552,150,True,9.744765445075762,False,166.72294222225352,172.53512344558575,False,20.725395874288047,True,False
3,1970-07-23 10:16:58.386197123,2025-09-11,2025-09-26 20:17:18.619,HH,C,1825954862,JASSM,3,101,76,2,2,1,225,9,2,0,1,26,0,0,0,0,-154882.22693045562,-4778530.858369674,4212086.663542271,-2.71074,-1.01099,0.75213,36.25,-57.75,-63.75,0.0,0.0,0.0,0.0,0.0,0.0,2,0,41.57086385878157,-91.85642671367796,10002.624988589429,155.9450122278992,-0.0027759964413967,0.0028041037168246,,8988.574530004647,11016.82538521552,150,3,2025-09-11,2025-09-26 20:17:18.729,HH,C,230077394,HAWK11,1,1,73,2,1,1,225,2,1,0,0,12,1,225,2,1,-150214.06872733062,-4790203.346650924,4199475.612761021,2.83087,2.16819,-0.746953,-59.125,57.375,64.125,-0.046875,-7.51562,7.01562,-0.0253906,0.00585938,0.015625,4,0,41.41718171206701,-91.79612681507416,10894.231813270551,-25.56583879653419,0.253233640136173,8.367328634442181,198.007,8988.574530004647,11016.82538521552,150,True,9.60999605116098,False,168.35333743459867,172.32457002300396,False,19.31569846966042,True,False
3,1970-07-23 10:16:58.397215759,2025-09-11,2025-09-26 20:17:19.721,HH,C,1827266718,JASSM,3,101,76,2,2,1,225,9,2,0,1,26,0,0,0,0,-154842.34900076812,-4778594.504854049,4212016.395964146,-2.71074,-1.01099,0.75213,36.25,-57.75,-63.75,0.0,0.0,0.0,0.0,0.0,0.0,2,0,41.57001860727367,-91.85592436674298,10002.624337830814,155.94534555540807,-0.0018509593869672,0.0028027580907287,,8988.574530004647,11016.82538521552,150,3,2025-09-11,2025-09-26 20:17:19.433,HH,C,230912492,HAWK11,1,1,73,2,1,1,225,2,1,0,0,12,1,225,2,1,-150254.48669608062,-4790162.710908736,4199520.727995396,2.82732,2.154,-0.754143,-58.0,57.5,64.875,-0.15625,-7.54688,6.9375,-0.0332031,0.00195312,0.0195312,4,0,41.41772043753798,-91.79662501161704,10895.339184009936,-24.85138479819076,0.3648383943450357,7.613544079495754,197.592,8988.574530004647,11016.82538521552,150,True,9.517699390080615,False,169.05327245598738,172.20515946985674,False,18.739556032957843,True,False
3,1970-07-23 10:16:58.408114838,2025-09-11,2025-09-26 20:17:20.811,HH,C,1828519478,JASSM,3,101,76,2,2,1,225,9,2,0,1,26,0,0,0,0,-154804.26794608062,-4778655.286104049,4211949.290495396,-2.71074,-1.01099,0.75213,36.25,-57.75,-63.75,0.0,0.0,0.0,0.0,0.0,0.0,2,0,41.56921139674029,-91.85544466645308,10002.62633607696,155.9456638507568,-0.0009675638869089,0.0028014560982592,,8988.574530004647,11016.82538521552,150,3,2025-09-11,2025-09-26 20:17:21.137,HH,C,233059890,HAWK11,1,1,73,2,1,1,225,2,1,0,0,12,1,225,2,1,-150356.77771170562,-4790058.206025924,4199638.595182896,2.7325,2.14345,-0.776194,-56.25,57.5,66.125,-0.125,-7.71875,7.26562,-0.0546875,0.00390625,0.0078125,4,0,41.41911863402615,-91.79788652269208,10902.070396861904,-23.91619975427481,1.3205728481473291,1.77628086810068,196.321,8988.574530004647,11016.82538521552,150,True,9.368881863793504,False,170.10122642632274,171.9703427028498,False,17.927265150866,True,False
3,1970-07-23 10:16:58.417176672,2025-09-11,2025-09-26 20:17:21.717,HH,C,1829593220,JASSM,3,101,76,2,2,1,225,9,2,0,1,26,0,0,0,0,-154771.62829764312,-4778707.377900924,4211891.774870396,-2.71074,-1.01099,0.75213,36.25,-57.75,-63.75,0.0,0.0,0.0,0.0,0.0,0.0,2,0,41.56851956091529,-91.85503352180912,10002.623647921817,155.94593665336413,-0.0002104283287855,0.0028003528158325,,8988.574530004647,11016.82538521552,150,3,2025-09-11,2025-09-26 20:17:21.731,HH,C,233576856,HAWK11,1,1,73,2,1,1,225,2,1,0,0,12,1,225,2,1,-150380.56872733062,-4790033.148408736,4199667.278776646,2.71419,2.14805,-0.780413,-55.875,57.5,66.125,-0.359375,-7.5625,6.98438,-0.0527344,0.00195312,0.0,4,0,41.41945686933303,-91.79818021669143,10904.546291981882,-23.9828368268376,1.6197380238838828,0.9105726210854728,196.162,8988.574530004647,11016.82538521552,150,True,9.300765836063492,False,170.27415476261964,171.8872518383793,False,17.837229395480406,True,False
3,1970-07-23 10:16:58.427197438,2025-09-11,2025-09-26 20:17:22.719,HH,C,1830786206,JASSM,3,101,76,2,2,1,225,9,2,0,1,26,0,0,0,0,-154735.36364920562,-4778765.256807174,4211827.870573521,-2.71074,-1.01099,0.75213,36.25,-57.75,-63.75,0.0,0.0,0.0,0.0,0.0,0.0,2,0,41.56775087063764,-91.85457672454623,10002.62719300681,155.94623974301453,0.0006308110101446,0.0027991207255658,,8988.574530004647,11016.82538521552,150,3,2025-09-11,2025-09-26 20:17:22.433,HH,C,234610788,HAWK11,1,1,73,2,1,1,225,2,1,0,0,12,1,225,2,1,-150428.47888358062,-4789983.553682174,4199724.476042271,2.67756,2.15256,-0.782426,-55.625,57.0,66.5,-0.171875,-7.32812,6.79688,-0.0429688,0.0,0.00390625,4,0,41.420129031962574,-91.79877133931542,10910.437654447052,-24.09908157179916,1.8035364944247845,-1.0093208738694688,195.636,8988.574530004647,11016.82538521552,150,True,9.204758265798057,False,170.33198920450113,171.75188080120196,False,17.907707709508955,True,False
3,1970-07-23 10:16:58.437235852,2025-09-11,2025-09-26 20:17:23.723,HH,C,1831979252,JASSM,3,101,76,2,2,1,225,9,2,0,1,26,0,0,0,0,-154699.09704764312,-4778823.135713424,4211763.962370396,-2.71074,-1.01099,0.752226,36.25,-57.75,-63.75,0.0,0.0,0.0,0.0,0.0,0.0,2,0,41.566982152518456,-91.85411991472004,10002.626585416589,155.9488375294865,-0.003520730448092,0.0027978530099062,,8988.574530004647,11016.82538521552,150,3,2025-09-11,2025-09-26 20:17:23.637,HH,C,235803788,HAWK11,1,1,73,2,1,1,225,2,1,0,0,12,1,225,2,1,-150483.85778983062,-4789925.960908736,4199790.909636021,2.64516,2.16291,-0.784919,-55.625,57.0,66.25,-0.25,-7.14062,6.57812,-0.03125,0.0,-0.00195312,4,0,41.42090971931608,-91.79945472738308,10917.290940586614,-24.41599200071327,2.115839042956983,-2.457890861458801,194.842,8988.574530004647,11016.82538521552,150,True,9.101412476787216,False,170.28940659821006,171.59939745828936,False,18.105304782524474,True,False
3,1970-07-23 10:16:58.446275042,2025-09-11,2025-09-26 20:17:24.627,HH,C,1833113172,JASSM,3,101,76,2,2,1,225,9,2,0,1,26,0,0,0,0,-154664.62732108062,-4778878.145479049,4211703.220182896,-2.71074,-1.01099,0.752226,36.25,-57.75,-63.75,0.0,0.0,0.0,0.0,0.0,0.0,2,0,41.56625152575441,-91.85368574872132,10002.625745490708,155.9491255945196,-0.0027211475105999,0.0027967211693316,,8988.574530004647,11016.82538521552,150,3,2025-09-11,2025-09-26 20:17:24.527,HH,C,236837720,HAWK11,1,1,73,2,1,1,225,2,1,0,0,12,1,225,2,1,-150531.30310233062,-4789877.107393111,4199847.208464146,2.621,2.17566,-0.787795,-55.625,56.75,65.75,0.0,-6.96875,6.5,-0.015625,-0.0136719,-0.00390625,4,0,41.4215714876085,-91.80004004233636,10923.02777583584,-24.80677330650873,2.4925947188669624,-3.340651451262749,194.805,8988.574530004647,11016.82538521552,150,True,9.00865634811225,False,170.13942055767345,171.460881375701,False,18.395858421606302,True,False
3,1970-07-23 10:16:58.456156891,2025-09-11,2025-09-26 20:17:25.615,HH,C,1834306202,JASSM,3,101,76,2,2,1,225,9,2,0,1,26,0,0,0,0,-154628.36169608062,-4778936.022432174,4211639.310026646,-2.71074,-1.01089,0.752226,36.25,-57.75,-63.75,0.0,0.0,0.0,0.0,0.0,0.0,2,0,41.56548280221124,-91.85322897246982,10002.624960762803,155.9457853769988,-0.0035544729706276,-0.0009564429066651,,8988.574530004647,11016.82538521552,150,3,2025-09-11,2025-09-26 20:17:25.729,HH,C,238547684,HAWK11,1,1,73,2,1,1,225,2,1,0,0,12,1,225,2,1,-150611.28747733062,-4789794.886689986,4199941.409636021,2.59147,2.18861,-0.784727,-56.0,56.625,65.125,-0.0625,-6.90625,6.42188,-0.0136719,0.0,-0.0078125,4,0,41.42268150247487,-91.80102675390484,10931.508393776176,-25.35493708137459,2.5726495699276257,-4.531704779112362,194.537,8988.574530004647,11016.82538521552,150,True,8.88277794814571,False,169.82002421399395,171.25018402773142,False,18.928920061048807,True,False
3,1970-07-23 10:16:58.467176247,2025-09-11,2025-09-26 20:17:26.717,HH,C,1835558390,JASSM,3,101,76,2,2,1,225,9,2,0,1,26,0,0,0,0,-154590.29724295562,-4778996.766572799,4211572.231901646,-2.71074,-1.01089,0.752226,36.25,-57.75,-63.75,0.0,0.0,0.0,0.0,0.0,0.0,2,0,41.56467598216953,-91.8527495524866,10002.624668538949,155.94610345800018,-0.0026715092568819,-0.0009577474620398,,8988.574530004647,11016.82538521552,150,3,2025-09-11,2025-09-26 20:17:26.561,HH,C,239024884,HAWK11,1,1,73,2,1,1,225,2,1,0,0,12,1,225,2,1,-150633.42028983062,-4789772.514619674,4199966.880339146,2.58457,2.18947,-0.783097,-56.25,56.375,65.125,-0.125,-6.84375,6.46875,-0.0214844,-0.00390625,-0.00390625,4,0,41.42298237632344,-91.80129965415412,10933.496501886617,-25.428781654478986,2.5057006259450603,-4.895516216814934,194.158,8988.574530004647,11016.82538521552,150,True,8.809781313949651,False,169.64292259673238,171.15156920437127,False,19.203674083217596,True,False
3,1970-07-23 10:16:58.477196208,2025-09-11,2025-09-26 20:17:27.719,HH,C,1836751434,JASSM,3,101,76,2,2,1,225,9,2,0,1,26,0,0,0,0,-154554.03064139312,-4779054.641572799,4211508.319792271,-2.71074,-1.01089,0.752226,36.25,-57.75,-63.75,0.0,0.0,0.0,0.0,0.0,0.0,2,0,41.56390725338918,-91.85229278748848,10002.623998240282,155.94640650337064,-0.0018302363077731,-0.0009589962755311,,8988.574530004647,11016.82538521552,150,3,2025-09-11,2025-09-26 20:17:27.729,HH,C,240933682,HAWK11,1,1,73,2,1,1,225,2,1,0,0,12,1,225,2,1,-150723.32458670562,-4789681.512666549,4200069.733854771,2.55945,2.20826,-0.779837,-56.875,56.375,63.75,-0.15625,-7.03125,6.51562,0.0,0.0,-0.0195312,4,0,41.42420116580199,-91.80240825765648,10939.948803839992,-26.19484984582172,2.692835881266811,-5.610885434516855,193.51,8988.574530004647,11016.82538521552,150,True,8.676361536836106,False,169.07933540478942,170.90791324018846,False,20.011213775872505,True,False
3,1970-07-23 10:16:58.486234498,2025-09-11,2025-09-26 20:17:28.623,HH,C,1837884832,JASSM,3,101,76,2,2,1,225,9,2,0,1,26,0,0,0,0,-154519.57751639312,-4779109.622041549,4211447.602995396,-2.71074,-1.01089,0.752226,36.25,-57.75,-63.75,0.0,0.0,0.0,0.0,0.0,0.0,2,0,41.56317696193305,-91.8518588728259,10002.624992262165,155.9466943841902,-0.0010310299590732,-0.0009601829847054,,8988.574530004647,11016.82538521552,150,3,2025-09-11,2025-09-26 20:17:28.637,HH,C,241927848,HAWK11,1,1,73,2,1,1,225,2,1,0,0,12,1,225,2,1,-150770.30896170562,-4789635.156221236,4200121.819792271,2.54737,2.21794,-0.778783,-57.375,56.0,63.375,-0.0625,-6.98438,6.5625,-0.00585938,-0.00390625,-0.00976562,4,0,41.42481971463979,-91.8029871828578,10942.664887692144,-26.572688299920525,2.825067676879433,-5.931163907834805,193.547,8988.574530004647,11016.82538521552,150,True,8.586474520514999,False,168.68098549953228,170.75293141125778,False,20.564479300113156,True,False
3,1970-07-23 10:16:58.497216436,2025-09-11,2025-09-26 20:17:29.721,HH,C,1839018800,JASSM,3,101,76,2,2,1,225,9,2,0,1,26,0,0,0,0,-154485.10681326812,-4779164.629854049,4211386.852995396,-2.71074,-1.01089,0.752226,36.25,-57.75,-63.75,0.0,0.0,0.0,0.0,0.0,0.0,2,0,41.56244628538617,-91.85142474683089,10002.623477267947,155.94698240106052,-0.0002314060067945,-0.0009613748879468,,8988.574530004647,11016.82538521552,150,3,2025-09-11,2025-09-26 20:17:29.361,HH,C,242405046,HAWK11,1,1,73,2,1,1,225,2,1,0,0,12,1,225,2,1,-150793.74255545562,-4789612.299775924,4200147.436979771,2.55638,2.22072,-0.776098,-57.625,56.125,62.875,-0.265625,-7.0,6.625,0.0566406,0.00390625,-0.00390625,4,0,41.42512421076028,-91.80327582822022,10943.886692658512,-26.74577087336807,2.743434422198936,-5.311405225919003,193.962,8988.574530004647,11016.82538521552,150,True,8.518155246095876,False,168.48441741703033,170.64793009317617,False,20.861964286489677,True,False
3,1970-07-23 10:16:58.506135006,2025-09-11,2025-09-26 20:17:30.613,HH,C,1840211272,JASSM,3,101,76,2,2,1,225,9,2,0,1,26,0,0,0,0,-154448.85778983062,-4779222.475557174,4211322.970182896,-2.71074,-1.01089,0.752226,36.25,-57.75,-63.75,0.0,0.0,0.0,0.0,0.0,0.0,2,0,41.56167791975833,-91.85096823509043,10002.62915554309,155.94728526505995,0.0006094629125929,-0.0009626250585908,,8988.574530004647,11016.82538521552,150,3,2025-09-11,2025-09-26 20:17:30.527,HH,C,244274078,HAWK11,1,1,73,2,1,1,225,2,1,0,0,12,1,225,2,1,-150882.67028983062,-4789525.508760299,4200244.450651646,2.67143,2.22772,-0.784727,-57.5,55.75,62.25,-0.125,-7.15625,6.6875,0.0722656,0.00585938,0.0078125,4,0,41.42627869583399,-91.80437124781903,10947.964525314588,-26.762433123030004,3.3152421013293343,1.561904034554663,195.148,8988.574530004647,11016.82538521552,150,True,8.388973207490219,False,168.31685507151053,170.38552838882998,False,21.290062103526154,True,False
3,1970-07-23 10:16:58.516197431,2025-09-11,2025-09-26 20:17:31.619,HH,C,1841404318,JASSM,3,101,76,2,2,1,225,9,2,0,1,26,0,0,0,0,-154412.59118826812,-4779280.346650924,4211259.054167271,-2.71064,-1.01089,0.752322,36.25,-57.75,-63.75,0.0,0.0,0.0,0.0,0.0,0.0,2,0,41.560909180507664,-91.85051151382804,10002.627972109502,155.94988185798425,-0.0035388195143103,0.004527554107786,,8988.574530004647,11016.82538521552,150,3,2025-09-11,2025-09-26 20:17:31.637,HH,C,245268244,HAWK11,1,1,73,2,1,1,225,2,1,0,0,12,1,225,2,1,-150929.96911795562,-4789478.997041549,4200296.479948521,2.73873,2.21363,-0.791438,-56.75,55.5,62.625,-0.21875,-7.21875,6.8125,0.0566406,0.00195312,0.00585938,4,0,41.42689771700913,-91.80495402612569,10950.212495687225,-26.078043359635966,3.3853623669777053,4.885705075775895,196.394,8988.574530004647,11016.82538521552,150,True,8.296742519681588,False,168.69373415273716,170.21553087373064,False,21.0883443510632,True,False
3,1970-07-23 10:16:58.526237847,2025-09-11,2025-09-26 20:17:32.623,HH,C,1842597366,JASSM,3,101,76,2,2,1,225,9,2,0,1,26,0,0,0,0,-154376.32361014312,-4779338.215791549,4211195.136198521,-2.71064,-1.01089,0.752322,36.25,-57.75,-63.75,0.0,0.0,0.0,0.0,0.0,0.0,2,0,41.560140438030665,-91.8500547924514,10002.622174009077,155.95018485196368,-0.0026975391598569,0.0045263435766958,,8988.574530004647,11016.82538521552,150,3,2025-09-11,2025-09-26 20:17:32.562,HH,C,246222642,HAWK11,1,1,73,2,1,1,225,2,1,0,0,12,1,225,2,1,-150975.11364920562,-4789434.264619674,4200346.378386021,2.78859,2.20174,-0.798533,-55.875,55.625,62.75,-0.234375,-7.26562,6.71875,0.0449219,0.0,0.00195312,4,0,41.427492171421335,-91.80551039888672,10952.046211941268,-25.465897730623038,3.523789224327033,7.292938873591741,197.702,8988.574530004647,11016.82538521552,150,True,8.20630320950531,False,169.16150175857553,170.04730948687444,False,20.78912514950334,True,False
3,1970-07-23 10:16:58.536234668,2025-09-11,2025-09-26 20:17:33.623,HH,C,1843790812,JASSM,3,101,76,2,2,1,225,9,2,0,1,26,0,0,0,0,-154340.04528983062,-4779396.104463424,4211131.198698521,-2.71064,-1.01089,0.752322,36.25,-57.75,-63.75,0.0,0.0,0.0,0.0,0.0,0.0,2,0,41.55937144763815,-91.84959794570229,10002.62544441501,155.95048792451186,-0.0018559925164932,0.0045251258436137,,8988.574530004647,11016.82538521552,150,3,2025-09-11,2025-09-26 20:17:33.635,HH,C,247972374,HAWK11,1,1,73,2,1,1,225,2,1,0,0,12,1,225,2,1,-151056.35974295562,-4789351.002900924,4200439.159636021,2.85944,2.16579,-0.802943,-53.75,56.375,63.25,-0.046875,-7.17188,6.70312,0.0214844,0.0195312,0.0332031,4,0,41.428598512384845,-91.80651276121532,10955.043850872102,-24.070437314075672,3.1035401533425144,9.954448864481936,199.571,8988.574530004647,11016.82538521552,150,True,8.081296788754457,False,170.4523288241157,169.78922088267836,False,19.755543643387185,True,False
3,1970-07-23 10:16:58.546440589,2025-09-11,2025-09-26 20:17:34.644,HH,C,1844983458,JASSM,3,101,76,2,2,1,225,9,2,0,1,26,0,0,0,0,-154303.79040701812,-4779453.954072799,4211067.300261021,-2.71064,-1.01089,0.752322,36.25,-57.75,-63.75,0.0,0.0,0.0,0.0,0.0,0.0,2,0,41.55860294694882,-91.84914140556177,10002.624250800429,155.9507907890543,-0.0010149849008303,0.0045239063278769,,8988.574530004647,11016.82538521552,150,3,2025-09-11,2025-09-26 20:17:34.729,HH,C,249244906,HAWK11,1,1,73,2,1,1,225,2,1,0,0,12,1,225,2,1,-151112.57068045562,-4789290.341768111,4200506.602995396,2.89692,2.13837,-0.804669,-52.0,57.0,63.75,-0.15625,-7.14062,6.70312,0.00976562,0.00390625,0.015625,4,0,41.429404067427065,-91.80720742782208,10956.670829253062,-23.043506634061792,2.722896222763776,11.023469489174696,201.747,8988.574530004647,11016.82538521552,150,False,7.977280456528052,False,171.54263883615397,169.58962132679838,False,18.864495746248963,True,False
3,1970-07-23 10:16:58.555175833,2025-09-11,2025-09-26 20:17:35.517,HH,C,1846116852,JASSM,3,101,76,2,2,1,225,9,2,0,1,26,0,0,0,0,-154269.33728201812,-4779508.926729049,4211006.579557896,-2.71064,-1.01089,0.752322,36.25,-57.75,-63.75,0.0,0.0,0.0,0.0,0.0,0.0,2,0,41.55787266324193,-91.84870756488073,10002.627110281654,155.95107859072084,-0.000215797239743,0.0045227577145003,,8988.574530004647,11016.82538521552,150,3,2025-09-11,2025-09-26 20:17:35.433,HH,C,250119772,HAWK11,1,1,73,2,1,1,225,2,1,0,0,12,1,225,2,1,-151150.44958670562,-4789247.276338424,4200554.247526646,2.91619,2.12351,-0.801026,-50.625,57.75,64.25,-0.15625,-6.875,6.39062,0.00390625,0.0,0.0234375,4,0,41.42997474557689,-91.80767637812517,10957.16014969077,-22.593610805281287,2.286408355085112,11.534897043000992,203.201,8988.574530004647,11016.82538521552,150,False,7.891894567004404,False,172.47832087038913,169.43629266134275,False,18.080061485381794,True,False
3,1970-07-23 10:16:58.565215357,2025-09-11,2025-09-26 20:17:36.521,HH,C,1847310632,JASSM,3,101,76,2,2,1,225,9,2,0,1,26,0,0,0,0,-154233.04724295562,-4779566.829072799,4210942.618620396,-2.71064,-1.01089,0.752322,36.25,-57.75,-63.75,0.0,0.0,0.0,0.0,0.0,0.0,2,0,41.55710343003943,-91.84825060445498,10002.625287899036,155.95138172509496,0.0006260107093002,0.0045215427947145,,8988.574530004647,11016.82538521552,150,3,2025-09-11,2025-09-26 20:17:36.635,HH,C,251591138,HAWK11,1,1,73,2,1,1,225,2,1,0,0,12,1,225,2,1,-151211.44568045562,-4789175.193330611,4200633.561979771,2.95119,2.0889,-0.804094,-48.25,58.75,64.75,0.0,-7.04688,6.54688,0.0175781,0.00585938,0.0292969,4,0,41.430927473529614,-91.80843257429812,10956.85865358653,-21.261287271171483,1.8931635644756424,12.162528633723127,205.229,8988.574530004647,11016.82538521552,150,False,7.778775344782431,False,173.95871691239333,169.22227627519234,False,16.80627755084123,True,False
3,1970-07-23 10:16:58.576834857,2025-09-11,2025-09-26 20:17:37.683,HH,C,1848563096,JASSM,3,101,76,2,2,1,225,9,2,0,1,26,0,0,0,0,-154194.97400076812,-4779627.577119674,4210875.513151646,-2.71064,-1.0108,0.752322,36.25,-57.75,-63.75,0.0,0.0,0.0,0.0,0.0,0.0,2,0,41.556296382318905,-91.84777120156514,10002.625925537246,155.94805689931923,-0.0001654868326588,0.000767700864082,,8988.574530004647,11016.82538521552,150,3,2025-09-11,2025-09-26 20:17:37.731,HH,C,252823902,HAWK11,1,1,73,2,1,1,225,2,1,0,0,12,1,225,2,1,-151260.18982108062,-4789113.736299361,4200700.690886021,2.97544,2.06167,-0.805532,-46.25,59.5,65.5,-0.1875,-7.125,6.67188,-0.00976562,-0.00195312,0.03125,4,0,41.43173703571518,-91.80903834781763,10955.283080134215,-20.23067620321561,1.5558678004304267,12.45909325700694,206.806,8988.574530004647,11016.82538521552,150,False,7.673223764344303,False,175.25697380232432,169.03339684689945,False,15.69658102375641,True,False
3,1970-07-23 10:16:58.588023547,2025-09-11,2025-09-26 20:17:38.802,HH,C,1849815904,JASSM,3,101,76,2,2,1,225,9,2,0,1,26,0,0,0,0,-154156.89099295562,-4779688.338838424,4210808.390104771,-2.71064,-1.0108,0.752418,36.25,-57.75,-63.75,0.0,0.0,0.0,0.0,0.0,0.0,2,0,41.55548913441218,-91.8472916883799,10002.626049029155,155.95067033318435,-0.0042745935191684,0.0007662959465625,,8988.574530004647,11016.82538521552,150,3,2025-09-11,2025-09-26 20:17:38.933,HH,C,254255502,HAWK11,1,1,73,2,1,1,225,2,1,0,0,12,1,225,2,1,-151314.88318045562,-4789040.552705611,4200780.347136021,2.98474,2.02322,-0.806299,-43.875,60.5,66.125,-0.015625,-7.07812,6.70312,-0.0078125,0.00585938,0.0214844,4,0,41.432699796885935,-91.80971966976908,10952.542599253677,-18.792838776887372,1.0463010367015917,11.435440169415845,207.014,8988.574530004647,11016.82538521552,150,False,7.558026270307596,False,176.7579619962925,168.82968444455662,False,14.383262051039045,True,False
3,1970-07-23 10:16:58.598422554,2025-09-11,2025-09-26 20:17:39.842,HH,C,1851127648,JASSM,3,101,76,2,2,1,225,9,2,0,1,26,0,0,0,0,-154117.01501639312,-4779751.957979049,4210738.106901646,-2.71064,-1.0108,0.752418,36.25,-57.75,-63.75,0.0,0.0,0.0,0.0,0.0,0.0,2,0,41.55464389832257,-91.84678961350497,10002.62354462995,155.95100337939968,-0.0033496169372655,0.0007649437042479,,8988.574530004647,11016.82538521552,150,3,2025-09-11,2025-09-26 20:17:39.823,HH,C,255209900,HAWK11,1,1,73,2,1,1,225,2,1,0,0,12,1,225,2,1,-151349.42810233062,-4788991.121064986,4200833.761198521,2.99097,2.00578,-0.801601,-42.375,61.25,66.75,-0.015625,-7.125,6.71875,-0.0117188,0.00390625,0.0078125,4,0,41.433347911795245,-91.81015122239522,10949.663873585174,-18.23383890968168,0.5561882977056529,11.080485308916678,206.476,8988.574530004647,11016.82538521552,150,False,7.461363279846963,False,177.7586074843262,168.6685082420636,False,13.526893089889755,True,False
3,1970-07-23 10:16:58.609217122,2025-09-11,2025-09-26 20:17:40.921,HH,C,1852380346,JASSM,3,101,76,2,2,1,225,9,2,0,1,26,0,0,0,0,-154078.93493826812,-4779812.713838424,4210670.987761021,-2.71064,-1.0108,0.752418,36.25,-57.75,-63.75,0.0,0.0,0.0,0.0,0.0,0.0,2,0,41.55383670679381,-91.84631016208957,10002.628193705004,155.9513214133816,-0.002466279762433,0.0007636445992692,,8988.574530004647,11016.82538521552,150,3,2025-09-11,2025-09-26 20:17:40.823,HH,C,256561966,HAWK11,1,1,73,2,1,1,225,2,1,0,0,12,1,225,2,1,-151396.02966483062,-4788921.231416549,4200909.075651646,2.99002,1.97644,-0.801793,-40.5,62.25,67.25,-0.15625,-7.0625,6.76562,-0.0136719,0.00585938,0.015625,4,0,41.43426328902292,-91.81073461775838,10944.97850752988,-17.125993370007198,0.1848396773190261,9.825019608186386,205.584,8988.574530004647,11016.82538521552,150,True,7.350073844225294,False,178.85848604988877,168.48219453111383,False,12.483077525973025,True,False
3,1970-07-23 10:16:58.618180464,2025-09-11,2025-09-26 20:17:41.818,HH,C,1853633254,JASSM,3,101,76,2,2,1,225,9,2,0,1,26,0,0,0,0,-154040.84802420562,-4779873.477510299,4210603.854948521,-2.71064,-1.0108,0.752418,36.25,-57.75,-63.75,0.0,0.0,0.0,0.0,0.0,0.0,2,0,41.5530293757796,-91.84583063773243,10002.62668821957,155.95163949067185,-0.001582791132256,0.0007623474950395,,8988.574530004647,11016.82538521552,150,3,2025-09-11,2025-09-26 20:17:41.729,HH,C,257595898,HAWK11,1,1,73,2,1,1,225,2,1,0,0,12,1,225,2,1,-151430.63903983062,-4788866.483369674,4200967.880339146,2.98887,1.95698,-0.806203,-39.125,62.875,67.875,-0.140625,-7.28125,7.01562,-0.0214844,0.0136719,0.0117188,4,0,41.43497940332148,-91.81116897084571,10940.746641035785,-16.312366405779706,0.1852873949045957,8.958798298575894,204.472,8988.574530004647,11016.82538521552,150,True,7.251966608369501,False,179.40878762096162,168.32178067843353,False,11.722318319690554,True,False
3,1970-07-23 10:16:58.629194848,2025-09-11,2025-09-26 20:17:42.919,HH,C,1854885744,JASSM,3,101,76,2,2,1,225,9,2,0,1,26,0,0,0,0,-154002.77380545562,-4779934.219697799,4210536.743620396,-2.71064,-1.0108,0.752418,36.25,-57.75,-63.75,0.0,0.0,0.0,0.0,0.0,0.0,2,0,41.552222313085366,-91.8453512856144,10002.62518854879,155.9519574486391,-0.000699598224587,0.0007610510216071,,8988.574530004647,11016.82538521552,150,3,2025-09-11,2025-09-26 20:17:43.142,HH,C,259345630,HAWK11,1,1,73,2,1,1,225,2,1,0,0,12,1,225,2,1,-151486.61853201812,-4788773.184541549,4201068.640104771,2.9717,1.92467,-0.811092,-37.125,63.125,69.0,-0.140625,-7.01562,6.73438,-0.00195312,-0.00585938,0.0136719,4,0,41.43620402631752,-91.8118733372235,10934.500108053042,-15.008673471189672,0.0798365702566216,6.639587243711192,202.223,8988.574530004647,11016.82538521552,150,True,7.1215499318706454,False,178.77249166798964,168.11324630327988,False,10.673190529809359,True,False
3,1970-07-23 10:16:58.639237346,2025-09-11,2025-09-26 20:17:43.923,HH,C,1856139274,JASSM,3,101,76,2,2,1,225,9,2,0,1,26,0,0,0,0,-153964.66833670562,-4779995.012666549,4210469.575651646,-2.71064,-1.0108,0.752418,36.25,-57.75,-63.75,0.0,0.0,0.0,0.0,0.0,0.0,2,0,41.5514145698494,-91.8448715516426,10002.627542433063,155.95227565481375,0.0001843344386129,0.0007597471821358,,8988.574530004647,11016.82538521552,150,3,2025-09-11,2025-09-26 20:17:43.933,HH,C,260180728,HAWK11,1,1,73,2,1,1,225,2,1,0,0,12,1,225,2,1,-151511.90759451812,-4788728.332979049,4201116.907682896,2.98139,1.90703,-0.812051,-36.125,63.625,69.375,-0.078125,-7.125,6.59375,-0.0253906,0.00195312,0.015625,4,0,41.43679189213842,-91.81219256998172,10931.00449045202,-14.324966868571956,-0.0585906639058907,6.461431060568522,200.94,8988.574530004647,11016.82538521552,150,True,7.032153072249655,False,178.11498316017963,167.97066109265913,False,10.156316596171703,True,False
3,1970-07-23 10:16:58.650259377,2025-09-11,2025-09-26 20:17:45.025,HH,C,1857391140,JASSM,3,101,76,2,2,1,225,9,2,0,1,26,0,0,0,0,-153926.61267264312,-4780055.721650924,4210402.495573521,-2.71064,-1.0108,0.752418,36.25,-57.75,-63.75,0.0,0.0,0.0,0.0,0.0,0.0,2,0,41.55060790792484,-91.84439245835948,10002.62396860479,155.95259343095037,0.0010670860928662,0.000758455116301,,8988.574530004647,11016.82538521552,150,3,2025-09-11,2025-09-26 20:17:45.027,HH,C,261493026,HAWK11,1,1,73,2,1,1,225,2,1,0,0,12,1,225,2,1,-151550.76892264312,-4788657.991182174,4201192.587370396,2.8858,1.89638,-0.812243,-35.375,64.125,69.625,-0.203125,-7.17188,6.6875,-0.103516,-0.0078125,-0.0078125,4,0,41.43771387388057,-91.81268367848304,10925.422738431778,-13.918000327330684,-0.15854207961802,0.5415796855954127,199.058,8988.574530004647,11016.82538521552,150,True,6.921662852064201,False,177.59978091081416,167.79604139860953,False,9.823242680847962,True,False
3,1970-07-23 10:16:58.660135591,2025-09-11,2025-09-26 20:17:46.013,HH,C,1858584188,JASSM,3,101,76,2,2,1,225,9,2,0,1,26,0,0,0,0,-153890.34607108062,-4780113.579072799,4210338.567839146,-2.71064,-1.0108,0.752513,36.25,-57.75,-63.75,0.0,0.0,0.0,0.0,0.0,0.0,2,0,41.54983914373489,-91.8439358982108,10002.62861974843,155.95519017930394,-0.0030810477850832,0.0007571916310935,,8988.574530004647,11016.82538521552,150,3,2025-09-11,2025-09-26 20:17:46.137,HH,C,262924626,HAWK11,1,1,73,2,1,1,225,2,1,0,0,12,1,225,2,1,-151592.95153983062,-4788580.610322799,4201275.780729771,2.76893,1.89667,-0.809367,-35.625,64.5,69.625,-0.109375,-7.125,6.64062,-0.0878906,0.00195312,-0.00976562,4,0,41.43872782097705,-91.81321716440128,10919.1162012289,-13.972528472134387,-0.3135116714788115,-6.142274239055073,197.714,8988.574530004647,11016.82538521552,150,True,6.807880369222662,False,177.64621429704442,167.6139438056539,False,10.082383079569228,True,False
3,1970-07-23 10:16:58.670156206,2025-09-11,2025-09-26 20:17:47.015,HH,C,1859836886,JASSM,3,101,76,2,2,1,225,9,2,0,1,26,0,0,0,0,-153852.26501639312,-4780174.327119674,4210271.440886021,-2.71064,-1.0108,0.752513,36.25,-57.75,-63.75,0.0,0.0,0.0,0.0,0.0,0.0,2,0,41.549031933815854,-91.84345650911592,10002.626589608764,155.95550814185427,-0.0021977018602936,0.0007559313429232,,8988.574530004647,11016.82538521552,150,3,2025-09-11,2025-09-26 20:17:47.027,HH,C,263958558,HAWK11,1,1,73,2,1,1,225,2,1,0,0,12,1,225,2,1,-151624.02282889312,-4788524.659150924,4201335.700651646,2.67526,1.91939,-0.804285,-36.625,64.5,69.625,0.046875,-6.98438,6.54688,-0.0898438,0.0,-0.0195312,4,0,41.43945927995803,-91.81360973936174,10914.097108960936,-14.918594954428006,-0.3495702303778084,-10.563428673650478,196.785,8988.574530004647,11016.82538521552,150,False,6.709574138590371,False,178.1520248746666,167.4452879427628,False,10.778219250870434,True,False
3,1970-07-23 10:16:58.681215378,2025-09-11,2025-09-26 20:17:48.121,HH,C,1861090264,JASSM,3,101,76,2,2,1,225,9,2,0,1,26,0,0,0,0,-153814.16345389312,-4780235.106416549,4210204.276823521,-2.71054,-1.0108,0.752513,36.25,-57.75,-63.75,0.0,0.0,0.0,0.0,0.0,0.0,2,0,41.54822428935171,-91.84297687435544,10002.623848073676,155.9558262622684,-0.0013138823527382,0.0062461429917213,,8988.574530004647,11016.82538521552,150,3,2025-09-11,2025-09-26 20:17:48.527,HH,C,265668522,HAWK11,1,1,73,2,1,1,225,2,1,0,0,12,1,225,2,1,-151677.68689139312,-4788432.704072799,4201433.335417271,2.52263,1.98468,-0.797862,-39.375,64.5,68.375,-0.1875,-6.95312,6.625,-0.0566406,-0.00585938,-0.0292969,4,0,41.44065524518683,-91.8142860154772,10904.228954639302,-17.512328479228046,0.0838061037427313,-16.61558325147365,196.321,8988.574530004647,11016.82538521552,150,False,6.581470404662187,False,178.92654394284546,167.2105445459342,False,12.640538904490278,True,False
3,1970-07-23 10:16:58.691233863,2025-09-11,2025-09-26 20:17:49.123,HH,C,1862342638,JASSM,3,101,76,2,2,1,225,9,2,0,1,26,0,0,0,0,-153776.09314139312,-4780295.836885299,4210137.167448521,-2.71054,-1.0107,0.752513,36.25,-57.75,-63.75,0.0,0.0,0.0,0.0,0.0,0.0,2,0,41.54741729640557,-91.84249764451016,10002.627715213574,155.95250203009553,-0.0021054013987003,0.0024916732282991,,8988.574530004647,11016.82538521552,150,3,2025-09-11,2025-09-26 20:17:48.963,HH,C,265390156,HAWK11,1,1,73,2,1,1,225,2,1,0,0,12,1,225,2,1,-151668.97302420562,-4788447.235322799,4201417.968229771,2.55159,1.96052,-0.795273,-39.0,64.625,68.875,-0.078125,-7.0,6.46875,-0.0585938,-0.00976562,-0.0332031,4,0,41.44046671195045,-91.81417635286633,10905.903227626255,-16.640347136513252,-0.3618993614280905,-15.94850948585521,196.443,8988.574530004647,11016.82538521552,150,False,6.5418415210345335,False,178.98520802687392,167.13103770732016,False,12.426195311209604,True,False
3,1970-07-23 10:16:58.701255191,2025-09-11,2025-09-26 20:17:50.125,HH,C,1863535776,JASSM,3,101,76,2,2,1,225,9,2,0,1,26,0,0,0,0,-153739.82263358062,-4780353.692354049,4210073.229948521,-2.71054,-1.0107,0.752513,36.25,-57.75,-63.75,0.0,0.0,0.0,0.0,0.0,0.0,2,0,41.54664847089418,-91.84204108323726,10002.624716525896,155.95280483737767,-0.0012640649190001,0.0024904230559074,,8988.574530004647,11016.82538521552,150,3,2025-09-11,2025-09-26 20:17:50.135,HH,C,267656854,HAWK11,1,1,73,2,1,1,225,2,1,0,0,12,1,225,2,1,-151746.89294608062,-4788325.870088424,4201544.989714146,2.36914,2.06876,-0.771592,-44.125,64.0,66.625,-0.25,-7.17188,6.78125,-0.0371094,0.0,-0.0332031,4,0,41.44203143008862,-91.81515373757571,10889.450168062178,-21.23233772213369,-0.1265239975004428,-22.003090358071454,196.59,8988.574530004647,11016.82538521552,150,False,6.3920861694372775,False,176.9159999347627,166.8080883878586,False,15.859757988176348,True,False
3,1970-07-23 10:16:58.712272615,2025-09-11,2025-09-26 20:17:51.227,HH,C,1864788210,JASSM,3,101,76,2,2,1,225,9,2,0,1,26,0,0,0,0,-153701.75036795562,-4780414.424775924,4210006.112761021,-2.71054,-1.0107,0.752513,36.25,-57.75,-63.75,0.0,0.0,0.0,0.0,0.0,0.0,2,0,41.54584140993011,-91.8415618525279,10002.625919178709,155.95312267486494,-0.0003808961630144,0.0024890946062294,,8988.574530004647,11016.82538521552,150,3,2025-09-11,2025-09-26 20:17:51.135,HH,C,268849852,HAWK11,1,1,73,2,1,1,225,2,1,0,0,12,1,225,2,1,-151792.07751639312,-4788262.623994674,4201609.847136021,2.3189,2.13588,-0.752226,-47.25,63.5,65.0,-0.15625,-7.375,6.90625,0.0195312,0.0117188,-0.0449219,4,0,41.44283695807797,-91.8157178276584,10878.33874322118,-24.22598349386216,-0.0289995282383694,-22.222351466545287,196.736,8988.574530004647,11016.82538521552,150,False,6.288286984100626,False,174.98271555236516,166.5549685271482,False,18.078758596377643,True,False
3,1970-07-23 10:16:58.722133555,2025-09-11,2025-09-26 20:17:52.213,HH,C,1866040728,JASSM,3,101,76,2,2,1,225,9,2,0,1,26,0,0,0,0,-153663.67419608062,-4780475.157197799,4209938.991667271,-2.71054,-1.0107,0.752513,36.25,-57.75,-63.75,0.0,0.0,0.0,0.0,0.0,0.0,2,0,41.54503432129405,-91.84108258696784,10002.623280119666,155.953440530393,0.0005023103235432,0.0024877876882548,,8988.574530004647,11016.82538521552,150,3,2025-09-11,2025-09-26 20:17:52.231,HH,C,270162152,HAWK11,1,1,73,2,1,1,225,2,1,0,0,12,1,225,2,1,-151845.74939139312,-4788193.663057174,4201679.505339146,2.30807,2.19848,-0.734873,-50.75,62.75,63.375,0.0,-7.4375,7.125,0.0292969,0.0292969,-0.0273438,4,0,41.44370729042508,-91.81638555613218,10864.27155589054,-27.034461624686504,0.2423230981010402,-20.419638136517037,197.445,8988.574530004647,11016.82538521552,150,False,6.1799503866390415,False,172.83780830233192,166.25763025866277,False,20.564526951347165,True,False
3,1970-07-23 10:16:58.733155182,2025-09-11,2025-09-26 20:17:53.315,HH,C,1867293428,JASSM,3,101,76,2,2,1,225,9,2,0,1,26,0,0,0,0,-153625.59314139312,-4780535.899385299,4209871.858854771,-2.71054,-1.0107,0.752609,36.25,-57.75,-63.75,0.0,0.0,0.0,0.0,0.0,0.0,2,0,41.54422709429485,-91.84060327110872,10002.62369150576,155.95605409145338,-0.0036066989430319,0.0024864232630527,,8988.574530004647,11016.82538521552,150,3,2025-09-11,2025-09-26 20:17:53.323,HH,C,271434684,HAWK11,1,1,73,2,1,1,225,2,1,0,0,12,1,225,2,1,-151901.27966483062,-4788128.055635299,4201745.505339146,2.30759,2.27489,-0.727011,-53.75,61.25,61.75,-0.140625,-7.96875,7.625,0.0566406,0.0175781,-0.0195312,4,0,41.44453262597907,-91.8170742472096,10850.654833659391,-30.108683625320456,1.418065129043831,-17.568124803121258,197.897,8988.574530004647,11016.82538521552,150,False,6.0742717036079314,False,170.84192328988027,165.93643607565494,False,22.95764951568459,True,False
3,1970-07-23 10:16:58.743196797,2025-09-11,2025-09-26 20:17:54.319,HH,C,1868546126,JASSM,3,101,76,2,2,1,225,9,2,0,1,26,0,0,0,0,-153587.51306326812,-4780596.639619674,4209804.726042271,-2.71054,-1.0107,0.752609,36.25,-57.75,-63.75,0.0,0.0,0.0,0.0,0.0,0.0,2,0,41.54341987664818,-91.84012397961564,10002.624354373402,155.95637195414574,-0.0027233630168024,0.0024851348733214,,8988.574530004647,11016.82538521552,150,3,2025-09-11,2025-09-26 20:17:54.229,HH,C,272508382,HAWK11,1,1,73,2,1,1,225,2,1,0,0,12,1,225,2,1,-151951.00134451812,-4788073.989229049,4201801.192839146,2.32015,2.31142,-0.723847,-56.25,59.625,61.375,-0.078125,-8.17188,7.71875,0.0292969,0.0117188,-0.0195312,4,0,41.44522077916048,-91.81768914035575,10842.564664079946,-31.546585468171127,2.0672892689560776,-15.503553174802942,198.154,8988.574530004647,11016.82538521552,150,False,5.977462139183272,False,169.3854330655031,165.62135161226908,False,24.84314013287954,True,False
3,1970-07-23 10:16:58.756014935,2025-09-11,2025-09-26 20:17:55.601,HH,C,1869798858,JASSM,3,101,76,2,2,1,225,9,2,0,1,26,0,0,0,0,-153549.43103201812,-4780657.379854049,4209737.589323521,-2.71054,-1.0107,0.752609,36.25,-57.75,-63.75,0.0,0.0,0.0,0.0,0.0,0.0,2,0,41.54261263095314,-91.83964467666024,10002.621331996275,155.95668981936555,-0.0018399961487009,0.0024838518808699,,8988.574530004647,11016.82538521552,150,3,2025-09-11,2025-09-26 20:17:55.635,HH,C,274218346,HAWK11,1,1,73,2,1,1,225,2,1,0,0,12,1,225,2,1,-152033.37536795562,-4787991.413057174,4201887.606901646,2.33903,2.3514,-0.718574,-59.25,57.125,60.5,-0.40625,-7.59375,6.92188,0.0390625,-0.00195312,-0.0253906,4,0,41.44627976819893,-91.81870520936984,10833.676758344653,-33.16431999081053,2.7320821200325365,-12.976416016299224,197.861,8988.574530004647,11016.82538521552,150,False,5.855964617881577,False,167.35599424536815,165.15681698111618,False,27.42245430003681,True,False
3,1970-07-23 10:16:58.764271926,2025-09-11,2025-09-26 20:17:56.427,HH,C,1871051524,JASSM,3,101,76,2,2,1,225,9,2,0,1,26,0,0,0,0,-153511.35095389312,-4780718.118135299,4209670.456511021,-2.71054,-1.0107,0.752609,36.25,-57.75,-63.75,0.0,0.0,0.0,0.0,0.0,0.0,2,0,41.5418054207351,-91.8391654097611,10002.627137075511,155.9570076555999,-0.0009566708430369,0.0024825676873632,,8988.574530004647,11016.82538521552,150,3,2025-09-11,2025-09-26 20:17:56.729,HH,C,275490878,HAWK11,1,1,73,2,1,1,225,2,1,0,0,12,1,225,2,1,-152098.02771170562,-4787930.360322799,4201951.399870396,2.3724,2.37872,-0.718862,-60.875,56.125,59.625,-0.109375,-7.96875,7.59375,0.0449219,0.0332031,-0.0078125,4,0,41.44706136146305,-91.81950128109376,10827.19385305716,-34.13974474904115,3.3970993968991468,-10.08602996447318,198.08,8988.574530004647,11016.82538521552,150,False,5.752826089187717,False,166.19132234379688,164.74479526374765,False,29.008418775475494,True,False
3,1970-07-23 10:16:58.775272916,2025-09-11,2025-09-26 20:17:57.527,HH,C,1872304222,JASSM,3,101,76,2,2,1,225,9,2,0,1,26,0,0,0,0,-153473.26989920562,-4780778.854463424,4209603.319792271,-2.71054,-1.0107,0.752609,36.25,-57.75,-63.75,0.0,0.0,0.0,0.0,0.0,0.0,2,0,41.54099819393179,-91.83868614384131,10002.624540362924,155.9573254861111,-7.332885821499262e-05,0.0024812850566036,,8988.574530004647,11016.82538521552,150,3,2025-09-11,2025-09-26 20:17:57.635,HH,C,276564578,HAWK11,1,1,73,2,1,1,225,2,1,0,0,12,1,225,2,1,-152153.32068045562,-4787880.665010299,4202005.124479771,2.39991,2.39847,-0.722888,-62.0,54.5,59.625,-0.03125,-7.8125,7.45312,0.0371094,0.00976562,-0.00390625,4,0,41.447709183113965,-91.82018116826424,10826.036365847069,-34.71317493772046,4.06796007442412,-7.799814922775109,198.154,8988.574530004647,11016.82538521552,150,True,5.658696506189899,False,165.3431278585808,164.35765503482097,False,30.279480033843925,False,False
3,1970-07-23 10:16:58.785134842,2025-09-11,2025-09-26 20:17:58.513,HH,C,1873497340,JASSM,3,101,76,2,2,1,225,9,2,0,1,26,0,0,0,0,-153436.99939139312,-4780836.702119674,4209539.376432896,-2.71054,-1.0107,0.752609,36.25,-57.75,-63.75,0.0,0.0,0.0,0.0,0.0,0.0,2,0,41.54022935956611,-91.83822967587116,10002.62724532343,155.95762819319174,0.0007680011783891,0.0024800693068647,,8988.574530004647,11016.82538521552,150,3,2025-09-11,2025-09-26 20:17:58.433,HH,C,277518976,HAWK11,1,1,73,2,1,1,225,2,1,0,0,12,1,225,2,1,-152203.36755545562,-4787837.307588424,4202052.501432896,2.42695,2.40816,-0.720396,-62.625,53.625,59.375,-0.25,-7.54688,7.17188,0.046875,0.0136719,-0.015625,4,0,41.44827744023442,-91.82079594397024,10826.265917307615,-35.13806662753854,4.189583841956182,-5.91473700818078,198.007,8988.574530004647,11016.82538521552,150,True,5.572392014088414,False,164.7994363910569,163.987443698635,False,31.202158623119168,False,False
3,1970-07-23 10:16:58.796158662,2025-09-11,2025-09-26 20:17:59.615,HH,C,1874810074,JASSM,3,101,76,2,2,1,225,9,2,0,1,26,0,0,0,0,-153397.09314139312,-4780900.346650924,4209469.020964146,-2.71054,-1.0107,0.752705,36.25,-57.75,-63.75,0.0,0.0,0.0,0.0,0.0,0.0,2,0,41.53938344926216,-91.83772746488792,10002.625794660142,155.96025548061644,-0.003295584919548,0.0024786966718202,,8988.574530004647,11016.82538521552,150,3,2025-09-11,2025-09-26 20:17:59.527,HH,C,278871042,HAWK11,1,1,73,2,1,1,225,2,1,0,0,12,1,225,2,1,-152274.43493826812,-4787776.661104049,4202118.638151646,2.46798,2.41276,-0.715314,-63.125,52.875,59.0,-0.0625,-7.53125,7.03125,0.0332031,0.0195312,0.00390625,4,0,41.44907119543727,-91.82166860348072,10826.388984366538,-35.46940222818456,4.066649593514695,-3.413961542600701,197.897,8988.574530004647,11016.82538521552,150,True,5.4665186394162975,False,164.30265684353017,163.4888700726929,False,32.20165360011071,False,False
3,1970-07-23 10:16:58.805214809,2025-09-11,2025-09-26 20:18:00.521,HH,C,1875883840,JASSM,3,101,76,2,2,1,225,9,2,0,1,26,0,0,0,0,-153364.45153983062,-4780952.405244674,4209411.472136021,-2.71054,-1.01061,0.752705,36.25,-57.75,-63.75,0.0,0.0,0.0,0.0,0.0,0.0,2,0,41.53869152139064,-91.83731668752992,10002.62656925594,155.95688203569787,-0.0042150628221392,-0.0012808832620893,,8988.574530004647,11016.82538521552,150,3,2025-09-11,2025-09-26 20:18:00.433,HH,C,279865208,HAWK11,1,1,73,2,1,1,225,2,1,0,0,12,1,225,2,1,-152327.27478201812,-4787732.694307174,4202167.827604771,2.47997,2.43213,-0.732284,-63.25,51.75,59.25,-0.359375,-8.54688,8.01562,0.0234375,0.0175781,0.0078125,4,0,41.44965476950425,-91.82231702700842,10829.283755119368,-35.58151909153426,5.341837590511526,-2.0015575187436845,197.628,8988.574530004647,11016.82538521552,150,True,5.384510103816637,False,164.02732679837504,163.09202779137897,False,32.880560929741335,False,False
