Subject_cm,Timestamp,SampleDate_cm,SampleTime_cm,Configuration_cm,Scenario_cm,DisTime_cm,MarkingTxt_cm,Application_cm,EntId_cm,Site_cm,ExerciseId_cm,ForceId_cm,Category_cm,Country_cm,Domain_cm,Kind_cm,Extra_cm,Specific_cm,Subcategory_cm,AltCategory_cm,AltCountry_cm,AltDomain_cm,AltKind_cm,ECEF_X_cm,ECEF_Y_cm,ECEF_Z_cm,OriPhi_cm,OriPsi_cm,OriTheta_cm,LinVelX_cm,LinVelY_cm,LinVelZ_cm,LinAccX_cm,LinAccY_cm,LinAccZ_cm,AngVelX_cm,AngVelY_cm,AngVelZ_cm,DrAlg_cm,Appearance_cm,Latitude_cm,Longitude_cm,Altitude_cm,Heading_cm,Pitch_cm,Roll_cm,CalibratedAirspeed_cm,CM_Altitude_Lead_cm,CM_Altitude_Wing_cm,CM_Airspeed_cm,Subject_ac,SampleDate_ac,SampleTime_ac,Configuration_ac,Scenario_ac,DisTime_ac,MarkingTxt_ac,Application_ac,EntId_ac,Site_ac,ExerciseId_ac,ForceId_ac,Category_ac,Country_ac,Domain_ac,Kind_ac,Extra_ac,Specific_ac,Subcategory_ac,AltCategory_ac,AltCountry_ac,AltDomain_ac,AltKind_ac,ECEF_X_ac,ECEF_Y_ac,ECEF_Z_ac,OriPhi_ac,OriPsi_ac,OriTheta_ac,LinVelX_ac,LinVelY_ac,LinVelZ_ac,LinAccX_ac,LinAccY_ac,LinAccZ_ac,AngVelX_ac,AngVelY_ac,AngVelZ_ac,DrAlg_ac,Appearance_ac,Latitude_ac,Longitude_ac,Altitude_ac,Heading_ac,Pitch_ac,Roll_ac,CalibratedAirspeed_ac,CM_Altitude_Lead_ac,CM_Altitude_Wing_ac,CM_Airspeed_ac,Bank_Angle_Condition,distance_nm,Distance_Condition,angle_between_vel,angle_between_pos,Cone_Condition,angle_between_pos_nose,Nose_Cone_Condition,Intercept_Criteria
3,1970-07-23 10:29:39.494319049,2025-09-12,2025-09-26 17:25:49.431,AA,C,2330852816,JASSM,3,115,76,2,2,1,225,9,2,0,1,26,0,0,0,0,-155716.98083670562,-4777198.233369674,4213557.347136021,-2.71093,-1.01118,0.751842,35.375,-56.25,-62.125,0.0,0.0,0.0,0.0,0.0,0.0,2,0,41.588557314846135,-91.86694534211772,10002.62470744489,155.93844423495716,-0.0038160883905472,-0.0006572752604025,,9351.585978208032,10940.833293995036,150,3,2025-09-12,2025-09-26 17:25:49.527,AA,C,840044142,HAWK11,1,1,73,2,1,1,225,2,1,0,0,12,1,225,2,1,-143465.68591483062,-4790379.460908736,4199531.923307896,2.33347,2.90344,-0.257996,-103.375,20.25,17.25,-0.171875,-7.53125,6.375,-0.0234375,-0.00390625,0.00585938,4,0,41.417744701936485,-91.71542194683424,10940.833293995036,-71.1184116441327,1.0833264594435714,0.9075122838245898,188.879,9351.585978208032,10940.833293995036,150,True,12.299328235531684,False,127.1771877543736,170.3611099939761,False,43.19979309034316,False,False
3,1970-07-23 10:29:39.503376532,2025-09-12,2025-09-26 17:25:50.337,AA,C,2331986210,JASSM,3,115,76,2,2,1,225,9,2,0,1,26,0,0,0,0,-155683.39587576812,-4777251.862275924,4213498.183073521,-2.71093,-1.01118,0.751842,35.375,-56.25,-62.125,0.0,0.0,0.0,0.0,0.0,0.0,2,0,41.58784543375919,-91.8665220263522,10002.62443593135,155.93872522026606,-0.0030369754931635,-0.0006584185214343,,9351.585978208032,10940.833293995036,150,3,2025-09-12,2025-09-26 17:25:50.433,AA,C,841435974,HAWK11,1,1,73,2,1,1,225,2,1,0,0,12,1,225,2,1,-143587.01599295562,-4790355.508760299,4199552.810026646,2.33146,2.89779,-0.260201,-102.875,20.25,17.625,0.234375,-7.375,6.29688,0.0,0.00585938,0.0,4,0,41.41800655892499,-91.71688040435096,10936.202714898587,-70.81370116188029,0.9405844511839982,0.7146221932438382,189.196,9351.585978208032,10940.833293995036,150,True,12.20405824974177,False,127.39193271322979,170.53987858485084,False,43.166031100633056,False,False
3,1970-07-23 10:29:39.513273083,2025-09-12,2025-09-26 17:25:51.327,AA,C,2333059952,JASSM,3,115,76,2,2,1,225,9,2,0,1,26,0,0,0,0,-155651.57751639312,-4777302.666963424,4213442.136198521,-2.71093,-1.01118,0.751842,35.375,-56.25,-62.125,0.0,0.0,0.0,0.0,0.0,0.0,2,0,41.58717105073995,-91.86612098726914,10002.63079112036,155.93899141528465,-0.0022988942555546,-0.0006594805392334,,9351.585978208032,10940.833293995036,150,3,2025-09-12,2025-09-26 17:25:51.325,AA,C,842509674,HAWK11,1,1,73,2,1,1,225,2,1,0,0,12,1,225,2,1,-143679.63708670562,-4790337.361299361,4199568.972136021,2.37355,2.89625,-0.264612,-102.625,20.25,18.0,-0.1875,-7.67188,6.625,0.0898438,0.0136719,0.00585938,4,0,41.418207095409066,-91.71799372247584,10933.48280072862,-70.57147152829391,1.0511718226067288,3.1076399730302784,189.477,9351.585978208032,10940.833293995036,150,True,12.122900309229308,False,127.57392927752377,170.6714518968442,False,43.117955311972175,False,False
3,1970-07-23 10:29:39.522300949,2025-09-12,2025-09-26 17:25:52.230,AA,C,2334193346,JASSM,3,115,76,2,2,1,225,9,2,0,1,26,0,0,0,0,-155617.99255545562,-4777356.291963424,4213382.972136021,-2.71083,-1.01118,0.751842,35.375,-56.25,-62.125,0.0,0.0,0.0,0.0,0.0,0.0,2,0,41.58645918976743,-91.8656976911388,10002.628465010768,155.93927237986964,-0.0015198029299938,0.0048445171095007,,9351.585978208032,10940.833293995036,150,3,2025-09-12,2025-09-26 17:25:52.230,AA,C,843583372,HAWK11,1,1,73,2,1,1,225,2,1,0,0,12,1,225,2,1,-143771.81091483062,-4790319.062471236,4199585.616667271,2.4536,2.89213,-0.277651,-102.0,20.5,18.875,-0.1875,-7.76562,6.82812,0.0664062,0.015625,0.00585938,4,0,41.418411857447815,-91.71910175721192,10931.40941412671,-69.86993262343408,1.3939965999330657,7.646237677942374,189.746,9351.585978208032,10940.833293995036,150,True,12.039296441562097,False,128.09192063083793,170.80125513406773,False,42.7334652138802,False,False
3,1970-07-23 10:29:39.532338594,2025-09-12,2025-09-26 17:25:53.233,AA,C,2335386392,JASSM,3,115,76,2,2,1,225,9,2,0,1,26,0,0,0,0,-155582.63903983062,-4777412.739229049,4213320.690886021,-2.71083,-1.01118,0.751842,35.375,-56.25,-62.125,0.0,0.0,0.0,0.0,0.0,0.0,2,0,41.58570983930027,-91.8652521152671,10002.6227022016,155.9395681284602,-0.0006996838318211,0.0048433213828144,,9351.585978208032,10940.833293995036,150,3,2025-09-12,2025-09-26 17:25:53.119,AA,C,844577538,HAWK11,1,1,73,2,1,1,225,2,1,0,0,12,1,225,2,1,-143856.76013358062,-4790302.038057174,4199601.519011021,2.48217,2.87861,-0.292511,-101.25,21.125,19.75,0.09375,-7.78125,6.57812,0.00195312,0.0,0.0429688,4,0,41.418605307491504,-91.72012300761148,10930.33027216046,-68.74066671351841,1.4324336959295356,9.093322069309398,190.015,9351.585978208032,10940.833293995036,150,True,11.956015722950205,False,128.76089756034753,170.91703521911137,False,42.18177205183628,False,False
3,1970-07-23 10:29:39.541379097,2025-09-12,2025-09-26 17:25:54.137,AA,C,2336519788,JASSM,3,115,76,2,2,1,225,9,2,0,1,26,0,0,0,0,-155549.05407889312,-4777466.364229049,4213261.526823521,-2.71083,-1.01118,0.751842,35.375,-56.25,-62.125,0.0,0.0,0.0,0.0,0.0,0.0,2,0,41.58499797494757,-91.864828838224,10002.628308662846,155.93984907227014,7.940769236397322e-05,0.0048421865307703,,9351.585978208032,10940.833293995036,150,3,2025-09-12,2025-09-26 17:25:54.025,AA,C,845651236,HAWK11,1,1,73,2,1,1,225,2,1,0,0,12,1,225,2,1,-143947.92810233062,-4790282.994111861,4199619.981901646,2.43587,2.86835,-0.310248,-100.5,21.5,21.0,-0.109375,-7.89062,6.78125,-0.140625,0.00195312,0.00585938,4,0,41.418826934224434,-91.72121930368908,10930.305864385808,-67.61592597688212,1.7197176027648111,6.296698373005169,190.296,9351.585978208032,10940.833293995036,150,True,11.871965418318666,False,129.49689246755815,171.04545037539225,False,41.580091049637616,False,False
3,1970-07-23 10:29:39.551280005,2025-09-12,2025-09-26 17:25:55.128,AA,C,2337653174,JASSM,3,115,76,2,2,1,225,9,2,0,1,26,0,0,0,0,-155515.46814139312,-4777519.987275924,4213202.358854771,-2.71083,-1.01118,0.751842,35.375,-56.25,-62.125,0.0,0.0,0.0,0.0,0.0,0.0,2,0,41.58428609450413,-91.86440555954178,10002.624405143928,155.94013001321903,0.0008585158377799,0.0048410532456503,,9351.585978208032,10940.833293995036,150,3,2025-09-12,2025-09-26 17:25:55.229,AA,C,847162368,HAWK11,1,1,73,2,1,1,225,2,1,0,0,12,1,225,2,1,-144074.04333670562,-4790255.714814986,4199647.497526646,2.33779,2.85752,-0.316575,-99.75,21.75,21.75,-0.15625,-7.5625,6.46875,-0.0429688,0.00390625,-0.0117188,4,0,41.41915239601141,-91.72273618955798,10932.26729633689,-66.94766434933075,1.5404198874022963,0.5049883924991279,190.296,9351.585978208032,10940.833293995036,150,True,11.772529864971473,False,129.99752541433247,171.23643619488465,False,41.27484929422524,False,False
3,1970-07-23 10:29:39.560296809,2025-09-12,2025-09-26 17:25:56.029,AA,C,2338726922,JASSM,3,115,76,2,2,1,225,9,2,0,1,26,0,0,0,0,-155483.65075858062,-4777570.788057174,4213146.308073521,-2.71083,-1.01118,0.751938,35.375,-56.25,-62.125,0.0,0.0,0.0,0.0,0.0,0.0,2,0,41.58361170052263,-91.86400457772956,10002.631057014798,155.94268876235324,-0.0033934137634151,0.0048399448896422,,9351.585978208032,10940.833293995036,150,3,2025-09-12,2025-09-26 17:25:56.025,AA,C,848037234,HAWK11,1,1,73,2,1,1,225,2,1,0,0,12,1,225,2,1,-144146.76599295562,-4790239.379854049,4199664.142057896,2.31612,2.86356,-0.314178,-99.25,22.0,21.875,0.203125,-7.5,6.60938,-0.0253906,0.0117188,-0.00585938,4,0,41.41934890907989,-91.72361110563664,10933.60396911775,-67.27418203229284,1.68583980859214,-0.6382249340639401,190.064,9351.585978208032,10940.833293995036,150,True,11.69767923344729,False,130.21500058908808,171.33378536178418,False,41.15439592206949,False,False
3,1970-07-23 10:29:39.569341785,2025-09-12,2025-09-26 17:25:56.934,AA,C,2339800664,JASSM,3,115,76,2,2,1,225,9,2,0,1,26,0,0,0,0,-155451.83337576812,-4777621.584932174,4213090.253386021,-2.71083,-1.01109,0.751938,35.375,-56.25,-62.125,0.0,0.0,0.0,0.0,0.0,0.0,2,0,41.58293730208841,-91.86360360578466,10002.623090307685,155.9393104101017,-0.0043298959439258,0.00108814083638,,9351.585978208032,10940.833293995036,150,3,2025-09-12,2025-09-26 17:25:57.254,AA,C,849071166,HAWK11,1,1,73,2,1,1,225,2,1,0,0,12,1,225,2,1,-144232.57653983062,-4790220.257783736,4199683.657682896,2.30855,2.85781,-0.314945,-98.875,21.875,22.0,0.03125,-7.34375,6.3125,0.00195312,-0.00390625,0.00585938,4,0,41.41957903168517,-91.72464343199104,10935.290490032774,-67.02752372048668,1.4890650473813596,-1.1672113631566912,190.369,9351.585978208032,10940.833293995036,150,True,11.617367502764967,False,130.28258684527256,171.45638800248216,False,41.212265489163364,False,False
3,1970-07-23 10:29:39.580536384,2025-09-12,2025-09-26 17:25:58.053,AA,C,2341053364,JASSM,3,115,76,2,2,1,225,9,2,0,1,26,0,0,0,0,-155414.71130545562,-4777680.852510299,4213024.854948521,-2.71083,-1.01109,0.751938,35.375,-56.25,-62.125,0.0,0.0,0.0,0.0,0.0,0.0,2,0,41.58215046642402,-91.86313579250388,10002.626379474515,155.93962089709214,-0.0034687595488028,0.0010868680558295,,9351.585978208032,10940.833293995036,150,3,2025-09-12,2025-09-26 17:25:58.119,AA,C,850622064,HAWK11,1,1,73,2,1,1,225,2,1,0,0,12,1,225,2,1,-144361.63318045562,-4790191.498994674,4199712.624479771,2.32964,2.85378,-0.319452,-98.625,22.0,22.0,0.015625,-7.01562,6.5625,0.0214844,0.0078125,-0.00585938,4,0,41.41992251807891,-91.72619603500657,10937.001655106676,-66.69025680763704,1.508801435700296,-0.0216879275187596,190.211,9351.585978208032,10940.833293995036,150,True,11.511581544290344,False,130.36771126535604,171.65530073813878,False,41.3264731549908,False,False
3,1970-07-23 10:29:39.590237259,2025-09-12,2025-09-26 17:25:59.023,AA,C,2342306062,JASSM,3,115,76,2,2,1,225,9,2,0,1,26,0,0,0,0,-155377.59021170562,-4777740.116182174,4212959.456511021,-2.71083,-1.01109,0.751938,35.375,-56.25,-62.125,0.0,0.0,0.0,0.0,0.0,0.0,2,0,41.581363651877886,-91.86266800380162,10002.624886535048,155.93993136294552,-0.0026076481874006,0.0010855956571886,,9351.585978208032,10940.833293995036,150,3,2025-09-12,2025-09-26 17:25:59.229,AA,C,851854830,HAWK11,1,1,73,2,1,1,225,2,1,0,0,12,1,225,2,1,-144462.27771170562,-4790168.589814986,4199735.440886021,2.32686,2.85033,-0.321465,-98.5,22.5,21.875,-0.03125,-6.70312,6.75,-0.0136719,0.0,0.00976562,4,0,41.420194767136245,-91.72740701376246,10937.65016257248,-66.4780883094928,1.4531160851258609,-0.2376709801556378,189.746,9351.585978208032,10940.833293995036,150,True,11.41770487345884,False,130.5132582753766,171.80411787566553,False,41.32607133102929,False,False
3,1970-07-23 10:29:39.601257053,2025-09-12,2025-09-26 17:26:00.125,AA,C,2343558760,JASSM,3,115,76,2,2,1,225,9,2,0,1,26,0,0,0,0,-155340.46911795562,-4777799.377900924,4212894.058073521,-2.71083,-1.01109,0.751938,35.375,-56.25,-62.125,0.0,0.0,0.0,0.0,0.0,0.0,2,0,41.58057684697987,-91.86220022721656,10002.623323917494,155.94024181593255,-0.0017465475860955,0.0010843274745658,,9351.585978208032,10940.833293995036,150,3,2025-09-12,2025-09-26 17:26:00.119,AA,C,853008062,HAWK11,1,1,73,2,1,1,225,2,1,0,0,12,1,225,2,1,-144557.52575858062,-4790146.927705611,4199756.698698521,2.31133,2.84419,-0.328272,-98.75,22.625,22.125,0.0,-6.875,7.15625,-0.0332031,0.00390625,-0.00390625,4,0,41.42045003336448,-91.72855306324804,10937.58760783006,-65.96647851564613,1.481746168464383,-1.2265430617222577,189.196,9351.585978208032,10940.833293995036,150,True,11.32631410785753,False,130.61387887182113,171.94563871296924,False,41.368933010078734,False,False
3,1970-07-23 10:29:39.611298761,2025-09-12,2025-09-26 17:26:01.129,AA,C,2344751806,JASSM,3,115,76,2,2,1,225,9,2,0,1,26,0,0,0,0,-155305.11657889312,-4777855.819307174,4212831.772917271,-2.71083,-1.01109,0.751938,35.375,-56.25,-62.125,0.0,0.0,0.0,0.0,0.0,0.0,2,0,41.57982749068624,-91.86175474619694,10002.62837652901,155.94053746736077,-0.000926439695667,0.0010831061842005,,9351.585978208032,10940.833293995036,150,3,2025-09-12,2025-09-26 17:26:00.933,AA,C,853962462,HAWK11,1,1,73,2,1,1,225,2,1,0,0,12,1,225,2,1,-144636.93396170562,-4790128.870088424,4199774.323698521,2.22897,2.84266,-0.324725,-99.375,22.625,22.0,0.09375,-6.60938,7.03125,-0.103516,0.00195312,-0.00585938,4,0,41.42066216881168,-91.7295085296999,10937.332566543437,-66.0566631999958,1.2819268764872105,-5.97541686438218,188.732,9351.585978208032,10940.833293995036,150,True,11.2441395381614,False,130.46011343555304,172.06112334357502,False,41.63843040441732,False,False
3,1970-07-23 10:29:39.621337958,2025-09-12,2025-09-26 17:26:02.133,AA,C,2345944854,JASSM,3,115,76,2,2,1,225,9,2,0,1,26,0,0,0,0,-155269.76306326812,-4777912.256807174,4212769.487761021,-2.71083,-1.01109,0.751938,35.375,-56.25,-62.125,0.0,0.0,0.0,0.0,0.0,0.0,2,0,41.57907815607639,-91.86130926529934,10002.628051769972,155.94083311433212,-0.0001063500597798,0.0010819014131128,,9351.585978208032,10940.833293995036,150,3,2025-09-12,2025-09-26 17:26:02.119,AA,C,855274760,HAWK11,1,1,73,2,1,1,225,2,1,0,0,12,1,225,2,1,-144746.76403983062,-4790104.107393111,4199798.116667271,2.18985,2.84534,-0.316671,-100.375,22.375,21.25,0.078125,-6.65625,6.98438,0.00976562,0.0117188,-0.0195312,4,0,41.42095035167555,-91.73082997587146,10936.241045619236,-66.49218904094846,1.0699403121603732,-8.176936173957118,188.096,9351.585978208032,10940.833293995036,150,True,11.14949543023815,False,129.91599483954698,172.2377168669292,False,42.357470429138324,False,False
3,1970-07-23 10:29:39.631357438,2025-09-12,2025-09-26 17:26:03.135,AA,C,2347197552,JASSM,3,115,76,2,2,1,225,9,2,0,1,26,0,0,0,0,-155232.64196951812,-4777971.516572799,4212704.085417271,-2.71083,-1.01109,0.751938,35.375,-56.25,-62.125,0.0,0.0,0.0,0.0,0.0,0.0,2,0,41.57829133069986,-91.86084152245893,10002.62690636539,155.94114353091135,0.0007547640185178,0.0010806266922078,,9351.585978208032,10940.833293995036,150,3,2025-09-12,2025-09-26 17:26:03.025,AA,C,856467758,HAWK11,1,1,73,2,1,1,225,2,1,0,0,12,1,225,2,1,-144847.79138358062,-4790081.901338424,4199819.036589146,2.21401,2.85656,-0.306509,-101.5,21.875,20.75,0.046875,-6.89062,7.29688,0.0488281,0.00390625,-0.00390625,4,0,41.421205500699,-91.73204531364811,10934.552533971591,-67.33665695567424,1.113007354158316,-6.6115557904143545,187.107,9351.585978208032,10940.833293995036,150,True,11.056699376600273,False,129.37281359948108,172.39997000122068,False,43.06475899263095,False,False
3,1970-07-23 10:29:39.641396932,2025-09-12,2025-09-26 17:26:04.139,AA,C,2348390598,JASSM,3,115,76,2,2,1,225,9,2,0,1,26,0,0,0,0,-155197.28845389312,-4778027.954072799,4212641.796354771,-2.71083,-1.01109,0.752034,35.375,-56.25,-62.125,0.0,0.0,0.0,0.0,0.0,0.0,2,0,41.57754196605432,-91.8603960626739,10002.62685474543,155.9437335192032,-0.0034180849269632,0.0010793742627341,,9351.585978208032,10940.833293995036,150,3,2025-09-12,2025-09-26 17:26:04.525,AA,C,858257256,HAWK11,1,1,73,2,1,1,225,2,1,0,0,12,1,225,2,1,-145000.34021170562,-4790049.668916549,4199849.565886021,2.25035,2.86385,-0.313987,-102.5,21.0,20.5,0.140625,-6.92188,7.35938,0.0214844,-0.00390625,0.0,4,0,41.42157587138746,-91.73387999286254,10932.9068015614,-67.29970071563525,1.6976584733454507,-4.401080473856143,185.946,9351.585978208032,10940.833293995036,150,True,10.946081351977385,False,128.82636668618633,172.67179954617185,False,43.89008069455967,False,False
3,1970-07-23 10:29:39.652254686,2025-09-12,2025-09-26 17:26:05.225,AA,C,2349702950,JASSM,3,115,76,2,2,1,225,9,2,0,1,26,0,0,0,0,-155158.39880545562,-4778090.034150924,4212573.276823521,-2.71083,-1.01109,0.752034,35.375,-56.25,-62.125,0.0,0.0,0.0,0.0,0.0,0.0,2,0,41.576717659465416,-91.8599060599024,10002.62540513324,155.94405869866722,-0.0025159537014035,0.001078077998552,,9351.585978208032,10940.833293995036,150,3,2025-09-12,2025-09-26 17:26:05.119,AA,C,858973056,HAWK11,1,1,73,2,1,1,225,2,1,0,0,12,1,225,2,1,-145062.09216483062,-4790036.997041549,4199861.702604771,2.21488,2.86442,-0.310439,-103.0,20.875,20.375,-0.140625,-6.79688,7.1875,-0.123047,0.0,-0.0078125,4,0,41.42172205760403,-91.73462254324944,10932.687566142567,-67.46962024156151,1.581567931214638,-6.428183584726191,185.469,9351.585978208032,10940.833293995036,150,True,10.867651655399227,False,128.6621065186269,172.7610515981823,False,44.1448397656287,False,False
3,1970-07-23 10:29:39.662275470,2025-09-12,2025-09-26 17:26:06.227,AA,C,2350895998,JASSM,3,115,76,2,2,1,225,9,2,0,1,26,0,0,0,0,-155123.04528983062,-4778146.467744674,4212510.987761021,-2.71083,-1.01109,0.752034,35.375,-56.25,-62.125,0.0,0.0,0.0,0.0,0.0,0.0,2,0,41.5759683143069,-91.8594606232626,10002.624764039238,155.94435429821323,-0.0016958613153108,0.0010769037476534,,9351.585978208032,10940.833293995036,150,3,2025-09-12,2025-09-26 17:26:06.025,AA,C,860046754,HAWK11,1,1,73,2,1,1,225,2,1,0,0,12,1,225,2,1,-145154.72302420562,-4790018.270479049,4199879.460417271,2.15639,2.86835,-0.31322,-103.75,20.25,19.75,-0.046875,-7.04688,7.35938,0.00390625,0.00585938,-0.00195312,4,0,41.421936635424,-91.73573630826168,10932.083667642308,-67.50142978748903,1.8476776305531684,-9.710730633083084,184.662,9351.585978208032,10940.833293995036,150,True,10.782023838628342,False,128.10119616413078,172.9193057340305,False,44.86608769947652,False,False
3,1970-07-23 10:29:39.673316287,2025-09-12,2025-09-26 17:26:07.331,AA,C,2352208348,JASSM,3,115,76,2,2,1,225,9,2,0,1,26,0,0,0,0,-155084.15661795562,-4778208.545869674,4212442.468229771,-2.71083,-1.01109,0.752034,35.375,-56.25,-62.125,0.0,0.0,0.0,0.0,0.0,0.0,2,0,41.57514401497458,-91.85897065673568,10002.628492910724,155.94467944351857,-0.0007937441138484,0.0010756036116794,,9351.585978208032,10940.833293995036,150,3,2025-09-12,2025-09-26 17:26:07.374,AA,C,860285354,HAWK11,1,1,73,2,1,1,225,2,1,0,0,12,1,225,2,1,-145175.52575858062,-4790014.198213424,4199883.351042271,2.15639,2.87046,-0.311398,-104.0,20.125,19.625,-0.15625,-6.9375,7.25,0.00976562,-0.00390625,-0.0234375,4,0,41.42198337288306,-91.73598638669468,10932.06510602225,-67.6564948932318,1.8601335249110245,-9.67858047679382,183.245,9351.585978208032,10940.833293995036,150,True,10.720154923825415,False,127.9757702558556,172.92690763892392,False,44.99981767651721,False,False
3,1970-07-23 10:29:39.684338437,2025-09-12,2025-09-26 17:26:08.433,AA,C,2353461046,JASSM,3,115,76,2,2,1,225,9,2,0,1,26,0,0,0,0,-155047.03552420562,-4778267.799775924,4212377.060026646,-2.71083,-1.01109,0.752034,35.375,-56.25,-62.125,0.0,0.0,0.0,0.0,0.0,0.0,2,0,41.574357175073416,-91.8585029729398,10002.623822621194,155.94498979690545,6.737399439691517e-05,0.0010743599053631,,9351.585978208032,10940.833293995036,150,3,2025-09-12,2025-09-26 17:26:08.323,AA,C,862750886,HAWK11,1,1,73,2,1,1,225,2,1,0,0,12,1,225,2,1,-145391.59802420562,-4789973.877900924,4199921.571745396,2.27691,2.89788,-0.303345,-105.25,18.75,18.25,-0.203125,-7.34375,7.4375,0.107422,0.00390625,0.00585938,4,0,41.422442243787565,-91.73858318644442,10931.994361513622,-69.01818291955503,2.642144554242137,-2.351444288629356,182.145,9351.585978208032,10940.833293995036,150,True,10.585585544527444,False,126.81385105541572,173.35470864931304,False,46.594537023488684,False,False
3,1970-07-23 10:29:39.694356693,2025-09-12,2025-09-26 17:26:09.435,AA,C,2354654092,JASSM,3,115,76,2,2,1,225,9,2,0,1,26,0,0,0,0,-155011.68103201812,-4778324.231416549,4212314.769011021,-2.71074,-1.01099,0.752034,35.375,-56.25,-62.125,0.0,0.0,0.0,0.0,0.0,0.0,2,0,41.57360782286928,-91.85805755779576,10002.627548828268,155.94163679249974,-0.0007892662441519,0.0028086299288787,,9351.585978208032,10940.833293995036,150,3,2025-09-12,2025-09-26 17:26:09.525,AA,C,864063184,HAWK11,1,1,73,2,1,1,225,2,1,0,0,12,1,225,2,1,-145508.32263358062,-4789952.729463424,4199941.784636021,2.36454,2.88705,-0.312165,-105.5,18.625,18.875,-0.109375,-7.07812,7.125,0.0566406,0.00195312,0.00390625,4,0,41.42268340807605,-91.73998579157168,10932.580597263748,-68.24543809068412,2.5536756505397253,2.5164975858304497,180.996,9351.585978208032,10940.833293995036,150,True,10.49234420796046,False,126.97871057943004,173.57803718206938,False,46.66094217407338,False,False
3,1970-07-23 10:29:39.715254441,2025-09-12,2025-09-26 17:26:11.525,AA,C,2357219142,JASSM,3,115,76,2,2,1,225,9,2,0,1,26,0,0,0,0,-154935.67126639312,-4778445.555635299,4212180.835417271,-2.71074,-1.01099,0.75213,35.375,-56.25,-62.125,0.0,0.0,0.0,0.0,0.0,0.0,2,0,41.571996678470185,-91.85709998023717,10002.623686644429,155.94456547957765,-0.0040157468451919,0.0028059136760194,,9351.585978208032,10940.833293995036,150,3,2025-09-12,2025-09-26 17:26:11.526,AA,C,866290114,HAWK11,1,1,73,2,1,1,225,2,1,0,0,12,1,225,2,1,-145705.87146170562,-4789916.635713424,4199976.409636021,2.31928,2.87736,-0.323286,-105.375,19.125,19.25,-0.09375,-7.42188,6.65625,-0.0136719,0.00390625,0.00195312,4,0,41.42309612478889,-91.74235974277732,10933.751564186054,-67.42072593281584,2.605024149078491,-0.2121227088800967,179.139,9351.585978208032,10940.833293995036,150,True,10.312294455625977,False,127.30756489886166,173.95067934652627,False,46.70851865652147,False,False
3,1970-07-23 10:29:39.726275650,2025-09-12,2025-09-26 17:26:12.627,AA,C,2358471842,JASSM,3,115,76,2,2,1,225,9,2,0,1,26,0,0,0,0,-154898.54919608062,-4778504.805635299,4212115.425261021,-2.71074,-1.01099,0.75213,35.375,-56.25,-62.125,0.0,0.0,0.0,0.0,0.0,0.0,2,0,41.5712098408828,-91.85663233166376,10002.623988169287,155.9448757904437,-0.0031546346444369,0.0028046607043929,,9351.585978208032,10940.833293995036,150,3,2025-09-12,2025-09-26 17:26:12.729,AA,C,868039846,HAWK11,1,1,73,2,1,1,225,2,1,0,0,12,1,225,2,1,-145860.20739920562,-4789888.076143111,4200004.376432896,2.24268,2.87804,-0.31878,-104.875,18.875,19.25,-0.125,-7.25,6.5,-0.0390625,0.00976562,-0.00585938,4,0,41.42342685707965,-91.74421455532304,10935.781155333323,-67.6355986880148,2.4566777013890464,-4.598239783108992,178.345,9351.585978208032,10940.833293995036,150,True,10.20232455612831,False,127.28826374087271,174.26665057126812,False,47.05022045001583,False,False
3,1970-07-23 10:29:39.734536284,2025-09-12,2025-09-26 17:26:13.453,AA,C,2355906792,JASSM,3,115,76,2,2,1,225,9,2,0,1,26,0,0,0,0,-154974.55993826812,-4778383.483369674,4212249.358854771,-2.71074,-1.01099,0.752034,35.375,-56.25,-62.125,0.0,0.0,0.0,0.0,0.0,0.0,2,0,41.57282097755144,-91.8575898969205,10002.62305246812,155.9419471212966,7.185314484191365e-05,0.0028073302256808,,9351.585978208032,10940.833293995036,150,3,2025-09-12,2025-09-26 17:26:13.431,AA,C,868715880,HAWK11,1,1,73,2,1,1,225,2,1,0,0,12,1,225,2,1,-145919.82068045562,-4789877.001924361,4200015.284636021,2.24661,2.87746,-0.318301,-104.75,18.625,19.125,-0.03125,-7.28125,6.57812,0.0292969,0.0117188,-0.0078125,4,0,41.42355556610001,-91.74493100955164,10936.692863470924,-67.63474233303755,2.415609030572219,-4.383198214647561,177.599,9351.585978208032,10940.833293995036,150,True,10.284977755012434,False,127.17141772344327,174.45949206085734,False,47.36195873842007,False,False
3,1970-07-23 10:29:39.737320660,2025-09-12,2025-09-26 17:26:13.732,AA,C,2359784192,JASSM,3,115,76,2,2,1,225,9,2,0,1,26,0,0,0,0,-154859.66052420562,-4778566.875947799,4212046.897917271,-2.71074,-1.01099,0.75213,35.375,-56.25,-62.125,0.0,0.0,0.0,0.0,0.0,0.0,2,0,41.5703855228475,-91.8561424400846,10002.621454165144,155.94520085560987,-0.0022525122012492,0.0028033346108466,,9351.585978208032,10940.833293995036,150,3,2025-09-12,2025-09-26 17:26:13.729,AA,C,869153312,HAWK11,1,1,73,2,1,1,225,2,1,0,0,12,1,225,2,1,-145957.59802420562,-4789870.250947799,4200021.974089146,2.25744,2.87871,-0.316959,-104.75,18.5,18.875,-0.09375,-7.4375,6.45312,0.0351562,-0.00195312,-0.0136719,4,0,41.42363403375322,-91.74538493575436,10937.443370198078,-67.73763156105939,2.412942641721575,-3.744435313420795,177.379,9351.585978208032,10940.833293995036,150,True,10.111762733674004,False,127.03277169454903,174.45758607696771,False,47.50027711831793,False,False
3,1970-07-23 10:29:39.747335356,2025-09-12,2025-09-26 17:26:14.733,AA,C,2361036892,JASSM,3,115,76,2,2,1,225,9,2,0,1,26,0,0,0,0,-154822.53845389312,-4778626.123994674,4211981.485807896,-2.71074,-1.01099,0.75213,35.375,-56.25,-62.125,0.0,0.0,0.0,0.0,0.0,0.0,2,0,41.56959867965173,-91.85567481550773,10002.622379251432,155.94551114067667,-0.0013913986263456,0.002802080476428,,9351.585978208032,10940.833293995036,150,3,2025-09-12,2025-09-26 17:26:14.729,AA,C,870425844,HAWK11,1,1,73,2,1,1,225,2,1,0,0,12,1,225,2,1,-146069.76403983062,-4789849.766572799,4200041.888151646,2.28371,2.88264,-0.310344,-104.25,18.5,18.375,-0.078125,-7.53125,6.57812,0.00976562,0.00195312,0.00195312,4,0,41.42386997377409,-91.74673287025364,10938.708087005378,-68.16207749356907,2.3117044563982816,-2.187117283043215,176.499,9351.585978208032,10940.833293995036,150,True,10.018367263048887,False,126.9047804725452,174.68772276997916,False,47.85876021062529,False,False
3,1970-07-23 10:29:39.758353403,2025-09-12,2025-09-26 17:26:15.835,AA,C,2362349244,JASSM,3,115,76,2,2,1,225,9,2,0,1,26,0,0,0,0,-154783.64880545562,-4778688.192354049,4211912.958464146,-2.71074,-1.01099,0.75213,35.375,-56.25,-62.125,0.0,0.0,0.0,0.0,0.0,0.0,2,0,41.5687743691511,-91.85518493733342,10002.625103348662,155.9458361866011,-0.0004892834108748,0.0028007666463907,,9351.585978208032,10940.833293995036,150,3,2025-09-12,2025-09-26 17:26:15.823,AA,C,871698376,HAWK11,1,1,73,2,1,1,225,2,1,0,0,12,1,225,2,1,-146180.27575858062,-4789829.918916549,4200061.075651646,2.31363,2.8766,-0.316,-103.75,18.5,18.125,-0.09375,-7.21875,6.17188,0.0371094,-0.00585938,0.0117188,4,0,41.42409750628127,-91.7480608118898,10939.844043647116,-67.70098980075673,2.293593779206706,-0.5611483773867594,175.778,9351.585978208032,10940.833293995036,150,True,9.923566578477338,False,126.87240383617781,174.91746794195635,False,48.12347275121042,False,False
3,1970-07-23 10:29:39.771735981,2025-09-12,2025-09-26 17:26:17.173,AA,C,2363661606,JASSM,3,115,76,2,2,1,225,9,2,0,1,26,0,0,0,0,-154744.75915701812,-4778750.260713424,4211844.429167271,-2.71074,-1.01099,0.75213,35.375,-56.25,-62.125,0.0,0.0,0.0,0.0,0.0,0.0,2,0,41.56795004329475,-91.85469507161324,10002.628757109347,155.94616121896843,0.0004128439424763,0.0027994474368169,,9351.585978208032,10940.833293995036,150,3,2025-09-12,2025-09-26 17:26:17.053,AA,C,872652774,HAWK11,1,1,73,2,1,1,225,2,1,0,0,12,1,225,2,1,-146263.28943045562,-4789814.743135299,4200075.616667271,2.34968,2.87506,-0.315041,-103.375,18.75,18.125,-0.109375,-7.1875,6.15625,0.0292969,0.00390625,0.0,4,0,41.42427086293876,-91.74905843216294,10940.323403149576,-67.68459113817339,2.1958220946511315,1.4778052201300298,174.886,9351.585978208032,10940.833293995036,150,True,9.838919817034904,False,127.00744532428871,175.0855424339652,False,48.15819980997529,False,False
3,1970-07-23 10:29:39.780396523,2025-09-12,2025-09-26 17:26:18.039,AA,C,2365033598,JASSM,3,115,76,2,2,1,225,9,2,0,1,26,0,0,0,0,-154704.10290701812,-4778815.145479049,4211772.782682896,-2.71074,-1.01099,0.75213,35.375,-56.25,-62.125,0.0,0.0,0.0,0.0,0.0,0.0,2,0,41.56708825970578,-91.85418296776965,10002.62139447861,155.9465010009642,0.0013559598243227,0.0027980635671493,,9351.585978208032,10940.833293995036,150,3,2025-09-12,2025-09-26 17:26:18.229,AA,C,874521806,HAWK11,1,1,73,2,1,1,225,2,1,0,0,12,1,225,2,1,-146424.71325858062,-4789784.716768111,4200103.749479771,2.35073,2.86739,-0.322424,-102.375,19.0,18.375,-0.203125,-7.53125,6.375,-0.0078125,-0.00390625,0.0175781,4,0,41.42461004722929,-91.75099855348203,10939.686511773009,-67.09141999203912,2.1826884921463696,1.423469412883435,174.031,9351.585978208032,10940.833293995036,150,True,9.72295325863901,False,127.32504844313793,175.44315203219867,False,48.205379817272004,False,False
3,1970-07-23 10:29:39.792255135,2025-09-12,2025-09-26 17:26:19.225,AA,C,2366405600,JASSM,3,115,76,2,2,1,225,9,2,0,1,26,0,0,0,0,-154663.44568045562,-4778880.032197799,4211701.136198521,-2.71074,-1.01099,0.752226,35.375,-56.25,-62.125,0.0,0.0,0.0,0.0,0.0,0.0,2,0,41.56622646223885,-91.85367086508256,10002.624409131382,155.94913546959972,-0.0026937215507424,0.0027966756081326,,9351.585978208032,10940.833293995036,150,3,2025-09-12,2025-09-26 17:26:19.323,AA,C,875913638,HAWK11,1,1,73,2,1,1,225,2,1,0,0,12,1,225,2,1,-146544.75818045562,-4789761.850557174,4200125.356901646,2.29273,2.86164,-0.323286,-101.75,19.375,18.25,-0.046875,-7.39062,6.3125,-0.0585938,0.00976562,0.0,4,0,41.42487008868667,-91.7524415592586,10939.391707188071,-66.84181957349062,1.9902610243986083,-1.9951630952275168,173.517,9351.585978208032,10940.833293995036,150,True,9.622094473700079,False,127.49104171257679,175.70598311575552,False,48.30489221378457,False,False
3,1970-07-23 10:29:39.804275683,2025-09-12,2025-09-26 17:26:20.427,AA,C,2367777604,JASSM,3,115,76,2,2,1,225,9,2,0,1,26,0,0,0,0,-154622.78845389312,-4778944.916963424,4211629.489714146,-2.71074,-1.01089,0.752226,35.375,-56.25,-62.125,0.0,0.0,0.0,0.0,0.0,0.0,2,0,41.56536467401802,-91.85315877676236,10002.62829512078,155.94583195009463,-0.0034251956746968,-0.0009566325343545,,9351.585978208032,10940.833293995036,150,3,2025-09-12,2025-09-26 17:26:20.229,AA,C,876907804,HAWK11,1,1,73,2,1,1,225,2,1,0,0,12,1,225,2,1,-146629.58435233062,-4789745.828096236,4200140.511198521,2.27835,2.86193,-0.323862,-101.5,19.125,18.0,0.0,-7.42188,6.59375,0.0136719,-0.00195312,-0.00976562,4,0,41.425052254412144,-91.7534611738296,10939.273422623495,-66.82925000280741,2.0250280972525494,-2.8132901282712166,173.261,9351.585978208032,10940.833293995036,150,True,9.534487401032006,False,127.33889201541359,175.88749017171233,False,48.64424734509302,False,False
3,1970-07-23 10:29:39.815296889,2025-09-12,2025-09-26 17:26:21.529,AA,C,2369089956,JASSM,3,115,76,2,2,1,225,9,2,0,1,26,0,0,0,0,-154583.89880545562,-4779006.977510299,4211560.956511021,-2.71074,-1.01089,0.752226,35.375,-56.25,-62.125,0.0,0.0,0.0,0.0,0.0,0.0,2,0,41.56454035936285,-91.8526689655778,10002.625710651666,155.94615692453655,-0.0025230872976351,-0.0009579668434649,,9351.585978208032,10940.833293995036,150,3,2025-09-12,2025-09-26 17:26:21.431,AA,C,878418936,HAWK11,1,1,73,2,1,1,225,2,1,0,0,12,1,225,2,1,-146757.35583670562,-4789721.728486861,4200163.288542271,2.30375,2.86806,-0.317726,-101.125,18.875,17.75,-0.203125,-7.625,6.46875,0.046875,0.0117188,0.00976562,4,0,41.42532609102202,-91.75499699117914,10939.081038925053,-67.31522789552052,2.0278449624541053,-1.2637094373696558,173.041,9351.585978208032,10940.833293995036,150,True,9.433778049665618,False,127.20271411214632,176.1791574588463,False,49.08148447299136,False,False
3,1970-07-23 10:29:39.826354643,2025-09-12,2025-09-26 17:26:22.635,AA,C,2370402306,JASSM,3,115,76,2,2,1,225,9,2,0,1,26,0,0,0,0,-154545.00915701812,-4779069.038057174,4211492.421354771,-2.71074,-1.01089,0.752226,35.375,-56.25,-62.125,0.0,0.0,0.0,0.0,0.0,0.0,2,0,41.56371602935129,-91.85217916684368,10002.624056111836,155.94648188542473,-0.0016209667814064,-0.0009593065324012,,9351.585978208032,10940.833293995036,150,3,2025-09-12,2025-09-26 17:26:22.729,AA,C,879969834,HAWK11,1,1,73,2,1,1,225,2,1,0,0,12,1,225,2,1,-146888.98864920562,-4789697.540010299,4200186.810026646,2.37403,2.86126,-0.33412,-100.375,18.5,18.125,-0.078125,-7.375,6.54688,0.0820312,0.0078125,-0.00195312,4,0,41.42560475255537,-91.75657900098034,10940.58560947255,-66.37856744836816,2.4044094360200448,2.674372295552829,173.517,9351.585978208032,10940.833293995036,150,True,9.332119506158554,False,127.3231288948612,176.48524328737972,False,49.284880355419325,False,False
3,1970-07-23 10:29:39.836397147,2025-09-12,2025-09-26 17:26:23.639,AA,C,2371655006,JASSM,3,115,76,2,2,1,225,9,2,0,1,26,0,0,0,0,-154507.88708670562,-4779128.278291549,4211426.999479771,-2.71074,-1.01089,0.752226,35.375,-56.25,-62.125,0.0,0.0,0.0,0.0,0.0,0.0,2,0,41.56292914999459,-91.8517116414669,10002.624573179211,155.9467920639377,-0.0007598356898729,-0.0009605909518677,,9351.585978208032,10940.833293995036,150,3,2025-09-12,2025-09-26 17:26:23.526,AA,C,880924232,HAWK11,1,1,73,2,1,1,225,2,1,0,0,12,1,225,2,1,-146969.06872733062,-4789682.354463424,4200201.622526646,2.46233,2.85934,-0.331244,-99.75,19.125,18.5,0.046875,-7.25,6.5625,0.126953,0.0,0.0078125,4,0,41.42578046103424,-91.7575416107014,10941.441125796371,-66.4277345536377,2.21648888747824,7.695865286297135,173.774,9351.585978208032,10940.833293995036,150,True,9.25138129766795,False,127.78299088904343,176.66577620627206,False,49.0117732219794,False,False
3,1970-07-23 10:29:39.847253586,2025-09-12,2025-09-26 17:26:24.725,AA,C,2372969428,JASSM,3,115,76,2,2,1,225,9,2,0,1,26,0,0,0,0,-154468.93591483062,-4779190.434541549,4211358.354948521,-2.71074,-1.01089,0.752226,35.375,-56.25,-62.125,0.0,0.0,0.0,0.0,0.0,0.0,2,0,41.56210351994163,-91.85122109321186,10002.624913915566,155.94711751173458,0.000143704302556,-0.000961930043277,,9351.585978208032,10940.833293995036,150,3,2025-09-12,2025-09-26 17:26:24.729,AA,C,882316064,HAWK11,1,1,73,2,1,1,225,2,1,0,0,12,1,225,2,1,-147084.56091483062,-4789658.853486861,4200223.661589146,2.65973,2.82972,-0.349172,-98.875,21.25,19.75,-0.328125,-6.64062,6.76562,0.189453,0.0136719,0.0527344,4,0,41.4260479429128,-91.7589304911408,10940.214591367265,-64.57995399380974,1.7682509961366877,18.50430838059502,175.436,9351.585978208032,10940.833293995036,150,False,9.154621276328882,False,129.16570164007348,176.9353452056902,False,47.903568938412896,False,False
3,1970-07-23 10:29:39.859252423,2025-09-12,2025-09-26 17:26:25.925,AA,C,2374339360,JASSM,3,115,76,2,2,1,225,9,2,0,1,26,0,0,0,0,-154428.34021170562,-4779255.213838424,4211286.810026646,-2.71074,-1.01089,0.752322,35.375,-56.25,-62.125,0.0,0.0,0.0,0.0,0.0,0.0,2,0,41.56124302159898,-91.85070984760706,10002.62305099536,155.94975027974218,-0.0039041591562071,-0.000963385514119,,9351.585978208032,10940.833293995036,150,3,2025-09-12,2025-09-26 17:26:25.917,AA,C,883747664,HAWK11,1,1,73,2,1,1,225,2,1,0,0,12,1,225,2,1,-147203.10974295562,-4789631.222627486,4200248.851042271,2.82195,2.78619,-0.377647,-97.375,24.75,22.625,-0.03125,-7.125,7.375,0.0917969,0.0175781,0.0527344,4,0,41.42636068627329,-91.76035743047235,10935.910555175127,-61.78450646424719,1.239848884826558,26.985665798078877,177.391,9351.585978208032,10940.833293995036,150,False,9.052607402730155,False,131.7840433142693,177.20995448092032,False,45.5672747528224,False,False
3,1970-07-23 10:29:39.870292171,2025-09-12,2025-09-26 17:26:27.029,AA,C,2375651710,JASSM,3,115,76,2,2,1,225,9,2,0,1,26,0,0,0,0,-154389.45056326812,-4779317.270479049,4211218.270964146,-2.71064,-1.01089,0.752322,35.375,-56.25,-62.125,0.0,0.0,0.0,0.0,0.0,0.0,2,0,41.56041867977564,-91.85022010018108,10002.624035493183,155.9500751855311,-0.0030020357959912,0.0045267806714386,,9351.585978208032,10940.833293995036,150,3,2025-09-12,2025-09-26 17:26:27.025,AA,C,885099728,HAWK11,1,1,73,2,1,1,225,2,1,0,0,12,1,225,2,1,-147314.49646170562,-4789600.164033736,4200276.714323521,2.9115,2.7418,-0.400177,-95.625,29.125,26.375,-0.015625,-7.60938,7.98438,0.0546875,0.0234375,0.0390625,4,0,41.426713165900736,-91.76170004809488,10928.448970955713,-59.20622076147229,0.4966067973723655,31.190976759711724,179.139,9351.585978208032,10940.833293995036,150,False,8.952742685177748,False,135.08301617600713,177.4622764497539,False,42.5274468173294,False,False
3,1970-07-23 10:29:39.880314877,2025-09-12,2025-09-26 17:26:28.031,AA,C,2376904410,JASSM,3,115,76,2,2,1,225,9,2,0,1,26,0,0,0,0,-154352.32849295562,-4779376.504854049,4211152.847136021,-2.71064,-1.01089,0.752322,35.375,-56.25,-62.125,0.0,0.0,0.0,0.0,0.0,0.0,2,0,41.559631813814846,-91.8497526246024,10002.625708586134,155.95038531090484,-0.0021409247695745,0.0045255379897643,,9351.585978208032,10940.833293995036,150,3,2025-09-12,2025-09-26 17:26:27.933,AA,C,885735994,HAWK11,1,1,73,2,1,1,225,2,1,0,0,12,1,225,2,1,-147365.83630545562,-4789584.258760299,4200291.061979771,2.93125,2.73212,-0.404012,-95.0,31.0,28.5,-0.125,-7.84375,8.15625,0.0390625,0.0351562,0.0390625,4,0,41.42689524197042,-91.76231947094956,10924.370179119853,-58.68764715755373,0.298066048793269,32.109122084462214,180.593,9351.585978208032,10940.833293995036,150,False,8.879026219709322,False,136.65986096930956,177.56898498311543,False,41.06617935882165,False,False
3,1970-07-23 10:29:39.891316386,2025-09-12,2025-09-26 17:26:29.131,AA,C,2378216760,JASSM,3,115,76,2,2,1,225,9,2,0,1,26,0,0,0,0,-154313.43884451812,-4779438.557588424,4211084.306120396,-2.71064,-1.01089,0.752322,35.375,-56.25,-62.125,0.0,0.0,0.0,0.0,0.0,0.0,2,0,41.55880747784008,-91.84926290301556,10002.622984727235,155.9507101892068,-0.0012388108918317,0.0045242351515046,,9351.585978208032,10940.833293995036,150,3,2025-09-12,2025-09-26 17:26:29.229,AA,C,887445960,HAWK11,1,1,73,2,1,1,225,2,1,0,0,12,1,225,2,1,-147501.29528983062,-4789534.472627486,4200337.067839146,3.01485,2.67267,-0.44217,-91.5,37.0,35.0,0.0,-8.0,8.32812,0.0390625,0.0214844,0.0585938,4,0,41.427477167114816,-91.76395669991852,10912.079294562163,-54.93122896653927,-0.2506957567848855,35.501961080530414,182.194,9351.585978208032,10940.833293995036,150,False,8.761282282008953,False,141.86166485790832,177.86040262743992,False,36.17718126058502,False,False
3,1970-07-23 10:29:39.902352649,2025-09-12,2025-09-26 17:26:30.235,AA,C,2379469460,JASSM,3,115,76,2,2,1,225,9,2,0,1,26,0,0,0,0,-154276.31677420562,-4779497.790010299,4211018.880339146,-2.71064,-1.01089,0.752322,35.375,-56.25,-62.125,0.0,0.0,0.0,0.0,0.0,0.0,2,0,41.558020606269096,-91.84879545141337,10002.62528138161,155.9510202888001,-0.000377698485944,0.0045229913070488,,9351.585978208032,10940.833293995036,150,3,2025-09-12,2025-09-26 17:26:29.823,AA,C,888400358,HAWK11,1,1,73,2,1,1,225,2,1,0,0,12,1,225,2,1,-147574.96130545562,-4789502.638643111,4200366.880339146,3.04006,2.64027,-0.468535,-89.125,40.75,38.875,-0.171875,-8.67188,9.04688,0.0117188,0.0644531,0.0644531,4,0,41.42785429125477,-91.76484883195464,10904.104437075976,-52.68186941762037,-0.2570031485290117,36.12012753378824,182.891,9351.585978208032,10940.833293995036,150,False,8.671839648746834,False,145.0421358731719,178.0050610528924,False,33.15289858347125,False,False
3,1970-07-23 10:29:39.912396793,2025-09-12,2025-09-26 17:26:31.239,AA,C,2380781812,JASSM,3,115,76,2,2,1,225,9,2,0,1,26,0,0,0,0,-154237.42712576812,-4779559.842744674,4210950.337370396,-2.71064,-1.01089,0.752322,35.375,-56.25,-62.125,0.0,0.0,0.0,0.0,0.0,0.0,2,0,41.55719625283393,-91.84830575415234,10002.628433884183,155.95134514061996,0.0005244276560584,0.0045216830709043,,9351.585978208032,10940.833293995036,150,3,2025-09-12,2025-09-26 17:26:31.323,AA,C,890189856,HAWK11,1,1,73,2,1,1,225,2,1,0,0,12,1,225,2,1,-147705.09216483062,-4789435.998018111,4200431.938932896,3.12932,2.55868,-0.535743,-83.0,46.875,47.625,0.0,-9.5625,9.96875,0.0253906,0.0488281,0.0449219,4,0,41.428666032998144,-91.76642864364096,10891.34835585684,-47.06605348476243,-0.0204647638127015,38.9686302604131,184.589,9351.585978208032,10940.833293995036,150,False,8.543166208683823,False,151.66185559637933,178.2462898143364,False,26.82398446165392,True,False
3,1970-07-23 10:29:39.925760657,2025-09-12,2025-09-26 17:26:32.576,AA,C,2382094162,JASSM,3,115,76,2,2,1,225,9,2,0,1,26,0,0,0,0,-154198.53650076812,-4779621.891572799,4210881.792448521,-2.71064,-1.0108,0.752322,35.375,-56.25,-62.125,0.0,0.0,0.0,0.0,0.0,0.0,2,0,41.55637190753792,-91.8478160591512,10002.622854720956,155.9480271427648,-0.0002481354421767,0.0007678296109501,,9351.585978208032,10940.833293995036,150,3,2025-09-12,2025-09-26 17:26:32.729,AA,C,891820288,HAWK11,1,1,73,2,1,1,225,2,1,0,0,12,1,225,2,1,-147814.00036795562,-4789367.210908736,4200503.003386021,-3.06806,2.46041,-0.608607,-75.25,52.25,55.875,-0.28125,-9.98438,10.4062,0.0351562,0.0644531,0.0644531,4,0,41.42953495236589,-91.76775564091676,10884.755576098443,-40.76745604795634,0.3363478150939979,40.85004413745112,186.117,9351.585978208032,10940.833293995036,150,False,8.416432410727781,False,158.343044471084,178.41351945777404,False,20.37491573108893,True,False
3,1970-07-23 10:29:39.940552610,2025-09-12,2025-09-26 17:26:34.055,AA,C,2383406514,JASSM,3,115,76,2,2,1,225,9,2,0,1,26,0,0,0,0,-154159.64685233062,-4779683.942354049,4210813.247526646,-2.71064,-1.0108,0.752418,35.375,-56.25,-62.125,0.0,0.0,0.0,0.0,0.0,0.0,2,0,41.55554754819624,-91.8473263875341,10002.627326844711,155.950647315651,-0.0043385183678721,0.0007663890488781,,9351.585978208032,10940.833293995036,150,3,2025-09-12,2025-09-26 17:26:33.915,AA,C,893013286,HAWK11,1,1,73,2,1,1,225,2,1,0,0,12,1,225,2,1,-147885.95544608062,-4789311.788057174,4200562.128386021,-2.99884,2.37604,-0.664118,-68.375,56.25,61.875,-0.234375,-10.4375,10.8125,0.0195312,0.0761719,0.0625,4,0,41.43025054536043,-91.76863608243468,10882.30635951807,-35.7586555204617,0.691681519537059,41.98622720260749,186.948,9351.585978208032,10940.833293995036,150,False,8.30664826573746,False,163.61252968458047,178.49731863668308,False,15.250604711552175,True,False
3,1970-07-23 10:29:39.946333288,2025-09-12,2025-09-26 17:26:34.633,AA,C,2384718864,JASSM,3,115,76,2,2,1,225,9,2,0,1,26,0,0,0,0,-154120.75720389312,-4779745.989229049,4210744.700651646,-2.71064,-1.0108,0.752418,35.375,-56.25,-62.125,0.0,0.0,0.0,0.0,0.0,0.0,2,0,41.55472319680501,-91.8468367298692,10002.623144506506,155.95097212548015,-0.0034364004620125,0.0007650615185313,,9351.585978208032,10940.833293995036,150,3,2025-09-12,2025-09-26 17:26:34.525,AA,C,893768852,HAWK11,1,1,73,2,1,1,225,2,1,0,0,12,1,225,2,1,-147927.34997733062,-4789274.561494674,4200602.581511021,-2.944,2.3188,-0.69614,-63.375,58.625,65.75,-0.25,-10.5,10.8438,0.0253906,0.0664062,0.0664062,4,0,41.43073746046033,-91.76914456663988,10881.744175925862,-32.62197307421579,0.8530352773948795,43.10764852997971,187.314,9351.585978208032,10940.833293995036,150,False,8.216404088362202,False,167.14671780578593,178.5296588572965,False,11.811265697620701,True,False
3,1970-07-23 10:29:39.955332379,2025-09-12,2025-09-26 17:26:35.533,AA,C,2385792606,JASSM,3,115,76,2,2,1,225,9,2,0,1,26,0,0,0,0,-154088.93786795562,-4779796.754854049,4210688.618620396,-2.71064,-1.0108,0.752418,35.375,-56.25,-62.125,0.0,0.0,0.0,0.0,0.0,0.0,2,0,41.55404873790592,-91.84643610374702,10002.627398475275,155.95123787313145,-0.002698312965123,0.0007639846165039,,9351.585978208032,10940.833293995036,150,3,2025-09-12,2025-09-26 17:26:35.415,AA,C,894961852,HAWK11,1,1,73,2,1,1,225,2,1,0,0,12,1,225,2,1,-147986.32849295562,-4789212.821260299,4200671.226042271,-2.86883,2.22092,-0.733722,-55.0,62.25,71.0,-0.21875,-10.0469,10.3125,0.00585938,0.0722656,0.0703125,4,0,41.43155726194813,-91.7698722761835,10883.453854394387,-27.878967868917176,0.601442339416439,43.79550677690073,188.06,9351.585978208032,10940.833293995036,150,False,8.113740024037247,False,172.61954569712756,178.56225697944234,False,6.52715356135333,True,False
3,1970-07-23 10:29:39.964554859,2025-09-12,2025-09-26 17:26:36.455,AA,C,2386866348,JASSM,3,115,76,2,2,1,225,9,2,0,1,26,0,0,0,0,-154057.11853201812,-4779847.520479049,4210632.532682896,-2.71064,-1.0108,0.752418,35.375,-56.25,-62.125,0.0,0.0,0.0,0.0,0.0,0.0,2,0,41.55337425122497,-91.84603548595418,10002.626619937855,155.95150361171514,-0.0019602013580762,0.0007628969810371,,9351.585978208032,10940.833293995036,150,3,2025-09-12,2025-09-26 17:26:36.323,AA,C,896154850,HAWK11,1,1,73,2,1,1,225,2,1,0,0,12,1,225,2,1,-148036.64880545562,-4789147.834932174,4200744.497526646,-2.78322,2.10769,-0.775331,-45.875,65.5,75.25,-0.171875,-10.2344,10.5,-0.00585938,0.0683594,0.046875,4,0,41.432429191789936,-91.77049771827828,10886.57621613396,-22.58779542950747,0.6731809587028267,44.31285630720684,188.377,9351.585978208032,10940.833293995036,150,False,8.010190701277875,False,177.91943194085326,178.5639339799622,False,2.1572367231060428,True,False
3,1970-07-23 10:29:39.973252471,2025-09-12,2025-09-26 17:26:37.325,AA,C,2387999742,JASSM,3,115,76,2,2,1,225,9,2,0,1,26,0,0,0,0,-154023.53161795562,-4779901.104463424,4210573.331511021,-2.71064,-1.0108,0.752418,35.375,-56.25,-62.125,0.0,0.0,0.0,0.0,0.0,0.0,2,0,41.55266230746785,-91.84561262335583,10002.626198062162,155.951784101923,-0.0011810988976414,0.0007617535829916,,9351.585978208032,10940.833293995036,150,3,2025-09-12,2025-09-26 17:26:37.229,AA,C,897268316,HAWK11,1,1,73,2,1,1,225,2,1,0,0,12,1,225,2,1,-148075.22497733062,-4789085.814424361,4200815.677214146,-2.72013,1.99897,-0.80045,-37.625,67.5,78.75,-0.453125,-9.60938,9.9375,-0.0175781,0.0507812,0.046875,4,0,41.43327151230338,-91.77098171016422,10891.562198655018,-17.974422897365162,0.3940092663460723,43.55218069402579,188.769,9351.585978208032,10940.833293995036,150,False,7.90848233260088,False,176.71648777222276,178.53696173675579,False,4.700230078809669,True,False
3,1970-07-23 10:29:39.983292407,2025-09-12,2025-09-26 17:26:38.329,AA,C,2389133140,JASSM,3,115,76,2,2,1,225,9,2,0,1,26,0,0,0,0,-153989.94470389312,-4779954.688447799,4210514.128386021,-2.71064,-1.0108,0.752418,35.375,-56.25,-62.125,0.0,0.0,0.0,0.0,0.0,0.0,2,0,41.55195034891359,-91.8451897700371,10002.62539045452,155.9520645820281,-0.0004019843283886,0.0007606048102491,,9351.585978208032,10940.833293995036,150,3,2025-09-12,2025-09-26 17:26:38.415,AA,C,898501082,HAWK11,1,1,73,2,1,1,225,2,1,0,0,12,1,225,2,1,-148108.83239920562,-4789012.580049361,4200898.456511021,-2.62637,1.875,-0.821063,-28.125,70.0,81.5,-0.328125,-9.59375,9.82812,-0.00585938,0.0664062,0.0566406,4,0,41.434259756784826,-91.77141047036967,10893.7903937488,-12.95102701316677,0.1063035200563056,43.79501427062195,189.282,9351.585978208032,10940.833293995036,150,False,7.799898366376157,False,171.66384731937208,178.47811704287582,False,9.651972303082918,True,False
3,1970-07-23 10:29:39.992331637,2025-09-12,2025-09-26 17:26:39.233,AA,C,2390266530,JASSM,3,115,76,2,2,1,225,9,2,0,1,26,0,0,0,0,-153956.35778983062,-4780008.270479049,4210454.927214146,-2.71064,-1.0108,0.752418,35.375,-56.25,-62.125,0.0,0.0,0.0,0.0,0.0,0.0,2,0,41.55123841352275,-91.84476692675094,10002.62790492472,155.95234505153098,0.0003771074542146,0.0007594656168564,,9351.585978208032,10940.833293995036,150,3,2025-09-12,2025-09-26 17:26:39.323,AA,C,899733846,HAWK11,1,1,73,2,1,1,225,2,1,0,0,12,1,225,2,1,-148132.19958670562,-4788937.998994674,4200983.009245396,-2.54765,1.74951,-0.83554,-18.375,71.875,83.75,-0.296875,-9.89062,10.0938,-0.00976562,0.0507812,0.0644531,4,0,41.43526986612242,-91.7717173424017,10895.78635522182,-8.024018938583486,-0.061002898879311,43.00568228718127,189.551,9351.585978208032,10940.833293995036,150,False,7.692470339133558,False,166.4891996556509,178.38564867135824,False,14.872077017972648,True,False
3,1970-07-23 10:29:40.001393456,2025-09-12,2025-09-26 17:26:40.139,AA,C,2391340272,JASSM,3,115,76,2,2,1,225,9,2,0,1,26,0,0,0,0,-153924.53845389312,-4780059.032197799,4210398.839323521,-2.71064,-1.0108,0.752418,35.375,-56.25,-62.125,0.0,0.0,0.0,0.0,0.0,0.0,2,0,41.55056393084826,-91.84436634516656,10002.62774270409,155.95261075133462,0.0011152096926956,0.0007583810342626,,9351.585978208032,10940.833293995036,150,3,2025-09-12,2025-09-26 17:26:40.229,AA,C,900767778,HAWK11,1,1,73,2,1,1,225,2,1,0,0,12,1,225,2,1,-148144.45153983062,-4788874.713838424,4201055.202604771,-2.45025,1.64059,-0.838416,-10.25,73.0,84.875,-0.234375,-9.32812,9.60938,0.0136719,0.0488281,0.0605469,4,0,41.43613139504627,-91.7718871873258,10897.879301954228,-3.8551410356580913,-0.3805816211981404,43.93450077597653,189.636,9351.585978208032,10940.833293995036,150,False,7.598217970642016,False,162.290445721634,178.2796498102899,False,19.162588337986765,True,False
3,1970-07-23 10:29:40.011249018,2025-09-12,2025-09-26 17:26:41.124,AA,C,2392473666,JASSM,3,115,76,2,2,1,225,9,2,0,1,26,0,0,0,0,-153890.95153983062,-4780112.612275924,4210339.634245396,-2.71064,-1.0108,0.752513,35.375,-56.25,-62.125,0.0,0.0,0.0,0.0,0.0,0.0,2,0,41.54985197760188,-91.8439435207021,10002.624489491567,155.95518512352268,-0.0030950923290658,0.0007572112883866,,9351.585978208032,10940.833293995036,150,3,2025-09-12,2025-09-26 17:26:41.119,AA,C,901602878,HAWK11,1,1,73,2,1,1,225,2,1,0,0,12,1,225,2,1,-148148.63122733062,-4788821.473604049,4201114.366667271,-2.38927,1.5591,-0.837745,-3.5,74.0,85.625,-0.40625,-9.57812,9.75,-0.0117188,0.0507812,0.0644531,4,0,41.43684671099901,-91.7719568339057,10895.767978699074,-0.7372650142718549,-0.5585684046722906,43.93087110086065,189.746,9351.585978208032,10940.833293995036,150,False,7.5113972557957345,False,158.8476340737983,178.17022386815134,False,22.71208660877541,True,False
3,1970-07-23 10:29:40.020311769,2025-09-12,2025-09-26 17:26:42.031,AA,C,2393607060,JASSM,3,115,76,2,2,1,225,9,2,0,1,26,0,0,0,0,-153857.36364920562,-4780166.192354049,4210280.429167271,-2.71064,-1.0108,0.752513,35.375,-56.25,-62.125,0.0,0.0,0.0,0.0,0.0,0.0,2,0,41.54914002289988,-91.84352069382236,10002.625023773746,155.95546557060638,-0.0023159836676879,0.0007561048262,,9351.585978208032,10940.833293995036,150,3,2025-09-12,2025-09-26 17:26:42.025,AA,C,902795876,HAWK11,1,1,73,2,1,1,225,2,1,0,0,12,1,225,2,1,-148145.32068045562,-4788744.901338424,4201199.083464146,-2.28764,1.42277,-0.83113,6.625,74.75,86.0,-0.234375,-9.82812,10.2656,0.0078125,0.0664062,0.0722656,4,0,41.43787469188276,-91.7719455777721,10891.213133061005,4.517211019985034,-0.7435791214537779,43.90229255177538,189.746,9351.585978208032,10940.833293995036,150,False,7.409278310148675,False,153.76324112009075,177.98154625703123,False,27.994216738195185,True,False
3,1970-07-23 10:29:40.029353099,2025-09-12,2025-09-26 17:26:42.935,AA,C,2394680802,JASSM,3,115,76,2,2,1,225,9,2,0,1,26,0,0,0,0,-153825.54431326812,-4780216.952119674,4210224.339323521,-2.71064,-1.0108,0.752513,35.375,-56.25,-62.125,0.0,0.0,0.0,0.0,0.0,0.0,2,0,41.54846553413549,-91.84312013889728,10002.626609439088,155.95573124179867,-0.0015778799741658,0.0007550486276643,,9351.585978208032,10940.833293995036,150,3,2025-09-12,2025-09-26 17:26:43.229,AA,C,904346776,HAWK11,1,1,73,2,1,1,225,2,1,0,0,12,1,225,2,1,-148126.27771170562,-4788645.729463424,4201310.671354771,-2.26022,1.25901,-0.81857,20.0,73.75,86.5,-0.0625,-10.2969,10.6094,-0.1875,0.0546875,0.0625,4,0,41.43922138983995,-91.77175462117822,10888.257277274104,10.917514387887442,-0.5100068945298544,38.50525455821312,189.318,9351.585978208032,10940.833293995036,150,False,7.296075918122773,False,147.0940061947625,177.67191857518222,False,35.01523865311652,False,False
3,1970-07-23 10:29:40.038389369,2025-09-12,2025-09-26 17:26:43.838,AA,C,2395814196,JASSM,3,115,76,2,2,1,225,9,2,0,1,26,0,0,0,0,-153791.95739920562,-4780270.530244674,4210165.132292271,-2.71054,-1.0107,0.752513,35.375,-56.25,-62.125,0.0,0.0,0.0,0.0,0.0,0.0,2,0,41.54775357454406,-91.84269734252976,10002.625703587302,155.95236958199084,-0.0024733952713682,0.0024922214015051,,9351.585978208032,10940.833293995036,150,3,2025-09-12,2025-09-26 17:26:43.821,AA,C,904863742,HAWK11,1,1,73,2,1,1,225,2,1,0,0,12,1,225,2,1,-148116.15271170562,-4788613.463838424,4201347.601042271,-2.30385,1.20571,-0.813106,24.25,73.125,86.5,-0.046875,-10.125,10.4375,-0.214844,0.046875,0.0566406,4,0,41.43966447537332,-91.77164552176612,10888.35534558407,13.026869336309533,-0.3395769498488937,33.76560230686775,189.16,9351.585978208032,10940.833293995036,150,False,7.227666234707796,False,144.97895949557628,177.540619224781,False,37.27503353717555,False,False
3,1970-07-23 10:29:40.048272430,2025-09-12,2025-09-26 17:26:44.827,AA,C,2396947590,JASSM,3,115,76,2,2,1,225,9,2,0,1,26,0,0,0,0,-153758.37048514312,-4780324.106416549,4210105.925261021,-2.71054,-1.0107,0.752513,35.375,-56.25,-62.125,0.0,0.0,0.0,0.0,0.0,0.0,2,0,41.54704162496154,-91.84227455619114,10002.623869123156,155.95264999058668,-0.0016942995190192,0.0024910604110245,,9351.585978208032,10940.833293995036,150,3,2025-09-12,2025-09-26 17:26:44.729,AA,C,906096506,HAWK11,1,1,73,2,1,1,225,2,1,0,0,12,1,225,2,1,-148086.25036795562,-4788538.479463424,4201435.765104771,-2.47316,1.12086,-0.820871,31.375,70.625,87.625,0.0,-9.625,9.82812,-0.251953,0.0390625,0.015625,4,0,41.44071115568112,-91.77131580117424,10893.186073400342,16.102460675485965,1.0060456211084177,20.537148426499,188.732,9351.585978208032,10940.833293995036,150,False,7.131285214573844,False,141.4032820639384,177.2177412676974,False,41.22378188360963,False,False
3,1970-07-23 10:29:40.057311492,2025-09-12,2025-09-26 17:26:45.731,AA,C,2398021332,JASSM,3,115,76,2,2,1,225,9,2,0,1,26,0,0,0,0,-153726.55114920562,-4780374.862275924,4210049.833464146,-2.71054,-1.0107,0.752513,35.375,-56.25,-62.125,0.0,0.0,0.0,0.0,0.0,0.0,2,0,41.54636714175879,-91.8418740286734,10002.622409351365,155.95291563261216,-0.00095620535094,0.0024899603607977,,9351.585978208032,10940.833293995036,150,3,2025-09-12,2025-09-26 17:26:45.729,AA,C,907329272,HAWK11,1,1,73,2,1,1,225,2,1,0,0,12,1,225,2,1,-148050.21911795562,-4788465.682588424,4201525.526823521,-2.57805,1.08069,-0.841388,35.875,68.125,88.75,0.125,-9.14062,9.42188,-0.0664062,0.0175781,0.00195312,4,0,41.44175671744193,-91.770911997007,10906.404959080432,17.19885652398129,2.6158380186430423,12.861880980679636,188.573,9351.585978208032,10940.833293995036,150,False,7.039190166452981,False,139.08372520728835,176.85570814197905,False,43.94678857979279,False,False
3,1970-07-23 10:29:40.067349726,2025-09-12,2025-09-26 17:26:46.734,AA,C,2399154726,JASSM,3,115,76,2,2,1,225,9,2,0,1,26,0,0,0,0,-153692.96325858062,-4780428.438447799,4209990.624479771,-2.71054,-1.0107,0.752513,35.375,-56.25,-62.125,0.0,0.0,0.0,0.0,0.0,0.0,2,0,41.545655176009525,-91.84145124870597,10002.6237737237,155.95319602929504,-0.0001770940020478,0.0024888020494442,,9351.585978208032,10940.833293995036,150,3,2025-09-12,2025-09-26 17:26:46.915,AA,C,908760870,HAWK11,1,1,73,2,1,1,225,2,1,0,0,12,1,225,2,1,-148004.11364920562,-4788384.053682174,4201631.108854771,-2.49598,1.02393,-0.854811,39.5,65.375,89.5,0.015625,-8.45312,8.84375,0.0917969,0.0214844,0.0234375,4,0,41.44296343501495,-91.770391015175,10931.50886020136,18.944980787917917,4.093425500011743,15.226815589758967,188.145,9351.585978208032,10940.833293995036,150,False,6.938779139651514,False,137.0964529024663,176.40224511125726,False,46.42178314121429,False,False
3,1970-07-23 10:29:40.076390497,2025-09-12,2025-09-26 17:26:47.639,AA,C,2400288122,JASSM,3,115,76,2,2,1,225,9,2,0,1,26,0,0,0,0,-153659.37634451812,-4780482.014619674,4209931.413542271,-2.71054,-1.0107,0.752609,35.375,-56.25,-62.125,0.0,0.0,0.0,0.0,0.0,0.0,2,0,41.54494319527519,-91.84102848970672,10002.624830081257,155.95577208527212,-0.0043903332639371,0.0024875544019683,,9351.585978208032,10940.833293995036,150,3,2025-09-12,2025-09-26 17:26:47.525,AA,C,909277836,HAWK11,1,1,73,2,1,1,225,2,1,0,0,12,1,225,2,1,-147986.07849295562,-4788355.713838424,4201668.386198521,-2.45935,1.01147,-0.857879,41.125,64.5,89.125,-0.1875,-7.625,7.9375,0.0136719,0.0,0.0175781,4,0,41.44338694638696,-91.77018589016886,10941.422260940364,19.31398485839939,4.432259057630341,16.813132500603764,187.864,9351.585978208032,10940.833293995036,150,False,6.873840544942363,False,136.19080640557218,176.21479218354114,False,47.520484759176114,False,False
3,1970-07-23 10:29:40.086270681,2025-09-12,2025-09-26 17:26:48.627,AA,C,2401421516,JASSM,3,115,76,2,2,1,225,9,2,0,1,26,0,0,0,0,-153625.78943045562,-4780535.586885299,4209872.204557896,-2.71054,-1.0107,0.752609,35.375,-56.25,-62.125,0.0,0.0,0.0,0.0,0.0,0.0,2,0,41.54423124935612,-91.8406057414858,10002.62441397438,155.956052453104,-0.003611246809513,0.0024864276773077,,9351.585978208032,10940.833293995036,150,3,2025-09-12,2025-09-26 17:26:48.729,AA,C,910948034,HAWK11,1,1,73,2,1,1,225,2,1,0,0,12,1,225,2,1,-147924.89099295562,-4788263.983369674,4201789.710417271,-2.37105,0.93918,-0.837745,45.5,63.375,87.5,-0.109375,-7.04688,7.25,0.03125,0.0078125,0.0253906,4,0,41.44476276531179,-91.76948831694138,10974.749083635868,22.295836141623745,4.48012221553313,18.99759580339165,188.06,9351.585978208032,10940.833293995036,150,False,6.768876596392671,False,133.87574198714776,175.63760179947462,False,50.417383801342154,False,False
3,1970-07-23 10:29:40.095312408,2025-09-12,2025-09-26 17:26:49.531,AA,C,2402495258,JASSM,3,115,76,2,2,1,225,9,2,0,1,26,0,0,0,0,-153593.96911795562,-4780586.340791549,4209816.108854771,-2.71054,-1.0107,0.752609,35.375,-56.25,-62.125,0.0,0.0,0.0,0.0,0.0,0.0,2,0,41.54355674553853,-91.84020523771343,10002.62403651373,155.956318064713,-0.0028731356835798,0.0024853587276057,,9351.585978208032,10940.833293995036,150,3,2025-09-12,2025-09-26 17:26:49.619,AA,C,912061500,HAWK11,1,1,73,2,1,1,225,2,1,0,0,12,1,225,2,1,-147881.06482108062,-4788204.661104049,4201868.698698521,-2.36971,0.91176,-0.821543,48.375,62.75,86.25,0.0,-6.39062,6.8125,-0.0195312,-0.00585938,0.0332031,4,0,41.445656847401466,-91.76898630043716,10997.131755246422,23.658147488452425,4.104112313167208,18.01741289042481,188.304,9351.585978208032,10940.833293995036,150,False,6.688237456509467,False,132.34719316956512,175.2252341537923,False,52.35851502815932,False,False
3,1970-07-23 10:29:40.104352875,2025-09-12,2025-09-26 17:26:50.435,AA,C,2403628652,JASSM,3,115,76,2,2,1,225,9,2,0,1,26,0,0,0,0,-153560.38220389312,-4780639.913057174,4209756.895964146,-2.71054,-1.0107,0.752609,35.375,-56.25,-62.125,0.0,0.0,0.0,0.0,0.0,0.0,2,0,41.5428447701098,-91.83978250755304,10002.622646902792,155.95659841288156,-0.0020940250124824,0.0024842212547105,,9351.585978208032,10940.833293995036,150,3,2025-09-12,2025-09-26 17:26:50.525,AA,C,913095432,HAWK11,1,1,73,2,1,1,225,2,1,0,0,12,1,225,2,1,-147837.44177420562,-4788148.743135299,4201941.640104771,-2.41803,0.884628,-0.806299,50.875,62.75,84.625,-0.21875,-6.5,6.67188,-0.123047,0.0,0.0332031,4,0,41.4464898294976,-91.7684854429688,11014.772070216828,25.00786162398789,3.805036219220256,14.211720109196632,188.854,9351.585978208032,10940.833293995036,150,False,6.608690071515333,False,131.0374649024022,174.81708366189045,False,54.07008714356836,False,False
3,1970-07-23 10:29:40.113412274,2025-09-12,2025-09-26 17:26:51.341,AA,C,2404762044,JASSM,3,115,76,2,2,1,225,9,2,0,1,26,0,0,0,0,-153526.79431326812,-4780693.485322799,4209697.683073521,-2.71054,-1.0107,0.752609,35.375,-56.25,-62.125,0.0,0.0,0.0,0.0,0.0,0.0,2,0,41.54213279322583,-91.83935977497464,10002.625045006556,155.9568787587063,-0.0013149108501498,0.0024830918352906,,9351.585978208032,10940.833293995036,150,3,2025-09-12,2025-09-26 17:26:51.119,AA,C,913811232,HAWK11,1,1,73,2,1,1,225,2,1,0,0,12,1,225,2,1,-147806.51599295562,-4788110.581025924,4201991.772917271,-2.46271,0.868425,-0.793452,52.125,62.875,83.875,-0.046875,-6.32812,6.57812,-0.109375,0.0,0.0195312,4,0,41.44706090120333,-91.76812981558972,11027.492570747803,25.92389065558476,3.452238161053802,11.04397370203386,189.05,9351.585978208032,10940.833293995036,150,False,6.539994325698962,False,130.4099422439981,174.51430877219212,False,54.99695662683999,False,False
