Subject_cm,Timestamp,SampleDate_cm,SampleTime_cm,Configuration_cm,Scenario_cm,DisTime_cm,MarkingTxt_cm,Application_cm,EntId_cm,Site_cm,ExerciseId_cm,ForceId_cm,Category_cm,Country_cm,Domain_cm,Kind_cm,Extra_cm,Specific_cm,Subcategory_cm,AltCategory_cm,AltCountry_cm,AltDomain_cm,AltKind_cm,ECEF_X_cm,ECEF_Y_cm,ECEF_Z_cm,OriPhi_cm,OriPsi_cm,OriTheta_cm,LinVelX_cm,LinVelY_cm,LinVelZ_cm,LinAccX_cm,LinAccY_cm,LinAccZ_cm,AngVelX_cm,AngVelY_cm,AngVelZ_cm,DrAlg_cm,Appearance_cm,Latitude_cm,Longitude_cm,Altitude_cm,Heading_cm,Pitch_cm,Roll_cm,CalibratedAirspeed_cm,CM_Altitude_Lead_cm,CM_Altitude_Wing_cm,CM_Airspeed_cm,Subject_ac,SampleDate_ac,SampleTime_ac,Configuration_ac,Scenario_ac,DisTime_ac,MarkingTxt_ac,Application_ac,EntId_ac,Site_ac,ExerciseId_ac,ForceId_ac,Category_ac,Country_ac,Domain_ac,Kind_ac,Extra_ac,Specific_ac,Subcategory_ac,AltCategory_ac,AltCountry_ac,AltDomain_ac,AltKind_ac,ECEF_X_ac,ECEF_Y_ac,ECEF_Z_ac,OriPhi_ac,OriPsi_ac,OriTheta_ac,LinVelX_ac,LinVelY_ac,LinVelZ_ac,LinAccX_ac,LinAccY_ac,LinAccZ_ac,AngVelX_ac,AngVelY_ac,AngVelZ_ac,DrAlg_ac,Appearance_ac,Latitude_ac,Longitude_ac,Altitude_ac,Heading_ac,Pitch_ac,Roll_ac,CalibratedAirspeed_ac,CM_Altitude_Lead_ac,CM_Altitude_Wing_ac,CM_Airspeed_ac,Bank_Angle_Condition,distance_nm,Distance_Condition,angle_between_vel,angle_between_pos,Cone_Condition,angle_between_pos_nose,Nose_Cone_Condition,Intercept_Criteria
3,1970-07-23 09:46:47.477283732,2025-09-09,2025-09-26 17:59:07.728,HH,C,1646281282,JASSM,3,101,76,2,2,1,225,9,2,0,1,26,0,0,0,0,-121488.86199342164,-4791471.769605932,4198549.181120396,2.29618,-3.09845,0.0772743,-81.5,-3.375,-6.25,0.0,0.0,0.0,0.0,0.0,0.0,2,0,41.408228142934455,-91.45243638892616,10000.00061985349,-95.9137587340288,0.0067396204164825,0.0009499451064346,,8987.758710775177,10858.05979093449,150,3,2025-09-09,2025-09-26 17:59:07.736,HH,C,3224354714,HAWK11,1,1,73,2,1,1,225,2,1,0,0,12,1,225,2,1,-149256.19763358062,-4790399.586885299,4199270.515104771,2.34862,2.83087,-0.399794,-76.25,30.625,30.125,-0.0625,-6.92188,7.0625,-0.00195312,-0.00195312,0.00976562,4,0,41.41480801438082,-91.78460780861413,10858.05979093449,-62.5433277504589,3.833038436487767,0.822101940787582,145.349,8987.758710775177,10858.05979093449,150,True,14.95324712342441,False,34.18556660074601,172.55636867721395,False,153.21869294918486,False,False
3,1970-07-23 09:46:47.488327492,2025-09-09,2025-09-26 17:59:08.832,HH,C,1647474328,JASSM,3,101,76,2,2,1,225,9,2,0,1,26,0,0,0,0,-121570.53777467164,-4791475.285230932,4198542.847136021,2.29618,-3.09845,0.0773702,-81.5,-3.375,-6.25,0.0,0.0,0.0,0.0,0.0,0.0,2,0,41.40815214145745,-91.4534113631568,9999.999794083837,-95.91851391352292,0.0038305846645661,0.0009497910800499,,8987.758710775177,10858.05979093449,150,3,2025-09-09,2025-09-26 17:59:08.924,HH,C,3225627246,HAWK11,1,1,73,2,1,1,225,2,1,0,0,12,1,225,2,1,-149337.83435233062,-4790366.996064986,4199303.120573521,2.35351,2.8231,-0.404492,-76.375,29.125,31.875,-0.109375,-6.89062,7.15625,0.0117188,0.0,0.0175781,4,0,41.41520684971005,-91.78559542078604,10854.93214535079,-62.065241470606736,3.7247813484870975,0.95965705171111,145.239,8987.758710775177,10858.05979093449,150,True,14.954612407538116,False,34.33223746864888,172.44742564064168,False,153.2109542626064,False,False
3,1970-07-23 09:46:47.498168219,2025-09-09,2025-09-26 17:59:09.816,HH,C,1648667378,JASSM,3,101,76,2,2,1,225,9,2,0,1,26,0,0,0,0,-121652.20964967164,-4791478.800855932,4198536.513151646,2.29618,-3.09845,0.0773702,-81.5,-3.375,-6.25,0.0,0.0,0.0,0.0,0.0,0.0,2,0,41.408076132308224,-91.45438628843456,10000.00217621945,-95.91915874672152,0.0045657355158682,0.0009499928832736,,8987.758710775177,10858.05979093449,150,3,2025-09-09,2025-09-26 17:59:10.034,HH,C,3227019078,HAWK11,1,1,73,2,1,1,225,2,1,0,0,12,1,225,2,1,-149426.14880545562,-4790331.045869674,4199338.755339146,2.36463,2.81955,-0.412641,-76.125,30.75,30.875,-0.1875,-6.9375,6.9375,0.0,0.00195312,0.0136719,4,0,41.41564487079236,-91.78666409025652,10850.634433141631,-61.5991754432764,3.9151500094894782,1.5471967863804303,145.508,8987.758710775177,10858.05979093449,150,True,14.959751269715062,False,34.58950197086293,172.32998167467176,False,153.0489534827697,False,False
3,1970-07-23 09:46:47.507250137,2025-09-09,2025-09-26 17:59:10.725,HH,C,1649800772,JASSM,3,101,76,2,2,1,225,9,2,0,1,26,0,0,0,0,-121729.79949342164,-4791482.138746557,4198530.493620396,2.29618,-3.09855,0.0773702,-81.5,-3.375,-6.25,0.0,0.0,0.0,0.0,0.0,0.0,2,0,41.40800391218932,-91.45531248460809,9999.998055367478,-95.91613917382344,0.0011673873612338,0.0013748430514726,,8987.758710775177,10858.05979093449,150,3,2025-09-09,2025-09-26 17:59:10.830,HH,C,3228053012,HAWK11,1,1,73,2,1,1,225,2,1,0,0,12,1,225,2,1,-149492.20153983062,-4790304.134736861,4199365.729948521,2.35821,2.81543,-0.41475,-76.0,30.875,31.25,-0.1875,-6.79688,7.0,-0.0078125,-0.0078125,0.0,4,0,41.4159747849836,-91.78746339490668,10848.066678813211,-61.36202027180112,3.844106645567477,1.10028483917065,145.349,8987.758710775177,10858.05979093449,150,True,14.95481242123163,False,34.835415603031755,172.23696600309728,False,152.89882934408868,False,False
3,1970-07-23 09:46:47.517146591,2025-09-09,2025-09-26 17:59:11.714,HH,C,1650935106,JASSM,3,101,76,2,2,1,225,9,2,0,1,26,0,0,0,0,-121807.45574342164,-4791485.479566869,4198524.470182896,2.29618,-3.09855,0.0773702,-81.5,-3.375,-6.25,0.0,0.0,0.0,0.0,0.0,0.0,2,0,41.40793163076813,-91.45623947140236,9999.99993253863,-95.91675229787457,0.001866392338273,0.0013750736349051,,8987.758710775177,10858.05979093449,150,3,2025-09-09,2025-09-26 17:59:11.736,HH,C,3229007410,HAWK11,1,1,73,2,1,1,225,2,1,0,0,12,1,225,2,1,-149552.81872733062,-4790278.998994674,4199390.960417271,2.35562,2.8091,-0.419064,-75.875,31.0,31.5,-0.109375,-6.92188,6.98438,-0.0078125,-0.00585938,0.00585938,4,0,41.41628336840498,-91.78819709508062,10845.665179728963,-60.95341611422748,3.778519745973445,0.8323480610641513,145.447,8987.758710775177,10858.05979093449,150,True,14.94688404381689,False,35.028600475522616,172.14837098330278,False,152.79562958008555,False,False
3,1970-07-23 09:46:47.526328317,2025-09-09,2025-09-26 17:59:12.632,HH,C,1652068500,JASSM,3,101,76,2,2,1,225,9,2,0,1,26,0,0,0,0,-121885.04558717164,-4791488.816480932,4198518.450651646,2.29618,-3.09855,0.0773702,-81.5,-3.375,-6.25,0.0,0.0,0.0,0.0,0.0,0.0,2,0,41.40785940154137,-91.45716566376817,9999.999642407804,-95.91736489559892,0.0025648000434878,0.001375306169494,,8987.758710775177,10858.05979093449,150,3,2025-09-09,2025-09-26 17:59:12.924,HH,C,3230518542,HAWK11,1,1,73,2,1,1,225,2,1,0,0,12,1,225,2,1,-149649.40857108062,-4790238.535127486,4199431.155729771,2.35533,2.80067,-0.417818,-75.875,31.75,31.5,-0.09375,-6.84375,7.0,0.0078125,0.0175781,-0.0078125,4,0,41.41677746354675,-91.78936637053344,10840.81446352046,-60.69679529778797,3.413205949532935,0.6355809937474058,145.398,8987.758710775177,10858.05979093449,150,True,14.95901043188019,False,35.311004921161135,172.01991396828248,False,152.63371066454573,False,False
3,1970-07-23 09:46:47.538343568,2025-09-09,2025-09-26 17:59:13.834,HH,C,1653439876,JASSM,3,101,76,2,2,1,225,9,2,0,1,26,0,0,0,0,-121978.92449342164,-4791492.853590307,4198511.165495396,2.29618,-3.09855,0.0773702,-81.5,-3.375,-6.25,0.0,0.0,0.0,0.0,0.0,0.0,2,0,41.40777198796464,-91.45828629654044,9999.99848043008,-95.91810609799155,0.003409831314486,0.0013755982109309,,8987.758710775177,10858.05979093449,150,3,2025-09-09,2025-09-26 17:59:13.830,HH,C,3231592240,HAWK11,1,1,73,2,1,1,225,2,1,0,0,12,1,225,2,1,-149717.67419608062,-4790209.711885299,4199459.733854771,2.35437,2.79808,-0.41964,-75.875,31.5,32.0,-0.078125,-6.79688,7.01562,-0.00390625,-0.0136719,0.00195312,4,0,41.41712914722492,-91.7901928601548,10837.205032971407,-60.52768823295302,3.389946117785951,0.5304078869627995,145.606,8987.758710775177,10858.05979093449,150,True,14.946768604528641,False,35.425161204677465,171.9171952481225,False,152.6307045390955,False,False
3,1970-07-23 09:46:47.549205561,2025-09-09,2025-09-26 17:59:14.920,HH,C,1654752736,JASSM,3,101,76,2,2,1,225,9,2,0,1,26,0,0,0,0,-122068.79949342164,-4791496.716871557,4198504.192839146,2.29618,-3.09855,0.0773702,-81.5,-3.375,-6.25,0.0,0.0,0.0,0.0,0.0,0.0,2,0,41.40768831420607,-91.4593591323588,10000.001475240302,-95.91881568559776,0.0042188203930997,0.001375856030239,,8987.758710775177,10858.05979093449,150,3,2025-09-09,2025-09-26 17:59:15.034,HH,C,3232984072,HAWK11,1,1,73,2,1,1,225,2,1,0,0,12,1,225,2,1,-149805.68591483062,-4790172.116182174,4199496.636198521,2.3538,2.78667,-0.420215,-75.875,32.25,31.75,-0.171875,-6.71875,6.75,0.0078125,-0.00195312,0.0117188,4,0,41.41758552862576,-91.7912585912906,10831.611700926234,-60.08592840558912,2.988122510119896,0.2555516510005627,145.398,8987.758710775177,10858.05979093449,150,True,14.947720559500999,False,35.60266526012886,171.79318451449222,False,152.56635894305577,False,False
3,1970-07-23 09:46:47.559244700,2025-09-09,2025-09-26 17:59:15.924,HH,C,1656064266,JASSM,3,101,76,2,2,1,225,9,2,0,1,26,0,0,0,0,-122158.58464967164,-4791500.576246557,4198497.224089146,2.29618,-3.09855,0.0773702,-81.5,-3.375,-6.25,0.0,0.0,0.0,0.0,0.0,0.0,2,0,41.4076046936848,-91.46043089297844,10000.001882690887,-95.91952456087468,0.0050270028911509,0.0013761339379365,,8987.758710775177,10858.05979093449,150,3,2025-09-09,2025-09-26 17:59:15.925,HH,C,3234057772,HAWK11,1,1,73,2,1,1,225,2,1,0,0,12,1,225,2,1,-149873.76403983062,-4790142.858369674,4199525.102995396,2.36962,2.78667,-0.425392,-75.75,32.5,31.75,-0.09375,-6.90625,6.92188,0.0449219,0.00195312,0.00195312,4,0,41.41793906848776,-91.79208302399744,10826.684982844112,-59.8749613492587,3.1971210002684005,1.173345778289443,146.132,8987.758710775177,10858.05979093449,150,True,14.937684258204731,False,35.7385010830361,171.69102344741842,False,152.52984665620582,False,False
3,1970-07-23 09:46:47.570264662,2025-09-09,2025-09-26 17:59:17.026,HH,C,1657377228,JASSM,3,101,76,2,2,1,225,9,2,0,1,26,0,0,0,0,-122248.46746217164,-4791504.437574682,4198490.247526646,2.29618,-3.09855,0.0773702,-81.5,-3.375,-6.25,0.0,0.0,0.0,0.0,0.0,0.0,2,0,41.4075209839968,-91.4615038172466,10000.000442061928,-95.92023420462476,0.0058360637283157,0.0013764004108433,,8987.758710775177,10858.05979093449,150,3,2025-09-09,2025-09-26 17:59:16.830,HH,C,3235211004,HAWK11,1,1,73,2,1,1,225,2,1,0,0,12,1,225,2,1,-149946.80896170562,-4790111.361299361,4199556.071745396,2.39598,2.78878,-0.435363,-75.625,32.5,32.375,-0.015625,-7.14062,7.3125,0.0214844,0.0195312,0.0117188,4,0,41.41832188697556,-91.79296765463071,10822.067629203915,-59.54497010305421,3.6769974381313393,2.7542103943985468,146.388,8987.758710775177,10858.05979093449,150,True,14.930426075928231,False,36.0362172751869,171.5824085054376,False,152.3483989056428,False,False
3,1970-07-23 09:46:47.583173045,2025-09-09,2025-09-26 17:59:18.317,HH,C,1658748878,JASSM,3,101,76,2,2,1,225,9,2,0,1,26,0,0,0,0,-122342.36980592164,-4791508.471754369,4198482.958464146,2.29618,-3.09855,0.0773702,-81.5,-3.375,-6.25,0.0,0.0,0.0,0.0,0.0,0.0,2,0,41.40743351566962,-91.46262471935718,10000.002723154535,-95.9209755801799,0.0066813059481167,0.0013766833021243,,8987.758710775177,10858.05979093449,150,3,2025-09-09,2025-09-26 17:59:18.128,HH,C,3236682368,HAWK11,1,1,73,2,1,1,225,2,1,0,0,12,1,225,2,1,-150040.10583670562,-4790070.782197799,4199596.876432896,2.41573,2.77967,-0.452428,-75.125,32.5,33.375,-0.25,-7.03125,7.28125,0.0292969,0.00195312,0.0136719,4,0,41.41882134638848,-91.79409769855852,10818.028968712964,-58.51629501107077,4.029024478515942,3.730854096617584,146.645,8987.758710775177,10858.05979093449,150,True,14.93242708247367,False,36.616674591008454,171.4475650369766,False,151.9130758610036,False,False
3,1970-07-23 09:46:47.593324632,2025-09-09,2025-09-26 17:59:19.332,HH,C,1660002030,JASSM,3,101,76,2,2,1,225,9,2,0,1,26,0,0,0,0,-122428.15886842164,-4791512.155348119,4198476.296354771,2.29618,-3.09855,0.0773702,-81.5,-3.375,-6.25,0.0,0.0,0.0,0.0,0.0,0.0,2,0,41.407353588126455,-91.46364877209828,9999.997664172262,-95.92165289749384,0.0074535193707764,0.0013769487459075,,8987.758710775177,10858.05979093449,150,3,2025-09-09,2025-09-26 17:59:19.426,HH,C,3238233268,HAWK11,1,1,73,2,1,1,225,2,1,0,0,12,1,225,2,1,-150137.56286795562,-4790028.167939986,4199640.804167271,2.43778,2.76999,-0.467768,-74.625,32.75,34.375,-0.15625,-7.14062,7.3125,0.0117188,-0.00195312,0.0195312,4,0,41.41935320535693,-91.7952782352295,10816.091104473157,-57.54042728925756,4.296087914825678,4.8188384247247145,146.29,8987.758710775177,10858.05979093449,150,True,14.941203894851604,False,37.29177780508965,171.3082382026945,False,151.38350134049065,False,False
3,1970-07-23 09:46:47.604743364,2025-09-09,2025-09-26 17:59:20.474,HH,C,1661313672,JASSM,3,101,76,2,2,1,225,9,2,0,1,26,0,0,0,0,-122517.94793092164,-4791516.010816869,4198469.325651646,2.29618,-3.09864,0.077466,-81.5,-3.375,-6.25,0.0,0.0,0.0,0.0,0.0,0.0,2,0,41.40726993711069,-91.46472056958662,10000.001165706924,-95.92283098014082,0.0005106020387024,0.0018029490319659,,8987.758710775177,10858.05979093449,150,3,2025-09-09,2025-09-26 17:59:20.239,HH,C,3239227432,HAWK11,1,1,73,2,1,1,225,2,1,0,0,12,1,225,2,1,-150199.63708670562,-4790000.642549361,4199669.626432896,2.44488,2.76299,-0.476013,-74.125,33.125,34.875,-0.03125,-6.85938,7.07812,0.0,-0.00585938,0.0117188,4,0,41.41969992696872,-91.79603031905047,10815.748948006496,-56.952526967152615,4.377462363131308,5.08755269406626,146.132,8987.758710775177,10858.05979093449,150,True,14.928119969697873,False,37.806810110795524,171.2064862426128,False,150.970897907043,False,False
3,1970-07-23 09:46:47.612262814,2025-09-09,2025-09-26 17:59:21.226,HH,C,1662387414,JASSM,3,101,76,2,2,1,225,9,2,0,1,26,0,0,0,0,-122591.45574342164,-4791519.166090307,4198463.616667271,2.29618,-3.09864,0.077466,-81.5,-3.375,-6.25,0.0,0.0,0.0,0.0,0.0,0.0,2,0,41.40720143813301,-91.46559801871868,9999.999541059253,-95.92341133077502,0.0011722682524261,0.0018031692476631,,8987.758710775177,10858.05979093449,150,3,2025-09-09,2025-09-26 17:59:21.128,HH,C,3240301132,HAWK11,1,1,73,2,1,1,225,2,1,0,0,12,1,225,2,1,-150266.45349295562,-4789970.343721236,4199701.456511021,2.45418,2.74928,-0.481095,-73.75,33.625,35.5,-0.0625,-6.8125,7.10938,0.00195312,0.0,0.0136719,4,0,41.42008256045384,-91.79684011901924,10815.483970943777,-56.251489387286576,4.0928000004474185,5.310478432990336,145.973,8987.758710775177,10858.05979093449,150,True,14.926472198364973,False,38.37341982641585,171.10210021298101,False,150.50927566885952,False,False
3,1970-07-23 09:46:47.622366068,2025-09-09,2025-09-26 17:59:22.236,HH,C,1663520964,JASSM,3,101,76,2,2,1,225,9,2,0,1,26,0,0,0,0,-122669.05730592164,-4791522.496168432,4198457.589323521,2.29618,-3.09864,0.077466,-81.5,-3.375,-6.25,0.0,0.0,0.0,0.0,0.0,0.0,2,0,41.40712911972456,-91.46652433246604,9999.997696991606,-95.92402399993118,0.0018707835032054,0.0018033991154738,,8987.758710775177,10858.05979093449,150,3,2025-09-09,2025-09-26 17:59:22.330,HH,C,3241772496,HAWK11,1,1,73,2,1,1,225,2,1,0,0,12,1,225,2,1,-150356.78747733062,-4789928.278291549,4199745.380339146,2.46396,2.73375,-0.490395,-73.125,34.375,36.375,-0.140625,-6.84375,6.98438,-0.0175781,0.00390625,0.00976562,4,0,41.42061242959738,-91.79793537540392,10814.353262922128,-55.31522697123026,3.9218751581677314,5.520806205764767,146.034,8987.758710775177,10858.05979093449,150,True,14.935994731877328,False,39.217843503245014,170.9652464021261,False,149.80215442913706,False,False
3,1970-07-23 09:46:47.632306278,2025-09-09,2025-09-26 17:59:23.230,HH,C,1664714020,JASSM,3,101,76,2,2,1,225,9,2,0,1,26,0,0,0,0,-122750.72918092164,-4791526.001051244,4198451.245573521,2.29618,-3.09864,0.077466,-81.5,-3.375,-6.25,0.0,0.0,0.0,0.0,0.0,0.0,2,0,41.40705299746152,-91.46749923042816,9999.998887871498,-95.92466880201162,0.002605937120062,0.0018036436559297,,8987.758710775177,10858.05979093449,150,3,2025-09-09,2025-09-26 17:59:23.236,HH,C,3242766662,HAWK11,1,1,73,2,1,1,225,2,1,0,0,12,1,225,2,1,-150417.65466483062,-4789899.160127486,4199775.479948521,2.31353,2.73106,-0.491161,-72.875,34.75,36.375,0.03125,-6.875,6.96875,-0.246094,-0.00195312,-0.0078125,4,0,41.420977457706,-91.79867366167724,10812.783793736437,-55.187660683618994,3.859218031158666,-3.1617483239632245,145.459,8987.758710775177,10858.05979093449,150,True,14.926837970853038,False,39.440675630873095,170.8615556975763,False,149.68014389545158,False,False
3,1970-07-23 09:46:47.645609418,2025-09-09,2025-09-26 17:59:24.560,HH,C,1665966550,JASSM,3,101,76,2,2,1,225,9,2,0,1,26,0,0,0,0,-122836.47527467164,-4791529.678785619,4198444.585417271,2.29618,-3.09864,0.077466,-81.5,-3.375,-6.25,0.0,0.0,0.0,0.0,0.0,0.0,2,0,41.406973081134936,-91.46852275954164,9999.999071554104,-95.92534576791542,0.003377763236088,0.0018038882459441,,8987.758710775177,10858.05979093449,150,3,2025-09-09,2025-09-26 17:59:24.426,HH,C,3244238028,HAWK11,1,1,73,2,1,1,225,2,1,0,0,12,1,225,2,1,-150508.76599295562,-4789856.265596236,4199819.796354771,2.07797,2.74803,-0.467097,-74.125,34.0,35.0,-0.015625,-6.60938,6.84375,-0.0839844,0.0078125,-0.0546875,4,0,41.42151474722904,-91.799778548903,10810.536768329304,-56.77313561476731,3.480340630562337,-16.311596233573916,146.498,8987.758710775177,10858.05979093449,150,False,14.932629796896913,False,38.17040375209955,170.7205224455863,False,151.08733694446062,False,False
3,1970-07-23 09:46:47.652228879,2025-09-09,2025-09-26 17:59:25.222,HH,C,1667099946,JASSM,3,101,76,2,2,1,225,9,2,0,1,26,0,0,0,0,-122914.06511842164,-4791533.006910619,4198438.558073521,2.29618,-3.09864,0.077466,-81.5,-3.375,-6.25,0.0,0.0,0.0,0.0,0.0,0.0,2,0,41.40690075258887,-91.46944892736263,10000.001522264762,-95.92595833777769,0.00407617310519,0.0018041156615322,,8987.758710775177,10858.05979093449,150,3,2025-09-09,2025-09-26 17:59:25.236,HH,C,3245152660,HAWK11,1,1,73,2,1,1,225,2,1,0,0,12,1,225,2,1,-150566.40661795562,-4789830.391572799,4199846.091276646,2.02016,2.77593,-0.427789,-75.375,33.25,33.375,-0.046875,-6.875,6.76562,-0.0449219,0.00195312,-0.0507812,4,0,41.4218353864834,-91.80047707938203,10808.443620525322,-59.38819986563458,2.9030918240609265,-19.077790085905917,146.498,8987.758710775177,10858.05979093449,150,False,14.923816916540183,False,36.805909120397054,170.6278134127834,False,152.53682811809244,False,False
3,1970-07-23 09:46:47.661304846,2025-09-09,2025-09-26 17:59:26.130,HH,C,1668233340,JASSM,3,101,76,2,2,1,225,9,2,0,1,26,0,0,0,0,-122991.65496217164,-4791536.334059057,4198432.528776646,2.29618,-3.09864,0.077466,-81.5,-3.375,-6.25,0.0,0.0,0.0,0.0,0.0,0.0,2,0,41.40682840921427,-91.4703750934285,10000.000447677974,-95.92657090559874,0.0047745839675651,0.0018043504155422,,8987.758710775177,10858.05979093449,150,3,2025-09-09,2025-09-26 17:59:26.236,HH,C,3246385426,HAWK11,1,1,73,2,1,1,225,2,1,0,0,12,1,225,2,1,-150644.33630545562,-4789796.867158736,4199879.235807896,1.98296,2.8091,-0.38781,-77.0,31.75,31.25,-0.078125,-6.96875,6.96875,0.0234375,0.0136719,-0.03125,4,0,41.42224397445333,-91.8014209507991,10803.977860667088,-62.24859317835072,2.542224103305736,-20.59104366259897,146.608,8987.758710775177,10858.05979093449,150,False,14.926389116043019,False,34.84093307880144,170.51746483489038,False,154.60627736124707,False,False
3,1970-07-23 09:46:47.672932706,2025-09-09,2025-09-26 17:59:27.293,HH,C,1669426388,JASSM,3,101,76,2,2,1,225,9,2,0,1,26,0,0,0,0,-123073.32683717164,-4791539.835035619,4198426.183073521,2.29618,-3.09864,0.077466,-81.5,-3.375,-6.25,0.0,0.0,0.0,0.0,0.0,0.0,2,0,41.40675226438122,-91.47134998359702,10000.001424714215,-95.92721569867524,0.0055097374771181,0.0018045849805933,,8987.758710775177,10858.05979093449,150,3,2025-09-09,2025-09-26 17:59:27.126,HH,C,3247459124,HAWK11,1,1,73,2,1,1,225,2,1,0,0,12,1,225,2,1,-150714.15857108062,-4789768.892549361,4199906.319792271,2.04614,2.83288,-0.374195,-78.375,30.5,29.0,-0.15625,-6.98438,7.0625,0.09375,0.0117188,-0.0234375,4,0,41.42258014832105,-91.80226586146264,10799.38038440596,-63.69025949813249,2.9111540359151404,-16.533006406587273,147.011,8987.758710775177,10858.05979093449,150,False,14.922122470622394,False,33.0034838660743,170.42123852428102,False,156.5264431231199,False,False
3,1970-07-23 09:46:47.683551103,2025-09-09,2025-09-26 17:59:28.355,HH,C,1670619434,JASSM,3,101,76,2,2,1,225,9,2,0,1,26,0,0,0,0,-123155.00261842164,-4791543.335035619,4198419.835417271,2.29618,-3.09864,0.077466,-81.5,-3.375,-6.25,0.0,0.0,0.0,0.0,0.0,0.0,2,0,41.40667610331705,-91.4723249184676,9999.999459840465,-95.92786052034236,0.0062449268666672,0.0018048238655934,,8987.758710775177,10858.05979093449,150,3,2025-09-09,2025-09-26 17:59:28.272,HH,C,3248174924,HAWK11,1,1,73,2,1,1,225,2,1,0,0,12,1,225,2,1,-150760.94568045562,-4789751.348604049,4199922.972136021,2.09302,2.85435,-0.357897,-79.0,29.625,27.875,-0.15625,-6.92188,7.07812,0.0859375,0.0078125,-0.03125,4,0,41.42278816344451,-91.802831579665,10796.007962427935,-65.1611914249157,3.1000636155988763,-13.483524735286808,146.914,8987.758710775177,10858.05979093449,150,False,14.90485786574549,False,32.00672018949775,170.3512122688997,False,157.58928460058976,False,False
3,1970-07-23 09:46:47.691245227,2025-09-09,2025-09-26 17:59:29.124,HH,C,1671812480,JASSM,3,101,76,2,2,1,225,9,2,0,1,26,0,0,0,0,-123236.67449342164,-4791546.835035619,4198413.487761021,2.29618,-3.09864,0.077466,-81.5,-3.375,-6.25,0.0,0.0,0.0,0.0,0.0,0.0,2,0,41.40659993458903,-91.47329980438232,10000.00069973396,-95.92850530865468,0.0069800813807812,0.0018050658034668,,8987.758710775177,10858.05979093449,150,3,2025-09-09,2025-09-26 17:59:29.126,HH,C,3249566756,HAWK11,1,1,73,2,1,1,225,2,1,0,0,12,1,225,2,1,-150853.57263358062,-4789717.676729049,4199954.052214146,2.14604,2.87842,-0.337476,-79.875,28.375,26.125,-0.109375,-6.875,7.03125,0.0449219,0.0,0.00195312,4,0,41.42318092432429,-91.80395117428758,10787.847010405576,-66.90490959210206,3.2445043430579017,-10.072448942896196,147.06,8987.758710775177,10858.05979093449,150,False,14.913224261913603,False,30.524864780206556,170.2449920666793,False,159.1682368535791,False,False
3,1970-07-23 09:46:47.702345964,2025-09-09,2025-09-26 17:59:30.234,HH,C,1673005526,JASSM,3,101,76,2,2,1,225,9,2,0,1,26,0,0,0,0,-123318.34636842164,-4791550.334059057,4198407.140104771,2.29618,-3.09864,0.077466,-81.5,-3.375,-6.25,0.0,0.0,0.0,0.0,0.0,0.0,2,0,41.40652376341113,-91.4742746883199,10000.002988917588,-95.92915009468489,0.0077152355282374,0.0018053019696024,,8987.758710775177,10858.05979093449,150,3,2025-09-09,2025-09-26 17:59:31.034,HH,C,3252032286,HAWK11,1,1,73,2,1,1,225,2,1,0,0,12,1,225,2,1,-151019.20935233062,-4789660.845674361,4200005.485807896,2.34594,2.8789,-0.32856,-80.5,27.5,24.75,-0.140625,-6.25,6.1875,0.0761719,-0.0253906,0.0117188,4,0,41.42383514918851,-91.80595200958612,10772.585893440497,-67.29791243892721,2.916462652143745,1.3687076590133178,147.011,8987.758710775177,10858.05979093449,150,True,14.962287516574744,False,29.41906015489674,170.08950999120643,False,160.41905181133887,False,False
3,1970-07-23 09:46:47.711229240,2025-09-09,2025-09-26 17:59:31.122,HH,C,1674139638,JASSM,3,101,76,2,2,1,225,9,2,0,1,26,0,0,0,0,-123395.98699342164,-4791553.659254369,4198401.102995396,2.29618,-3.09874,0.0775619,-81.5,-3.375,-6.25,0.0,0.0,0.0,0.0,0.0,0.0,2,0,41.40645133229367,-91.4752014510994,9999.999605732395,-95.93024136029284,0.0006731950512236,0.0022307401785706,,8987.758710775177,10858.05979093449,150,3,2025-09-09,2025-09-26 17:59:31.034,HH,C,3252032286,HAWK11,1,1,73,2,1,1,225,2,1,0,0,12,1,225,2,1,-151019.20935233062,-4789660.845674361,4200005.485807896,2.34594,2.8789,-0.32856,-80.5,27.5,24.75,-0.140625,-6.25,6.1875,0.0761719,-0.0253906,0.0117188,4,0,41.42383514918851,-91.80595200958612,10772.585893440497,-67.29791243892721,2.916462652143745,1.3687076590133178,147.011,8987.758710775177,10858.05979093449,150,True,14.921001812918584,False,29.41906015489674,170.0615242682315,False,160.44674564253108,False,False
3,1970-07-23 09:46:47.721286667,2025-09-09,2025-09-26 17:59:32.128,HH,C,1675332080,JASSM,3,101,76,2,2,1,225,9,2,0,1,26,0,0,0,0,-123477.61980592164,-4791557.154371557,4198394.757292271,2.29618,-3.09874,0.0775619,-81.5,-3.375,-6.25,0.0,0.0,0.0,0.0,0.0,0.0,2,0,41.40637518741929,-91.4761758650109,10000.000780463864,-95.93088583357974,0.0014079975008189,0.0022309641613717,,8987.758710775177,10858.05979093449,150,3,2025-09-09,2025-09-26 17:59:32.126,HH,C,3253424118,HAWK11,1,1,73,2,1,1,225,2,1,0,0,12,1,225,2,1,-151112.49646170562,-4789627.603486861,4200033.394011021,2.48591,2.85646,-0.343899,-80.25,28.75,24.75,-0.203125,-6.70312,6.71875,0.167969,0.00585938,0.0410156,4,0,41.42420379559167,-91.80707937069626,10758.662671608028,-65.82551297956454,2.63495200796074,9.035949988994089,148.05,8987.758710775177,10858.05979093449,150,True,14.929773773520413,False,30.00326146940573,169.9613026296883,False,159.93271015698835,False,False
3,1970-07-23 09:46:47.741248541,2025-09-09,2025-09-26 17:59:34.124,HH,C,1677719060,JASSM,3,101,76,2,2,1,225,9,2,0,1,26,0,0,0,0,-123641.02605592164,-4791564.149488744,4198382.050261021,2.29618,-3.09874,0.0775619,-81.5,-3.375,-6.25,0.0,0.0,0.0,0.0,0.0,0.0,2,0,41.40622271679521,-91.47812636492452,10000.00050740423,-95.93217588313908,0.0028788710743286,0.0022314373565206,,8987.758710775177,10858.05979093449,150,3,2025-09-09,2025-09-26 17:59:34.236,HH,C,3255969182,HAWK11,1,1,73,2,1,1,225,2,1,0,0,12,1,225,2,1,-151284.18591483062,-4789562.251924361,4200086.237761021,2.40931,2.82502,-0.343803,-79.75,31.625,25.75,0.0,-6.53125,6.51562,-0.0507812,-0.00976562,-0.00195312,4,0,41.42491705384831,-91.8091558244987,10726.00898779263,-64.65866154298298,1.406049182221188,4.080661114926779,149.48,8987.758710775177,10858.05979093449,150,True,14.93927247264957,False,31.739559930438922,169.76443272669084,False,158.34704899382416,False,False
3,1970-07-23 09:46:47.747562730,2025-09-09,2025-09-26 17:59:34.756,HH,C,1676465474,JASSM,3,101,76,2,2,1,225,9,2,0,1,26,0,0,0,0,-123555.20574342164,-4791560.476637182,4198388.724089146,2.29618,-3.09874,0.0775619,-81.5,-3.375,-6.25,0.0,0.0,0.0,0.0,0.0,0.0,2,0,41.40630279317857,-91.47710197097103,10000.001596685015,-95.931498355286,0.0021063743859129,0.0022311935232346,,8987.758710775177,10858.05979093449,150,3,2025-09-09,2025-09-26 17:59:34.831,HH,C,3256645214,HAWK11,1,1,73,2,1,1,225,2,1,0,0,12,1,225,2,1,-151329.91638358062,-4789543.741182174,4200100.751432896,2.384,2.82262,-0.335942,-80.0,32.125,26.0,-0.203125,-6.51562,6.70312,-0.0253906,-0.00390625,0.00585938,4,0,41.42511655702021,-91.80970932546812,10715.551897255033,-64.89324525360556,1.0005214597186145,2.579758606749391,149.932,8987.758710775177,10858.05979093449,150,True,15.010600748536467,False,31.970974078966847,169.75796938920195,False,158.11796667232048,False,False
3,1970-07-23 09:46:47.756781711,2025-09-09,2025-09-26 17:59:35.678,HH,C,1679030410,JASSM,3,101,76,2,2,1,225,9,2,0,1,26,0,0,0,0,-123730.79558717164,-4791567.991285619,4198375.067839146,2.29618,-3.09874,0.0775619,-81.5,-3.375,-6.25,0.0,0.0,0.0,0.0,0.0,0.0,2,0,41.40613893616047,-91.47919789604757,10000.000059229673,-95.93288458607252,0.0036869169906901,0.0022317019866856,,8987.758710775177,10858.05979093449,150,3,2025-09-09,2025-09-26 17:59:35.220,HH,C,3257082648,HAWK11,1,1,73,2,1,1,225,2,1,0,0,12,1,225,2,1,-151359.84607108062,-4789531.515596236,4200110.306120396,2.38112,2.8184,-0.336325,-80.125,32.5,26.0,-0.34375,-6.70312,6.59375,0.00390625,-0.0078125,0.00585938,4,0,41.42524816158259,-91.8100716248382,10708.557627371283,-64.71901493217578,0.8521050645953601,2.33805240304412,150.286,8987.758710775177,10858.05979093449,150,True,14.934193680851475,False,32.08954599736829,169.66730283193365,False,158.078532812559,False,False
3,1970-07-23 09:46:47.763304078,2025-09-09,2025-09-26 17:59:36.330,HH,C,1680343036,JASSM,3,101,76,2,2,1,225,9,2,0,1,26,0,0,0,0,-123820.65496217164,-4791571.835035619,4198368.079557896,2.29618,-3.09874,0.0775619,-81.5,-3.375,-6.25,0.0,0.0,0.0,0.0,0.0,0.0,2,0,41.40605508055778,-91.48027049741448,10000.001582440178,-95.93359399567828,0.0044957701171642,0.0022319480986672,,8987.758710775177,10858.05979093449,150,3,2025-09-09,2025-09-26 17:59:36.830,HH,C,3259031212,HAWK11,1,1,73,2,1,1,225,2,1,0,0,12,1,225,2,1,-151490.53161795562,-4789476.690400924,4200153.979948521,2.67795,2.78859,-0.366813,-79.625,34.5,28.125,-0.25,-7.20312,7.29688,0.111328,0.00390625,0.0429688,4,0,41.425844564479625,-91.81165414107684,10678.717902541894,-62.34956082323741,0.9281681676936024,18.79330234696432,151.802,8987.758710775177,10858.05979093449,150,False,14.960276757067858,False,33.85811663804735,169.51854961996776,False,156.47451155772572,False,False
3,1970-07-23 09:46:47.773341930,2025-09-09,2025-09-26 17:59:37.334,HH,C,1681595950,JASSM,3,101,76,2,2,1,225,9,2,0,1,26,0,0,0,0,-123906.42839967164,-4791575.503980932,4198361.405729771,2.29618,-3.09874,0.0775619,-81.5,-3.375,-6.25,0.0,0.0,0.0,0.0,0.0,0.0,2,0,41.40597500641827,-91.481294324654,9999.999690290866,-95.93427114537894,0.0052678467139894,0.0022322050884336,,8987.758710775177,10858.05979093449,150,3,2025-09-09,2025-09-26 17:59:37.220,HH,C,3259468644,HAWK11,1,1,73,2,1,1,225,2,1,0,0,12,1,225,2,1,-151520.20056326812,-4789463.486299361,4200164.534636021,2.70537,2.77478,-0.380331,-79.125,35.5,28.875,-0.25,-7.39062,7.21875,0.046875,0.0253906,0.0488281,4,0,41.42598878390339,-91.81201370355562,10671.471309693814,-61.28112764574097,0.9512331374319994,20.093181052033323,151.948,8987.758710775177,10858.05979093449,150,False,14.931572238912638,False,34.69117328596672,169.45788073114042,False,155.69865576710302,False,False
3,1970-07-23 09:46:47.809902417,2025-09-09,2025-09-26 17:59:40.990,HH,C,1682967852,JASSM,3,101,76,2,2,1,225,9,2,0,1,26,0,0,0,0,-124000.34636842164,-4791579.519605932,4198354.099089146,2.29608,-3.09874,0.0775619,-81.5,-3.375,-6.25,0.0,0.0,0.0,0.0,0.0,0.0,2,0,41.4058873346284,-91.48241536603096,9999.999739930849,-95.935012590362,0.0061132338083362,-0.0032590016863284,,8987.758710775177,10858.05979093449,150,3,2025-09-09,2025-09-26 17:59:41.532,HH,C,3264678072,HAWK11,1,1,73,2,1,1,225,2,1,0,0,12,1,225,2,1,-151842.87536795562,-4789284.008760299,4200330.878386021,3.10315,2.5327,-0.632479,-64.5,47.125,49.25,-0.296875,-9.73438,10.1094,0.0410156,0.0585938,0.0722656,4,0,41.4281185825654,-91.81593795978738,10616.41208330078,-42.62233861606919,3.505779144035814,36.81006128111883,156.079,8987.758710775177,10858.05979093449,150,False,15.06853325994509,False,51.39784752212374,168.99336854589072,False,139.59519606686393,False,False
3,1970-07-23 09:46:47.810030000,2025-09-09,2025-09-26 17:59:41.003,HH,C,1684279816,JASSM,3,101,76,2,2,1,225,9,2,0,1,26,0,0,0,0,-124090.15886842164,-4791583.358473119,4198347.110807896,2.29608,-3.09874,0.0775619,-81.5,-3.375,-6.25,0.0,0.0,0.0,0.0,0.0,0.0,2,0,41.40580348530703,-91.48348740049582,9999.998799059744,-95.9357216214813,0.0069216664704913,-0.0032587482142363,,8987.758710775177,10858.05979093449,150,3,2025-09-09,2025-09-26 17:59:41.532,HH,C,3264678072,HAWK11,1,1,73,2,1,1,225,2,1,0,0,12,1,225,2,1,-151842.87536795562,-4789284.008760299,4200330.878386021,3.10315,2.5327,-0.632479,-64.5,47.125,49.25,-0.296875,-9.73438,10.1094,0.0410156,0.0585938,0.0722656,4,0,41.4281185825654,-91.81593795978738,10616.41208330078,-42.62233861606919,3.505779144035814,36.81006128111883,156.079,8987.758710775177,10858.05979093449,150,False,15.020945767216567,False,51.39784752212374,168.95773014949359,False,139.63078406654685,False,False
3,1970-07-23 09:46:47.818728956,2025-09-09,2025-09-26 17:59:41.872,HH,C,1685532516,JASSM,3,101,76,2,2,1,225,9,2,0,1,26,0,0,0,0,-124175.91668092164,-4791587.024488744,4198340.436979771,2.29608,-3.09883,0.0775619,-81.5,-3.375,-6.25,0.0,0.0,0.0,0.0,0.0,0.0,2,0,41.40572340238226,-91.48451103403023,10000.000665619074,-95.93276661061276,0.0035968258188916,-0.0028326364579614,,8987.758710775177,10858.05979093449,150,3,2025-09-09,2025-09-26 17:59:41.924,HH,C,3265115506,HAWK11,1,1,73,2,1,1,225,2,1,0,0,12,1,225,2,1,-151865.67712576812,-4789266.876924361,4200349.048307896,3.13977,2.50259,-0.656544,-62.25,48.0,51.25,-0.15625,-9.64062,9.90625,0.0566406,0.0644531,0.0644531,4,0,41.428338847254544,-91.81621696322004,10615.512347837754,-40.68110901703954,3.724811152368589,37.99446883640797,155.981,8987.758710775177,10858.05979093449,150,False,14.989208081614457,False,53.27014183965302,168.87758129679767,False,137.84353086478686,False,False
3,1970-07-23 09:46:47.828362796,2025-09-09,2025-09-26 17:59:42.836,HH,C,1688097564,JASSM,3,101,76,2,2,1,225,9,2,0,1,26,0,0,0,0,-124351.51043092164,-4791594.526441869,4198326.770964146,2.29608,-3.09883,0.0776578,-81.5,-3.375,-6.25,0.0,0.0,0.0,0.0,0.0,0.0,2,0,41.40555941940825,-91.48660697246714,10000.003355097258,-95.93826325598484,0.0015333065294133,-0.0028322808986451,,8987.758710775177,10858.05979093449,150,3,2025-09-09,2025-09-26 17:59:42.720,HH,C,3265990372,HAWK11,1,1,73,2,1,1,225,2,1,0,0,12,1,225,2,1,-151910.09802420562,-4789230.206025924,4200388.989714146,-3.07381,2.43884,-0.69777,-57.5,50.375,55.125,-0.234375,-9.57812,9.78125,0.0273438,0.0742188,0.0664062,4,0,41.42881822694545,-91.81676175439785,10615.522458679889,-36.97842469816547,3.892850806717069,39.93876422550596,155.211,8987.758710775177,10858.05979093449,150,False,14.923287852541046,False,57.24453320389603,168.70548001879973,False,134.04526695461436,False,False
3,1970-07-23 09:46:47.850322193,2025-09-09,2025-09-26 17:59:45.032,HH,C,1690722876,JASSM,3,101,76,2,2,1,225,9,2,0,1,26,0,0,0,0,-124531.23308717164,-4791602.200269994,4198312.778776646,2.29608,-3.09883,0.0776578,-81.5,-3.375,-6.25,0.0,0.0,0.0,0.0,0.0,0.0,2,0,41.405391535331496,-91.48875218522667,10000.001017104749,-95.93968206438794,0.0031510534980216,-0.0028317809794209,,8987.758710775177,10858.05979093449,150,3,2025-09-09,2025-09-26 17:59:45.034,HH,C,3268853568,HAWK11,1,1,73,2,1,1,225,2,1,0,0,12,1,225,2,1,-152027.15857108062,-4789098.833955611,4200534.589323521,-2.8511,2.1701,-0.795369,-39.75,57.875,64.5,-0.09375,-8.5625,8.79688,0.0078125,0.0390625,0.0742188,4,0,41.43056045866471,-91.81821063665032,10617.74657249374,-24.42454844306177,2.7956862008796306,42.9316536703151,153.586,8987.758710775177,10858.05979093449,150,False,14.903303287351196,False,70.2069223001438,168.2559798224088,False,121.53365579835909,False,False
3,1970-07-23 09:46:47.860418512,2025-09-09,2025-09-26 17:59:46.041,HH,C,1691975648,JASSM,3,101,76,2,2,1,225,9,2,0,1,26,0,0,0,0,-124616.99480592164,-4791605.861402807,4198306.101042271,2.29608,-3.09883,0.0776578,-81.5,-3.375,-6.25,0.0,0.0,0.0,0.0,0.0,0.0,2,0,41.405311407646025,-91.48977585402076,10000.002219063956,-95.94035910040913,0.0039230252556031,-0.0028315412817972,,8987.758710775177,10858.05979093449,150,3,2025-09-09,2025-09-26 17:59:46.036,HH,C,3270006800,HAWK11,1,1,73,2,1,1,225,2,1,0,0,12,1,225,2,1,-152061.81189139312,-4789040.517549361,4200597.394011021,-2.75771,2.04796,-0.818475,-32.5,61.0,66.5,-0.234375,-8.71875,9.10938,-0.00195312,0.0917969,0.0800781,4,0,41.43132477568771,-91.81864693491256,10613.423873348269,-19.45998713389049,2.046975414734268,43.43466494802392,153.537,8987.758710775177,10858.05979093449,150,False,14.882252770664989,False,75.02725773882833,168.05192841827557,False,116.91291556338595,False,False
3,1970-07-23 09:46:47.866201449,2025-09-09,2025-09-26 17:59:46.620,HH,C,1686844864,JASSM,3,101,76,2,2,1,225,9,2,0,1,26,0,0,0,0,-124265.75652467164,-4791590.862379369,4198333.444792271,2.29608,-3.09883,0.0775619,-81.5,-3.375,-6.25,0.0,0.0,0.0,0.0,0.0,0.0,2,0,41.40563950875685,-91.48558339015308,9999.99875018975,-95.93347585217896,0.0044055050338867,-0.002832332378259,,8987.758710775177,10858.05979093449,150,3,2025-09-09,2025-09-26 17:59:46.724,HH,C,3270762366,HAWK11,1,1,73,2,1,1,225,2,1,0,0,12,1,225,2,1,-152080.37536795562,-4789000.731416549,4200640.188932896,-2.68926,1.94394,-0.856537,-26.75,62.75,68.375,-0.4375,-9.8125,10.7969,-0.015625,0.107422,0.0820312,4,0,41.43184682724791,-91.81888390414068,10609.964974827571,-14.97169037046231,2.784018155736881,43.11527387600915,155.016,8987.758710775177,10858.05979093449,150,False,15.081639196993464,False,78.7535242708949,168.0886469025369,False,113.14950538515782,False,False
3,1970-07-23 09:46:47.882441874,2025-09-09,2025-09-26 17:59:48.244,HH,C,1694540016,JASSM,3,101,76,2,2,1,225,9,2,0,1,26,0,0,0,0,-124792.54558717164,-4791613.351637182,4198292.429167271,2.29608,-3.09883,0.0776578,-81.5,-3.375,-6.25,0.0,0.0,0.0,0.0,0.0,0.0,2,0,41.4051473655958,-91.49187125616422,10000.000691196834,-95.94174495812032,0.0055032208113045,-0.0028310550899057,,8987.758710775177,10858.05979093449,150,3,2025-09-09,2025-09-26 17:59:48.171,HH,C,3272034898,HAWK11,1,1,73,2,1,1,225,2,1,0,0,12,1,225,2,1,-152103.17224295562,-4788933.284150924,4200715.489714146,-2.60662,1.78009,-0.904761,-16.625,63.5,72.0,-0.21875,-9.85938,11.1875,-0.0585938,0.0722656,0.0507812,4,0,41.43275204571939,-91.81918197572828,10609.405152623996,-8.50314810703713,4.04064898910017,40.987776621767296,155.651,8987.758710775177,10858.05979093449,150,False,14.822822689081626,False,85.02932301989811,167.65702690267872,False,107.31142153527966,False,False
3,1970-07-23 09:46:47.897220790,2025-09-09,2025-09-26 17:59:49.722,HH,C,1693287316,JASSM,3,101,76,2,2,1,225,9,2,0,1,26,0,0,0,0,-124706.78777467164,-4791609.693434057,4198299.106901646,2.29608,-3.09883,0.0776578,-81.5,-3.375,-6.25,0.0,0.0,0.0,0.0,0.0,0.0,2,0,41.4052274938882,-91.49084763828569,9999.99915563286,-95.94106795797724,0.0047312850414702,-0.0028312804710562,,8987.758710775177,10858.05979093449,150,3,2025-09-09,2025-09-26 17:59:50.334,HH,C,3275096928,HAWK11,1,1,73,2,1,1,225,2,1,0,0,12,1,225,2,1,-152113.26892264312,-4788767.186494674,4200907.411589146,-2.25946,1.37301,-0.91013,7.5,64.125,75.875,-0.328125,-8.875,10.0312,0.0292969,0.0585938,0.0742188,4,0,41.43503371365167,-91.81936571255376,10618.531604156498,5.834700292265189,3.9449153280903904,43.40806149527597,155.749,8987.758710775177,10858.05979093449,150,False,14.892085086095795,False,99.19156244861915,167.17719792308014,False,93.63122014588498,False,False
3,1970-07-23 09:46:47.899222192,2025-09-09,2025-09-26 17:59:49.922,HH,C,1689351338,JASSM,3,101,76,2,2,1,225,9,2,0,1,26,0,0,0,0,-124437.34246217164,-4791598.191480932,4198320.089323521,2.29608,-3.09883,0.0776578,-81.5,-3.375,-6.25,0.0,0.0,0.0,0.0,0.0,0.0,2,0,41.405479250333904,-91.48763148551762,10000.002206261326,-95.93894085264024,0.0023059104240581,-0.0028320462324804,,8987.758710775177,10858.05979093449,150,3,2025-09-09,2025-09-26 17:59:50.334,HH,C,3275096928,HAWK11,1,1,73,2,1,1,225,2,1,0,0,12,1,225,2,1,-152113.26892264312,-4788767.186494674,4200907.411589146,-2.25946,1.37301,-0.91013,7.5,64.125,75.875,-0.328125,-8.875,10.0312,0.0292969,0.0585938,0.0742188,4,0,41.43503371365167,-91.81936571255376,10618.531604156498,5.834700292265189,3.9449153280903904,43.40806149527597,155.749,8987.758710775177,10858.05979093449,150,False,15.033937748853317,False,99.19156244861915,167.30123690639144,False,93.50718114769603,False,False
3,1970-07-23 09:46:47.900049661,2025-09-09,2025-09-26 17:59:50.004,HH,C,1695793456,JASSM,3,101,76,2,2,1,225,9,2,0,1,26,0,0,0,0,-124878.35418092164,-4791617.011793432,4198285.745573521,2.29608,-3.09883,0.0776578,-81.5,-3.375,-6.25,0.0,0.0,0.0,0.0,0.0,0.0,2,0,41.40506716914769,-91.49289547772382,10000.00137851475,-95.94242235644678,0.0062756149409724,-0.0028308180155705,,8987.758710775177,10858.05979093449,150,3,2025-09-09,2025-09-26 17:59:50.334,HH,C,3275096928,HAWK11,1,1,73,2,1,1,225,2,1,0,0,12,1,225,2,1,-152113.26892264312,-4788767.186494674,4200907.411589146,-2.25946,1.37301,-0.91013,7.5,64.125,75.875,-0.328125,-8.875,10.0312,0.0292969,0.0585938,0.0742188,4,0,41.43503371365167,-91.81936571255376,10618.531604156498,5.834700292265189,3.9449153280903904,43.40806149527597,155.749,8987.758710775177,10858.05979093449,150,False,14.801798553258378,False,99.19156244861915,167.09698394797175,False,93.71143411286728,False,False
3,1970-07-23 09:46:47.906023064,2025-09-09,2025-09-26 17:59:50.602,HH,C,1697046248,JASSM,3,101,76,2,2,1,225,9,2,0,1,26,0,0,0,0,-124964.11589967164,-4791620.669996557,4198279.063932896,2.29608,-3.09893,0.0776578,-81.5,-3.375,-6.25,0.0,0.0,0.0,0.0,0.0,0.0,2,0,41.40498699566108,-91.4939191372464,10000.00230207022,-95.93946741060016,0.0029508151344956,-0.0024042254323436,,8987.758710775177,10858.05979093449,150,3,2025-09-09,2025-09-26 17:59:50.629,HH,C,3275494594,HAWK11,1,1,73,2,1,1,225,2,1,0,0,12,1,225,2,1,-152110.26696951812,-4788746.123994674,4200932.132292271,-2.21056,1.32037,-0.903898,10.375,63.875,76.0,-0.203125,-8.79688,9.9375,0.0234375,0.0644531,0.0703125,4,0,41.43532644404372,-91.81933782816895,10620.189497803533,7.728988812060752,3.85879552558972,43.96287281307007,155.7,8987.758710775177,10858.05979093449,150,False,14.757588425711186,False,100.84273243644935,166.98846166082978,False,92.16880418238692,False,False
3,1970-07-23 09:46:47.915061770,2025-09-09,2025-09-26 17:59:51.506,HH,C,1698298960,JASSM,3,101,76,2,2,1,225,9,2,0,1,26,0,0,0,0,-125049.87371217164,-4791624.326246557,4198272.382292271,2.29608,-3.09893,0.0776578,-81.5,-3.375,-6.25,0.0,0.0,0.0,0.0,0.0,0.0,2,0,41.4049068252944,-91.49494274818396,10000.001976177587,-95.94014440293296,0.0037227529002638,-0.0024039363942298,,8987.758710775177,10858.05979093449,150,3,2025-09-09,2025-09-26 17:59:50.629,HH,C,3275494594,HAWK11,1,1,73,2,1,1,225,2,1,0,0,12,1,225,2,1,-152110.26696951812,-4788746.123994674,4200932.132292271,-2.21056,1.32037,-0.903898,10.375,63.875,76.0,-0.203125,-8.79688,9.9375,0.0234375,0.0644531,0.0703125,4,0,41.43532644404372,-91.81933782816895,10620.189497803533,7.728988812060752,3.85879552558972,43.96287281307007,155.7,8987.758710775177,10858.05979093449,150,False,14.712489383470007,False,100.84273243644935,166.94754170937136,False,92.20972411521886,False,False
3,1970-07-23 09:46:47.925025674,2025-09-09,2025-09-26 17:59:52.502,HH,C,1699610462,JASSM,3,101,76,2,2,1,225,9,2,0,1,26,0,0,0,0,-125139.65496217164,-4791628.152418432,4198265.386198521,2.29608,-3.09893,0.0776578,-81.5,-3.375,-6.25,0.0,0.0,0.0,0.0,0.0,0.0,2,0,41.404822886904135,-91.4960143809461,9999.99962136138,-95.94085315462225,0.0045309071880067,-0.0024036368111768,,8987.758710775177,10858.05979093449,150,3,2025-09-09,2025-09-26 17:59:52.428,HH,C,3277482926,HAWK11,1,1,73,2,1,1,225,2,1,0,0,12,1,225,2,1,-152078.77966483062,-4788637.305635299,4201056.931120396,-2.04623,1.07388,-0.845799,26.0,63.625,74.25,-0.0625,-8.73438,9.98438,-0.0664062,0.0703125,0.0820312,4,0,41.43682214402981,-91.81900277935688,10621.17730472058,17.328571596279158,2.9253124754296875,43.08183587419335,156.812,8987.758710775177,10858.05979093449,150,False,14.661803707798226,False,109.75545094872797,166.55042801612257,False,83.69325196349625,False,False
3,1970-07-23 09:46:47.937823631,2025-09-09,2025-09-26 17:59:53.782,HH,C,1700863756,JASSM,3,101,76,2,2,1,225,9,2,0,1,26,0,0,0,0,-125225.45183717164,-4791631.808668432,4198258.700651646,2.29608,-3.09893,0.0777537,-81.5,-3.375,-6.25,0.0,0.0,0.0,0.0,0.0,0.0,2,0,41.40474266545338,-91.49703845350174,10000.001120521889,-95.94564089898344,0.0016591284735946,-0.0024036014161127,,8987.758710775177,10858.05979093449,150,3,2025-09-09,2025-09-26 17:59:53.928,HH,C,3279431490,HAWK11,1,1,73,2,1,1,225,2,1,0,0,12,1,225,2,1,-152023.96911795562,-4788534.057588424,4201174.761198521,-2.00443,0.878683,-0.790192,39.75,60.75,72.125,-0.1875,-8.6875,9.82812,-0.0703125,0.0527344,0.0664062,4,0,41.43824207617349,-91.81838681474676,10618.921612941063,25.612701617597672,3.07091348715106,37.73380828264381,157.826,8987.758710775177,10858.05979093449,150,False,14.600771430853285,False,117.72924447264792,166.1635170177836,False,76.1070576737118,False,False
3,1970-07-23 09:46:47.946223217,2025-09-09,2025-09-26 17:59:54.622,HH,C,1702176102,JASSM,3,101,76,2,2,1,225,9,2,0,1,26,0,0,0,0,-125315.29168092164,-4791635.636793432,4198251.698698521,2.29608,-3.09893,0.0777537,-81.5,-3.375,-6.25,0.0,0.0,0.0,0.0,0.0,0.0,2,0,41.404658647251,-91.49811078041196,10000.002783045791,-95.946350107473,0.0024678109238108,-0.00240335412652,,8987.758710775177,10858.05979093449,150,3,2025-09-09,2025-09-26 17:59:54.227,HH,C,3279709856,HAWK11,1,1,73,2,1,1,225,2,1,0,0,12,1,225,2,1,-152014.00134451812,-4788519.108369674,4201192.019011021,-2.00137,0.852318,-0.782522,41.75,60.375,71.5,-0.125,-8.64062,9.8125,-0.0566406,0.0546875,0.0527344,4,0,41.43844938182511,-91.81827334101663,10618.865962840491,26.763156897597195,3.182614902858301,36.90312352761889,158.156,8987.758710775177,10858.05979093449,150,False,14.550360055183862,False,118.91451907295102,166.06642010244596,False,75.0187479949694,False,False
3,1970-07-23 09:46:47.968280399,2025-09-09,2025-09-26 17:59:56.828,HH,C,1704801128,JASSM,3,101,76,2,2,1,225,9,2,0,1,26,0,0,0,0,-125494.99450858062,-4791643.289033736,4198237.688932896,2.29608,-3.09893,0.0777537,-81.5,-3.375,-6.25,0.0,0.0,0.0,0.0,0.0,0.0,2,0,41.40449056156196,-91.50025570370448,9999.997550821625,-95.94776869912408,0.0040853850751366,-0.0024028618252715,,8987.758710775177,10858.05979093449,150,3,2025-09-09,2025-09-26 17:59:56.928,HH,C,3283010486,HAWK11,1,1,73,2,1,1,225,2,1,0,0,12,1,225,2,1,-151867.25036795562,-4788358.059541549,4201378.216276646,-1.85391,0.593938,-0.672651,61.625,52.75,65.625,-0.171875,-8.60938,9.6875,-0.00390625,0.0410156,0.0605469,4,0,41.44069199874551,-91.81658025127736,10615.820295144618,39.4595368894644,3.956123440029077,36.25419894581077,160.063,8987.758710775177,10858.05979093449,150,False,14.400483904227306,False,131.09379981113779,165.40281951996164,False,63.502203795727766,False,False
3,1970-07-23 09:46:47.979284489,2025-09-09,2025-09-26 17:59:57.928,HH,C,1706113094,JASSM,3,101,76,2,2,1,225,9,2,0,1,26,0,0,0,0,-125584.80700858062,-4791647.113252486,4198230.686979771,2.29608,-3.09893,0.0777537,-81.5,-3.375,-6.25,0.0,0.0,0.0,0.0,0.0,0.0,2,0,41.404406540879954,-91.50132769681028,10000.00037176357,-95.94847768329606,0.0048938218694386,-0.0024026164776712,,8987.758710775177,10858.05979093449,150,3,2025-09-09,2025-09-26 17:59:57.834,HH,C,3283845586,HAWK11,1,1,73,2,1,1,225,2,1,0,0,12,1,225,2,1,-151820.78454764312,-4788320.196260299,4201422.864714146,-1.83704,0.55137,-0.636314,66.25,50.75,63.375,-0.265625,-8.14062,9.10938,-0.015625,0.0429688,0.0625,4,0,41.441227389585,-91.81603916689954,10616.072757978449,42.27358304512399,3.516350985156864,35.91932658658762,160.063,8987.758710775177,10858.05979093449,150,False,14.334423361918848,False,134.1077977234077,165.21263467506316,False,60.67830251319899,False,False
3,1970-07-23 09:46:47.989321312,2025-09-09,2025-09-26 17:59:58.932,HH,C,1707366344,JASSM,3,101,76,2,2,1,225,9,2,0,1,26,0,0,0,0,-125670.60388358062,-4791650.764619674,4198223.997526646,2.29608,-3.09893,0.0777537,-81.5,-3.375,-6.25,0.0,0.0,0.0,0.0,0.0,0.0,2,0,41.40432627481996,-91.5023517578187,10000.00114653659,-95.94915496550892,0.005666112173391,-0.0024023893553075,,8987.758710775177,10858.05979093449,150,3,2025-09-09,2025-09-26 17:59:59.040,HH,C,3285436250,HAWK11,1,1,73,2,1,1,225,2,1,0,0,12,1,225,2,1,-151726.45056326812,-4788253.432588424,4201502.052214146,-1.80502,0.454058,-0.574188,73.625,46.25,59.75,-0.265625,-8.39062,9.39062,-0.0214844,0.0527344,0.0449219,4,0,41.442176869343335,-91.81493681296728,10616.557073877144,48.08357452087846,3.7640856910897806,34.94774161845208,160.955,8987.758710775177,10858.05979093449,150,False,14.249611538113625,False,139.1655202998572,164.90885426832648,False,55.92037831910721,False,False
3,1970-07-23 09:46:48.007540461,2025-09-09,2025-09-26 18:00:00.754,HH,C,1708737268,JASSM,3,101,76,2,2,1,225,9,2,0,1,26,0,0,0,0,-125764.45153983062,-4791654.757783736,4198216.679167271,2.29608,-3.09902,0.0777537,-81.5,-3.375,-6.25,0.0,0.0,0.0,0.0,0.0,0.0,2,0,41.40423846337467,-91.50347190934136,10000.001711425915,-95.94626388416548,0.0024141013509435,-0.0019753029637666,,8987.758710775177,10858.05979093449,150,3,2025-09-09,2025-09-26 18:00:01.127,HH,C,3287782482,HAWK11,1,1,73,2,1,1,225,2,1,0,0,12,1,225,2,1,-151568.76013358062,-4788166.530244674,4201607.501432896,-1.81115,0.327984,-0.482916,84.0,39.125,51.75,-0.28125,-8.46875,9.4375,-0.0722656,0.0507812,0.0429688,4,0,41.44343533856725,-91.81308467904952,10619.64503573134,56.22726711245895,4.227318717604812,31.514559591444662,162.262,8987.758710775177,10858.05979093449,150,False,14.130811351339233,False,147.23604691936845,164.50055342205636,False,48.25571267739405,False,False
3,1970-07-23 09:46:48.012223096,2025-09-09,2025-09-26 18:00:01.222,HH,C,1709989966,JASSM,3,101,76,2,2,1,225,9,2,0,1,26,0,0,0,0,-125850.20935233062,-4791658.406221236,4198209.989714146,2.29608,-3.09902,0.0777537,-81.5,-3.375,-6.25,0.0,0.0,0.0,0.0,0.0,0.0,2,0,41.40415820176536,-91.50449549922652,10000.0007309736,-95.94694085254662,0.0031860416901466,-0.0019750140221791,,8987.758710775177,10858.05979093449,150,3,2025-09-09,2025-09-26 18:00:01.164,HH,C,3287384816,HAWK11,1,1,73,2,1,1,225,2,1,0,0,12,1,225,2,1,-151596.27185233062,-4788179.860322799,4201590.476042271,-1.80051,0.348789,-0.497297,82.625,40.5,52.75,-0.234375,-8.40625,9.45312,-0.0371094,0.0488281,0.0625,4,0,41.44323593900011,-91.813408512904,10617.58194055587,54.89587419480776,4.07795325153156,32.58900680918109,162.36,8987.758710775177,10858.05979093449,150,False,14.098586283779937,False,146.0794941290965,164.5074659786985,False,49.408047711165736,False,False
3,1970-07-23 09:46:48.022845953,2025-09-09,2025-09-26 18:00:02.284,HH,C,1711242906,JASSM,3,101,76,2,2,1,225,9,2,0,1,26,0,0,0,0,-125935.97888358062,-4791662.053682174,4198203.300261021,2.29608,-3.09902,0.0777537,-81.5,-3.375,-6.25,0.0,0.0,0.0,0.0,0.0,0.0,2,0,41.40407793502728,-91.50551922692802,10000.001911492222,-95.94761791099629,0.0039580863219813,-0.0019747399096151,,8987.758710775177,10858.05979093449,150,3,2025-09-09,2025-09-26 18:00:02.074,HH,C,3288617580,HAWK11,1,1,73,2,1,1,225,2,1,0,0,12,1,225,2,1,-151507.81189139312,-4788139.274385299,4201641.718229771,-1.85449,0.288005,-0.455592,87.0,36.25,49.125,-0.15625,-8.34375,9.375,-0.0976562,0.046875,0.046875,4,0,41.44383991748584,-91.81236640450676,10622.208483193815,58.78600968389653,4.571837583888413,28.191896546548563,162.69,8987.758710775177,10858.05979093449,150,False,14.013866590434738,False,149.86567295922882,164.27939312767774,False,45.842285228062124,False,False
3,1970-07-23 09:46:48.033262104,2025-09-09,2025-09-26 18:00:03.326,HH,C,1712555016,JASSM,3,101,76,2,2,1,225,9,2,0,1,26,0,0,0,0,-126025.80310233062,-4791665.873018111,4198196.292448521,2.29608,-3.09902,0.0777537,-81.5,-3.375,-6.25,0.0,0.0,0.0,0.0,0.0,0.0,2,0,41.403993852968455,-91.506591348029,10000.00125967334,-95.94832697402522,0.0047666300423413,-0.0019744418662184,,8987.758710775177,10858.05979093449,150,3,2025-09-09,2025-09-26 18:00:03.219,HH,C,3290407080,HAWK11,1,1,73,2,1,1,225,2,1,0,0,12,1,225,2,1,-151373.17224295562,-4788087.752900924,4201709.931120396,-1.961,0.229043,-0.40756,91.375,31.0,45.125,-0.203125,-7.79688,8.75,-0.0996094,0.0332031,0.0195312,4,0,41.44463216844867,-91.8107763624985,10633.224679546856,62.91139363451092,4.876236282070761,21.015020582784917,162.873,8987.758710775177,10858.05979093449,150,False,13.90496404041999,False,154.019770573646,163.98279671099112,False,41.96131131260003,False,False
3,1970-07-23 09:46:48.047939836,2025-09-09,2025-09-26 18:00:04.793,HH,C,1713807864,JASSM,3,101,76,2,2,1,225,9,2,0,1,26,0,0,0,0,-126111.56872733062,-4791669.518525924,4198189.601042271,2.29608,-3.09902,0.0777537,-81.5,-3.375,-6.25,0.0,0.0,0.0,0.0,0.0,0.0,2,0,41.40391356662992,-91.50761502450882,10000.000937954548,-95.94900399638806,0.0055386404309544,-0.0019741631556772,,8987.758710775177,10858.05979093449,150,3,2025-09-09,2025-09-26 18:00:04.722,HH,C,3292156810,HAWK11,1,1,73,2,1,1,225,2,1,0,0,12,1,225,2,1,-151234.29528983062,-4788043.592744674,4201770.841276646,-2.08871,0.202102,-0.383399,94.625,27.125,42.0,0.109375,-6.625,7.5,-0.105469,-0.0078125,0.0332031,4,0,41.44533210307726,-91.80913284895068,10646.160795875308,64.90391342158058,4.969879743117667,13.274384082399298,161.994,8987.758710775177,10858.05979093449,150,False,13.795178752462105,False,157.11170737067627,163.70483727596059,False,39.1187200093908,False,False
3,1970-07-23 09:46:48.055198061,2025-09-09,2025-09-26 18:00:05.519,HH,C,1715120066,JASSM,3,101,76,2,2,1,225,9,2,0,1,26,0,0,0,0,-126201.40075858062,-4791673.336885299,4198182.591276646,2.29608,-3.09902,0.0778495,-81.5,-3.375,-6.25,0.0,0.0,0.0,0.0,0.0,0.0,2,0,41.40382945644296,-91.50868723386496,10000.002313589534,-95.9538235917218,0.0027032176639889,-0.0019741884148242,,8987.758710775177,10858.05979093449,150,3,2025-09-09,2025-09-26 18:00:05.625,HH,C,3293270276,HAWK11,1,1,73,2,1,1,225,2,1,0,0,12,1,225,2,1,-151145.26013358062,-4788016.868135299,4201807.173307896,-2.18238,0.196541,-0.367772,95.875,26.5,40.375,0.015625,-6.3125,7.20312,-0.101562,0.00585938,0.00585938,4,0,41.445753041649866,-91.80807856255949,10652.459061741803,65.76509331721043,4.577996432591999,7.862357340042732,162.311,8987.758710775177,10858.05979093449,150,True,13.706600431161908,False,158.2231836982184,163.50867808838092,False,38.21513691001298,False,False
3,1970-07-23 09:46:48.067920279,2025-09-09,2025-09-26 18:00:06.792,HH,C,1716433292,JASSM,3,101,76,2,2,1,225,9,2,0,1,26,0,0,0,0,-126291.29919608062,-4791677.156221236,4198175.575651646,2.29608,-3.09902,0.0778495,-81.5,-3.375,-6.25,0.0,0.0,0.0,0.0,0.0,0.0,2,0,41.403745280486255,-91.5097602336396,10000.001859172546,-95.95453323239344,0.003512429720128,-0.0019739532430187,,8987.758710775177,10858.05979093449,150,3,2025-09-09,2025-09-26 18:00:06.831,HH,C,3294622342,HAWK11,1,1,73,2,1,1,225,2,1,0,0,12,1,225,2,1,-151035.26794608062,-4787985.405244674,4201850.884245396,-2.28592,0.190214,-0.371223,96.75,26.0,39.5,-0.109375,-6.65625,7.5,-0.0644531,0.00585938,-0.00390625,4,0,41.44625589346171,-91.80677551573088,10661.514933531558,65.85113942477494,4.961454010173598,1.8059579810251476,162.739,8987.758710775177,10858.05979093449,150,True,13.608073864736378,False,158.90974530938155,163.28091137514448,False,37.75928195368624,False,False
3,1970-07-23 09:46:48.076275944,2025-09-09,2025-09-26 18:00:07.627,HH,C,1717745884,JASSM,3,101,76,2,2,1,225,9,2,0,1,26,0,0,0,0,-126381.15466483062,-4791680.972627486,4198168.561979771,2.29608,-3.09902,0.0778495,-81.5,-3.375,-6.25,0.0,0.0,0.0,0.0,0.0,0.0,2,0,41.40366113188143,-91.51083271813285,9999.99982971426,-95.95524253109272,0.00432125556758,-0.0019737153065743,,8987.758710775177,10858.05979093449,150,3,2025-09-09,2025-09-26 18:00:07.830,HH,C,3295934640,HAWK11,1,1,73,2,1,1,225,2,1,0,0,12,1,225,2,1,-150928.74841483062,-4787955.551729049,4201892.364714146,-2.30375,0.197117,-0.339873,97.375,26.375,38.625,0.0625,-5.09375,5.89062,0.0371094,-0.0449219,0.03125,4,0,41.446733450254,-91.80551335824002,10669.95959049367,66.91859198652327,3.4683335054332933,1.000386347767569,162.69,8987.758710775177,10858.05979093449,150,True,13.511304641864387,False,159.29217750638554,163.05762831568563,False,37.61907417437353,False,False
3,1970-07-23 09:46:48.087298288,2025-09-09,2025-09-26 18:00:08.729,HH,C,1719057924,JASSM,3,101,76,2,2,1,225,9,2,0,1,26,0,0,0,0,-126470.97497733062,-4791684.787080611,4198161.550261021,2.29608,-3.09902,0.0778495,-81.5,-3.375,-6.25,0.0,0.0,0.0,0.0,0.0,0.0,2,0,41.40357700360544,-91.51190478039231,9999.99912883289,-95.95595154935886,0.0051297653493912,-0.0019734748477217,,8987.758710775177,10858.05979093449,150,3,2025-09-09,2025-09-26 18:00:08.719,HH,C,3296968572,HAWK11,1,1,73,2,1,1,225,2,1,0,0,12,1,225,2,1,-150843.65075858062,-4787931.206025924,4201924.153776646,-2.20193,0.202102,-0.312836,98.25,27.5,36.875,0.203125,-5.20312,5.95312,0.166016,-0.0078125,0.0136719,4,0,41.44710880709,-91.8045052042922,10672.561657741246,67.86737075886332,2.2137241946329427,6.972756087991098,163.888,8987.758710775177,10858.05979093449,150,True,13.424780038492052,False,159.82732989497742,162.86622787997607,False,37.30261771550915,False,False
3,1970-07-23 09:46:48.099939628,2025-09-09,2025-09-26 18:00:09.993,HH,C,1720430338,JASSM,3,101,76,2,2,1,225,9,2,0,1,26,0,0,0,0,-126564.92419608062,-4791688.776338424,4198154.216276646,2.29608,-3.09902,0.0778495,-81.5,-3.375,-6.25,0.0,0.0,0.0,0.0,0.0,0.0,2,0,41.40348900095738,-91.5130261209713,10000.001648494415,-95.9566931570296,0.005975440893407,-0.0019732268575389,,8987.758710775177,10858.05979093449,150,3,2025-09-09,2025-09-26 18:00:10.033,HH,C,3298559238,HAWK11,1,1,73,2,1,1,225,2,1,0,0,12,1,225,2,1,-150711.41247733062,-4787894.377900924,4201970.929167271,-2.05017,0.182831,-0.307084,100.25,26.5,34.25,0.0625,-6.59375,7.42188,0.0449219,-0.00195312,0.0410156,4,0,41.4476684030244,-91.802938173824,10673.384736480695,68.82735218850631,2.7595095648589063,15.37333482473126,165.036,8987.758710775177,10858.05979093449,150,False,13.313823882641984,False,161.53499613472582,162.60182139246143,False,35.86315130845979,False,False
3,1970-07-23 09:46:48.111919319,2025-09-09,2025-09-26 18:00:11.191,HH,C,1721801124,JASSM,3,101,76,2,2,1,225,9,2,0,1,26,0,0,0,0,-126658.76403983062,-4791692.758760299,4198146.888151646,2.29608,-3.09912,0.0778495,-81.5,-3.375,-6.25,0.0,0.0,0.0,0.0,0.0,0.0,2,0,41.40340108480864,-91.51414615376478,9999.997520639194,-95.95380204273332,0.002723366555837,-0.0015455948540455,,8987.758710775177,10858.05979093449,150,3,2025-09-09,2025-09-26 18:00:11.330,HH,C,3300229436,HAWK11,1,1,73,2,1,1,225,2,1,0,0,12,1,225,2,1,-150569.38122733062,-4787858.079072799,4202016.124479771,-2.04585,0.156658,-0.270843,102.625,24.625,31.125,0.140625,-6.70312,7.45312,-0.0507812,0.0078125,0.0078125,4,0,41.44821600138045,-91.80125384193693,10671.33110207013,71.3319014692388,2.4100222498474237,15.306107488958816,166.222,8987.758710775177,10858.05979093449,150,False,13.197899204290449,False,163.740670615106,162.3315155534096,False,33.92649942920851,False,False
3,1970-07-23 09:46:48.122179007,2025-09-09,2025-09-26 18:00:12.217,HH,C,1723113478,JASSM,3,101,76,2,2,1,225,9,2,0,1,26,0,0,0,0,-126748.60388358062,-4791696.571260299,4198139.874479771,2.29608,-3.09912,0.0778495,-81.5,-3.375,-6.25,0.0,0.0,0.0,0.0,0.0,0.0,2,0,41.40331692102017,-91.51521844146964,10000.001951070377,-95.95451120645384,0.0035320514040974,-0.0015453166234387,,8987.758710775177,10858.05979093449,150,3,2025-09-09,2025-09-26 18:00:12.126,HH,C,3301144068,HAWK11,1,1,73,2,1,1,225,2,1,0,0,12,1,225,2,1,-150490.25427420562,-4787839.536104049,4202039.280729771,-2.08813,0.144961,-0.264995,103.75,23.25,30.0,0.0625,-6.84375,7.64062,-0.0488281,0.0117188,0.0214844,4,0,41.44849742064925,-91.80031484118967,10669.92792579095,72.01663164328197,2.6614592961412,12.736517394101083,166.992,8987.758710775177,10858.05979093449,150,False,13.113827045267035,False,164.79908545074238,162.15760147163328,False,33.043048037325214,False,False
3,1970-07-23 09:46:48.132715721,2025-09-09,2025-09-26 18:00:13.271,HH,C,1724366680,JASSM,3,101,76,2,2,1,225,9,2,0,1,26,0,0,0,0,-126834.39685233062,-4791700.210908736,4198133.173307896,2.29608,-3.09912,0.0778495,-81.5,-3.375,-6.25,0.0,0.0,0.0,0.0,0.0,0.0,2,0,41.403236522556334,-91.51624242527568,9999.999884667794,-95.95518842300169,0.0043043106802372,-0.0015450344659006,,8987.758710775177,10858.05979093449,150,3,2025-09-09,2025-09-26 18:00:13.329,HH,C,3302575666,HAWK11,1,1,73,2,1,1,225,2,1,0,0,12,1,225,2,1,-150365.46130545562,-4787812.670869674,4202074.026823521,-2.08276,0.118021,-0.238534,105.375,21.375,28.125,0.0625,-6.84375,7.75,0.03125,0.00195312,0.0117188,4,0,41.44891510362204,-91.79883301105096,10669.717515894334,74.14731346950595,2.7504602899773163,12.760185669461498,169.155,8987.758710775177,10858.05979093449,150,False,13.00978942171272,False,166.3674564873673,161.92698289948035,False,31.705552438849296,False,False
