Subject_cm,Timestamp,SampleDate_cm,SampleTime_cm,Configuration_cm,Scenario_cm,DisTime_cm,MarkingTxt_cm,Application_cm,EntId_cm,Site_cm,ExerciseId_cm,ForceId_cm,Category_cm,Country_cm,Domain_cm,Kind_cm,Extra_cm,Specific_cm,Subcategory_cm,AltCategory_cm,AltCountry_cm,AltDomain_cm,AltKind_cm,ECEF_X_cm,ECEF_Y_cm,ECEF_Z_cm,OriPhi_cm,OriPsi_cm,OriTheta_cm,LinVelX_cm,LinVelY_cm,LinVelZ_cm,LinAccX_cm,LinAccY_cm,LinAccZ_cm,AngVelX_cm,AngVelY_cm,AngVelZ_cm,DrAlg_cm,Appearance_cm,Latitude_cm,Longitude_cm,Altitude_cm,Heading_cm,Pitch_cm,Roll_cm,CalibratedAirspeed_cm,CM_Altitude_Lead_cm,CM_Altitude_Wing_cm,CM_Airspeed_cm,Subject_ac,SampleDate_ac,SampleTime_ac,Configuration_ac,Scenario_ac,DisTime_ac,MarkingTxt_ac,Application_ac,EntId_ac,Site_ac,ExerciseId_ac,ForceId_ac,Category_ac,Country_ac,Domain_ac,Kind_ac,Extra_ac,Specific_ac,Subcategory_ac,AltCategory_ac,AltCountry_ac,AltDomain_ac,AltKind_ac,ECEF_X_ac,ECEF_Y_ac,ECEF_Z_ac,OriPhi_ac,OriPsi_ac,OriTheta_ac,LinVelX_ac,LinVelY_ac,LinVelZ_ac,LinAccX_ac,LinAccY_ac,LinAccZ_ac,AngVelX_ac,AngVelY_ac,AngVelZ_ac,DrAlg_ac,Appearance_ac,Latitude_ac,Longitude_ac,Altitude_ac,Heading_ac,Pitch_ac,Roll_ac,CalibratedAirspeed_ac,CM_Altitude_Lead_ac,CM_Altitude_Wing_ac,CM_Airspeed_ac,Bank_Angle_Condition,distance_nm,Distance_Condition,angle_between_vel,angle_between_pos,Cone_Condition,angle_between_pos_nose,Nose_Cone_Condition,Intercept_Criteria
3,1970-07-23 10:29:32.266961585,2025-09-12,2025-09-26 17:13:46.696,AH,C,1468578480,JASSM,3,104,76,2,2,1,225,9,2,0,1,26,0,0,0,0,-180659.54528983065,-4777947.649385299,4211723.958464146,-2.36693,-0.400848,0.381002,77.875,-32.875,-33.75,0.0,0.0,0.0,0.0,0.0,0.0,2,0,41.566500972672905,-92.1653859713928,10002.625599391004,119.79801360057168,-0.0038632568011123,0.0045546652133994,,9006.830035856614,10864.345111209012,150,3,2025-09-12,2025-09-26 17:13:46.726,AH,C,4272751710,HAWK11,1,1,73,2,1,1,225,2,1,0,0,12,1,225,2,1,-148481.02771170562,-4791904.646455611,4197594.782682896,2.41151,2.52397,-0.598924,-96.875,46.875,50.125,-0.015625,-6.64062,6.79688,0.00195312,-0.00195312,-0.0078125,4,0,41.39468644822112,-91.77478805029016,10864.595231815378,-43.48413027545746,1.7069250750731024,-3.146512254338242,191.2,9006.830035856614,10864.345111209012,150,True,20.34030261206189,False,175.81098650542125,179.45041606184685,False,3.733247949388824,True,False
3,1970-07-23 10:29:32.277238030,2025-09-12,2025-09-26 17:13:47.723,AH,C,1469831178,JASSM,3,104,76,2,2,1,225,9,2,0,1,26,0,0,0,0,-180577.71716483065,-4777982.338838424,4211688.352995396,-2.36693,-0.400848,0.381002,77.875,-32.875,-33.75,0.0,0.0,0.0,0.0,0.0,0.0,2,0,41.56607270527643,-92.16439041297714,10002.623221835614,119.79867413982018,-0.0030040505716137,0.0045531834727669,,9006.830035856614,10864.345111209012,150,3,2025-09-12,2025-09-26 17:13:47.727,AH,C,4274223074,HAWK11,1,1,73,2,1,1,225,2,1,0,0,12,1,225,2,1,-148601.51208670562,-4791846.131807174,4197656.823698521,2.40883,2.52311,-0.599978,-97.5,47.125,50.0,-0.15625,-6.92188,6.96875,0.0117188,0.00585938,-0.00390625,4,0,41.39543111413617,-91.77624894939932,10864.431561596428,-43.41543090938461,1.729892477251127,-3.325847442725526,191.591,9006.830035856614,10864.345111209012,150,True,20.20967352698727,False,175.96905759520982,179.4611588078814,False,3.5807527608746454,True,False
3,1970-07-23 10:29:32.288262673,2025-09-12,2025-09-26 17:13:48.826,AH,C,1471143528,JASSM,3,104,76,2,2,1,225,9,2,0,1,26,0,0,0,0,-180491.99353201807,-4778018.680635299,4211651.052214146,-2.36693,-0.400848,0.381098,77.875,-32.875,-33.75,0.0,0.0,0.0,0.0,0.0,0.0,2,0,41.565624033151884,-92.16334747371752,10002.627428141324,119.80320813034255,-0.0060299909051791,0.0045513522048503,,9006.830035856614,10864.345111209012,150,3,2025-09-12,2025-09-26 17:13:48.835,AH,C,4275575140,HAWK11,1,1,73,2,1,1,225,2,1,0,0,12,1,225,2,1,-148711.63903983062,-4791792.670869674,4197713.325651646,2.42522,2.52071,-0.6018,-98.125,47.5,49.875,-0.0625,-6.78125,6.875,0.00390625,0.00390625,-0.00195312,4,0,41.39611022006408,-91.77758428300238,10863.9032875733,-43.26259295437358,1.7419125932611228,-2.459241781003524,192.092,9006.830035856614,10864.345111209012,150,True,20.083447614270508,False,176.09300516207003,179.47072230126153,False,3.4570711282643103,True,False
3,1970-07-23 10:29:32.298300132,2025-09-12,2025-09-26 17:13:49.830,AH,C,1472396230,JASSM,3,104,76,2,2,1,225,9,2,0,1,26,0,0,0,0,-180410.16540701807,-4778053.368135299,4211615.444792271,-2.36693,-0.400848,0.381098,77.875,-32.875,-33.75,0.0,0.0,0.0,0.0,0.0,0.0,2,0,41.565195746543466,-92.16235194310826,10002.62565353788,119.80386863979209,-0.0051707842762701,0.0045499263745437,,9006.830035856614,10864.345111209012,150,3,2025-09-12,2025-09-26 17:13:49.835,AH,C,4276648838,HAWK11,1,1,73,2,1,1,225,2,1,0,0,12,1,225,2,1,-148800.45935233062,-4791749.637666549,4197758.804167271,2.56616,2.52062,-0.611771,-98.125,47.625,50.25,-0.015625,-7.09375,7.1875,0.304688,0.0292969,0.015625,4,0,41.39665680351821,-91.7786612539854,10863.492616715375,-42.90321919463978,2.1865863581414744,5.625149595786467,192.752,9006.830035856614,10864.345111209012,150,True,19.973699000820744,False,175.94638315536315,179.47812289046078,False,3.617943950419638,True,False
3,1970-07-23 10:29:32.309338376,2025-09-12,2025-09-26 17:13:50.933,AH,C,1473708580,JASSM,3,104,76,2,2,1,225,9,2,0,1,26,0,0,0,0,-180324.44079764312,-4778089.707979049,4211578.140104771,-2.36693,-0.400848,0.381098,77.875,-32.875,-33.75,0.0,0.0,0.0,0.0,0.0,0.0,2,0,41.56474704143295,-92.16130902124338,10002.626580200817,119.8045605861506,-0.0042706562682524,0.0045484195982691,,9006.830035856614,10864.345111209012,150,3,2025-09-12,2025-09-26 17:13:50.838,AH,C,4277762304,HAWK11,1,1,73,2,1,1,225,2,1,0,0,12,1,225,2,1,-148890.75427420562,-4791704.942354049,4197806.671354771,2.84237,2.49636,-0.635164,-96.5,48.5,52.0,-0.21875,-7.34375,7.42188,0.246094,0.0234375,0.0351562,4,0,41.397229116231614,-91.77975647531632,10864.294400677923,-41.1867962068704,2.5423286303034844,20.71050883377644,192.985,9006.830035856614,10864.345111209012,150,False,19.860011682250846,False,174.74383671379218,179.48748612236633,False,4.839143235228079,True,False
3,1970-07-23 10:29:32.323758614,2025-09-12,2025-09-26 17:13:52.375,AH,C,1475020930,JASSM,3,104,76,2,2,1,225,9,2,0,1,26,0,0,0,0,-180238.71716483065,-4778126.045869674,4211540.835417271,-2.36693,-0.400848,0.381098,77.875,-32.875,-33.75,0.0,0.0,0.0,0.0,0.0,0.0,2,0,41.564298338261935,-92.16026612638522,10002.6279761214,119.80525250845616,-0.0033705420378646,0.0045469180251181,,9006.830035856614,10864.345111209012,150,3,2025-09-12,2025-09-26 17:13:52.335,AH,C,4279671102,HAWK11,1,1,73,2,1,1,225,2,1,0,0,12,1,225,2,1,-149042.89685233062,-4791622.671846236,4197894.868620396,3.07841,2.44938,-0.647819,-90.875,52.875,57.25,-0.390625,-8.98438,8.96875,0.0527344,0.0449219,0.0527344,4,0,41.398285740890536,-91.78160450015312,10864.902467699329,-39.02905668611697,1.82168460249707,32.706393865396514,193.901,9006.830035856614,10864.345111209012,150,False,19.702474363336155,False,170.51747626659446,179.51581636210253,False,9.086431141572266,True,False
3,1970-07-23 10:29:32.331197214,2025-09-12,2025-09-26 17:13:53.119,AH,C,1476273632,JASSM,3,104,76,2,2,1,225,9,2,0,1,26,0,0,0,0,-180156.88903983065,-4778160.729463424,4211505.224089146,-2.36693,-0.400848,0.381098,77.875,-32.875,-33.75,0.0,0.0,0.0,0.0,0.0,0.0,2,0,41.56387002188176,-92.15927063823747,10002.62269696444,119.80591297243362,-0.0025113348669338,0.0045454888231645,,9006.830035856614,10864.345111209012,150,3,2025-09-12,2025-09-26 17:13:53.133,AH,C,4280585734,HAWK11,1,1,73,2,1,1,225,2,1,0,0,12,1,225,2,1,-149111.31482108062,-4791581.354463424,4197940.329557896,3.1415,2.40298,-0.678403,-86.625,54.625,60.375,0.0,-8.6875,8.79688,0.0449219,0.0332031,0.046875,4,0,41.39882573849081,-91.78243717594418,10867.135555530633,-36.30471325160329,2.029530925921608,34.77565667951656,194.084,9006.830035856614,10864.345111209012,150,False,19.60239026692154,False,167.88302098813375,179.53543750251194,False,11.74968518204045,True,False
3,1970-07-23 10:29:32.342560387,2025-09-12,2025-09-26 17:13:54.256,AH,C,1477585980,JASSM,3,104,76,2,2,1,225,9,2,0,1,26,0,0,0,0,-180071.16443045562,-4778197.065400924,4211467.917448521,-2.36693,-0.400848,0.381098,77.875,-32.875,-33.75,0.0,0.0,0.0,0.0,0.0,0.0,2,0,41.56342129887658,-92.15822776077184,10002.625064800215,119.80660487120966,-0.0016112128441919,0.0045439900814229,,9006.830035856614,10864.345111209012,150,3,2025-09-12,2025-09-26 17:13:54.335,AH,C,4282017332,HAWK11,1,1,73,2,1,1,225,2,1,0,0,12,1,225,2,1,-149214.60388358062,-4791510.863252486,4198018.409636021,-3.1089,2.40893,-0.655489,-81.375,59.5,66.25,0.0,-8.73438,8.65625,0.00585938,0.0351562,0.0429688,4,0,41.39975300611557,-91.7836972926186,10871.053319118497,-37.276078882092285,1.1067234988614028,36.83863004974712,194.39,9006.830035856614,10864.345111209012,150,False,19.4715675374015,False,163.5333844784473,179.57786722874886,False,16.150074434626525,True,False
3,1970-07-23 10:29:32.353240312,2025-09-12,2025-09-26 17:13:55.324,AH,C,1478898332,JASSM,3,104,76,2,2,1,225,9,2,0,1,26,0,0,0,0,-179985.43982108062,-4778233.399385299,4211430.608854771,-2.36693,-0.400752,0.381098,77.875,-32.875,-33.75,0.0,0.0,0.0,0.0,0.0,0.0,2,0,41.56297256487972,-92.15718489861752,10002.623560072552,119.8036524320992,-0.004277537494031,0.0024995136939758,,9006.830035856614,10864.345111209012,150,3,2025-09-12,2025-09-26 17:13:55.023,AH,C,4282852432,HAWK11,1,1,73,2,1,1,225,2,1,0,0,12,1,225,2,1,-149270.31091483062,-4791468.317354049,4198065.733854771,-3.0695,2.36108,-0.678978,-77.375,61.75,68.75,0.0,-8.54688,8.60938,0.0117188,0.0371094,0.0449219,4,0,41.40031522959305,-91.7843786128278,10873.34444028903,-34.73884179621578,1.0126698013429631,37.44680699409027,194.732,9006.830035856614,10864.345111209012,150,False,19.37424174028247,False,161.0563531038896,179.60611576448989,False,18.663563921349336,True,False
3,1970-07-23 10:29:32.364278698,2025-09-12,2025-09-26 17:13:56.427,AH,C,1480210682,JASSM,3,104,76,2,2,1,225,9,2,0,1,26,0,0,0,0,-179899.71521170562,-4778269.731416549,4211393.300261021,-2.36693,-0.400752,0.381098,77.875,-32.875,-33.75,0.0,0.0,0.0,0.0,0.0,0.0,2,0,41.562523833042846,-92.1561420517736,10002.622434039968,119.80434429838662,-0.0033774216188773,0.0024979657737037,,9006.830035856614,10864.345111209012,150,3,2025-09-12,2025-09-26 17:13:56.335,AH,C,4284403330,HAWK11,1,1,73,2,1,1,225,2,1,0,0,12,1,225,2,1,-149367.46325858062,-4791382.832979049,4198160.354948521,-3.06499,2.3143,-0.694222,-70.125,66.5,74.5,-0.25,-9.17188,8.95312,-0.0332031,0.0292969,0.0488281,4,0,41.40144445950823,-91.78557105694937,10875.819102274325,-32.52159229073257,0.6372910008269682,36.03750398653636,194.964,9006.830035856614,10864.345111209012,150,False,19.239986166971843,False,156.1943898530125,179.66571819963363,False,23.61578632181053,True,False
3,1970-07-23 10:29:32.375299145,2025-09-12,2025-09-26 17:13:57.529,AH,C,1481523034,JASSM,3,104,76,2,2,1,225,9,2,0,1,26,0,0,0,0,-179813.99060233062,-4778306.063447799,4211355.989714146,-2.36693,-0.400752,0.381098,77.875,-32.875,-33.75,0.0,0.0,0.0,0.0,0.0,0.0,2,0,41.56207507856145,-92.15509921935907,10002.622226612912,119.80503614896604,-0.0024772991362933,0.0024964064002565,,9006.830035856614,10864.345111209012,150,3,2025-09-12,2025-09-26 17:13:57.633,AH,C,4285993996,HAWK11,1,1,73,2,1,1,225,2,1,0,0,12,1,225,2,1,-149455.67224295562,-4791291.032197799,4198262.794401646,-3.05147,2.24047,-0.724614,-62.625,70.0,79.125,-0.171875,-8.54688,8.42188,-0.0292969,0.0351562,0.0449219,4,0,41.402665686598944,-91.78665905249044,10879.04837315424,-28.87332584288911,0.5229880935300197,34.092817629036794,195.416,9006.830035856614,10864.345111209012,150,False,19.107075817466978,False,151.7711924331944,179.71473949344875,False,28.15378359901024,True,False
3,1970-07-23 10:29:32.385338378,2025-09-12,2025-09-26 17:13:58.533,AH,C,1482775732,JASSM,3,104,76,2,2,1,225,9,2,0,1,26,0,0,0,0,-179732.16247733062,-4778340.743135299,4211320.374479771,-2.36693,-0.400752,0.381194,77.875,-32.875,-33.75,0.0,0.0,0.0,0.0,0.0,0.0,2,0,41.561646714288,-92.15410380121568,10002.623312654849,119.80953869923644,-0.0055440073745174,0.0024946789586379,,9006.830035856614,10864.345111209012,150,3,2025-09-12,2025-09-26 17:13:58.535,AH,C,4286749562,HAWK11,1,1,73,2,1,1,225,2,1,0,0,12,1,225,2,1,-149494.11169608062,-4791245.996064986,4198313.343229771,-3.05972,2.19935,-0.74331,-58.875,71.5,80.875,-0.140625,-8.59375,8.46875,-0.0644531,0.0332031,0.0371094,4,0,41.40326767757615,-91.78713506415856,10880.90346492426,-26.82545507897249,0.6424717573687222,32.062623393609314,195.416,9006.830035856614,10864.345111209012,150,False,19.019048571291965,False,149.72184621356223,179.72398001174028,False,30.263818732975952,False,False
3,1970-07-23 10:29:32.396338750,2025-09-12,2025-09-26 17:13:59.633,AH,C,1484028432,JASSM,3,104,76,2,2,1,225,9,2,0,1,26,0,0,0,0,-179650.33435233062,-4778375.420869674,4211284.759245396,-2.36693,-0.400752,0.381194,77.875,-32.875,-33.75,0.0,0.0,0.0,0.0,0.0,0.0,2,0,41.561218353018496,-92.15310839709932,10002.624317969932,119.81019907304716,-0.004684805818791,0.0024932590197648,,9006.830035856614,10864.345111209012,150,3,2025-09-12,2025-09-26 17:13:59.725,AH,C,4288499292,HAWK11,1,1,73,2,1,1,225,2,1,0,0,12,1,225,2,1,-149573.98474295562,-4791136.729463424,4198435.577604771,-3.07764,2.1168,-0.768237,-51.0,74.25,85.125,-0.28125,-8.375,8.10938,-0.0332031,0.0175781,0.0273438,4,0,41.40472795696198,-91.78813004359144,10883.505742089135,-23.10614602530609,0.4332925664749478,27.8253541961877,195.991,9006.830035856614,10864.345111209012,150,False,18.885195690725297,False,145.4013626044579,179.68814464348605,False,34.747072702814535,False,False
3,1970-07-23 10:29:32.407356386,2025-09-12,2025-09-26 17:14:00.735,AH,C,1485340782,JASSM,3,104,76,2,2,1,225,9,2,0,1,26,0,0,0,0,-179564.60974295562,-4778411.748994674,4211247.446745396,-2.36693,-0.400752,0.381194,77.875,-32.875,-33.75,0.0,0.0,0.0,0.0,0.0,0.0,2,0,41.56076958107719,-92.15206560842036,10002.625316397874,119.8108908768632,-0.0037846892186744,0.0024917680434293,,9006.830035856614,10864.345111209012,150,3,2025-09-12,2025-09-26 17:14:00.725,AH,C,4289692292,HAWK11,1,1,73,2,1,1,225,2,1,0,0,12,1,225,2,1,-149621.81091483062,-4791060.436494674,4198521.686979771,-3.08484,2.06848,-0.788179,-46.0,75.625,87.375,-0.3125,-8.375,8.17188,-0.0449219,0.0214844,0.03125,4,0,41.405754177832414,-91.78872989032556,10886.376074139334,-20.84423949445127,0.7076412577702158,25.492096704695893,196.284,9006.830035856614,10864.345111209012,150,False,18.777351144748117,False,142.80141619858497,179.61512516812564,False,37.46972151676286,False,False
3,1970-07-23 10:29:32.417237374,2025-09-12,2025-09-26 17:14:01.723,AH,C,1486593480,JASSM,3,104,76,2,2,1,225,9,2,0,1,26,0,0,0,0,-179482.78161795562,-4778446.424775924,4211211.827604771,-2.36693,-0.400752,0.381194,77.875,-32.875,-33.75,0.0,0.0,0.0,0.0,0.0,0.0,2,0,41.56034118744739,-92.1510702321033,10002.622673562208,119.81155122078631,-0.0029254808184487,0.0024903349883586,,9006.830035856614,10864.345111209012,150,3,2025-09-12,2025-09-26 17:14:01.631,AH,C,4290805756,HAWK11,1,1,73,2,1,1,225,2,1,0,0,12,1,225,2,1,-149662.12536795562,-4790987.140596236,4198604.884245396,-3.08474,2.01642,-0.804381,-41.25,76.875,89.25,-0.234375,-8.35938,8.15625,-0.03125,0.0136719,0.0332031,4,0,41.40674430477686,-91.78923889152372,10889.729528473645,-18.563964688902207,0.8200762356283229,23.39573344905015,196.59,9006.830035856614,10864.345111209012,150,False,18.676659005583154,False,140.3916577457273,179.5201054605209,False,40.0034602263947,False,False
3,1970-07-23 10:29:32.428257774,2025-09-12,2025-09-26 17:14:02.825,AH,C,1487846180,JASSM,3,104,76,2,2,1,225,9,2,0,1,26,0,0,0,0,-179400.95349295562,-4778481.100557174,4211176.208464146,-2.36693,-0.400752,0.381194,77.875,-32.875,-33.75,0.0,0.0,0.0,0.0,0.0,0.0,2,0,41.55991278516942,-92.15007486893344,10002.624741297,119.81221155039722,-0.0020662723539848,0.0024889018958584,,9006.830035856614,10864.345111209012,150,3,2025-09-12,2025-09-26 17:14:02.840,AH,C,4292277122,HAWK11,1,1,73,2,1,1,225,2,1,0,0,12,1,225,2,1,-149708.54138358062,-4790891.972627486,4198715.374479771,-3.08829,1.96139,-0.826336,-35.75,77.5,91.5,-0.203125,-8.125,7.78125,-0.0332031,0.015625,0.0253906,4,0,41.40804763778831,-91.78982897283264,10898.9905007809,-16.110515100702237,1.3062129491799614,20.94230549380645,197.115,9006.830035856614,10864.345111209012,150,False,18.563653915667903,False,137.6736324437472,179.37211698333294,False,42.893881303681184,False,False
3,1970-07-23 10:29:32.439278474,2025-09-12,2025-09-26 17:14:03.927,AH,C,1489158530,JASSM,3,104,76,2,2,1,225,9,2,0,1,26,0,0,0,0,-179315.22790701812,-4778517.424775924,4211138.892057896,-2.36693,-0.400657,0.381194,77.875,-32.875,-33.75,0.0,0.0,0.0,0.0,0.0,0.0,2,0,41.55946398283616,-92.14903211229336,10002.622604492171,119.80925926146335,-0.0047325883293415,0.0004439761769729,,9006.830035856614,10864.345111209012,150,3,2025-09-12,2025-09-26 17:14:04.031,AH,C,4293549654,HAWK11,1,1,73,2,1,1,225,2,1,0,0,12,1,225,2,1,-149744.04724295562,-4790807.280244674,4198814.339323521,-3.06614,1.90664,-0.835444,-31.625,78.375,92.75,-0.25,-7.51562,7.26562,-0.0078125,0.0117188,0.0253906,4,0,41.40921287982362,-91.79028481189428,10908.178135096628,-13.935063665678712,1.1974072906272293,19.94202287626933,197.225,9006.830035856614,10864.345111209012,150,False,18.457670118487204,False,135.66942341945625,179.22529953721764,False,45.05696553480862,False,False
3,1970-07-23 10:29:32.450297446,2025-09-12,2025-09-26 17:14:05.029,AH,C,1490470882,JASSM,3,104,76,2,2,1,225,9,2,0,1,26,0,0,0,0,-179229.50329764312,-4778553.748994674,4211101.575651646,-2.36693,-0.400657,0.381194,77.875,-32.875,-33.75,0.0,0.0,0.0,0.0,0.0,0.0,2,0,41.55901517079337,-92.14798938177483,10002.625727450915,119.80995100280992,-0.0038324712000869,0.0004424245361516,,9006.830035856614,10864.345111209012,150,3,2025-09-12,2025-09-26 17:14:04.929,AH,C,4294504052,HAWK11,1,1,73,2,1,1,225,2,1,0,0,12,1,225,2,1,-149767.42224295562,-4790743.613252486,4198888.560026646,-3.06556,1.87606,-0.840046,-28.5,79.125,93.25,0.078125,-7.20312,7.20312,-0.046875,0.00976562,0.0371094,4,0,41.41008827366243,-91.7905878732617,10914.455176145417,-12.7341889979283,1.1499152921352382,18.69734608003088,197.714,9006.830035856614,10864.345111209012,150,False,18.366280926465073,False,134.19752374998862,179.10791961878965,False,46.65175952986435,False,False
3,1970-07-23 10:29:32.461319942,2025-09-12,2025-09-26 17:14:06.131,AH,C,1491783232,JASSM,3,104,76,2,2,1,225,9,2,0,1,26,0,0,0,0,-179143.77771170562,-4778590.071260299,4211064.257292271,-2.36693,-0.400657,0.381194,77.875,-32.875,-33.75,0.0,0.0,0.0,0.0,0.0,0.0,2,0,41.55856634797836,-92.14694665486938,10002.624887989476,119.81064273562308,-0.0029323463411872,0.0004408757654449,,9006.830035856614,10864.345111209012,150,3,2025-09-12,2025-09-26 17:14:06.132,AH,C,1206956,HAWK11,1,1,73,2,1,1,225,2,1,0,0,12,1,225,2,1,-149803.57263358062,-4790631.645479049,4199019.714323521,-3.06758,1.81374,-0.852606,-23.875,79.75,94.375,0.125,-7.53125,7.32812,-0.0253906,0.0078125,0.0195312,4,0,41.41163292829727,-91.79106163115826,10926.484713076074,-10.266527299781025,1.3188049055466284,15.96096543392817,198.056,9006.830035856614,10864.345111209012,150,False,18.24884194593201,False,132.01280468794045,178.89283725883234,False,49.06015137324624,False,False
3,1970-07-23 10:29:32.472377626,2025-09-12,2025-09-26 17:14:07.237,AH,C,1493095584,JASSM,3,104,76,2,2,1,225,9,2,0,1,26,0,0,0,0,-179058.05310233062,-4778626.393525924,4211026.936979771,-2.36684,-0.400657,0.381194,77.875,-32.875,-33.75,0.0,0.0,0.0,0.0,0.0,0.0,2,0,41.55811750230203,-92.1459039540852,10002.625057347805,119.81133444497203,-0.0020322223562055,0.0059307830951691,,9006.830035856614,10864.345111209012,150,3,2025-09-12,2025-09-26 17:14:07.023,AH,C,2161354,HAWK11,1,1,73,2,1,1,225,2,1,0,0,12,1,225,2,1,-149821.09411795562,-4790566.978486861,4199095.552214146,-3.06863,1.78488,-0.856632,-21.375,80.125,95.125,-0.25,-7.59375,7.35938,-0.03125,0.00585938,0.0136719,4,0,41.41252627200161,-91.79129514702744,10933.376154442472,-9.156797275407376,1.336931346257269,14.679006462550651,198.459,9006.830035856614,10864.345111209012,150,False,18.159916677775335,False,130.82510735003913,178.76144166579465,False,50.38310192378467,False,False
3,1970-07-23 10:29:32.483216226,2025-09-12,2025-09-26 17:14:08.321,AH,C,1494407936,JASSM,3,104,76,2,2,1,225,9,2,0,1,26,0,0,0,0,-178972.32751639312,-4778662.713838424,4210989.616667271,-2.36684,-0.400657,0.38129,77.875,-32.875,-33.75,0.0,0.0,0.0,0.0,0.0,0.0,2,0,41.557668659006026,-92.14486125691332,10002.625515275582,119.81586844839778,-0.0050578752243046,0.0059290250620337,,9006.830035856614,10864.345111209012,150,3,2025-09-12,2025-09-26 17:14:08.023,AH,C,3394120,HAWK11,1,1,73,2,1,1,225,2,1,0,0,12,1,225,2,1,-149841.29528983062,-4790484.573213424,4199193.245573521,-3.08282,1.74768,-0.867754,-18.625,80.0,95.875,-0.09375,-7.67188,7.42188,-0.0410156,0.0078125,0.0175781,4,0,41.41367216228917,-91.7915673171419,10944.287238909184,-7.681882479365023,1.7321905871757357,12.28718699240857,198.569,9006.830035856614,10864.345111209012,150,False,18.062316749646428,False,129.54537757168836,178.58919018309302,False,51.83988475928102,False,False
3,1970-07-23 10:29:32.494238439,2025-09-12,2025-09-26 17:14:09.423,AH,C,1495779940,JASSM,3,104,76,2,2,1,225,9,2,0,1,26,0,0,0,0,-178882.70642264312,-4778700.682588424,4210950.599089146,-2.36684,-0.400657,0.38129,77.875,-32.875,-33.75,0.0,0.0,0.0,0.0,0.0,0.0,2,0,41.55719941219876,-92.1437711942437,10002.623593059949,119.8165915639167,-0.0041168487125813,0.005927469274112,,9006.830035856614,10864.345111209012,150,3,2025-09-12,2025-09-26 17:14:09.336,AH,C,4984784,HAWK11,1,1,73,2,1,1,225,2,1,0,0,12,1,225,2,1,-149862.64099295562,-4790377.395479049,4199321.474089146,-3.05272,1.70885,-0.875615,-15.0,80.0,96.625,-0.28125,-7.32812,7.17188,0.0,0.00195312,0.00976562,4,0,41.4151713162488,-91.79186243252578,10960.64450530681,-6.200510242971196,1.978065415869375,12.35710427115857,199.058,9006.830035856614,10864.345111209012,150,False,17.95146251253201,False,127.87148046336912,178.3569311400423,False,53.75032836846075,False,False
3,1970-07-23 10:29:32.505256996,2025-09-12,2025-09-26 17:14:10.525,AH,C,1497032638,JASSM,3,104,76,2,2,1,225,9,2,0,1,26,0,0,0,0,-178800.87732108062,-4778735.350557174,4210914.974089146,-2.36684,-0.400657,0.38129,77.875,-32.875,-33.75,0.0,0.0,0.0,0.0,0.0,0.0,2,0,41.55677095387797,-92.14277591929807,10002.628196418307,119.81725179419033,-0.0032576381228768,0.005926048319752,,9006.830035856614,10864.345111209012,150,3,2025-09-12,2025-09-26 17:14:10.631,AH,C,6535682,HAWK11,1,1,73,2,1,1,225,2,1,0,0,12,1,225,2,1,-149880.04333670562,-4790272.867158736,4199447.245573521,-3.05377,1.66792,-0.879738,-12.0,80.125,97.125,-0.1875,-7.40625,7.20312,-0.0527344,0.0136719,0.015625,4,0,41.4166388541306,-91.79210945061998,10977.895623634682,-4.684137620554616,2.047472874166065,10.545521775920202,199.168,9006.830035856614,10864.345111209012,150,False,17.848613042283137,False,126.49354064587712,178.12340946331398,False,55.36454005872424,False,False
3,1970-07-23 10:29:32.516297453,2025-09-12,2025-09-26 17:14:11.629,AH,C,1498344988,JASSM,3,104,76,2,2,1,225,9,2,0,1,26,0,0,0,0,-178715.15271170562,-4778771.666963424,4210877.649870396,-2.36684,-0.400657,0.38129,77.875,-32.875,-33.75,0.0,0.0,0.0,0.0,0.0,0.0,2,0,41.5563220788936,-92.14173327885366,10002.62616875361,119.81794343906844,-0.002357519759579,0.005924550283442,,9006.830035856614,10864.345111209012,150,3,2025-09-12,2025-09-26 17:14:11.725,AH,C,7847982,HAWK11,1,1,73,2,1,1,225,2,1,0,0,12,1,225,2,1,-149892.02380545562,-4790183.936494674,4199554.798307896,-3.10909,1.64634,-0.88434,-10.125,79.875,97.625,-0.078125,-7.28125,7.125,-0.0527344,0.0136719,0.00585938,4,0,41.41789163387588,-91.79228585896868,10993.557237357118,-3.877979971482896,2.242195106785473,6.451960302615961,199.425,9006.830035856614,10864.345111209012,150,True,17.752450345018957,False,125.62735534461447,177.9178388088183,False,56.439055101837575,False,False
3,1970-07-23 10:29:32.527318657,2025-09-12,2025-09-26 17:14:12.731,AH,C,1499657338,JASSM,3,104,76,2,2,1,225,9,2,0,1,26,0,0,0,0,-178629.42712576812,-4778807.981416549,4210840.325651646,-2.36684,-0.400561,0.38129,77.875,-32.875,-33.75,0.0,0.0,0.0,0.0,0.0,0.0,2,0,41.55587320628981,-92.14069064201904,10002.624429633925,119.81499128978976,-0.0050238345163942,0.003879160289659,,9006.830035856614,10864.345111209012,150,3,2025-09-12,2025-09-26 17:14:13.023,AH,C,9438646,HAWK11,1,1,73,2,1,1,225,2,1,0,0,12,1,225,2,1,-149904.07458670562,-4790077.215791549,4199684.886198521,3.1344,1.62544,-0.892585,-8.625,79.625,98.0,0.140625,-7.34375,7.10938,-0.0195312,0.00390625,0.0214844,4,0,41.41940233721812,-91.79246976679002,11014.399820663508,-3.090082207152133,2.6603324454005053,3.282141614785785,199.535,9006.830035856614,10864.345111209012,150,True,17.64903954785855,False,124.9358276571959,177.66599928689809,False,57.384887246674104,False,False
3,1970-07-23 10:29:32.538336701,2025-09-12,2025-09-26 17:14:13.833,AH,C,1500969690,JASSM,3,104,76,2,2,1,225,9,2,0,1,26,0,0,0,0,-178543.70153983062,-4778844.295869674,4210802.999479771,-2.36684,-0.400561,0.38129,77.875,-32.875,-33.75,0.0,0.0,0.0,0.0,0.0,0.0,2,0,41.55542431104416,-92.13964801961204,10002.623609706425,119.81568291052828,-0.0041237084471421,0.003877607838439,,9006.830035856614,10864.345111209012,150,3,2025-09-12,2025-09-26 17:14:14.023,AH,C,10552112,HAWK11,1,1,73,2,1,1,225,2,1,0,0,12,1,225,2,1,-149911.19763358062,-4790003.106416549,4199775.409636021,3.11312,1.61614,-0.880217,-7.875,80.0,97.75,-0.046875,-5.90625,5.79688,-0.0273438,-0.00976562,0.0117188,4,0,41.42045289921587,-91.79258260039973,11029.192799503247,-2.7968653581274814,1.933562051062832,1.6615859786458798,199.645,9006.830035856614,10864.345111209012,150,True,17.561526383470937,False,124.60753435650993,177.48545046184944,False,57.893483924227546,False,False
3,1970-07-23 10:29:32.552169271,2025-09-12,2025-09-26 17:14:15.216,AH,C,1502222390,JASSM,3,104,76,2,2,1,225,9,2,0,1,26,0,0,0,0,-178461.87243826812,-4778878.957979049,4210767.370573521,-2.36684,-0.400561,0.38129,77.875,-32.875,-33.75,0.0,0.0,0.0,0.0,0.0,0.0,2,0,41.55499582555397,-92.1386528017516,10002.62485169295,119.81634307986404,-0.0032645036871301,0.0038761386148969,,9006.830035856614,10864.345111209012,150,3,2025-09-12,2025-09-26 17:14:15.023,AH,C,11784878,HAWK11,1,1,73,2,1,1,225,2,1,0,0,12,1,225,2,1,-149918.54528983062,-4789918.968721236,4199876.226042271,3.11168,1.60847,-0.884628,-7.25,80.75,97.25,-0.015625,-6.75,6.57812,-0.0175781,0.0,-0.00585938,4,0,41.42163255395669,-91.79270187236996,11041.69252072512,-2.504203208394977,2.1718162994784675,1.2503235796811507,200.024,9006.830035856614,10864.345111209012,150,True,17.472834071981982,False,124.34415825698557,177.28171294952182,False,58.359353444417245,False,False
3,1970-07-23 10:29:32.560216362,2025-09-12,2025-09-26 17:14:16.021,AH,C,1503594394,JASSM,3,104,76,2,2,1,225,9,2,0,1,26,0,0,0,0,-178372.25036795562,-4778916.920869674,4210728.345182896,-2.36684,-0.400561,0.38129,77.875,-32.875,-33.75,0.0,0.0,0.0,0.0,0.0,0.0,2,0,41.55452650223752,-92.13756281982802,10002.623645346011,119.81706610372326,-0.002323462278045,0.0038745109689944,,9006.830035856614,10864.345111209012,150,3,2025-09-12,2025-09-26 17:14:16.023,AH,C,12938110,HAWK11,1,1,73,2,1,1,225,2,1,0,0,12,1,225,2,1,-149925.01989920562,-4789840.944307174,4199969.290495396,3.10075,1.60215,-0.881368,-6.875,81.125,97.0,0.0,-6.75,6.48438,-0.015625,-0.00195312,0.0078125,4,0,41.42272367860693,-91.79280842871717,11052.339399583836,-2.283465434324778,1.9750136672334355,0.3520070268246841,199.95,9006.830035856614,10864.345111209012,150,True,17.382397119999663,False,124.18356771738192,177.0895702617708,False,58.711779587929286,False,False
3,1970-07-23 10:29:32.571238623,2025-09-12,2025-09-26 17:14:17.123,AH,C,1504906744,JASSM,3,104,76,2,2,1,225,9,2,0,1,26,0,0,0,0,-178286.52478201812,-4778953.231416549,4210691.017057896,-2.36684,-0.400561,0.381386,77.875,-32.875,-33.75,0.0,0.0,0.0,0.0,0.0,0.0,2,0,41.55407758867696,-92.13652024245008,10002.62450084588,119.82160011968092,-0.0053489823246039,0.0038727394635757,,9006.830035856614,10864.345111209012,150,3,2025-09-12,2025-09-26 17:14:17.131,AH,C,14290174,HAWK11,1,1,73,2,1,1,225,2,1,0,0,12,1,225,2,1,-149932.44177420562,-4789748.082002486,4200079.399870396,3.10056,1.59275,-0.879642,-6.5,81.5,96.75,0.0,-6.75,6.53125,0.00195312,-0.0078125,0.0,4,0,41.42401794605646,-91.7929318593286,11063.581315897116,-1.9451895904442615,1.862633456696296,-0.0626867768872373,199.987,9006.830035856614,10864.345111209012,150,True,17.288426502062322,False,124.02252369425936,176.8612333540328,False,59.100919536691016,False,False
3,1970-07-23 10:29:32.588959656,2025-09-12,2025-09-26 17:14:18.895,AH,C,1506219096,JASSM,3,104,76,2,2,1,225,9,2,0,1,26,0,0,0,0,-178200.79919608062,-4778989.541963424,4210653.686979771,-2.36684,-0.400561,0.381386,77.875,-32.875,-33.75,0.0,0.0,0.0,0.0,0.0,0.0,2,0,41.55362865247543,-92.13547767949954,10002.626275702934,119.8222916765326,-0.0044488555113064,0.0038712439576678,,9006.830035856614,10864.345111209012,150,3,2025-09-12,2025-09-26 17:14:18.835,AH,C,16397806,HAWK11,1,1,73,2,1,1,225,2,1,0,0,12,1,225,2,1,-149943.27575858062,-4789603.367158736,4200249.282682896,3.09519,1.5777,-0.872931,-6.25,82.25,96.625,0.0,-6.75,6.625,-0.00390625,-0.00195312,0.0078125,4,0,41.42602350511451,-91.79311547126514,11077.35448382905,-1.4066325108541429,1.461426998285658,-1.01727209431689,199.461,9006.830035856614,10864.345111209012,150,True,17.173251250580687,False,123.91384272209856,176.5081468336604,False,59.562318548043024,False,False
3,1970-07-23 10:29:32.593301209,2025-09-12,2025-09-26 17:14:19.330,AH,C,1507531446,JASSM,3,104,76,2,2,1,225,9,2,0,1,26,0,0,0,0,-178115.07361014312,-4779025.850557174,4210616.356901646,-2.36684,-0.400561,0.381386,77.875,-32.875,-33.75,0.0,0.0,0.0,0.0,0.0,0.0,2,0,41.55317971843781,-92.13443513184838,10002.628428515633,119.82298321709877,-0.0035487349880224,0.0038697581943955,,9006.830035856614,10864.345111209012,150,3,2025-09-12,2025-09-26 17:14:19.225,AH,C,16835238,HAWK11,1,1,73,2,1,1,225,2,1,0,0,12,1,225,2,1,-149945.64880545562,-4789572.539033736,4200285.278776646,3.09375,1.5754,-0.870822,-6.25,82.625,96.5,0.1875,-6.73438,6.60938,-0.00390625,-0.00390625,0.00390625,4,0,41.42644942459312,-91.79315536516822,11079.87686502156,-1.325201892682517,1.3386937746427188,-1.198587205797288,199.278,9006.830035856614,10864.345111209012,150,True,17.106458950823935,False,123.91731027331693,176.4234815292293,False,59.64265198971561,False,False
3,1970-07-23 10:29:32.603322068,2025-09-12,2025-09-26 17:14:20.332,AH,C,1508784146,JASSM,3,104,76,2,2,1,225,9,2,0,1,26,0,0,0,0,-178033.24450858062,-4779060.506807174,4210580.720182896,-2.36684,-0.400561,0.381386,77.875,-32.875,-33.75,0.0,0.0,0.0,0.0,0.0,0.0,2,0,41.55275117000563,-92.13343998546216,10002.622967191604,119.82364330983135,-0.0026895227114156,0.0038683301005391,,9006.830035856614,10864.345111209012,150,3,2025-09-12,2025-09-26 17:14:20.429,AH,C,18147538,HAWK11,1,1,73,2,1,1,225,2,1,0,0,12,1,225,2,1,-149952.00622733062,-4789481.535127486,4200391.073698521,3.09155,1.57089,-0.871301,-6.125,83.0,96.375,0.046875,-6.75,6.625,-0.0078125,0.00390625,-0.00585938,4,0,41.427703713179945,-91.79326539260144,11086.270967852342,-1.1583144695509633,1.3632132845621376,-1.518452502799616,199.131,9006.830035856614,10864.345111209012,150,True,17.01735498628016,False,123.86431528024457,176.19457373795996,False,59.92426914973046,False,False
3,1970-07-23 10:29:32.614336307,2025-09-12,2025-09-26 17:14:21.433,AH,C,1510096490,JASSM,3,104,76,2,2,1,225,9,2,0,1,26,0,0,0,0,-177947.51989920562,-4779096.813447799,4210543.388151646,-2.36684,-0.400465,0.381386,77.875,-32.875,-33.75,0.0,0.0,0.0,0.0,0.0,0.0,2,0,41.55230221570594,-92.13239747857214,10002.626271553538,119.82069129381564,-0.0053558373403041,0.0018224641245446,,9006.830035856614,10864.345111209012,150,3,2025-09-12,2025-09-26 17:14:21.725,AH,C,19817736,HAWK11,1,1,73,2,1,1,225,2,1,0,0,12,1,225,2,1,-149960.35778983062,-4789364.976533736,4200525.815886021,3.08973,1.56102,-0.871876,-6.125,83.375,96.375,0.0625,-7.0625,6.82812,0.00195312,0.0078125,-0.00195312,4,0,41.42930504245605,-91.79340881968623,11092.83957874722,-0.7935702797657389,1.390543421337707,-2.047002960642899,198.728,9006.830035856614,10864.345111209012,150,True,16.915641679847074,False,123.86381033919015,175.9019055948438,False,60.21760895201354,False,False
3,1970-07-23 10:29:32.625255053,2025-09-12,2025-09-26 17:14:22.525,AH,C,1511349196,JASSM,3,104,76,2,2,1,225,9,2,0,1,26,0,0,0,0,-177865.68982108062,-4779131.467744674,4210507.751432896,-2.36684,-0.400465,0.381386,77.875,-32.875,-33.75,0.0,0.0,0.0,0.0,0.0,0.0,2,0,41.55187366144224,-92.13140234828111,10002.625574457956,119.8213513645152,-0.0044966239006887,0.0018209956388597,,9006.830035856614,10864.345111209012,150,3,2025-09-12,2025-09-26 17:14:22.523,AH,C,20772134,HAWK11,1,1,73,2,1,1,225,2,1,0,0,12,1,225,2,1,-149965.44763358062,-4789298.249971236,4200602.733854771,3.08033,1.56572,-0.868713,-6.375,83.625,96.25,-0.09375,-6.59375,6.34375,-0.00976562,-0.00195312,0.0,4,0,41.43022022854342,-91.79349462156289,11096.15738145946,-0.9703921700623126,1.213321476641811,-2.383515805570008,198.581,9006.830035856614,10864.345111209012,150,True,16.836964001176298,False,123.97871240346659,175.72790724929118,False,60.27637652223886,False,False
3,1970-07-23 10:29:32.634294641,2025-09-12,2025-09-26 17:14:23.429,AH,C,1512422936,JASSM,3,104,76,2,2,1,225,9,2,0,1,26,0,0,0,0,-177795.55114920562,-4779161.170869674,4210477.204557896,-2.36684,-0.400465,0.381386,77.875,-32.875,-33.75,0.0,0.0,0.0,0.0,0.0,0.0,2,0,41.551506317839234,-92.1305494068734,10002.625055639766,119.82191711676728,-0.003760163955924,0.0018197266967964,,9006.830035856614,10864.345111209012,150,3,2025-09-12,2025-09-26 17:14:23.335,AH,C,21726534,HAWK11,1,1,73,2,1,1,225,2,1,0,0,12,1,225,2,1,-149970.70153983062,-4789231.207979049,4200679.503386021,3.07659,1.56246,-0.87226,-6.625,83.875,96.125,0.015625,-6.8125,6.65625,0.00390625,0.0,0.0078125,4,0,41.43113625946312,-91.79358250470706,11098.395395364018,-0.8463231219695663,1.415229994282565,-2.7376668271379505,198.655,9006.830035856614,10864.345111209012,150,True,16.76566896105394,False,124.09330467975924,175.55426931682263,False,60.33508076361295,False,False
3,1970-07-23 10:29:32.643801511,2025-09-12,2025-09-26 17:14:24.380,AH,C,1513496678,JASSM,3,104,76,2,2,1,225,9,2,0,1,26,0,0,0,0,-177725.41150076812,-4779190.873994674,4210446.657682896,-2.36684,-0.400465,0.381386,77.875,-32.875,-33.75,0.0,0.0,0.0,0.0,0.0,0.0,2,0,41.5511389681029,-92.1296964634317,10002.627908502734,119.8224828662594,-0.003023696481038,0.00181846226643,,9006.830035856614,10864.345111209012,150,3,2025-09-12,2025-09-26 17:14:24.631,AH,C,23277432,HAWK11,1,1,73,2,1,1,225,2,1,0,0,12,1,225,2,1,-149979.55114920562,-4789121.936494674,4200804.392057896,3.07093,1.56063,-0.873794,-7.0,84.125,96.25,-0.015625,-6.96875,6.79688,-0.0117188,0.00390625,0.0117188,4,0,41.432627636783344,-91.7937291720758,11101.560629564974,-0.7778955370922426,1.5034926174851893,-3.1398981163372275,198.313,9006.830035856614,10864.345111209012,150,True,16.677397195486915,False,124.2564281093538,175.2765978611331,False,60.450214602886426,False,False
3,1970-07-23 10:29:32.654355536,2025-09-12,2025-09-26 17:14:25.435,AH,C,1514809030,JASSM,3,104,76,2,2,1,225,9,2,0,1,26,0,0,0,0,-177639.68591483062,-4779227.174775924,4210409.319792271,-2.36684,-0.400465,0.381386,77.875,-32.875,-33.75,0.0,0.0,0.0,0.0,0.0,0.0,2,0,41.55068997544681,-92.12865399926476,10002.622560932672,119.82317431751532,-0.0021235749337848,0.0018169125237159,,9006.830035856614,10864.345111209012,150,3,2025-09-12,2025-09-26 17:14:25.335,AH,C,24112532,HAWK11,1,1,73,2,1,1,225,2,1,0,0,12,1,225,2,1,-149984.14099295562,-4789062.836885299,4200871.897917271,3.06624,1.56083,-0.87178,-7.125,84.25,96.375,0.0,-7.07812,6.78125,-0.0117188,0.00390625,0.0,4,0,41.43343401407689,-91.79380615173832,11103.175804226355,-0.7868433922458229,1.389068296870598,-3.4008257909230504,198.325,9006.830035856614,10864.345111209012,150,True,16.599975313628565,False,124.30804694362219,175.1160319745992,False,60.55956702377768,False,False
3,1970-07-23 10:29:32.673005457,2025-09-12,2025-09-26 17:14:27.300,AH,C,1516061730,JASSM,3,104,76,2,2,1,225,9,2,0,1,26,0,0,0,0,-177557.85681326812,-4779261.825166549,4210373.681120396,-2.36684,-0.400465,0.381482,77.875,-32.875,-33.75,0.0,0.0,0.0,0.0,0.0,0.0,2,0,41.55026139859914,-92.12765893185372,10002.62583909352,119.8276769099377,-0.005189877071932,0.0018152310846227,,9006.830035856614,10864.345111209012,150,3,2025-09-12,2025-09-26 17:14:27.227,AH,C,26339462,HAWK11,1,1,73,2,1,1,225,2,1,0,0,12,1,225,2,1,-149998.12146170562,-4788905.803682174,4201051.323698521,3.05531,1.56159,-0.873986,-8.0,84.5,96.625,-0.140625,-7.0625,6.76562,0.0078125,-0.00195312,-0.0136719,4,0,41.435576680374254,-91.79403203630766,11107.747536616278,-0.813176144528109,1.5180012093282151,-3.993899308488332,198.093,9006.830035856614,10864.345111209012,150,True,16.48543681556841,False,124.6886642190881,174.7134499798943,False,60.582670125409244,False,False
3,1970-07-23 10:29:32.675253718,2025-09-12,2025-09-26 17:14:27.525,AH,C,1517374080,JASSM,3,104,76,2,2,1,225,9,2,0,1,26,0,0,0,0,-177472.13025076812,-4779298.125947799,4210336.341276646,-2.36684,-0.400465,0.381482,77.875,-32.875,-33.75,0.0,0.0,0.0,0.0,0.0,0.0,2,0,41.54981237446568,-92.1266164841923,10002.62625706426,119.82836833835071,-0.0042897412593475,0.0018137347570401,,9006.830035856614,10864.345111209012,150,3,2025-09-12,2025-09-26 17:14:27.523,AH,C,26498528,HAWK11,1,1,73,2,1,1,225,2,1,0,0,12,1,225,2,1,-149998.81286795562,-4788893.883760299,4201064.966276646,3.05962,1.56111,-0.872835,-7.875,84.5,96.75,-0.09375,-6.98438,6.8125,0.0078125,0.00195312,-0.0117188,4,0,41.43573954715522,-91.79404476295842,11108.117012496552,-0.7966242256486745,1.4519656609169542,-3.767330305150449,197.909,9006.830035856614,10864.345111209012,150,True,16.427157263924148,False,124.6293040411887,174.6658279736187,False,60.68996702207777,False,False
3,1970-07-23 10:29:32.687274080,2025-09-12,2025-09-26 17:14:28.727,AH,C,1518746082,JASSM,3,104,76,2,2,1,225,9,2,0,1,26,0,0,0,0,-177382.50818045562,-4779336.073213424,4210297.304167271,-2.36684,-0.400465,0.381482,77.875,-32.875,-33.75,0.0,0.0,0.0,0.0,0.0,0.0,2,0,41.54934295092961,-92.12552668336647,10002.623613782487,119.82909116832296,-0.0033487105114481,0.001812182794107,,9006.830035856614,10864.345111209012,150,3,2025-09-12,2025-09-26 17:14:28.725,AH,C,28089194,HAWK11,1,1,73,2,1,1,225,2,1,0,0,12,1,225,2,1,-150009.22693045562,-4788781.735322799,4201193.290495396,3.08292,1.56274,-0.872739,-8.25,84.5,97.0,0.046875,-6.84375,6.5,0.0234375,0.0,0.0078125,4,0,41.437270933177246,-91.794211228004,11111.83347163846,-0.8568512829837657,1.4490147059662115,-2.3623694787349034,197.799,9006.830035856614,10864.345111209012,150,True,16.326181761173302,False,124.78791751213035,174.3667187917258,False,60.83176735090244,False,False
3,1970-07-23 10:29:32.698312627,2025-09-12,2025-09-26 17:14:29.831,AH,C,1520058434,JASSM,3,104,76,2,2,1,225,9,2,0,1,26,0,0,0,0,-177296.78161795562,-4779372.370088424,4210259.964323521,-2.36684,-0.400465,0.381482,77.875,-32.875,-33.75,0.0,0.0,0.0,0.0,0.0,0.0,2,0,41.54889393069586,-92.1244842669491,10002.625022062652,119.8297825634582,-0.002448587271721,0.0018107059498924,,9006.830035856614,10864.345111209012,150,3,2025-09-12,2025-09-26 17:14:29.929,AH,C,29600326,HAWK11,1,1,73,2,1,1,225,2,1,0,0,12,1,225,2,1,-150019.82068045562,-4788674.057588424,4201315.841276646,3.10219,1.56217,-0.871205,-8.375,85.125,96.625,0.0,-6.90625,6.67188,0.00390625,0.0,-0.00585938,4,0,41.43873672130516,-91.79437817450808,11114.033209665902,-0.8372696413395806,1.36223911224499,-1.2828864186358448,197.983,9006.830035856614,10864.345111209012,150,True,16.229680909221138,False,124.85019801817462,174.07745195784295,False,61.05670322778732,False,False
3,1970-07-23 10:29:32.709313810,2025-09-12,2025-09-26 17:14:30.931,AH,C,1521370786,JASSM,3,104,76,2,2,1,225,9,2,0,1,26,0,0,0,0,-177211.05505545562,-4779408.666963424,4210222.622526646,-2.36674,-0.400369,0.381482,77.875,-32.875,-33.75,0.0,0.0,0.0,0.0,0.0,0.0,2,0,41.5484448878232,-92.12344186495778,10002.627350170556,119.8268306935311,-0.005114879126015,0.0052558116386917,,9006.830035856614,10864.345111209012,150,3,2025-09-12,2025-09-26 17:14:30.835,AH,C,30435424,HAWK11,1,1,73,2,1,1,225,2,1,0,0,12,1,225,2,1,-150025.73864920562,-4788613.993135299,4201383.942839146,3.0973,1.5638,-0.868521,-8.375,85.125,97.0,-0.09375,-6.92188,6.6875,-0.00390625,0.00195312,-0.00390625,4,0,41.439552611112106,-91.79447140608568,11114.703815519631,-0.9002723457586608,1.210335649377603,-1.4930222136393605,198.056,9006.830035856614,10864.345111209012,150,True,16.152365925071802,False,124.83857260366528,173.90581563619503,False,61.241241942668985,False,False
3,1970-07-23 10:29:32.721756481,2025-09-12,2025-09-26 17:14:32.175,AH,C,1522683138,JASSM,3,104,76,2,2,1,225,9,2,0,1,26,0,0,0,0,-177125.32946951812,-4779444.961885299,4210185.278776646,-2.36674,-0.400369,0.381482,77.875,-32.875,-33.875,0.0,0.0,0.0,0.0,0.0,0.0,2,0,41.54799583374594,-92.12239948995038,10002.625894636769,119.8275220490246,-0.0042147565961613,0.005254259897295,,9006.830035856614,10864.345111209012,150,3,2025-09-12,2025-09-26 17:14:32.131,AH,C,32145390,HAWK11,1,1,73,2,1,1,225,2,1,0,0,12,1,225,2,1,-150037.98083670562,-4788491.206025924,4201523.097136021,3.1111,1.55565,-0.867754,-8.5,85.5,97.125,-0.15625,-7.14062,6.82812,-0.0117188,0.00390625,-0.00390625,4,0,41.44122004781753,-91.79466372797344,11115.962907700618,-0.5992891554729821,1.1634839164314963,-1.0519635868425417,198.288,9006.830035856614,10864.345111209012,150,True,16.05066233976358,False,124.93819846087634,173.5177735189791,False,61.52590335213969,False,False
3,1970-07-23 10:29:32.732353006,2025-09-12,2025-09-26 17:14:33.235,AH,C,1524055140,JASSM,3,104,76,2,2,1,225,9,2,0,1,26,0,0,0,0,-177035.70642264312,-4779482.905244674,4210146.237761021,-2.36674,-0.400369,0.381482,77.875,-32.875,-33.875,0.0,0.0,0.0,0.0,0.0,0.0,2,0,41.54752636730493,-92.121309740179,10002.626942793304,119.82824481927848,-0.0032737177970664,0.0052526492069314,,9006.830035856614,10864.345111209012,150,3,2025-09-12,2025-09-26 17:14:33.131,AH,C,33338388,HAWK11,1,1,73,2,1,1,225,2,1,0,0,12,1,225,2,1,-150046.63903983062,-4788404.864229049,4201620.899870396,3.09519,1.55757,-0.867179,-8.625,85.625,97.375,0.0,-7.09375,6.82812,0.0,0.0,-0.00195312,4,0,41.4423922258546,-91.79479956549636,11116.758140590857,-0.670864676408765,1.1326136242851832,-1.881386124409044,198.545,9006.830035856614,10864.345111209012,150,True,15.96113136853282,False,124.98438652206563,173.27351337100257,False,61.72483620300366,False,False
3,1970-07-23 10:29:32.743005257,2025-09-12,2025-09-26 17:14:34.300,AH,C,1525367492,JASSM,3,104,76,2,2,1,225,9,2,0,1,26,0,0,0,0,-176949.97986014312,-4779519.196260299,4210108.892057896,-2.36674,-0.400369,0.381482,77.875,-32.875,-33.875,0.0,0.0,0.0,0.0,0.0,0.0,2,0,41.54707730418996,-92.12026738471968,10002.622138433651,119.82893614925018,-0.0023735938106071,0.0052511100768505,,9006.830035856614,10864.345111209012,150,3,2025-09-12,2025-09-26 17:14:34.335,AH,C,34769986,HAWK11,1,1,73,2,1,1,225,2,1,0,0,12,1,225,2,1,-150056.81677420562,-4788301.817354049,4201737.827604771,3.11791,1.55143,-0.869671,-8.625,85.625,97.75,-0.125,-7.23438,7.03125,0.0175781,0.00585938,0.00195312,4,0,41.44379258682754,-91.79495983038323,11118.146519104115,-0.4422030295248471,1.274269278671078,-0.842953198520712,198.911,9006.830035856614,10864.345111209012,150,True,15.867967939610777,False,124.97271006276407,172.9838715506532,False,62.027802228039114,False,False
3,1970-07-23 10:29:32.754232449,2025-09-12,2025-09-26 17:14:35.423,AH,C,1526739484,JASSM,3,104,76,2,2,1,225,9,2,0,1,26,0,0,0,0,-176860.35778983062,-4779557.137666549,4210069.849089146,-2.36674,-0.400369,0.381482,77.875,-32.875,-33.875,0.0,0.0,0.0,0.0,0.0,0.0,2,0,41.54660781574876,-92.1191776783526,10002.625288299309,119.8296588775904,-0.0014325621574379,0.0052494931315162,,9006.830035856614,10864.345111209012,150,3,2025-09-12,2025-09-26 17:14:35.524,AH,C,36042518,HAWK11,1,1,73,2,1,1,225,2,1,0,0,12,1,225,2,1,-150065.99841483062,-4788210.856416549,4201841.265104771,3.12692,1.54769,-0.872643,-8.625,85.625,98.0,-0.28125,-7.26562,6.96875,0.0,-0.00195312,0.00585938,4,0,41.44503017703302,-91.79510366646495,11119.883581784674,-0.303016684391045,1.4447453372341572,-0.4870931889080148,199.254,9006.830035856614,10864.345111209012,150,True,15.777238812745907,False,124.9648741250876,172.72109381970435,False,62.29956346009967,False,False
3,1970-07-23 10:29:32.773753396,2025-09-12,2025-09-26 17:14:37.375,AH,C,1527992194,JASSM,3,104,76,2,2,1,225,9,2,0,1,26,0,0,0,0,-176778.52771170562,-4779591.778291549,4210034.198698521,-2.36674,-0.400369,0.381578,77.875,-32.875,-33.875,0.0,0.0,0.0,0.0,0.0,0.0,2,0,41.54617913613976,-92.1181827287672,10002.62387814,119.83416147984671,-0.0044987106430056,0.0052478456553662,,9006.830035856614,10864.345111209012,150,3,2025-09-12,2025-09-26 17:14:37.335,AH,C,38348982,HAWK11,1,1,73,2,1,1,225,2,1,0,0,12,1,225,2,1,-150083.02380545562,-4788044.485322799,4202031.403776646,-3.13536,1.53341,-0.876478,-8.625,85.5,98.5,-0.34375,-7.28125,6.92188,0.0078125,0.0,-0.00195312,4,0,41.44730012374973,-91.79536953358198,11125.161592201825,0.2221024087917372,1.6663124486713952,0.096868151604502,199.547,9006.830035856614,10864.345111209012,150,True,15.663076584924577,False,124.95000586473724,172.25701524238954,False,62.78094195052117,False,False
3,1970-07-23 10:29:32.775291534,2025-09-12,2025-09-26 17:14:37.529,AH,C,1529244892,JASSM,3,104,76,2,2,1,225,9,2,0,1,26,0,0,0,0,-176696.69763358062,-4779626.416963424,4209998.548307896,-2.36674,-0.400369,0.381578,77.875,-32.875,-33.875,0.0,0.0,0.0,0.0,0.0,0.0,2,0,41.545750459539946,-92.11718779319008,10002.622386056077,119.83482134179192,-0.0036395012464167,0.0052464356384206,,9006.830035856614,10864.345111209012,150,3,2025-09-12,2025-09-26 17:14:37.631,AH,C,38746650,HAWK11,1,1,73,2,1,1,225,2,1,0,0,12,1,225,2,1,-150085.56286795562,-4788016.391572799,4202063.651823521,-3.12539,1.52813,-0.874848,-8.375,85.75,98.5,-0.15625,-7.20312,7.03125,0.00976562,0.0078125,0.0136719,4,0,41.44768444397435,-91.79541041489924,11126.336129019948,0.4162622770109831,1.574574172313676,0.4416641180087155,199.62,9006.830035856614,10864.345111209012,150,True,15.601665237510693,False,124.83898081640166,172.1559791362417,False,62.99230668307374,False,False
3,1970-07-23 10:29:32.786312058,2025-09-12,2025-09-26 17:14:38.631,AH,C,1530557242,JASSM,3,104,76,2,2,1,225,9,2,0,1,26,0,0,0,0,-176610.97107108062,-4779662.704072799,4209961.200651646,-2.36674,-0.400369,0.381578,77.875,-32.875,-33.875,0.0,0.0,0.0,0.0,0.0,0.0,2,0,41.54530136906858,-92.1161454965048,10002.624191248337,119.8355126086095,-0.0027393830494262,0.0052449648713952,,9006.830035856614,10864.345111209012,150,3,2025-09-12,2025-09-26 17:14:38.631,AH,C,39979414,HAWK11,1,1,73,2,1,1,225,2,1,0,0,12,1,225,2,1,-150094.11364920562,-4787927.844697799,4202165.692839146,-3.06652,1.50963,-0.877629,-8.0,85.375,99.125,-0.109375,-7.39062,7.07812,0.150391,0.0117188,0.0117188,4,0,41.44889835655823,-91.79554582141884,11130.95624185308,1.0924802675614689,1.7455379467707843,3.019588870827077,199.804,9006.830035856614,10864.345111209012,150,True,15.515316229811885,False,124.65830032452625,171.88928735003518,False,63.442524868547274,False,False
3,1970-07-23 10:29:32.797332443,2025-09-12,2025-09-26 17:14:39.733,AH,C,1531869594,JASSM,3,104,76,2,2,1,225,9,2,0,1,26,0,0,0,0,-176525.24450858062,-4779698.991182174,4209923.849089146,-2.36674,-0.400273,0.381578,77.875,-32.875,-33.875,0.0,0.0,0.0,0.0,0.0,0.0,2,0,41.54485224280455,-92.11510321424431,10002.622666754509,119.83256087855976,-0.0054056670448642,0.003198122821502,,9006.830035856614,10864.345111209012,150,3,2025-09-12,2025-09-26 17:14:39.631,AH,C,41172414,HAWK11,1,1,73,2,1,1,225,2,1,0,0,12,1,225,2,1,-150101.22302420562,-4787842.397432174,4202265.126432896,-2.89251,1.48806,-0.884052,-6.375,84.875,99.625,-0.125,-7.73438,7.35938,0.125,0.0214844,0.00585938,4,0,41.4500764941152,-91.7956628389066,11137.43039979995,1.8679661634134723,2.1385271651993825,12.062798701159766,199.681,9006.830035856614,10864.345111209012,150,False,15.430867565219625,False,123.93613704162681,171.62575497355164,False,64.43056508459132,False,False
3,1970-07-23 10:29:32.808352967,2025-09-12,2025-09-26 17:14:40.835,AH,C,1533181946,JASSM,3,104,76,2,2,1,225,9,2,0,1,26,0,0,0,0,-176439.51794608062,-4779735.276338424,4209886.499479771,-2.36674,-0.400273,0.381578,77.875,-32.875,-33.875,0.0,0.0,0.0,0.0,0.0,0.0,2,0,41.54440313186329,-92.11406094727224,10002.625769262657,119.83325211349243,-0.0045055486140757,0.0031965931130558,,9006.830035856614,10864.345111209012,150,3,2025-09-12,2025-09-26 17:14:40.631,AH,C,42365412,HAWK11,1,1,73,2,1,1,225,2,1,0,0,12,1,225,2,1,-150105.94568045562,-4787757.311494674,4202365.001432896,-2.78418,1.44942,-0.884436,-3.5,84.375,100.125,-0.140625,-7.73438,7.34375,0.0429688,0.0195312,0.0234375,4,0,41.45125590196049,-91.7957511909609,11145.576281103706,3.268981646486491,2.2360065905015185,16.611392456157418,199.645,9006.830035856614,10864.345111209012,150,False,15.347922705407976,False,122.6668823226296,171.35724410952932,False,65.97019052329215,False,False
3,1970-07-23 10:29:32.819391849,2025-09-12,2025-09-26 17:14:41.939,AH,C,1534434644,JASSM,3,104,76,2,2,1,225,9,2,0,1,26,0,0,0,0,-176357.68884451812,-4779769.911104049,4209850.845182896,-2.36674,-0.400273,0.381578,77.875,-32.875,-33.875,0.0,0.0,0.0,0.0,0.0,0.0,2,0,41.54397441624383,-92.11306607956308,10002.625796047349,119.83391190735026,-0.0036463461490246,0.0031951205156982,,9006.830035856614,10864.345111209012,150,3,2025-09-12,2025-09-26 17:14:42.023,AH,C,43956078,HAWK11,1,1,73,2,1,1,225,2,1,0,0,12,1,225,2,1,-150107.64099295562,-4787644.385713424,4202498.813932896,-2.75666,1.39563,-0.87945,0.75,84.0,100.375,-0.140625,-7.42188,7.125,-0.0449219,0.0136719,0.0175781,4,0,41.45283054991325,-91.79581378806829,11158.782668709442,5.246578763147846,2.124463660752179,15.8841205454463,199.388,9006.830035856614,10864.345111209012,150,False,15.260307102731915,False,120.80058140284514,171.00289340375144,False,68.19168806264747,False,False
3,1970-07-23 10:29:32.829251617,2025-09-12,2025-09-26 17:14:42.925,AH,C,1535746996,JASSM,3,104,76,2,2,1,225,9,2,0,1,26,0,0,0,0,-176271.96130545562,-4779806.194307174,4209813.491667271,-2.36674,-0.400273,0.381578,77.875,-32.875,-33.875,0.0,0.0,0.0,0.0,0.0,0.0,2,0,41.54352527232376,-92.11202382995698,10002.62562279629,119.83460311876767,-0.0027462133637716,0.0031935822262103,,9006.830035856614,10864.345111209012,150,3,2025-09-12,2025-09-26 17:14:42.929,AH,C,45069542,HAWK11,1,1,73,2,1,1,225,2,1,0,0,12,1,225,2,1,-150105.70544608062,-4787564.512666549,4202593.384245396,-2.78887,1.3778,-0.860659,3.25,84.625,100.125,0.15625,-6.40625,6.14062,-0.0253906,-0.00390625,0.0332031,4,0,41.45394437831621,-91.79582058765068,11167.726469594983,6.02419688555528,1.131114722222449,13.279615508486346,199.425,9006.830035856614,10864.345111209012,150,False,15.182977047196456,False,119.7217000195801,170.73686208178356,False,69.53466689632862,False,False
3,1970-07-23 10:29:32.841753800,2025-09-12,2025-09-26 17:14:44.175,AH,C,1537059346,JASSM,3,104,76,2,2,1,225,9,2,0,1,26,0,0,0,0,-176186.23474295562,-4779842.475557174,4209776.136198521,-2.36674,-0.400273,0.381578,77.875,-32.875,-33.875,0.0,0.0,0.0,0.0,0.0,0.0,2,0,41.54307611720106,-92.11098160732764,10002.62166547271,119.83529430615545,-0.001846087801185,0.0031920377284817,,9006.830035856614,10864.345111209012,150,3,2025-09-12,2025-09-26 17:14:44.131,AH,C,46342074,HAWK11,1,1,73,2,1,1,225,2,1,0,0,12,1,225,2,1,-150100.56286795562,-4787473.127900924,4202700.116667271,-2.80124,1.35911,-0.852126,5.625,85.125,99.75,0.1875,-7.01562,6.28125,-0.0371094,0.0078125,0.0253906,4,0,41.45520938261228,-91.79579335919976,11174.55512897686,6.782728542051332,0.7370026357162842,11.774217566419132,199.351,9006.830035856614,10864.345111209012,150,False,15.10424320387594,False,118.69716429860516,170.43411957723808,False,70.8598454646548,False,False
3,1970-07-23 10:29:32.851291487,2025-09-12,2025-09-26 17:14:45.129,AH,C,1538371698,JASSM,3,104,76,2,2,1,225,9,2,0,1,26,0,0,0,0,-176100.50818045562,-4779878.756807174,4209738.780729771,-2.36674,-0.400273,0.381578,77.875,-32.875,-33.875,0.0,0.0,0.0,0.0,0.0,0.0,2,0,41.54262695259754,-92.10993939912254,10002.622878049851,119.83598547783798,-0.0009459621679717,0.0031904931896929,,9006.830035856614,10864.345111209012,150,3,2025-09-12,2025-09-26 17:14:45.021,AH,C,47535074,HAWK11,1,1,73,2,1,1,225,2,1,0,0,12,1,225,2,1,-150093.36950858062,-4787387.262666549,4202799.487761021,-2.81879,1.329,-0.844265,7.75,85.375,99.25,-0.0625,-7.45312,6.32812,-0.0449219,0.00390625,0.0273438,4,0,41.45639225205896,-91.79573954087908,11178.811620930044,7.976917871728614,0.4585562719218651,9.487688841434329,199.351,9006.830035856614,10864.345111209012,150,True,15.02875542587445,False,117.77435912833961,170.14428119649526,False,72.07056755044268,False,False
3,1970-07-23 10:29:32.875773327,2025-09-12,2025-09-26 17:14:47.577,AH,C,1540936748,JASSM,3,104,76,2,2,1,225,9,2,0,1,26,0,0,0,0,-175932.95153983062,-4779949.665010299,4209665.765104771,-2.36674,-0.400273,0.381674,77.875,-32.875,-33.875,0.0,0.0,0.0,0.0,0.0,0.0,2,0,41.54174902539943,-92.10790239760568,10002.621729033644,119.84117922554825,-0.0031118578489229,0.0031874081770003,,9006.830035856614,10864.345111209012,150,3,2025-09-12,2025-09-26 17:14:47.429,AH,C,50477804,HAWK11,1,1,73,2,1,1,225,2,1,0,0,12,1,225,2,1,-150067.94177420562,-4787174.497041549,4203043.198698521,-2.90613,1.30187,-0.826336,11.25,86.0,98.0,-0.234375,-7.35938,6.03125,-0.0175781,-0.00195312,0.0078125,4,0,41.4593077014759,-91.7955152645618,11183.335562564684,9.176543529944182,-0.377717941648265,3.331743934218144,199.119,9006.830035856614,10864.345111209012,150,True,14.875306112674421,False,116.24959935378894,169.43187153204562,False,74.30241530361876,False,False
3,1970-07-23 10:29:32.878961227,2025-09-12,2025-09-26 17:14:47.896,AH,C,1539624398,JASSM,3,104,76,2,2,1,225,9,2,0,1,26,0,0,0,0,-176018.67810233062,-4779913.387666549,4209703.122526646,-2.36674,-0.400273,0.381674,77.875,-32.875,-33.875,0.0,0.0,0.0,0.0,0.0,0.0,2,0,41.54219819839102,-92.10894457589607,10002.624246926029,119.84048808560264,-0.0040119775570327,0.0031888842683429,,9006.830035856614,10864.345111209012,150,3,2025-09-12,2025-09-26 17:14:47.835,AH,C,50955004,HAWK11,1,1,73,2,1,1,225,2,1,0,0,12,1,225,2,1,-150063.46521170562,-4787140.762666549,4203081.776823521,-2.91466,1.29794,-0.825665,11.5,85.75,98.0,-0.015625,-7.45312,6.17188,-0.0332031,0.00390625,0.0,4,0,41.45976961127394,-91.79547438308094,11183.887381752404,9.3336367703671,-0.3879526814086804,2.6762604073069767,199.205,9006.830035856614,10864.345111209012,150,True,14.920839864138213,False,116.13185555122733,169.36787626937783,False,74.48518244768572,False,False
3,1970-07-23 10:29:32.884352439,2025-09-12,2025-09-26 17:14:48.435,AH,C,1542249098,JASSM,3,104,76,2,2,1,225,9,2,0,1,26,0,0,0,0,-175847.22448904935,-4779985.942354049,4209628.407682896,-2.36674,-0.400177,0.381674,77.875,-32.875,-33.875,0.0,0.0,0.0,0.0,0.0,0.0,2,0,41.54129984303508,-92.106860227894,10002.62433689888,119.83822764074353,-0.0057781432992073,0.001140120793945,,9006.830035856614,10864.345111209012,150,3,2025-09-12,2025-09-26 17:14:48.631,AH,C,51829868,HAWK11,1,1,73,2,1,1,225,2,1,0,0,12,1,225,2,1,-150054.50036795562,-4787077.596650924,4203153.770964146,-2.93901,1.29497,-0.824515,12.0,85.875,97.75,-0.109375,-7.46875,6.23438,-0.0351562,-0.00390625,-0.00976562,4,0,41.460632994880726,-91.79539086557938,11184.354671591964,9.459227972412918,-0.431092667566463,1.1550881702214724,199.156,9006.830035856614,10864.345111209012,150,True,14.801377825856566,False,115.91279174069945,169.09748327845722,False,74.97349253894458,False,False
3,1970-07-23 10:29:32.894251651,2025-09-12,2025-09-26 17:14:49.425,AH,C,1543501798,JASSM,3,104,76,2,2,1,225,9,2,0,1,26,0,0,0,0,-175765.39441092435,-4780020.569307174,4209592.745573521,-2.36674,-0.400177,0.381674,77.875,-32.875,-33.875,0.0,0.0,0.0,0.0,0.0,0.0,2,0,41.540871059078015,-92.1058654470674,10002.622201365148,119.83888733668614,-0.0049189321185124,0.0011386489546065,,9006.830035856614,10864.345111209012,150,3,2025-09-12,2025-09-26 17:14:49.336,AH,C,52704734,HAWK11,1,1,73,2,1,1,225,2,1,0,0,12,1,225,2,1,-150045.34607108062,-4787014.727510299,4203225.415495396,-2.98378,1.29899,-0.824035,12.25,85.875,97.5,-0.15625,-7.46875,6.20312,-0.0820312,0.0,0.00390625,4,0,41.46149228783808,-91.79530496926104,11184.78223835608,9.31010172153524,-0.4854438049201059,-1.2395925974871087,199.229,9006.830035856614,10864.345111209012,150,True,14.737741446097276,False,115.7980158018075,168.86614621423556,False,75.31895439509442,False,False
3,1970-07-23 10:29:32.905250866,2025-09-12,2025-09-26 17:14:50.525,AH,C,1544814150,JASSM,3,104,76,2,2,1,225,9,2,0,1,26,0,0,0,0,-175679.66736014312,-4780056.844697799,4209555.386198521,-2.36674,-0.400177,0.381674,77.875,-32.875,-33.875,0.0,0.0,0.0,0.0,0.0,0.0,2,0,41.5404218566779,-92.10482330640758,10002.625871604256,119.83957843363642,-0.004018808364664,0.0011371161564059,,9006.830035856614,10864.345111209012,150,3,2025-09-12,2025-09-26 17:14:50.521,AH,C,54136334,HAWK11,1,1,73,2,1,1,225,2,1,0,0,12,1,225,2,1,-150030.63903983062,-4786911.442354049,4203342.905729771,-3.08273,1.29679,-0.82509,11.625,85.875,97.25,0.125,-7.32812,6.0,-0.0507812,-0.00585938,0.0,4,0,41.462902495463474,-91.79516782095344,11185.060723257076,9.383744000413424,-0.4092138593891847,-7.001755792347963,199.119,9006.830035856614,10864.345111209012,150,True,14.663609138534763,False,116.06587184881582,168.50630809281674,False,75.41056560534756,False,False
3,1970-07-23 10:29:32.916288582,2025-09-12,2025-09-26 17:14:51.628,AH,C,1546126500,JASSM,3,104,76,2,2,1,225,9,2,0,1,26,0,0,0,0,-175593.94030936187,-4780093.118135299,4209518.024870396,-2.36674,-0.400177,0.381674,77.875,-32.875,-33.875,0.0,0.0,0.0,0.0,0.0,0.0,2,0,41.5399726432908,-92.10378118103058,10002.625669353252,119.84026951431238,-0.0031186843480314,0.0011355816891562,,9006.830035856614,10864.345111209012,150,3,2025-09-12,2025-09-26 17:14:51.522,AH,C,55130498,HAWK11,1,1,73,2,1,1,225,2,1,0,0,12,1,225,2,1,-150021.06482108062,-4786840.586885299,4203423.124479771,3.13785,1.32488,-0.832664,10.75,85.875,96.875,-0.21875,-7.40625,6.23438,-0.0664062,-0.00195312,-0.015625,4,0,41.46386725294559,-91.7950798903489,11184.469681949537,8.238362515359741,-0.1653263751082211,-9.396433688450944,199.009,9006.830035856614,10864.345111209012,150,True,14.596304457421041,False,116.4419937030437,168.24470712627704,False,75.29512510574911,False,False
3,1970-07-23 10:29:32.927310607,2025-09-12,2025-09-26 17:14:52.731,AH,C,1547438850,JASSM,3,104,76,2,2,1,225,9,2,0,1,26,0,0,0,0,-175508.21325858062,-4780129.391572799,4209480.661589146,-2.36674,-0.400177,0.381674,77.875,-32.875,-33.875,0.0,0.0,0.0,0.0,0.0,0.0,2,0,41.53952340726848,-92.1027390700771,10002.626387666369,119.84096057928429,-0.0022185537145156,0.0011340357688466,,9006.830035856614,10864.345111209012,150,3,2025-09-12,2025-09-26 17:14:52.835,AH,C,56880230,HAWK11,1,1,73,2,1,1,225,2,1,0,0,12,1,225,2,1,-150006.76794608062,-4786715.032197799,4203565.099089146,3.08081,1.35403,-0.843977,8.375,85.875,96.375,0.15625,-7.5625,6.48438,0.0195312,0.0234375,-0.0195312,4,0,41.46557513077981,-91.79495598207302,11183.269557907566,7.037717119876207,0.3110574271305591,-11.424582826011854,198.973,9006.830035856614,10864.345111209012,150,False,14.517156552787203,False,117.48011614305078,167.81222299704766,False,74.6885099940936,False,False
