Subject_cm,Timestamp,SampleDate_cm,SampleTime_cm,Configuration_cm,Scenario_cm,DisTime_cm,MarkingTxt_cm,Application_cm,EntId_cm,Site_cm,ExerciseId_cm,ForceId_cm,Category_cm,Country_cm,Domain_cm,Kind_cm,Extra_cm,Specific_cm,Subcategory_cm,AltCategory_cm,AltCountry_cm,AltDomain_cm,AltKind_cm,ECEF_X_cm,ECEF_Y_cm,ECEF_Z_cm,OriPhi_cm,OriPsi_cm,OriTheta_cm,LinVelX_cm,LinVelY_cm,LinVelZ_cm,LinAccX_cm,LinAccY_cm,LinAccZ_cm,AngVelX_cm,AngVelY_cm,AngVelZ_cm,DrAlg_cm,Appearance_cm,Latitude_cm,Longitude_cm,Altitude_cm,Heading_cm,Pitch_cm,Roll_cm,CalibratedAirspeed_cm,CM_Altitude_Lead_cm,CM_Altitude_Wing_cm,CM_Airspeed_cm,Subject_ac,SampleDate_ac,SampleTime_ac,Configuration_ac,Scenario_ac,DisTime_ac,MarkingTxt_ac,Application_ac,EntId_ac,Site_ac,ExerciseId_ac,ForceId_ac,Category_ac,Country_ac,Domain_ac,Kind_ac,Extra_ac,Specific_ac,Subcategory_ac,AltCategory_ac,AltCountry_ac,AltDomain_ac,AltKind_ac,ECEF_X_ac,ECEF_Y_ac,ECEF_Z_ac,OriPhi_ac,OriPsi_ac,OriTheta_ac,LinVelX_ac,LinVelY_ac,LinVelZ_ac,LinAccX_ac,LinAccY_ac,LinAccZ_ac,AngVelX_ac,AngVelY_ac,AngVelZ_ac,DrAlg_ac,Appearance_ac,Latitude_ac,Longitude_ac,Altitude_ac,Heading_ac,Pitch_ac,Roll_ac,CalibratedAirspeed_ac,CM_Altitude_Lead_ac,CM_Altitude_Wing_ac,CM_Airspeed_ac,Bank_Angle_Condition,distance_nm,Distance_Condition,angle_between_vel,angle_between_pos,Cone_Condition,angle_between_pos_nose,Nose_Cone_Condition,Intercept_Criteria
3,1970-07-23 09:46:55.609354919,2025-09-09,2025-09-26 18:12:40.935,HH,D,2616418570,JASSM,3,119,76,2,2,1,225,9,2,0,1,26,0,0,0,0,-171305.56286795562,-4793410.872041549,4194623.352018833,-2.29541,0.0350898,-0.0800546,95.625,3.375,7.625,0.0,0.0,0.0,0.0,0.0,0.0,2,0,41.36113772215921,-92.04674931113313,10000.00054238077,83.87915846735049,-0.0051871873466388,0.0066288575475706,,8985.541639556859,11104.004603147412,150,3,2025-09-09,2025-09-26 18:12:41.086,HH,D,573379546,AMBUSH51,1,1,48,2,1,1,225,2,1,0,0,9,1,225,2,1,-155757.71961740725,-4792915.155696037,4195304.705266796,2.16774,3.07319,-0.0181491,-124.638,8.13899,1.91456,-0.162065,-7.72724,6.11132,-0.0431734,0.00904539,-0.00632189,4,0,41.371839852304966,-91.8613140566575,8952.088629764763,-87.85943449706812,-0.856380008936105,-7.204237285477789,203.739,8985.541639556859,11104.004603147412,150,True,8.375462459665261,False,172.08654782216723,177.94253820229943,False,6.5107906927515335,True,False
3,1970-07-23 09:46:55.619363330,2025-09-09,2025-09-26 18:12:41.936,HH,D,2617611616,JASSM,3,119,76,2,2,1,225,9,2,0,1,26,0,0,0,0,-171209.96423514312,-4793407.541963424,4194631.008268833,-2.29541,0.0348022,-0.079767,95.625,3.375,7.625,0.0,0.0,0.0,0.0,0.0,0.0,2,0,41.36122952997977,-92.04560949457031,9999.999009878426,83.90313949437737,-0.0029528410341447,0.0053119614842694,,8985.541639556859,11104.004603147412,150,3,2025-09-09,2025-09-26 18:12:41.819,HH,D,574254412,AMBUSH51,1,1,48,2,1,1,225,2,1,0,0,9,1,225,2,1,-155848.9436900551,-4792909.501235422,4195305.590982623,2.11833,3.07794,-0.0139401,-124.408,7.46462,1.0426,-0.0946958,-7.87322,6.23127,-0.0551493,-6.13775e-05,-0.0137767,4,0,41.3718618221,-91.86240561792144,8947.3921836135,-88.22080172060257,-0.8112058031302876,-10.025476452338223,203.372,8985.541639556859,11104.004603147412,150,False,8.27493920795577,False,172.57995261465118,177.95043640358202,False,6.077134556393064,True,False
3,1970-07-23 09:46:55.630413067,2025-09-09,2025-09-26 18:12:43.041,HH,D,2618852938,JASSM,3,119,76,2,2,1,225,9,2,0,1,26,0,0,0,0,-171110.49646170562,-4793404.077119674,4194638.974089146,-2.29541,0.0348022,-0.079767,95.625,3.375,7.625,0.0,0.0,0.0,0.0,0.0,0.0,2,0,41.36132503943948,-92.0444235430785,10000.00181447945,83.9039231767494,-0.0020576065854512,0.0053123970139403,,8985.541639556859,11104.004603147412,150,3,2025-09-09,2025-09-26 18:12:43.119,HH,D,575805310,AMBUSH51,1,1,48,2,1,1,225,2,1,0,0,9,1,225,2,1,-156010.2604438385,-4792901.042304825,4195305.660516067,2.0477,3.09338,0.00423302,-124.007,5.7449,-0.915057,-0.0380308,-7.71467,6.07128,-0.0398465,-0.00317395,-0.0144258,4,0,41.3718813811411,-91.86433529255936,8939.642099484294,-89.58830267371314,-0.8343671299442108,-14.048414336439302,202.785,8985.541639556859,11104.004603147412,150,False,8.1346884527349,False,173.76438755419375,177.96724527100704,False,5.020913249617867,True,False
3,1970-07-23 09:46:55.641450568,2025-09-09,2025-09-26 18:12:44.145,HH,D,2620165156,JASSM,3,119,76,2,2,1,225,9,2,0,1,26,0,0,0,0,-171005.34802420562,-4793400.412080611,4194647.393034458,-2.29541,0.0348022,-0.079767,95.625,3.375,7.625,0.0,0.0,0.0,0.0,0.0,0.0,2,0,41.36142599176538,-92.04316985840391,10000.000725745604,83.90475161915053,-0.0011112453495504,0.0053128589899522,,8985.541639556859,11104.004603147412,150,3,2025-09-09,2025-09-26 18:12:44.353,HH,D,577276676,AMBUSH51,1,1,48,2,1,1,225,2,1,0,0,9,1,225,2,1,-156163.26621578107,-4792895.251048598,4195303.129350123,2.0153,3.12034,0.0284078,-123.438,3.62759,-3.24563,-0.0767107,-8.12498,6.37522,-0.0162359,0.00428082,-0.0262935,4,0,41.37186909196958,-91.8661646850406,8932.164043058528,-91.64991526760716,-0.5893322583736476,-15.904474286933056,202.138,8985.541639556859,11104.004603147412,150,False,7.995728051485208,False,175.2052318306868,177.97078586120088,False,3.7716882901225146,True,False
3,1970-07-23 09:46:55.651314107,2025-09-09,2025-09-26 18:12:45.131,HH,D,2621418534,JASSM,3,119,76,2,2,1,225,9,2,0,1,26,0,0,0,0,-170904.91443045562,-4793396.910127486,4194655.433073521,-2.29541,0.0348981,-0.079767,95.625,3.375,7.625,0.0,0.0,0.0,0.0,0.0,0.0,2,0,41.36152240263132,-92.04197238572084,9999.99890170384,83.90191296374027,-0.0043069371948964,0.0057511512015108,,8985.541639556859,11104.004603147412,150,3,2025-09-09,2025-09-26 18:12:45.120,HH,D,578191308,AMBUSH51,1,1,48,2,1,1,225,2,1,0,0,9,1,225,2,1,-156257.7843052486,-4792893.155850297,4195300.127906263,2.00987,3.13478,0.0398454,-123.133,1.88175,-4.48604,-0.076704,-8.3481,6.72325,-0.00557287,0.0173262,-0.0212564,4,0,41.37184296165516,-91.86729420080124,8928.08025626882,-92.6891414809253,-0.4011410045709061,-16.234595884334254,201.844,8985.541639556859,11104.004603147412,150,False,7.890670444675321,False,176.19694345497675,177.9619028746309,False,2.875725978108484,True,False
3,1970-07-23 09:46:55.667608047,2025-09-09,2025-09-26 18:12:46.760,HH,D,2622730170,JASSM,3,119,76,2,2,1,225,9,2,0,1,26,0,0,0,0,-170799.812623815,-4793393.245088424,4194663.846159458,-2.29541,0.0348981,-0.079767,95.625,3.375,7.625,0.0,0.0,0.0,0.0,0.0,0.0,2,0,41.36162327879762,-92.04071925014723,10000.0003816054,83.90274104651758,-0.0033609966687399,0.0057515483239723,,8985.541639556859,11104.004603147412,150,3,2025-09-09,2025-09-26 18:12:46.886,HH,D,580298940,AMBUSH51,1,1,48,2,1,1,225,2,1,0,0,9,1,225,2,1,-156473.29854061452,-4792893.31061887,4195289.088073411,2.03281,-3.11471,0.0698323,-122.074,-1.98728,-7.7238,-0.261401,-8.16766,6.78347,0.0577063,5.92969e-05,-0.0261229,4,0,41.371725674836725,-91.86986772743164,8921.823462665392,-95.25448314502148,-0.091102534220749,-15.01538344893316,200.891,8985.541639556859,11104.004603147412,150,False,7.717835563378714,False,178.56614008875897,177.941077551127,False,1.5468800888579364,True,False
3,1970-07-23 09:46:55.673627829,2025-09-09,2025-09-26 18:12:47.362,HH,D,2623983646,JASSM,3,119,76,2,2,1,225,9,2,0,1,26,0,0,0,0,-170699.371217565,-4793389.740205611,4194671.885221958,-2.29541,0.0348981,-0.0796711,95.625,3.375,7.625,0.0,0.0,0.0,0.0,0.0,0.0,2,0,41.361719676630536,-92.03952167821257,9999.999225103167,83.9076450948368,-0.0060985496839551,0.0057516282159619,,8985.541639556859,11104.004603147412,150,3,2025-09-09,2025-09-26 18:12:47.286,HH,D,580776140,AMBUSH51,1,1,48,2,1,1,225,2,1,0,0,9,1,225,2,1,-156521.81770572133,-4792894.245263284,4195285.85758092,2.05479,-3.10357,0.0785537,-121.701,-2.76179,-8.35126,-0.232328,-8.24864,6.63607,0.0597266,0.00800509,-0.0180065,4,0,41.371688879867165,-91.87044675883426,8921.016698073277,-96.05081673244688,0.0547050848533173,-13.803116199492989,200.512,8985.541639556859,11104.004603147412,150,False,7.637437804337972,False,179.04264884309887,177.92188206440284,False,1.6070636780419112,True,False
3,1970-07-23 09:46:55.683415076,2025-09-09,2025-09-26 18:12:48.341,HH,D,2625235566,JASSM,3,119,76,2,2,1,225,9,2,0,1,26,0,0,0,0,-170599.05432303375,-4793386.239229049,4194679.913542271,-2.29541,0.0348981,-0.0796711,95.625,3.375,7.625,0.0,0.0,0.0,0.0,0.0,0.0,2,0,41.36181593988471,-92.03832558750112,10000.000516445514,83.90843548491395,-0.0051956749091995,0.0057520768376418,,8985.541639556859,11104.004603147412,150,3,2025-09-09,2025-09-26 18:12:48.453,HH,D,582167970,AMBUSH51,1,1,48,2,1,1,225,2,1,0,0,9,1,225,2,1,-156663.96837228065,-4792898.528807827,4195275.037380355,2.11493,-3.08776,0.0922188,-120.839,-4.53149,-10.0276,-0.267864,-8.05972,6.49509,0.0545293,0.00633645,-0.00842121,4,0,41.37156271911044,-91.87214258903572,8919.523061234824,-97.23678608501834,0.2118803630455291,-10.437320014691084,199.669,8985.541639556859,11104.004603147412,150,False,7.506549889123677,False,179.7769420880573,177.88766324911393,False,2.3008940976847922,True,False
3,1970-07-23 09:46:55.695957030,2025-09-09,2025-09-26 18:12:49.595,HH,D,2626428614,JASSM,3,119,76,2,2,1,225,9,2,0,1,26,0,0,0,0,-170503.45471365875,-4793382.901338424,4194687.562956333,-2.29541,0.0348981,-0.0796711,95.625,3.375,7.625,0.0,0.0,0.0,0.0,0.0,0.0,2,0,41.36190766472748,-92.0371857389382,9999.999793374956,83.9091887109624,-0.0043352572914434,0.0057525041981996,,8985.541639556859,11104.004603147412,150,3,2025-09-09,2025-09-26 18:12:49.586,HH,D,583520036,AMBUSH51,1,1,48,2,1,1,225,2,1,0,0,9,1,225,2,1,-156799.62663012987,-4792904.355411934,4195263.272837833,2.16935,-3.07698,0.102607,-120.094,-5.8959,-10.8786,-0.217063,-7.77279,6.25678,0.0303694,-0.00164263,-0.0180086,4,0,41.37142224386212,-91.87376028090785,8919.266553463425,-98.09095295201976,0.2767662580346009,-7.3827744465237375,198.924,8985.541639556859,11104.004603147412,150,True,7.381652196351403,False,179.0025557210387,177.84785012400465,False,2.881433299607716,True,False
3,1970-07-23 09:46:55.703332849,2025-09-09,2025-09-26 18:12:50.333,HH,D,2627621788,JASSM,3,119,76,2,2,1,225,9,2,0,1,26,0,0,0,0,-170407.84509451812,-4793379.562471236,4194695.212370396,-2.29541,0.0348981,-0.0796711,95.625,3.375,7.625,0.0,0.0,0.0,0.0,0.0,0.0,2,0,41.36199938619833,-92.0360457680923,10000.000519384925,83.90994201919321,-0.0034747499746682,0.0057529299080826,,8985.541639556859,11104.004603147412,150,3,2025-09-09,2025-09-26 18:12:50.286,HH,D,584355136,AMBUSH51,1,1,48,2,1,1,225,2,1,0,0,9,1,225,2,1,-156883.35082830398,-4792908.530996824,4195255.4489009045,2.18302,-3.07398,0.104268,-119.584,-6.38787,-11.3783,-0.11823,-7.72456,6.07457,-0.00388135,0.00320308,-0.00229386,4,0,41.3713282855575,-91.87475844169896,8919.317921997766,-98.2765564879024,0.3420693324094667,-6.618573285642466,198.142,8985.541639556859,11104.004603147412,150,True,7.284783136824216,False,178.64903840392878,177.814245443806,False,3.2356579946383373,True,False
3,1970-07-23 09:46:55.713972141,2025-09-09,2025-09-26 18:12:51.397,HH,D,2628815240,JASSM,3,119,76,2,2,1,225,9,2,0,1,26,0,0,0,0,-170312.21325858062,-4793376.221650924,4194702.861784458,-2.29541,0.0348981,-0.0796711,95.625,3.375,7.625,0.0,0.0,0.0,0.0,0.0,0.0,2,0,41.36209111267558,-92.03490552964892,9999.99922540261,83.91069550563276,-0.0026140436199741,0.0057533507324506,,8985.541639556859,11104.004603147412,150,3,2025-09-09,2025-09-26 18:12:51.352,HH,D,585627668,AMBUSH51,1,1,48,2,1,1,225,2,1,0,0,9,1,225,2,1,-157011.4686362072,-4792915.514215318,4195242.554455886,2.17001,-3.07463,0.113868,-118.953,-6.68154,-12.5302,-0.0694325,-7.16355,5.75658,-0.0140409,-0.00336952,-0.0143551,4,0,41.37117473415802,-91.876285625806,8918.86502774737,-98.66368520252942,-0.0502518989466416,-7.360616152376243,197.164,8985.541639556859,11104.004603147412,150,True,7.163877544997474,False,178.12704652588755,177.76564839088664,False,3.8809269288127966,True,False
3,1970-07-23 09:46:55.726377278,2025-09-09,2025-09-26 18:12:52.637,HH,D,2630127218,JASSM,3,119,76,2,2,1,225,9,2,0,1,26,0,0,0,0,-170207.08386404935,-4793372.547822799,4194711.270964146,-2.29541,0.0348981,-0.0796711,95.625,3.375,7.625,0.0,0.0,0.0,0.0,0.0,0.0,2,0,41.36219194355507,-92.03365204664364,10000.00042326131,83.9115238273428,-0.0016678568492253,0.0057538210355835,,8985.541639556859,11104.004603147412,150,3,2025-09-09,2025-09-26 18:12:52.486,HH,D,586979732,AMBUSH51,1,1,48,2,1,1,225,2,1,0,0,9,1,225,2,1,-157145.05378139787,-4792923.174625931,4195227.684728999,2.15218,-3.07041,0.123901,-118.288,-7.15501,-13.7238,-0.217638,-7.41602,6.0534,-0.0155181,-0.00113288,-0.00541475,4,0,41.371002729239294,-91.87787782538038,8916.244961092427,-99.25373385223716,-0.2521797519406394,-8.409540720542516,196.638,8985.541639556859,11104.004603147412,150,True,7.034846400101347,False,177.4989195252127,177.70592364359203,False,4.590488210189503,True,False
3,1970-07-23 09:46:55.735433640,2025-09-09,2025-09-26 18:12:53.543,HH,D,2631379744,JASSM,3,119,76,2,2,1,225,9,2,0,1,26,0,0,0,0,-170106.71814139312,-4793369.039033736,4194719.297331333,-2.29541,0.0349939,-0.0796711,95.625,3.375,7.625,0.0,0.0,0.0,0.0,0.0,0.0,2,0,41.36228818933605,-92.03245535903788,9999.999538376504,83.90868460581018,-0.0048641661706337,0.0061916298705026,,8985.541639556859,11104.004603147412,150,3,2025-09-09,2025-09-26 18:12:53.653,HH,D,588371564,AMBUSH51,1,1,48,2,1,1,225,2,1,0,0,9,1,225,2,1,-157283.38896784652,-4792931.759009136,4195210.740948633,2.15163,-3.06479,0.132934,-117.585,-7.72273,-15.1344,-0.084599,-7.32605,5.85731,0.00525246,-0.000716765,-0.00599107,4,0,41.37081027367698,-91.87952637687948,8911.794070737616,-99.85358511871698,-0.35719213989007,-8.479271200317307,195.954,8985.541639556859,11104.004603147412,150,True,6.905771871567313,False,176.74225841474694,177.63627033419232,False,5.4313378939438675,True,False
3,1970-07-23 09:46:55.745310962,2025-09-09,2025-09-26 18:12:54.531,HH,D,2632572802,JASSM,3,119,76,2,2,1,225,9,2,0,1,26,0,0,0,0,-170011.11779959625,-4793365.696260299,4194726.941862583,-2.29541,0.0349939,-0.0796711,95.625,3.375,7.625,0.0,0.0,0.0,0.0,0.0,0.0,2,0,41.36237985222258,-92.03131548732227,10000.000498301835,83.9094378542163,-0.0040037440225644,0.0061919981807022,,8985.541639556859,11104.004603147412,150,3,2025-09-09,2025-09-26 18:12:54.419,HH,D,589286196,AMBUSH51,1,1,48,2,1,1,225,2,1,0,0,9,1,225,2,1,-157373.52366646734,-4792937.810266669,4195198.856595917,2.15531,-3.06114,0.143596,-117.227,-8.23172,-15.8954,-0.0345017,-7.30334,5.96164,0.00856477,-0.00674217,-0.0160154,4,0,41.37067643765734,-91.88060033489388,8908.195462206115,-100.44776237342364,-0.6090131944057195,-8.291879394247719,195.502,8985.541639556859,11104.004603147412,150,True,6.805342053861844,False,176.27998107433055,177.57972697649163,False,5.937994800227046,True,False
3,1970-07-23 09:46:55.755355857,2025-09-09,2025-09-26 18:12:55.535,HH,D,2633765848,JASSM,3,119,76,2,2,1,225,9,2,0,1,26,0,0,0,0,-169915.519655065,-4793362.351533736,4194734.585417271,-2.29541,0.0349939,-0.0796711,95.625,3.375,7.625,0.0,0.0,0.0,0.0,0.0,0.0,2,0,41.36247150836663,-92.030175639466,9999.99945431914,83.91019108822947,-0.0031433415994039,0.0061923731257579,,8985.541639556859,11104.004603147412,150,3,2025-09-09,2025-09-26 18:12:55.554,HH,D,590638262,AMBUSH51,1,1,48,2,1,1,225,2,1,0,0,9,1,225,2,1,-157505.24336796775,-4792947.192639397,4195180.168818258,2.1705,-3.05747,0.153288,-116.631,-8.52576,-17.3618,-0.238774,-7.40767,6.18217,0.0232621,0.0035006,-0.0203638,4,0,41.3704687118392,-91.8821695607648,8901.408148087661,-101.00163267926004,-0.8226151372650002,-7.446104192653578,194.94,8985.541639556859,11104.004603147412,150,True,6.682354683986934,False,175.5589994576885,177.49671506101382,False,6.775560994864595,True,False
3,1970-07-23 09:46:55.766765332,2025-09-09,2025-09-26 18:12:56.676,HH,D,2634958896,JASSM,3,119,76,2,2,1,225,9,2,0,1,26,0,0,0,0,-169819.91833670562,-4793359.005830611,4194742.227995396,-2.29541,0.0349939,-0.0796711,95.625,3.375,7.625,0.0,0.0,0.0,0.0,0.0,0.0,2,0,41.36256315309576,-92.02903575093468,9999.998341028077,83.91094435049583,-0.0022829112340599,0.0061927449210715,,8985.541639556859,11104.004603147412,150,3,2025-09-09,2025-09-26 18:12:56.520,HH,D,591791494,AMBUSH51,1,1,48,2,1,1,225,2,1,0,0,9,1,225,2,1,-157617.66147427572,-4792955.625860314,4195163.2526559215,2.19946,-3.05153,0.160899,-116.17,-9.01334,-18.0553,-0.117986,-7.49773,6.18888,0.0218161,0.00215862,-0.00599315,4,0,41.37028234724679,-91.88350866528114,8894.573787153691,-101.5513707756932,-0.8623257257306246,-5.832133722407022,194.524,8985.541639556859,11104.004603147412,150,True,6.569805934637006,False,175.11827768422214,177.41569008506036,False,7.286649061928814,True,False
3,1970-07-23 09:46:55.775316757,2025-09-09,2025-09-26 18:12:57.531,HH,D,2636212054,JASSM,3,119,76,2,2,1,225,9,2,0,1,26,0,0,0,0,-169719.5019548697,-4793355.491182174,4194750.255339146,-2.29541,0.0349939,-0.0795753,95.625,3.375,7.625,0.0,0.0,0.0,0.0,0.0,0.0,2,0,41.36265940295093,-92.02783844742866,10000.000842423704,83.91584820813269,-0.0050207249196018,0.0061929072127207,,8985.541639556859,11104.004603147412,150,3,2025-09-09,2025-09-26 18:12:57.619,HH,D,593103792,AMBUSH51,1,1,48,2,1,1,225,2,1,0,0,9,1,225,2,1,-157745.07486126022,-4792965.664072036,4195143.136989589,2.2299,-3.04833,0.162719,-115.696,-9.41928,-18.6564,-0.225533,-7.52624,6.10434,0.0316968,-0.00294508,-0.00843785,4,0,41.37006188065704,-91.88502619405098,8885.972329644046,-101.75104727137098,-0.7957698342016967,-4.114270099399342,194.329,8985.541639556859,11104.004603147412,150,True,6.446513349976639,False,174.73162850852356,177.3174285046639,False,7.765178668502591,True,False
3,1970-07-23 09:46:55.786362050,2025-09-09,2025-09-26 18:12:58.636,HH,D,2637524128,JASSM,3,119,76,2,2,1,225,9,2,0,1,26,0,0,0,0,-169614.3645036978,-4793351.809541549,4194758.657682896,-2.29541,0.0349939,-0.0795753,95.625,3.375,7.625,0.0,0.0,0.0,0.0,0.0,0.0,2,0,41.362760158799446,-92.0265848497396,9999.999527700516,83.91667661493925,-0.0040744687257229,0.0061933797485627,,8985.541639556859,11104.004603147412,150,3,2025-09-09,2025-09-26 18:12:58.619,HH,D,594296792,AMBUSH51,1,1,48,2,1,1,225,2,1,0,0,9,1,225,2,1,-157861.63554042712,-4792975.1761378525,4195124.139431038,2.25038,-3.04677,0.165278,-115.305,-9.62527,-19.0309,-0.256728,-7.60725,6.22556,0.00467822,-0.00094563,-0.0126906,4,0,41.36985419908607,-91.88641432682992,8877.62955519185,-101.92007033222473,-0.8268724372355457,-2.953464333576885,194.097,8985.541639556859,11104.004603147412,150,True,6.32655581833945,False,174.49219890058248,177.2178670254854,False,8.104329653726719,True,False
3,1970-07-23 09:46:55.796493865,2025-09-09,2025-09-26 18:12:59.649,HH,D,2638717650,JASSM,3,119,76,2,2,1,225,9,2,0,1,26,0,0,0,0,-169518.7265642447,-4793348.458955611,4194766.301237583,-2.29541,0.0349939,-0.0795753,95.625,3.375,7.625,0.0,0.0,0.0,0.0,0.0,0.0,2,0,41.3628518112729,-92.0254445160058,10000.000222770286,83.91743017570609,-0.0032137090999089,0.0061938216359136,,8985.541639556859,11104.004603147412,150,3,2025-09-09,2025-09-26 18:12:59.685,HH,D,595569324,AMBUSH51,1,1,48,2,1,1,225,2,1,0,0,9,1,225,2,1,-157984.02237002103,-4792985.432519509,4195103.8362250095,2.26256,-3.0466,0.168679,-115.1,-9.88278,-19.2297,-0.155646,-7.75947,6.2214,0.0119,0.000277759,0.000265276,4,0,41.36963211507717,-91.88787172967773,8868.767059185224,-102.07256761316022,-0.948665346604458,-2.254602112938531,193.718,8985.541639556859,11104.004603147412,150,True,6.2085728611270685,False,174.32935401533868,177.11083764908412,False,8.366014350909406,True,False
3,1970-07-23 09:46:55.807400500,2025-09-09,2025-09-26 18:13:00.740,HH,D,2640029344,JASSM,3,119,76,2,2,1,225,9,2,0,1,26,0,0,0,0,-169413.61950858062,-4793344.776338424,4194774.698698521,-2.29541,0.0349939,-0.0795753,95.625,3.375,7.625,0.0,0.0,0.0,0.0,0.0,0.0,2,0,41.3629525074786,-92.02419127421528,9999.999482414649,83.91825835049985,-0.0022677276168627,0.0061942895861848,,8985.541639556859,11104.004603147412,150,3,2025-09-09,2025-09-26 18:13:00.687,HH,D,596762322,AMBUSH51,1,1,48,2,1,1,225,2,1,0,0,9,1,225,2,1,-158098.69881992872,-4792995.388215056,4195084.482686089,2.27027,-3.04413,0.172767,-114.874,-10.2714,-19.2339,-0.101801,-7.47622,6.11827,0.00836503,-0.00655075,-0.00543347,4,0,41.36941972647705,-91.88923717208328,8860.605916116452,-102.34097964501512,-1.000213624425322,-1.8323313297484816,193.339,8985.541639556859,11104.004603147412,150,True,6.0896703941502635,False,174.21083176509947,177.00068124351887,False,8.570778416289567,True,False
3,1970-07-23 09:46:55.818413559,2025-09-09,2025-09-26 18:13:01.841,HH,D,2641282042,JASSM,3,119,76,2,2,1,225,9,2,0,1,26,0,0,0,0,-169313.23974783844,-4793341.257783736,4194782.718229771,-2.29541,0.0350898,-0.0795753,95.625,3.375,7.625,0.0,0.0,0.0,0.0,0.0,0.0,2,0,41.36304866968428,-92.02299439528144,9999.99972254494,83.91541920804761,-0.0054639169681152,0.0066316204073574,,8985.541639556859,11104.004603147412,150,3,2025-09-09,2025-09-26 18:13:01.785,HH,D,598074620,AMBUSH51,1,1,48,2,1,1,225,2,1,0,0,9,1,225,2,1,-158226.03526137493,-4793006.451798894,4195062.900776356,2.27867,-3.04348,0.172447,-114.583,-10.298,-19.3546,-0.0951236,-7.43292,6.22123,0.007125,0.00564569,0.00891015,4,0,41.36918319920334,-91.89075334326256,8851.374634499101,-102.35269057281089,-0.9597100501455468,-1.3572290958639166,193.229,8985.541639556859,11104.004603147412,150,True,5.966475381197416,False,174.1279318776948,176.87711844454552,False,8.782340374139743,True,False
3,1970-07-23 09:46:55.828469771,2025-09-09,2025-09-26 18:13:02.846,HH,D,2642475252,JASSM,3,119,76,2,2,1,225,9,2,0,1,26,0,0,0,0,-169217.62671072906,-4793337.905244674,4194790.355925083,-2.29541,0.0350898,-0.0795753,95.625,3.375,7.625,0.0,0.0,0.0,0.0,0.0,0.0,2,0,41.36314025338166,-92.02185434959186,9999.999969397371,83.91617258277066,-0.0046033833651791,0.0066319983303712,,8985.541639556859,11104.004603147412,150,3,2025-09-09,2025-09-26 18:13:02.753,HH,D,599227854,AMBUSH51,1,1,48,2,1,1,225,2,1,0,0,9,1,225,2,1,-158336.74862522935,-4793016.214967958,4195043.883889244,2.28414,-3.04292,0.175675,-114.356,-10.0581,-19.677,-0.1578,-7.54852,6.06449,-0.0015282,0.00443687,0.00920351,4,0,41.368974972849074,-91.89207152197196,8843.162270874838,-102.51225245030471,-1.0588206104189832,-1.0464760813653893,193.143,8985.541639556859,11104.004603147412,150,True,5.854879504309529,False,174.03217558461515,176.76137777227825,False,9.022960447039898,True,False
3,1970-07-23 09:46:55.838347871,2025-09-09,2025-09-26 18:13:03.834,HH,D,2643727786,JASSM,3,119,76,2,2,1,225,9,2,0,1,26,0,0,0,0,-169117.26013358062,-4793334.384736861,4194798.372526646,-2.29541,0.0350898,-0.0795753,95.625,3.375,7.625,0.0,0.0,0.0,0.0,0.0,0.0,2,0,41.363236380335024,-92.0206576219923,10000.00037363966,83.91696341599447,-0.0037000672821025,0.0066323972187905,,8985.541639556859,11104.004603147412,150,3,2025-09-09,2025-09-26 18:13:03.819,HH,D,600500386,AMBUSH51,1,1,48,2,1,1,225,2,1,0,0,9,1,225,2,1,-158458.77806520413,-4793026.865486253,4195022.839148742,2.28891,-3.04398,0.177639,-114.185,-10.11,-19.6547,0.00240766,-7.50807,5.93104,0.0157928,-0.00304287,-0.0011953,4,0,41.36874553486595,-91.89352446757869,8833.663619545108,-102.55729484264178,-1.1770887707663231,-0.7621998286049707,193.033,8985.541639556859,11104.004603147412,150,True,5.734609320220918,False,174.01303526785483,176.62957908506522,False,9.172176760530732,True,False
3,1970-07-23 09:46:55.849373088,2025-09-09,2025-09-26 18:13:04.937,HH,D,2644980500,JASSM,3,119,76,2,2,1,225,9,2,0,1,26,0,0,0,0,-169016.8789079947,-4793330.862275924,4194806.389128208,-2.29541,0.0350898,-0.0795753,95.625,3.375,7.625,0.0,0.0,0.0,0.0,0.0,0.0,2,0,41.363332509520966,-92.01946071681456,9999.999911648038,83.9177543680807,-0.0027966197591455,0.0066327968143038,,8985.541639556859,11104.004603147412,150,3,2025-09-09,2025-09-26 18:13:04.824,HH,D,601693384,AMBUSH51,1,1,48,2,1,1,225,2,1,0,0,9,1,225,2,1,-158573.05882950866,-4793036.793282007,4195002.936460451,2.28603,-3.04505,0.182284,-114.066,-10.0252,-19.7629,-0.0508065,-7.43657,6.09672,-0.0264329,-0.00267669,0.0112321,4,0,41.36852961294557,-91.89488516372528,8824.239840597565,-102.71572483181409,-1.3990218309133855,-0.9126705376197384,192.691,8985.541639556859,11104.004603147412,150,True,5.618552052145304,False,173.9767897628668,176.49767147240527,False,9.35124427952844,True,False
3,1970-07-23 09:46:55.859417793,2025-09-09,2025-09-26 18:13:05.941,HH,D,2646174570,JASSM,3,119,76,2,2,1,225,9,2,0,1,26,0,0,0,0,-168921.19702322906,-4793327.503877486,4194814.029753208,-2.29541,0.0350898,-0.0795753,95.625,3.375,7.625,0.0,0.0,0.0,0.0,0.0,0.0,2,0,41.36342412724403,-92.01831984175313,10000.000779379152,83.91850829513595,-0.0019354673108427,0.0066331780927028,,8985.541639556859,11104.004603147412,150,3,2025-09-09,2025-09-26 18:13:05.785,HH,D,602846616,AMBUSH51,1,1,48,2,1,1,225,2,1,0,0,9,1,225,2,1,-158683.17258109298,-4793046.265048481,4194983.63602465,2.27419,-3.04728,0.181582,-113.888,-10.0343,-19.853,-0.249833,-7.55439,6.00035,-0.00381685,0.00443895,0.00741836,4,0,41.368321273889805,-91.89619627470768,8814.667167084188,-102.60270750156891,-1.4646698568168153,-1.5704769994426744,192.569,8985.541639556859,11104.004603147412,150,True,5.507310437249366,False,173.9198165119953,176.36490359617025,False,9.544805917482634,True,False
3,1970-07-23 09:46:55.869451012,2025-09-09,2025-09-26 18:13:06.945,HH,D,2647427158,JASSM,3,119,76,2,2,1,225,9,2,0,1,26,0,0,0,0,-168820.82580740875,-4793323.979463424,4194822.043425083,-2.29541,0.0350898,-0.0794794,95.625,3.375,7.625,0.0,0.0,0.0,0.0,0.0,0.0,2,0,41.36352022183759,-92.01712305001836,10000.000208167954,83.92341180008609,-0.0046737228801427,0.0066333721649469,,8985.541639556859,11104.004603147412,150,3,2025-09-09,2025-09-26 18:13:06.753,HH,D,603999848,AMBUSH51,1,1,48,2,1,1,225,2,1,0,0,9,1,225,2,1,-158793.08942534914,-4793055.7885220805,4194964.061334333,2.25829,-3.04719,0.183737,-113.677,-9.848,-20.2978,-0.152697,-7.4913,6.21031,-0.0213292,0.00130349,-0.00628236,4,0,41.368110798629154,-91.89750500683375,8804.61748006938,-102.69901707823335,-1.5422241922554158,-2.4801968620402213,192.459,8985.541639556859,11104.004603147412,150,True,5.393667237247363,False,173.75292289547926,176.22314050204398,False,9.879238014502059,True,False
3,1970-07-23 09:46:55.880330569,2025-09-09,2025-09-26 18:13:08.033,HH,D,2648679906,JASSM,3,119,76,2,2,1,225,9,2,0,1,26,0,0,0,0,-168720.44189627594,-4793320.454072799,4194830.057096958,-2.29541,0.0350898,-0.0794794,95.625,3.375,7.625,0.0,0.0,0.0,0.0,0.0,0.0,2,0,41.36361631244412,-92.01592610361064,10000.001345790128,83.9242027838572,-0.0037702526170723,0.0066338322162818,,8985.541639556859,11104.004603147412,150,3,2025-09-09,2025-09-26 18:13:08.152,HH,D,605670046,AMBUSH51,1,1,48,2,1,1,225,2,1,0,0,9,1,225,2,1,-158951.21126851198,-4793069.958895478,4194935.309624821,2.07584,-3.03884,0.184133,-113.236,-11.0914,-20.9043,0.0497369,-7.9262,6.46926,-0.182309,-0.000221583,0.0042621,4,0,41.367801194074005,-91.89938749611736,8790.04463537479,-103.03162958026304,-1.2057029006914672,-13.013043196887612,192.3,8985.541639556859,11104.004603147412,150,False,5.253952738138089,False,173.1579652458851,176.0223875200804,False,10.617751660170793,True,False
3,1970-07-23 09:46:55.890388102,2025-09-09,2025-09-26 18:13:09.038,HH,D,2649753648,JASSM,3,119,76,2,2,1,225,9,2,0,1,26,0,0,0,0,-168634.40185721344,-4793317.430635299,4194836.924284458,-2.29541,0.0350898,-0.0794794,95.625,3.375,7.625,0.0,0.0,0.0,0.0,0.0,0.0,2,0,41.363698663861086,-92.0149001870038,9999.99900749512,83.92488074639859,-0.0029958798098884,0.0066342276672865,,8985.541639556859,11104.004603147412,150,3,2025-09-09,2025-09-26 18:13:09.185,HH,D,606902812,AMBUSH51,1,1,48,2,1,1,225,2,1,0,0,9,1,225,2,1,-159067.60100098414,-4793082.420250667,4194912.634236489,1.93989,-3.01703,0.204882,-112.364,-13.0275,-23.0103,-0.0327049,-8.10161,6.7046,-0.0942166,0.0165522,-0.0484997,4,0,41.3675509956954,-91.90077233723952,8781.045889352221,-104.7365102756699,-1.0908360814170763,-21.01007859960199,192.386,8985.541639556859,11104.004603147412,150,False,5.144576947432705,False,171.70299048679695,175.85146427001413,False,12.194920754445539,True,False
3,1970-07-23 09:46:55.900766756,2025-09-09,2025-09-26 18:13:10.076,HH,D,2651006442,JASSM,3,119,76,2,2,1,225,9,2,0,1,26,0,0,0,0,-168534.01403983062,-4793313.902314986,4194844.936979771,-2.29541,0.0350898,-0.0794794,95.625,3.375,7.625,0.0,0.0,0.0,0.0,0.0,0.0,2,0,41.363794742978605,-92.01370318865256,10000.000161403215,83.92567176730674,-0.002092374458067,0.0066346955926049,,8985.541639556859,11104.004603147412,150,3,2025-09-09,2025-09-26 18:13:10.119,HH,D,608016278,AMBUSH51,1,1,48,2,1,1,225,2,1,0,0,9,1,225,2,1,-159171.81314850802,-4793095.657073596,4194890.017290445,1.88153,-2.99125,0.237712,-111.217,-15.265,-25.7944,-0.10632,-8.22322,6.76653,-0.0460092,0.012029,-0.0233058,4,0,41.36729896932773,-91.90201145318844,8773.094270681098,-107.0991026352607,-1.2895428404187044,-24.62897890917227,192.031,8985.541639556859,11104.004603147412,150,False,5.034064533875394,False,169.84986400136333,175.66510274602726,False,14.200358003141835,True,False
3,1970-07-23 09:46:55.911430876,2025-09-09,2025-09-26 18:13:11.143,HH,D,2652377360,JASSM,3,119,76,2,2,1,225,9,2,0,1,26,0,0,0,0,-168424.1608293814,-4793310.040986861,4194853.702604771,-2.29541,0.0351857,-0.0794794,95.625,3.375,7.625,0.0,0.0,0.0,0.0,0.0,0.0,2,0,41.36389985153187,-92.01239332350788,10000.001009835663,83.92290738558174,-0.0052031497219385,0.007071510097029,,8985.541639556859,11104.004603147412,150,3,2025-09-09,2025-09-26 18:13:11.152,HH,D,609249042,AMBUSH51,1,1,48,2,1,1,225,2,1,0,0,9,1,225,2,1,-159285.88814567917,-4793112.881322537,4194862.172086744,1.87865,-2.95807,0.263599,-109.759,-18.4649,-28.5029,-0.0470249,-8.38764,7.2178,0.00332167,0.0170099,-0.0300074,4,0,41.366985961448535,-91.9033667465547,8764.431616024227,-109.4390389083398,-0.9384655567170456,-25.220334929014868,191.885,8985.541639556859,11104.004603147412,150,False,4.913137774307781,False,167.7041595143072,175.42904503020543,False,16.506280177220383,True,False
3,1970-07-23 09:46:55.921328664,2025-09-09,2025-09-26 18:13:12.132,HH,D,2653630072,JASSM,3,119,76,2,2,1,225,9,2,0,1,26,0,0,0,0,-168323.7795427603,-4793306.509736861,4194861.712370396,-2.29541,0.0351857,-0.0794794,95.625,3.375,7.625,0.0,0.0,0.0,0.0,0.0,0.0,2,0,41.3639959008332,-92.01119639698048,10000.000085039652,83.92369836216666,-0.0042997038754989,0.0070719232555796,,8985.541639556859,11104.004603147412,150,3,2025-09-09,2025-09-26 18:13:12.152,HH,D,610442042,AMBUSH51,1,1,48,2,1,1,225,2,1,0,0,9,1,225,2,1,-159394.4259421115,-4793132.699938848,4194832.037858621,1.89016,-2.9242,0.297833,-107.971,-21.4794,-31.4609,-0.0857357,-8.39253,6.96741,0.000799989,0.018071,-0.0354565,4,0,41.36664314745041,-91.90465488080214,8756.744385317612,-112.14650202759692,-0.9161280898636718,-25.054715545314185,191.494,8985.541639556859,11104.004603147412,150,False,4.800362257172792,False,165.4402909718985,175.16785020376057,False,18.988963606731684,True,False
3,1970-07-23 09:46:55.934026639,2025-09-09,2025-09-26 18:13:13.402,HH,D,2655002076,JASSM,3,119,76,2,2,1,225,9,2,0,1,26,0,0,0,0,-168213.83920462555,-4793302.641572799,4194870.482878208,-2.29541,0.0351857,-0.0794794,95.625,3.375,7.625,0.0,0.0,0.0,0.0,0.0,0.0,2,0,41.36410107263673,-92.00988548645186,9999.999120922146,83.92456466564224,-0.0033102264560846,0.0070723660395474,,8985.541639556859,11104.004603147412,150,3,2025-09-09,2025-09-26 18:13:13.619,HH,D,612191772,AMBUSH51,1,1,48,2,1,1,225,2,1,0,0,9,1,225,2,1,-159550.7555726882,-4793166.731696228,4194783.246918045,1.91801,-2.8744,0.341389,-105.098,-25.5751,-35.3627,-0.178402,-8.28108,7.0455,0.017089,0.00550005,-0.0360786,4,0,41.36608034879048,-91.90650800912698,8747.503930618712,-115.82362034988142,-0.684829607591878,-24.304413130041524,191.066,8985.541639556859,11104.004603147412,150,False,4.656759056622902,False,162.29533186044563,174.74583005842183,False,22.51529634031712,True,False
3,1970-07-23 09:46:55.943392269,2025-09-09,2025-09-26 18:13:14.339,HH,D,2656255238,JASSM,3,119,76,2,2,1,225,9,2,0,1,26,0,0,0,0,-168113.4218767447,-4793299.107393111,4194878.492643833,-2.29541,0.0351857,-0.0794794,95.625,3.375,7.625,0.0,0.0,0.0,0.0,0.0,0.0,2,0,41.36419712077853,-92.0086881234947,9999.998797773367,83.92535593380745,-0.0024064577951133,0.0070727698084875,,8985.541639556859,11104.004603147412,150,3,2025-09-09,2025-09-26 18:13:14.285,HH,D,612987106,AMBUSH51,1,1,48,2,1,1,225,2,1,0,0,9,1,225,2,1,-159619.83971748484,-4793184.088234438,4194759.155865042,1.94265,-2.85262,0.361061,-103.686,-27.2019,-37.2416,-0.262677,-8.24757,6.98097,0.0243066,0.0171659,-0.0315824,4,0,41.36580076693848,-91.90732600005714,8743.643259960356,-117.44962050943384,-0.6354492312164336,-23.30348850170739,190.565,8985.541639556859,11104.004603147412,150,False,4.565497395470106,False,160.86332055733024,174.49636860033831,False,24.19483799356976,True,False
3,1970-07-23 09:46:55.954430166,2025-09-09,2025-09-26 18:13:15.443,HH,D,2657567126,JASSM,3,119,76,2,2,1,225,9,2,0,1,26,0,0,0,0,-168008.29860098785,-4793295.406221236,4194886.877409458,-2.29541,0.0351857,-0.0794794,95.625,3.375,7.625,0.0,0.0,0.0,0.0,0.0,0.0,2,0,41.36429766239422,-92.00743464423618,9999.99988524223,83.9261842876224,-0.0014603348549472,0.0070731980946655,,8985.541639556859,11104.004603147412,150,3,2025-09-09,2025-09-26 18:13:15.519,HH,D,614458470,AMBUSH51,1,1,48,2,1,1,225,2,1,0,0,9,1,225,2,1,-159746.39107106597,-4793219.503250314,4194710.769598574,1.9859,-2.81875,0.389704,-101.085,-30.1746,-40.3369,-0.108944,-8.07059,6.76076,0.0419874,0.0073497,-0.021737,4,0,41.36523833524189,-91.9088229734235,8736.26258681217,-119.88731309102177,-0.5160679319939367,-21.512469629225897,190.088,8985.541639556859,11104.004603147412,150,False,4.440978302257138,False,158.34198772315102,174.03274818910305,False,27.173952201622228,True,False
3,1970-07-23 09:46:55.965469770,2025-09-09,2025-09-26 18:13:16.546,HH,D,2658820978,JASSM,3,119,76,2,2,1,225,9,2,0,1,26,0,0,0,0,-167907.82583792633,-4793291.868135299,4194894.889128208,-2.29541,0.0351857,-0.0793835,95.625,3.375,7.625,0.0,0.0,0.0,0.0,0.0,0.0,2,0,41.36439373298589,-92.00623661388398,10000.000082757177,83.93108859683454,-0.0041977122081451,0.0070734264203722,,8985.541639556859,11104.004603147412,150,3,2025-09-09,2025-09-26 18:13:16.553,HH,D,615691236,AMBUSH51,1,1,48,2,1,1,225,2,1,0,0,9,1,225,2,1,-159849.71877206583,-4793251.664565194,4194667.721675168,2.03799,-2.79275,0.411535,-99.0355,-32.4251,-42.3579,-0.166816,-7.92358,6.75547,0.0476487,0.00943446,-0.02992,4,0,41.36473588957938,-91.91004392406543,8730.552925894339,-121.7436070327395,-0.4480081346593988,-19.09368530396088,189.734,8985.541639556859,11104.004603147412,150,False,4.331731837311208,False,156.50956898517225,173.5899833012803,False,29.439724164671293,True,False
3,1970-07-23 09:46:55.976328650,2025-09-09,2025-09-26 18:13:17.632,HH,D,2660132666,JASSM,3,119,76,2,2,1,225,9,2,0,1,26,0,0,0,0,-167802.71846230453,-4793288.165010299,4194903.269987583,-2.29541,0.0351857,-0.0793835,95.625,3.375,7.625,0.0,0.0,0.0,0.0,0.0,0.0,2,0,41.36449422981213,-92.0049833177241,10000.000445114392,83.93191683285974,-0.0032517335262203,0.0070739196584367,,8985.541639556859,11104.004603147412,150,3,2025-09-09,2025-09-26 18:13:17.685,HH,D,617043300,AMBUSH51,1,1,48,2,1,1,225,2,1,0,0,9,1,225,2,1,-159960.05064746185,-4793288.943476888,4194618.341207955,2.08341,-2.76762,0.434822,-96.933,-34.3581,-44.4097,-0.229058,-7.9301,6.70745,0.0272818,0.0131421,-0.0250535,4,0,41.36415884377661,-91.9113464476203,8724.290039885816,-123.61551548238246,-0.4995386051358144,-17.067149871064046,189.184,8985.541639556859,11104.004603147412,150,False,4.216632775459088,False,154.73130917663522,173.06093045501598,False,31.75388787792868,False,False
3,1970-07-23 09:46:55.987332046,2025-09-09,2025-09-26 18:13:18.733,HH,D,2661504178,JASSM,3,119,76,2,2,1,225,9,2,0,1,26,0,0,0,0,-167692.8173769278,-4793284.291963424,4194912.031706333,-2.29541,0.0352816,-0.0793835,95.625,3.375,7.625,0.0,0.0,0.0,0.0,0.0,0.0,2,0,41.36459929232746,-92.0036728578668,10000.001423424788,83.92915265596585,-0.0063622431473073,0.0075103154863758,,8985.541639556859,11104.004603147412,150,3,2025-09-09,2025-09-26 18:13:18.785,HH,D,618355600,AMBUSH51,1,1,48,2,1,1,225,2,1,0,0,9,1,225,2,1,-160064.82269414217,-4793326.922704965,4194568.452711754,2.13249,-2.74813,0.45286,-95.1,-35.8014,-46.2553,-0.201858,-7.64878,6.60806,0.032244,0.00304703,-0.0316552,4,0,41.363575291785104,-91.91258228577357,8718.200481071386,-125.05904865013132,-0.558302441216997,-14.721033004183282,188.866,8985.541639556859,11104.004603147412,150,False,4.102375277880644,False,153.22065719502817,172.49104482282144,False,33.85237777387235,False,False
3,1970-07-23 09:46:55.998370421,2025-09-09,2025-09-26 18:13:19.837,HH,D,2662757532,JASSM,3,119,76,2,2,1,225,9,2,0,1,26,0,0,0,0,-167592.38437064117,-4793280.750947799,4194920.037565708,-2.29541,0.0352816,-0.0793835,95.625,3.375,7.625,0.0,0.0,0.0,0.0,0.0,0.0,2,0,41.36469529332752,-92.00247529232226,10000.001525647222,83.92994406580206,-0.0054583351554333,0.0075107293973658,,8985.541639556859,11104.004603147412,150,3,2025-09-09,2025-09-26 18:13:19.818,HH,D,619588364,AMBUSH51,1,1,48,2,1,1,225,2,1,0,0,9,1,225,2,1,-160162.7287507078,-4793364.399707036,4194519.459983581,2.17606,-2.73114,0.465317,-93.5517,-36.9883,-47.5943,-0.0532124,-7.73153,6.22287,0.042493,0.000148763,-0.00826724,4,0,41.3630021262582,-91.91373632428888,8712.260070052092,-126.18490134167033,-0.486358383875749,-12.646014677744128,188.597,8985.541639556859,11104.004603147412,150,False,3.997304931572794,False,152.01848119934704,171.9067230464902,False,35.65054815742699,False,False
3,1970-07-23 09:46:56.009385864,2025-09-09,2025-09-26 18:13:20.938,HH,D,2664128882,JASSM,3,119,76,2,2,1,225,9,2,0,1,26,0,0,0,0,-167482.49615652984,-4793276.874971236,4194928.795378208,-2.29541,0.0352816,-0.0793835,95.625,3.375,7.625,0.0,0.0,0.0,0.0,0.0,0.0,2,0,41.36480031563588,-92.00116497928838,9999.999890103563,83.93080998642196,-0.0044693300283026,0.0075111799155996,,8985.541639556859,11104.004603147412,150,3,2025-09-09,2025-09-26 18:13:20.885,HH,D,620860896,AMBUSH51,1,1,48,2,1,1,225,2,1,0,0,9,1,225,2,1,-160260.96065214748,-4793403.939260993,4194467.83033507,2.221,-2.71582,0.476327,-92.1496,-38.0923,-48.7689,-0.314006,-7.77608,6.53016,0.0293021,0.00853564,-0.0170078,4,0,41.362398810905546,-91.91489341035135,8705.712420087964,-127.18890657861364,-0.4220268144837389,-10.461257830158829,187.999,8985.541639556859,11104.004603147412,150,False,3.887569033945246,False,150.92762875922486,171.2517342301044,False,37.40566831129257,False,False
3,1970-07-23 09:46:56.021547224,2025-09-09,2025-09-26 18:13:22.154,HH,D,2665441956,JASSM,3,119,76,2,2,1,225,9,2,0,1,26,0,0,0,0,-167377.27749808258,-4793273.162080611,4194937.181120396,-2.29541,0.0352816,-0.0793835,95.625,3.375,7.625,0.0,0.0,0.0,0.0,0.0,0.0,2,0,41.36490087134656,-91.99991034301615,10000.000371788014,83.93163911473908,-0.0035223508235396,0.0075116214040228,,8985.541639556859,11104.004603147412,150,3,2025-09-09,2025-09-26 18:13:22.251,HH,D,622491328,AMBUSH51,1,1,48,2,1,1,225,2,1,0,0,9,1,225,2,1,-160385.79744199014,-4793456.165417694,4194400.311330324,2.27407,-2.69754,0.484723,-90.6804,-39.2509,-49.5411,-0.0199525,-7.61262,6.45017,0.0268719,0.00414559,-0.00107671,4,0,41.3616074450704,-91.91636305886732,8698.136771435915,-128.20183212276862,-0.1558253844354206,-7.900141519348048,187.485,8985.541639556859,11104.004603147412,150,True,3.767400555973421,False,149.92476479488067,170.3876306166258,False,39.274159546942414,False,False
3,1970-07-23 09:46:56.033161847,2025-09-09,2025-09-26 18:13:23.316,HH,D,2666813236,JASSM,3,119,76,2,2,1,225,9,2,0,1,26,0,0,0,0,-167267.39489920562,-4793269.284150924,4194945.936003208,-2.29541,0.0352816,-0.0793835,95.625,3.375,7.625,0.0,0.0,0.0,0.0,0.0,0.0,2,0,41.36500585510316,-91.99860008958886,10000.000288219531,83.93250499951142,-0.0025333973596341,0.0075120679023721,,8985.541639556859,11104.004603147412,150,3,2025-09-09,2025-09-26 18:13:23.318,HH,D,623763860,AMBUSH51,1,1,48,2,1,1,225,2,1,0,0,9,1,225,2,1,-160482.67677572017,-4793498.182296443,4194346.388154435,2.3031,-2.68615,0.491215,-89.7363,-39.8838,-50.116,-0.198376,-7.81727,6.48663,0.0100503,0.00760978,-0.00546884,4,0,41.3609741525916,-91.91750295842516,8692.618560858946,-128.88037812991163,-0.0496597000068026,-6.541098000355112,187.082,8985.541639556859,11104.004603147412,150,True,3.659879090910947,False,149.28194556571677,169.61645360636373,False,40.695908016502955,False,False
3,1970-07-23 09:46:56.042307430,2025-09-09,2025-09-26 18:13:24.230,HH,D,2668066384,JASSM,3,119,76,2,2,1,225,9,2,0,1,26,0,0,0,0,-167166.9782121939,-4793265.738252486,4194953.936003208,-2.29541,0.0352816,-0.0793835,95.625,3.375,7.625,0.0,0.0,0.0,0.0,0.0,0.0,2,0,41.365101789371614,-91.99740270600677,9999.999174179866,83.93329629550176,-0.001629637830911,0.0075124833692951,,8985.541639556859,11104.004603147412,150,3,2025-09-09,2025-09-26 18:13:24.085,HH,D,624678492,AMBUSH51,1,1,48,2,1,1,225,2,1,0,0,9,1,225,2,1,-160551.20541026705,-4793528.715235305,4194307.660705903,2.30719,-2.67924,0.494679,-89.097,-40.4832,-50.2386,-0.116638,-7.69394,6.33902,-0.00502776,0.00958634,-0.0153725,4,0,41.36051740641787,-91.91830894095564,8689.450841969949,-129.27364787462156,0.0327617129344763,-6.494382108479258,186.764,8985.541639556859,11104.004603147412,150,True,3.5722630073314763,False,148.8806589999676,168.9972099407306,False,41.70720672218545,False,False
3,1970-07-23 09:46:56.053329389,2025-09-09,2025-09-26 18:13:25.332,HH,D,2669319088,JASSM,3,119,76,2,2,1,225,9,2,0,1,26,0,0,0,0,-167066.5986345572,-4793262.193330611,4194961.932096958,-2.29541,0.0352816,-0.0793835,95.625,3.375,7.625,0.0,0.0,0.0,0.0,0.0,0.0,2,0,41.36519767130313,-91.99620576154626,10000.000393100268,83.93408730280706,-0.0007262128771679,0.0075128942400167,,8985.541639556859,11104.004603147412,150,3,2025-09-09,2025-09-26 18:13:25.285,HH,D,626110092,AMBUSH51,1,1,48,2,1,1,225,2,1,0,0,9,1,225,2,1,-160656.89893494223,-4793576.898169892,4194246.862581718,2.30689,-2.66957,0.49673,-88.0486,-41.0085,-50.8129,-0.0918183,-8.016,6.62984,-0.00045461,0.0107099,-0.00300542,4,0,41.35979924427544,-91.919551570874,8684.943076455624,-129.71887255526707,0.2666326186687964,-6.776383858470266,186.166,8985.541639556859,11104.004603147412,150,True,3.4669600892499512,False,148.22990909101486,168.06707709353952,False,43.3009791882455,False,False
3,1970-07-23 09:46:56.063367031,2025-09-09,2025-09-26 18:13:26.336,HH,D,2670571634,JASSM,3,119,76,2,2,1,225,9,2,0,1,26,0,0,0,0,-166966.22845633453,-4793258.647432174,4194969.926237583,-2.29541,0.0352816,-0.0792876,95.625,3.375,7.625,0.0,0.0,0.0,0.0,0.0,0.0,2,0,41.36529353145024,-91.99500892619729,10000.00099234281,83.93899080846963,-0.0034645483028062,0.0075131867308244,,8985.541639556859,11104.004603147412,150,3,2025-09-09,2025-09-26 18:13:26.352,HH,D,627382624,AMBUSH51,1,1,48,2,1,1,225,2,1,0,0,9,1,225,2,1,-160750.17763437773,-4793620.879261858,4194192.4050518274,2.3114,-2.65541,0.497347,-86.9889,-42.1634,-50.7404,-0.140738,-8.05395,6.71856,0.00191103,0.00371698,-0.00615336,4,0,41.35915135198708,-91.92064763484233,8682.823862074709,-130.28216574917465,0.7074337096477316,-6.909775188839563,185.53,8985.541639556859,11104.004603147412,150,True,3.3687590125717395,False,147.5929747419754,167.160271729104,False,44.81259461749768,False,False
3,1970-07-23 09:46:56.073251358,2025-09-09,2025-09-26 18:13:27.325,HH,D,2671764380,JASSM,3,119,76,2,2,1,225,9,2,0,1,26,0,0,0,0,-166870.65185721344,-4793255.269502486,4194977.537565708,-2.29541,0.0353774,-0.0792876,95.625,3.375,7.625,0.0,0.0,0.0,0.0,0.0,0.0,2,0,41.36538480315157,-91.9938692478135,10000.000799285868,83.93611372380069,-0.0067039863626606,0.0079490205503611,,8985.541639556859,11104.004603147412,150,3,2025-09-09,2025-09-26 18:13:27.486,HH,D,628734688,AMBUSH51,1,1,48,2,1,1,225,2,1,0,0,9,1,225,2,1,-160848.08739737797,-4793668.83502391,4194134.3516368447,2.30155,-2.64378,0.501737,-85.7995,-43.0212,-51.0598,-0.286337,-7.87125,6.726,-0.0555404,0.00448056,-0.0114381,4,0,41.35845460864723,-91.92179737508316,8683.081038125074,-130.89079291160417,0.8967960186668757,-7.801430746857395,184.809,8985.541639556859,11104.004603147412,150,True,3.271970511287499,False,146.8702975844129,166.1556441487657,False,46.531507904925135,False,False
3,1970-07-23 09:46:56.083288823,2025-09-09,2025-09-26 18:13:28.328,HH,D,2672957664,JASSM,3,119,76,2,2,1,225,9,2,0,1,26,0,0,0,0,-166775.03198416656,-4793251.888643111,4194985.151823521,-2.29541,0.0353774,-0.0792876,95.625,3.375,7.625,0.0,0.0,0.0,0.0,0.0,0.0,2,0,41.36547610971697,-91.99272905081578,10000.000769314269,83.9368672333908,-0.0058433998476255,0.0079494249560966,,8985.541639556859,11104.004603147412,150,3,2025-09-09,2025-09-26 18:13:28.352,HH,D,629768620,AMBUSH51,1,1,48,2,1,1,225,2,1,0,0,9,1,225,2,1,-160922.9564945163,-4793706.485747268,4194089.4853949,2.24649,-2.63356,0.505226,-84.7418,-43.837,-51.24,-0.228966,-8.01317,6.7692,-0.0691683,0.00635934,-0.00774709,4,0,41.35791278907848,-91.92267614270176,8684.667235200004,-131.41263775647988,1.0761385589571506,-11.248009519902322,184.039,8985.541639556859,11104.004603147412,150,False,3.186995895690004,False,146.23751556995055,165.28189661823274,False,48.02160333579594,False,False
3,1970-07-23 09:46:56.093409847,2025-09-09,2025-09-26 18:13:29.340,HH,D,2674150754,JASSM,3,119,76,2,2,1,225,9,2,0,1,26,0,0,0,0,-166679.42761404935,-4793248.507783736,4194992.763151646,-2.29541,0.0353774,-0.0792876,95.625,3.375,7.625,0.0,0.0,0.0,0.0,0.0,0.0,2,0,41.36556738199166,-91.9915890357201,10000.000443721075,83.93762062413933,-0.004982953909055,0.0079498211254198,,8985.541639556859,11104.004603147412,150,3,2025-09-09,2025-09-26 18:13:29.251,HH,D,630842320,AMBUSH51,1,1,48,2,1,1,225,2,1,0,0,9,1,225,2,1,-160997.96443717534,-4793745.815930778,4194043.1693552057,2.20858,-2.6163,0.514894,-83.2294,-44.6192,-52.083,-0.130248,-7.68228,6.53342,-0.0166957,-0.00194015,-0.0325353,4,0,41.35735115863236,-91.92355587985068,8687.260167712813,-132.43073212463486,1.2033691966747024,-13.922722283593162,183.514,8985.541639556859,11104.004603147412,150,False,3.1029770070173006,False,145.25934567949452,164.33924372136926,False,49.94959383463452,False,False
3,1970-07-23 09:46:56.103449239,2025-09-09,2025-09-26 18:13:30.344,HH,D,2675284402,JASSM,3,119,76,2,2,1,225,9,2,0,1,26,0,0,0,0,-166588.58654959625,-4793245.293916549,4194999.994596958,-2.29541,0.0353774,-0.0792876,95.625,3.375,7.625,0.0,0.0,0.0,0.0,0.0,0.0,2,0,41.36565410049211,-91.99050581735654,9999.999503100522,83.93833648144886,-0.0041653780743263,0.0079502016985262,,8985.541639556859,11104.004603147412,150,3,2025-09-09,2025-09-26 18:13:30.418,HH,D,632234152,AMBUSH51,1,1,48,2,1,1,225,2,1,0,0,9,1,225,2,1,-161094.14477684716,-4793798.12831224,4193981.838157842,2.185,-2.59178,0.534275,-81.165,-45.8788,-53.2008,-0.0504175,-7.42493,6.53889,-0.0315657,0.00108087,-0.0234098,4,0,41.35660669391255,-91.92468316239132,8691.011468476676,-134.07609392272974,1.1117002564586564,-16.010788727334994,182.292,8985.541639556859,11104.004603147412,150,False,3.0133226895619547,False,143.86717072499005,163.12089132938988,False,52.56191415987439,False,False
3,1970-07-23 09:46:56.112848334,2025-09-09,2025-09-26 18:13:31.284,HH,D,2676417870,JASSM,3,119,76,2,2,1,225,9,2,0,1,26,0,0,0,0,-166497.75964529935,-4793242.080049361,4195007.225065708,-2.29541,0.0353774,-0.0792876,95.625,3.375,7.625,0.0,0.0,0.0,0.0,0.0,0.0,2,0,41.36574079927572,-91.98942276517565,10000.001924380404,83.93905223016993,-0.0033479294276225,0.0079505861631273,,8985.541639556859,11104.004603147412,150,3,2025-09-09,2025-09-26 18:13:31.318,HH,D,633307850,AMBUSH51,1,1,48,2,1,1,225,2,1,0,0,9,1,225,2,1,-161166.36710068007,-4793839.765898711,4193933.2267765375,2.16664,-2.57424,0.548585,-79.6931,-47.8636,-53.3011,0.000150263,-7.35,6.74381,-0.0236283,0.00516716,-0.0239653,4,0,41.35601638403939,-91.92552868204386,8694.088284962878,-135.26136876846715,1.0077065884312306,-17.60318469777625,182.17,8985.541639556859,11104.004603147412,150,False,2.9357395864311657,False,142.75930546511876,162.04922389695605,False,54.672348622644,False,False
3,1970-07-23 09:46:56.122546349,2025-09-09,2025-09-26 18:13:32.254,HH,D,2677611272,JASSM,3,119,76,2,2,1,225,9,2,0,1,26,0,0,0,0,-166402.13025076812,-4793238.694307174,4195014.835417271,-2.29541,0.0353774,-0.0792876,95.625,3.375,7.625,0.0,0.0,0.0,0.0,0.0,0.0,2,0,41.365832066385245,-91.9882824440979,9999.999041001956,83.93980582710053,-0.0024872591532725,0.0079509861331236,,8985.541639556859,11104.004603147412,150,3,2025-09-09,2025-09-26 18:13:32.351,HH,D,634540616,AMBUSH51,1,1,48,2,1,1,225,2,1,0,0,9,1,225,2,1,-161247.69385412577,-4793888.76361697,4193875.299422844,2.16909,-2.54468,0.56802,-77.2897,-48.3373,-56.3128,-0.188242,-7.40647,7.03545,0.00449304,0.00280984,-0.0316282,4,0,41.35531756619772,-91.92647992250386,8695.844427378912,-137.07985784583082,1.0091801916283154,-18.392106196066297,182.365,8985.541639556859,11104.004603147412,150,False,2.853596823419262,False,140.91383165708845,160.7557813156527,False,57.90692956431,False,False
3,1970-07-23 09:46:56.132419542,2025-09-09,2025-09-26 18:13:33.241,HH,D,2678804248,JASSM,3,119,76,2,2,1,225,9,2,0,1,26,0,0,0,0,-166306.53491385406,-4793235.309541549,4195022.442839146,-2.29541,0.0353774,-0.0792876,95.625,3.375,7.625,0.0,0.0,0.0,0.0,0.0,0.0,2,0,41.36592328957746,-91.987142526046,9999.999847225448,83.94055915905439,-0.0016268954965542,0.0079513858071479,,8985.541639556859,11104.004603147412,150,3,2025-09-09,2025-09-26 18:13:33.084,HH,D,635415482,AMBUSH51,1,1,48,2,1,1,225,2,1,0,0,9,1,225,2,1,-161303.78034266207,-4793924.357557648,4193833.241296521,2.19252,-2.52804,0.58229,-75.805,-49.1965,-57.7859,-0.163974,-7.1961,6.97945,0.0349946,0.0131504,-0.0304963,4,0,41.35481066309578,-91.92713520337004,8696.925444398837,-138.21147503923976,0.839519113543182,-17.5866240388838,182.536,8985.541639556859,11104.004603147412,150,False,2.783191255134478,False,139.72519176715159,159.67683858244047,False,60.19443581043214,False,False
3,1970-07-23 09:46:56.142286141,2025-09-09,2025-09-26 18:13:34.228,HH,D,2679997208,JASSM,3,119,76,2,2,1,225,9,2,0,1,26,0,0,0,0,-166210.94079764312,-4793231.923799361,4195030.049284458,-2.29541,0.0353774,-0.0792876,95.625,3.375,7.625,0.0,0.0,0.0,0.0,0.0,0.0,2,0,41.3660145004342,-91.98600261978883,10000.000964516186,83.94131248458152,-0.0007665431424108,0.0079517855876783,,8985.541639556859,11104.004603147412,150,3,2025-09-09,2025-09-26 18:13:34.218,HH,D,636767546,AMBUSH51,1,1,48,2,1,1,225,2,1,0,0,9,1,225,2,1,-161388.06918048245,-4793980.188961895,4193766.8644640553,2.24843,-2.50444,0.599836,-73.8388,-50.6164,-59.4783,-0.242967,-7.19039,6.94953,0.038646,0.00354845,-0.0318341,4,0,41.35401354029473,-91.92811902407227,8697.442095112534,-139.71258006519864,0.697900719981817,-15.156970455709754,182.854,8985.541639556859,11104.004603147412,150,False,2.704140228111393,False,138.1526076416104,158.1121970502943,False,63.341829828496934,False,False
3,1970-07-23 09:46:56.152325685,2025-09-09,2025-09-26 18:13:35.232,HH,D,2681190176,JASSM,3,119,76,2,2,1,225,9,2,0,1,26,0,0,0,0,-166115.34607108062,-4793228.536104049,4195037.654753208,-2.29541,0.0353774,-0.0792876,95.625,3.375,7.625,0.0,0.0,0.0,0.0,0.0,0.0,2,0,41.3661057051378,-91.98486270386958,9999.99983339005,83.94206581786183,9.381457543760624e-05,0.0079521899226539,,8985.541639556859,11104.004603147412,150,3,2025-09-09,2025-09-26 18:13:35.284,HH,D,638040078,AMBUSH51,1,1,48,2,1,1,225,2,1,0,0,9,1,225,2,1,-161466.23786503167,-4794034.544211671,4193701.868418165,2.29554,-2.48384,0.613984,-72.1053,-51.5967,-61.0856,-0.115369,-7.07088,6.62749,0.0380614,-0.00792186,-0.0166375,4,0,41.35323573583757,-91.92903035230322,8696.818596958617,-140.9732431489743,0.6056397664448264,-13.144850466174375,183.465,8985.541639556859,11104.004603147412,150,False,2.630053197670548,False,136.80874438604474,156.49753854482097,False,66.32237566308747,False,False
3,1970-07-23 09:46:56.162380051,2025-09-09,2025-09-26 18:13:36.238,HH,D,2682383382,JASSM,3,119,76,2,2,1,225,9,2,0,1,26,0,0,0,0,-166019.73230154935,-4793225.147432174,4195045.260221958,-2.29541,0.0354733,-0.0791918,95.625,3.375,7.625,0.0,0.0,0.0,0.0,0.0,0.0,2,0,41.36619690827424,-91.98372255781366,9999.999403389726,83.94330153642349,-0.0067870026090375,0.0083873838839663,,8985.541639556859,11104.004603147412,150,3,2025-09-09,2025-09-26 18:13:36.351,HH,D,639312610,AMBUSH51,1,1,48,2,1,1,225,2,1,0,0,9,1,225,2,1,-161541.80479320904,-4794089.332189138,4193635.74599444,2.34517,-2.46863,0.62785,-70.7394,-52.4785,-62.5169,-0.0921402,-7.12392,6.8056,0.0763069,-0.000758377,0.00359215,4,0,41.35244826329533,-91.9299104256199,8694.609707439935,-142.01071208023183,0.3638820261356016,-10.817474590432097,183.795,8985.541639556859,11104.004603147412,150,False,2.559729267123532,False,135.68518412437317,154.78707628680002,False,69.17504374443382,False,False
3,1970-07-23 09:46:56.172263030,2025-09-09,2025-09-26 18:13:37.226,HH,D,2683575998,JASSM,3,119,76,2,2,1,225,9,2,0,1,26,0,0,0,0,-165924.16552908844,-4793221.758760299,4195052.861784458,-2.29551,0.0354733,-0.0791918,95.625,3.375,7.625,0.0,0.0,0.0,0.0,0.0,0.0,2,0,41.36628806405923,-91.98258296968112,9999.999236426927,83.9440546557594,-0.0059268970826613,0.0028963235547529,,8985.541639556859,11104.004603147412,150,3,2025-09-09,2025-09-26 18:13:37.384,HH,D,640545376,AMBUSH51,1,1,48,2,1,1,225,2,1,0,0,9,1,225,2,1,-161614.844168989,-4794143.834005837,4193569.710230671,2.41642,-2.45678,0.637077,-69.8492,-53.1373,-63.585,-0.155544,-6.88039,6.73102,0.0618342,-0.000837439,-0.0126511,4,0,41.35166357626771,-91.930760420073,8691.681299444333,-142.7621920750554,0.2407948547835193,-7.139906210121135,184.32,8985.541639556859,11104.004603147412,150,True,2.4930902828189,False,134.90326678264037,152.99541753074016,False,71.76333365813902,False,False
3,1970-07-23 09:46:56.182285932,2025-09-09,2025-09-26 18:13:38.228,HH,D,2684769320,JASSM,3,119,76,2,2,1,225,9,2,0,1,26,0,0,0,0,-165828.54236014312,-4793218.368135299,4195060.466276646,-2.29551,0.0354733,-0.0791918,95.625,3.375,7.625,0.0,0.0,0.0,0.0,0.0,0.0,2,0,41.36637925155348,-91.9814427058448,10000.000538659147,83.94480822301645,-0.0050662851227197,0.0028967247888137,,8985.541639556859,11104.004603147412,150,3,2025-09-09,2025-09-26 18:13:38.084,HH,D,641380476,AMBUSH51,1,1,48,2,1,1,225,2,1,0,0,9,1,225,2,1,-161663.58625518254,-4794180.854880022,4193524.716225272,2.45616,-2.45227,0.638842,-69.4965,-53.5683,-64.0682,-0.172353,-7.08332,6.86273,0.0516705,-0.00117033,0.000993484,4,0,41.35112980453759,-91.9313273825122,8689.323207024203,-142.99094476153988,0.2750251652375035,-5.018156081614678,184.797,8985.541639556859,11104.004603147412,150,True,2.4351209340523927,False,134.5409258668982,151.54212423832254,False,73.58016588890999,False,False
3,1970-07-23 09:46:56.192323392,2025-09-09,2025-09-26 18:13:39.232,HH,D,2685901980,JASSM,3,119,76,2,2,1,225,9,2,0,1,26,0,0,0,0,-165737.78015311187,-4793215.147432174,4195067.684050083,-2.29551,0.0354733,-0.0791918,95.625,3.375,7.625,0.0,0.0,0.0,0.0,0.0,0.0,2,0,41.3664658066193,-91.98036040488336,9999.999827942058,83.94552348555709,-0.0042494213352906,0.0028971190913469,,8985.541639556859,11104.004603147412,150,3,2025-09-09,2025-09-26 18:13:39.151,HH,D,642653008,AMBUSH51,1,1,48,2,1,1,225,2,1,0,0,9,1,225,2,1,-161737.17834866678,-4794237.433518374,4193456.0744665097,2.59091,-2.4487,0.639133,-69.5827,-54.0037,-64.3836,-0.210183,-7.16863,7.00442,0.167062,0.00461788,-0.00241869,4,0,41.35031504636255,-91.93218310484784,8685.915098371182,-143.13694294479737,0.3547053954014028,2.579301063638637,185.53,8985.541639556859,11104.004603147412,150,True,2.376010095278766,False,134.39834072949876,149.5593878093395,False,75.70541478029514,False,False
3,1970-07-23 09:46:56.201366740,2025-09-09,2025-09-26 18:13:40.136,HH,D,2687036084,JASSM,3,119,76,2,2,1,225,9,2,0,1,26,0,0,0,0,-165646.90197928375,-4793211.922822799,4195074.909636021,-2.29551,0.0354733,-0.0791918,95.625,3.375,7.625,0.0,0.0,0.0,0.0,0.0,0.0,2,0,41.36655245131455,-91.97927671810687,10000.00084342897,83.94623966517987,-0.0034315149248545,0.0028975031496088,,8985.541639556859,11104.004603147412,150,3,2025-09-09,2025-09-26 18:13:40.151,HH,D,643846006,AMBUSH51,1,1,48,2,1,1,225,2,1,0,0,9,1,225,2,1,-161807.7970421657,-4794291.06596462,4193391.126252874,2.74002,-2.4558,0.627358,-70.8019,-53.9697,-63.7052,-0.318856,-7.51892,7.26809,0.138606,0.00671512,0.0280579,4,0,41.34954334158624,-91.93300449893528,8683.020486132638,-142.48651615253303,0.7286448694426259,11.370017625147012,185.762,8985.541639556859,11104.004603147412,150,False,2.3201353426007043,False,135.06252844533006,147.5500589837529,False,77.0360245286982,False,False
3,1970-07-23 09:46:56.211266416,2025-09-09,2025-09-26 18:13:41.126,HH,D,2688229270,JASSM,3,119,76,2,2,1,225,9,2,0,1,26,0,0,0,0,-165551.28943045562,-4793208.528291549,4195082.511198521,-2.29551,0.0354733,-0.0791918,95.625,3.375,7.625,0.0,0.0,0.0,0.0,0.0,0.0,2,0,41.3666436072964,-91.97813657344904,10000.000798833653,83.94699315764045,-0.0025709987059539,0.0028979156652787,,8985.541639556859,11104.004603147412,150,3,2025-09-09,2025-09-26 18:13:40.951,HH,D,644800406,AMBUSH51,1,1,48,2,1,1,225,2,1,0,0,9,1,225,2,1,-161865.20590603596,-4794333.5193765145,4193339.940812032,2.8471,-2.47961,0.612022,-72.6463,-53.4015,-62.7602,-0.254078,-7.73994,7.37184,0.163136,0.00613463,0.0321296,4,0,41.348933702964445,-91.93367269222855,8681.347003712686,-141.07332905544058,0.8174053907876279,18.3165771908321,186.532,8985.541639556859,11104.004603147412,150,False,2.2666941560205034,False,136.15936954258282,145.70282418526344,False,77.78104603223007,False,False
3,1970-07-23 09:46:56.221287878,2025-09-09,2025-09-26 18:13:42.128,HH,D,2689422054,JASSM,3,119,76,2,2,1,225,9,2,0,1,26,0,0,0,0,-165455.70935233062,-4793205.134736861,4195090.108854771,-2.29551,0.0354733,-0.0791918,95.625,3.375,7.625,0.0,0.0,0.0,0.0,0.0,0.0,2,0,41.3667347131299,-91.97699681288456,10000.00217495752,83.94774639763054,-0.0017107756254601,0.0028983201479219,,8985.541639556859,11104.004603147412,150,3,2025-09-09,2025-09-26 18:13:42.251,HH,D,646351304,AMBUSH51,1,1,48,2,1,1,225,2,1,0,0,9,1,225,2,1,-161962.50845397805,-4794400.444816171,4193258.988243962,3.02202,-2.52582,0.583853,-77.069,-50.8702,-60.5292,-0.21296,-7.55151,7.19334,0.154111,0.0248641,0.042389,4,0,41.34796950088232,-91.93480721584804,8678.715482761365,-138.3552400059049,0.8402264345676291,29.868610012362467,187.045,8985.541639556859,11104.004603147412,150,False,2.2083616368213925,False,139.03500715664123,143.0272270586292,False,77.61763167179419,False,False
3,1970-07-23 09:46:56.230333811,2025-09-09,2025-09-26 18:13:43.033,HH,D,2690496250,JASSM,3,119,76,2,2,1,225,9,2,0,1,26,0,0,0,0,-165369.63171561187,-4793202.077119674,4195096.949675083,-2.29551,0.0354733,-0.0791918,95.625,3.375,7.625,0.0,0.0,0.0,0.0,0.0,0.0,2,0,41.366816750228,-91.97597036364012,10000.000677883932,83.94842475409891,-0.0009360753636207,0.0028986829803666,,8985.541639556859,11104.004603147412,150,3,2025-09-09,2025-09-26 18:13:43.156,HH,D,647425002,AMBUSH51,1,1,48,2,1,1,225,2,1,0,0,9,1,225,2,1,-162032.94932934025,-4794444.047402762,4193205.1698017367,3.12045,-2.58239,0.55393,-81.0571,-47.8491,-58.5054,-0.261511,-7.87057,7.63344,0.151373,0.0213396,0.0650279,4,0,41.34733261487544,-91.93563047373787,8675.258581389886,-135.14628034331685,0.5321214365924057,37.29323403121816,187.485,8985.541639556859,11104.004603147412,150,False,2.1601647114815505,False,141.78850453816426,140.9297542867177,False,77.02083326512994,False,False
