Subject_cm,Timestamp,SampleDate_cm,SampleTime_cm,Configuration_cm,Scenario_cm,DisTime_cm,MarkingTxt_cm,Application_cm,EntId_cm,Site_cm,ExerciseId_cm,ForceId_cm,Category_cm,Country_cm,Domain_cm,Kind_cm,Extra_cm,Specific_cm,Subcategory_cm,AltCategory_cm,AltCountry_cm,AltDomain_cm,AltKind_cm,ECEF_X_cm,ECEF_Y_cm,ECEF_Z_cm,OriPhi_cm,OriPsi_cm,OriTheta_cm,LinVelX_cm,LinVelY_cm,LinVelZ_cm,LinAccX_cm,LinAccY_cm,LinAccZ_cm,AngVelX_cm,AngVelY_cm,AngVelZ_cm,DrAlg_cm,Appearance_cm,Latitude_cm,Longitude_cm,Altitude_cm,Heading_cm,Pitch_cm,Roll_cm,CalibratedAirspeed_cm,CM_Altitude_Lead_cm,CM_Altitude_Wing_cm,CM_Airspeed_cm,Subject_ac,SampleDate_ac,SampleTime_ac,Configuration_ac,Scenario_ac,DisTime_ac,MarkingTxt_ac,Application_ac,EntId_ac,Site_ac,ExerciseId_ac,ForceId_ac,Category_ac,Country_ac,Domain_ac,Kind_ac,Extra_ac,Specific_ac,Subcategory_ac,AltCategory_ac,AltCountry_ac,AltDomain_ac,AltKind_ac,ECEF_X_ac,ECEF_Y_ac,ECEF_Z_ac,OriPhi_ac,OriPsi_ac,OriTheta_ac,LinVelX_ac,LinVelY_ac,LinVelZ_ac,LinAccX_ac,LinAccY_ac,LinAccZ_ac,AngVelX_ac,AngVelY_ac,AngVelZ_ac,DrAlg_ac,Appearance_ac,Latitude_ac,Longitude_ac,Altitude_ac,Heading_ac,Pitch_ac,Roll_ac,CalibratedAirspeed_ac,CM_Altitude_Lead_ac,CM_Altitude_Wing_ac,CM_Airspeed_ac,Bank_Angle_Condition,distance_nm,Distance_Condition,angle_between_vel,angle_between_pos,Cone_Condition,angle_between_pos_nose,Nose_Cone_Condition,Intercept_Criteria
3,1970-07-23 10:29:39.502396728,2025-09-12,2025-09-26 17:25:50.239,AA,C,2331807252,JASSM,3,119,76,2,2,1,225,9,2,0,1,26,0,0,0,0,-188253.63513358065,-4786090.209932174,4202199.567839146,-2.30155,-0.153302,0.128183,88.875,-13.625,-11.5,0.0,0.0,0.0,0.0,0.0,0.0,2,0,41.45203856395952,-92.25248187139384,10002.624531685247,99.81634568221524,-0.0041624166593194,0.0023908731388574,,9351.585978208032,10940.833293995036,150,3,2025-09-12,2025-09-26 17:25:50.108,AA,C,1520378010,AMBUSH51,1,1,48,2,1,1,225,2,1,0,0,9,1,225,2,1,-143982.64654203894,-4792147.179251744,4196777.617905234,2.26617,3.01093,-0.123818,-108.967,16.8106,15.0273,-0.104034,-7.27785,6.69641,0.00149283,0.00229178,0.00210244,4,0,41.388543184629135,-91.72096486324016,9350.882478024636,-80.87596666640464,0.393182984385278,-1.8730612200627916,189.196,9351.585978208032,10940.833293995036,150,True,24.204345107297936,False,179.52429707331953,179.01004116841307,False,1.2860078691391617,True,False
3,1970-07-23 10:29:39.514400059,2025-09-12,2025-09-26 17:25:51.440,AA,C,2333059952,JASSM,3,119,76,2,2,1,225,9,2,0,1,26,0,0,0,0,-188160.22497733065,-4786104.651338424,4202187.384245396,-2.30155,-0.153302,0.128183,88.875,-13.625,-11.5,0.0,0.0,0.0,0.0,0.0,0.0,2,0,41.45189227812229,-92.251358569601,10002.621881898272,99.81708929896456,-0.0033078756745647,0.0023902752296195,,9351.585978208032,10940.833293995036,150,3,2025-09-12,2025-09-26 17:25:51.474,AA,C,1522008442,AMBUSH51,1,1,48,2,1,1,225,2,1,0,0,9,1,225,2,1,-144132.2911319466,-4792124.252224908,4196797.516221084,2.2615,3.01401,-0.121738,-109.338,16.4219,14.8715,-0.169526,-7.23019,6.77559,-0.00422049,-0.00600356,0.0056561,4,0,41.38878715036121,-91.72276066290684,9348.705408441328,-81.08289915204776,0.4462882584448192,-2.1201246811261343,189.514,9351.585978208032,10940.833293995036,150,True,24.07107520976602,False,179.58983638073525,179.00413316822133,False,1.0572105323965038,True,False
3,1970-07-23 10:29:39.524335968,2025-09-12,2025-09-26 17:25:52.433,AA,C,2334372304,JASSM,3,119,76,2,2,1,225,9,2,0,1,26,0,0,0,0,-188062.3675554556,-4786119.780244674,4202174.620573521,-2.30155,-0.153302,0.128183,88.875,-13.625,-11.5,0.0,0.0,0.0,0.0,0.0,0.0,2,0,41.45173901606353,-92.25018179275254,10002.623933408251,99.81786831345524,-0.0024126499546336,0.0023896490299737,,9351.585978208032,10940.833293995036,150,3,2025-09-12,2025-09-26 17:25:52.242,AA,C,1522923074,AMBUSH51,1,1,48,2,1,1,225,2,1,0,0,9,1,225,2,1,-144214.94620101654,-4792111.731474059,4196808.521018992,2.25922,3.01586,-0.122613,-109.446,16.4939,14.5372,0.0333101,-7.2534,6.50592,-0.000856165,0.00180284,0.00538354,4,0,41.3889211368262,-91.72375251398314,9347.89004634826,-81.11605410984058,0.5589391361324648,-2.238502385787822,189.783,9351.585978208032,10940.833293995036,150,True,23.9721088209781,False,179.7581768289368,178.9998514649014,False,0.9674042870995017,True,False
3,1970-07-23 10:29:39.535306021,2025-09-12,2025-09-26 17:25:53.530,AA,C,2335684664,JASSM,3,119,76,2,2,1,225,9,2,0,1,26,0,0,0,0,-187964.5081804556,-4786134.907197799,4202161.854948521,-2.30155,-0.153302,0.128183,88.875,-13.625,-11.5,0.0,0.0,0.0,0.0,0.0,0.0,2,0,41.45158574087244,-92.24900499901584,10002.621873345872,99.81864733675646,-0.0015174074609562,0.0023890245760602,,9351.585978208032,10940.833293995036,150,3,2025-09-12,2025-09-26 17:25:53.441,AA,C,1524354672,AMBUSH51,1,1,48,2,1,1,225,2,1,0,0,9,1,225,2,1,-144347.09636022913,-4792091.871897784,4196826.240637032,2.26269,3.02216,-0.125264,-109.647,15.9415,14.8093,-0.00748679,-7.5806,6.98267,1.14433e-05,0.0104768,0.00101845,4,0,41.38913523810235,-91.72533825178672,9347.255791531315,-81.24180525666182,0.9287978462027752,-1.9967691988327672,190.211,9351.585978208032,10940.833293995036,150,True,23.846010043200554,False,179.4534679473639,178.99453580307713,False,0.8570493157226972,True,False
3,1970-07-23 10:29:39.551744294,2025-09-12,2025-09-26 17:25:55.174,AA,C,2336997004,JASSM,3,119,76,2,2,1,225,9,2,0,1,26,0,0,0,0,-187866.65075858065,-4786150.034150924,4202149.089323521,-2.30155,-0.153302,0.128183,88.875,-13.625,-11.5,0.0,0.0,0.0,0.0,0.0,0.0,2,0,41.45143245318309,-92.2478282341646,10002.625119799584,99.8194263385666,-0.0006221821068648,0.0023883966422654,,9351.585978208032,10940.833293995036,150,3,2025-09-12,2025-09-26 17:25:55.041,AA,C,1526263470,AMBUSH51,1,1,48,2,1,1,225,2,1,0,0,9,1,225,2,1,-144522.93191220224,-4792066.890014394,4196850.001536393,2.25647,3.02913,-0.128596,-109.918,14.9172,15.15,0.0713279,-7.62199,6.9564,-0.000729248,0.00614296,0.000102989,4,0,41.38941274047356,-91.7274476896216,9350.374249366974,-81.36339799739207,1.3530948302689425,-2.30511048175935,190.211,9351.585978208032,10940.833293995036,150,True,23.696055568574774,False,178.90598010283495,178.98981590976638,False,0.8715537017140993,True,False
3,1970-07-23 10:29:39.556357844,2025-09-12,2025-09-26 17:25:55.635,AA,C,2338249704,JASSM,3,119,76,2,2,1,225,9,2,0,1,26,0,0,0,0,-187773.24060233065,-4786164.471650924,4202136.901823521,-2.30145,-0.153206,0.128279,88.875,-13.625,-11.5,0.0,0.0,0.0,0.0,0.0,0.0,2,0,41.451286118796176,-92.24670495511776,10002.623707400577,99.82062408113796,-0.007491004558365,0.0071767703555912,,9351.585978208032,10940.833293995036,150,3,2025-09-12,2025-09-26 17:25:55.807,AA,C,1527178102,AMBUSH51,1,1,48,2,1,1,225,2,1,0,0,9,1,225,2,1,-144607.13993212237,-4792055.442404682,4196861.720095579,2.25991,3.03487,-0.129106,-109.944,14.2703,15.5394,0.064354,-7.74201,7.05445,0.00460956,0.0105351,-0.00122651,4,0,41.38954484428412,-91.72845772391769,9353.879940496114,-81.55860592021631,1.6172175369692825,-2.070475437208656,190.369,9351.585978208032,10940.833293995036,150,True,23.598737052552448,False,178.52041275876175,178.9867901008299,False,1.1375710525877427,True,False
3,1970-07-23 10:29:39.566377811,2025-09-12,2025-09-26 17:25:56.637,AA,C,2339502404,JASSM,3,119,76,2,2,1,225,9,2,0,1,26,0,0,0,0,-187679.83044608065,-4786178.907197799,4202124.714323521,-2.30145,-0.153206,0.128279,88.875,-13.625,-11.5,0.0,0.0,0.0,0.0,0.0,0.0,2,0,41.45113978506467,-92.24558168203518,10002.622159174523,99.82136766785736,-0.0066364669427546,0.0071761870594044,,9351.585978208032,10940.833293995036,150,3,2025-09-12,2025-09-26 17:25:56.542,AA,C,1528052968,AMBUSH51,1,1,48,2,1,1,225,2,1,0,0,9,1,225,2,1,-144687.7538255767,-4792044.962738311,4196872.971367874,2.25964,3.04103,-0.130285,-109.965,13.826,15.6607,-0.160325,-7.79739,7.2421,-0.0110324,0.0124305,-0.00387719,4,0,41.38966867228922,-91.72942447903998,9358.490172720569,-81.74091924460542,1.924767775233501,-2.045911300990567,190.015,9351.585978208032,10940.833293995036,150,True,23.503418592446856,False,178.2890313309331,178.9843217267427,False,1.2889148698346709,True,False
3,1970-07-23 10:29:39.578399236,2025-09-12,2025-09-26 17:25:57.839,AA,C,2340874402,JASSM,3,119,76,2,2,1,225,9,2,0,1,26,0,0,0,0,-187577.52575858065,-4786194.717744674,4202111.364714146,-2.30145,-0.153206,0.128279,88.875,-13.625,-11.5,0.0,0.0,0.0,0.0,0.0,0.0,2,0,41.450979491290425,-92.2443514562796,10002.62340249631,99.82218205286028,-0.0057005576203344,0.007175534867178,,9351.585978208032,10940.833293995036,150,3,2025-09-12,2025-09-26 17:25:57.707,AA,C,1529444800,AMBUSH51,1,1,48,2,1,1,225,2,1,0,0,9,1,225,2,1,-144814.96975627352,-4792029.119258149,4196891.337166278,2.25713,3.05276,-0.13396,-109.783,12.889,16.1414,-0.242813,-7.84988,7.33404,0.00602436,0.00683787,-0.00896216,4,0,41.3898640579452,-91.73094986098366,9368.80473582537,-82.02575248362699,2.564714072939516,-2.112281134368589,189.905,9351.585978208032,10940.833293995036,150,True,23.377738365282624,False,177.7542486353417,178.9820687076469,False,1.767531036009564,True,False
3,1970-07-23 10:29:39.589256066,2025-09-12,2025-09-26 17:25:58.925,AA,C,2342186758,JASSM,3,119,76,2,2,1,225,9,2,0,1,26,0,0,0,0,-187479.66638358065,-4786209.838838424,4202098.595182896,-2.30145,-0.153206,0.128279,88.875,-13.625,-11.5,0.0,0.0,0.0,0.0,0.0,0.0,2,0,41.45082616497123,-92.24317469274244,10002.62381881707,99.8229610445118,-0.0048053184875025,0.0071749253365634,,9351.585978208032,10940.833293995036,150,3,2025-09-12,2025-09-26 17:25:58.841,AA,C,1530796866,AMBUSH51,1,1,48,2,1,1,225,2,1,0,0,9,1,225,2,1,-144940.0631552965,-4792014.812142029,4196909.671876151,2.25684,3.05998,-0.137712,-109.603,11.8672,16.5396,-0.0554999,-7.83587,7.31325,0.000485819,0.00658404,0.00707506,4,0,41.39005045697741,-91.73244934057207,9382.682355635956,-82.13676763886916,3.015471062136781,-2.0783903536015185,189.832,9351.585978208032,10940.833293995036,150,True,23.255730297719236,False,177.19688523127215,178.98127139419444,False,2.2756656398989814,True,False
3,1970-07-23 10:29:39.600298546,2025-09-12,2025-09-26 17:26:00.029,AA,C,2343499108,JASSM,3,119,76,2,2,1,225,9,2,0,1,26,0,0,0,0,-187381.80700858065,-4786224.959932174,4202085.823698521,-2.30145,-0.153206,0.128279,88.875,-13.625,-11.5,0.0,0.0,0.0,0.0,0.0,0.0,2,0,41.45067281343616,-92.24199793474736,10002.625111375512,99.82374003012556,-0.0039100770831498,0.0071743027783497,,9351.585978208032,10940.833293995036,150,3,2025-09-12,2025-09-26 17:26:00.018,AA,C,1532188698,AMBUSH51,1,1,48,2,1,1,225,2,1,0,0,9,1,225,2,1,-145066.7218627121,-4792001.354444495,4196928.861594453,2.25223,3.07042,-0.140337,-109.205,10.8814,16.8981,-0.0722919,-7.815,7.20258,-0.00420592,0.0141553,-0.0038543,4,0,41.39023727511214,-91.73396721811672,9400.629347803691,-82.41669013736058,3.5606457124230118,-2.275739040255073,189.355,9351.585978208032,10940.833293995036,150,True,23.132900656554785,False,176.66518636776462,178.98136807100036,False,2.783635429002357,True,False
3,1970-07-23 10:29:39.611299016,2025-09-12,2025-09-26 17:26:01.129,AA,C,2344751806,JASSM,3,119,76,2,2,1,225,9,2,0,1,26,0,0,0,0,-187288.39685233065,-4786239.391572799,4202073.632292271,-2.30145,-0.153206,0.128279,88.875,-13.625,-11.5,0.0,0.0,0.0,0.0,0.0,0.0,2,0,41.450526430634326,-92.24087468465304,10002.625022502649,99.82448359257864,-0.0030555401991098,0.0071737160222314,,9351.585978208032,10940.833293995036,150,3,2025-09-12,2025-09-26 17:26:01.208,AA,C,1533620296,AMBUSH51,1,1,48,2,1,1,225,2,1,0,0,9,1,225,2,1,-145198.06200901064,-4791988.454227896,4196949.221439118,2.25136,3.07713,-0.146487,-108.747,9.78225,17.332,-0.158893,-7.5836,7.17258,0.00149075,0.0075536,-0.00958426,4,0,41.39042781400657,-91.73554082262037,9422.843640895093,-82.40393529225216,4.080105198066925,-2.269956906754282,188.487,9351.585978208032,10940.833293995036,150,True,23.01000007452786,False,176.059902771162,178.9826607534846,False,3.3777971022846023,True,False
3,1970-07-23 10:29:39.621338204,2025-09-12,2025-09-26 17:26:02.133,AA,C,2346004506,JASSM,3,119,76,2,2,1,225,9,2,0,1,26,0,0,0,0,-187194.98669608065,-4786253.823213424,4202061.438932896,-2.30145,-0.153206,0.128279,88.875,-13.625,-11.5,0.0,0.0,0.0,0.0,0.0,0.0,2,0,41.45038002368682,-92.23975143960908,10002.625355086871,99.82522714952924,-0.0022010010452588,0.0071731162426322,,9351.585978208032,10940.833293995036,150,3,2025-09-12,2025-09-26 17:26:02.274,AA,C,1534892828,AMBUSH51,1,1,48,2,1,1,225,2,1,0,0,9,1,225,2,1,-145313.23743076075,-4791978.311955882,4196967.214040533,2.24731,3.08246,-0.14526,-108.402,8.8926,17.4898,-0.115515,-7.62825,7.08377,-0.00217318,0.00113913,-0.0162026,4,0,41.39058885915964,-91.73692033622224,9445.51103413313,-82.65779763397543,4.262255591484649,-2.4756729930311385,187.864,9351.585978208032,10940.833293995036,150,True,22.8959970673932,False,175.60825301288097,178.98478259974016,False,3.808537337929978,True,False
3,1970-07-23 10:29:39.632357965,2025-09-12,2025-09-26 17:26:03.235,AA,C,2347257206,JASSM,3,119,76,2,2,1,225,9,2,0,1,26,0,0,0,0,-187101.57653983065,-4786268.252900924,4202049.245573521,-2.30145,-0.153206,0.128279,88.875,-13.625,-11.5,0.0,0.0,0.0,0.0,0.0,0.0,2,0,41.45023361739528,-92.2386282005289,10002.625551737106,99.8259707003714,-0.0013464645279834,0.0071725277605633,,9351.585978208032,10940.833293995036,150,3,2025-09-12,2025-09-26 17:26:03.043,AA,C,1535807460,AMBUSH51,1,1,48,2,1,1,225,2,1,0,0,9,1,225,2,1,-145396.06435996803,-4791971.477119045,4196980.404879431,2.2458,3.08567,-0.148141,-108.049,8.51504,17.3617,-0.18082,-7.68197,7.18826,-0.000799989,0.0109158,-0.00650914,4,0,41.39070363246864,-91.73791223181348,9463.491175873423,-82.65415541256326,4.508579910193138,-2.53513570027928,187.107,9351.585978208032,10940.833293995036,150,True,22.799645445006192,False,175.4563225498635,178.98600305853452,False,3.9430080836255392,True,False
3,1970-07-23 10:29:39.642376312,2025-09-12,2025-09-26 17:26:04.237,AA,C,2348509904,JASSM,3,119,76,2,2,1,225,9,2,0,1,26,0,0,0,0,-187008.16638358065,-4786282.680635299,4202037.052214146,-2.30145,-0.15311,0.128279,88.875,-13.625,-11.5,0.0,0.0,0.0,0.0,0.0,0.0,2,0,41.45008721175982,-92.23750496741192,10002.625612416688,99.823077970442,-0.0045488630518266,0.0064693811250966,,9351.585978208032,10940.833293995036,150,3,2025-09-12,2025-09-26 17:26:04.241,AA,C,1537239058,AMBUSH51,1,1,48,2,1,1,225,2,1,0,0,9,1,225,2,1,-145525.69750965646,-4791961.383603269,4197001.531560575,2.24871,3.09413,-0.151459,-107.378,7.60219,17.6638,-0.256964,-7.66424,7.08509,0.00626363,0.00959258,-0.0090329,4,0,41.39088290816325,-91.73946444082355,9494.169345761078,-82.82796687661651,4.995316552236845,-2.310212420076344,186.312,9351.585978208032,10940.833293995036,150,True,22.67780012667013,False,174.95642905298374,178.98970611140916,False,4.450017223364897,True,False
3,1970-07-23 10:29:39.653395786,2025-09-12,2025-09-26 17:26:05.339,AA,C,2349822250,JASSM,3,119,76,2,2,1,225,9,2,0,1,26,0,0,0,0,-186910.3089617056,-4786297.795869674,4202024.274870396,-2.30145,-0.15311,0.128279,88.875,-13.625,-11.5,0.0,0.0,0.0,0.0,0.0,0.0,2,0,41.44993379711249,-92.23632826220908,10002.624628966903,99.823856909735,-0.00365363996807,0.006468693169641,,9351.585978208032,10940.833293995036,150,3,2025-09-12,2025-09-26 17:26:05.273,AA,C,1538471824,AMBUSH51,1,1,48,2,1,1,225,2,1,0,0,9,1,225,2,1,-145635.2481109751,-4791953.358761096,4197019.866689958,2.25191,3.10135,-0.151668,-106.755,6.99369,17.9655,-0.0829721,-7.38448,7.07197,-0.0077783,0.00381061,0.00195888,4,0,41.39103464036395,-91.74077600400508,9522.388421564094,-83.09017467024425,5.31254052177222,-2.088250208901628,185.31,9351.585978208032,10940.833293995036,150,True,22.564463333202628,False,174.59797514056248,178.9925900303795,False,4.82655142446236,True,False
3,1970-07-23 10:29:39.664275484,2025-09-12,2025-09-26 17:26:06.427,AA,C,2351134606,JASSM,3,119,76,2,2,1,225,9,2,0,1,26,0,0,0,0,-186812.4495867056,-4786312.909150924,4202011.497526646,-2.30145,-0.15311,0.128375,88.875,-13.625,-11.5,0.0,0.0,0.0,0.0,0.0,0.0,2,0,41.44978038250573,-92.23515154011724,10002.623776825054,99.82872642274182,-0.0064247767768294,0.0064676921295017,,9351.585978208032,10940.833293995036,150,3,2025-09-12,2025-09-26 17:26:06.440,AA,C,1539863656,AMBUSH51,1,1,48,2,1,1,225,2,1,0,0,9,1,225,2,1,-145759.98617008238,-4791945.068370316,4197040.58754955,2.25211,3.10719,-0.153646,-106.043,6.51415,17.8667,-0.113271,-7.38077,6.8795,-0.0033612,-0.000152924,0.00179243,4,0,41.39120129712687,-91.74226909004574,9556.27231323156,-83.2237520509225,5.637377493602951,-2.03829042939369,184.064,9351.585978208032,10940.833293995036,150,True,22.442922292513487,False,174.38224703562472,178.99725661114053,False,5.0399788524797895,True,False
3,1970-07-23 10:29:39.675295070,2025-09-12,2025-09-26 17:26:07.529,AA,C,2352387304,JASSM,3,119,76,2,2,1,225,9,2,0,1,26,0,0,0,0,-186719.0394304556,-4786327.334932174,4201999.300261021,-2.30145,-0.15311,0.128375,88.875,-13.625,-11.5,0.0,0.0,0.0,0.0,0.0,0.0,2,0,41.44963392819101,-92.23402832354748,10002.624988592484,99.82946994991448,-0.0055702409840908,0.0064671069669938,,9351.585978208032,10940.833293995036,150,3,2025-09-12,2025-09-26 17:26:07.574,AA,C,1541215722,AMBUSH51,1,1,48,2,1,1,225,2,1,0,0,9,1,225,2,1,-145878.96879359972,-4791937.692270995,4197060.496544605,2.25129,3.10992,-0.15412,-105.361,5.95833,17.9135,-0.129071,-7.2629,6.88808,0.00176538,-0.00834214,0.00345067,4,0,41.39135805640996,-91.74369309406528,9590.22149259052,-83.3061785932789,5.7728521991465245,-2.069611932565101,183.086,9351.585978208032,10940.833293995036,150,True,22.32698177356094,False,174.09512516401904,179.0021584627407,False,5.333085974741713,True,False
3,1970-07-23 10:29:39.686294970,2025-09-12,2025-09-26 17:26:08.629,AA,C,2353699656,JASSM,3,119,76,2,2,1,225,9,2,0,1,26,0,0,0,0,-186621.1800554556,-4786342.446260299,4201986.520964146,-2.30145,-0.15311,0.128375,88.875,-13.625,-11.5,0.0,0.0,0.0,0.0,0.0,0.0,2,0,41.44948048850296,-92.23285161320402,10002.625098844825,99.83024888563791,-0.0046750036855109,0.0064664959203826,,9351.585978208032,10940.833293995036,150,3,2025-09-12,2025-09-26 17:26:08.607,AA,C,1542448486,AMBUSH51,1,1,48,2,1,1,225,2,1,0,0,9,1,225,2,1,-145987.3990111395,-4791931.34304858,4197078.645105497,2.25034,3.11286,-0.153358,-104.697,5.74089,17.6573,-0.162999,-7.23507,6.82994,0.000775022,0.00594322,-0.0105684,4,0,41.39149871588617,-91.74499067142357,9622.09458515673,-83.45007665339678,5.8707326653541125,-2.112465637913685,181.864,9351.585978208032,10940.833293995036,150,True,22.214368213675176,False,174.03443704093922,179.0066380701115,False,5.390233250641776,True,False
3,1970-07-23 10:29:39.697338440,2025-09-12,2025-09-26 17:26:09.733,AA,C,2355012006,JASSM,3,119,76,2,2,1,225,9,2,0,1,26,0,0,0,0,-186523.32263358065,-4786357.555635299,4201973.741667271,-2.30145,-0.15311,0.128375,88.875,-13.625,-11.5,0.0,0.0,0.0,0.0,0.0,0.0,2,0,41.44932704794845,-92.23167493266062,10002.62571487134,99.83102779926284,-0.0037797861837803,0.0064658927331126,,9351.585978208032,10940.833293995036,150,3,2025-09-12,2025-09-26 17:26:09.840,AA,C,1543919852,AMBUSH51,1,1,48,2,1,1,225,2,1,0,0,9,1,225,2,1,-146116.64170861858,-4791924.240495976,4197100.118109502,2.24303,3.11849,-0.151047,-103.912,5.3761,17.3413,-0.128705,-7.09302,6.78818,-0.000213261,-0.00150323,-0.0152393,4,0,41.39166251249616,-91.74653714301998,9660.893410460963,-83.76188899749391,6.025409144982154,-2.5149009539096085,180.666,9351.585978208032,10940.833293995036,150,True,22.090482768458486,False,173.9067663158676,179.0130166188935,False,5.510797740818991,True,False
3,1970-07-23 10:29:39.707356237,2025-09-12,2025-09-26 17:26:10.735,AA,C,2356205054,JASSM,3,119,76,2,2,1,225,9,2,0,1,26,0,0,0,0,-186434.3597429556,-4786371.290010299,4201962.122526646,-2.30145,-0.15311,0.128375,88.875,-13.625,-11.5,0.0,0.0,0.0,0.0,0.0,0.0,2,0,41.44918754413454,-92.23060520944908,10002.623602113455,99.83173590952056,-0.0029659381194541,0.0064653447764551,,9351.585978208032,10940.833293995036,150,3,2025-09-12,2025-09-26 17:26:10.707,AA,C,1544953784,AMBUSH51,1,1,48,2,1,1,225,2,1,0,0,9,1,225,2,1,-146206.0055115045,-4791919.379813788,4197114.998007468,2.24486,3.11931,-0.147084,-103.488,5.25297,17.1389,-0.204913,-7.13165,6.62276,0.00746205,-0.00299502,-0.00398122,4,0,41.391775676381,-91.74760642097058,9687.920105323088,-83.96524867779642,5.911849819607631,-2.4240201777184263,179.725,9351.585978208032,10940.833293995036,150,True,21.993145492171625,False,173.87911972642513,179.01681535851165,False,5.537236893362587,True,False
3,1970-07-23 10:29:39.717396307,2025-09-12,2025-09-26 17:26:11.739,AA,C,2357517404,JASSM,3,119,76,2,2,1,225,9,2,0,1,26,0,0,0,0,-186336.5003679556,-4786386.399385299,4201949.339323521,-2.30145,-0.15311,0.128375,88.875,-13.625,-11.5,0.0,0.0,0.0,0.0,0.0,0.0,2,0,41.44903405469819,-92.22942851614847,10002.625318377852,99.8325148270634,-0.0020706989092935,0.0064647189722895,,9351.585978208032,10940.833293995036,150,3,2025-09-12,2025-09-26 17:26:11.707,AA,C,1546146782,AMBUSH51,1,1,48,2,1,1,225,2,1,0,0,9,1,225,2,1,-146310.14015874028,-4791913.954380292,4197131.973317663,2.24172,3.1209,-0.144797,-102.886,5.11142,16.759,-0.123813,-6.95409,6.69044,-0.00511306,0.00534609,-0.00978816,4,0,41.39190365442243,-91.74885235284484,9719.216674022016,-84.12499028482817,5.894829344736585,-2.606926960721342,179.102,9351.585978208032,10940.833293995036,150,True,21.882943859015977,False,173.87053213488497,179.0218402839728,False,5.536453264677284,True,False
3,1970-07-23 10:29:39.728254532,2025-09-12,2025-09-26 17:26:12.825,AA,C,2358770102,JASSM,3,119,76,2,2,1,225,9,2,0,1,26,0,0,0,0,-186243.0902117056,-4786400.819307174,4201937.138151646,-2.30145,-0.153015,0.128375,88.875,-13.625,-11.5,0.0,0.0,0.0,0.0,0.0,0.0,2,0,41.4488875530184,-92.22830532805403,10002.627409169598,99.82962214482818,-0.0052730936290787,0.0057610958354758,,9351.585978208032,10940.833293995036,150,3,2025-09-12,2025-09-26 17:26:12.706,AA,C,1547339782,AMBUSH51,1,1,48,2,1,1,225,2,1,0,0,9,1,225,2,1,-146412.76815372898,-4791908.553444346,4197148.573590511,2.24332,3.12156,-0.142173,-102.352,5.07497,16.3992,-0.15867,-6.95735,6.65729,-0.00450761,-0.00112664,-0.0124492,4,0,41.39202921455345,-91.7500802790426,9749.65236751246,-84.26459647365844,5.825375896888846,-2.524172639445097,178.393,9351.585978208032,10940.833293995036,150,True,21.776004179459566,False,173.90990441857628,179.0268136425176,False,5.490764128388653,True,False
3,1970-07-23 10:29:39.739276110,2025-09-12,2025-09-26 17:26:13.927,AA,C,2360082454,JASSM,3,119,76,2,2,1,225,9,2,0,1,26,0,0,0,0,-186145.2308367056,-4786415.924775924,4201924.352995396,-2.30145,-0.153015,0.128375,88.875,-13.625,-11.5,0.0,0.0,0.0,0.0,0.0,0.0,2,0,41.44873405012833,-92.22712864741212,10002.62528842764,99.83040104940272,-0.0043778574762109,0.0057604228241058,,9351.585978208032,10940.833293995036,150,3,2025-09-12,2025-09-26 17:26:13.973,AA,C,1548850914,AMBUSH51,1,1,48,2,1,1,225,2,1,0,0,9,1,225,2,1,-146541.40159667665,-4791901.876139323,4197168.852795809,2.24465,3.12199,-0.137155,-101.729,5.08595,15.8648,-0.185652,-6.94695,6.67222,-0.00511098,-0.00385014,0.00590577,4,0,41.392182462094766,-91.75161932387964,9786.890634472516,-84.4995856973572,5.656009629441568,-2.4680201508137287,177.257,9351.585978208032,10940.833293995036,150,True,21.652545123009478,False,173.99701497426437,179.03392923810466,False,5.39066045585113,True,False
3,1970-07-23 10:29:39.749319038,2025-09-12,2025-09-26 17:26:14.931,AA,C,2361275500,JASSM,3,119,76,2,2,1,225,9,2,0,1,26,0,0,0,0,-186056.26794608065,-4786429.655244674,4201912.729948521,-2.30145,-0.153015,0.128375,88.875,-13.625,-11.5,0.0,0.0,0.0,0.0,0.0,0.0,2,0,41.44859450092975,-92.22605894549864,10002.623070031252,99.83110913727292,-0.0035640101771788,0.0057598197721402,,9351.585978208032,10940.833293995036,150,3,2025-09-12,2025-09-26 17:26:14.773,AA,C,1549805312,AMBUSH51,1,1,48,2,1,1,225,2,1,0,0,9,1,225,2,1,-146622.42547219846,-4791897.588052411,4197181.331664229,2.24541,3.12183,-0.132978,-101.281,5.14951,15.49,-0.0461097,-6.92411,6.34454,0.00429539,0.00921808,0.000783344,4,0,41.39227747858623,-91.75258877128203,9809.509472558802,-84.67528413001452,5.492472438375697,-2.4431081027304624,176.536,9351.585978208032,10940.833293995036,150,True,21.55981144328523,False,174.0842206654693,179.03774242700777,False,5.293524632146542,True,False
3,1970-07-23 10:29:39.759357110,2025-09-12,2025-09-26 17:26:15.935,AA,C,2362468548,JASSM,3,119,76,2,2,1,225,9,2,0,1,26,0,0,0,0,-185967.3050554556,-4786443.385713424,4201901.106901646,-2.30145,-0.153015,0.128471,88.875,-13.625,-11.5,0.0,0.0,0.0,0.0,0.0,0.0,2,0,41.44845494178139,-92.22498924816968,10002.625081410026,99.83590783041016,-0.0064164866771208,0.0057588894574027,,9351.585978208032,10940.833293995036,150,3,2025-09-12,2025-09-26 17:26:15.973,AA,C,1551236910,AMBUSH51,1,1,48,2,1,1,225,2,1,0,0,9,1,225,2,1,-146744.06696176424,-4791891.139527871,4197199.487092779,2.24494,3.1209,-0.126762,-100.683,5.15275,14.9509,-0.100281,-6.72161,6.48378,0.00198385,-0.00857933,-0.00283273,4,0,41.39241626557224,-91.75404421212222,9842.19073982144,-84.91110176889964,5.2198579897197925,-2.4988226642629794,175.742,9351.585978208032,10940.833293995036,150,True,21.445079408347368,False,174.15475466183594,179.0450034649466,False,5.2068274341276926,True,False
3,1970-07-23 10:29:39.771736610,2025-09-12,2025-09-26 17:26:17.173,AA,C,2363661606,JASSM,3,119,76,2,2,1,225,9,2,0,1,26,0,0,0,0,-185878.3402117056,-4786457.114229049,4201889.481901646,-2.30145,-0.153015,0.128471,88.875,-13.625,-11.5,0.0,0.0,0.0,0.0,0.0,0.0,2,0,41.44831537158618,-92.22391953298806,10002.62209506665,99.83661592317232,-0.0056026225392216,0.0057583462257929,,9351.585978208032,10940.833293995036,150,3,2025-09-12,2025-09-26 17:26:17.141,AA,C,1552628742,AMBUSH51,1,1,48,2,1,1,225,2,1,0,0,9,1,225,2,1,-146860.3204143697,-4791884.859669885,4197216.042894576,2.24734,3.1196,-0.124759,-100.147,5.31747,14.2224,-0.0589337,-6.68939,6.41474,0.00371698,-0.00927633,-0.000194536,4,0,41.3925442126662,-91.75543522944864,9871.41830234299,-84.94999229447825,5.089662419951753,-2.374185743740624,174.935,9351.585978208032,10940.833293995036,150,True,21.333309560260812,False,174.32025586848198,179.05224883873413,False,5.012306228859424,True,False
3,1970-07-23 10:29:39.780397021,2025-09-12,2025-09-26 17:26:18.039,AA,C,2364914292,JASSM,3,119,76,2,2,1,225,9,2,0,1,26,0,0,0,0,-185784.93200858065,-4786471.530244674,4201877.274870396,-2.30145,-0.153015,0.128471,88.875,-13.625,-11.5,0.0,0.0,0.0,0.0,0.0,0.0,2,0,41.44816879937965,-92.22279639484483,10002.624920646878,99.83735937689544,-0.0047481057209571,0.0057577557768284,,9351.585978208032,10940.833293995036,150,3,2025-09-12,2025-09-26 17:26:17.973,AA,C,1553622908,AMBUSH51,1,1,48,2,1,1,225,2,1,0,0,9,1,225,2,1,-146943.52991588897,-4791879.99931343,4197227.619954317,2.24965,3.11764,-0.120549,-99.8133,5.6727,13.6373,-0.0615684,-6.65495,6.42467,-0.00438902,-0.00156981,0.000960194,4,0,41.39263611279594,-91.75643099802735,9890.851356286446,-85.0592556100439,4.847724627165606,-2.264577571114554,174.116,9351.585978208032,10940.833293995036,150,True,21.236997630645135,False,174.56291100148485,179.0563965099307,False,4.744640863442232,True,False
3,1970-07-23 10:29:39.790275662,2025-09-12,2025-09-26 17:26:19.027,AA,C,2366107340,JASSM,3,119,76,2,2,1,225,9,2,0,1,26,0,0,0,0,-185695.9691179556,-4786485.256807174,4201865.649870396,-2.30145,-0.153015,0.128471,88.875,-13.625,-11.5,0.0,0.0,0.0,0.0,0.0,0.0,2,0,41.44802921996293,-92.22172671331376,10002.625992214813,99.83806744336214,-0.003934261361696,0.0057572203724389,,9351.585978208032,10940.833293995036,150,3,2025-09-12,2025-09-26 17:26:19.207,AA,C,1555094274,AMBUSH51,1,1,48,2,1,1,225,2,1,0,0,9,1,225,2,1,-147067.1317361448,-4791872.480858439,4197244.051142473,2.25164,3.11329,-0.114449,-99.4717,6.05092,12.9042,-0.19891,-6.50308,6.46119,0.000858245,-0.00808207,0.00380021,4,0,41.39276921484046,-91.75791025300856,9917.328426909176,-85.16066621742237,4.43236590187128,-2.1879255874241936,173.554,9351.585978208032,10940.833293995036,150,True,21.121260734663615,False,174.80724174206603,179.06412483081448,False,4.46764545368597,True,False
3,1970-07-23 10:29:39.801742255,2025-09-12,2025-09-26 17:26:20.174,AA,C,2367360040,JASSM,3,119,76,2,2,1,225,9,2,0,1,26,0,0,0,0,-185602.55700858065,-4786499.668916549,4201853.440886021,-2.30145,-0.153015,0.128471,88.875,-13.625,-11.5,0.0,0.0,0.0,0.0,0.0,0.0,2,0,41.44788263732053,-92.22060354016412,10002.623709188056,99.83881091603465,-0.0030797132336631,0.0057566464073635,,9351.585978208032,10940.833293995036,150,3,2025-09-12,2025-09-26 17:26:20.006,AA,C,1556048672,AMBUSH51,1,1,48,2,1,1,225,2,1,0,0,9,1,225,2,1,-147146.4989856252,-4791867.380043486,4197254.164327251,2.25315,3.10987,-0.110616,-99.2426,6.33044,12.4079,-0.115277,-6.64607,6.34789,-0.00305535,-0.0155743,-0.00157397,4,0,41.392853341754176,-91.75886021417554,9932.712996133463,-85.19850254730049,4.142120718626845,-2.12612602511202,173.261,9351.585978208032,10940.833293995036,150,True,21.027054170712887,False,174.9708126874875,179.0681549286719,False,4.279688675769798,True,False
3,1970-07-23 10:29:39.811336538,2025-09-12,2025-09-26 17:26:21.133,AA,C,2368612738,JASSM,3,119,76,2,2,1,225,9,2,0,1,26,0,0,0,0,-185509.14685233065,-4786514.081025924,4201841.231901646,-2.30145,-0.153015,0.128471,88.875,-13.625,-11.5,0.0,0.0,0.0,0.0,0.0,0.0,2,0,41.44773604325819,-92.21948039541502,10002.626275580713,99.83955436774548,-0.002225182247367,0.0057560689661198,,9351.585978208032,10940.833293995036,150,3,2025-09-12,2025-09-26 17:26:21.274,AA,C,1557559804,AMBUSH51,1,1,48,2,1,1,225,2,1,0,0,9,1,225,2,1,-147271.50928026644,-4791858.521995937,4197269.300230672,2.25605,3.0853,-0.0926689,-99.134,7.52496,11.1642,-0.057943,-5.25695,5.10783,0.000777102,-0.0354377,0.0062137,4,0,41.39298537728971,-91.76035678991389,9953.204193404245,-85.04755727291074,2.4122745680065063,-2.0946242682066503,173.078,9351.585978208032,10940.833293995036,150,True,20.908118836312525,False,175.5676774870759,179.07563142145307,False,3.6086147120051972,True,False
3,1970-07-23 10:29:39.822253310,2025-09-12,2025-09-26 17:26:22.225,AA,C,2369865436,JASSM,3,119,76,2,2,1,225,9,2,0,1,26,0,0,0,0,-185415.7347429556,-4786528.491182174,4201829.020964146,-2.30145,-0.152919,0.128471,88.875,-13.625,-11.5,0.0,0.0,0.0,0.0,0.0,0.0,2,0,41.447589437128535,-92.21835723328287,10002.62427817178,99.836661744465,-0.0054275563921641,0.0050519349398659,,9351.585978208032,10940.833293995036,150,3,2025-09-12,2025-09-26 17:26:22.073,AA,C,1558514204,AMBUSH51,1,1,48,2,1,1,225,2,1,0,0,9,1,225,2,1,-147350.8236443358,-4791851.768337183,4197277.519830286,2.26111,3.06935,-0.078998,-99.1865,9.01375,9.71297,-0.0812671,-5.10805,4.94702,0.00484467,-0.0236803,0.00390216,4,0,41.39306653991616,-91.7613067293523,9960.419210975517,-85.03379271560601,1.212142637093694,-1.8822113609060147,173.212,9351.585978208032,10940.833293995036,150,True,20.81394071508117,False,176.0999858742187,179.07933311726254,False,2.9960029608071257,True,False
3,1970-07-23 10:29:39.832295432,2025-09-12,2025-09-26 17:26:23.229,AA,C,2371177786,JASSM,3,119,76,2,2,1,225,9,2,0,1,26,0,0,0,0,-185317.8753679556,-4786543.586885299,4201816.227995396,-2.30145,-0.152919,0.128471,88.875,-13.625,-11.5,0.0,0.0,0.0,0.0,0.0,0.0,2,0,41.44743583788626,-92.21718060408116,10002.62446420408,99.837440595007,-0.0045323243045186,0.0050512734125302,,9351.585978208032,10940.833293995036,150,3,2025-09-12,2025-09-26 17:26:23.307,AA,C,1559985568,AMBUSH51,1,1,48,2,1,1,225,2,1,0,0,9,1,225,2,1,-147473.99554977493,-4791838.562595814,4197287.894076319,2.25918,3.04118,-0.0527965,-99.505,11.8466,7.11918,-0.137395,-4.8497,4.7371,-0.0037149,-0.026383,0.00568314,4,0,41.393192591559256,-91.76278294823472,9959.759074611731,-85.09232160330876,-0.9876566907155044,-2.0993299869493405,173.774,9351.585978208032,10940.833293995036,150,True,20.693525893862727,False,176.24846604627172,179.0852305523303,False,2.9376617168807715,True,False
3,1970-07-23 10:29:39.842312538,2025-09-12,2025-09-26 17:26:24.231,AA,C,2372370832,JASSM,3,119,76,2,2,1,225,9,2,0,1,26,0,0,0,0,-185228.91247733065,-4786557.309541549,4201804.597136021,-2.30145,-0.152919,0.128471,88.875,-13.625,-11.5,0.0,0.0,0.0,0.0,0.0,0.0,2,0,41.44729618996305,-92.21611094843782,10002.625418183368,99.83814863408315,-0.0037184784335492,0.0050506698947115,,9351.585978208032,10940.833293995036,150,3,2025-09-12,2025-09-26 17:26:24.106,AA,C,1560939968,AMBUSH51,1,1,48,2,1,1,225,2,1,0,0,9,1,225,2,1,-147553.73892537944,-4791828.272267314,4197292.826735758,2.25607,3.02906,-0.0408176,-99.8521,13.5435,5.51918,0.0809465,-5.20738,5.02072,0.000970597,-0.0193235,0.00130973,4,0,41.39327249988816,-91.76373931831942,9951.183892817167,-85.1461232258624,-1.9616102222880951,-2.3090616496536445,174.666,9351.585978208032,10940.833293995036,150,True,20.601513245226723,False,175.730720259411,179.08785533013335,False,3.636449556424505,True,False
3,1970-07-23 10:29:39.852354190,2025-09-12,2025-09-26 17:26:25.235,AA,C,2373504228,JASSM,3,119,76,2,2,1,225,9,2,0,1,26,0,0,0,0,-185144.39685233065,-4786570.344697799,4201793.546354771,-2.30145,-0.152919,0.128471,88.875,-13.625,-11.5,0.0,0.0,0.0,0.0,0.0,0.0,2,0,41.447163513680096,-92.21509476995315,10002.62361787383,99.83882127310986,-0.0029453172832151,0.0050500962639556,,9351.585978208032,10940.833293995036,150,3,2025-09-12,2025-09-26 17:26:25.406,AA,C,1562490866,AMBUSH51,1,1,48,2,1,1,225,2,1,0,0,9,1,225,2,1,-147684.21146194809,-4791808.9807727,4197298.948928664,2.2555,3.01329,-0.0259538,-100.751,15.5297,3.70865,-0.0254246,-5.88006,5.75256,-0.0114318,-0.0195836,-0.00496326,4,0,41.39340467263375,-91.76530499874072,9926.894633606218,-85.18503901282351,-3.200830128779377,-2.3700478465863064,176.328,9351.585978208032,10940.833293995036,150,True,20.484384009115942,False,174.7947046920884,179.0924421399036,False,4.760521137721583,True,False
3,1970-07-23 10:29:39.862374176,2025-09-12,2025-09-26 17:26:26.237,AA,C,2374756926,JASSM,3,119,76,2,2,1,225,9,2,0,1,26,0,0,0,0,-185050.98669608065,-4786584.750947799,4201781.333464146,-2.30145,-0.152919,0.128567,88.875,-13.625,-11.5,0.0,0.0,0.0,0.0,0.0,0.0,2,0,41.44701687434734,-92.21397165271986,10002.626174727153,99.84365535171524,-0.0057570628366152,0.0050491922922093,,9351.585978208032,10940.833293995036,150,3,2025-09-12,2025-09-26 17:26:26.273,AA,C,1563524798,AMBUSH51,1,1,48,2,1,1,225,2,1,0,0,9,1,225,2,1,-147771.8263926418,-4791795.055479148,4197301.763160744,2.24982,3.00496,-0.0165883,-101.448,16.3525,2.82764,-0.210027,-6.16411,5.91413,-0.000311049,-0.00883941,-0.00117033,4,0,41.39349043477982,-91.7663567477894,9905.387442884772,-85.27041690376859,-3.913020121799294,-2.700420770677248,177.843,9351.585978208032,10940.833293995036,150,True,20.385641139025303,False,174.27075677079657,179.09436822578942,False,5.346070043098442,True,False
3,1970-07-23 10:29:39.872559804,2025-09-12,2025-09-26 17:26:27.255,AA,C,2375949972,JASSM,3,119,76,2,2,1,225,9,2,0,1,26,0,0,0,0,-184962.0238054556,-4786598.469697799,4201769.698698521,-2.30145,-0.152919,0.128567,88.875,-13.625,-11.5,0.0,0.0,0.0,0.0,0.0,0.0,2,0,41.44687719347949,-92.21290201264496,10002.621735709958,99.844363374631,-0.0049432176689983,0.0050486434809791,,9351.585978208032,10940.833293995036,150,3,2025-09-12,2025-09-26 17:26:27.106,AA,C,1564518964,AMBUSH51,1,1,48,2,1,1,225,2,1,0,0,9,1,225,2,1,-147856.71750917466,-4791781.117946963,4197303.72439179,2.24682,3.00571,-0.0132681,-102.243,16.9245,2.05767,-0.21634,-6.7826,6.25408,-0.000956033,-0.00301582,-0.00899753,4,0,41.393571001180206,-91.7673759683486,9881.796918788505,-85.44221221559363,-4.006498437446464,-2.859556643717025,179.31,9351.585978208032,10940.833293995036,150,True,20.290830469395033,False,173.81126911427717,179.0962382746956,False,5.841464678543317,True,False
3,1970-07-23 10:29:39.882295452,2025-09-12,2025-09-26 17:26:28.229,AA,C,2377143020,JASSM,3,119,76,2,2,1,225,9,2,0,1,26,0,0,0,0,-184873.0589617056,-4786612.188447799,4201758.065886021,-2.30145,-0.152919,0.128567,88.875,-13.625,-11.5,0.0,0.0,0.0,0.0,0.0,0.0,2,0,41.4467375162876,-92.21183235381402,10002.625582600918,99.84507140799812,-0.0041293575705913,0.0050481110475085,,9351.585978208032,10940.833293995036,150,3,2025-09-12,2025-09-26 17:26:28.306,AA,C,1565950562,AMBUSH51,1,1,48,2,1,1,225,2,1,0,0,9,1,225,2,1,-147980.0103776733,-4791760.465383724,4197305.877145588,2.23538,2.99978,-0.00507862,-103.204,17.3757,1.23043,-0.047118,-6.8381,5.93434,-0.00720406,-0.00788858,0.00172793,4,0,41.39368574022394,-91.7688564082872,9845.023346254016,-85.56898307245507,-4.5709206141117935,-3.5089913303701694,180.96,9351.585978208032,10940.833293995036,150,True,20.17521200968074,False,173.3320479949908,179.0998067055492,False,6.349214375954448,True,False
3,1970-07-23 10:29:39.892314496,2025-09-12,2025-09-26 17:26:29.231,AA,C,2378336066,JASSM,3,119,76,2,2,1,225,9,2,0,1,26,0,0,0,0,-184784.09607108065,-4786625.907197799,4201746.429167271,-2.30145,-0.152919,0.128567,88.875,-13.625,-11.5,0.0,0.0,0.0,0.0,0.0,0.0,2,0,41.44659780234695,-92.210762722916,10002.625361622631,99.84577942091532,-0.0033155101104761,0.0050475491786614,,9351.585978208032,10940.833293995036,150,3,2025-09-12,2025-09-26 17:26:29.140,AA,C,1566944728,AMBUSH51,1,1,48,2,1,1,225,2,1,0,0,9,1,225,2,1,-148066.2906226839,-4791745.918789565,4197306.658400165,2.23187,2.99931,-0.000153694,-103.836,17.6835,0.510923,-0.17974,-7.03629,6.14152,-0.0134417,-0.00606389,0.0014845,4,0,41.393761685777896,-91.76989245976674,9817.48951897549,-85.76334168305246,-4.777752537013668,-3.6942133638630974,181.986,9351.585978208032,10940.833293995036,150,True,20.07969731688533,False,172.92572596057676,179.1018133112604,False,6.773772237316401,True,False
3,1970-07-23 10:29:39.904139853,2025-09-12,2025-09-26 17:26:30.413,AA,C,2379588778,JASSM,3,119,76,2,2,1,225,9,2,0,1,26,0,0,0,0,-184690.6839617056,-4786640.309541549,4201734.212370396,-2.30145,-0.152919,0.128567,88.875,-13.625,-11.5,0.0,0.0,0.0,0.0,0.0,0.0,2,0,41.4464511180585,-92.20963960365418,10002.627637850854,99.84652283687792,-0.0024609660281173,0.0050469863549629,,9351.585978208032,10940.833293995036,150,3,2025-09-12,2025-09-26 17:26:30.441,AA,C,1568495626,AMBUSH51,1,1,48,2,1,1,225,2,1,0,0,9,1,225,2,1,-148201.032617777,-4791722.833751315,4197307.431094736,2.23622,3.00243,0.00316271,-104.705,17.5996,0.138313,-0.120544,-7.26506,6.41981,-0.00798636,-0.00100805,0.000338097,4,0,41.39387943813568,-91.77151058519156,9772.622653688924,-86.02627894927188,-4.768618514026094,-3.4238853313110527,183.697,9351.585978208032,10940.833293995036,150,True,19.9554971413633,False,172.7391905365368,179.1055866644262,False,6.965129943264719,True,False
3,1970-07-23 10:29:39.912400621,2025-09-12,2025-09-26 17:26:31.240,AA,C,2380781812,JASSM,3,119,76,2,2,1,225,9,2,0,1,26,0,0,0,0,-184601.72107108065,-4786654.024385299,4201722.575651646,-2.30145,-0.152823,0.128567,88.875,-13.625,-11.5,0.0,0.0,0.0,0.0,0.0,0.0,2,0,41.446311406976015,-92.20856998396548,10002.626488666592,99.84359484928764,-0.0057040404951451,0.0043423839818645,,9351.585978208032,10940.833293995036,150,3,2025-09-12,2025-09-26 17:26:31.274,AA,C,1569489792,AMBUSH51,1,1,48,2,1,1,225,2,1,0,0,9,1,225,2,1,-148288.49838060487,-4791708.34876651,4197307.208950889,2.23402,3.00936,0.00638959,-105.3,17.4059,-0.300578,-0.116047,-7.42379,6.52085,0.00511306,-0.00507977,-0.00781992,4,0,41.39394800118791,-91.77256078912264,9743.163848445753,-86.42970191043594,-4.593520809299633,-3.518454907448946,184.516,9351.585978208032,10940.833293995036,150,True,19.859424329646682,False,172.52010663943742,179.108155304444,False,7.178202054111647,True,False
3,1970-07-23 10:29:39.922252371,2025-09-12,2025-09-26 17:26:32.225,AA,C,2381915206,JASSM,3,119,76,2,2,1,225,9,2,0,1,26,0,0,0,0,-184517.2073992056,-4786667.053682174,4201711.519011021,-2.30145,-0.152823,0.128567,88.875,-13.625,-11.5,0.0,0.0,0.0,0.0,0.0,0.0,2,0,41.446178658966005,-92.20755386226114,10002.626079089365,99.84426743765825,-0.0049308975743667,0.0043418078722195,,9351.585978208032,10940.833293995036,150,3,2025-09-12,2025-09-26 17:26:32.140,AA,C,1570523724,AMBUSH51,1,1,48,2,1,1,225,2,1,0,0,9,1,225,2,1,-148380.04591964913,-4791693.402119972,4197306.84732889,2.23652,3.01282,0.00874682,-105.915,17.0116,-0.456528,-0.045232,-7.49819,6.4225,0.0148648,-0.00612215,0.00275159,4,0,41.39401760737521,-91.77365992930562,9712.581682848788,-86.66378399243557,-4.53364662308875,-3.358671778366969,185.518,9351.585978208032,10940.833293995036,150,True,19.763608240074692,False,172.45652445560498,179.11115996919858,False,7.228444235673246,True,False
3,1970-07-23 10:29:39.940552006,2025-09-12,2025-09-26 17:26:34.055,AA,C,2383048600,JASSM,3,119,76,2,2,1,225,9,2,0,1,26,0,0,0,0,-184432.6917742056,-4786680.081025924,4201700.462370396,-2.30145,-0.152823,0.128567,88.875,-13.625,-11.5,0.0,0.0,0.0,0.0,0.0,0.0,2,0,41.44604591405216,-92.20653772225477,10002.624502171975,99.8449400363696,-0.004157740124091,0.0043412465010741,,9351.585978208032,10940.833293995036,150,3,2025-09-12,2025-09-26 17:26:34.075,AA,C,1572830188,AMBUSH51,1,1,48,2,1,1,225,2,1,0,0,9,1,225,2,1,-148586.18271463778,-4791661.328513629,4197305.666226571,2.22937,3.0259,0.0116028,-107.237,16.0218,-0.828768,-0.112328,-7.7686,6.57559,-0.00157397,0.00667975,0.0051089,4,0,41.394162416814105,-91.7761342880983,9646.831123283597,-87.28601130104632,-4.078904136057314,-3.728993120306929,186.911,9351.585978208032,10940.833293995036,150,True,19.606008773875047,False,172.27038215943978,179.12206888097842,False,7.384865261875942,True,False
3,1970-07-23 10:29:39.942333105,2025-09-12,2025-09-26 17:26:34.233,AA,C,2384301298,JASSM,3,119,76,2,2,1,225,9,2,0,1,26,0,0,0,0,-184339.27966483065,-4786694.479463424,4201688.241667271,-2.30145,-0.152823,0.128567,88.875,-13.625,-11.5,0.0,0.0,0.0,0.0,0.0,0.0,2,0,41.445899185404336,-92.20541462382778,10002.626239116133,99.845683430444,-0.0033031967969132,0.0043406260061068,,9351.585978208032,10940.833293995036,150,3,2025-09-12,2025-09-26 17:26:34.278,AA,C,1573068788,AMBUSH51,1,1,48,2,1,1,225,2,1,0,0,9,1,225,2,1,-148608.80469006047,-4791657.905815126,4197305.531101812,2.23049,3.02385,0.0137405,-107.526,15.8174,-0.706727,-0.263804,-7.81978,6.90985,0.00212117,0.00159686,-0.00222728,4,0,41.3941776903923,-91.77640579614052,9639.843858546925,-87.30043207776916,-4.247600080755824,-3.662358223745373,187.107,9351.585978208032,10940.833293995036,150,True,19.54258209231089,False,172.33098171781197,179.1210627894702,False,7.314096104395379,True,False
3,1970-07-23 10:29:39.952354810,2025-09-12,2025-09-26 17:26:35.235,AA,C,2385434692,JASSM,3,119,76,2,2,1,225,9,2,0,1,26,0,0,0,0,-184254.76403983065,-4786707.504854049,4201677.183073521,-2.30145,-0.152823,0.128567,88.875,-13.625,-11.5,0.0,0.0,0.0,0.0,0.0,0.0,2,0,41.4457664200394,-92.20439849344125,10002.623657668928,99.84635601905664,-0.0025300397079466,0.0043400629205974,,9351.585978208032,10940.833293995036,150,3,2025-09-12,2025-09-26 17:26:35.106,AA,C,1574062954,AMBUSH51,1,1,48,2,1,1,225,2,1,0,0,9,1,225,2,1,-148698.66091378985,-4791644.923412726,4197304.859260332,2.23146,3.03484,0.0110752,-108.095,15.2179,-0.785915,-0.172717,-8.46135,7.3061,0.0128175,0.0143343,-0.0053336,4,0,41.39423379460169,-91.77748402279536,9613.306968129158,-87.60406204287585,-3.6739876757275,-3.593693450688784,187.986,9351.585978208032,10940.833293995036,150,True,19.447823501801487,False,172.26709457133478,179.12549516411542,False,7.357762527211582,True,False
3,1970-07-23 10:29:39.961251973,2025-09-12,2025-09-26 17:26:36.125,AA,C,2386508434,JASSM,3,119,76,2,2,1,225,9,2,0,1,26,0,0,0,0,-184174.69665701807,-4786719.844697799,4201666.706511021,-2.30145,-0.152823,0.128567,88.875,-13.625,-11.5,0.0,0.0,0.0,0.0,0.0,0.0,2,0,41.44564063403177,-92.20343584803707,10002.624738256756,99.84699320369744,-0.0017975755324775,0.0043395293491494,,9351.585978208032,10940.833293995036,150,3,2025-09-12,2025-09-26 17:26:36.342,AA,C,1575534318,AMBUSH51,1,1,48,2,1,1,225,2,1,0,0,9,1,225,2,1,-148832.81879335124,-4791626.686901917,4197304.144737291,2.23631,3.03742,0.0130897,-108.773,14.2539,-0.648675,-0.181124,-7.64794,6.59378,-0.00352349,0.00675465,0.00352349,4,0,41.39431266931774,-91.77909342872616,9577.141070858645,-87.7898898351754,-3.63833108605476,-3.3058077685941223,188.341,9351.585978208032,10940.833293995036,150,True,19.331702191994335,False,172.2713368450357,179.13429606955975,False,7.32261210109065,True,False
3,1970-07-23 10:29:39.970293029,2025-09-12,2025-09-26 17:26:37.029,AA,C,2387641828,JASSM,3,119,76,2,2,1,225,9,2,0,1,26,0,0,0,0,-184090.18200858065,-4786732.868135299,4201655.647917271,-2.30145,-0.152823,0.128663,88.875,-13.625,-11.5,0.0,0.0,0.0,0.0,0.0,0.0,2,0,41.44550786258579,-92.20241973828824,10002.624883241197,99.85175647632808,-0.0046906520667006,0.0043387718021714,,9351.585978208032,10940.833293995036,150,3,2025-09-12,2025-09-26 17:26:37.240,AA,C,1576608018,AMBUSH51,1,1,48,2,1,1,225,2,1,0,0,9,1,225,2,1,-148929.85475704324,-4791614.160222864,4197303.462603715,2.24013,3.04414,0.0115427,-109.234,13.6675,-0.661394,-0.169671,-7.97911,6.72373,-0.00364624,0.00815905,-0.000756296,4,0,41.39436464111306,-91.78025726631388,9552.262359785176,-87.97942780853255,-3.2900451243723445,-3.0803120703307907,188.769,9351.585978208032,10940.833293995036,150,True,19.233184138143475,False,172.20535775774482,179.140646087035,False,7.374431411445969,True,False
3,1970-07-23 10:29:39.980334831,2025-09-12,2025-09-26 17:26:38.033,AA,C,2388775222,JASSM,3,119,76,2,2,1,225,9,2,0,1,26,0,0,0,0,-184005.66638358065,-4786745.891572799,4201644.587370396,-2.30145,-0.152823,0.128663,88.875,-13.625,-11.5,0.0,0.0,0.0,0.0,0.0,0.0,2,0,41.44537506920982,-92.20140362101058,10002.624511839642,99.85242905107116,-0.0039174952847842,0.0043382621738459,,9351.585978208032,10940.833293995036,150,3,2025-09-12,2025-09-26 17:26:38.040,AA,C,1577562416,AMBUSH51,1,1,48,2,1,1,225,2,1,0,0,9,1,225,2,1,-149017.43475885,-4791603.402891929,4197302.697719814,2.23933,3.0471,0.0111292,-109.604,13.0923,-0.680449,-0.13947,-7.87511,6.72703,2.39268e-05,0.00263507,0.000901938,4,0,41.39440726740401,-91.78130749037189,9530.838180988538,-88.07457363976489,-3.1465945408057823,-3.122939432699604,189.123,9351.585978208032,10940.833293995036,150,True,19.13980003522903,False,172.12572730328026,179.14678158238095,False,7.440871442694075,True,False
3,1970-07-23 10:29:39.990531221,2025-09-12,2025-09-26 17:26:39.053,AA,C,2389908616,JASSM,3,119,76,2,2,1,225,9,2,0,1,26,0,0,0,0,-183921.15075858065,-4786758.915010299,4201633.524870396,-2.30145,-0.152823,0.128663,88.875,-13.625,-11.5,0.0,0.0,0.0,0.0,0.0,0.0,2,0,41.44524225368022,-92.20038750787664,10002.62371640825,99.85310162129996,-0.0031443362303997,0.0043377395297004,,9351.585978208032,10940.833293995036,150,3,2025-09-12,2025-09-26 17:26:38.873,AA,C,1578556582,AMBUSH51,1,1,48,2,1,1,225,2,1,0,0,9,1,225,2,1,-149109.1016381224,-4791592.538734386,4197302.117507491,2.24164,3.05406,0.0129757,-110.013,12.6462,-0.708279,-0.0897548,-7.70462,6.78668,0.0024499,0.0108076,-0.0077783,4,0,41.39445100995859,-91.78240657948548,9509.86867142768,-88.41905971077122,-2.9165877160172857,-2.9773538576159435,189.404,9351.585978208032,10940.833293995036,150,True,19.04423644962669,False,172.04796279862057,179.15351044444736,False,7.513412642849643,True,False
3,1970-07-23 10:29:39.998271194,2025-09-12,2025-09-26 17:26:39.827,AA,C,2390982358,JASSM,3,119,76,2,2,1,225,9,2,0,1,26,0,0,0,0,-183841.08337576807,-4786771.250947799,4201623.046354771,-2.30145,-0.152727,0.128663,88.875,-13.625,-11.5,0.0,0.0,0.0,0.0,0.0,0.0,2,0,41.44511644417526,-92.19942487976223,10002.625231576629,99.8501028941457,-0.006468786378789,0.0036327309371257,,9351.585978208032,10940.833293995036,150,3,2025-09-12,2025-09-26 17:26:39.739,AA,C,1579590514,AMBUSH51,1,1,48,2,1,1,225,2,1,0,0,9,1,225,2,1,-149204.89236936416,-4791581.727467464,4197301.680375086,2.24434,3.05843,0.0137011,-110.447,11.9131,-0.445343,-0.0847815,-7.99328,6.76528,-0.00607222,0.00883941,0.00208996,4,0,41.39449462968763,-91.78355491616998,9489.65991962033,-88.61667707416852,-2.7556248142581534,-2.8160489126340327,189.6,9351.585978208032,10940.833293995036,150,True,18.948928349222054,False,172.06008588630482,179.1612120339815,False,7.481194758825825,True,False
3,1970-07-23 10:29:40.008292703,2025-09-12,2025-09-26 17:26:40.829,AA,C,2392115752,JASSM,3,119,76,2,2,1,225,9,2,0,1,26,0,0,0,0,-183756.56775076807,-4786784.272432174,4201611.983854771,-2.30145,-0.152727,0.128663,88.875,-13.625,-11.5,0.0,0.0,0.0,0.0,0.0,0.0,2,0,41.44498362278877,-92.19840877559508,10002.627070248223,99.85077545502855,-0.0056956299754618,0.0036321705022836,,9351.585978208032,10940.833293995036,150,3,2025-09-12,2025-09-26 17:26:40.842,AA,C,1580902812,AMBUSH51,1,1,48,2,1,1,225,2,1,0,0,9,1,225,2,1,-149326.28708274543,-4791569.173513692,4197301.294058107,2.25392,3.07451,0.00632763,-110.715,10.6383,0.0950022,-0.207654,-8.45696,7.15159,0.00595986,0.0119333,-0.010791,4,0,41.39454420115068,-91.78500977104088,9467.241888052402,-88.91050914680154,-1.7839152079854717,-2.264899101094363,189.868,9351.585978208032,10940.833293995036,150,True,18.837517627936506,False,172.07712457692273,179.17269000114135,False,7.424637146979031,True,False
3,1970-07-23 10:29:40.017351695,2025-09-12,2025-09-26 17:26:41.735,AA,C,2393249146,JASSM,3,119,76,2,2,1,225,9,2,0,1,26,0,0,0,0,-183672.05212576807,-4786797.291963424,4201600.919401646,-2.30145,-0.152727,0.128663,88.875,-13.625,-11.5,0.0,0.0,0.0,0.0,0.0,0.0,2,0,41.44485079087476,-92.19739267646834,10002.623685147222,99.85144801080205,-0.0049224739508325,0.0036316083910869,,9351.585978208032,10940.833293995036,150,3,2025-09-12,2025-09-26 17:26:41.573,AA,C,1581777678,AMBUSH51,1,1,48,2,1,1,225,2,1,0,0,9,1,225,2,1,-149407.30926694602,-4791561.3185952855,4197301.797806217,2.26225,3.08547,-6.59097e-05,-110.777,9.93038,0.652655,-0.240352,-8.54499,7.34989,0.00758273,0.0172076,0.00258306,4,0,41.39457930170254,-91.78598058915756,9455.224809364336,-89.05186460691289,-1.069768218939033,-1.786349920274908,189.905,9351.585978208032,10940.833293995036,150,True,18.747734958656117,False,172.17853138530506,179.17988416121298,False,7.300066345729023,True,False
3,1970-07-23 10:29:40.026391778,2025-09-12,2025-09-26 17:26:42.639,AA,C,2394322888,JASSM,3,119,76,2,2,1,225,9,2,0,1,26,0,0,0,0,-183591.98669608065,-4786809.625947799,4201590.438932896,-2.30145,-0.152727,0.128663,88.875,-13.625,-11.5,0.0,0.0,0.0,0.0,0.0,0.0,2,0,41.44472495430647,-92.19643008416531,10002.627002244564,99.85208514878494,-0.0041900302645144,0.0036310850316171,,9351.585978208032,10940.833293995036,150,3,2025-09-12,2025-09-26 17:26:42.640,AA,C,1583050210,AMBUSH51,1,1,48,2,1,1,225,2,1,0,0,9,1,225,2,1,-149526.54064855867,-4791551.249577129,4197303.093088231,2.26638,3.09538,-0.0051135,-110.81,8.55315,1.64388,-0.138693,-8.35441,7.00857,-0.00856477,0.00454506,-0.0103145,4,0,41.394625816579286,-91.78740868312796,9442.414463041723,-89.21109541036292,-0.4518781026201357,-1.546074732133682,189.673,9351.585978208032,10940.833293995036,150,True,18.639985966988608,False,172.26149675891517,179.19347565663375,False,7.170444792050283,True,False
3,1970-07-23 10:29:40.036251358,2025-09-12,2025-09-26 17:26:43.625,AA,C,2395515934,JASSM,3,119,76,2,2,1,225,9,2,0,1,26,0,0,0,0,-183503.02087576807,-4786823.329072799,4201578.790495396,-2.30145,-0.152727,0.128663,88.875,-13.625,-11.5,0.0,0.0,0.0,0.0,0.0,0.0,2,0,41.44458511174022,-92.19536049154378,10002.623567262192,99.85279310820546,-0.0033761644981084,0.0036304954051985,,9351.585978208032,10940.833293995036,150,3,2025-09-12,2025-09-26 17:26:43.640,AA,C,1584243210,AMBUSH51,1,1,48,2,1,1,225,2,1,0,0,9,1,225,2,1,-149637.45579220395,-4791542.673002978,4197304.997283847,2.2641,3.09623,-0.00143453,-110.82,8.08739,1.98965,-0.265006,-7.44242,6.66798,0.0018278,-0.00991299,-0.0074038,4,0,41.39466909232812,-91.78873687796786,9433.964954814666,-89.40250180081448,-0.5535205398561218,-1.674566583288288,189.245,9351.585978208032,10940.833293995036,150,True,18.531823589769996,False,172.27196674813263,179.206519433933,False,7.158375292651819,True,False
3,1970-07-23 10:29:40.046292531,2025-09-12,2025-09-26 17:26:44.629,AA,C,2396708980,JASSM,3,119,76,2,2,1,225,9,2,0,1,26,0,0,0,0,-183414.05700858065,-4786837.032197799,4201567.142057896,-2.30145,-0.152727,0.128663,88.875,-13.625,-11.5,0.0,0.0,0.0,0.0,0.0,0.0,2,0,41.44444525878087,-92.19429092685871,10002.62454614397,99.85350104716986,-0.002562315875672,0.0036299023073338,,9351.585978208032,10940.833293995036,150,3,2025-09-12,2025-09-26 17:26:44.840,AA,C,1585674808,AMBUSH51,1,1,48,2,1,1,225,2,1,0,0,9,1,225,2,1,-149770.28057951306,-4791533.035746183,4197307.243194152,2.27557,3.1024,-0.00503228,-110.7,7.52851,2.21749,-0.147864,-7.95597,6.51751,0.0303736,0.000968517,-0.00314066,4,0,41.39471689580084,-91.79032720520335,9425.33842134001,-89.48283084634188,-0.1506742364604721,-1.0159076719308782,188.854,9351.585978208032,10940.833293995036,150,True,18.411986334890724,False,172.19744905656006,179.22334453040568,False,7.237299774712191,True,False
3,1970-07-23 10:29:40.056332561,2025-09-12,2025-09-26 17:26:45.633,AA,C,2397842376,JASSM,3,119,76,2,2,1,225,9,2,0,1,26,0,0,0,0,-183329.54138358065,-4786850.047822799,4201556.075651646,-2.30145,-0.152727,0.128663,88.875,-13.625,-11.5,0.0,0.0,0.0,0.0,0.0,0.0,2,0,41.44431240056068,-92.19327484631908,10002.622790454196,99.8541735834526,-0.0017891628242221,0.0036293497544694,,9351.585978208032,10940.833293995036,150,3,2025-09-12,2025-09-26 17:26:45.672,AA,C,1586668974,AMBUSH51,1,1,48,2,1,1,225,2,1,0,0,9,1,225,2,1,-149862.19761068333,-4791526.7883780245,4197308.961390725,2.31862,3.10407,-0.00657258,-110.5,7.4196,2.38479,-0.172308,-7.48368,6.31104,0.0841549,-0.00240621,-0.00364624,4,0,41.39474856210053,-91.7914275834698,9420.767375553012,-89.48033298684727,-0.0200465948008604,1.4509289554702005,188.61,9351.585978208032,10940.833293995036,150,True,18.3164926568614,False,172.23659789261748,179.23488356688276,False,7.209698260526806,True,False
3,1970-07-23 10:29:40.066350900,2025-09-12,2025-09-26 17:26:46.635,AA,C,2399095074,JASSM,3,119,76,2,2,1,225,9,2,0,1,26,0,0,0,0,-183236.1292742056,-4786864.434541549,4201543.843229771,-2.30145,-0.152727,0.128759,88.875,-13.625,-11.5,0.0,0.0,0.0,0.0,0.0,0.0,2,0,41.44416553309674,-92.19215181305712,10002.62535224524,99.85900765547412,-0.0046007933319583,0.0036285280890003,,9351.585978208032,10940.833293995036,150,3,2025-09-12,2025-09-26 17:26:46.640,AA,C,1587822206,AMBUSH51,1,1,48,2,1,1,225,2,1,0,0,9,1,225,2,1,-149969.14044168885,-4791519.3744822815,4197311.388004329,2.39633,3.10198,-0.00735283,-110.442,7.57971,3.07687,-0.266787,-7.66807,6.31865,0.0634737,-0.00915982,0.0145486,4,0,41.39478914230886,-91.7927078983016,9416.024759832237,-89.36855157654782,-0.0792474373033229,5.902827494804448,188.219,9351.585978208032,10940.833293995036,150,True,18.20804919318061,False,172.56791882850473,179.24790115834,False,6.888286655444268,True,False
3,1970-07-23 10:29:40.076391370,2025-09-12,2025-09-26 17:26:47.639,AA,C,2400288122,JASSM,3,119,76,2,2,1,225,9,2,0,1,26,0,0,0,0,-183147.16540701807,-4786878.133760299,4201532.192839146,-2.30145,-0.152727,0.128759,88.875,-13.625,-11.5,0.0,0.0,0.0,0.0,0.0,0.0,2,0,41.44402566037208,-92.19108226394026,10002.625179425007,99.85971557827044,-0.0037869476553822,0.0036280026806384,,9351.585978208032,10940.833293995036,150,3,2025-09-12,2025-09-26 17:26:47.740,AA,C,1589134504,AMBUSH51,1,1,48,2,1,1,225,2,1,0,0,9,1,225,2,1,-150089.85125178506,-4791510.170573899,4197315.039691348,2.43552,3.08715,-0.0192236,-110.357,8.7125,4.01723,-0.153287,-7.24829,6.56943,-0.0106807,0.00430163,0.0151394,4,0,41.39484606164565,-91.7941533580344,9410.603231669813,-88.29733306282999,-0.2657498899344853,8.13347744674746,187.828,9351.585978208032,10940.833293995036,150,True,18.094559379231868,False,173.31623973732124,179.261169426527,False,6.1755636413925545,True,False
3,1970-07-23 10:29:40.087250996,2025-09-12,2025-09-26 17:26:48.725,AA,C,2401540820,JASSM,3,119,76,2,2,1,225,9,2,0,1,26,0,0,0,0,-183053.75329764312,-4786892.516572799,4201519.958464146,-2.30145,-0.152631,0.128759,88.875,-13.625,-11.5,0.0,0.0,0.0,0.0,0.0,0.0,2,0,41.44387878157309,-92.18995924235313,10002.623004768391,99.85682309343024,-0.0069893155027293,0.0029224230897544,,9351.585978208032,10940.833293995036,150,3,2025-09-12,2025-09-26 17:26:48.539,AA,C,1590088904,AMBUSH51,1,1,48,2,1,1,225,2,1,0,0,9,1,225,2,1,-150178.14732635216,-4791502.757374322,4197318.439551964,2.43491,3.07771,-0.0271291,-110.434,9.55426,4.84559,-0.0801768,-7.25439,6.6253,0.0159779,0.00291595,0.00826932,4,0,41.39489665490685,-91.79521092232056,9406.548502075088,-87.60088974936185,-0.3704943501061696,8.082033736545323,188.023,9351.585978208032,10940.833293995036,150,True,17.995905849826272,False,173.91628346015523,179.26877060406264,False,5.598472426761926,True,False
3,1970-07-23 10:29:40.097295775,2025-09-12,2025-09-26 17:26:49.729,AA,C,2402733866,JASSM,3,119,76,2,2,1,225,9,2,0,1,26,0,0,0,0,-182964.7894304556,-4786906.215791549,4201508.306120396,-2.30145,-0.152631,0.128759,88.875,-13.625,-11.5,0.0,0.0,0.0,0.0,0.0,0.0,2,0,41.4437388752816,-92.18888970265434,10002.627261655189,99.85753100600948,-0.0061754675651234,0.0029218329778328,,9351.585978208032,10940.833293995036,150,3,2025-09-12,2025-09-26 17:26:49.672,AA,C,1591440968,AMBUSH51,1,1,48,2,1,1,225,2,1,0,0,9,1,225,2,1,-150304.0151928142,-4791490.964948406,4197324.571681306,2.44878,3.06637,-0.0409079,-110.667,10.7903,6.15909,-0.232316,-7.28374,6.85287,-0.00968413,0.000202858,0.0190073,4,0,41.39498472449136,-91.79671896441738,9400.55145129051,-86.58034668345154,-0.3335475264713457,8.84851453469158,188.377,9351.585978208032,10940.833293995036,150,True,17.879336738576654,False,174.82542997138341,179.27817775418947,False,4.721267126566783,True,False
3,1970-07-23 10:29:40.107311466,2025-09-12,2025-09-26 17:26:50.731,AA,C,2403926912,JASSM,3,119,76,2,2,1,225,9,2,0,1,26,0,0,0,0,-182875.82556326807,-4786919.911104049,4201496.653776646,-2.30145,-0.152631,0.128759,88.875,-13.625,-11.5,0.0,0.0,0.0,0.0,0.0,0.0,2,0,41.44359898229499,-92.18782016933456,10002.626148510788,99.8582389123983,-0.0053616249063057,0.0029212655070012,,9351.585978208032,10940.833293995036,150,3,2025-09-12,2025-09-26 17:26:50.906,AA,C,1592912334,AMBUSH51,1,1,48,2,1,1,225,2,1,0,0,9,1,225,2,1,-150439.6278357724,-4791476.618641011,4197332.915207023,2.41653,3.04666,-0.058917,-110.905,11.9722,7.63082,-0.2384,-7.04387,6.77297,-0.0381571,0.00122235,0.013914,4,0,41.39510107588322,-91.79834438114928,9393.830291497732,-85.0610435210686,-0.4938886598202693,6.933525051318921,189.123,9351.585978208032,10940.833293995036,150,True,17.757283393612045,False,175.77454738925294,179.28523639005235,False,3.7990416742984863,True,False
3,1970-07-23 10:29:40.117350405,2025-09-12,2025-09-26 17:26:51.735,AA,C,2405119958,JASSM,3,119,76,2,2,1,225,9,2,0,1,26,0,0,0,0,-182786.86071951807,-4786933.606416549,4201484.999479771,-2.30145,-0.152631,0.128759,88.875,-13.625,-11.5,0.0,0.0,0.0,0.0,0.0,0.0,2,0,41.4434590664077,-92.18675062893752,10002.624932187578,99.85894682150672,-0.004547771389667,0.0029206867332441,,9351.585978208032,10940.833293995036,150,3,2025-09-12,2025-09-26 17:26:51.706,AA,C,1593866732,AMBUSH51,1,1,48,2,1,1,225,2,1,0,0,9,1,225,2,1,-150528.37519822316,-4791466.628197091,4197339.029750911,2.37842,3.04303,-0.0669813,-111.139,12.5507,8.31773,-0.22066,-7.33063,6.91068,-0.0543358,0.000487899,0.00795307,4,0,41.39518520468,-91.79940831282676,9389.375894667484,-84.57808804226077,-0.3422623393152088,4.73293470613055,189.514,9351.585978208032,10940.833293995036,150,True,17.660458889104326,False,176.21495425255478,179.2879349412667,False,3.3758532401847554,True,False
