Subject_cm,Timestamp,SampleDate_cm,SampleTime_cm,Configuration_cm,Scenario_cm,DisTime_cm,MarkingTxt_cm,Application_cm,EntId_cm,Site_cm,ExerciseId_cm,ForceId_cm,Category_cm,Country_cm,Domain_cm,Kind_cm,Extra_cm,Specific_cm,Subcategory_cm,AltCategory_cm,AltCountry_cm,AltDomain_cm,AltKind_cm,ECEF_X_cm,ECEF_Y_cm,ECEF_Z_cm,OriPhi_cm,OriPsi_cm,OriTheta_cm,LinVelX_cm,LinVelY_cm,LinVelZ_cm,LinAccX_cm,LinAccY_cm,LinAccZ_cm,AngVelX_cm,AngVelY_cm,AngVelZ_cm,DrAlg_cm,Appearance_cm,Latitude_cm,Longitude_cm,Altitude_cm,Heading_cm,Pitch_cm,Roll_cm,CalibratedAirspeed_cm,CM_Altitude_Lead_cm,CM_Altitude_Wing_cm,CM_Airspeed_cm,Subject_ac,SampleDate_ac,SampleTime_ac,Configuration_ac,Scenario_ac,DisTime_ac,MarkingTxt_ac,Application_ac,EntId_ac,Site_ac,ExerciseId_ac,ForceId_ac,Category_ac,Country_ac,Domain_ac,Kind_ac,Extra_ac,Specific_ac,Subcategory_ac,AltCategory_ac,AltCountry_ac,AltDomain_ac,AltKind_ac,ECEF_X_ac,ECEF_Y_ac,ECEF_Z_ac,OriPhi_ac,OriPsi_ac,OriTheta_ac,LinVelX_ac,LinVelY_ac,LinVelZ_ac,LinAccX_ac,LinAccY_ac,LinAccZ_ac,AngVelX_ac,AngVelY_ac,AngVelZ_ac,DrAlg_ac,Appearance_ac,Latitude_ac,Longitude_ac,Altitude_ac,Heading_ac,Pitch_ac,Roll_ac,CalibratedAirspeed_ac,CM_Altitude_Lead_ac,CM_Altitude_Wing_ac,CM_Airspeed_ac,Bank_Angle_Condition,distance_nm,Distance_Condition,angle_between_vel,angle_between_pos,Cone_Condition,angle_between_pos_nose,Nose_Cone_Condition,Intercept_Criteria
3,1970-07-23 10:17:04.327267466,2025-09-11,2025-09-26 20:27:12.726,HA,C,2534743276,JASSM,3,114,76,2,2,1,225,9,2,0,1,26,0,0,0,0,-172962.29431326812,-4769830.297822799,4221173.589323521,-2.51458,-0.703426,0.607361,58.75,-49.625,-53.375,0.0,0.0,0.0,0.0,0.0,0.0,2,0,41.680263432562406,-92.07673411507544,10002.62049950142,139.82861521877513,-0.0006101977574151,0.0009606271872309,,8905.102926237949,10943.217344713625,150,3,2025-09-11,2025-09-26 20:27:12.631,HA,C,938718650,HAWK11,1,1,73,2,1,1,225,2,1,0,0,12,1,225,2,1,-141179.54724295562,-4791612.704072799,4198212.253386021,2.43577,2.78149,-0.375921,-98.125,23.875,20.5,-0.1875,-7.25,6.35938,-0.0371094,-0.00195312,0.015625,4,0,41.40190411969852,-91.68766826280282,10943.217344713625,-61.63049891036181,0.9329005969771929,4.757871689020711,195.099,8905.102926237949,10943.217344713625,150,True,24.14364272962214,False,146.49803202497793,173.7380043076844,False,27.240006515293757,True,False
3,1970-07-23 10:17:04.338290401,2025-09-11,2025-09-26 20:27:13.829,HA,C,2536055626,JASSM,3,114,76,2,2,1,225,9,2,0,1,26,0,0,0,0,-172897.69421561187,-4769885.098604049,4221114.710417271,-2.51458,-0.703426,0.607456,58.75,-49.625,-53.375,0.0,0.0,0.0,0.0,0.0,0.0,2,0,41.67955397194184,-92.07593531986603,10002.62567319404,139.83236832839347,-0.004130188608575,0.000958739052986,,8905.102926237949,10943.217344713625,150,3,2025-09-11,2025-09-26 20:27:13.725,HA,C,939951416,HAWK11,1,1,73,2,1,1,225,2,1,0,0,12,1,225,2,1,-141281.09607108062,-4791587.982393111,4198233.974089146,2.38515,2.77114,-0.375154,-97.75,24.5,20.75,0.078125,-7.17188,6.40625,-0.0351562,0.0,0.0078125,4,0,41.40218000311537,-91.68889018898902,10936.896753244597,-61.27275837327462,0.5119154270691046,1.644605731686341,194.867,8905.102926237949,10943.217344713625,150,True,24.03750107659687,False,146.87497823853906,173.78558844218787,False,26.91063834712993,True,False
3,1970-07-23 10:17:04.349271375,2025-09-11,2025-09-26 20:27:14.927,HA,C,2537308326,JASSM,3,114,76,2,2,1,225,9,2,0,1,26,0,0,0,0,-172836.03015311187,-4769937.407197799,4221058.503386021,-2.51458,-0.703426,0.607456,58.75,-49.625,-53.375,0.0,0.0,0.0,0.0,0.0,0.0,2,0,41.67887673194021,-92.07517284644511,10002.622962803876,139.83287534241475,-0.0032453418062084,0.0009570763840626,,8905.102926237949,10943.217344713625,150,3,2025-09-11,2025-09-26 20:27:14.725,HA,C,941223948,HAWK11,1,1,73,2,1,1,225,2,1,0,0,12,1,225,2,1,-141385.49255545562,-4791562.024385299,4198256.683073521,2.35591,2.77181,-0.367293,-97.625,24.625,21.0,-0.3125,-7.42188,6.53125,-0.00585938,-0.00976562,-0.015625,4,0,41.40246939991368,-91.69014658371098,10929.891879528835,-61.61740053166546,0.219659769335941,-0.0188615322838556,194.647,8905.102926237949,10943.217344713625,150,True,23.932205917459967,False,147.04078715028788,173.83543465288216,False,26.79465698072616,True,False
3,1970-07-23 10:17:04.360267328,2025-09-11,2025-09-26 20:27:16.026,HA,C,2538620674,JASSM,3,114,76,2,2,1,225,9,2,0,1,26,0,0,0,0,-172771.42956717435,-4769992.207979049,4220999.620573521,-2.51458,-0.703426,0.607456,58.75,-49.625,-53.375,0.0,0.0,0.0,0.0,0.0,0.0,2,0,41.67816723414841,-92.0743740796744,10002.63027443798,139.83340648280029,-0.0023183561453476,0.000955334009633,,8905.102926237949,10943.217344713625,150,3,2025-09-11,2025-09-26 20:27:16.224,HA,C,942973680,HAWK11,1,1,73,2,1,1,225,2,1,0,0,12,1,225,2,1,-141529.27380545562,-4791525.736299361,4198288.222136021,2.40365,2.75906,-0.370169,-97.375,25.25,21.125,-0.078125,-7.1875,6.35938,0.015625,0.0,-0.00390625,4,0,41.40287292249957,-91.69187717685612,10919.503609738143,-61.01929059834009,-0.1429651132315953,2.4540794720921766,194.145,8905.102926237949,10943.217344713625,150,True,23.804364010299086,False,147.34524119568138,173.90885860803297,False,26.56390690107286,True,False
3,1970-07-23 10:17:04.370249676,2025-09-11,2025-09-26 20:27:17.024,HA,C,2539873376,JASSM,3,114,76,2,2,1,225,9,2,0,1,26,0,0,0,0,-172709.76550467435,-4770044.512666549,4220943.409636021,-2.51448,-0.70333,0.607456,58.75,-49.625,-53.375,0.0,0.0,0.0,0.0,0.0,0.0,2,0,41.67748998072988,-92.07361164068654,10002.619693418485,139.830262128061,-0.0040791476633208,0.0033108896787927,,8905.102926237949,10943.217344713625,150,3,2025-09-11,2025-09-26 20:27:17.229,HA,C,944126912,HAWK11,1,1,73,2,1,1,225,2,1,0,0,12,1,225,2,1,-141623.24646170562,-4791501.566377486,4198309.153776646,2.34699,2.7534,-0.379181,-97.125,25.25,21.625,0.25,-7.39062,6.67188,-0.0820312,-0.00195312,0.015625,4,0,41.40314148524162,-91.69300843157842,10912.297473430946,-60.44251009774031,0.0130210964973008,-0.9114803054535308,193.84,8905.102926237949,10943.217344713625,150,True,23.704014259013395,False,147.5941953723045,173.95246325053134,False,26.358307246537304,True,False
3,1970-07-23 10:17:04.384852000,2025-09-11,2025-09-26 20:27:18.485,HA,C,2541245376,JASSM,3,114,76,2,2,1,225,9,2,0,1,26,0,0,0,0,-172642.22888358062,-4770101.801729049,4220881.847136021,-2.51448,-0.70333,0.607456,58.75,-49.625,-53.375,0.0,0.0,0.0,0.0,0.0,0.0,2,0,41.67674821575049,-92.07277660802178,10002.625194540668,139.8308173682312,-0.0031100244779987,0.0033089995539866,,8905.102926237949,10943.217344713625,150,3,2025-09-11,2025-09-26 20:27:18.131,HA,C,945240376,HAWK11,1,1,73,2,1,1,225,2,1,0,0,12,1,225,2,1,-141713.95544608062,-4791478.109346236,4198329.686979771,2.32532,2.74448,-0.380523,-97.25,25.375,21.5,-0.0625,-7.21875,6.40625,0.0078125,-0.00390625,-0.0136719,4,0,41.40340368070355,-91.69410045208969,10905.747984847168,-60.05103377797733,-0.2639708476288055,-2.3430338187101296,193.424,8905.102926237949,10943.217344713625,150,True,23.600189635582108,False,147.56272963194883,173.99281359612294,False,26.43022908892339,True,False
3,1970-07-23 10:17:04.392250411,2025-09-11,2025-09-26 20:27:19.225,HA,C,2542498078,JASSM,3,114,76,2,2,1,225,9,2,0,1,26,0,0,0,0,-172580.56433279935,-4770154.106416549,4220825.636198521,-2.51448,-0.70333,0.607456,58.75,-49.625,-53.375,0.0,0.0,0.0,0.0,0.0,0.0,2,0,41.676070951672784,-92.0720141966709,10002.625024794288,139.83132431306592,-0.0022251732131,0.0033072809477103,,8905.102926237949,10943.217344713625,150,3,2025-09-11,2025-09-26 20:27:19.334,HA,C,946711742,HAWK11,1,1,73,2,1,1,225,2,1,0,0,12,1,225,2,1,-141832.81091483062,-4791447.514619674,4198356.315886021,2.33194,2.75618,-0.375442,-97.125,25.125,21.5,0.0,-7.39062,6.59375,0.0195312,-0.00390625,0.00390625,4,0,41.40374451975317,-91.69553128487723,10896.92185450105,-60.70009297881831,-0.0333805564277949,-1.7147584476162585,192.923,8905.102926237949,10943.217344713625,150,True,23.487202003904933,False,147.50109110535118,174.0524463381775,False,26.551387258720524,True,False
3,1970-07-23 10:17:04.404389719,2025-09-11,2025-09-26 20:27:20.438,HA,C,2543870080,JASSM,3,114,76,2,2,1,225,9,2,0,1,26,0,0,0,0,-172513.02771170562,-4770211.391572799,4220764.073698521,-2.51448,-0.70333,0.607456,58.75,-49.625,-53.375,0.0,0.0,0.0,0.0,0.0,0.0,2,0,41.67532919826395,-92.07117920238537,10002.632410008377,139.8318795122088,-0.0012560684552599,0.0033054048548788,,8905.102926237949,10943.217344713625,150,3,2025-09-11,2025-09-26 20:27:20.335,HA,C,947825208,HAWK11,1,1,73,2,1,1,225,2,1,0,0,12,1,225,2,1,-141923.63513358062,-4791424.457002486,4198376.706511021,2.37412,2.74659,-0.390877,-97.125,25.0,21.625,-0.109375,-7.60938,6.65625,0.0664062,0.00976562,0.00390625,4,0,41.40400333270934,-91.69662456262768,10891.06476155748,-59.717197775288696,0.2398984695362105,0.4988134782162644,192.655,8905.102926237949,10943.217344713625,150,True,23.383505934266097,False,147.51003518019456,174.0940584532512,False,26.58402352651963,True,False
3,1970-07-23 10:17:04.415335602,2025-09-11,2025-09-26 20:27:21.533,HA,C,2545182502,JASSM,3,114,76,2,2,1,225,9,2,0,1,26,0,0,0,0,-172448.42370779935,-4770266.184541549,4220705.179167271,-2.51448,-0.70333,0.607552,58.75,-49.625,-53.375,0.0,0.0,0.0,0.0,0.0,0.0,2,0,41.67461964096797,-92.07038048572988,10002.622103741272,139.83563476630644,-0.0047785821227721,0.0033034608020414,,8905.102926237949,10943.217344713625,150,3,2025-09-11,2025-09-26 20:27:21.724,HA,C,949574938,HAWK11,1,1,73,2,1,1,225,2,1,0,0,12,1,225,2,1,-142065.24646170562,-4791388.207979049,4198409.212370396,2.43395,2.73883,-0.404683,-96.5,25.125,22.375,-0.109375,-7.35938,6.51562,0.00585938,0.00195312,0.0,4,0,41.404413435543546,-91.69832930381212,10882.756343727548,-58.87183687877207,0.5195324745113911,3.760103033350312,191.653,8905.102926237949,10943.217344713625,150,True,23.256348427677302,False,147.97047200358548,174.16790701157012,False,26.197611200867126,True,False
3,1970-07-23 10:17:04.426348288,2025-09-11,2025-09-26 20:27:22.634,HA,C,2546495256,JASSM,3,114,76,2,2,1,225,9,2,0,1,26,0,0,0,0,-172383.80310233062,-4770320.993135299,4220646.272917271,-2.51448,-0.70333,0.607552,58.75,-49.625,-53.375,0.0,0.0,0.0,0.0,0.0,0.0,2,0,41.67390990941651,-92.06958158070547,10002.62850723806,139.83616595433313,-0.003851325681975,0.0033017213768857,,8905.102926237949,10943.217344713625,150,3,2025-09-11,2025-09-26 20:27:22.631,HA,C,950648638,HAWK11,1,1,73,2,1,1,225,2,1,0,0,12,1,225,2,1,-142151.93786795562,-4791365.477510299,4198429.755339146,2.44938,2.72991,-0.422324,-96.0,25.25,23.25,-0.1875,-7.8125,7.125,0.0292969,0.0136719,0.0195312,4,0,41.40467203374232,-91.69937311217645,10877.745005545255,-57.83234792544486,0.918638729136594,4.452461324918196,191.152,8905.102926237949,10943.217344713625,150,True,23.156774124159963,False,148.4603500320884,174.2072579985695,False,25.747768392506778,True,False
3,1970-07-23 10:17:04.437345656,2025-09-11,2025-09-26 20:27:23.734,HA,C,2547807498,JASSM,3,114,76,2,2,1,225,9,2,0,1,26,0,0,0,0,-172319.20739920562,-4770375.778291549,4220587.386198521,-2.51448,-0.70333,0.607552,58.75,-49.625,-53.375,0.0,0.0,0.0,0.0,0.0,0.0,2,0,41.67320043828046,-92.0687830020952,10002.627798977608,139.8366969179134,-0.0029244212459735,0.0032999772107965,,8905.102926237949,10943.217344713625,150,3,2025-09-11,2025-09-26 20:27:23.631,HA,C,951762104,HAWK11,1,1,73,2,1,1,225,2,1,0,0,12,1,225,2,1,-142241.34802420562,-4791342.182588424,4198452.384245396,2.54411,2.72493,-0.445142,-95.375,25.375,24.75,-0.21875,-7.875,7.76562,0.154297,0.0117188,0.0117188,4,0,41.40494758053504,-91.70044961222077,10876.074350709952,-56.73728706474503,1.678628235179888,9.784691389610446,190.528,8905.102926237949,10943.217344713625,150,True,23.055471755227032,False,149.2243843700146,174.2476546774147,False,25.026992854454985,True,False
3,1970-07-23 10:17:04.446369039,2025-09-11,2025-09-26 20:27:24.636,HA,C,2548881240,JASSM,3,114,76,2,2,1,225,9,2,0,1,26,0,0,0,0,-172266.35241873687,-4770420.606416549,4220539.198698521,-2.51448,-0.70333,0.607552,58.75,-49.625,-53.375,0.0,0.0,0.0,0.0,0.0,0.0,2,0,41.672619885071,-92.06812958356096,10002.624242055528,139.83713136110538,-0.0021659656519652,0.0032985313124481,,8905.102926237949,10943.217344713625,150,3,2025-09-11,2025-09-26 20:27:24.630,HA,C,952994868,HAWK11,1,1,73,2,1,1,225,2,1,0,0,12,1,225,2,1,-142340.23474295562,-4791315.777314986,4198479.722136021,2.70575,2.70709,-0.46307,-94.375,26.5,27.375,-0.015625,-7.29688,7.625,0.126953,0.0175781,0.0351562,4,0,41.40527173233792,-91.70164044869082,10877.66818477385,-55.36373667224262,1.7850664022966602,18.63971709835419,189.819,8905.102926237949,10943.217344713625,150,False,22.958510946991233,False,150.85047473072976,174.2946804899921,False,23.45332826019367,True,False
3,1970-07-23 10:17:04.457369066,2025-09-11,2025-09-26 20:27:25.736,HA,C,2550252878,JASSM,3,114,76,2,2,1,225,9,2,0,1,26,0,0,0,0,-172198.83337576812,-4770477.868135299,4220477.644011021,-2.51448,-0.70333,0.607552,58.75,-49.625,-53.375,0.0,0.0,0.0,0.0,0.0,0.0,2,0,41.67187829186488,-92.0672948994731,10002.62066829142,139.83768631643858,-0.0011971110122214,0.0032967052440348,,8905.102926237949,10943.217344713625,150,3,2025-09-11,2025-09-26 20:27:25.836,HA,C,954386700,HAWK11,1,1,73,2,1,1,225,2,1,0,0,12,1,225,2,1,-142449.65857108062,-4791283.046846236,4198513.790495396,2.87343,2.65465,-0.491257,-92.375,29.625,30.75,-0.125,-7.51562,8.03125,0.119141,0.0253906,0.0410156,4,0,41.40567706899661,-91.70295943851433,10879.084725556846,-52.309937409179184,1.1485173044076675,26.94537462335259,189.27,8905.102926237949,10943.217344713625,150,False,22.841517592943365,False,153.67426067985488,174.34032591321534,False,20.675128000725806,True,False
3,1970-07-23 10:17:04.468365249,2025-09-11,2025-09-26 20:27:26.836,HA,C,2551505578,JASSM,3,114,76,2,2,1,225,9,2,0,1,26,0,0,0,0,-172137.16882498687,-4770530.165010299,4220421.429167271,-2.51448,-0.703234,0.607552,58.75,-49.625,-53.375,0.0,0.0,0.0,0.0,0.0,0.0,2,0,41.67120101131203,-92.06653260643613,10002.628722233638,139.83453992058355,-0.0029595858319975,0.0001583433149687,,8905.102926237949,10943.217344713625,150,3,2025-09-11,2025-09-26 20:27:26.836,HA,C,955579700,HAWK11,1,1,73,2,1,1,225,2,1,0,0,12,1,225,2,1,-142541.71521170562,-4791251.571260299,4198546.890104771,2.97046,2.61975,-0.510336,-90.0,33.0,34.625,-0.296875,-7.8125,8.23438,0.0449219,0.0292969,0.0371094,4,0,41.40607145984009,-91.7040704980718,10880.222112970436,-50.27459380467055,0.7934382971136992,31.57903942972733,189.16,8905.102926237949,10943.217344713625,150,False,22.736660554167077,False,156.85790455939423,174.37239814995297,False,17.52484731736442,True,False
3,1970-07-23 10:17:04.478369302,2025-09-11,2025-09-26 20:27:27.836,HA,C,2552758642,JASSM,3,114,76,2,2,1,225,9,2,0,1,26,0,0,0,0,-172075.48620779935,-4770582.473604049,4220365.190886021,-2.51448,-0.703234,0.607552,58.75,-49.625,-53.375,0.0,0.0,0.0,0.0,0.0,0.0,2,0,41.670523501897954,-92.06577010761056,10002.61774728118,139.83504686843554,-0.0020744731735399,0.0001566113968027,,8905.102926237949,10943.217344713625,150,3,2025-09-11,2025-09-26 20:27:27.428,HA,C,956215966,HAWK11,1,1,73,2,1,1,225,2,1,0,0,12,1,225,2,1,-142590.80700858062,-4791232.778291549,4198566.517057896,2.99749,2.60901,-0.502283,-88.75,35.25,36.875,-0.15625,-7.65625,8.0625,0.0488281,0.03125,0.0449219,4,0,41.40630705565354,-91.704663721227,10880.17956622141,-50.1745139357328,0.0922823843694256,32.83062758642343,188.964,8905.102926237949,10943.217344713625,150,False,22.655038233614835,False,158.7570305842968,174.38071879225814,False,15.632774509381356,True,False
3,1970-07-23 10:17:04.489313917,2025-09-11,2025-09-26 20:27:28.931,HA,C,2554070628,JASSM,3,114,76,2,2,1,225,9,2,0,1,26,0,0,0,0,-172010.90319998687,-4770637.243135299,4220306.311979771,-2.51448,-0.703234,0.607552,58.75,-49.625,-53.375,0.0,0.0,0.0,0.0,0.0,0.0,2,0,41.66981414707035,-92.06497177173748,10002.623066358516,139.83557763532602,-0.001147754363581,0.0001548095589244,,8905.102926237949,10943.217344713625,150,3,2025-09-11,2025-09-26 20:27:28.725,HA,C,957925930,HAWK11,1,1,73,2,1,1,225,2,1,0,0,12,1,225,2,1,-142715.99255545562,-4791177.605439986,4198623.759245396,3.10564,2.53347,-0.547248,-84.0,40.875,42.875,-0.171875,-8.34375,8.84375,0.0449219,0.046875,0.046875,4,0,41.40699950366745,-91.70617905771834,10877.853681680795,-45.65057163805955,-0.341951791304185,36.84730285134849,189.074,8905.102926237949,10943.217344713625,150,False,22.522234406700253,False,164.05715747503245,174.41262421607973,False,10.363098513925719,True,False
3,1970-07-23 10:17:04.500291129,2025-09-11,2025-09-26 20:27:30.029,HA,C,2555382972,JASSM,3,114,76,2,2,1,225,9,2,0,1,26,0,0,0,0,-171946.30261404935,-4770692.024385299,4220247.413542271,-2.51448,-0.703234,0.607648,58.75,-49.625,-53.375,0.0,0.0,0.0,0.0,0.0,0.0,2,0,41.66910458903378,-92.06417323748818,10002.61840675414,139.83933095139577,-0.0046673796674334,0.0001528660472174,,8905.102926237949,10943.217344713625,150,3,2025-09-11,2025-09-26 20:27:30.336,HA,C,959755194,HAWK11,1,1,73,2,1,1,225,2,1,0,0,12,1,225,2,1,-142840.59802420562,-4791109.097627486,4198695.876432896,-3.09203,2.43615,-0.601129,-77.0,47.375,50.25,-0.25,-8.71875,9.25,0.0195312,0.0527344,0.0625,4,0,41.407871774049454,-91.70769224602508,10874.976441120463,-40.05873231274101,-0.7306180450434415,38.66387309933043,188.769,8905.102926237949,10943.217344713625,150,False,22.381932605979173,False,170.75729239244714,174.425071123672,False,3.678943776563193,True,False
3,1970-07-23 10:17:04.511290083,2025-09-11,2025-09-26 20:27:31.129,HA,C,2556635678,JASSM,3,114,76,2,2,1,225,9,2,0,1,26,0,0,0,0,-171884.63733084625,-4770744.317354049,4220191.190886021,-2.51448,-0.703234,0.607648,58.75,-49.625,-53.375,0.0,0.0,0.0,0.0,0.0,0.0,2,0,41.66842725844712,-92.06341100279768,10002.620221818786,139.83983770285266,-0.003782518823137,0.0001511868542554,,8905.102926237949,10943.217344713625,150,3,2025-09-11,2025-09-26 20:27:30.928,HA,C,960550528,HAWK11,1,1,73,2,1,1,225,2,1,0,0,12,1,225,2,1,-142890.92028983062,-4791076.454072799,4198730.655729771,-3.0578,2.39263,-0.622604,-73.625,50.125,53.625,-0.140625,-8.89062,9.51562,0.0078125,0.0507812,0.0546875,4,0,41.40829181194466,-91.70830513628998,10873.848554661035,-37.68127213628416,-0.8969578916576164,39.158521339649205,188.732,8905.102926237949,10943.217344713625,150,False,22.291946772238962,False,173.78573834234345,174.41507075748524,False,0.6986222480429594,True,False
3,1970-07-23 10:17:04.521274045,2025-09-11,2025-09-26 20:27:32.127,HA,C,2557889256,JASSM,3,114,76,2,2,1,225,9,2,0,1,26,0,0,0,0,-171822.92956717435,-4770796.645479049,4220134.929167271,-2.51448,-0.703234,0.607648,58.75,-49.625,-53.375,0.0,0.0,0.0,0.0,0.0,0.0,2,0,41.66774945907609,-92.0626482593834,10002.624184960076,139.840344785757,-0.0028970507475998,0.0001495081701484,,8905.102926237949,10943.217344713625,150,3,2025-09-11,2025-09-26 20:27:32.224,HA,C,962101426,HAWK11,1,1,73,2,1,1,225,2,1,0,0,12,1,225,2,1,-142981.45935233062,-4791007.417939986,4198805.134245396,-2.98244,2.28899,-0.682717,-65.5,54.625,60.375,-0.21875,-9.625,10.1094,0.0234375,0.0527344,0.0566406,4,0,41.4091891854234,-91.70941153362782,10872.31397523702,-31.854076980599675,-0.53010930819344,39.79378968853038,188.683,8905.102926237949,10943.217344713625,150,False,22.16608062538826,False,179.39192807088588,174.39239303052113,False,5.7349897524824405,True,False
3,1970-07-23 10:17:04.533387281,2025-09-11,2025-09-26 20:27:33.338,HA,C,2559260380,JASSM,3,114,76,2,2,1,225,9,2,0,1,26,0,0,0,0,-171755.43518240875,-4770853.875947799,4220073.390104771,-2.51439,-0.703234,0.607648,58.75,-49.625,-53.375,0.0,0.0,0.0,0.0,0.0,0.0,2,0,41.66700811201492,-92.06181401036103,10002.619611778036,139.84089939888048,-0.0019285633015746,0.0056391549393224,,8905.102926237949,10943.217344713625,150,3,2025-09-11,2025-09-26 20:27:33.428,HA,C,963373958,HAWK11,1,1,73,2,1,1,225,2,1,0,0,12,1,225,2,1,-143047.80896170562,-4790944.178682174,4198873.763151646,-2.89395,2.19858,-0.711096,-57.75,59.125,65.625,-0.265625,-9.34375,9.84375,0.0332031,0.0605469,0.0605469,4,0,41.41001687363384,-91.71022686474711,10870.575721331295,-27.59263275139438,-1.032666422804001,41.47947637847917,188.927,8905.102926237949,10943.217344713625,150,False,22.047518419274546,False,174.25738391133672,174.35212173272578,False,11.384952954460445,True,False
3,1970-07-23 10:17:04.545246817,2025-09-11,2025-09-26 20:27:34.524,HA,C,2560513080,JASSM,3,114,76,2,2,1,225,9,2,0,1,26,0,0,0,0,-171693.77111990875,-4770906.165010299,4220017.167448521,-2.51439,-0.703234,0.607648,58.75,-49.625,-53.375,0.0,0.0,0.0,0.0,0.0,0.0,2,0,41.66633078862876,-92.0610518414546,10002.62741123513,139.84140608568947,-0.0010437276492235,0.0056374812254988,,8905.102926237949,10943.217344713625,150,3,2025-09-11,2025-09-26 20:27:34.630,HA,C,964924856,HAWK11,1,1,73,2,1,1,225,2,1,0,0,12,1,225,2,1,-143115.98669608062,-4790864.099580611,4198962.610807896,-2.85953,2.06263,-0.761526,-47.625,62.625,71.375,-0.265625,-9.875,10.375,-0.193359,0.0546875,0.0605469,4,0,41.41108089118145,-91.7110700711756,10871.438535163554,-21.14536327570016,-0.8132662447362228,38.11061053617123,189.086,8905.102926237949,10943.217344713625,150,False,21.92314886582349,False,167.68570479912376,174.28854117758726,False,18.02047301246524,True,False
3,1970-07-23 10:17:04.553386888,2025-09-11,2025-09-26 20:27:35.338,HA,C,2561646652,JASSM,3,114,76,2,2,1,225,9,2,0,1,26,0,0,0,0,-171637.96936209625,-4770953.481416549,4219966.288542271,-2.51439,-0.703138,0.607648,58.75,-49.625,-53.375,0.0,0.0,0.0,0.0,0.0,0.0,2,0,41.66571785415666,-92.06036214520692,10002.632083116589,139.8382140328158,-0.0028887018694039,0.0025007757377127,,8905.102926237949,10943.217344713625,150,3,2025-09-11,2025-09-26 20:27:35.224,HA,C,965640656,HAWK11,1,1,73,2,1,1,225,2,1,0,0,12,1,225,2,1,-143142.94763358062,-4790826.267549361,4199005.815886021,-2.90661,1.99245,-0.784248,-42.875,63.625,73.75,-0.15625,-10.0312,10.5312,-0.078125,0.0683594,0.0566406,4,0,41.41159280421672,-91.7114057262516,10874.134213685496,-17.9934429269415,-0.6033099364521808,32.56631971282325,189.086,8905.102926237949,10943.217344713625,150,False,21.84322937011104,False,164.77766675732454,174.2458916446733,False,20.96871294406334,True,False
3,1970-07-23 10:17:04.563348085,2025-09-11,2025-09-26 20:27:36.334,HA,C,2562839680,JASSM,3,114,76,2,2,1,225,9,2,0,1,26,0,0,0,0,-171579.24182303375,-4771003.274385299,4219912.737761021,-2.51439,-0.703138,0.607648,58.75,-49.625,-53.375,0.0,0.0,0.0,0.0,0.0,0.0,2,0,41.66507277547265,-92.05963630300155,10002.621662133028,139.83869655775243,-0.0020460035560454,0.0024991257731896,,8905.102926237949,10943.217344713625,150,3,2025-09-11,2025-09-26 20:27:36.431,HA,C,966913188,HAWK11,1,1,73,2,1,1,225,2,1,0,0,12,1,225,2,1,-143183.53357108062,-4790754.957002486,4199087.763151646,-2.97928,1.9333,-0.823748,-35.25,64.375,78.25,-0.171875,-9.67188,10.0469,-0.107422,0.0390625,0.0273438,4,0,41.4125629735875,-91.71191614619552,10879.573231123944,-15.061139844508862,0.8288937711344716,25.96680355726524,188.524,8905.102926237949,10943.217344713625,150,False,21.736034259098183,False,160.0808920596102,174.16483834030316,False,25.731875120136092,True,False
3,1970-07-23 10:17:04.575646389,2025-09-11,2025-09-26 20:27:37.564,HA,C,2563972914,JASSM,3,114,76,2,2,1,225,9,2,0,1,26,0,0,0,0,-171523.45764334625,-4771050.575166549,4219861.874479771,-2.51439,-0.703138,0.607648,58.75,-49.625,-53.375,0.0,0.0,0.0,0.0,0.0,0.0,2,0,41.66446002705534,-92.05894685116584,10002.63207452752,139.83915488544537,-0.0012455425776409,0.0024975618569002,,8905.102926237949,10943.217344713625,150,3,2025-09-11,2025-09-26 20:27:37.630,HA,C,968543618,HAWK11,1,1,73,2,1,1,225,2,1,0,0,12,1,225,2,1,-143225.49841483062,-4790665.401338424,4199196.700651646,-2.98474,1.85736,-0.857304,-28.0,64.0,82.375,-0.0625,-8.67188,9.17188,0.0,0.0195312,0.0332031,4,0,41.413823616859126,-91.7124495757345,10898.824374345248,-11.758611018817447,1.930479547629196,22.491029433736344,188.377,8905.102926237949,10943.217344713625,150,False,21.618530577308256,False,155.73861829898857,174.05229213562038,False,30.162621366243023,False,False
3,1970-07-23 10:17:04.582368110,2025-09-11,2025-09-26 20:27:38.236,HA,C,2565106308,JASSM,3,114,76,2,2,1,225,9,2,0,1,26,0,0,0,0,-171467.66565115875,-4771097.879854049,4219810.999479771,-2.51439,-0.703138,0.607744,58.75,-49.625,-53.375,0.0,0.0,0.0,0.0,0.0,0.0,2,0,41.66384717397789,-92.05825731702164,10002.629892232104,139.84283793551992,-0.0048941461258056,0.0024958373383834,,8905.102926237949,10943.217344713625,150,3,2025-09-11,2025-09-26 20:27:38.224,HA,C,969259418,HAWK11,1,1,73,2,1,1,225,2,1,0,0,12,1,225,2,1,-143241.17614920562,-4790626.915986861,4199245.056120396,-2.95263,1.82074,-0.868041,-25.25,63.875,83.75,-0.140625,-8.32812,8.8125,-0.00390625,0.0175781,0.0371094,4,0,41.41437617949514,-91.71265066230217,10910.271922720462,-10.290979861559606,2.230254217527223,22.790563345642745,188.17,8905.102926237949,10943.217344713625,150,False,21.541328119793018,False,154.13238282364324,173.99218643047845,False,31.821843360214004,False,False
3,1970-07-23 10:17:04.595646487,2025-09-11,2025-09-26 20:27:39.564,HA,C,2566239702,JASSM,3,114,76,2,2,1,225,9,2,0,1,26,0,0,0,0,-171411.87341483062,-4771145.180635299,4219760.124479771,-2.51439,-0.703138,0.607744,58.75,-49.625,-53.375,0.0,0.0,0.0,0.0,0.0,0.0,2,0,41.6632343401041,-92.05756779470916,10002.622204973715,139.84329629911855,-0.0040935794477145,0.0024943239036489,,8905.102926237949,10943.217344713625,150,3,2025-09-11,2025-09-26 20:27:39.426,HA,C,970531950,HAWK11,1,1,73,2,1,1,225,2,1,0,0,12,1,225,2,1,-143262.56091483062,-4790555.387666549,4199333.483854771,-2.89501,1.75075,-0.883094,-19.125,64.5,84.875,-0.234375,-7.8125,8.26562,-0.0195312,0.0195312,0.0410156,4,0,41.41539478918276,-91.71293175544103,10927.847244410985,-7.606455757927122,2.611773536529471,23.12552250383327,187.974,8905.102926237949,10943.217344713625,150,False,21.44216665569111,False,150.8520458504489,173.88456183440425,False,35.220506500512634,False,False
3,1970-07-23 10:17:04.600383459,2025-09-11,2025-09-26 20:27:40.038,HA,C,2567313936,JASSM,3,114,76,2,2,1,225,9,2,0,1,26,0,0,0,0,-171358.99353201812,-4771190.016572799,4219711.905729771,-2.51439,-0.703138,0.607744,58.75,-49.625,-53.375,0.0,0.0,0.0,0.0,0.0,0.0,2,0,41.662653470695616,-92.05691427568247,10002.630370405765,139.84373072423827,-0.0033347848839219,0.0024928765842436,,8905.102926237949,10943.217344713625,150,3,2025-09-11,2025-09-26 20:27:40.036,HA,C,971207982,HAWK11,1,1,73,2,1,1,225,2,1,0,0,12,1,225,2,1,-143272.77966483062,-4790517.498994674,4199381.206511021,-2.88887,1.71336,-0.882998,-16.75,64.75,85.375,0.109375,-7.32812,7.82812,-0.015625,0.0175781,0.0351562,4,0,41.41594049944146,-91.71306740468894,10938.99312996666,-6.260023863440599,2.412943149782978,21.88073900923063,187.986,8905.102926237949,10943.217344713625,150,False,21.369918116433546,False,149.5729132136502,173.81941865724045,False,36.56783529874614,False,False
3,1970-07-23 10:17:04.610407560,2025-09-11,2025-09-26 20:27:41.040,HA,C,2568446814,JASSM,3,114,76,2,2,1,225,9,2,0,1,26,0,0,0,0,-171303.226686315,-4771237.293916549,4219661.050261021,-2.51439,-0.703138,0.607744,58.75,-49.625,-53.375,0.0,0.0,0.0,0.0,0.0,0.0,2,0,41.66204089461591,-92.05622509344352,10002.618057874826,139.8441888510049,-0.0025345728909145,0.0024913549880532,,8905.102926237949,10943.217344713625,150,3,2025-09-11,2025-09-26 20:27:40.969,HA,C,972082848,HAWK11,1,1,73,2,1,1,225,2,1,0,0,12,1,225,2,1,-143282.94763358062,-4790468.736299361,4199441.726042271,-2.85666,1.67885,-0.887216,-13.5,65.125,85.625,-0.25,-7.17188,7.51562,0.00195312,0.00390625,0.0195312,4,0,41.41663728759806,-91.71320633577528,10951.16906009502,-4.987203641232942,2.5084054760969083,22.25047773885885,188.341,8905.102926237949,10943.217344713625,150,False,21.28885517504599,False,147.8719391930398,173.73578029663108,False,38.35901276371165,False,False
3,1970-07-23 10:17:04.619406241,2025-09-11,2025-09-26 20:27:41.940,HA,C,2569580230,JASSM,3,114,76,2,2,1,225,9,2,0,1,26,0,0,0,0,-171247.43322928375,-4771284.598604049,4219610.175261021,-2.51439,-0.703138,0.607744,58.75,-49.625,-53.375,0.0,0.0,0.0,0.0,0.0,0.0,2,0,41.661428025267455,-92.05553559334729,10002.631869847375,139.8446471835339,-0.0017339804489264,0.002489835911254,,8905.102926237949,10943.217344713625,150,3,2025-09-11,2025-09-26 20:27:41.836,HA,C,973554214,HAWK11,1,1,73,2,1,1,225,2,1,0,0,12,1,225,2,1,-143295.89880545562,-4790385.649385299,4199545.581511021,-2.78849,1.60589,-0.88108,-8.375,66.375,85.625,-0.15625,-6.84375,7.20312,-0.0195312,0.00976562,0.0351562,4,0,41.41783029061326,-91.71339079782432,10973.198695508694,-2.36997218172741,1.957766251517102,23.02465381095593,188.182,8905.102926237949,10943.217344713625,150,False,21.18578790047833,False,145.23353932756447,173.5970563342525,False,41.15055398049173,False,False
3,1970-07-23 10:17:04.629364537,2025-09-11,2025-09-26 20:27:42.936,HA,C,2570713830,JASSM,3,114,76,2,2,1,225,9,2,0,1,26,0,0,0,0,-171191.63073904935,-4771331.907197799,4219559.288542271,-2.51439,-0.703138,0.607744,58.75,-49.625,-53.375,0.0,0.0,0.0,0.0,0.0,0.0,2,0,41.66081505151504,-92.05484599631214,10002.632984290372,139.84510557496884,-0.0009332583350098,0.0024883150128596,,8905.102926237949,10943.217344713625,150,3,2025-09-11,2025-09-26 20:27:42.724,HA,C,974508612,HAWK11,1,1,73,2,1,1,225,2,1,0,0,12,1,225,2,1,-143300.91443045562,-4790330.557588424,4199613.134245396,-2.73375,1.55057,-0.876382,-5.0,67.125,85.5,-0.125,-6.71875,7.10938,0.0117188,0.0136719,0.046875,4,0,41.41861312014326,-91.71347042797156,10984.704911261944,-0.3549319092849506,1.6329142302446278,23.783837670186816,188.304,8905.102926237949,10943.217344713625,150,False,21.103187543558164,False,143.49939803796758,173.49671595627152,False,42.99176211536146,False,False
3,1970-07-23 10:17:04.638386042,2025-09-11,2025-09-26 20:27:43.838,HA,C,2571847020,JASSM,3,114,76,2,2,1,225,9,2,0,1,26,0,0,0,0,-171135.84851248687,-4771379.196260299,4219508.417448521,-2.51439,-0.703138,0.607744,58.75,-49.625,-53.375,0.0,0.0,0.0,0.0,0.0,0.0,2,0,41.66020229102735,-92.0541566637756,10002.626197634389,139.84556378505542,-0.0001328234735709,0.0024867907597435,,8905.102926237949,10943.217344713625,150,3,2025-09-11,2025-09-26 20:27:43.926,HA,C,976019744,HAWK11,1,1,73,2,1,1,225,2,1,0,0,12,1,225,2,1,-143303.92419608062,-4790243.311494674,4199718.515104771,-2.85445,1.48336,-0.861522,-0.375,68.5,85.0,0.0625,-6.39062,6.78125,-0.265625,-0.00390625,0.0429688,4,0,41.41984293329487,-91.7135375847187,10999.10118986198,2.146318875329196,0.8277136970896165,13.98058043192681,188.463,8905.102926237949,10943.217344713625,150,False,21.00265092947673,False,141.14602241282782,173.3414866754871,False,45.50837514096904,False,False
3,1970-07-23 10:17:04.647385628,2025-09-11,2025-09-26 20:27:44.738,HA,C,2572920762,JASSM,3,114,76,2,2,1,225,9,2,0,1,26,0,0,0,0,-171082.99353201812,-4771424.004854049,4219460.218229771,-2.51439,-0.703043,0.607744,58.75,-49.625,-53.375,0.0,0.0,0.0,0.0,0.0,0.0,2,0,41.65962169136189,-92.05350351646598,10002.63131637042,139.84234550184644,-0.0020217576841861,-0.0006522762763845,,8905.102926237949,10943.217344713625,150,3,2025-09-11,2025-09-26 20:27:44.835,HA,C,977093444,HAWK11,1,1,73,2,1,1,225,2,1,0,0,12,1,225,2,1,-143303.41247733062,-4790180.046846236,4199794.054167271,-2.97727,1.44578,-0.856153,1.125,69.25,84.875,0.15625,-6.5,6.89062,-0.0664062,0.00585938,0.00390625,4,0,41.42072927558679,-91.71355408694066,11007.447581976943,3.568459241519569,0.6019539569493043,5.331302031521126,188.854,8905.102926237949,10943.217344713625,150,True,20.920536646945948,False,140.39236291051313,173.22247100598008,False,46.383135431363534,False,False
3,1970-07-23 10:17:04.659365180,2025-09-11,2025-09-26 20:27:45.936,HA,C,2574292766,JASSM,3,114,76,2,2,1,225,9,2,0,1,26,0,0,0,0,-171015.45446951812,-4771481.258760299,4219398.624479771,-2.51439,-0.703043,0.60784,58.75,-49.625,-53.375,0.0,0.0,0.0,0.0,0.0,0.0,2,0,41.6588797786703,-92.05266893137588,10002.626504277245,139.84612316342998,-0.0054988701854487,-0.000654364789998,,8905.102926237949,10943.217344713625,150,3,2025-09-11,2025-09-26 20:27:46.130,HA,C,978485276,HAWK11,1,1,73,2,1,1,225,2,1,0,0,12,1,225,2,1,-143300.39294608062,-4790097.654268111,4199892.091276646,-3.03671,1.46677,-0.852414,2.5,70.25,84.75,0.046875,-6.32812,6.59375,0.0,-0.0078125,0.00195312,4,0,41.42188171793439,-91.71354745832168,11017.411646748127,2.7935292230839357,0.3392353986138799,2.8264450627817688,188.94,8905.102926237949,10943.217344713625,150,True,20.815835006899697,False,139.71443277737694,173.0643088258239,False,47.2207739380301,False,False
3,1970-07-23 10:17:04.670304286,2025-09-11,2025-09-26 20:27:47.030,HA,C,2575605116,JASSM,3,114,76,2,2,1,225,9,2,0,1,26,0,0,0,0,-170950.8526628775,-4771536.020479049,4219339.710417271,-2.51439,-0.703043,0.60784,58.75,-49.625,-53.375,0.0,0.0,0.0,0.0,0.0,0.0,2,0,41.65817014580468,-92.05187066105304,10002.624201239889,139.8466537656514,-0.0045719005679164,-0.0006561217659577,,8905.102926237949,10943.217344713625,150,3,2025-09-11,2025-09-26 20:27:47.334,HA,C,980036174,HAWK11,1,1,73,2,1,1,225,2,1,0,0,12,1,225,2,1,-143295.92614920562,-4790005.305635299,4200000.155729771,-2.94361,1.43581,-0.843594,3.875,71.75,84.25,-0.1875,-6.15625,6.59375,0.046875,-0.00390625,0.015625,4,0,41.42316133323327,-91.71352709292783,11024.561421895443,3.998440775433463,-0.0849371024548613,6.832328291244952,188.744,8905.102926237949,10943.217344713625,150,True,20.70905329115395,False,139.05706079568915,172.88890196200435,False,48.05379951195721,False,False
3,1970-07-23 10:17:04.680343604,2025-09-11,2025-09-26 20:27:48.034,HA,C,2576858628,JASSM,3,114,76,2,2,1,225,9,2,0,1,26,0,0,0,0,-170889.14709647125,-4771588.329072799,4219283.433073521,-2.51429,-0.703043,0.60784,58.75,-49.625,-53.375,0.0,0.0,0.0,0.0,0.0,0.0,2,0,41.65749227990028,-92.05110819445618,10002.6220492644,139.8471605625756,-0.0036864562777566,0.0048336453764953,,8905.102926237949,10943.217344713625,150,3,2025-09-11,2025-09-26 20:27:47.926,HA,C,980791740,HAWK11,1,1,73,2,1,1,225,2,1,0,0,12,1,225,2,1,-143293.05700858062,-4789959.346650924,4200053.093229771,-2.91917,1.42948,-0.847045,4.875,72.25,84.0,0.09375,-6.20312,6.67188,0.0292969,0.0,0.00390625,4,0,41.42379258494952,-91.71350923523016,11026.24664930787,4.222188584355764,0.1322840921657894,7.961949585656044,188.353,8905.102926237949,10943.217344713625,150,True,20.631271488375553,False,138.55742908964575,172.7920185852051,False,48.64968107871292,False,False
3,1970-07-23 10:17:04.694043987,2025-09-11,2025-09-26 20:27:49.404,HA,C,2578230104,JASSM,3,114,76,2,2,1,225,9,2,0,1,26,0,0,0,0,-170821.63488944,-4771645.555635299,4219221.862761021,-2.51429,-0.703043,0.60784,58.75,-49.625,-53.375,0.0,0.0,0.0,0.0,0.0,0.0,2,0,41.65675066483534,-92.05027399814288,10002.620897372948,139.84771502911445,-0.0027177251542481,0.0048318082272745,,8905.102926237949,10943.217344713625,150,3,2025-09-11,2025-09-26 20:27:49.428,HA,C,982581238,HAWK11,1,1,73,2,1,1,225,2,1,0,0,12,1,225,2,1,-143284.41638358062,-4789849.870088424,4200177.511198521,-2.94879,1.3942,-0.839567,6.875,73.375,83.875,0.0,-6.32812,6.70312,-0.0292969,0.00195312,0.0234375,4,0,41.425285230311175,-91.71344510974832,11026.487628545934,5.601540739985492,-0.1629412055624269,4.754460661452084,188.39,8905.102926237949,10943.217344713625,150,True,20.51510333283327,False,137.56663182662416,172.58293029705018,False,49.84761711963958,False,False
3,1970-07-23 10:17:04.703364443,2025-09-11,2025-09-26 20:27:50.336,HA,C,2579601822,JASSM,3,114,76,2,2,1,225,9,2,0,1,26,0,0,0,0,-170754.1104753775,-4771702.793916549,4219160.280729771,-2.51429,-0.703043,0.60784,58.75,-49.625,-53.375,0.0,0.0,0.0,0.0,0.0,0.0,2,0,41.65600889738691,-92.04943966955268,10002.627809103602,139.84826957547392,-0.0017488091852512,0.0048299632191831,,8905.102926237949,10943.217344713625,150,3,2025-09-11,2025-09-26 20:27:50.630,HA,C,984012836,HAWK11,1,1,73,2,1,1,225,2,1,0,0,12,1,225,2,1,-143275.73083670562,-4789761.582002486,4200277.315886021,-2.97094,1.38595,-0.846182,7.875,73.875,84.375,0.015625,-6.82812,7.1875,-0.0273438,0.00195312,-0.00390625,4,0,41.42648569281744,-91.71337286948112,11025.408977036535,5.871195684649919,0.2502804587158674,3.1331163160360243,188.659,8905.102926237949,10943.217344713625,150,True,20.41129392417986,False,137.08120413904018,172.40703883084265,False,50.50879793358529,False,False
3,1970-07-23 10:17:04.715687989,2025-09-11,2025-09-26 20:27:51.568,HA,C,2580914172,JASSM,3,114,76,2,2,1,225,9,2,0,1,26,0,0,0,0,-170689.50842459625,-4771757.551729049,4219101.358854771,-2.51429,-0.703043,0.60784,58.75,-49.625,-53.375,0.0,0.0,0.0,0.0,0.0,0.0,2,0,41.65529921261346,-92.04864146887653,10002.62103255528,139.84880010140532,-0.0008218162380805,0.004828188044923,,8905.102926237949,10943.217344713625,150,3,2025-09-11,2025-09-26 20:27:51.630,HA,C,985245602,HAWK11,1,1,73,2,1,1,225,2,1,0,0,12,1,225,2,1,-143267.36364920562,-4789685.162080611,4200363.770964146,-2.9833,1.37857,-0.85203,8.625,74.125,84.625,-0.078125,-6.875,7.1875,0.0,0.00390625,0.0078125,4,0,41.4275253835955,-91.71330018867287,11024.565034174386,6.109032886071025,0.6171410974993242,2.1088419890567294,188.94,8905.102926237949,10943.217344713625,150,True,20.31666864227655,False,136.71444099255075,172.25036016359599,False,51.03217035981158,False,False
3,1970-07-23 10:17:04.725404448,2025-09-11,2025-09-26 20:27:52.540,HA,C,2582227124,JASSM,3,114,76,2,2,1,225,9,2,0,1,26,0,0,0,0,-170624.87683279935,-4771812.336885299,4219042.413542271,-2.51429,-0.703043,0.60784,58.75,-49.625,-53.375,0.0,0.0,0.0,0.0,0.0,0.0,2,0,41.65458920748408,-92.0478429197494,10002.633023168812,139.8493308515149,0.0001055937010911,0.0048264189105415,,8905.102926237949,10943.217344713625,150,3,2025-09-11,2025-09-26 20:27:52.536,HA,C,986200000,HAWK11,1,1,73,2,1,1,225,2,1,0,0,12,1,225,2,1,-143260.45739920562,-4789625.889619674,4200431.067839146,-3.00833,1.36745,-0.858454,9.0,74.25,85.0,-0.015625,-7.04688,7.40625,-0.125,0.0,0.00195312,4,0,41.42833348381819,-91.71323883643316,11024.407741064748,6.47772793264406,1.0354693498261105,0.1995563474935103,189.331,8905.102926237949,10943.217344713625,150,True,20.231116876262554,False,136.536769582526,172.12227700415244,False,51.338318976036476,False,False
3,1970-07-23 10:17:04.736264182,2025-09-11,2025-09-26 20:27:53.626,HA,C,2583538876,JASSM,3,114,76,2,2,1,225,9,2,0,1,26,0,0,0,0,-170560.30432303375,-4771867.067354049,4218983.515104771,-2.51429,-0.702947,0.607936,58.75,-49.625,-53.375,0.0,0.0,0.0,0.0,0.0,0.0,2,0,41.65387982617444,-92.04704512009492,10002.62390823993,139.84943648196742,-0.0060624002226167,0.0016882845879786,,8905.102926237949,10943.217344713625,150,3,2025-09-11,2025-09-26 20:27:53.538,HA,C,987472532,HAWK11,1,1,73,2,1,1,225,2,1,0,0,12,1,225,2,1,-143250.91247733062,-4789545.713838424,4200522.479948521,-3.1043,1.36802,-0.858838,8.75,74.375,85.625,0.0,-6.875,7.09375,-0.138672,0.00195312,-0.00585938,4,0,41.42942918599736,-91.7131534177831,11025.015933188324,6.453587731128798,1.055571366629252,-5.27453681475326,189.722,8905.102926237949,10943.217344713625,150,True,20.134972636524797,False,136.67848575458785,171.9546669934243,False,51.364997159805185,False,False
3,1970-07-23 10:17:04.747281573,2025-09-11,2025-09-26 20:27:54.728,HA,C,2584791576,JASSM,3,114,76,2,2,1,225,9,2,0,1,26,0,0,0,0,-170498.63855154935,-4771919.332979049,4218927.272917271,-2.51429,-0.702947,0.607936,58.75,-49.625,-53.375,0.0,0.0,0.0,0.0,0.0,0.0,2,0,41.65320241249164,-92.04628325030824,10002.628255026242,139.8499428396235,-0.0051775645707022,0.0016866023885382,,8905.102926237949,10943.217344713625,150,3,2025-09-11,2025-09-26 20:27:54.724,HA,C,988864364,HAWK11,1,1,73,2,1,1,225,2,1,0,0,12,1,225,2,1,-143241.45935233062,-4789459.054658736,4200621.671354771,3.06604,1.39228,-0.865645,7.375,74.75,86.25,0.078125,-7.04688,7.28125,-0.00585938,0.00585938,-0.0136719,4,0,41.43061595082239,-91.71307141100566,11026.586198401235,5.508801684739133,1.3353879003965743,-10.704348215406982,189.954,8905.102926237949,10943.217344713625,150,False,20.037720046599077,False,137.38990155610418,171.7751521262451,False,50.83349670279242,False,False
3,1970-07-23 10:17:04.758304515,2025-09-11,2025-09-26 20:27:55.830,HA,C,2586103926,JASSM,3,114,76,2,2,1,225,9,2,0,1,26,0,0,0,0,-170434.03650076812,-4771974.086885299,4218868.347136021,-2.51429,-0.702947,0.607936,58.75,-49.625,-53.375,0.0,0.0,0.0,0.0,0.0,0.0,2,0,41.65249270253618,-92.04548512060096,10002.625047243197,139.8504732892822,-0.0042505697596942,0.0016848173793527,,8905.102926237949,10943.217344713625,150,3,2025-09-11,2025-09-26 20:27:55.833,HA,C,990176662,HAWK11,1,1,73,2,1,1,225,2,1,0,0,12,1,225,2,1,-143234.19763358062,-4789376.684541549,4200716.196745396,3.07285,1.42871,-0.868808,5.75,75.25,86.625,-0.234375,-6.875,7.03125,0.0644531,0.00390625,-0.0078125,4,0,41.431745312929145,-91.71301406070248,11028.742040108256,4.146829838966648,1.385222312438964,-8.754815939819178,190.626,8905.102926237949,10943.217344713625,150,True,19.93963071518877,False,138.22025256936587,171.60229518457044,False,50.175910047006525,False,False
3,1970-07-23 10:17:04.768364251,2025-09-11,2025-09-26 20:27:56.836,HA,C,2587357298,JASSM,3,114,76,2,2,1,225,9,2,0,1,26,0,0,0,0,-170372.33752615875,-4772026.375947799,4218812.069792271,-2.51429,-0.702947,0.607936,58.75,-49.625,-53.375,0.0,0.0,0.0,0.0,0.0,0.0,2,0,41.6518149089473,-92.04472287532133,10002.617468944669,139.850979882657,-0.0033652548808854,0.001683130063918,,8905.102926237949,10943.217344713625,150,3,2025-09-11,2025-09-26 20:27:56.427,HA,C,990812928,HAWK11,1,1,73,2,1,1,225,2,1,0,0,12,1,225,2,1,-143231.45349295562,-4789336.685518111,4200762.024870396,3.0811,1.44357,-0.877437,5.0,75.375,86.625,-0.0625,-7.04688,7.32812,0.0195312,0.0136719,-0.0136719,4,0,41.43229309705721,-91.71299555936972,11029.689762350414,3.5625323185019218,1.835726156709782,-7.646297221212978,190.968,8905.102926237949,10943.217344713625,150,True,19.86600540875871,False,138.59726137106566,171.50740576187397,False,49.89367494895767,False,False
3,1970-07-23 10:17:04.780885628,2025-09-11,2025-09-26 20:27:58.088,HA,C,2588728628,JASSM,3,114,76,2,2,1,225,9,2,0,1,26,0,0,0,0,-170304.83191092435,-4772083.590791549,4218750.495573521,-2.51429,-0.702947,0.607936,58.75,-49.625,-53.375,0.0,0.0,0.0,0.0,0.0,0.0,2,0,41.65107328918911,-92.04388890956636,10002.625447870803,139.85153413419792,-0.002396595704347,0.0016812647742629,,8905.102926237949,10943.217344713625,150,3,2025-09-11,2025-09-26 20:27:58.224,HA,C,993119394,HAWK11,1,1,73,2,1,1,225,2,1,0,0,12,1,225,2,1,-143223.53747733062,-4789191.103486861,4200931.095182896,3.10085,1.45824,-0.89038,3.25,73.0,90.0,-0.40625,-6.875,7.14062,0.0175781,0.015625,-0.00976562,4,0,41.43430179606369,-91.71295298094624,11038.241372275144,2.980392183579122,2.541675726038437,-5.886986288390273,191.897,8905.102926237949,10943.217344713625,150,True,19.730418132667218,False,139.36437261432567,171.21708659116982,False,49.41444923271902,False,False
3,1970-07-23 10:17:04.792042974,2025-09-11,2025-09-26 20:27:59.204,HA,C,2590040980,JASSM,3,114,76,2,2,1,225,9,2,0,1,26,0,0,0,0,-170240.22937186187,-4772138.340791549,4218691.569792271,-2.51429,-0.702947,0.607936,58.75,-49.625,-53.375,0.0,0.0,0.0,0.0,0.0,0.0,2,0,41.650363585798,-92.04309082823728,10002.62905609507,139.85206452945695,-0.0014696164601301,0.0016794971783526,,8905.102926237949,10943.217344713625,150,3,2025-09-11,2025-09-26 20:27:59.130,HA,C,994113558,HAWK11,1,1,73,2,1,1,225,2,1,0,0,12,1,225,2,1,-143221.36755545562,-4789127.794893111,4201003.038542271,3.03153,1.46955,-0.884532,2.125,75.875,87.5,-0.125,-6.73438,6.96875,-0.0429688,0.0078125,-0.0117188,4,0,41.4351644262566,-91.71294967424043,11038.6324329562,2.590830202683628,2.184390432408182,-9.371903021272136,192.826,8905.102926237949,10943.217344713625,150,True,19.64161557383412,False,140.03429387661149,171.07854588526405,False,48.886131753114576,False,False
3,1970-07-23 10:17:04.801424661,2025-09-11,2025-09-26 20:28:00.142,HA,C,2591293706,JASSM,3,114,76,2,2,1,225,9,2,0,1,26,0,0,0,0,-170178.56213553375,-4772190.598604049,4218635.319792271,-2.51429,-0.702947,0.607936,58.75,-49.625,-53.375,0.0,0.0,0.0,0.0,0.0,0.0,2,0,41.649686139967336,-92.04232902708844,10002.622998718463,139.8525708064268,-0.0005847691913274,0.0016778193856724,,8905.102926237949,10943.217344713625,150,3,2025-09-11,2025-09-26 20:28:00.130,HA,C,995346324,HAWK11,1,1,73,2,1,1,225,2,1,0,0,12,1,225,2,1,-143219.85583670562,-4789050.301729049,4201092.456511021,3.00651,1.48691,-0.893064,0.625,75.875,87.75,-0.15625,-7.01562,7.17188,0.00390625,0.00976562,-0.00976562,4,0,41.43622927286712,-91.71295930560656,11042.144520245824,1.9412428512957296,2.6443426983404583,-10.061067328960275,193.852,8905.102926237949,10943.217344713625,150,False,19.547030295745778,False,140.7725709855933,170.91420861052424,False,48.3125544849083,False,False
3,1970-07-23 10:17:04.812288220,2025-09-11,2025-09-26 20:28:01.228,HA,C,2592546666,JASSM,3,114,76,2,2,1,225,9,2,0,1,26,0,0,0,0,-170116.88318045562,-4772242.872041549,4218579.054167271,-2.51429,-0.702947,0.607936,58.75,-49.625,-53.375,0.0,0.0,0.0,0.0,0.0,0.0,2,0,41.649008493045365,-92.0415670947052,10002.625120807905,139.8530771638539,0.0003002988903246,0.0016760992918758,,8905.102926237949,10943.217344713625,150,3,2025-09-11,2025-09-26 20:28:00.926,HA,C,996300724,HAWK11,1,1,73,2,1,1,225,2,1,0,0,12,1,225,2,1,-143219.59802420562,-4788989.620088424,4201162.378386021,2.92511,1.51318,-0.890092,-0.5,76.125,87.75,-0.015625,-6.76562,6.875,-0.136719,0.0078125,-0.0175781,4,0,41.43706228594804,-91.71297791597966,11044.755935805984,1.0004859012755885,2.445995516322516,-13.595388798832715,194.769,8905.102926237949,10943.217344713625,150,False,19.46137656192491,False,141.3314075886256,170.7799843411447,False,47.88774497489914,False,False
3,1970-07-23 10:17:04.823284910,2025-09-11,2025-09-26 20:28:02.328,HA,C,2593918378,JASSM,3,114,76,2,2,1,225,9,2,0,1,26,0,0,0,0,-170049.35876639312,-4772300.094697799,4218517.460417271,-2.51429,-0.702947,0.608032,58.75,-49.625,-53.375,0.0,0.0,0.0,0.0,0.0,0.0,2,0,41.64826667600243,-92.04073297259256,10002.63064305901,139.85685464761818,-0.0031768652647204,0.0016741986647801,,8905.102926237949,10943.217344713625,150,3,2025-09-11,2025-09-26 20:28:02.334,HA,C,997970922,HAWK11,1,1,73,2,1,1,225,2,1,0,0,12,1,225,2,1,-143222.76989920562,-4788882.639619674,4201284.929167271,2.89913,1.54376,-0.882806,-3.625,76.875,88.0,-0.09375,-6.5625,6.73438,0.0175781,0.0,-0.0371094,4,0,41.438525366619785,-91.7130540754244,11048.073785365465,-0.1041917630490665,2.0196918335846834,-13.769194497820465,196.174,8905.102926237949,10943.217344713625,150,False,19.344305498522026,False,142.8685767899756,170.56241374845547,False,46.56768339473235,False,False
3,1970-07-23 10:17:04.834331131,2025-09-11,2025-09-26 20:28:03.433,HA,C,2595230730,JASSM,3,114,76,2,2,1,225,9,2,0,1,26,0,0,0,0,-169984.75598319,-4772354.836885299,4218458.526823521,-2.51429,-0.702851,0.608032,58.75,-49.625,-53.375,0.0,0.0,0.0,0.0,0.0,0.0,2,0,41.64755694456372,-92.0399349609503,10002.61971118939,139.85373355412528,-0.0048971117835092,-0.0014662638329511,,8905.102926237949,10943.217344713625,150,3,2025-09-11,2025-09-26 20:28:03.630,HA,C,999362754,HAWK11,1,1,73,2,1,1,225,2,1,0,0,12,1,225,2,1,-143228.08435233062,-4788792.522432174,4201386.874479771,2.89558,1.57981,-0.885107,-5.75,77.375,87.625,-0.125,-6.95312,7.20312,0.046875,0.00976562,0.0,4,0,41.43974866321616,-91.71314982132054,11048.277144447193,-1.412542120218801,2.1732424252196028,-12.423082748926053,197.555,8905.102926237949,10943.217344713625,150,False,19.23864385332391,False,143.91825279269543,170.37777460477628,False,45.70133762708423,False,False
3,1970-07-23 10:17:04.845357467,2025-09-11,2025-09-26 20:28:04.535,HA,C,2596543082,JASSM,3,114,76,2,2,1,225,9,2,0,1,26,0,0,0,0,-169920.1534441275,-4772409.582979049,4218399.597136021,-2.51419,-0.702851,0.608032,58.75,-49.625,-53.375,0.0,0.0,0.0,0.0,0.0,0.0,2,0,41.64684721036725,-92.03913696808326,10002.632363928074,139.8542638540762,-0.0039701305572542,0.0040370911160286,,8905.102926237949,10943.217344713625,150,3,2025-09-11,2025-09-26 20:28:04.631,HA,C,1000714818,HAWK11,1,1,73,2,1,1,225,2,1,0,0,12,1,225,2,1,-143236.29724295562,-4788704.686494674,4201485.880339146,2.87535,1.60387,-0.887791,-8.0,77.625,87.75,0.140625,-6.75,7.0,0.00585938,0.00390625,-0.0175781,4,0,41.440938032126574,-91.713279403296,11047.928502265804,-2.2784001184238742,2.361423794593517,-12.547985644958258,198.679,8905.102926237949,10943.217344713625,150,False,19.133340744779364,False,145.0096938466331,170.19869052421004,False,44.788948351337744,False,False
3,1970-07-23 10:17:04.857260642,2025-09-11,2025-09-26 20:28:05.726,HA,C,2597796242,JASSM,3,114,76,2,2,1,225,9,2,0,1,26,0,0,0,0,-169858.46472342435,-4772461.856416549,4218343.319792271,-2.51419,-0.702851,0.608032,58.75,-49.625,-53.375,0.0,0.0,0.0,0.0,0.0,0.0,2,0,41.646169465224986,-92.03837498550716,10002.628999186005,139.85477021674814,-0.0030849469869816,0.0040353816988261,,8905.102926237949,10943.217344713625,150,3,2025-09-11,2025-09-26 20:28:05.724,HA,C,1002066884,HAWK11,1,1,73,2,1,1,225,2,1,0,0,12,1,225,2,1,-143246.85778983062,-4788616.069307174,4201585.640104771,2.85273,1.63695,-0.886737,-10.25,77.875,87.875,0.109375,-7.10938,7.21875,0.0175781,0.0117188,-0.015625,4,0,41.44213671965906,-91.71343733396728,11047.478098181997,-3.4778184144238944,2.373641858573207,-12.424407522841728,199.645,8905.102926237949,10943.217344713625,150,False,19.02935921084988,False,146.0935006748171,170.0201280659679,False,43.883666705353555,False,False
3,1970-07-23 10:17:04.867382755,2025-09-11,2025-09-26 20:28:06.738,HA,C,2599167784,JASSM,3,114,76,2,2,1,225,9,2,0,1,26,0,0,0,0,-169790.94812186187,-4772519.063447799,4218281.726042271,-2.51419,-0.702851,0.608032,58.75,-49.625,-53.375,0.0,0.0,0.0,0.0,0.0,0.0,2,0,41.64542771637581,-92.03754103697013,10002.619815015973,139.8553243954352,-0.002116162097624,0.004033529169668,,8905.102926237949,10943.217344713625,150,3,2025-09-11,2025-09-26 20:28:06.536,HA,C,1003021282,HAWK11,1,1,73,2,1,1,225,2,1,0,0,12,1,225,2,1,-143255.71130545562,-4788553.928682174,4201655.923307896,2.87343,1.65727,-0.889997,-11.75,77.625,88.125,0.109375,-7.1875,7.26562,0.177734,0.0078125,-0.00195312,4,0,41.44297923185755,-91.71356539478076,11047.988955998817,-4.195847596312563,2.6190860896312627,-10.365360670418838,200.415,8905.102926237949,10943.217344713625,150,False,18.935367752563497,False,146.81143517275643,169.88379164426146,False,43.30323093858447,False,False
3,1970-07-23 10:17:04.878423398,2025-09-11,2025-09-26 20:28:07.842,HA,C,2600480136,JASSM,3,114,76,2,2,1,225,9,2,0,1,26,0,0,0,0,-169726.34533865875,-4772573.805635299,4218222.788542271,-2.51419,-0.702851,0.608032,58.75,-49.625,-53.375,0.0,0.0,0.0,0.0,0.0,0.0,2,0,41.64471793615775,-92.03674309538827,10002.622271501565,139.85585463906023,-0.001189157645379,0.0040317334828048,,8905.102926237949,10943.217344713625,150,3,2025-09-11,2025-09-26 20:28:07.724,HA,C,1004413114,HAWK11,1,1,73,2,1,1,225,2,1,0,0,12,1,225,2,1,-143270.18786795562,-4788463.834932174,4201758.272917271,3.01427,1.67731,-0.889997,-12.625,77.5,88.5,-0.078125,-6.98438,7.15625,0.046875,-0.00585938,0.00976562,4,0,41.44420348273575,-91.7137706784951,11049.836574708535,-4.916119062045449,2.6886799471114267,-1.4370597401258969,200.231,8905.102926237949,10943.217344713625,150,True,18.82664038368676,False,147.21642355015186,169.7007606076437,False,43.082071087619454,False,False
3,1970-07-23 10:17:04.889282676,2025-09-11,2025-09-26 20:28:08.928,HA,C,2601732834,JASSM,3,114,76,2,2,1,225,9,2,0,1,26,0,0,0,0,-169664.67907889312,-4772626.055635299,4218166.530729771,-2.51419,-0.702851,0.608032,58.75,-49.625,-53.5,0.0,0.0,0.0,0.0,0.0,0.0,2,0,41.64404044154226,-92.03598144228089,10002.621705228086,139.85636076155583,-0.0003043121381873,0.0040300363339909,,8905.102926237949,10943.217344713625,150,3,2025-09-11,2025-09-26 20:28:08.724,HA,C,1005327748,HAWK11,1,1,73,2,1,1,225,2,1,0,0,12,1,225,2,1,-143280.21521170562,-4788404.215791549,4201826.060026646,3.0393,1.65459,-0.890476,-12.875,77.5,88.875,-0.25,-7.0,7.0625,-0.0292969,-0.00390625,0.0175781,4,0,41.44501393442527,-91.71391187860024,11051.22279196364,-4.097184912337376,2.640160024916902,-0.9770799484619288,199.755,8905.102926237949,10943.217344713625,150,True,18.738618230567536,False,147.35463227443663,169.53110407117745,False,43.113282395937816,False,False
3,1970-07-23 10:17:04.900302409,2025-09-11,2025-09-26 20:28:10.030,HA,C,2603045186,JASSM,3,114,76,2,2,1,225,9,2,0,1,26,0,0,0,0,-169600.0761736197,-4772680.793916549,4218107.593229771,-2.51419,-0.702851,0.608128,58.75,-49.625,-53.5,0.0,0.0,0.0,0.0,0.0,0.0,2,0,41.64333067369777,-92.03518353513162,10002.625283654916,139.86011637588788,-0.0038259800436776,0.0040281653725766,,8905.102926237949,10943.217344713625,150,3,2025-09-11,2025-09-26 20:28:10.130,HA,C,1007276312,HAWK11,1,1,73,2,1,1,225,2,1,0,0,12,1,225,2,1,-143301.88903983062,-4788276.178682174,4201971.876432896,2.85857,1.6636,-0.88108,-13.875,77.875,89.125,-0.03125,-6.96875,7.125,-0.0390625,-0.00585938,-0.0078125,4,0,41.44675602605796,-91.71421679443344,11054.7410583068,-4.470748817970371,2.1346037629856704,-10.94728147026422,198.716,8905.102926237949,10943.217344713625,150,False,18.60706464420986,False,147.81196777757404,169.27933184673248,False,42.90759338745561,False,False
3,1970-07-23 10:17:04.911331129,2025-09-11,2025-09-26 20:28:11.133,HA,C,2604357536,JASSM,3,114,76,2,2,1,225,9,2,0,1,26,0,0,0,0,-169535.47339041656,-4772735.530244674,4218048.655729771,-2.51419,-0.702851,0.608128,58.75,-49.625,-53.5,0.0,0.0,0.0,0.0,0.0,0.0,2,0,41.64262091187359,-92.0343856477904,10002.62956325645,139.86064656169572,-0.0028990031259982,0.0040264429223004,,8905.102926237949,10943.217344713625,150,3,2025-09-11,2025-09-26 20:28:11.332,HA,C,1008668144,HAWK11,1,1,73,2,1,1,225,2,1,0,0,12,1,225,2,1,-143318.96911795562,-4788185.407197799,4202075.337370396,2.83125,1.6961,-0.87389,-15.625,78.125,89.375,0.109375,-6.75,6.90625,-0.0175781,0.0,0.0,4,0,41.44799134197014,-91.71445347066664,11057.557698359144,-5.698070723274079,1.849768713699268,-11.123095104900589,198.08,8905.102926237949,10943.217344713625,150,False,18.49743371269688,False,148.62380323382723,169.09091085850991,False,42.28430842317289,False,False
3,1970-07-23 10:17:04.921344331,2025-09-11,2025-09-26 20:28:12.134,HA,C,2605610236,JASSM,3,114,76,2,2,1,225,9,2,0,1,26,0,0,0,0,-169473.8068865103,-4772787.776338424,4217992.394011021,-2.51419,-0.702755,0.608128,58.75,-49.625,-53.5,0.0,0.0,0.0,0.0,0.0,0.0,2,0,41.64194339851681,-92.03362404280826,10002.626332627278,139.85750387667852,-0.004659763808852,0.0008875548144279,,8905.102926237949,10943.217344713625,150,3,2025-09-11,2025-09-26 20:28:12.426,HA,C,1009980442,HAWK11,1,1,73,2,1,1,225,2,1,0,0,12,1,225,2,1,-143337.05505545562,-4788098.450166549,4202174.017057896,2.88091,1.70521,-0.867754,-17.25,78.875,89.125,-0.265625,-6.85938,6.95312,0.0800781,0.0,0.0,4,0,41.449171514022936,-91.71470081624643,11059.450522267263,-6.074112659195931,1.5420237600787556,-7.889556870449799,197.518,8905.102926237949,10943.217344713625,150,True,18.392189855058543,False,149.38559211506382,168.9107155845125,False,41.70088794742994,False,False
3,1970-07-23 10:17:04.933703853,2025-09-11,2025-09-26 20:28:13.370,HA,C,2606863118,JASSM,3,114,76,2,2,1,225,9,2,0,1,26,0,0,0,0,-169412.13134940094,-4772840.030244674,4217936.120573521,-2.51419,-0.702755,0.608128,58.75,-49.625,-53.5,0.0,0.0,0.0,0.0,0.0,0.0,2,0,41.64126575644997,-92.0328623421533,10002.620901992896,139.8580100033092,-0.0037747668262641,0.0008858339743745,,8905.102926237949,10943.217344713625,150,3,2025-09-11,2025-09-26 20:28:13.426,HA,C,1011173440,HAWK11,1,1,73,2,1,1,225,2,1,0,0,12,1,225,2,1,-143354.78943045562,-4788020.053682174,4202262.321745396,2.90824,1.71998,-0.867466,-18.25,78.875,89.375,-0.1875,-6.98438,6.95312,-0.00585938,0.0,0.00195312,4,0,41.45023079305298,-91.7149409032051,11059.835664686503,-6.619106475973898,1.596842910289532,-5.693589191829973,197.188,8905.102926237949,10943.217344713625,150,True,18.291920025065107,False,149.83980675143673,168.74548856361193,False,41.41260845651212,False,False
3,1970-07-23 10:17:04.943422540,2025-09-11,2025-09-26 20:28:14.342,HA,C,2608175634,JASSM,3,114,76,2,2,1,225,9,2,0,1,26,0,0,0,0,-169347.52014334625,-4772894.770479049,4217877.171354771,-2.51419,-0.702755,0.608128,58.75,-49.625,-53.5,0.0,0.0,0.0,0.0,0.0,0.0,2,0,41.64055587788922,-92.03206440311016,10002.62440563281,139.85854020198312,-0.0028476635053652,0.000884046331812,,8905.102926237949,10943.217344713625,150,3,2025-09-11,2025-09-26 20:28:14.536,HA,C,1012565272,HAWK11,1,1,73,2,1,1,225,2,1,0,0,12,1,225,2,1,-143376.81286795562,-4787927.268525924,4202366.868620396,2.84515,1.71566,-0.869,-19.375,79.125,89.5,0.015625,-6.95312,7.10938,-0.125,-0.0078125,-0.00976562,4,0,41.45148453986465,-91.71523742936829,11060.4531024694,-6.449299064474182,1.664152061050556,-9.491822748631748,197.188,8905.102926237949,10943.217344713625,150,True,18.180072683713934,False,150.3492375488094,168.5532043216606,False,41.0952982898987,False,False
3,1970-07-23 10:17:04.954424978,2025-09-11,2025-09-26 20:28:15.442,HA,C,2609487636,JASSM,3,114,76,2,2,1,225,9,2,0,1,26,0,0,0,0,-169282.93518240875,-4772949.485322799,4217818.245573521,-2.51419,-0.702755,0.608128,58.75,-49.625,-53.5,0.0,0.0,0.0,0.0,0.0,0.0,2,0,41.639846297498416,-92.03126680703572,10002.624544167047,139.85907016535518,-0.0019209491096661,0.0008822685699854,,8905.102926237949,10943.217344713625,150,3,2025-09-11,2025-09-26 20:28:15.724,HA,C,1013957104,HAWK11,1,1,73,2,1,1,225,2,1,0,0,12,1,225,2,1,-143400.68786795562,-4787835.223604049,4202470.683073521,2.6861,1.74605,-0.858838,-21.875,79.5,89.5,-0.28125,-6.84375,6.84375,-0.0332031,0.00585938,-0.0292969,4,0,41.452728607291846,-91.71555583955204,11061.44581655825,-7.65184862090457,1.249176708518814,-17.311309761455263,197.103,8905.102926237949,10943.217344713625,150,False,18.068047930622942,False,151.49651271869257,168.361927346576,False,40.13867214024052,False,False
3,1970-07-23 10:17:04.965284615,2025-09-11,2025-09-26 20:28:16.528,HA,C,2610799988,JASSM,3,114,76,2,2,1,225,9,2,0,1,26,0,0,0,0,-169218.3311785025,-4773004.217744674,4217759.300261021,-2.51419,-0.702755,0.608128,58.75,-49.625,-53.5,0.0,0.0,0.0,0.0,0.0,0.0,2,0,41.63913647911907,-92.03046899268108,10002.628997985184,139.85960026635004,-0.0009939433678588,0.000880475682758,,8905.102926237949,10943.217344713625,150,3,2025-09-11,2025-09-26 20:28:16.426,HA,C,1014752438,HAWK11,1,1,73,2,1,1,225,2,1,0,0,12,1,225,2,1,-143415.51403983062,-4787782.340791549,4202530.130339146,2.66606,1.77827,-0.85203,-23.5,79.5,89.375,-0.171875,-6.9375,7.04688,0.0136719,0.0136719,-0.0390625,4,0,41.453441833932985,-91.71575204413308,11061.673427103378,-8.910452631356451,1.0644251623334573,-17.091435934073605,197.225,8905.102926237949,10943.217344713625,150,False,17.980235171640096,False,152.25665682622738,168.23694711831484,False,39.503444075729355,False,False
3,1970-07-23 10:17:04.975302649,2025-09-11,2025-09-26 20:28:17.530,HA,C,2612053080,JASSM,3,114,76,2,2,1,225,9,2,0,1,26,0,0,0,0,-169156.64502127594,-4773056.475557174,4217703.015104771,-2.51419,-0.702755,0.608128,58.75,-49.625,-53.5,0.0,0.0,0.0,0.0,0.0,0.0,2,0,41.638458715906665,-92.02970722914776,10002.627346354211,139.8601064067611,-0.0001088074325965,0.0008787640052696,,8905.102926237949,10943.217344713625,150,3,2025-09-11,2025-09-26 20:28:17.630,HA,C,1016223802,HAWK11,1,1,73,2,1,1,225,2,1,0,0,12,1,225,2,1,-143446.81482108062,-4787683.522432174,4202640.720182896,2.62867,1.81892,-0.851935,-26.875,79.5,89.25,-0.0625,-7.54688,7.53125,-0.0625,0.0,-0.00976562,4,0,41.454770608239045,-91.71616168711962,11061.297372015566,-10.417485540854935,1.3534466887434986,-17.512535016904383,197.482,8905.102926237949,10943.217344713625,150,False,17.864629858987094,False,153.8145263786522,168.0385576857096,False,38.14418738221375,False,False
