Subject_cm,Timestamp,SampleDate_cm,SampleTime_cm,Configuration_cm,Scenario_cm,DisTime_cm,MarkingTxt_cm,Application_cm,EntId_cm,Site_cm,ExerciseId_cm,ForceId_cm,Category_cm,Country_cm,Domain_cm,Kind_cm,Extra_cm,Specific_cm,Subcategory_cm,AltCategory_cm,AltCountry_cm,AltDomain_cm,AltKind_cm,ECEF_X_cm,ECEF_Y_cm,ECEF_Z_cm,OriPhi_cm,OriPsi_cm,OriTheta_cm,LinVelX_cm,LinVelY_cm,LinVelZ_cm,LinAccX_cm,LinAccY_cm,LinAccZ_cm,AngVelX_cm,AngVelY_cm,AngVelZ_cm,DrAlg_cm,Appearance_cm,Latitude_cm,Longitude_cm,Altitude_cm,Heading_cm,Pitch_cm,Roll_cm,CalibratedAirspeed_cm,CM_Altitude_Lead_cm,CM_Altitude_Wing_cm,CM_Airspeed_cm,Subject_ac,SampleDate_ac,SampleTime_ac,Configuration_ac,Scenario_ac,DisTime_ac,MarkingTxt_ac,Application_ac,EntId_ac,Site_ac,ExerciseId_ac,ForceId_ac,Category_ac,Country_ac,Domain_ac,Kind_ac,Extra_ac,Specific_ac,Subcategory_ac,AltCategory_ac,AltCountry_ac,AltDomain_ac,AltKind_ac,ECEF_X_ac,ECEF_Y_ac,ECEF_Z_ac,OriPhi_ac,OriPsi_ac,OriTheta_ac,LinVelX_ac,LinVelY_ac,LinVelZ_ac,LinAccX_ac,LinAccY_ac,LinAccZ_ac,AngVelX_ac,AngVelY_ac,AngVelZ_ac,DrAlg_ac,Appearance_ac,Latitude_ac,Longitude_ac,Altitude_ac,Heading_ac,Pitch_ac,Roll_ac,CalibratedAirspeed_ac,CM_Altitude_Lead_ac,CM_Altitude_Wing_ac,CM_Airspeed_ac,Bank_Angle_Condition,distance_nm,Distance_Condition,angle_between_vel,angle_between_pos,Cone_Condition,angle_between_pos_nose,Nose_Cone_Condition,Intercept_Criteria
3,1970-07-23 09:47:03.690384169,2025-09-09,2025-09-26 18:26:09.038,AA,C,3580508468,JASSM,3,137,76,2,2,1,225,9,2,0,1,26,0,0,0,0,-118985.70183717164,-4814894.161207494,4171919.776823521,2.50557,2.45389,-0.614551,-55.875,46.0,51.125,0.0,0.0,0.0,0.0,0.0,0.0,2,0,41.08946478849581,-91.41560563214782,10000.000559565018,-40.0866676976019,-0.0026480378449568,0.000986323097491,,8857.920509312844,10895.330121764337,150,3,2025-09-09,2025-09-26 18:26:09.134,AA,C,1537402070,AMBUSH51,1,1,48,2,1,1,225,2,1,0,0,9,1,225,2,1,-145518.33562160653,-4792576.076681626,4196010.31172238,2.26425,2.81012,-0.31694,-101.422,39.4764,39.1224,-0.135756,-7.58497,6.18803,0.0814106,0.00113705,-0.0102147,4,0,41.38053514078366,-91.73915354402207,8856.01106505147,-65.15585262179695,-0.3110982922184748,-4.494444950936055,186.459,8857.920509312844,10895.330121764337,150,True,22.78311632313976,False,22.277914105837947,179.3339817707126,False,157.60728360183654,False,False
3,1970-07-23 09:47:03.701402327,2025-09-09,2025-09-26 18:26:10.140,AA,C,3581820228,JASSM,3,137,76,2,2,1,225,9,2,0,1,26,0,0,0,0,-119047.25652467164,-4814843.587965307,4171976.008757115,2.50557,2.45379,-0.614551,-55.875,46.0,51.125,0.0,0.0,0.0,0.0,0.0,0.0,2,0,41.09013629090731,-91.41635253757804,10000.000299708288,-40.08354917754766,-0.0044368811433846,-0.0021819449440557,,8857.920509312844,10895.330121764337,150,3,2025-09-09,2025-09-26 18:26:10.234,AA,C,1538714368,AMBUSH51,1,1,48,2,1,1,225,2,1,0,0,9,1,225,2,1,-145630.9429827177,-4792532.630894052,4196053.321726565,2.35505,2.81538,-0.318196,-101.337,38.991,38.8229,-0.215655,-7.75135,6.49953,0.113843,0.00667767,0.00673384,4,0,41.38106362272176,-91.74051430504052,8850.80684507814,-65.30448028776942,-0.0546641736141936,0.8024239203656582,185.701,8857.920509312844,10895.330121764337,150,True,22.794284631712998,False,22.490855990855408,179.3415756176289,False,157.45819873497766,False,False
3,1970-07-23 09:47:03.714724939,2025-09-09,2025-09-26 18:26:11.472,AA,C,3583132578,JASSM,3,137,76,2,2,1,225,9,2,0,1,26,0,0,0,0,-119108.84246217164,-4814792.990309057,4172032.265593053,2.50557,2.45379,-0.614551,-55.875,46.0,51.125,0.0,0.0,0.0,0.0,0.0,0.0,2,0,41.09080809711848,-91.4170998370459,10000.000192166195,-40.08404033995137,-0.0035602188913138,-0.0021836048246387,,8857.920509312844,10895.330121764337,150,3,2025-09-09,2025-09-26 18:26:11.468,AA,C,1540185734,AMBUSH51,1,1,48,2,1,1,225,2,1,0,0,9,1,225,2,1,-145754.4663033454,-4792484.652503315,4196101.378374446,2.43218,2.81048,-0.324465,-100.668,39.3507,39.2969,-0.33195,-7.5212,6.26717,0.0392619,0.00853356,0.00995045,4,0,41.3816511504482,-91.7420071185785,8846.220704018373,-64.8623326382833,0.0059231254677946,5.132485414603492,185.09,8857.920509312844,10895.330121764337,150,True,22.812014259553894,False,22.071834805033255,179.34285930532926,False,157.94924976924935,False,False
3,1970-07-23 09:47:03.723448710,2025-09-09,2025-09-26 18:26:12.344,AA,C,3584385722,JASSM,3,137,76,2,2,1,225,9,2,0,1,26,0,0,0,0,-119167.64714967164,-4814744.674879369,4172085.9828782086,2.50557,2.45379,-0.614551,-55.875,46.0,51.125,0.0,0.0,0.0,0.0,0.0,0.0,2,0,41.09144958314851,-91.4178134031462,10000.000000505624,-40.08450933729336,-0.0027231288372586,-0.0021852043769315,,8857.920509312844,10895.330121764337,150,3,2025-09-09,2025-09-26 18:26:12.268,AA,C,1541140132,AMBUSH51,1,1,48,2,1,1,225,2,1,0,0,9,1,225,2,1,-145834.74934940197,-4792453.017443487,4196133.034609554,2.46674,2.8028,-0.332554,-100.048,39.8371,39.7487,-0.142441,-7.65513,6.24838,0.0315408,0.0156034,0.00443063,4,0,41.3820385376661,-91.74297754042108,8843.04927465212,-64.24028451437138,0.0321467573011051,6.9708282301777125,184.736,8857.920509312844,10895.330121764337,150,True,22.80774745568152,False,21.63641496082903,179.33896598167524,False,158.43259172344122,False,False
3,1970-07-23 09:47:03.733923446,2025-09-09,2025-09-26 18:26:13.392,AA,C,3585638824,JASSM,3,137,76,2,2,1,225,9,2,0,1,26,0,0,0,0,-119226.45183717164,-4814696.360426244,4172139.696745396,2.50557,2.45379,-0.614455,-55.875,46.0,51.125,0.0,0.0,0.0,0.0,0.0,0.0,2,0,41.09209103572842,-91.41852698284023,9999.999317465436,-40.08824013645744,-0.0063038674610281,-0.0021865522992571,,8857.920509312844,10895.330121764337,150,3,2025-09-09,2025-09-26 18:26:13.335,AA,C,1542412664,AMBUSH51,1,1,48,2,1,1,225,2,1,0,0,9,1,225,2,1,-145942.1528029802,-4792409.832606305,4196176.463935148,2.48143,2.79723,-0.341827,-99.2113,40.2798,40.877,-0.180383,-7.73592,6.46452,-0.00687949,0.000533673,0.018535,4,0,41.38256919718719,-91.7442761127967,8839.030428177906,-63.65079748236084,0.1899354648771473,7.707724872200807,184.198,8857.920509312844,10895.330121764337,150,True,22.819640030621123,False,20.925084402514297,179.32957076250003,False,159.1989538658572,False,False
3,1970-07-23 09:47:03.743361435,2025-09-09,2025-09-26 18:26:14.336,AA,C,3586831542,JASSM,3,137,76,2,2,1,225,9,2,0,1,26,0,0,0,0,-119282.42449342164,-4814650.372144994,4172190.823698521,2.50557,2.45379,-0.614455,-55.875,46.0,51.125,0.0,0.0,0.0,0.0,0.0,0.0,2,0,41.09270159526917,-91.41920620965269,10000.001086064784,-40.08868657526028,-0.0055071103724681,-0.0021881046530386,,8857.920509312844,10895.330121764337,150,3,2025-09-09,2025-09-26 18:26:14.334,AA,C,1543605662,AMBUSH51,1,1,48,2,1,1,225,2,1,0,0,9,1,225,2,1,-146040.94410465757,-4792369.215728411,4196217.819087868,2.40712,2.78758,-0.353111,-98.4393,40.6543,41.7017,-0.134159,-7.76452,6.59889,-0.0779755,-0.00287434,0.0160279,4,0,41.38307212415288,-91.74547090386343,8836.19338135926,-62.826258151703016,0.2743060467255434,3.2652701945900837,183.88,8857.920509312844,10895.330121764337,150,True,22.829678555132265,False,20.350305969688836,179.31693019972792,False,159.82440724382099,False,False
3,1970-07-23 09:47:03.753927439,2025-09-09,2025-09-26 18:26:15.392,AA,C,3588024740,JASSM,3,137,76,2,2,1,225,9,2,0,1,26,0,0,0,0,-119338.41668092164,-4814604.364820776,4172241.9692063336,2.50557,2.45379,-0.614455,-55.875,46.0,51.125,0.0,0.0,0.0,0.0,0.0,0.0,2,0,41.09331238635029,-91.41988568694272,10000.001038264223,-40.08913318417412,-0.004710057657392,-0.0021896715444277,,8857.920509312844,10895.330121764337,150,3,2025-09-09,2025-09-26 18:26:15.334,AA,C,1544798662,AMBUSH51,1,1,48,2,1,1,225,2,1,0,0,9,1,225,2,1,-146138.96867275587,-4792328.592344239,4196259.835316457,2.34577,2.79102,-0.357494,-97.8979,40.4957,42.1583,-0.098555,-7.72852,6.41741,-0.0558796,0.00121195,-0.00207747,4,0,41.38357968071597,-91.74665655769206,8834.723381503783,-62.77806900852324,0.5832486315339994,-0.1809196145372917,183.599,8857.920509312844,10895.330121764337,150,True,22.83966428363961,False,20.10071568659345,179.30122220788243,False,160.12026277675707,False,False
3,1970-07-23 09:47:03.764301127,2025-09-09,2025-09-26 18:26:16.430,AA,C,3589158456,JASSM,3,137,76,2,2,1,225,9,2,0,1,26,0,0,0,0,-119391.61980592164,-4814560.649977026,4172290.563932896,2.50566,2.45379,-0.614455,-55.875,46.0,51.125,0.0,0.0,0.0,0.0,0.0,0.0,2,0,41.09389272324352,-91.42053132978846,9999.99990164732,-40.08955755936005,-0.0039527274563422,0.003300328282445,,8857.920509312844,10895.330121764337,150,3,2025-09-09,2025-09-26 18:26:16.534,AA,C,1546230260,AMBUSH51,1,1,48,2,1,1,225,2,1,0,0,9,1,225,2,1,-146256.17490398776,-4792280.307255251,4196310.321153145,2.31125,2.79498,-0.354628,-97.5802,40.1318,41.9847,-0.111556,-7.48819,6.35306,0.0156658,0.00671928,-0.00374611,4,0,41.384186504012256,-91.7480741424612,8834.21949129392,-63.045416365643135,0.6209753546125977,-2.0823227555145025,182.695,8857.920509312844,10895.330121764337,150,True,22.863387985351554,False,20.176617002826784,179.27863082820292,False,160.1049772340382,False,False
3,1970-07-23 09:47:03.774029378,2025-09-09,2025-09-26 18:26:17.402,AA,C,3590351068,JASSM,3,137,76,2,2,1,225,9,2,0,1,26,0,0,0,0,-119447.58464967164,-4814514.663648901,4172341.68258524,2.50566,2.45379,-0.614455,-55.875,46.0,51.125,0.0,0.0,0.0,0.0,0.0,0.0,2,0,41.09450320406945,-91.42121050022152,10000.00005534305,-40.090003977264125,-0.0031560670264091,0.0032987650543809,,8857.920509312844,10895.330121764337,150,3,2025-09-09,2025-09-26 18:26:17.567,AA,C,1547463026,AMBUSH51,1,1,48,2,1,1,225,2,1,0,0,9,1,225,2,1,-146356.9412933248,-4792238.918972165,4196353.515112802,2.34545,2.79869,-0.352914,-97.4141,40.0925,41.7124,-0.382333,-7.61709,6.62174,0.0350549,-0.00364,-0.00991299,4,0,41.384706037848304,-91.74929286663402,8833.642734418763,-63.25600629037111,0.6955445684454072,-0.0517876206929716,182.328,8857.920509312844,10895.330121764337,150,True,22.874956852845084,False,20.236489298552733,179.25507871447803,False,160.1022698297669,False,False
3,1970-07-23 09:47:03.785121323,2025-09-09,2025-09-26 18:26:18.512,AA,C,3591544442,JASSM,3,137,76,2,2,1,225,9,2,0,1,26,0,0,0,0,-119503.58464967164,-4814468.647047338,4172392.833464146,2.50566,2.45379,-0.614455,-55.875,46.0,51.125,0.0,0.0,0.0,0.0,0.0,0.0,2,0,41.09511407328941,-91.42189011029478,10000.001079742917,-40.09045068962355,-0.0023588991695662,0.0032971953263663,,8857.920509312844,10895.330121764337,150,3,2025-09-09,2025-09-26 18:26:18.467,AA,C,1548536724,AMBUSH51,1,1,48,2,1,1,225,2,1,0,0,9,1,225,2,1,-146444.744482209,-4792203.012359683,4196390.991571708,2.38415,2.80129,-0.354944,-97.3963,40.0115,41.9129,-0.253348,-7.41194,6.82722,0.0580163,0.00303039,0.00270997,4,0,41.385156704424695,-91.75035476520527,8833.18407188065,-63.27129404288328,0.8776028474654823,2.2170397195480365,182.206,8857.920509312844,10895.330121764337,150,True,22.878769334196893,False,20.186427568160525,179.23172068388976,False,160.19679272821128,False,False
3,1970-07-23 09:47:03.793380973,2025-09-09,2025-09-26 18:26:19.338,AA,C,3592796252,JASSM,3,137,76,2,2,1,225,9,2,0,1,26,0,0,0,0,-119562.33074342164,-4814420.375562963,4172446.487761021,2.50566,2.4537,-0.614455,-55.875,46.0,51.125,0.0,0.0,0.0,0.0,0.0,0.0,2,0,41.09575485064669,-91.42260305971612,10000.000047459806,-40.08730951307962,-0.0041877388310733,0.0001294884449137,,8857.920509312844,10895.330121764337,150,3,2025-09-09,2025-09-26 18:26:19.368,AA,C,1549610424,AMBUSH51,1,1,48,2,1,1,225,2,1,0,0,9,1,225,2,1,-146532.4795372959,-4792166.772154487,4196429.042844158,2.42939,2.79368,-0.358979,-97.3267,40.3327,42.5028,-0.154697,-7.27981,6.8023,0.0362076,-0.000824956,0.0202078,4,0,41.38561323913368,-91.75141598647488,8833.151655315203,-62.820838770056525,0.7488720551246297,4.662893303954441,182.414,8857.920509312844,10895.330121764337,150,True,22.880497609647403,False,19.88231390952624,179.20659716752428,False,160.54550325107058,False,False
3,1970-07-23 09:47:03.805124771,2025-09-09,2025-09-26 18:26:20.512,AA,C,3593929648,JASSM,3,137,76,2,2,1,225,9,2,0,1,26,0,0,0,0,-119615.51433717164,-4814376.669996557,4172495.065886021,2.50566,2.4537,-0.614455,-55.875,46.0,51.125,0.0,0.0,0.0,0.0,0.0,0.0,2,0,41.09633500746526,-91.42324851535116,10000.0002216978,-40.08773378596355,-0.0034306488530545,0.00012803446723,,8857.920509312844,10895.330121764337,150,3,2025-09-09,2025-09-26 18:26:20.434,AA,C,1550882956,AMBUSH51,1,1,48,2,1,1,225,2,1,0,0,9,1,225,2,1,-146636.3842733947,-4792123.403176042,4196474.621206728,2.44589,2.78443,-0.363753,-97.1744,40.8604,43.3195,-0.127418,-7.03959,6.6976,-0.00150531,0.0084649,0.0142906,4,0,41.38616004755714,-91.75267297572069,8833.129209713223,-62.27849363008049,0.5889700836785866,5.427492995174269,182.903,8857.920509312844,10895.330121764337,150,True,22.896870106382924,False,19.426680247329266,179.17518635036623,False,161.05359314638173,False,False
3,1970-07-23 09:47:03.815103142,2025-09-09,2025-09-26 18:26:21.510,AA,C,3595123300,JASSM,3,137,76,2,2,1,225,9,2,0,1,26,0,0,0,0,-119671.52996217164,-4814330.639723119,4172546.226042271,2.50566,2.4537,-0.614359,-55.875,46.0,51.125,0.0,0.0,0.0,0.0,0.0,0.0,2,0,41.09694600595482,-91.42392835306504,10000.000564527185,-40.09144423444124,-0.0070540154748719,0.0001268092920936,,8857.920509312844,10895.330121764337,150,3,2025-09-09,2025-09-26 18:26:21.434,AA,C,1552075954,AMBUSH51,1,1,48,2,1,1,225,2,1,0,0,9,1,225,2,1,-146733.42960000338,-4792081.88350931,4196518.074020667,2.43036,2.77545,-0.368223,-96.9625,41.6322,43.9257,-0.0514675,-6.90104,6.54009,-0.0207154,0.000292324,0.00507769,4,0,41.38668273960111,-91.7538473729609,8832.537021088341,-61.759147687323946,0.4297038258983114,4.357853528081671,183.599,8857.920509312844,10895.330121764337,150,True,22.90731240132864,False,18.96130789055147,179.14408368357752,False,161.5724825188653,False,False
3,1970-07-23 09:47:03.823920450,2025-09-09,2025-09-26 18:26:22.392,AA,C,3596315742,JASSM,3,137,76,2,2,1,225,9,2,0,1,26,0,0,0,0,-119727.48699342164,-4814284.655348119,4172597.333464146,2.50566,2.4537,-0.614359,-55.875,46.0,51.125,0.0,0.0,0.0,0.0,0.0,0.0,2,0,41.0975563798575,-91.42460749289658,10000.001073103267,-40.091890659420834,-0.006257467067364,0.000125252849165,,8857.920509312844,10895.330121764337,150,3,2025-09-09,2025-09-26 18:26:22.467,AA,C,1553308720,AMBUSH51,1,1,48,2,1,1,225,2,1,0,0,9,1,225,2,1,-146833.43702083605,-4792038.095400879,4196563.638221736,2.41058,2.77015,-0.373199,-96.8113,42.4683,44.3923,-0.227129,-7.07914,6.81261,-0.0459614,0.00777414,-0.00188606,4,0,41.38723262886288,-91.75505800226696,8831.173559014429,-61.358237705175085,0.431884060472585,3.117459806138568,184.039,8857.920509312844,10895.330121764337,150,True,22.92012692238817,False,18.544326629541956,179.1107597131303,False,162.04607305402982,False,False
3,1970-07-23 09:47:03.832401673,2025-09-09,2025-09-26 18:26:23.240,AA,C,3597449552,JASSM,3,137,76,2,2,1,225,9,2,0,1,26,0,0,0,0,-119780.69402467164,-4814240.930738744,4172645.927214146,2.50566,2.4537,-0.614359,-55.875,46.0,51.125,0.0,0.0,0.0,0.0,0.0,0.0,2,0,41.09813674041901,-91.42525326820206,10000.000661653008,-40.0923151576798,-0.0055000747907412,0.000123781206509,,8857.920509312844,10895.330121764337,150,3,2025-09-09,2025-09-26 18:26:23.434,AA,C,1554461952,AMBUSH51,1,1,48,2,1,1,225,2,1,0,0,9,1,225,2,1,-146927.03123089098,-4791996.677989589,4196606.680055174,2.37793,2.7672,-0.373949,-96.8497,42.7289,44.9113,0.015237,-7.06163,6.65595,-0.0188637,0.00234379,0.00121611,4,0,41.387752542601554,-91.7561911759169,8829.694776062634,-61.21712221199725,0.3519039441835123,1.1862308234253631,184.528,8857.920509312844,10895.330121764337,150,True,22.9316647347963,False,18.31542050843152,179.07843903765456,False,162.3190875264298,False,False
3,1970-07-23 09:47:03.842422699,2025-09-09,2025-09-26 18:26:24.242,AA,C,3598642182,JASSM,3,137,76,2,2,1,225,9,2,0,1,26,0,0,0,0,-119836.65886842164,-4814194.937086401,4172697.040983677,2.50566,2.4537,-0.614359,-55.875,46.0,51.125,0.0,0.0,0.0,0.0,0.0,0.0,2,0,41.09874720315791,-91.42593252823195,10000.000298504414,-40.09276167235053,-0.0047034060869578,0.0001222176381311,,8857.920509312844,10895.330121764337,150,3,2025-09-09,2025-09-26 18:26:24.035,AA,C,1555177750,AMBUSH51,1,1,48,2,1,1,225,2,1,0,0,9,1,225,2,1,-146984.5147499036,-4791971.084826237,4196633.215023978,2.37194,2.76496,-0.374374,-96.9271,43.0636,44.9434,-0.0813281,-7.09506,6.72755,-0.00877491,0.00136175,0.00492997,4,0,41.38807345422448,-91.7568872124176,8828.623199448677,-61.11593251692256,0.2855240362655217,0.7963986989519859,184.882,8857.920509312844,10895.330121764337,150,True,22.91890718939792,False,18.237868247265123,179.05726990429682,False,162.4300559961528,False,False
3,1970-07-23 09:47:03.852461247,2025-09-09,2025-09-26 18:26:25.246,AA,C,3599836104,JASSM,3,137,76,2,2,1,225,9,2,0,1,26,0,0,0,0,-119892.68621217164,-4814148.892652807,4172748.2094407086,2.50566,2.4537,-0.614359,-55.875,46.0,51.125,0.0,0.0,0.0,0.0,0.0,0.0,2,0,41.09935832387601,-91.42661255926733,10000.000262311776,-40.09320869933086,-0.0039058629189902,0.0001206649305858,,8857.920509312844,10895.330121764337,150,3,2025-09-09,2025-09-26 18:26:25.368,AA,C,1556768416,AMBUSH51,1,1,48,2,1,1,225,2,1,0,0,9,1,225,2,1,-147114.51294977454,-4791913.038966346,4196693.342557277,2.36129,2.76791,-0.376176,-97.1277,43.2543,45.2703,-0.173375,-7.17808,6.91958,-0.0075536,0.00566858,0.00402075,4,0,41.38880097485808,-91.75846137638769,8826.055424562717,-61.1552361099053,0.4709641267796021,0.248250963418989,185.408,8857.920509312844,10895.330121764337,150,True,22.950516470038668,False,18.13502181609277,179.01040403757477,False,162.5954841614624,False,False
3,1970-07-23 09:47:03.862358538,2025-09-09,2025-09-26 18:26:26.235,AA,C,3601028596,JASSM,3,137,76,2,2,1,225,9,2,0,1,26,0,0,0,0,-119948.64714967164,-4814102.902418432,4172799.315886021,2.50566,2.4537,-0.614359,-55.875,46.0,51.125,0.0,0.0,0.0,0.0,0.0,0.0,2,0,41.09996870915648,-91.42729179699276,10000.000403094877,-40.09365521029697,-0.0031092704510244,0.0001191186834383,,8857.920509312844,10895.330121764337,150,3,2025-09-09,2025-09-26 18:26:26.367,AA,C,1557961414,AMBUSH51,1,1,48,2,1,1,225,2,1,0,0,9,1,225,2,1,-147211.88007654282,-4791869.61176504,4196738.438933175,2.36478,2.76469,-0.377022,-97.3163,43.3225,45.4542,-0.0625044,-7.23369,6.66782,0.00515051,-0.000772941,0.00518588,4,0,41.38934599261614,-91.75964041218904,8824.393004535048,-61.00033945389063,0.3851514919728148,0.3812474731518767,185.848,8857.920509312844,10895.330121764337,150,True,22.962239527412518,False,18.107930004699735,178.97373941118875,False,162.66934954705087,False,False
3,1970-07-23 09:47:03.872381101,2025-09-09,2025-09-26 18:26:27.238,AA,C,3602221322,JASSM,3,137,76,2,2,1,225,9,2,0,1,26,0,0,0,0,-120004.61589967164,-4814056.902418432,4172850.431120396,2.50566,2.4537,-0.614359,-55.875,46.0,51.125,0.0,0.0,0.0,0.0,0.0,0.0,2,0,41.10057920658538,-91.42797114311522,9999.999888765244,-40.09410179799489,-0.0023125426588342,0.0001175528475247,,8857.920509312844,10895.330121764337,150,3,2025-09-09,2025-09-26 18:26:27.434,AA,C,1559233946,AMBUSH51,1,1,48,2,1,1,225,2,1,0,0,9,1,225,2,1,-147315.7558050101,-4791823.112641895,4196786.772049012,2.37575,2.76378,-0.377937,-97.4028,43.3721,45.7874,-0.165743,-7.08186,6.79781,0.00558536,0.00476144,0.00190062,4,0,41.389929935006506,-91.76089834578045,8822.693368416112,-60.93007827616289,0.3894800595628951,0.9912401964962012,186.178,8857.920509312844,10895.330121764337,150,True,22.978072047965554,False,18.01039897696044,178.93399725666328,False,162.81436289956665,False,False
3,1970-07-23 09:47:03.882400909,2025-09-09,2025-09-26 18:26:28.240,AA,C,3603414368,JASSM,3,137,76,2,2,1,225,9,2,0,1,26,0,0,0,0,-120060.60418092164,-4814010.889234838,4172901.559538365,2.50566,2.4536,-0.614359,-55.875,46.0,51.125,0.0,0.0,0.0,0.0,0.0,0.0,2,0,41.101189864452905,-91.42865073804394,10000.000474261,-40.090938353617226,-0.0041806198464664,-0.0030496395396875,,8857.920509312844,10895.330121764337,150,3,2025-09-09,2025-09-26 18:26:28.368,AA,C,1560347412,AMBUSH51,1,1,48,2,1,1,225,2,1,0,0,9,1,225,2,1,-147406.76653345267,-4791782.266163875,4196829.211667045,2.37509,2.76051,-0.381009,-97.4861,43.6566,45.8684,-0.19202,-7.18154,6.82248,-0.00192559,0.00679002,0.0094511,4,0,41.39044280192996,-91.76200054212605,8821.15002560083,-60.68303647463608,0.392264305122635,0.8853932148302374,186.373,8857.920509312844,10895.330121764337,150,True,22.98607130772018,False,17.932565443553163,178.89826792286544,False,162.93996403647915,False,False
3,1970-07-23 09:47:03.893461233,2025-09-09,2025-09-26 18:26:29.346,AA,C,3604667764,JASSM,3,137,76,2,2,1,225,9,2,0,1,26,0,0,0,0,-120119.42058717164,-4813962.546949682,4172955.273405552,2.50566,2.4536,-0.614359,-55.875,46.0,51.125,0.0,0.0,0.0,0.0,0.0,0.0,2,0,41.10183141169524,-91.42936467621504,9999.99952974466,-40.091407692978,-0.0033433573346457,-0.0030512298234007,,8857.920509312844,10895.330121764337,150,3,2025-09-09,2025-09-26 18:26:29.500,AA,C,1561699478,AMBUSH51,1,1,48,2,1,1,225,2,1,0,0,9,1,225,2,1,-147516.7422606225,-4791732.599206186,4196880.619061973,2.34477,2.7576,-0.379095,-97.6389,43.882,45.997,-0.168014,-7.06028,6.47218,-0.0397342,-0.00606181,-0.00179035,4,0,41.39106520196152,-91.76333255326396,8818.802675754721,-60.6514539167771,0.2067580524719394,-0.9136134791518724,186.764,8857.920509312844,10895.330121764337,150,True,23.003440674821277,False,17.873785660712112,178.85472593642513,False,163.05376987371747,False,False
3,1970-07-23 09:47:03.902372153,2025-09-09,2025-09-26 18:26:30.237,AA,C,3605801170,JASSM,3,137,76,2,2,1,225,9,2,0,1,26,0,0,0,0,-120172.60808717164,-4813918.832105932,4173003.844694615,2.50566,2.4536,-0.614263,-55.875,46.0,51.125,0.0,0.0,0.0,0.0,0.0,0.0,2,0,41.102411537949614,-91.43001030004962,10000.000530830905,-40.0950934246874,-0.007004406375953,-0.0030523827824706,,8857.920509312844,10895.330121764337,150,3,2025-09-09,2025-09-26 18:26:30.237,AA,C,1562574344,AMBUSH51,1,1,48,2,1,1,225,2,1,0,0,9,1,225,2,1,-147588.40839667665,-4791700.150975124,4196914.115396905,2.31825,2.75979,-0.379406,-97.8192,44.004,45.8542,-0.2698,-7.35172,6.78858,-0.0346471,0.00467822,-0.00817778,4,0,41.39147125061462,-91.76420060802332,8817.067074957324,-60.72211949930519,0.3021725734309932,-2.3869936063269086,187.094,8857.920509312844,10895.330121764337,150,True,23.002079214476836,False,17.93679704715384,178.82530759015438,False,163.02946636212576,False,False
3,1970-07-23 09:47:03.913440754,2025-09-09,2025-09-26 18:26:31.344,AA,C,3607054066,JASSM,3,137,76,2,2,1,225,9,2,0,1,26,0,0,0,0,-120231.40105592164,-4813870.507398901,4173057.5351243024,2.50566,2.4536,-0.614263,-55.875,46.0,51.125,0.0,0.0,0.0,0.0,0.0,0.0,2,0,41.10305281716828,-91.43072398067429,9999.999537572903,-40.09556260612048,-0.006167480450142,-0.0030540172721019,,8857.920509312844,10895.330121764337,150,3,2025-09-09,2025-09-26 18:26:31.267,AA,C,1563807108,AMBUSH51,1,1,48,2,1,1,225,2,1,0,0,9,1,225,2,1,-147690.47543765788,-4791654.094256922,4196961.522834687,2.29472,2.76072,-0.374139,-98.2367,43.9362,45.6321,0.0159862,-7.01928,6.41693,-0.00587872,-0.0122807,-0.00482178,4,0,41.39204659323504,-91.7654368546016,8814.339088915343,-60.97065716009136,0.1239780529237107,-3.716318569520445,187.327,8857.920509312844,10895.330121764337,150,True,23.014527640335686,False,18.137004001519912,178.78330556658568,False,162.88067847309915,False,False
3,1970-07-23 09:47:03.923459984,2025-09-09,2025-09-26 18:26:32.345,AA,C,3608246206,JASSM,3,137,76,2,2,1,225,9,2,0,1,26,0,0,0,0,-120287.34636842164,-4813824.525465307,4173108.621550084,2.50576,2.4536,-0.614263,-55.875,46.0,51.125,0.0,0.0,0.0,0.0,0.0,0.0,2,0,41.10366299525575,-91.43140310620264,10000.000523103494,-40.0960090762693,-0.0053711195379465,0.0024359225954429,,8857.920509312844,10895.330121764337,150,3,2025-09-09,2025-09-26 18:26:32.300,AA,C,1565039874,AMBUSH51,1,1,48,2,1,1,225,2,1,0,0,9,1,225,2,1,-147791.41854382603,-4791608.936273865,4197007.697363582,2.29014,2.76787,-0.370246,-98.5747,43.5978,45.2592,-0.140196,-7.42472,6.59551,0.0174884,0.00108087,-0.0048946,4,0,41.39260845844858,-91.76665936544184,8811.069800713378,-61.39931271369468,0.2363154278674984,-3.831141021016619,187.449,8857.920509312844,10895.330121764337,150,True,23.028413992679628,False,18.43367502983866,178.74063329872632,False,162.63346523645,False,False
3,1970-07-23 09:47:03.934326033,2025-09-09,2025-09-26 18:26:33.432,AA,C,3609439254,JASSM,3,137,76,2,2,1,225,9,2,0,1,26,0,0,0,0,-120343.33074342164,-4813778.507398901,4173159.7460618014,2.50576,2.4536,-0.614263,-55.875,46.0,51.125,0.0,0.0,0.0,0.0,0.0,0.0,2,0,41.10427363551883,-91.43208271969708,10000.000813762925,-40.09645587269126,-0.0045741713336627,0.0024343641193089,,8857.920509312844,10895.330121764337,150,3,2025-09-09,2025-09-26 18:26:33.434,AA,C,1566391940,AMBUSH51,1,1,48,2,1,1,225,2,1,0,0,9,1,225,2,1,-147903.91877182582,-4791559.042039216,4197058.617550453,2.31022,2.77028,-0.367255,-98.8728,43.2888,44.8813,-0.239528,-7.42137,6.56662,0.0184455,-0.00560824,-0.00187358,4,0,41.39322840368658,-91.76802170854646,8807.32897980073,-61.61263074225675,0.2075255703021886,-2.6317654389288685,187.449,8857.920509312844,10895.330121764337,150,True,23.04906938419496,False,18.713958469072065,178.69228876023323,False,162.40914451533894,False,False
3,1970-07-23 09:47:03.942435627,2025-09-09,2025-09-26 18:26:34.243,AA,C,3610572648,JASSM,3,137,76,2,2,1,225,9,2,0,1,26,0,0,0,0,-120396.51824342164,-4813734.789137182,4173208.313444615,2.50576,2.4536,-0.614263,-55.875,46.0,51.125,0.0,0.0,0.0,0.0,0.0,0.0,2,0,41.10485374002125,-91.43272839238506,10000.000319975556,-40.096880360579455,-0.0038170569094739,0.002432899830434,,8857.920509312844,10895.330121764337,150,3,2025-09-09,2025-09-26 18:26:34.167,AA,C,1567266804,AMBUSH51,1,1,48,2,1,1,225,2,1,0,0,9,1,225,2,1,-147976.44116740028,-4791527.044292023,4197091.171945814,2.32173,2.77157,-0.367195,-98.9124,43.2604,44.5769,-0.203011,-7.44305,6.43673,0.0129631,0.000552398,5.30552e-05,4,0,41.39362522045841,-91.76889988508498,8804.743440235532,-61.66445176868679,0.2546192465882729,-1.9459609793285404,187.363,8857.920509312844,10895.330121764337,150,True,23.04764043581816,False,18.83105390146198,178.65976777388207,False,162.33222179806256,False,False
3,1970-07-23 09:47:03.953438976,2025-09-09,2025-09-26 18:26:35.343,AA,C,3611825820,JASSM,3,137,76,2,2,1,225,9,2,0,1,26,0,0,0,0,-120455.32293092164,-4813686.449781713,4173262.012663365,2.50576,2.4536,-0.614263,-55.875,46.0,51.125,0.0,0.0,0.0,0.0,0.0,0.0,2,0,41.10549514664827,-91.43344226964808,9999.999806684802,-40.09734969430425,-0.0029799510223174,0.0024312552186183,,8857.920509312844,10895.330121764337,150,3,2025-09-09,2025-09-26 18:26:35.213,AA,C,1568499570,AMBUSH51,1,1,48,2,1,1,225,2,1,0,0,9,1,225,2,1,-148077.76956908975,-4791482.6381269,4197136.590014324,2.33053,2.77844,-0.370359,-98.7816,42.7106,44.6267,0.00207904,-7.89988,6.70079,0.0305463,0.0112779,0.000462932,4,0,41.39417739881598,-91.77012678175528,8801.732734763003,-61.79593127958487,0.64370001892978,-1.3012330130814638,187.253,8857.920509312844,10895.330121764337,150,True,23.058822011000682,False,18.92305913843546,178.61464933731898,False,162.28324434591016,False,False
3,1970-07-23 09:47:03.964356825,2025-09-09,2025-09-26 18:26:36.435,AA,C,3613137696,JASSM,3,137,76,2,2,1,225,9,2,0,1,26,0,0,0,0,-120516.88543092164,-4813635.845289526,4173318.226530552,2.50576,2.4536,-0.614263,-55.875,46.0,51.125,0.0,0.0,0.0,0.0,0.0,0.0,2,0,41.10616659266754,-91.43418964053572,10000.000643212945,-40.09784105466212,-0.0021036148768089,0.00242955661256,,8857.920509312844,10895.330121764337,150,3,2025-09-09,2025-09-26 18:26:36.334,AA,C,1569851636,AMBUSH51,1,1,48,2,1,1,225,2,1,0,0,9,1,225,2,1,-148189.55701245624,-4791434.153516568,4197186.845772951,2.41849,2.77707,-0.370293,-98.4354,42.6628,44.7218,-0.427024,-7.40829,6.44829,0.0462131,0.00141584,0.00465117,4,0,41.39478456335249,-91.77148015564458,8799.987112781606,-61.747856092213816,0.5902404098992682,3.7109252055775466,186.606,8857.920509312844,10895.330121764337,150,True,23.07391889046813,False,18.814362540075667,178.56477275629223,False,162.4467163704636,False,False
3,1970-07-23 09:47:03.974398428,2025-09-09,2025-09-26 18:26:37.439,AA,C,3614390878,JASSM,3,137,76,2,2,1,225,9,2,0,1,26,0,0,0,0,-120575.69402467164,-4813587.503492651,4173371.9242844586,2.50576,2.4536,-0.614263,-55.875,46.0,51.125,0.0,0.0,0.0,0.0,0.0,0.0,2,0,41.10680799402294,-91.43490359342952,10000.000318640294,-40.09831045048636,-0.0012664832714843,0.0024279367251304,,8857.920509312844,10895.330121764337,150,3,2025-09-09,2025-09-26 18:26:37.434,AA,C,1571163934,AMBUSH51,1,1,48,2,1,1,225,2,1,0,0,9,1,225,2,1,-148298.17990708962,-4791386.469203457,4197236.231926007,2.42219,2.76823,-0.382271,-97.8333,42.7463,45.2925,-0.319234,-7.87081,6.73002,-0.022124,0.00378148,0.0161985,4,0,41.39538166276541,-91.77279545331436,8798.091619622848,-60.92999337995683,0.7426804676852095,3.745731866634544,186.166,8857.920509312844,10895.330121764337,150,True,23.08980251829523,False,18.449114807017086,178.516543251548,False,162.86020705442132,False,False
3,1970-07-23 09:47:03.986416809,2025-09-09,2025-09-26 18:26:38.641,AA,C,3615763310,JASSM,3,137,76,2,2,1,225,9,2,0,1,26,0,0,0,0,-120640.09636842164,-4813534.560621557,4173430.730925084,2.50576,2.45351,-0.614168,-55.875,46.0,51.125,0.0,0.0,0.0,0.0,0.0,0.0,2,0,41.10751042475586,-91.4356854728296,10000.000647240118,-40.09847699869624,-0.0074358273141342,-0.0007387089807958,,8857.920509312844,10895.330121764337,150,3,2025-09-09,2025-09-26 18:26:38.667,AA,C,1572635300,AMBUSH51,1,1,48,2,1,1,225,2,1,0,0,9,1,225,2,1,-148418.650070366,-4791333.362183982,4197292.435374058,2.37506,2.76733,-0.387612,-97.13,42.8617,45.7294,-0.0757376,-7.60313,6.41771,-0.0416421,-0.00362128,-0.00375651,4,0,41.39605484940152,-91.77425431825372,8798.557715462828,-60.68116583631551,0.9269844608794088,1.0299781440709892,185.652,8857.920509312844,10895.330121764337,150,True,23.10863919801594,False,18.090496769793912,178.46415704850457,False,163.2737237380377,False,False
3,1970-07-23 09:47:03.998298969,2025-09-09,2025-09-26 18:26:39.829,AA,C,3617134402,JASSM,3,137,76,2,2,1,225,9,2,0,1,26,0,0,0,0,-120704.43621217164,-4813481.668531713,4173489.478483677,2.50576,2.45351,-0.614168,-55.875,46.0,51.125,0.0,0.0,0.0,0.0,0.0,0.0,2,0,41.10821215831152,-91.4364666102646,10000.000505286756,-40.09899057965257,-0.0065199469179758,-0.0007404850882093,,8857.920509312844,10895.330121764337,150,3,2025-09-09,2025-09-26 18:26:39.834,AA,C,1574027132,AMBUSH51,1,1,48,2,1,1,225,2,1,0,0,9,1,225,2,1,-148531.2324576474,-4791283.464311849,4197345.652050903,2.33531,2.76843,-0.390921,-96.7364,42.4773,45.9339,-0.148857,-7.59485,6.61784,-0.00555207,0.0263102,-0.00308032,4,0,41.39669021658784,-91.77561779052763,8799.84726469489,-60.58924278052028,1.10348425222173,-1.222000446755356,185.005,8857.920509312844,10895.330121764337,150,True,23.122995769492295,False,18.02243618074614,178.41534430311663,False,163.38748187493388,False,False
3,1970-07-23 09:47:04.009097960,2025-09-09,2025-09-26 18:26:40.909,AA,C,3618387502,JASSM,3,137,76,2,2,1,225,9,2,0,1,26,0,0,0,0,-120763.24089967164,-4813433.326734838,4173543.169889928,2.50576,2.45351,-0.614168,-55.875,46.0,51.125,0.0,0.0,0.0,0.0,0.0,0.0,2,0,41.108853502862175,-91.43718056100413,10000.000487815289,-40.09945999314161,-0.0056828706367732,-0.0007420992430564,,8857.920509312844,10895.330121764337,150,3,2025-09-09,2025-09-26 18:26:40.900,AA,C,1575299664,AMBUSH51,1,1,48,2,1,1,225,2,1,0,0,9,1,225,2,1,-148634.68309241792,-4791238.378788948,4197394.775011246,2.26372,2.77579,-0.393934,-96.8314,41.5272,46.1692,-0.136048,-7.34083,6.73018,-0.111864,0.00146786,-0.0093658,4,0,41.39727098667199,-91.77687040892496,8803.40565053976,-60.7432023185206,1.502285755517115,-5.1662828611954055,184.846,8857.920509312844,10895.330121764337,150,True,23.13633227479313,False,18.23593200868865,178.37041137741826,False,163.20566761827496,False,False
3,1970-07-23 09:47:04.018356570,2025-09-09,2025-09-26 18:26:41.835,AA,C,3619640540,JASSM,3,137,76,2,2,1,225,9,2,0,1,26,0,0,0,0,-120822.04168092164,-4813384.985914526,4173596.8578782086,2.50576,2.45351,-0.614168,-55.875,46.0,51.125,0.0,0.0,0.0,0.0,0.0,0.0,2,0,41.10949481454195,-91.43789447887788,9999.99973330648,-40.09992939106558,-0.0048458388473113,-0.0007437220440073,,8857.920509312844,10895.330121764337,150,3,2025-09-09,2025-09-26 18:26:41.833,AA,C,1576413128,AMBUSH51,1,1,48,2,1,1,225,2,1,0,0,9,1,225,2,1,-148724.82497265757,-4791199.826043727,4197437.37343861,2.13371,2.78933,-0.39443,-97.4353,40.5835,45.6589,-0.0763774,-7.83067,7.3402,-0.149914,0.0244688,-0.0226899,4,0,41.39777128854708,-91.77796162616944,8807.870078371394,-61.227841144836695,2.0319885846471464,-12.332108078066751,185.054,8857.920509312844,10895.330121764337,150,False,23.141233004492722,False,18.8230502655496,178.3303369283883,False,162.65598513322732,False,False
3,1970-07-23 09:47:04.029338176,2025-09-09,2025-09-26 18:26:42.933,AA,C,3620952150,JASSM,3,137,76,2,2,1,225,9,2,0,1,26,0,0,0,0,-120883.58855592164,-4813334.385816869,4173653.05367899,2.50576,2.45351,-0.614168,-55.875,46.0,51.125,0.0,0.0,0.0,0.0,0.0,0.0,2,0,41.110166085021845,-91.4386417532812,10000.000638626609,-40.10042072723797,-0.0039697059724488,-0.0007454288811241,,8857.920509312844,10895.330121764337,150,3,2025-09-09,2025-09-26 18:26:42.934,AA,C,1577725428,AMBUSH51,1,1,48,2,1,1,225,2,1,0,0,9,1,225,2,1,-148831.96850763218,-4791156.579573014,4197486.5572358295,1.95366,2.81638,-0.373832,-98.9667,38.4205,43.8738,0.13249,-7.68025,7.24283,-0.155041,0.0102022,-0.0418168,4,0,41.39834082060072,-91.7792577223486,8816.381013441367,-63.07848920753732,2.236674379831268,-22.136383677816983,185.249,8857.920509312844,10895.330121764337,150,False,23.15305936719832,False,20.4039262403203,178.2812584818549,False,161.12375760912224,False,False
3,1970-07-23 09:47:04.040323575,2025-09-09,2025-09-26 18:26:44.032,AA,C,3622085546,JASSM,3,137,76,2,2,1,225,9,2,0,1,26,0,0,0,0,-120936.77605592164,-4813290.658277807,4173701.614225865,2.50576,2.45351,-0.614168,-55.875,46.0,51.125,0.0,0.0,0.0,0.0,0.0,0.0,2,0,41.11074616069208,-91.43928754418728,9999.999576677452,-40.10084534290436,-0.0032125844537581,-0.0007468922544241,,8857.920509312844,10895.330121764337,150,3,2025-09-09,2025-09-26 18:26:44.034,AA,C,1579037726,AMBUSH51,1,1,48,2,1,1,225,2,1,0,0,9,1,225,2,1,-148942.04182107735,-4791115.745632246,4197533.249923263,1.82593,2.84769,-0.339994,-101.233,35.6741,40.5919,-0.110805,-7.67191,7.38029,-0.0563581,0.0211503,-0.0368962,4,0,41.39887862557574,-91.78058794677386,8825.653803697756,-65.64376377938507,2.108712623892804,-28.925086019949035,185.09,8857.920509312844,10895.330121764337,150,False,23.171665459032507,False,22.81728371573997,178.2270225089729,False,158.77705278159917,False,False
3,1970-07-23 09:47:04.048439337,2025-09-09,2025-09-26 18:26:44.843,AA,C,3623159986,JASSM,3,137,76,2,2,1,225,9,2,0,1,26,0,0,0,0,-120987.19402467164,-4813249.205641088,4173747.647917271,2.50576,2.45351,-0.614168,-55.875,46.0,51.125,0.0,0.0,0.0,0.0,0.0,0.0,2,0,41.111296051686,-91.43989971916017,10000.000670339852,-40.10124786023598,-0.0024948685782071,-0.0007482944480479,,8857.920509312844,10895.330121764337,150,3,2025-09-09,2025-09-26 18:26:44.833,AA,C,1579992124,AMBUSH51,1,1,48,2,1,1,225,2,1,0,0,9,1,225,2,1,-149023.5394560649,-4791087.888590878,4197564.596707304,1.77167,2.86671,-0.304821,-102.904,33.8785,37.4582,-0.0654214,-7.3081,7.01884,-0.070656,0.026073,-0.0485143,4,0,41.39924089984215,-91.78157196748776,8831.374256759318,-67.81998512198501,1.4758869105452406,-31.75663572843793,184.882,8857.920509312844,10895.330121764337,150,False,23.174382149374207,False,24.765766664774546,178.18253858473884,False,156.89180975476754,False,False
3,1970-07-23 09:47:04.058382117,2025-09-09,2025-09-26 18:26:45.838,AA,C,3624352764,JASSM,3,137,76,2,2,1,225,9,2,0,1,26,0,0,0,0,-121043.16668092164,-4813203.186109838,4173798.7504563336,2.50576,2.45351,-0.614168,-55.875,46.0,51.125,0.0,0.0,0.0,0.0,0.0,0.0,2,0,41.11190650241755,-91.44057935109691,9999.999805508429,-40.10169473708131,-0.0016980948868239,-0.0007498386115458,,8857.920509312844,10895.330121764337,150,3,2025-09-09,2025-09-26 18:26:46.003,AA,C,1581383956,AMBUSH51,1,1,48,2,1,1,225,2,1,0,0,9,1,225,2,1,-149146.0466234144,-4791049.74916664,4197605.736492474,1.6787,2.91114,-0.257876,-105.534,30.4087,32.3651,-0.088791,-8.19582,7.89282,-0.0539529,0.033715,-0.0560502,4,0,41.3997228562487,-91.78304977681329,8836.193426880402,-71.4570133398002,1.4344067637150724,-36.46872220347312,185.371,8857.920509312844,10895.330121764337,150,False,23.19260938509063,False,28.09466586130068,178.11037614617646,False,153.6539135324841,False,False
3,1970-07-23 09:47:04.067456696,2025-09-09,2025-09-26 18:26:46.745,AA,C,3625426728,JASSM,3,137,76,2,2,1,225,9,2,0,1,26,0,0,0,0,-121093.56511842164,-4813161.750074682,4173844.762175084,2.50576,2.45351,-0.614168,-55.875,46.0,51.125,0.0,0.0,0.0,0.0,0.0,0.0,2,0,41.11245614213272,-91.44119131030524,10000.00023394127,-40.10209712191735,-0.0009806811998991,-0.0007512201617544,,8857.920509312844,10895.330121764337,150,3,2025-09-09,2025-09-26 18:26:46.600,AA,C,1582099756,AMBUSH51,1,1,48,2,1,1,225,2,1,0,0,9,1,225,2,1,-149209.21087391203,-4791032.363081863,4197623.921456952,1.64292,2.93422,-0.229075,-107.021,28.3251,29.0935,-0.0665868,-8.32166,7.98372,-0.0414215,0.0435375,-0.0542047,4,0,41.399937356246426,-91.78381089042296,8837.719796542882,-73.54139220473355,1.265475736358508,-38.24930749489554,185.445,8857.920509312844,10895.330121764337,150,False,23.182058435816803,False,30.154908500360854,178.0683084567001,False,151.64660730487438,False,False
3,1970-07-23 09:47:04.076338358,2025-09-09,2025-09-26 18:26:47.633,AA,C,3626560092,JASSM,3,137,76,2,2,1,225,9,2,0,1,26,0,0,0,0,-121146.74871217164,-4813118.021559057,4173893.317839146,2.50576,2.45341,-0.614072,-55.875,46.0,51.125,0.0,0.0,0.0,0.0,0.0,0.0,2,0,41.11303617652933,-91.44183709991373,10000.000403165152,-40.102171577529575,-0.0073071378327175,-0.0039171176165198,,8857.920509312844,10895.330121764337,150,3,2025-09-09,2025-09-26 18:26:47.600,AA,C,1583292754,AMBUSH51,1,1,48,2,1,1,225,2,1,0,0,9,1,225,2,1,-149318.11905554569,-4791005.8886393495,4197650.463051928,1.58709,2.97355,-0.17354,-109.205,24.3902,23.6416,-0.0320927,-8.30243,7.94984,-0.0367381,0.0453226,-0.0577875,4,0,41.40025385503731,-91.78512191431706,8838.530485284791,-77.38343057670598,0.7660595580870394,-41.06541471818645,186.007,8857.920509312844,10895.330121764337,150,False,23.190316372290873,False,33.68528672425033,177.99266435852684,False,148.20393622625355,False,False
3,1970-07-23 09:47:04.086375776,2025-09-09,2025-09-26 18:26:48.637,AA,C,3627693200,JASSM,3,137,76,2,2,1,225,9,2,0,1,26,0,0,0,0,-121199.92058717164,-4813074.301832494,4173941.86227274,2.50585,2.45341,-0.614072,-55.875,46.0,51.125,0.0,0.0,0.0,0.0,0.0,0.0,2,0,41.11361608084408,-91.44248275884334,10000.000985785664,-40.10259613070105,-0.0065502251791428,0.0015865464003229,,8857.920509312844,10895.330121764337,150,3,2025-09-09,2025-09-26 18:26:48.566,AA,C,1584445986,AMBUSH51,1,1,48,2,1,1,225,2,1,0,0,9,1,225,2,1,-149423.7928666859,-4790984.461676806,4197670.115171989,1.5516,3.02284,-0.116327,-110.982,20.1044,17.7142,-0.0494308,-9.07965,8.70105,-0.0215331,0.0487556,-0.062808,4,0,41.40049439949135,-91.78639242746156,8836.567570165795,-81.69037662583546,0.6641057001441971,-42.74465589894291,186.764,8857.920509312844,10895.330121764337,150,False,23.194020661773358,False,37.449420878323615,177.91233764142498,False,144.5308453469314,False,False
3,1970-07-23 09:47:04.096316431,2025-09-09,2025-09-26 18:26:49.631,AA,C,3628826774,JASSM,3,137,76,2,2,1,225,9,2,0,1,26,0,0,0,0,-121253.11589967164,-4813030.563062963,4173990.425261021,2.50585,2.45341,-0.614072,-55.875,46.0,51.125,0.0,0.0,0.0,0.0,0.0,0.0,2,0,41.11419621646603,-91.44312871367391,9999.999652084638,-40.103020883389775,-0.0057929947757892,0.0015850905688114,,8857.920509312844,10895.330121764337,150,3,2025-09-09,2025-09-26 18:26:49.533,AA,C,1585599218,AMBUSH51,1,1,48,2,1,1,225,2,1,0,0,9,1,225,2,1,-149532.68614969915,-4790967.482521818,4197683.973439095,1.53331,3.07795,-0.0540523,-112.491,14.6953,11.0581,-0.0914067,-9.72922,9.36166,-0.0199207,0.0606025,-0.0592418,4,0,41.40066875686485,-91.78769975626832,8833.227716215364,-86.44849193645773,0.6552804305142572,-43.57865700676935,187.327,8857.920509312844,10895.330121764337,150,False,23.19593113569616,False,41.8228829404189,177.82238098034676,False,140.2536673335595,False,False
3,1970-07-23 09:47:04.105479264,2025-09-09,2025-09-26 18:26:50.547,AA,C,3630019304,JASSM,3,137,76,2,2,1,225,9,2,0,1,26,0,0,0,0,-121309.07683717164,-4812984.548902807,4174041.513639928,2.50585,2.45341,-0.614072,-55.875,46.0,51.125,0.0,0.0,0.0,0.0,0.0,0.0,2,0,41.11480652179469,-91.44380826440374,10000.000000135908,-40.10346773266547,-0.0049963863308322,0.0015835513149548,,8857.920509312844,10895.330121764337,150,3,2025-09-09,2025-09-26 18:26:50.500,AA,C,1586752452,AMBUSH51,1,1,48,2,1,1,225,2,1,0,0,9,1,225,2,1,-149641.1927134912,-4790956.459387277,4197691.3206050135,1.51971,3.13545,0.00352811,-113.312,8.45871,4.42538,0.00503641,-10.1086,9.69238,-0.0107806,0.0539529,-0.0585739,4,0,41.400763781260615,-91.78900024954042,8830.387802976406,-91.10193780107151,0.9439968345574664,-44.33932199299815,187.84,8857.920509312844,10895.330121764337,150,False,23.191809475642206,False,46.416276523881585,177.7248888608538,False,135.75876079969228,False,False
3,1970-07-23 09:47:04.115340504,2025-09-09,2025-09-26 18:26:51.534,AA,C,3631153790,JASSM,3,137,76,2,2,1,225,9,2,0,1,26,0,0,0,0,-121362.31511842164,-4812940.773512182,4174090.114714146,2.50585,2.45341,-0.614072,-55.875,46.0,51.125,0.0,0.0,0.0,0.0,0.0,0.0,2,0,41.115387118364616,-91.44445476475656,10000.00051923826,-40.10389285422807,-0.0042385443166298,0.0015820946389344,,8857.920509312844,10895.330121764337,150,3,2025-09-09,2025-09-26 18:26:51.633,AA,C,1588104516,AMBUSH51,1,1,48,2,1,1,225,2,1,0,0,9,1,225,2,1,-149770.77330967717,-4790951.215764987,4197691.930967951,1.51204,-3.08413,0.0733003,-113.399,0.968043,-3.5368,-0.221232,-10.0321,9.55661,-0.0191571,0.0605776,-0.0570301,4,0,41.40077500830316,-91.79055037047212,8828.773827359264,-96.51067712882852,1.0227873884384564,-45.01214781136299,188.634,8857.920509312844,10895.330121764337,150,False,23.19398642755345,False,51.925577875696796,177.59972671016703,False,130.37672079687513,False,False
3,1970-07-23 09:47:04.124377298,2025-09-09,2025-09-26 18:26:52.437,AA,C,3632286536,JASSM,3,137,76,2,2,1,225,9,2,0,1,26,0,0,0,0,-121415.47136842164,-4812897.064527807,4174138.640104771,2.50585,2.45341,-0.614072,-55.875,46.0,51.125,0.0,0.0,0.0,0.0,0.0,0.0,2,0,41.11596681742561,-91.4451002806405,10000.00038799755,-40.104317333373416,-0.0034818693444789,0.001580639912917,,8857.920509312844,10895.330121764337,150,3,2025-09-09,2025-09-26 18:26:52.634,AA,C,1589297516,AMBUSH51,1,1,48,2,1,1,225,2,1,0,0,9,1,225,2,1,-149884.17061324243,-4790953.4272945495,4197684.978659291,1.50479,-3.02774,0.135671,-112.628,-5.46899,-10.6429,-0.0917976,-10.0352,9.47604,0.00574972,0.0614077,-0.0566577,4,0,41.40069381889567,-91.79190435599516,8827.852312137975,-101.31760795194546,1.0333936988419736,-45.850831198489495,188.866,8857.920509312844,10895.330121764337,150,False,23.18627431945384,False,56.78660459965521,177.48062267387022,False,125.63838239410532,False,False
3,1970-07-23 09:47:04.134323993,2025-09-09,2025-09-26 18:26:53.432,AA,C,3633360278,JASSM,3,137,76,2,2,1,225,9,2,0,1,26,0,0,0,0,-121465.85808717164,-4812855.631422338,4174184.637175084,2.50585,2.45341,-0.614072,-55.875,46.0,51.125,0.0,0.0,0.0,0.0,0.0,0.0,2,0,41.11651631782771,-91.44571217496244,9999.999949744266,-40.10471970816992,-0.0027646121377993,0.0015792560669563,,8857.920509312844,10895.330121764337,150,3,2025-09-09,2025-09-26 18:26:53.534,AA,C,1590371214,AMBUSH51,1,1,48,2,1,1,225,2,1,0,0,9,1,225,2,1,-149985.11146735935,-4790961.046581226,4197672.021288611,1.51319,-2.96932,0.191776,-111.123,-11.6145,-17.277,-0.109713,-10.5241,10.025,0.0013139,0.0702336,-0.0700505,4,0,41.40054222157543,-91.7931074928916,8826.250917968116,-105.91943194771366,1.3072358632179573,-46.00961509511679,189.343,8857.920509312844,10895.330121764337,150,False,23.173310801177113,False,61.426472949000285,177.3662469374013,False,121.11536578566864,False,False
3,1970-07-23 09:47:04.143315163,2025-09-09,2025-09-26 18:26:54.331,AA,C,3634552964,JASSM,3,137,76,2,2,1,225,9,2,0,1,26,0,0,0,0,-121521.82293092164,-4812809.607984838,4174235.728971959,2.50585,2.45341,-0.614072,-55.875,46.0,51.125,0.0,0.0,0.0,0.0,0.0,0.0,2,0,41.11712668515232,-91.44639182280676,10000.000365325588,-40.10516664211961,-0.0019679208459752,0.0015776953755372,,8857.920509312844,10895.330121764337,150,3,2025-09-09,2025-09-26 18:26:54.505,AA,C,1591524446,AMBUSH51,1,1,48,2,1,1,225,2,1,0,0,9,1,225,2,1,-150090.6881425969,-4790975.43364068,4197652.048675529,1.53338,-2.90578,0.25337,-108.588,-18.3052,-24.0842,-0.102516,-10.4945,10.0344,0.00693982,0.0631679,-0.0535119,4,0,41.40030212505345,-91.7943634772948,8826.43851063509,-110.9244309138301,1.4845180099896296,-45.77889634234812,189.502,8857.920509312844,10895.330121764337,150,False,23.153401846188082,False,66.43031564445404,177.23819127431264,False,116.24057657290702,False,False
3,1970-07-23 09:47:04.153374999,2025-09-09,2025-09-26 18:26:55.337,AA,C,3635745926,JASSM,3,137,76,2,2,1,225,9,2,0,1,26,0,0,0,0,-121577.80730592164,-4812763.572340307,4174286.8319993024,2.50585,2.45341,-0.613976,-55.875,46.0,51.125,0.0,0.0,0.0,0.0,0.0,0.0,2,0,41.11773719385487,-91.44707171928192,10000.00011254239,-40.10887657849667,-0.0055922822852758,0.0015763695919217,,8857.920509312844,10895.330121764337,150,3,2025-09-09,2025-09-26 18:26:55.434,AA,C,1592637912,AMBUSH51,1,1,48,2,1,1,225,2,1,0,0,9,1,225,2,1,-150191.29121350084,-4790995.570939606,4197626.406921994,1.56002,-2.84247,0.31404,-105.314,-24.5831,-30.409,-0.146826,-10.4308,9.90906,0.0131774,0.0732151,-0.0514625,4,0,41.399990460868935,-91.79555787749526,8828.092860642391,-115.84631396240412,1.5590899789996628,-45.399634449129024,189.575,8857.920509312844,10895.330121764337,150,False,23.128562998752884,False,71.25486124957942,177.10750535521996,False,111.54773802771436,False,False
3,1970-07-23 09:47:04.163956953,2025-09-09,2025-09-26 18:26:56.395,AA,C,3636938998,JASSM,3,137,76,2,2,1,225,9,2,0,1,26,0,0,0,0,-121633.79168092164,-4812717.531812963,4174337.938932896,2.50585,2.45341,-0.613976,-55.875,46.0,51.125,0.0,0.0,0.0,0.0,0.0,0.0,2,0,41.11834775385596,-91.4477516298246,10000.00026992002,-40.10932369603084,-0.0047953223824512,0.0015747710451073,,8857.920509312844,10895.330121764337,150,3,2025-09-09,2025-09-26 18:26:56.401,AA,C,1593791144,AMBUSH51,1,1,48,2,1,1,225,2,1,0,0,9,1,225,2,1,-150291.36237956333,-4791022.353875419,4197593.601528632,1.58867,-2.76943,0.369021,-101.259,-31.1964,-36.4587,-0.186445,-10.7312,10.3721,0.00414767,0.0695449,-0.0559253,4,0,41.3995909857904,-91.7967434206588,8830.516298677512,-120.87006679103384,2.073321518573551,-45.32022948024497,189.734,8857.920509312844,10895.330121764337,150,False,23.09972764226943,False,76.25671165736665,176.96824102553313,False,106.68336550360306,False,False
3,1970-07-23 09:47:04.174294434,2025-09-09,2025-09-26 18:26:57.429,AA,C,3638073622,JASSM,3,137,76,2,2,1,225,9,2,0,1,26,0,0,0,0,-121687.03386842164,-4812673.746168432,4174386.540983677,2.50585,2.45331,-0.613976,-55.875,46.0,51.125,0.0,0.0,0.0,0.0,0.0,0.0,2,0,41.11892839464391,-91.44839824922772,10000.000126897225,-40.1061373047161,-0.0067025707887654,-0.001590837808201,,8857.920509312844,10895.330121764337,150,3,2025-09-09,2025-09-26 18:26:57.267,AA,C,1594825076,AMBUSH51,1,1,48,2,1,1,225,2,1,0,0,9,1,225,2,1,-150377.0355908447,-4791051.626060841,4197558.988465592,1.60929,-2.71193,0.417728,-96.6462,-36.5408,-42.4642,-0.0854623,-10.1028,9.81538,-0.00704177,0.0654482,-0.0626665,4,0,41.39916717472691,-91.79775600106292,8834.035264826502,-125.00161632694704,2.105284752568569,-45.55276653313576,189.734,8857.920509312844,10895.330121764337,150,False,23.06696415641727,False,81.00135367013773,176.83999945896088,False,102.07098062592313,False,False
3,1970-07-23 09:47:04.185124232,2025-09-09,2025-09-26 18:26:58.512,AA,C,3639325516,JASSM,3,137,76,2,2,1,225,9,2,0,1,26,0,0,0,0,-121745.77996217164,-4812625.433668432,4174440.165983677,2.50585,2.45331,-0.613976,-55.875,46.0,51.125,0.0,0.0,0.0,0.0,0.0,0.0,2,0,41.11956904920716,-91.44911172623344,10000.000166838989,-40.10660650726008,-0.0058663089230397,-0.0015924519957722,,8857.920509312844,10895.330121764337,150,3,2025-09-09,2025-09-26 18:26:58.433,AA,C,1596216908,AMBUSH51,1,1,48,2,1,1,225,2,1,0,0,9,1,225,2,1,-150486.00227477195,-4791097.7872490585,4197505.003078199,1.63406,-2.63432,0.4836,-90.1244,-42.9947,-49.2324,-0.173126,-9.93347,9.49528,-0.00698144,0.0523717,-0.0650467,4,0,41.39850774452773,-91.79904051880632,8838.872578532737,-130.50258065569298,1.9027412974207027,-46.2651984876681,189.648,8857.920509312844,10895.330121764337,150,False,23.02778076794501,False,86.85670868641114,176.6652551108517,False,96.3932696400899,False,False
3,1970-07-23 09:47:04.193395457,2025-09-09,2025-09-26 18:26:59.339,AA,C,3640518314,JASSM,3,137,76,2,2,1,225,9,2,0,1,26,0,0,0,0,-121801.75261842164,-4812579.400953588,4174491.2582688336,2.50585,2.45331,-0.613976,-55.875,46.0,51.125,0.0,0.0,0.0,0.0,0.0,0.0,2,0,41.120179453184335,-91.44979153280408,9999.999432059674,-40.10705357279218,-0.0050695279591621,-0.0015939892940144,,8857.920509312844,10895.330121764337,150,3,2025-09-09,2025-09-26 18:26:59.299,AA,C,1597250840,AMBUSH51,1,1,48,2,1,1,225,2,1,0,0,9,1,225,2,1,-150561.0895882504,-4791136.333247353,4197459.854666403,1.66315,-2.57267,0.528719,-84.7025,-47.3038,-54.2673,-0.0982301,-10.0237,9.4943,0.0127364,0.0611123,-0.0617323,4,0,41.39795959686947,-91.79992311604543,8841.539517982144,-134.53295012332083,1.8528448535644129,-46.44417671573617,189.734,8857.920509312844,10895.330121764337,150,False,22.983518424796245,False,91.2660501911168,176.5329434099644,False,92.12049483089315,False,False
3,1970-07-23 09:47:04.204372016,2025-09-09,2025-09-26 18:27:00.437,AA,C,3641652474,JASSM,3,137,76,2,2,1,225,9,2,0,1,26,0,0,0,0,-121854.97527467164,-4812535.630445776,4174539.838346959,2.50585,2.45331,-0.613976,-55.875,46.0,51.125,0.0,0.0,0.0,0.0,0.0,0.0,2,0,41.12075984672372,-91.45043795122044,9999.999604772962,-40.107478686140496,-0.0043119067713403,-0.001595440304722,,8857.920509312844,10895.330121764337,150,3,2025-09-09,2025-09-26 18:27:00.437,AA,C,1598602906,AMBUSH51,1,1,48,2,1,1,225,2,1,0,0,9,1,225,2,1,-150652.54423805844,-4791192.541736034,4197394.305144127,1.71215,-2.4861,0.587161,-76.7859,-52.3793,-60.5636,-0.179328,-9.81627,9.41094,-0.000937308,0.0576772,-0.0546104,4,0,41.39716557602015,-91.80099460054196,8844.663644226668,-139.91028382546222,1.7015271900460782,-46.43168988528599,189.697,8857.920509312844,10895.330121764337,150,False,22.93695971920392,False,97.10175101371529,176.360202122119,False,86.46439066927265,False,False
3,1970-07-23 09:47:04.213357009,2025-09-09,2025-09-26 18:27:01.335,AA,C,3642904794,JASSM,3,137,76,2,2,1,225,9,2,0,1,26,0,0,0,0,-121913.74089967164,-4812487.298902807,4174593.478971959,2.50585,2.45331,-0.613976,-55.875,46.0,51.125,0.0,0.0,0.0,0.0,0.0,0.0,2,0,41.12140070413836,-91.45115170601616,10000.000270580014,-40.10794808862258,-0.0034753646444942,-0.0015970561727561,,8857.920509312844,10895.330121764337,150,3,2025-09-09,2025-09-26 18:27:01.399,AA,C,1599756138,AMBUSH51,1,1,48,2,1,1,225,2,1,0,0,9,1,225,2,1,-150723.8019801599,-4791245.264087462,4197332.882985361,1.76128,-2.40234,0.634151,-69.7649,-56.6792,-64.766,-0.130363,-9.98288,9.52509,0.00687949,0.0624771,-0.058447,4,0,41.396423928573945,-91.80182608443576,8846.611611480364,-144.67709979523494,1.672465969319677,-46.51119832767801,189.893,8857.920509312844,10895.330121764337,150,False,22.88063380671577,False,101.87594570197588,176.2101184794205,False,81.84078156183226,False,False
3,1970-07-23 09:47:04.223378170,2025-09-09,2025-09-26 18:27:02.337,AA,C,3644038344,JASSM,3,137,76,2,2,1,225,9,2,0,1,26,0,0,0,0,-121966.93621217164,-4812443.549879369,4174642.0317063336,2.50585,2.45331,-0.613976,-55.875,46.0,51.125,0.0,0.0,0.0,0.0,0.0,0.0,2,0,41.12198078150821,-91.4517978165801,10000.000509521706,-40.10837300992744,-0.0027181405358795,-0.0015984996245322,,8857.920509312844,10895.330121764337,150,3,2025-09-09,2025-09-26 18:27:02.366,AA,C,1600909370,AMBUSH51,1,1,48,2,1,1,225,2,1,0,0,9,1,225,2,1,-150787.01480440062,-4791301.157446239,4197268.163487656,1.81914,-2.31018,0.676726,-62.0805,-60.4718,-68.8768,-0.0804909,-10.1414,9.71476,0.00432868,0.0654378,-0.0603986,4,0,41.39564265625005,-91.80256024872725,8848.589739509662,-149.52332657125066,1.731205567240066,-46.56038491530353,190.039,8857.920509312844,10895.330121764337,150,False,22.824463044746693,False,106.79440037874554,176.06360108256516,False,77.07127876275288,False,False
3,1970-07-23 09:47:04.276932893,2025-09-09,2025-09-26 18:27:07.693,AA,C,3646364998,JASSM,3,137,76,2,2,1,225,9,2,0,1,26,0,0,0,0,-122076.11589967164,-4812353.751539526,4174741.685026646,2.50585,2.45331,-0.61388,-55.875,46.0,51.125,0.0,0.0,0.0,0.0,0.0,0.0,2,0,41.12317139194506,-91.45312395128174,10000.001125358778,-40.11250573216935,-0.0055826604750211,-0.0016013034619852,,8857.920509312844,10895.330121764337,150,3,2025-09-09,2025-09-26 18:27:07.807,AA,C,1607391330,AMBUSH51,1,1,48,2,1,1,225,2,1,0,0,9,1,225,2,1,-150986.86716168845,-4791672.595011051,4196848.072952703,2.27039,-1.68407,0.815239,-10.7689,-74.1669,-81.3329,-0.247258,-10.0966,9.5859,-0.00418928,0.0673312,-0.0636173,4,0,41.39055944945928,-91.80480795167028,8866.493289553966,-176.7876806407746,1.801152989323875,-46.40129083375364,190.284,8857.920509312844,10895.330121764337,150,False,22.584273733716763,False,135.31862784582228,175.3347834067775,False,49.274446378269744,False,False
3,1970-07-23 09:47:04.281533871,2025-09-09,2025-09-26 18:27:08.153,AA,C,3645230748,JASSM,3,137,76,2,2,1,225,9,2,0,1,26,0,0,0,0,-122022.88933717164,-4812397.528883276,4174693.103971959,2.50585,2.45331,-0.613976,-55.875,46.0,51.125,0.0,0.0,0.0,0.0,0.0,0.0,2,0,41.12259096723639,-91.4524774370006,10000.00029234754,-40.10881997467394,-0.0019216290056261,-0.0016000425258875,,8857.920509312844,10895.330121764337,150,3,2025-09-09,2025-09-26 18:27:08.066,AA,C,1607709462,AMBUSH51,1,1,48,2,1,1,225,2,1,0,0,9,1,225,2,1,-150989.24346716268,-4791691.740804149,4196826.749436135,2.29532,-1.65061,0.816039,-8.18244,-74.3628,-81.4795,-0.267093,-10.2427,9.75817,0.00483426,0.0645765,-0.0475218,4,0,41.39030114814041,-91.80482913116204,8867.522768207617,-178.10300312482192,1.819741737624892,-46.41077909050821,190.247,8857.920509312844,10895.330121764337,150,False,22.619344183410863,False,136.6640047648251,175.31501049396988,False,47.94892314069271,False,False
3,1970-07-23 09:47:04.281891845,2025-09-09,2025-09-26 18:27:08.189,AA,C,3647498392,JASSM,3,137,76,2,2,1,225,9,2,0,1,26,0,0,0,0,-122129.29949342164,-4812310.005934057,4174790.228483677,2.50595,2.45331,-0.61388,-55.875,46.0,51.125,0.0,0.0,0.0,0.0,0.0,0.0,2,0,41.12375137671108,-91.45376995611116,10000.000208992946,-40.11293059891605,-0.0048255670832118,0.0038886536523709,,8857.920509312844,10895.330121764337,150,3,2025-09-09,2025-09-26 18:27:08.066,AA,C,1607709462,AMBUSH51,1,1,48,2,1,1,225,2,1,0,0,9,1,225,2,1,-150989.24346716268,-4791691.740804149,4196826.749436135,2.29532,-1.65061,0.816039,-8.18244,-74.3628,-81.4795,-0.267093,-10.2427,9.75817,0.00483426,0.0645765,-0.0475218,4,0,41.39030114814041,-91.80482913116204,8867.522768207617,-178.10300312482192,1.819741737624892,-46.41077909050821,190.247,8857.920509312844,10895.330121764337,150,False,22.52857385286038,False,136.6640047648251,175.29633900916076,False,47.96734608746146,False,False
3,1970-07-23 09:47:04.281982113,2025-09-09,2025-09-26 18:27:08.198,AA,C,3648810686,JASSM,3,137,76,2,2,1,225,9,2,0,1,26,0,0,0,0,-122190.88152467164,-4812259.354566869,4174846.4335618014,2.50595,2.45322,-0.61388,-55.875,46.0,51.125,0.0,0.0,0.0,0.0,0.0,0.0,2,0,41.124422903493766,-91.45451798771072,10000.00056588689,-40.10981056011794,-0.0066140945454738,0.0007232665960463,,8857.920509312844,10895.330121764337,150,3,2025-09-09,2025-09-26 18:27:08.066,AA,C,1607709462,AMBUSH51,1,1,48,2,1,1,225,2,1,0,0,9,1,225,2,1,-150989.24346716268,-4791691.740804149,4196826.749436135,2.29532,-1.65061,0.816039,-8.18244,-74.3628,-81.4795,-0.267093,-10.2427,9.75817,0.00483426,0.0645765,-0.0475218,4,0,41.39030114814041,-91.80482913116204,8867.522768207617,-178.10300312482192,1.819741737624892,-46.41077909050821,190.247,8857.920509312844,10895.330121764337,150,False,22.476045299644102,False,136.6640047648251,175.2854673561073,False,47.97807347723269,False,False
3,1970-07-23 09:47:04.295494496,2025-09-09,2025-09-26 18:27:09.549,AA,C,3652687186,JASSM,3,137,76,2,2,1,225,9,2,0,1,26,0,0,0,0,-122372.78777467164,-4812109.724684057,4175012.45602274,2.50595,2.45322,-0.61388,-55.875,46.0,51.125,0.0,0.0,0.0,0.0,0.0,0.0,2,0,41.1264065500792,-91.45672767973264,9999.999744511077,-40.11126389495767,-0.0040246188623147,0.0007182872706079,,8857.920509312844,10895.330121764337,150,3,2025-09-09,2025-09-26 18:27:09.599,AA,C,1609538728,AMBUSH51,1,1,48,2,1,1,225,2,1,0,0,9,1,225,2,1,-150989.49622889352,-4791805.928931056,4196700.770523952,2.45343,-1.45173,0.80804,7.32372,-74.9647,-81.1197,-0.305786,-10.0901,9.72989,0.0023958,0.0605151,-0.0595664,4,0,41.38877129841882,-91.80478917003953,8875.189933238724,174.0478344720226,1.977717443560013,-45.89436276757362,190.321,8857.920509312844,10895.330121764337,150,False,22.254589172230823,False,144.69447596326762,175.09150243928823,False,40.134938095250824,False,False
3,1970-07-23 09:47:04.299414813,2025-09-09,2025-09-26 18:27:09.941,AA,C,3650063440,JASSM,3,137,76,2,2,1,225,9,2,0,1,26,0,0,0,0,-122249.66668092164,-4812211.000562963,4174900.087370396,2.50595,2.45322,-0.61388,-55.875,46.0,51.125,0.0,0.0,0.0,0.0,0.0,0.0,2,0,41.12506395457432,-91.4552320610686,10000.00090373272,-40.11028020642937,-0.0057772691030321,0.0007216524840303,,8857.920509312844,10895.330121764337,150,3,2025-09-09,2025-09-26 18:27:09.899,AA,C,1609896626,AMBUSH51,1,1,48,2,1,1,225,2,1,0,0,9,1,225,2,1,-150986.8209290519,-4791827.746832553,4196676.862340933,2.48138,-1.41574,0.804382,10.3811,-74.7083,-81.0686,-0.0753174,-10.093,9.6137,0.00511306,0.0790054,-0.0531602,4,0,41.388480598658845,-91.80474900122827,8876.798124288338,172.60443752570646,2.006096403589848,-45.83115049361927,190.198,8857.920509312844,10895.330121764337,150,False,22.345958681716574,False,146.28158403332316,175.0862902187276,False,38.55553776108281,False,False
3,1970-07-23 09:47:04.299513941,2025-09-09,2025-09-26 18:27:09.951,AA,C,3651375364,JASSM,3,137,76,2,2,1,225,9,2,0,1,26,0,0,0,0,-122311.22918092164,-4812160.361402807,4174956.274382115,2.50595,2.45322,-0.61388,-55.875,46.0,51.125,0.0,0.0,0.0,0.0,0.0,0.0,2,0,41.125735279929536,-91.45597988638852,10000.000779153044,-40.11077205789599,-0.0049009132494768,0.0007199672693257,,8857.920509312844,10895.330121764337,150,3,2025-09-09,2025-09-26 18:27:09.899,AA,C,1609896626,AMBUSH51,1,1,48,2,1,1,225,2,1,0,0,9,1,225,2,1,-150986.8209290519,-4791827.746832553,4196676.862340933,2.48138,-1.41574,0.804382,10.3811,-74.7083,-81.0686,-0.0753174,-10.093,9.6137,0.00511306,0.0790054,-0.0531602,4,0,41.388480598658845,-91.80474900122827,8876.798124288338,172.60443752570646,2.006096403589848,-45.83115049361927,190.198,8857.920509312844,10895.330121764337,150,False,22.293462451594635,False,146.28158403332316,175.07483719448268,False,38.56684284566218,False,False
