Subject_cm,Timestamp,SampleDate_cm,SampleTime_cm,Configuration_cm,Scenario_cm,DisTime_cm,MarkingTxt_cm,Application_cm,EntId_cm,Site_cm,ExerciseId_cm,ForceId_cm,Category_cm,Country_cm,Domain_cm,Kind_cm,Extra_cm,Specific_cm,Subcategory_cm,AltCategory_cm,AltCountry_cm,AltDomain_cm,AltKind_cm,ECEF_X_cm,ECEF_Y_cm,ECEF_Z_cm,OriPhi_cm,OriPsi_cm,OriTheta_cm,LinVelX_cm,LinVelY_cm,LinVelZ_cm,LinAccX_cm,LinAccY_cm,LinAccZ_cm,AngVelX_cm,AngVelY_cm,AngVelZ_cm,DrAlg_cm,Appearance_cm,Latitude_cm,Longitude_cm,Altitude_cm,Heading_cm,Pitch_cm,Roll_cm,CalibratedAirspeed_cm,CM_Altitude_Lead_cm,CM_Altitude_Wing_cm,CM_Airspeed_cm,Subject_ac,SampleDate_ac,SampleTime_ac,Configuration_ac,Scenario_ac,DisTime_ac,MarkingTxt_ac,Application_ac,EntId_ac,Site_ac,ExerciseId_ac,ForceId_ac,Category_ac,Country_ac,Domain_ac,Kind_ac,Extra_ac,Specific_ac,Subcategory_ac,AltCategory_ac,AltCountry_ac,AltDomain_ac,AltKind_ac,ECEF_X_ac,ECEF_Y_ac,ECEF_Z_ac,OriPhi_ac,OriPsi_ac,OriTheta_ac,LinVelX_ac,LinVelY_ac,LinVelZ_ac,LinAccX_ac,LinAccY_ac,LinAccZ_ac,AngVelX_ac,AngVelY_ac,AngVelZ_ac,DrAlg_ac,Appearance_ac,Latitude_ac,Longitude_ac,Altitude_ac,Heading_ac,Pitch_ac,Roll_ac,CalibratedAirspeed_ac,CM_Altitude_Lead_ac,CM_Altitude_Wing_ac,CM_Airspeed_ac,Bank_Angle_Condition,distance_nm,Distance_Condition,angle_between_vel,angle_between_pos,Cone_Condition,angle_between_pos_nose,Nose_Cone_Condition,Intercept_Criteria
3,1970-07-23 10:29:46.360411964,2025-09-12,2025-09-26 17:37:16.041,AA,D,3149998522,JASSM,3,127,76,2,2,1,225,9,2,0,1,26,0,0,0,0,-188258.0823992056,-4786089.522432174,4202200.147917271,-2.30155,-0.153302,0.128183,88.875,-13.625,-11.5,0.0,0.0,0.0,0.0,0.0,0.0,2,0,41.4520455281394,-92.25253535198868,10002.624948342114,99.81631027843795,-0.0042031013705222,0.0023909013832039,,9140.793540731764,11002.764919195506,150,3,2025-09-12,2025-09-26 17:37:16.065,AA,D,2338735386,AMBUSH51,1,1,48,2,1,1,225,2,1,0,0,9,1,225,2,1,-143447.99822427062,-4792780.413512148,4195980.327338822,2.27571,2.90147,-0.230278,-108.97,29.4682,30.0266,-0.195831,-7.35411,6.91821,0.00324261,0.0187389,0.00248527,4,0,41.37948865414551,-91.71435185593832,9140.201647997364,-72.20826395575828,-0.0889833207697364,-2.4026110397954223,196.26,9140.793540731764,11002.764919195506,150,True,24.590854403552104,False,170.12863183640704,179.42723810151313,False,9.61366009172211,True,False
3,1970-07-23 10:29:46.371413199,2025-09-12,2025-09-26 17:37:17.141,AA,D,3151251222,JASSM,3,127,76,2,2,1,225,9,2,0,1,26,0,0,0,0,-188164.67419608065,-4786103.963838424,4202187.964323521,-2.30155,-0.153302,0.128183,88.875,-13.625,-11.5,0.0,0.0,0.0,0.0,0.0,0.0,2,0,41.45189924236744,-92.25141207330088,10002.622265210246,99.81705387999486,-0.0033485775502534,0.0023903000421413,,9140.793540731764,11002.764919195506,150,3,2025-09-12,2025-09-26 17:37:17.066,AA,D,2339928384,AMBUSH51,1,1,48,2,1,1,225,2,1,0,0,9,1,225,2,1,-143556.1079399473,-4792750.797524754,4196009.9714544285,2.27358,2.90118,-0.226572,-109.182,29.5374,29.7665,-0.117875,-7.0058,6.50561,-0.00436821,-0.00623034,-0.0114235,4,0,41.37984571752602,-91.7156537021046,9139.583490477482,-72.35398360217229,-0.2439920115038797,-2.528290875707606,196.443,9140.793540731764,11002.764919195506,150,True,24.478226798957074,False,170.2398015909949,179.43566536132602,False,9.532332994543784,True,False
3,1970-07-23 10:29:46.382436481,2025-09-12,2025-09-26 17:37:18.243,AA,D,3152563572,JASSM,3,127,76,2,2,1,225,9,2,0,1,26,0,0,0,0,-188066.81482108065,-4786119.092744674,4202175.200651646,-2.30155,-0.153302,0.128183,88.875,-13.625,-11.5,0.0,0.0,0.0,0.0,0.0,0.0,2,0,41.45174598131304,-92.25023527285536,10002.623895449522,99.81783291021404,-0.0024533346679878,0.0023896772783967,,9140.793540731764,11002.764919195506,150,3,2025-09-12,2025-09-26 17:37:18.299,AA,D,2341399748,AMBUSH51,1,1,48,2,1,1,225,2,1,0,0,9,1,225,2,1,-143691.0504213806,-4792713.938771218,4196046.445649278,2.2599,2.90506,-0.225447,-109.335,29.4996,29.3137,-0.110832,-7.25254,6.45142,-0.00136591,-0.00564569,0.00240829,4,0,41.38028717870328,-91.71727864714676,9137.94290262247,-72.54947779542965,-0.1274587881031523,-3.261560705145854,196.602,9140.793540731764,11002.764919195506,150,True,24.347967928671903,False,170.43867408153977,179.44467147016124,False,9.37058283096827,True,False
3,1970-07-23 10:29:46.393456912,2025-09-12,2025-09-26 17:37:19.345,AA,D,3153875924,JASSM,3,127,76,2,2,1,225,9,2,0,1,26,0,0,0,0,-187968.9573992056,-4786134.219697799,4202162.435026646,-2.30155,-0.153302,0.128183,88.875,-13.625,-11.5,0.0,0.0,0.0,0.0,0.0,0.0,2,0,41.451592706212566,-92.24905850221216,10002.621791265428,99.81861191833544,-0.0015581093388419,0.0023890493927653,,9140.793540731764,11002.764919195506,150,3,2025-09-12,2025-09-26 17:37:19.432,AA,D,2342751814,AMBUSH51,1,1,48,2,1,1,225,2,1,0,0,9,1,225,2,1,-143814.3181450373,-4792680.57786223,4196079.242740899,2.25874,2.90937,-0.220295,-109.611,29.1176,29.1504,-0.144585,-7.25107,6.47443,-0.00637598,-0.00130349,6.34581e-05,4,0,41.38068506723649,-91.7187629162498,9136.08284314468,-72.93085115396487,-0.1493824423876431,-3.272417724068908,196.785,9140.793540731764,11002.764919195506,150,True,24.224403637209267,False,170.65450538860745,179.4511907634787,False,9.176608154802693,True,False
3,1970-07-23 10:29:46.403232124,2025-09-12,2025-09-26 17:37:20.323,AA,D,3155128622,JASSM,3,127,76,2,2,1,225,9,2,0,1,26,0,0,0,0,-187875.5472429556,-4786148.659150924,4202150.249479771,-2.30155,-0.153302,0.128183,88.875,-13.625,-11.5,0.0,0.0,0.0,0.0,0.0,0.0,2,0,41.4514463853898,-92.24793521671975,10002.624312454716,99.81935551771504,-0.0007035687012649,0.0023884497135808,,9140.793540731764,11002.764919195506,150,3,2025-09-12,2025-09-26 17:37:20.365,AA,D,2343865280,AMBUSH51,1,1,48,2,1,1,225,2,1,0,0,9,1,225,2,1,-143916.6794456636,-4792653.322087239,4196105.912317518,2.25504,2.91288,-0.21618,-109.756,28.9722,28.6523,-0.100032,-7.31632,6.35588,0.00116617,0.000200777,-0.0108493,4,0,41.38100898403353,-91.719995304302,9134.419539677468,-73.23812828709134,-0.1638356473298035,-3.4403582853733043,196.748,9140.793540731764,11002.764919195506,150,True,24.115212718002322,False,170.89876116192013,179.45525101680494,False,8.960126624451375,True,False
3,1970-07-23 10:29:46.414251646,2025-09-12,2025-09-26 17:37:21.425,AA,D,3156381322,JASSM,3,127,76,2,2,1,225,9,2,0,1,26,0,0,0,0,-187782.1370867056,-4786163.096650924,4202138.063932896,-2.30145,-0.153206,0.128279,88.875,-13.625,-11.5,0.0,0.0,0.0,0.0,0.0,0.0,2,0,41.45130006522239,-92.24681193719212,10002.62669784446,99.82055326080147,-0.0075723934023201,0.0071768357673294,,9140.793540731764,11002.764919195506,150,3,2025-09-12,2025-09-26 17:37:21.433,AA,D,2345137812,AMBUSH51,1,1,48,2,1,1,225,2,1,0,0,9,1,225,2,1,-144034.63801782642,-4792622.204511792,4196136.368832808,2.25349,2.91237,-0.213515,-109.879,28.7353,28.1785,-0.0589681,-7.45388,6.25471,-0.00164263,-0.00111832,-0.0135311,4,0,41.38137863949233,-91.72141538794936,9132.626730797168,-73.33212789955903,-0.2870189733806437,-3.534903863752118,196.37,9140.793540731764,11002.764919195506,150,True,23.99723443217922,False,171.15673575714837,179.45902284565415,False,8.730891246045264,True,False
3,1970-07-23 10:29:46.425390018,2025-09-12,2025-09-26 17:37:22.539,AA,D,3157693672,JASSM,3,127,76,2,2,1,225,9,2,0,1,26,0,0,0,0,-187684.27966483065,-4786178.219697799,4202125.294401646,-2.30145,-0.153206,0.128279,88.875,-13.625,-11.5,0.0,0.0,0.0,0.0,0.0,0.0,2,0,41.45114675199742,-92.24563518449878,10002.6214001741,99.82133225023134,-0.0066771688239394,0.0071762115595775,,9140.793540731764,11002.764919195506,150,3,2025-09-12,2025-09-26 17:37:22.432,AA,D,2346330810,AMBUSH51,1,1,48,2,1,1,225,2,1,0,0,9,1,225,2,1,-144143.5786704591,-4792593.838281954,4196164.20258733,2.26461,2.9177,-0.211431,-109.805,28.1445,28.0803,0.0984784,-7.69038,6.23827,0.0572944,-0.00169881,0.000159166,4,0,41.38171581673592,-91.7227267870784,9131.256100936938,-73.6228193942557,-0.1473846207382904,-2.832213803045528,196.26,9140.793540731764,11002.764919195506,150,True,23.88197428619793,False,171.35118369961393,179.46139945807056,False,8.547677361860872,True,False
3,1970-07-23 10:29:46.436390605,2025-09-12,2025-09-26 17:37:23.639,AA,D,3159006024,JASSM,3,127,76,2,2,1,225,9,2,0,1,26,0,0,0,0,-187586.42028983065,-4786193.342744674,4202112.526823521,-2.30145,-0.153206,0.128279,88.875,-13.625,-11.5,0.0,0.0,0.0,0.0,0.0,0.0,2,0,41.45099344036173,-92.24445841400131,10002.625274250026,99.82211124907558,-0.0057819293054056,0.0071756037212327,,9140.793540731764,11002.764919195506,150,3,2025-09-12,2025-09-26 17:37:23.632,AA,D,2347762408,AMBUSH51,1,1,48,2,1,1,225,2,1,0,0,9,1,225,2,1,-144275.75769469814,-4792559.7497126125,4196197.7797928415,2.34698,2.92264,-0.209373,-109.536,27.8698,28.1951,-0.146438,-7.47413,6.15668,0.0437643,-0.00433284,0.000148763,4,0,41.38212163530223,-91.724317823948,9129.990330635108,-73.89793854942995,-0.0219785402808278,1.9463915957145497,195.734,9140.793540731764,11002.764919195506,150,True,23.753616130519244,False,171.34275700390995,179.46338622162278,False,8.574798534232754,True,False
3,1970-07-23 10:29:46.446436228,2025-09-12,2025-09-26 17:37:24.643,AA,D,3160258724,JASSM,3,127,76,2,2,1,225,9,2,0,1,26,0,0,0,0,-187493.01013358065,-4786207.778291549,4202100.337370396,-2.30145,-0.153206,0.128279,88.875,-13.625,-11.5,0.0,0.0,0.0,0.0,0.0,0.0,2,0,41.45084707151288,-92.243335151017,10002.628810749007,99.82285482479304,-0.0049273893990596,0.0071750073595589,,9140.793540731764,11002.764919195506,150,3,2025-09-12,2025-09-26 17:37:24.632,AA,D,2348955408,AMBUSH51,1,1,48,2,1,1,225,2,1,0,0,9,1,225,2,1,-144384.29923195846,-4792531.413632678,4196225.782072425,2.38568,2.91885,-0.219055,-109.121,28.3006,28.5625,-0.154472,-7.40268,6.38011,0.0350757,0.000159166,0.0126261,4,0,41.38245980975275,-91.72562447531224,9129.045093967094,-73.3465225775977,0.1977534746049592,4.118347309553354,195.319,9140.793540731764,11002.764919195506,150,True,23.641001981831998,False,171.01669099262276,179.46392974177192,False,8.927144152873915,True,False
3,1970-07-23 10:29:46.457452052,2025-09-12,2025-09-26 17:37:25.745,AA,D,3161571074,JASSM,3,127,76,2,2,1,225,9,2,0,1,26,0,0,0,0,-187395.1527117056,-4786222.897432174,4202087.565886021,-2.30145,-0.153206,0.128279,88.875,-13.625,-11.5,0.0,0.0,0.0,0.0,0.0,0.0,2,0,41.450693732791386,-92.24215841652553,10002.624794126948,99.82363379517058,-0.004032167820417,0.0071743927132101,,9140.793540731764,11002.764919195506,150,3,2025-09-12,2025-09-26 17:37:25.731,AA,D,2350267706,AMBUSH51,1,1,48,2,1,1,225,2,1,0,0,9,1,225,2,1,-144504.1432134749,-4792499.814511213,4196257.2175359735,2.39936,2.91292,-0.221905,-108.633,28.8562,29.1185,-0.114027,-7.32139,6.28584,-0.00725815,0.0042621,0.0110365,4,0,41.38283853230319,-91.7270673168259,9128.36272193391,-73.00285926843584,0.0654223091324284,4.82845292646435,194.867,9140.793540731764,11002.764919195506,150,True,23.519499574301108,False,170.57233789370508,179.46359030197027,False,9.400271300554557,True,False
3,1970-07-23 10:29:46.468472705,2025-09-12,2025-09-26 17:37:26.847,AA,D,3162823772,JASSM,3,127,76,2,2,1,225,9,2,0,1,26,0,0,0,0,-187301.7425554556,-4786237.329072799,4202075.374479771,-2.30145,-0.153206,0.128279,88.875,-13.625,-11.5,0.0,0.0,0.0,0.0,0.0,0.0,2,0,41.45054735155701,-92.24103516570958,10002.624038994813,99.82437735841002,-0.0031776309394728,0.0071738059630944,,9140.793540731764,11002.764919195506,150,3,2025-09-12,2025-09-26 17:37:26.831,AA,D,2351580004,AMBUSH51,1,1,48,2,1,1,225,2,1,0,0,9,1,225,2,1,-144623.0632896129,-4792467.470361086,4196289.272712056,2.33382,2.90575,-0.231776,-108.091,29.3411,29.5687,-0.142079,-7.2921,6.3853,-0.12837,-0.00805294,0.0111926,4,0,41.38322601820652,-91.7284994081313,9127.131113648253,-72.31679671819472,0.155912633727369,0.9826256015602994,194.439,9140.793540731764,11002.764919195506,150,True,23.40082601556223,False,170.175331499091,179.46172031089614,False,9.828072922796634,True,False
3,1970-07-23 10:29:46.479251010,2025-09-12,2025-09-26 17:37:27.925,AA,D,3164136122,JASSM,3,127,76,2,2,1,225,9,2,0,1,26,0,0,0,0,-187203.88513358065,-4786252.448213424,4202062.601042271,-2.30145,-0.153206,0.128279,88.875,-13.625,-11.5,0.0,0.0,0.0,0.0,0.0,0.0,2,0,41.45039397612685,-92.23985844205076,10002.62578374888,99.82515631698443,-0.0022824070659704,0.0071731782451811,,9140.793540731764,11002.764919195506,150,3,2025-09-12,2025-09-26 17:37:27.932,AA,D,2352892304,AMBUSH51,1,1,48,2,1,1,225,2,1,0,0,9,1,225,2,1,-144741.7459792301,-4792435.047421806,4196321.493301687,2.2313,2.90422,-0.231323,-107.931,29.2269,29.33,-0.0950757,-7.341,6.29311,-0.0822199,0.00147826,-0.00934083,4,0,41.38361511452386,-91.7299287095507,9126.055107822263,-72.27897742029702,0.0768819584218318,-4.911469935850018,194.255,9140.793540731764,11002.764919195506,150,True,23.279826109778,False,170.26625209653653,179.4583080062066,False,9.768117949117114,True,False
3,1970-07-23 10:29:46.489391772,2025-09-12,2025-09-26 17:37:28.939,AA,D,3165329170,JASSM,3,127,76,2,2,1,225,9,2,0,1,26,0,0,0,0,-187114.92028983065,-4786266.190400924,4202050.987761021,-2.30145,-0.153206,0.128279,88.875,-13.625,-11.5,0.0,0.0,0.0,0.0,0.0,0.0,2,0,41.45025454190733,-92.23878865679691,10002.62304808345,99.82586448322932,-0.0014685381109405,0.0071726211473459,,9140.793540731764,11002.764919195506,150,3,2025-09-12,2025-09-26 17:37:28.765,AA,D,2353886470,AMBUSH51,1,1,48,2,1,1,225,2,1,0,0,9,1,225,2,1,-144832.80345705865,-4792410.487072573,4196345.804154984,2.19306,2.91024,-0.222217,-108.059,28.9809,28.519,0.119888,-7.22401,6.11748,-0.00787193,0.00221687,-0.0212023,4,0,41.38390898545386,-91.73102521690284,9125.122791577904,-72.8910465619891,-0.0291912867296937,-7.025128840088259,194.097,9140.793540731764,11002.764919195506,150,True,23.17943335354062,False,170.65220655744994,179.45447002239473,False,9.413837971898873,True,False
3,1970-07-23 10:29:46.500957825,2025-09-12,2025-09-26 17:37:30.095,AA,D,3166522216,JASSM,3,127,76,2,2,1,225,9,2,0,1,26,0,0,0,0,-187025.95935233065,-4786279.932588424,4202039.374479771,-2.30145,-0.15311,0.128279,88.875,-13.625,-11.5,0.0,0.0,0.0,0.0,0.0,0.0,2,0,41.45011509682776,-92.2377189228142,10002.624917478302,99.82293633890292,-0.0047116358607633,0.0064694980230168,,9140.793540731764,11002.764919195506,150,3,2025-09-12,2025-09-26 17:37:30.099,AA,D,2355477134,AMBUSH51,1,1,48,2,1,1,225,2,1,0,0,9,1,225,2,1,-144975.80592612116,-4792372.730181057,4196382.838452502,2.19931,2.9192,-0.213185,-108.36,28.0947,27.3718,-0.174832,-7.6173,6.63602,0.0285385,0.00929922,-4.47328e-05,4,0,41.384357903502845,-91.73274696786444,9123.188353425852,-73.61226452513247,-0.0096150782754891,-6.556184135472717,193.987,9140.793540731764,11002.764919195506,150,True,23.049749547920836,False,171.3791559314478,179.4474692082537,False,8.722692258187726,True,False
3,1970-07-23 10:29:46.509453756,2025-09-12,2025-09-26 17:37:30.945,AA,D,3167715264,JASSM,3,127,76,2,2,1,225,9,2,0,1,26,0,0,0,0,-186936.9964617056,-4786293.672822799,4202027.759245396,-2.30145,-0.15311,0.128279,88.875,-13.625,-11.5,0.0,0.0,0.0,0.0,0.0,0.0,2,0,41.449975640703805,-92.23664917098029,10002.621787986856,99.82364447914983,-0.0038977844763917,0.0064688841220229,,9140.793540731764,11002.764919195506,150,3,2025-09-12,2025-09-26 17:37:30.931,AA,D,2356471300,AMBUSH51,1,1,48,2,1,1,225,2,1,0,0,9,1,225,2,1,-145066.01685752338,-4792349.370261988,4196405.779417101,2.22393,2.92413,-0.206481,-108.502,27.4554,27.1121,-0.0907956,-7.34171,6.22191,0.0274691,0.0047011,-0.02171,4,0,41.384635510244806,-91.73383295484328,9122.187796399854,-74.08287312739068,-0.0647529566037097,-5.086411139216437,193.901,9140.793540731764,11002.764919195506,150,True,22.949998579837516,False,171.6871786007022,179.44186316555235,False,8.424997713763933,True,False
3,1970-07-23 10:29:46.520959281,2025-09-12,2025-09-26 17:37:32.095,AA,D,3168967962,JASSM,3,127,76,2,2,1,225,9,2,0,1,26,0,0,0,0,-186843.5863054556,-4786308.100557174,4202015.563932896,-2.30145,-0.15311,0.128375,88.875,-13.625,-11.5,0.0,0.0,0.0,0.0,0.0,0.0,2,0,41.4498292025644,-92.23552594676316,10002.62582311926,99.82847857912716,-0.0067096227858693,0.0064678915015019,,9140.793540731764,11002.764919195506,150,3,2025-09-12,2025-09-26 17:37:31.965,AA,D,2357704066,AMBUSH51,1,1,48,2,1,1,225,2,1,0,0,9,1,225,2,1,-145179.1089111551,-4792320.837458487,4196433.689379454,2.30709,2.93043,-0.202416,-108.58,27.107,26.698,-0.120706,-7.44174,6.50662,0.122167,0.0055375,0.00269333,4,0,41.38497330348471,-91.73519413285088,9120.947581507791,-74.49414385857482,0.0396531828182981,-0.2486454915369555,193.828,9140.793540731764,11002.764919195506,150,True,22.835001126724343,False,171.9541672857146,179.4344436350822,False,8.182173079951843,True,False
3,1970-07-23 10:29:46.532950574,2025-09-12,2025-09-26 17:37:33.295,AA,D,3170280310,JASSM,3,127,76,2,2,1,225,9,2,0,1,26,0,0,0,0,-186745.7269304556,-4786323.213838424,4202002.786589146,-2.30145,-0.15311,0.128375,88.875,-13.625,-11.5,0.0,0.0,0.0,0.0,0.0,0.0,2,0,41.44967577974829,-92.23434922845176,10002.62846059554,99.82925752314314,-0.0058143851094519,0.0064672821555379,,9140.793540731764,11002.764919195506,150,3,2025-09-12,2025-09-26 17:37:33.165,AA,D,2359135664,AMBUSH51,1,1,48,2,1,1,225,2,1,0,0,9,1,225,2,1,-145309.15807088185,-4792287.833177882,4196466.030293096,2.4032,2.92489,-0.205999,-108.346,27.4901,27.1716,-0.0812724,-7.42846,6.48834,0.0576418,0.00568939,0.0169204,4,0,41.38536453702392,-91.73675949450048,9119.588891731955,-74.1340302334451,-0.0495869632648838,5.193949189512536,193.718,9140.793540731764,11002.764919195506,150,True,22.707973647768444,False,171.62931128972994,179.42474175088597,False,8.534392047108385,True,False
3,1970-07-23 10:29:46.541356607,2025-09-12,2025-09-26 17:37:34.135,AA,D,3171473358,JASSM,3,127,76,2,2,1,225,9,2,0,1,26,0,0,0,0,-186656.7659929556,-4786336.950166549,4201991.169401646,-2.30145,-0.15311,0.128375,88.875,-13.625,-11.5,0.0,0.0,0.0,0.0,0.0,0.0,2,0,41.44953630190495,-92.23327951621836,10002.625001752607,99.82996563103367,-0.005000553850694,0.0064667325019992,,9140.793540731764,11002.764919195506,150,3,2025-09-12,2025-09-26 17:37:34.131,AA,D,2360288896,AMBUSH51,1,1,48,2,1,1,225,2,1,0,0,9,1,225,2,1,-145412.51929022674,-4792261.007021631,4196492.495737617,2.44744,2.91498,-0.211268,-108.002,28.1052,28.1161,-0.183543,-6.82586,6.24327,-0.000627299,-0.02202,0.00811744,4,0,41.38568414742621,-91.73800385075836,9118.703888860598,-73.53657641678083,-0.2538214994231508,7.609656583805454,193.669,9140.793540731764,11002.764919195506,150,True,22.6007867949476,False,171.0457087264458,179.41558892560568,False,9.137139192063767,True,False
3,1970-07-23 10:29:46.550408099,2025-09-12,2025-09-26 17:37:35.040,AA,D,3172666406,JASSM,3,127,76,2,2,1,225,9,2,0,1,26,0,0,0,0,-186567.80310233065,-4786350.688447799,4201979.550261021,-2.30145,-0.15311,0.128375,88.875,-13.625,-11.5,0.0,0.0,0.0,0.0,0.0,0.0,2,0,41.44939678976314,-92.23220978431254,10002.626143001684,99.8306737499884,-0.0041867005019397,0.0064661619234467,,9140.793540731764,11002.764919195506,150,3,2025-09-12,2025-09-26 17:37:34.932,AA,D,2361243294,AMBUSH51,1,1,48,2,1,1,225,2,1,0,0,9,1,225,2,1,-145500.02086336253,-4792237.591370273,4196514.919293946,2.36793,2.89916,-0.206885,-107.957,29.3412,27.9561,0.0182355,-6.16835,5.68947,-0.168398,-0.0116773,0.0195357,4,0,41.38595903151105,-91.73905753971984,9116.26439316463,-73.12028075942838,-1.0747863518586744,2.861026190486389,193.754,9140.793540731764,11002.764919195506,150,True,22.502507404903675,False,170.7229048483984,179.40602251331353,False,9.511585784028354,True,False
3,1970-07-23 10:29:46.561427633,2025-09-12,2025-09-26 17:37:36.142,AA,D,3173978758,JASSM,3,127,76,2,2,1,225,9,2,0,1,26,0,0,0,0,-186469.94372733065,-4786365.797822799,4201966.769011021,-2.30145,-0.15311,0.128375,88.875,-13.625,-11.5,0.0,0.0,0.0,0.0,0.0,0.0,2,0,41.4492433299196,-92.23103308344936,10002.625121883448,99.83145267577108,-0.0032914635741302,0.0064655491636195,,9140.793540731764,11002.764919195506,150,3,2025-09-12,2025-09-26 17:37:36.098,AA,D,2362635126,AMBUSH51,1,1,48,2,1,1,225,2,1,0,0,9,1,225,2,1,-145625.45299962262,-4792203.327884562,4196546.809171754,2.12456,2.90631,-0.21914,-108.504,28.9884,27.7076,0.00425701,-7.60004,7.11718,-0.195315,-0.00478225,-0.0193131,4,0,41.38635549057231,-91.74056825545784,9110.5082508981,-72.87773946010378,-0.3028732287946316,-10.99952937017855,195.05,9140.793540731764,11002.764919195506,150,False,22.377862852916504,False,171.0128047841792,179.3905698372952,False,9.249907423042147,True,False
3,1970-07-23 10:29:46.572456294,2025-09-12,2025-09-26 17:37:37.245,AA,D,3175231456,JASSM,3,127,76,2,2,1,225,9,2,0,1,26,0,0,0,0,-186376.53357108065,-4786380.217744674,4201954.569792271,-2.30145,-0.15311,0.128375,88.875,-13.625,-11.5,0.0,0.0,0.0,0.0,0.0,0.0,2,0,41.44909685708601,-92.22990988813577,10002.624792617518,99.83219618094854,-0.0024369334236534,0.0064649848841751,,9140.793540731764,11002.764919195506,150,3,2025-09-12,2025-09-26 17:37:37.333,AA,D,2364106492,AMBUSH51,1,1,48,2,1,1,225,2,1,0,0,9,1,225,2,1,-145760.62417493173,-4792168.530446775,4196579.410202949,1.90504,2.92374,-0.183748,-109.813,27.3139,25.0733,0.234084,-6.92925,6.47886,-0.129418,-0.00471151,-0.0293707,4,0,41.3867581459668,-91.74219551793968,9105.718954749254,-75.03360100276073,-0.9546053790285228,-23.35374000298558,195.807,9140.793540731764,11002.764919195506,150,False,22.25043519196686,False,172.6624881388223,179.37475740271287,False,7.65138946937868,True,False
3,1970-07-23 10:29:46.582470246,2025-09-12,2025-09-26 17:37:38.247,AA,D,3176484154,JASSM,3,127,76,2,2,1,225,9,2,0,1,26,0,0,0,0,-186283.1214617056,-4786394.639619674,4201942.366667271,-2.30145,-0.15311,0.128375,88.875,-13.625,-11.5,0.0,0.0,0.0,0.0,0.0,0.0,2,0,41.448950335758425,-92.22878667362193,10002.625255706072,99.83293969667588,-0.0015823789314651,0.006464386694316,,9140.793540731764,11002.764919195506,150,3,2025-09-12,2025-09-26 17:37:38.398,AA,D,2365379024,AMBUSH51,1,1,48,2,1,1,225,2,1,0,0,9,1,225,2,1,-145877.61260778512,-4792140.042249147,4196604.00320123,1.80775,2.93666,-0.151496,-111.253,25.9828,21.2803,-0.0112336,-6.77411,6.29119,-0.0738892,0.00468654,-0.0302362,4,0,41.38707247228228,-91.74360331158086,9097.73094807566,-76.89180593934454,-1.6609521837493657,-28.762112743822616,196.675,9140.793540731764,11002.764919195506,150,False,22.133630760850902,False,174.5419334706384,179.36081464519265,False,5.873958271451015,True,False
3,1970-07-23 10:29:46.593249293,2025-09-12,2025-09-26 17:37:39.324,AA,D,3177796506,JASSM,3,127,76,2,2,1,225,9,2,0,1,26,0,0,0,0,-186185.26403983065,-4786409.745088424,4201929.583464146,-2.30145,-0.153015,0.128375,88.875,-13.625,-11.5,0.0,0.0,0.0,0.0,0.0,0.0,2,0,41.448796850516175,-92.2276100140555,10002.62546972694,99.83008240870288,-0.0047440893363176,0.0057607006756271,,9140.793540731764,11002.764919195506,150,3,2025-09-12,2025-09-26 17:37:39.265,AA,D,2366412956,AMBUSH51,1,1,48,2,1,1,225,2,1,0,0,9,1,225,2,1,-145975.67243200567,-4792117.7099025855,4196620.967867388,1.7576,2.94407,-0.126201,-112.827,24.6091,17.4803,0.100689,-7.24372,6.782,0.00772421,0.020524,-0.0543275,4,0,41.38730208895702,-91.7447827742048,9086.930694503551,-78.24817029845609,-2.3244390041145904,-31.52990929516008,197.726,9140.793540731764,11002.764919195506,150,False,22.025366308053478,False,176.20929384101868,179.34923888984736,False,4.341318809368412,True,False
3,1970-07-23 10:29:46.603414392,2025-09-12,2025-09-26 17:37:40.341,AA,D,3178989552,JASSM,3,127,76,2,2,1,225,9,2,0,1,26,0,0,0,0,-186096.30310233065,-4786423.475557174,4201917.960417271,-2.30145,-0.153015,0.128375,88.875,-13.625,-11.5,0.0,0.0,0.0,0.0,0.0,0.0,2,0,41.448657305343,-92.22654033342356,10002.621534534495,99.8307904833687,-0.0039302592099961,0.0057600942078298,,9140.793540731764,11002.764919195506,150,3,2025-09-12,2025-09-26 17:37:40.331,AA,D,2367685488,AMBUSH51,1,1,48,2,1,1,225,2,1,0,0,9,1,225,2,1,-146096.01070600725,-4792092.838616516,4196637.520697575,1.96314,2.97204,-0.0829174,-114.43,22.1846,13.7645,-0.328082,-7.60468,7.0746,0.283948,0.0155597,-0.0503785,4,0,41.387539974285644,-91.7462292917054,9070.666767567318,-81.16094361642935,-2.802302544444224,-19.455373304582835,198.838,9140.793540731764,11002.764919195506,150,False,21.910057239784656,False,177.69344144481124,179.3373504235282,False,2.969207655361345,True,False
3,1970-07-23 10:29:46.613406144,2025-09-12,2025-09-26 17:37:41.340,AA,D,3180182598,JASSM,3,127,76,2,2,1,225,9,2,0,1,26,0,0,0,0,-186007.33825858065,-4786437.207979049,4201906.337370396,-2.30145,-0.153015,0.128375,88.875,-13.625,-11.5,0.0,0.0,0.0,0.0,0.0,0.0,2,0,41.448517739497525,-92.2254706097795,10002.626255322612,99.83149858454507,-0.0031163920809187,0.0057594832282429,,9140.793540731764,11002.764919195506,150,3,2025-09-12,2025-09-26 17:37:41.399,AA,D,2368958020,AMBUSH51,1,1,48,2,1,1,225,2,1,0,0,9,1,225,2,1,-146219.26714198894,-4792070.050333424,4196650.935036016,2.24943,2.99701,-0.0724663,-115.403,20.4362,12.3492,-0.351168,-8.25112,7.448,0.231908,0.0207924,0.00616584,4,0,41.38774373093575,-91.7477099209722,9052.946823417302,-82.56077088856298,-2.1382502127796927,-2.881189672085104,199.217,9140.793540731764,11002.764919195506,150,True,21.793576125846144,False,178.16772286173608,179.32755682023017,False,2.4381581169343383,True,False
3,1970-07-23 10:29:46.623453762,2025-09-12,2025-09-26 17:37:42.345,AA,D,3181315992,JASSM,3,127,76,2,2,1,225,9,2,0,1,26,0,0,0,0,-185922.82263358065,-4786450.250947799,4201895.294401646,-2.30145,-0.153015,0.128471,88.875,-13.625,-11.5,0.0,0.0,0.0,0.0,0.0,0.0,2,0,41.4483851521143,-92.22445438955238,10002.62545920984,99.83626187771642,-0.0060095532827369,0.0057586121766188,,9140.793540731764,11002.764919195506,150,3,2025-09-12,2025-09-26 17:37:42.298,AA,D,2370031718,AMBUSH51,1,1,48,2,1,1,225,2,1,0,0,9,1,225,2,1,-146322.13274820833,-4792052.023651065,4196662.368671514,2.44789,2.99846,-0.0904429,-115.615,19.6995,13.6665,-0.439457,-8.07615,7.3818,0.170595,0.00877075,0.00365873,4,0,41.38790947732336,-91.7489452508232,9041.12164730239,-81.84833696614567,-1.3893008443697867,8.474829860749452,199.657,9140.793540731764,11002.764919195506,150,True,21.690792609134768,False,178.85606388309773,179.32055574072965,False,1.7976558449722135,True,False
3,1970-07-23 10:29:46.633547495,2025-09-12,2025-09-26 17:37:43.354,AA,D,3182509038,JASSM,3,127,76,2,2,1,225,9,2,0,1,26,0,0,0,0,-185833.8597429556,-4786463.979463424,4201883.669401646,-2.30145,-0.153015,0.128471,88.875,-13.625,-11.5,0.0,0.0,0.0,0.0,0.0,0.0,2,0,41.44824557649266,-92.22338470000793,10002.62477418662,99.83696995252802,-0.0051957062984969,0.0057580654917788,,9140.793540731764,11002.764919195506,150,3,2025-09-12,2025-09-26 17:37:43.365,AA,D,2371304250,AMBUSH51,1,1,48,2,1,1,225,2,1,0,0,9,1,225,2,1,-146446.08342457764,-4792029.918960154,4196677.757241797,2.59923,2.98903,-0.107141,-115.506,21.0402,15.8314,-0.197534,-7.72756,6.94284,0.119564,-0.00292011,0.0345472,4,0,41.38812233828878,-91.75043394470752,9029.43307604406,-80.77770345324015,-1.1507711445301505,17.06847404628902,199.804,9140.793540731764,11002.764919195506,150,False,21.573863143561397,False,178.35871249081396,179.3122941933228,False,2.2715053517428454,True,False
3,1970-07-23 10:29:46.642366701,2025-09-12,2025-09-26 17:37:44.236,AA,D,3183642434,JASSM,3,127,76,2,2,1,225,9,2,0,1,26,0,0,0,0,-185749.34607108065,-4786477.020479049,4201872.624479771,-2.30145,-0.153015,0.128471,88.875,-13.625,-11.5,0.0,0.0,0.0,0.0,0.0,0.0,2,0,41.448112968677606,-92.2223685125256,10002.62295898142,99.8376426101427,-0.0044225611950774,0.0057575426649016,,9140.793540731764,11002.764919195506,150,3,2025-09-12,2025-09-26 17:37:44.298,AA,D,2372417716,AMBUSH51,1,1,48,2,1,1,225,2,1,0,0,9,1,225,2,1,-146552.7435238908,-4792009.148479164,4196693.223397724,2.71212,2.96582,-0.131549,-115.05,23.0325,18.3283,-0.318909,-7.80567,6.99071,0.118755,0.0107432,0.0190988,4,0,41.38833091388202,-91.75171562046567,9019.902533756438,-78.85517018905986,-1.197143951639239,23.33876275845084,200.17,9140.793540731764,11002.764919195506,150,False,21.468595611809853,False,176.9705504004852,179.30330002512946,False,3.551666946486022,True,False
3,1970-07-23 10:29:46.652409182,2025-09-12,2025-09-26 17:37:45.240,AA,D,3184775828,JASSM,3,127,76,2,2,1,225,9,2,0,1,26,0,0,0,0,-185664.83044608065,-4786490.061494674,4201861.579557896,-2.30145,-0.153015,0.128471,88.875,-13.625,-11.5,0.0,0.0,0.0,0.0,0.0,0.0,2,0,41.44798035233438,-92.22135230583736,10002.624774874112,99.8383152787003,-0.003649398910225,0.0057570232378812,,9140.793540731764,11002.764919195506,150,3,2025-09-12,2025-09-26 17:37:45.298,AA,D,2373610716,AMBUSH51,1,1,48,2,1,1,225,2,1,0,0,9,1,225,2,1,-146667.15144897543,-4791983.784998292,4196712.785301575,2.81555,2.93551,-0.159657,-114.165,26.4231,21.3785,-0.384559,-7.73082,6.91131,0.0885199,0.00845866,0.0406996,4,0,41.38859303878488,-91.75309153560966,9008.545895480876,-76.50825307152707,-1.3870536864266068,28.96008797474661,200.512,9140.793540731764,11002.764919195506,150,False,21.358612098874943,False,174.7570985980578,179.2903088017993,False,5.733910695426365,True,False
3,1970-07-23 10:29:46.662439328,2025-09-12,2025-09-26 17:37:46.243,AA,D,3185968874,JASSM,3,127,76,2,2,1,225,9,2,0,1,26,0,0,0,0,-185575.8675554556,-4786503.788057174,4201849.952604771,-2.30145,-0.153015,0.128471,88.875,-13.625,-11.5,0.0,0.0,0.0,0.0,0.0,0.0,2,0,41.4478407463106,-92.2202826304972,10002.62731505346,99.83902333842217,-0.0028355522731412,0.0057564748006105,,9140.793540731764,11002.764919195506,150,3,2025-09-12,2025-09-26 17:37:46.298,AA,D,2374803714,AMBUSH51,1,1,48,2,1,1,225,2,1,0,0,9,1,225,2,1,-146780.4785288638,-4791955.072645761,4196735.104100958,2.90025,2.89687,-0.198778,-112.794,30.2901,24.8871,-0.345199,-8.20442,7.42698,0.0753123,0.0144757,0.0372541,4,0,41.38889387814645,-91.75445577745944,8994.856150789565,-73.38381160592868,-1.472959703384612,33.3403598845631,200.916,9140.793540731764,11002.764919195506,150,False,21.24632166363806,False,172.17587384772364,179.272912958736,False,8.312654467287558,True,False
3,1970-07-23 10:29:46.672469481,2025-09-12,2025-09-26 17:37:47.246,AA,D,3187161920,JASSM,3,127,76,2,2,1,225,9,2,0,1,26,0,0,0,0,-185486.90466483065,-4786517.512666549,4201838.323698521,-2.30145,-0.153015,0.128471,88.875,-13.625,-11.5,0.0,0.0,0.0,0.0,0.0,0.0,2,0,41.44770112878867,-92.21921296064832,10002.62504388518,99.8397313925477,-0.0020217060200199,0.0057559246832417,,9140.793540731764,11002.764919195506,150,3,2025-09-12,2025-09-26 17:37:47.165,AA,D,2375837646,AMBUSH51,1,1,48,2,1,1,225,2,1,0,0,9,1,225,2,1,-146878.27190091246,-4791926.355832716,4196758.117903132,2.96361,2.86199,-0.228184,-111.199,34.4746,28.38,-0.329705,-8.36387,7.48401,0.0560044,0.0360494,0.0479483,4,0,41.38920225314232,-91.75563447726796,8981.498842682722,-70.81932333280326,-1.7477152369214677,36.47471385005876,201.502,9140.793540731764,11002.764919195506,150,False,21.14218735161471,False,169.46342238624982,179.25268619808634,False,11.04404119598855,True,False
3,1970-07-23 10:29:46.682956796,2025-09-12,2025-09-26 17:37:48.295,AA,D,3188354968,JASSM,3,127,76,2,2,1,225,9,2,0,1,26,0,0,0,0,-185397.9417742056,-4786531.237275924,4201826.694792271,-2.30145,-0.152919,0.128471,88.875,-13.625,-11.5,0.0,0.0,0.0,0.0,0.0,0.0,2,0,41.44756150131759,-92.21814329538591,10002.627002464562,99.83680335734996,-0.0052647816679136,0.0050518058626253,,9140.793540731764,11002.764919195506,150,3,2025-09-12,2025-09-26 17:37:48.365,AA,D,2377269244,AMBUSH51,1,1,48,2,1,1,225,2,1,0,0,9,1,225,2,1,-147010.1057456907,-4791880.830313993,4196795.070229163,3.03291,2.80559,-0.273005,-108.24,40.4323,33.7985,-0.281706,-9.14145,7.55606,0.0303819,0.0334091,0.0506614,4,0,41.38969849765599,-91.7572259823547,8959.598435246999,-66.79791770280552,-2.229525243625881,39.503995837189365,201.979,9140.793540731764,11002.764919195506,150,False,21.01788333692514,False,165.3836453206883,179.2164858165511,False,15.160178663843174,True,False
3,1970-07-23 10:29:46.692266785,2025-09-12,2025-09-26 17:37:49.226,AA,D,3189548012,JASSM,3,127,76,2,2,1,225,9,2,0,1,26,0,0,0,0,-185308.97888358065,-4786544.959932174,4201815.063932896,-2.30145,-0.152919,0.128471,88.875,-13.625,-11.5,0.0,0.0,0.0,0.0,0.0,0.0,2,0,41.44742186234843,-92.21707363561444,10002.624149696314,99.83751140092494,-0.0044509358148342,0.0050512023790905,,9140.793540731764,11002.764919195506,150,3,2025-09-12,2025-09-26 17:37:49.297,AA,D,2378382710,AMBUSH51,1,1,48,2,1,1,225,2,1,0,0,9,1,225,2,1,-147108.99623506347,-4791840.954980832,4196828.307995117,3.07365,2.75879,-0.316299,-105.148,44.8248,38.5955,-0.343906,-9.74417,8.07826,0.0209027,0.0456535,0.0531665,4,0,41.39014204901781,-91.7584219114896,8941.063140358227,-63.22795814575551,-2.306330977590424,40.91802761643304,202.162,9140.793540731764,11002.764919195506,150,False,20.911662383737266,False,161.98279190638746,179.18009897765083,False,18.594795176724944,True,False
3,1970-07-23 10:29:46.702407528,2025-09-12,2025-09-26 17:37:50.240,AA,D,3190741060,JASSM,3,127,76,2,2,1,225,9,2,0,1,26,0,0,0,0,-185220.0159929556,-4786558.682588424,4201803.433073521,-2.30145,-0.152919,0.128471,88.875,-13.625,-11.5,0.0,0.0,0.0,0.0,0.0,0.0,2,0,41.44728221343031,-92.21600398043005,10002.625526672671,99.8382194395009,-0.0036370899418879,0.0050505988574746,,9140.793540731764,11002.764919195506,150,3,2025-09-12,2025-09-26 17:37:50.165,AA,D,2379416642,AMBUSH51,1,1,48,2,1,1,225,2,1,0,0,9,1,225,2,1,-147199.15056240058,-4791799.396738123,4196863.9845713,3.09932,2.713,-0.361209,-101.44,49.3249,43.5406,-0.416211,-10.2446,8.81709,0.0236512,0.0538968,0.0388811,4,0,41.39061366206684,-91.75951411636557,8923.024111199653,-59.65795157287219,-2.1928042277259925,41.37611252966072,202.052,9140.793540731764,11002.764919195506,150,False,20.809783174478063,False,158.3725319611992,179.13807703111803,False,22.24978240924904,True,False
3,1970-07-23 10:29:46.712427769,2025-09-12,2025-09-26 17:37:51.242,AA,D,3191934106,JASSM,3,127,76,2,2,1,225,9,2,0,1,26,0,0,0,0,-185131.05310233065,-4786572.403291549,4201791.802214146,-2.30145,-0.152919,0.128471,88.875,-13.625,-11.5,0.0,0.0,0.0,0.0,0.0,0.0,2,0,41.447142566189655,-92.21493433073626,10002.626333852542,99.83892747247909,-0.0028232467029185,0.0050500066374372,,9140.793540731764,11002.764919195506,150,3,2025-09-12,2025-09-26 17:37:51.331,AA,D,2380808474,AMBUSH51,1,1,48,2,1,1,225,2,1,0,0,9,1,225,2,1,-147313.49842155044,-4791738.627338469,4196918.774751294,-3.13817,2.64635,-0.433983,-95.2651,54.336,51.081,-0.32417,-11.0485,9.46515,0.00702929,0.0584491,0.055143,4,0,41.39132416736516,-91.76090240692672,8901.020619233694,-54.23832354621936,-1.5415742653415272,42.33752157126521,201.942,9140.793540731764,11002.764919195506,150,False,20.69245966275723,False,153.26660469109163,179.07055979525487,False,27.41916911510207,True,False
3,1970-07-23 10:29:46.723468983,2025-09-12,2025-09-26 17:37:52.346,AA,D,3193246458,JASSM,3,127,76,2,2,1,225,9,2,0,1,26,0,0,0,0,-185033.19372733065,-4786587.495088424,4201779.005339146,-2.30145,-0.152919,0.128567,88.875,-13.625,-11.5,0.0,0.0,0.0,0.0,0.0,0.0,2,0,41.44698892882902,-92.21375771948858,10002.623326419964,99.84379695990911,-0.0055942884896673,0.005049073163099,,9140.793540731764,11002.764919195506,150,3,2025-09-12,2025-09-26 17:37:52.231,AA,D,2381882174,AMBUSH51,1,1,48,2,1,1,225,2,1,0,0,9,1,225,2,1,-147396.02328049214,-4791687.91562796,4196966.893187734,-3.12519,2.58912,-0.488951,-89.6797,58.2834,56.8835,-0.305226,-11.3895,9.88696,-0.00944694,0.0661452,0.0633655,4,0,41.3919356082815,-91.7619068757124,8886.888934103295,-49.95355702900869,-1.1175479218535047,41.520976423155616,201.722,9140.793540731764,11002.764919195506,150,False,20.588299875573732,False,149.06156520976597,179.00724217248808,False,31.691846139348343,False,False
3,1970-07-23 10:29:46.734486144,2025-09-12,2025-09-26 17:37:53.448,AA,D,3194558808,JASSM,3,127,76,2,2,1,225,9,2,0,1,26,0,0,0,0,-184935.33435233065,-4786602.586885299,4201766.208464146,-2.30145,-0.152919,0.128567,88.875,-13.625,-11.5,0.0,0.0,0.0,0.0,0.0,0.0,2,0,41.44683527943048,-92.21258111379234,10002.625436993152,99.84457578564464,-0.0046990570678632,0.0050484720870844,,9140.793540731764,11002.764919195506,150,3,2025-09-12,2025-09-26 17:37:53.498,AA,D,2383393304,AMBUSH51,1,1,48,2,1,1,225,2,1,0,0,9,1,225,2,1,-147504.05753299495,-4791609.906285912,4197044.856431322,-3.11661,2.51166,-0.573419,-80.5359,62.4531,65.5155,-0.426377,-11.6528,10.2959,-0.104451,0.0724952,0.0563768,4,0,41.39290625321442,-91.76322614197412,8872.283626943232,-43.92572051607888,0.1898982974707415,39.712211181421175,200.952,9140.793540731764,11002.764919195506,150,False,20.466786348982918,False,142.92346791278504,178.90014850484445,False,37.93807924411403,False,False
3,1970-07-23 10:29:46.745246240,2025-09-12,2025-09-26 17:37:54.524,AA,D,3195871160,JASSM,3,127,76,2,2,1,225,9,2,0,1,26,0,0,0,0,-184837.47497733065,-4786617.676729049,4201753.411589146,-2.30145,-0.152919,0.128567,88.875,-13.625,-11.5,0.0,0.0,0.0,0.0,0.0,0.0,2,0,41.44668162962041,-92.21140451454995,10002.627865985169,99.84535460473283,-0.0038038282761821,0.0050478823044594,,9140.793540731764,11002.764919195506,150,3,2025-09-12,2025-09-26 17:37:54.531,AA,D,2384626070,AMBUSH51,1,1,48,2,1,1,225,2,1,0,0,9,1,225,2,1,-147582.3139673412,-4791544.898005057,4197115.094321635,3.01076,2.45053,-0.642605,-73.1739,63.9227,71.9324,-0.258388,-11.9036,10.4519,-0.182858,0.055089,0.0331595,4,0,41.3937528451781,-91.7641849283564,8870.658122774455,-39.237286976722,1.6004414998341518,28.85591734596789,200.402,9140.793540731764,11002.764919195506,150,False,20.362563492131688,False,138.45427480729808,178.80048138945287,False,42.50368594967795,False,False
3,1970-07-23 10:29:46.757394615,2025-09-12,2025-09-26 17:37:55.739,AA,D,3197185584,JASSM,3,127,76,2,2,1,225,9,2,0,1,26,0,0,0,0,-184739.4613054556,-4786632.788057174,4201740.591276646,-2.30145,-0.152919,0.128567,88.875,-13.625,-11.5,0.0,0.0,0.0,0.0,0.0,0.0,2,0,41.44652771722628,-92.2102260667698,10002.62267650773,99.8461346450327,-0.0029071873100401,0.0050472832756879,,9140.793540731764,11002.764919195506,150,3,2025-09-12,2025-09-26 17:37:55.897,AA,D,2386256502,AMBUSH51,1,1,48,2,1,1,225,2,1,0,0,9,1,225,2,1,-147677.71305354522,-4791457.445366704,4197219.30395275,2.7032,2.43793,-0.707251,-66.5901,61.9707,78.6647,0.0733031,-10.7669,9.43107,-0.234979,0.0281452,0.0240382,4,0,41.39495916296509,-91.76535679853475,8888.825964137157,-36.59262766456133,4.258616094620979,10.918123495959271,198.325,9140.793540731764,11002.764919195506,150,False,20.2455730387404,False,134.69532924003792,178.6530796642073,False,46.393528954164836,False,False
3,1970-07-23 10:29:46.767386146,2025-09-12,2025-09-26 17:37:56.738,AA,D,3198555514,JASSM,3,127,76,2,2,1,225,9,2,0,1,26,0,0,0,0,-184637.30700858065,-4786648.538057174,4201727.229948521,-2.30145,-0.152823,0.128567,88.875,-13.625,-11.5,0.0,0.0,0.0,0.0,0.0,0.0,2,0,41.44636729211352,-92.20899784080798,10002.624706601566,99.84331164298143,-0.0060295843062502,0.0043426186505008,,9140.793540731764,11002.764919195506,150,3,2025-09-12,2025-09-26 17:37:56.731,AA,D,2387250668,AMBUSH51,1,1,48,2,1,1,225,2,1,0,0,9,1,225,2,1,-147731.40749459612,-4791406.553648144,4197285.079454316,2.57628,2.44699,-0.725992,-64.6772,60.2038,80.8734,-0.036137,-9.70841,8.85962,-0.101243,0.0157928,-0.0167665,4,0,41.39569613977768,-91.76601700743488,8910.40123303767,-36.27317399426391,5.357005494576927,4.013610558876172,197.311,9140.793540731764,11002.764919195506,150,True,20.153499383933255,False,133.67797528872055,178.5580708931098,False,47.500446369565914,False,False
3,1970-07-23 10:29:46.778404560,2025-09-12,2025-09-26 17:37:57.840,AA,D,3199808214,JASSM,3,127,76,2,2,1,225,9,2,0,1,26,0,0,0,0,-184543.8948992056,-4786662.938447799,4201715.011198521,-2.30145,-0.152823,0.128567,88.875,-13.625,-11.5,0.0,0.0,0.0,0.0,0.0,0.0,2,0,41.44622058904008,-92.20787473039714,10002.625269776743,99.84405504973049,-0.0051750406272676,0.0043419998894759,,9140.793540731764,11002.764919195506,150,3,2025-09-12,2025-09-26 17:37:57.832,AA,D,2388562966,AMBUSH51,1,1,48,2,1,1,225,2,1,0,0,9,1,225,2,1,-147801.89718584175,-4791340.611012864,4197375.559795273,2.50121,2.46821,-0.737447,-63.3892,57.9273,82.2856,-0.10455,-8.44745,7.89595,0.015851,0.0111801,0.00313442,4,0,41.39668635657572,-91.76688342593566,8949.828779263155,-36.60665740221837,6.425417080240568,0.4906621316103371,195.465,9140.793540731764,11002.764919195506,150,True,20.054871474965744,False,133.12283688518664,178.42866343824383,False,48.18449676742328,False,False
3,1970-07-23 10:29:46.789428205,2025-09-12,2025-09-26 17:37:58.942,AA,D,3201120564,JASSM,3,127,76,2,2,1,225,9,2,0,1,26,0,0,0,0,-184446.0355242056,-4786678.024385299,4201702.208464146,-2.30145,-0.152823,0.128567,88.875,-13.625,-11.5,0.0,0.0,0.0,0.0,0.0,0.0,2,0,41.44606687480559,-92.20669815516726,10002.625847040928,99.84483384347304,-0.0042798103274892,0.0043413368457358,,9140.793540731764,11002.764919195506,150,3,2025-09-12,2025-09-26 17:37:58.931,AA,D,2389875264,AMBUSH51,1,1,48,2,1,1,225,2,1,0,0,9,1,225,2,1,-147871.03904328667,-4791277.038182093,4197466.076002652,2.56494,2.46787,-0.739623,-62.3798,56.8255,82.6971,-0.131323,-7.50638,7.03014,0.0789617,0.0101252,0.00694398,4,0,41.39766295507511,-91.76773289115468,8995.07025815914,-36.52000417453743,6.517308719275393,4.138496990276575,193.828,9140.793540731764,11002.764919195506,150,True,19.954824878325535,False,132.74643831029988,178.29644067645688,False,48.70422738095439,False,False
3,1970-07-23 10:29:46.800446391,2025-09-12,2025-09-26 17:38:00.044,AA,D,3202492568,JASSM,3,127,76,2,2,1,225,9,2,0,1,26,0,0,0,0,-184343.7269304556,-4786693.793916549,4201688.823698521,-2.30145,-0.152823,0.128567,88.875,-13.625,-11.5,0.0,0.0,0.0,0.0,0.0,0.0,2,0,41.44590617301851,-92.20546809343156,10002.626393169356,99.84564803823736,-0.0033438811445298,0.0043406572674965,,9140.793540731764,11002.764919195506,150,3,2025-09-12,2025-09-26 17:38:00.031,AA,D,2391187564,AMBUSH51,1,1,48,2,1,1,225,2,1,0,0,9,1,225,2,1,-147937.841148025,-4791214.541075639,4197555.902182559,2.71535,2.45936,-0.746352,-60.5029,56.8398,82.8945,-0.194817,-6.84149,6.46932,0.151502,-0.00675049,0.00929298,4,0,41.39862891479009,-91.76855402800663,9041.291747533933,-35.99817505316728,6.609804193725258,12.48609427902574,192.374,9140.793540731764,11002.764919195506,150,False,19.853836648387702,False,131.92249154163503,178.16051360312005,False,49.68308995016285,False,False
3,1970-07-23 10:29:46.811265682,2025-09-12,2025-09-26 17:38:01.126,AA,D,3203804920,JASSM,3,127,76,2,2,1,225,9,2,0,1,26,0,0,0,0,-184245.8675554556,-4786708.875947799,4201676.019011021,-2.30145,-0.152823,0.128567,88.875,-13.625,-11.5,0.0,0.0,0.0,0.0,0.0,0.0,2,0,41.44575244423912,-92.20429153136028,10002.623598284888,99.8464268184086,-0.0024486538468078,0.0043400038271437,,9140.793540731764,11002.764919195506,150,3,2025-09-12,2025-09-26 17:38:01.097,AA,D,2392460096,AMBUSH51,1,1,48,2,1,1,225,2,1,0,0,9,1,225,2,1,-148001.72422453115,-4791151.50492914,4197644.524359755,2.86816,2.41287,-0.737448,-58.1693,58.7773,82.4705,-0.277625,-5.49458,5.23004,0.117634,-0.0138786,0.0281848,4,0,41.399590479019,-91.76934051009135,9083.36158534055,-34.70545700760798,5.042472182799199,19.57283458277113,190.858,9140.793540731764,11002.764919195506,150,False,19.757012523726,False,130.8115735632299,178.02010441346212,False,50.969390666105944,False,False
3,1970-07-23 10:29:46.822387816,2025-09-12,2025-09-26 17:38:02.238,AA,D,3205117270,JASSM,3,127,76,2,2,1,225,9,2,0,1,26,0,0,0,0,-184148.0081804556,-4786723.957979049,4201663.214323521,-2.30145,-0.152823,0.128663,88.875,-13.625,-11.5,0.0,0.0,0.0,0.0,0.0,0.0,2,0,41.44559870342285,-92.20311497484332,10002.625921357294,99.85129629363648,-0.00521964897497,0.0043391085547847,,9140.793540731764,11002.764919195506,150,3,2025-09-12,2025-09-26 17:38:02.097,AA,D,2393653094,AMBUSH51,1,1,48,2,1,1,225,2,1,0,0,9,1,225,2,1,-148058.6890359684,-4791090.710264696,4197725.825936724,3.02759,2.37258,-0.725497,-55.6164,62.0081,81.3338,-0.227069,-4.88538,4.78867,0.08532,-0.0317072,0.0169225,4,0,41.40049054960553,-91.7700435292576,9114.543856629523,-33.67527078051583,3.506138079976071,27.24196806593024,190.076,9140.793540731764,11002.764919195506,150,False,19.6645607014715,False,129.57494158674857,177.88333528548395,False,52.3853613801515,False,False
3,1970-07-23 10:29:46.834385857,2025-09-12,2025-09-26 17:38:03.438,AA,D,3206489272,JASSM,3,127,76,2,2,1,225,9,2,0,1,26,0,0,0,0,-184045.6995867056,-4786739.723604049,4201649.825651646,-2.30145,-0.152823,0.128663,88.875,-13.625,-11.5,0.0,0.0,0.0,0.0,0.0,0.0,2,0,41.44543796021193,-92.20188493258908,10002.624680427978,99.85211046797744,-0.0042837204663607,0.0043384923675863,,9140.793540731764,11002.764919195506,150,3,2025-09-12,2025-09-26 17:38:03.397,AA,D,2395203992,AMBUSH51,1,1,48,2,1,1,225,2,1,0,0,9,1,225,2,1,-148128.67108900112,-4791006.024412421,4197829.2940331735,3.13794,2.29498,-0.707015,-52.0685,67.5129,79.4548,-0.0626661,-4.96357,4.68817,0.00907451,-0.00368161,0.0416129,4,0,41.40167999571264,-91.77091091515854,9136.051613239451,-31.408247552050724,0.8185375054904883,30.73011781868631,189.575,9140.793540731764,11002.764919195506,150,False,19.56013984040999,False,127.70651428341007,177.69674645214562,False,54.49525457610301,False,False
3,1970-07-23 10:29:46.844954358,2025-09-12,2025-09-26 17:38:04.495,AA,D,3207741972,JASSM,3,127,76,2,2,1,225,9,2,0,1,26,0,0,0,0,-183952.28845389312,-4786754.118135299,4201637.601042271,-2.30145,-0.152823,0.128663,88.875,-13.625,-11.5,0.0,0.0,0.0,0.0,0.0,0.0,2,0,41.44529118280425,-92.20076186859848,10002.627746887098,99.85285383032264,-0.003429186385292,0.0043379277085801,,9140.793540731764,11002.764919195506,150,3,2025-09-12,2025-09-26 17:38:04.631,AA,D,2396675358,AMBUSH51,1,1,48,2,1,1,225,2,1,0,0,9,1,225,2,1,-148190.8470301135,-4790918.933181021,4197926.483776992,3.12046,2.22964,-0.697369,-48.3675,72.4055,78.1995,-0.359353,-5.39002,5.19822,-0.107362,-0.00703969,0.0600428,4,0,41.402842795957405,-91.77168595392568,9137.437962951362,-29.20096322792796,-1.077382199367642,27.30514277755679,190.467,9140.793540731764,11002.764919195506,150,False,19.46515462508427,False,125.65920112429914,177.50788062421012,False,56.767551336729234,False,False
3,1970-07-23 10:29:46.855430822,2025-09-12,2025-09-26 17:38:05.543,AA,D,3209054324,JASSM,3,127,76,2,2,1,225,9,2,0,1,26,0,0,0,0,-183854.42810233065,-4786769.196260299,4201624.792448521,-2.30145,-0.152727,0.128663,88.875,-13.625,-11.5,0.0,0.0,0.0,0.0,0.0,0.0,2,0,41.445137403001816,-92.19958531887062,10002.627249417828,99.84999669909686,-0.006590862533408,0.003632807294507,,9140.793540731764,11002.764919195506,150,3,2025-09-12,2025-09-26 17:38:05.697,AA,D,2397947890,AMBUSH51,1,1,48,2,1,1,225,2,1,0,0,9,1,225,2,1,-148240.67564667165,-4790840.116171712,4198009.064117297,2.91224,2.16779,-0.695317,-45.8858,75.603,77.832,0.0370567,-5.9458,5.6465,-0.243441,-0.00268917,0.0393763,4,0,41.403860013703074,-91.772310435106,9126.547256776556,-26.839637277311688,-2.4294230711928524,13.02945274763428,191.445,9140.793540731764,11002.764919195506,150,False,19.375791202065432,False,124.20515753974756,177.33695539127095,False,58.41024435627164,False,False
3,1970-07-23 10:29:46.866466381,2025-09-12,2025-09-26 17:38:06.646,AA,D,3210366674,JASSM,3,127,76,2,2,1,225,9,2,0,1,26,0,0,0,0,-183756.56775076807,-4786784.272432174,4201611.983854771,-2.30145,-0.152727,0.128663,88.875,-13.625,-11.5,0.0,0.0,0.0,0.0,0.0,0.0,2,0,41.44498362278877,-92.19840877559508,10002.627070248223,99.85077545502855,-0.0056956299754618,0.0036321705022836,,9140.793540731764,11002.764919195506,150,3,2025-09-12,2025-09-26 17:38:06.564,AA,D,2398981822,AMBUSH51,1,1,48,2,1,1,225,2,1,0,0,9,1,225,2,1,-148279.9617152085,-4790773.878835706,4198076.769716637,2.75332,2.15663,-0.695522,-44.9374,76.9471,78.0824,0.0874829,-6.52672,6.12895,-0.156947,-0.0079073,-0.00831718,4,0,41.40470391397518,-91.7728043199225,9113.527154576184,-26.39268174161805,-2.6329350979506247,3.494110946087066,192.911,9140.793540731764,11002.764919195506,150,True,19.29373699778218,False,123.5807057658212,177.19144805082746,False,59.18630413842043,False,False
3,1970-07-23 10:29:46.877486427,2025-09-12,2025-09-26 17:38:07.748,AA,D,3211679026,JASSM,3,127,76,2,2,1,225,9,2,0,1,26,0,0,0,0,-183658.7073992056,-4786799.348604049,4201599.173307896,-2.30145,-0.152727,0.128663,88.875,-13.625,-11.5,0.0,0.0,0.0,0.0,0.0,0.0,2,0,41.44482981736342,-92.19723223787578,10002.627767719634,99.85155420490656,-0.0048003951393843,0.0036315206823917,,9140.793540731764,11002.764919195506,150,3,2025-09-12,2025-09-26 17:38:07.897,AA,D,2400572486,AMBUSH51,1,1,48,2,1,1,225,2,1,0,0,9,1,225,2,1,-148340.01066985866,-4790669.807749912,4198181.770477197,2.65231,2.16405,-0.690906,-45.1469,78.0154,78.4916,-0.0467844,-7.04559,6.65489,-0.000485819,-0.00284313,-0.00839416,4,0,41.40602084667076,-91.77356029715892,9089.964901367288,-26.80365573475004,-2.726479156646445,-2.002481061022753,194.598,9140.793540731764,11002.764919195506,150,True,19.19664996221923,False,123.48892671196188,176.96579614288953,False,59.508708148776364,False,False
3,1970-07-23 10:29:46.889226598,2025-09-12,2025-09-26 17:38:08.922,AA,D,3213051028,JASSM,3,127,76,2,2,1,225,9,2,0,1,26,0,0,0,0,-183556.39978201807,-4786815.108369674,4201585.778776646,-2.30145,-0.152727,0.128663,88.875,-13.625,-11.5,0.0,0.0,0.0,0.0,0.0,0.0,2,0,41.44466900636154,-92.19600223902545,10002.626248771578,99.8523683381453,-0.0038644763191411,0.003630838219218,,9140.793540731764,11002.764919195506,150,3,2025-09-12,2025-09-26 17:38:09.031,AA,D,2401924552,AMBUSH51,1,1,48,2,1,1,225,2,1,0,0,9,1,225,2,1,-148390.54348675357,-4790581.626832061,4198270.223356587,2.69245,2.16276,-0.690875,-45.4747,78.6774,78.9298,-0.112162,-7.08165,6.56924,0.0897496,-0.00997541,0.00742044,4,0,41.40713328322549,-91.77419672030524,9068.864841952322,-26.75329237274577,-2.752038757433785,0.2474264106332252,195.807,9140.793540731764,11002.764919195506,150,True,19.10421919319997,False,123.4951512723249,176.77107525807713,False,59.699870975168544,False,False
3,1970-07-23 10:29:46.899268597,2025-09-12,2025-09-26 17:38:09.926,AA,D,3214303728,JASSM,3,127,76,2,2,1,225,9,2,0,1,26,0,0,0,0,-183462.98767264312,-4786829.495088424,4201573.548307896,-2.30145,-0.152727,0.128663,88.875,-13.625,-11.5,0.0,0.0,0.0,0.0,0.0,0.0,2,0,41.4445221787069,-92.19487919346552,10002.62172667784,99.8531116769915,-0.0030099374196343,0.0036302272432892,,9140.793540731764,11002.764919195506,150,3,2025-09-12,2025-09-26 17:38:09.898,AA,D,2402958484,AMBUSH51,1,1,48,2,1,1,225,2,1,0,0,9,1,225,2,1,-148429.99632395027,-4790512.101507783,4198340.014073404,2.75607,2.16038,-0.693815,-45.3306,79.0261,79.8142,-0.265254,-7.4072,7.06628,0.051192,0.00603685,-0.00383766,4,0,41.40801078696487,-91.77469386681663,9052.316234546464,-26.585653541655883,-2.645340925510293,3.7977649683807,196.565,9140.793540731764,11002.764919195506,150,True,19.024727432261283,False,123.2723527616495,176.61464822830396,False,60.07877037362413,False,False
3,1970-07-23 10:29:46.911265179,2025-09-12,2025-09-26 17:38:11.126,AA,D,3215675732,JASSM,3,127,76,2,2,1,225,9,2,0,1,26,0,0,0,0,-183360.67907889312,-4786845.252900924,4201560.153776646,-2.30145,-0.152727,0.128663,88.875,-13.625,-11.5,0.0,0.0,0.0,0.0,0.0,0.0,2,0,41.4443613543875,-92.19364919545777,10002.626017181468,99.85392580469998,-0.0020740126175284,0.0036295577400855,,9140.793540731764,11002.764919195506,150,3,2025-09-12,2025-09-26 17:38:11.065,AA,D,2404350316,AMBUSH51,1,1,48,2,1,1,225,2,1,0,0,9,1,225,2,1,-148482.11095321726,-4790419.356200599,4198433.8652957305,2.8554,2.14784,-0.708896,-44.3609,79.5736,81.1508,-0.212825,-7.88368,7.32734,0.082403,0.0100586,0.0159197,4,0,41.40918652718174,-91.77535092258,9031.842156308194,-25.71662844174101,-2.1025305508283254,8.989714517733326,198.068,9140.793540731764,11002.764919195506,150,True,18.931361267933372,False,122.60977504372585,176.40525843073692,False,60.950053128758896,False,False
3,1970-07-23 10:29:46.922384526,2025-09-12,2025-09-26 17:38:12.238,AA,D,3216988082,JASSM,3,127,76,2,2,1,225,9,2,0,1,26,0,0,0,0,-183262.81872733065,-4786860.323213424,4201547.339323521,-2.30145,-0.152727,0.128759,88.875,-13.625,-11.5,0.0,0.0,0.0,0.0,0.0,0.0,2,0,41.44420750879637,-92.19247268290438,10002.62453724324,99.85879527486712,-0.0048449528540721,0.0036287007511395,,9140.793540731764,11002.764919195506,150,3,2025-09-12,2025-09-26 17:38:12.064,AA,D,2405543316,AMBUSH51,1,1,48,2,1,1,225,2,1,0,0,9,1,225,2,1,-148525.4725347745,-4790339.608657749,4198515.662903093,2.89023,2.13547,-0.719884,-42.8471,79.9346,82.49,-0.112435,-7.64833,7.07275,0.00300958,0.0051089,0.0315137,4,0,41.410205178882656,-91.7758985955515,9016.520390139298,-24.964059088194876,-1.759209954572423,10.494854864618768,198.814,9140.793540731764,11002.764919195506,150,False,18.846598868991762,False,121.73799117234478,176.22086655876038,False,62.004655000062904,False,False
3,1970-07-23 10:29:46.933404423,2025-09-12,2025-09-26 17:38:13.340,AA,D,3218360086,JASSM,3,127,76,2,2,1,225,9,2,0,1,26,0,0,0,0,-183160.51013358065,-4786876.079072799,4201533.940886021,-2.30145,-0.152727,0.128759,88.875,-13.625,-11.5,0.0,0.0,0.0,0.0,0.0,0.0,2,0,41.44404664401297,-92.1912426976764,10002.626489791022,99.85960938907026,-0.0039090260944189,0.0036280833481478,,9140.793540731764,11002.764919195506,150,3,2025-09-12,2025-09-26 17:38:13.497,AA,D,2407253280,AMBUSH51,1,1,48,2,1,1,225,2,1,0,0,9,1,225,2,1,-148584.66596662105,-4790224.204606499,4198635.800855768,2.90656,2.10927,-0.736929,-40.4234,80.1255,84.8651,-0.236166,-7.88665,7.21376,-0.00999206,0.0125325,0.00388343,4,0,41.4116918699268,-91.7766486835715,8997.92547547596,-23.540709638302378,-1.3304648577181224,10.39308942332122,200.182,9140.793540731764,11002.764919195506,150,False,18.74762097959283,False,120.36811908523458,175.95301755309958,False,63.63725009508127,False,False
3,1970-07-23 10:29:46.944956128,2025-09-12,2025-09-26 17:38:14.495,AA,D,3219672430,JASSM,3,127,76,2,2,1,225,9,2,0,1,26,0,0,0,0,-183062.64978201807,-4786891.147432174,4201521.124479771,-2.30145,-0.152631,0.128759,88.875,-13.625,-11.5,0.0,0.0,0.0,0.0,0.0,0.0,2,0,41.443892772253086,-92.1900661973858,10002.626437361349,99.85675230136066,-0.0070707009960472,0.0029224825839836,,9140.793540731764,11002.764919195506,150,3,2025-09-12,2025-09-26 17:38:14.497,AA,D,2408446278,AMBUSH51,1,1,48,2,1,1,225,2,1,0,0,9,1,225,2,1,-148623.65784260305,-4790144.125249806,4198720.5853225775,2.88733,2.09336,-0.75024,-38.7178,80.2075,86.1338,-0.206374,-8.21705,7.52704,-0.0150229,0.0121767,0.0124888,4,0,41.41273346033199,-91.77714430614988,8987.955119360866,-22.62136870163254,-0.8980370062604777,8.656519605449041,200.659,9140.793540731764,11002.764919195506,150,True,18.66554433414479,False,119.46467270983189,175.7600122679317,False,64.73114213629081,False,False
3,1970-07-23 10:29:46.956946363,2025-09-12,2025-09-26 17:38:15.694,AA,D,3220925136,JASSM,3,127,76,2,2,1,225,9,2,0,1,26,0,0,0,0,-182969.23767264312,-4786905.530244674,4201508.888151646,-2.30145,-0.152631,0.128759,88.875,-13.625,-11.5,0.0,0.0,0.0,0.0,0.0,0.0,2,0,41.44374587035617,-92.1889431803814,10002.624240585825,99.85749560993608,-0.0062161605096276,0.0029218619058828,,9140.793540731764,11002.764919195506,150,3,2025-09-12,2025-09-26 17:38:15.764,AA,D,2409957410,AMBUSH51,1,1,48,2,1,1,225,2,1,0,0,9,1,225,2,1,-148671.51606575894,-4790041.708250105,4198831.069381999,2.85788,2.07741,-0.76009,-36.8519,80.2691,87.3529,-0.185813,-7.87816,7.08702,-0.0634613,0.0107182,0.00169256,4,0,41.41407979857386,-91.77775418165992,8979.50942726179,-21.788964798377723,-0.6358278423773064,6.330957090056279,200.842,9140.793540731764,11002.764919195506,150,True,18.579243113208683,False,118.50247631625237,175.51220436070753,False,65.93920011968181,False,False
3,1970-07-23 10:29:46.966467987,2025-09-12,2025-09-26 17:38:16.646,AA,D,3222237486,JASSM,3,127,76,2,2,1,225,9,2,0,1,26,0,0,0,0,-182871.37732108065,-4786920.596650924,4201496.069792271,-2.30145,-0.152631,0.128759,88.875,-13.625,-11.5,0.0,0.0,0.0,0.0,0.0,0.0,2,0,41.443591973522096,-92.18776669184888,10002.62515037312,99.85827430820996,-0.0053209297049808,0.0029212235953568,,9140.793540731764,11002.764919195506,150,3,2025-09-12,2025-09-26 17:38:16.530,AA,D,2410872042,AMBUSH51,1,1,48,2,1,1,225,2,1,0,0,9,1,225,2,1,-148699.50087066868,-4789980.237714494,4198898.084199699,2.81855,2.07321,-0.767326,-36.155,80.0175,87.9234,-0.341034,-8.06267,7.00345,-0.0919696,0.00196096,0.00620745,4,0,41.41489274547743,-91.7781114017402,8975.914561556338,-21.469816507598622,-0.3184990688385987,3.9084692692123735,201.062,9140.793540731764,11002.764919195506,150,True,18.505136298004455,False,118.15381391521282,175.35551299127098,False,66.44259506937786,False,False
3,1970-07-23 10:29:46.977229871,2025-09-12,2025-09-26 17:38:17.722,AA,D,3223549838,JASSM,3,127,76,2,2,1,225,9,2,0,1,26,0,0,0,0,-182773.5159929556,-4786935.661104049,4201483.251432896,-2.30145,-0.152631,0.128759,88.875,-13.625,-11.5,0.0,0.0,0.0,0.0,0.0,0.0,2,0,41.44343807650039,-92.18659019809604,10002.626286605033,99.8590530075592,-0.0044256929434951,0.0029205982950608,,9140.793540731764,11002.764919195506,150,3,2025-09-12,2025-09-26 17:38:17.797,AA,D,2412383174,AMBUSH51,1,1,48,2,1,1,225,2,1,0,0,9,1,225,2,1,-148745.1659030692,-4789878.876330702,4199009.334073907,2.58061,2.06611,-0.771396,-36.4569,79.5969,88.1555,0.170303,-7.54363,6.64414,-0.131058,0.00267669,-0.00446392,4,0,41.4162383719351,-91.7786947170773,8971.580048088634,-21.1116081078807,-0.2119984124902042,-10.009025970037348,201.062,9140.793540731764,11002.764919195506,150,False,18.418184480959166,False,118.29537935580643,175.10273283823392,False,66.55307262799448,False,False
3,1970-07-23 10:29:46.988565866,2025-09-12,2025-09-26 17:38:18.856,AA,D,3224862188,JASSM,3,127,76,2,2,1,225,9,2,0,1,26,0,0,0,0,-182675.65564139312,-4786950.725557174,4201470.429167271,-2.30145,-0.152631,0.128759,88.875,-13.625,-11.5,0.0,0.0,0.0,0.0,0.0,0.0,2,0,41.44328414086914,-92.18541372157488,10002.624150007978,99.8598316931262,-0.0035304602277408,0.0029199452687743,,9140.793540731764,11002.764919195506,150,3,2025-09-12,2025-09-26 17:38:18.830,AA,D,2413615940,AMBUSH51,1,1,48,2,1,1,225,2,1,0,0,9,1,225,2,1,-148783.69077956455,-4789796.625559111,4199099.943340386,2.49102,2.09913,-0.753052,-38.0603,78.8223,88.0963,-0.114929,-7.12841,6.39285,-0.0496149,-0.00720198,-0.0435978,4,0,41.41733227796616,-91.77918563367398,8968.910104479111,-22.780452071044813,-0.6496826130012812,-13.822995985887417,201.209,9140.793540731764,11002.764919195506,150,False,18.337020790439656,False,119.07067151139142,174.89273201625485,False,65.98575251383173,False,False
3,1970-07-23 10:29:46.998383701,2025-09-12,2025-09-26 17:38:19.838,AA,D,3226114888,JASSM,3,127,76,2,2,1,225,9,2,0,1,26,0,0,0,0,-182582.24353201807,-4786965.104463424,4201458.190886021,-2.30145,-0.152631,0.128759,88.875,-13.625,-11.5,0.0,0.0,0.0,0.0,0.0,0.0,2,0,41.44313720361699,-92.18429072734152,10002.627431606285,99.86057497764848,-0.0026759226926741,0.0029193341143496,,9140.793540731764,11002.764919195506,150,3,2025-09-12,2025-09-26 17:38:19.897,AA,D,2414888472,AMBUSH51,1,1,48,2,1,1,225,2,1,0,0,9,1,225,2,1,-148825.58212852466,-4789712.493769296,4199191.441455999,2.46616,2.12106,-0.748956,-40.5734,79.2912,86.2472,-0.223269,-7.30149,6.66071,0.0491676,0.000163327,-0.0162401,4,0,41.41844275274666,-91.77971749710846,8963.809439525037,-23.715699814723763,-0.4912141568132357,-14.380932397876412,201.392,9140.793540731764,11002.764919195506,150,False,18.25662404223913,False,120.34712138694914,174.6786892431328,False,64.93419870929361,False,False
