Subject_cm,Timestamp,SampleDate_cm,SampleTime_cm,Configuration_cm,Scenario_cm,DisTime_cm,MarkingTxt_cm,Application_cm,EntId_cm,Site_cm,ExerciseId_cm,ForceId_cm,Category_cm,Country_cm,Domain_cm,Kind_cm,Extra_cm,Specific_cm,Subcategory_cm,AltCategory_cm,AltCountry_cm,AltDomain_cm,AltKind_cm,ECEF_X_cm,ECEF_Y_cm,ECEF_Z_cm,OriPhi_cm,OriPsi_cm,OriTheta_cm,LinVelX_cm,LinVelY_cm,LinVelZ_cm,LinAccX_cm,LinAccY_cm,LinAccZ_cm,AngVelX_cm,AngVelY_cm,AngVelZ_cm,DrAlg_cm,Appearance_cm,Latitude_cm,Longitude_cm,Altitude_cm,Heading_cm,Pitch_cm,Roll_cm,CalibratedAirspeed_cm,CM_Altitude_Lead_cm,CM_Altitude_Wing_cm,CM_Airspeed_cm,Subject_ac,SampleDate_ac,SampleTime_ac,Configuration_ac,Scenario_ac,DisTime_ac,MarkingTxt_ac,Application_ac,EntId_ac,Site_ac,ExerciseId_ac,ForceId_ac,Category_ac,Country_ac,Domain_ac,Kind_ac,Extra_ac,Specific_ac,Subcategory_ac,AltCategory_ac,AltCountry_ac,AltDomain_ac,AltKind_ac,ECEF_X_ac,ECEF_Y_ac,ECEF_Z_ac,OriPhi_ac,OriPsi_ac,OriTheta_ac,LinVelX_ac,LinVelY_ac,LinVelZ_ac,LinAccX_ac,LinAccY_ac,LinAccZ_ac,AngVelX_ac,AngVelY_ac,AngVelZ_ac,DrAlg_ac,Appearance_ac,Latitude_ac,Longitude_ac,Altitude_ac,Heading_ac,Pitch_ac,Roll_ac,CalibratedAirspeed_ac,CM_Altitude_Lead_ac,CM_Altitude_Wing_ac,CM_Airspeed_ac,Bank_Angle_Condition,distance_nm,Distance_Condition,angle_between_vel,angle_between_pos,Cone_Condition,angle_between_pos_nose,Nose_Cone_Condition,Intercept_Criteria
3,1970-07-23 10:29:39.500946434,2025-09-12,2025-09-26 17:25:50.094,AA,C,2331389688,JASSM,3,118,76,2,2,1,225,9,2,0,1,26,0,0,0,0,-180597.20056326807,-4777974.079072799,4211696.831511021,-2.36693,-0.400848,0.381002,77.875,-32.875,-33.75,0.0,0.0,0.0,0.0,0.0,0.0,2,0,41.56617468348188,-92.16462745579632,10002.624722526938,119.7985168656927,-0.0032086320446128,0.0045535417353623,,9351.585978208032,10940.833293995036,150,3,2025-09-12,2025-09-26 17:25:50.108,AA,C,1520378010,AMBUSH51,1,1,48,2,1,1,225,2,1,0,0,9,1,225,2,1,-143982.64654203894,-4792147.179251744,4196777.617905234,2.26617,3.01093,-0.123818,-108.967,16.8106,15.0273,-0.104034,-7.27785,6.69641,0.00149283,0.00229178,0.00210244,4,0,41.388543184629135,-91.72096486324016,9350.882478024636,-80.87596666640464,0.393182984385278,-1.8730612200627916,189.196,9351.585978208032,10940.833293995036,150,True,22.588999016879434,False,160.47373476460234,178.1274668161361,False,17.708234965653276,True,False
3,1970-07-23 10:29:39.509297047,2025-09-12,2025-09-26 17:25:50.929,AA,C,2332642384,JASSM,3,118,76,2,2,1,225,9,2,0,1,26,0,0,0,0,-180515.37243826807,-4778008.768525924,4211661.224089146,-2.36693,-0.400848,0.381002,77.875,-32.875,-33.75,0.0,0.0,0.0,0.0,0.0,0.0,2,0,41.56574639634281,-92.16363190739835,10002.621682421684,119.79917739403626,-0.0023494192306769,0.0045520485540991,,9351.585978208032,10940.833293995036,150,3,2025-09-12,2025-09-26 17:25:50.841,AA,C,1521252876,AMBUSH51,1,1,48,2,1,1,225,2,1,0,0,9,1,225,2,1,-144062.6431966853,-4792134.8678429695,4196788.249133996,2.26402,3.01427,-0.122794,-109.142,16.7392,14.8006,-0.122175,-7.47006,6.92256,-0.00467198,0.00367953,0.00369618,4,0,41.38867389437036,-91.72192487570486,9349.568590998504,-81.04673714928177,0.4966712939139472,-1.9737652463031048,189.428,9351.585978208032,10940.833293995036,150,True,22.495891105298877,False,160.34655561280988,178.15616491410242,False,17.866623703006425,True,False
3,1970-07-23 10:29:39.520317993,2025-09-12,2025-09-26 17:25:52.031,AA,C,2333895084,JASSM,3,118,76,2,2,1,225,9,2,0,1,26,0,0,0,0,-180433.54528983065,-4778043.457979049,4211625.616667271,-2.36693,-0.400848,0.381098,77.875,-32.875,-33.75,0.0,0.0,0.0,0.0,0.0,0.0,2,0,41.56531810033234,-92.1626363838428,10002.623443400562,119.80367992111069,-0.0054162676764961,0.0045503192361212,,9351.585978208032,10940.833293995036,150,3,2025-09-12,2025-09-26 17:25:51.907,AA,C,1522525408,AMBUSH51,1,1,48,2,1,1,225,2,1,0,0,9,1,225,2,1,-144179.3301768361,-4792117.103085188,4196803.800523153,2.25937,3.01468,-0.122114,-109.425,16.3262,14.8205,-0.127712,-7.27247,6.6887,-0.0138557,-0.000358903,-0.00203794,4,0,41.38886368832868,-91.72332513385886,9348.22950237353,-81.09249217455202,0.4894756723212137,-2.2375335093544844,189.673,9351.585978208032,10940.833293995036,150,True,22.383698499254752,False,160.18592402142582,178.2005494457526,False,18.069482364681033,True,False
3,1970-07-23 10:29:39.530359357,2025-09-12,2025-09-26 17:25:53.035,AA,C,2335088130,JASSM,3,118,76,2,2,1,225,9,2,0,1,26,0,0,0,0,-180355.6136492056,-4778076.493135299,4211591.704557896,-2.36693,-0.400848,0.381098,77.875,-32.875,-33.75,0.0,0.0,0.0,0.0,0.0,0.0,2,0,41.5649102041072,-92.1616882672379,10002.622866157768,119.80430896888846,-0.0045979757789003,0.0045489628753419,,9351.585978208032,10940.833293995036,150,3,2025-09-12,2025-09-26 17:25:53.074,AA,C,1523917240,AMBUSH51,1,1,48,2,1,1,225,2,1,0,0,9,1,225,2,1,-144306.20900314106,-4792098.076331255,4196820.606480939,2.2601,3.02003,-0.124186,-109.589,15.9567,14.7683,-0.0376421,-7.52833,6.98648,-0.00185485,0.00681707,-0.00989011,4,0,41.389067617019485,-91.72484760067972,9347.269270073266,-81.20686895301,0.7964966196244986,-2.159914517068388,190.064,9351.585978208032,10940.833293995036,150,True,22.268734676942177,False,160.02460875539316,178.2501487773269,False,18.279646688871818,True,False
3,1970-07-23 10:29:39.540396387,2025-09-12,2025-09-26 17:25:54.039,AA,C,2336340834,JASSM,3,118,76,2,2,1,225,9,2,0,1,26,0,0,0,0,-180273.7855242056,-4778111.180635299,4211556.097136021,-2.36693,-0.400848,0.381098,77.875,-32.875,-33.75,0.0,0.0,0.0,0.0,0.0,0.0,2,0,41.5644819030807,-92.1606927585426,10002.628942512212,119.80496945448314,-0.0037387690431232,0.0045475369826616,,9351.585978208032,10940.833293995036,150,3,2025-09-12,2025-09-26 17:25:53.874,AA,C,1524871638,AMBUSH51,1,1,48,2,1,1,225,2,1,0,0,9,1,225,2,1,-144393.89552319067,-4792085.070354523,4196832.520034284,2.26004,3.02485,-0.124911,-109.71,15.5521,15.0128,-0.215105,-7.75605,7.14423,-0.0070813,0.00347771,-0.000319371,4,0,41.38920970586192,-91.72589973824851,9347.612049358862,-81.35865187474151,1.0297723324789698,-2.1311942342747665,189.978,9351.585978208032,10940.833293995036,150,True,22.171686524200137,False,159.96391256349852,178.28316605761117,False,18.36950435257831,True,False
3,1970-07-23 10:29:39.551281967,2025-09-12,2025-09-26 17:25:55.128,AA,C,2337653174,JASSM,3,118,76,2,2,1,225,9,2,0,1,26,0,0,0,0,-180188.06189139312,-4778147.516572799,4211518.790495396,-2.36693,-0.400848,0.381098,77.875,-32.875,-33.75,0.0,0.0,0.0,0.0,0.0,0.0,2,0,41.56403319280174,-92.15964987309349,10002.624350887052,119.80566136692144,-0.0028386545993186,0.0045460337573462,,9351.585978208032,10940.833293995036,150,3,2025-09-12,2025-09-26 17:25:55.041,AA,C,1526263470,AMBUSH51,1,1,48,2,1,1,225,2,1,0,0,9,1,225,2,1,-144522.93191220224,-4792066.890014394,4196850.001536393,2.25647,3.02913,-0.128596,-109.918,14.9172,15.15,0.0713279,-7.62199,6.9564,-0.000729248,0.00614296,0.000102989,4,0,41.38941274047356,-91.7274476896216,9350.374249366974,-81.36339799739207,1.3530948302689425,-2.30511048175935,190.211,9351.585978208032,10940.833293995036,150,True,22.050873340871124,False,159.77294444448083,178.33495907268755,False,18.608254729458285,True,False
3,1970-07-23 10:29:39.561277823,2025-09-12,2025-09-26 17:25:56.127,AA,C,2338846228,JASSM,3,118,76,2,2,1,225,9,2,0,1,26,0,0,0,0,-180110.13025076812,-4778180.549775924,4211484.876432896,-2.36693,-0.400848,0.381098,77.875,-32.875,-33.75,0.0,0.0,0.0,0.0,0.0,0.0,2,0,41.56362527036301,-92.15870179493712,10002.628189919214,119.80629037322058,-0.0020203623469737,0.0045446756617434,,9351.585978208032,10940.833293995036,150,3,2025-09-12,2025-09-26 17:25:56.174,AA,C,1527615536,AMBUSH51,1,1,48,2,1,1,225,2,1,0,0,9,1,225,2,1,-144646.72625958198,-4792050.247632484,4196867.235508703,2.26123,3.03824,-0.13016,-109.956,13.99,15.6551,-0.055975,-7.77841,7.19302,-0.0017529,0.0102771,0.00171961,4,0,41.38960587643498,-91.7289324766399,9356.002874325291,-81.64082073819259,1.800950117181517,-1.972606229716257,190.296,9351.585978208032,10940.833293995036,150,True,21.93775216218259,False,159.6210292236244,178.38582777951063,False,18.80277111943947,True,False
3,1970-07-23 10:29:39.571316474,2025-09-12,2025-09-26 17:25:57.131,AA,C,2340039274,JASSM,3,118,76,2,2,1,225,9,2,0,1,26,0,0,0,0,-180032.19861014312,-4778213.581025924,4211450.960417271,-2.36693,-0.400752,0.381098,77.875,-32.875,-33.75,0.0,0.0,0.0,0.0,0.0,0.0,2,0,41.563217338580216,-92.15775372958794,10002.627259140494,119.80327504430552,-0.0047685167261424,0.002500371156521,,9351.585978208032,10940.833293995036,150,3,2025-09-12,2025-09-26 17:25:57.341,AA,C,1529007368,AMBUSH51,1,1,48,2,1,1,225,2,1,0,0,9,1,225,2,1,-144775.44171979802,-4792033.881864682,4196885.607008203,2.25759,3.04949,-0.133137,-109.824,13.2178,16.0027,-0.0523021,-7.8572,7.23632,-0.000356822,0.0148856,-0.00293052,4,0,41.38980414421162,-91.73047595727598,9365.153523504312,-81.93786886914403,2.394071822826966,-2.1071423399521305,190.211,9351.585978208032,10940.833293995036,150,True,21.8221856296349,False,159.47510062210088,178.4400274071727,False,18.99753693305392,True,False
3,1970-07-23 10:29:39.583338478,2025-09-12,2025-09-26 17:25:58.333,AA,C,2341411278,JASSM,3,118,76,2,2,1,225,9,2,0,1,26,0,0,0,0,-179942.57751639312,-4778251.565400924,4211411.954557896,-2.36693,-0.400752,0.381098,77.875,-32.875,-33.75,0.0,0.0,0.0,0.0,0.0,0.0,2,0,41.56274820014791,-92.1566634733919,10002.622350828982,119.80399836720645,-0.0038274795652742,0.0024987397389783,,9351.585978208032,10940.833293995036,150,3,2025-09-12,2025-09-26 17:25:58.441,AA,C,1530319666,AMBUSH51,1,1,48,2,1,1,225,2,1,0,0,9,1,225,2,1,-144895.47377326112,-4792019.7933660615,4196903.054907194,2.25684,3.05752,-0.13655,-109.683,12.3399,16.2816,-0.0750323,-7.82183,7.19996,-0.00375235,0.00285146,-0.0103541,4,0,41.38998417168588,-91.73191489504876,9377.266155417989,-82.09383475439752,2.8660992368648626,-2.095674212819174,190.027,9351.585978208032,10940.833293995036,150,True,21.703938288364093,False,159.2591220522561,178.49126979264852,False,19.259641252871162,True,False
3,1970-07-23 10:29:39.594355559,2025-09-12,2025-09-26 17:25:59.435,AA,C,2342723628,JASSM,3,118,76,2,2,1,225,9,2,0,1,26,0,0,0,0,-179856.85290701812,-4778287.897432174,4211374.645964146,-2.36693,-0.400752,0.381098,77.875,-32.875,-33.75,0.0,0.0,0.0,0.0,0.0,0.0,2,0,41.56229946356461,-92.15562063376264,10002.623809696344,119.80469022563966,-0.0029273636548952,0.0024971917981643,,9351.585978208032,10940.833293995036,150,3,2025-09-12,2025-09-26 17:25:59.640,AA,C,1531751264,AMBUSH51,1,1,48,2,1,1,225,2,1,0,0,9,1,225,2,1,-145027.3908430091,-4792005.389191137,4196922.860188246,2.25404,3.06683,-0.139682,-109.312,11.1834,16.804,-0.0619084,-7.72944,7.13816,-0.00027984,0.00834422,0.00993588,4,0,41.39017983627735,-91.73349592679664,9394.608411347335,-82.30989141753801,3.3825712411538853,-2.194271286707432,189.551,9351.585978208032,10940.833293995036,150,True,21.582106986084042,False,159.02944304265748,178.54950393364564,False,19.54062180358303,True,False
3,1970-07-23 10:29:39.604377517,2025-09-12,2025-09-26 17:26:00.437,AA,C,2344035978,JASSM,3,118,76,2,2,1,225,9,2,0,1,26,0,0,0,0,-179771.12829764312,-4778324.229463424,4211337.335417271,-2.36693,-0.400752,0.381098,77.875,-32.875,-33.75,0.0,0.0,0.0,0.0,0.0,0.0,2,0,41.561850704337,-92.154577808563,10002.626187187563,119.80538206836464,-0.0020272411372228,0.0024956324041779,,9351.585978208032,10940.833293995036,150,3,2025-09-12,2025-09-26 17:26:00.443,AA,C,1532705664,AMBUSH51,1,1,48,2,1,1,225,2,1,0,0,9,1,225,2,1,-145114.59351924277,-4791996.481159045,4196936.276665144,2.25076,3.07428,-0.142378,-109.019,10.5303,17.0357,-0.0572015,-7.91162,7.12238,-0.00666935,0.0141595,0.00535025,4,0,41.39030770629508,-91.73454083637306,9408.290962387351,-82.47382257489076,3.802700006783831,-2.332449835029008,189.123,9351.585978208032,10940.833293995036,150,True,21.48337142166539,False,158.87840603319887,178.58750110482262,False,19.72662726279921,True,False
3,1970-07-23 10:29:39.615395677,2025-09-12,2025-09-26 17:26:01.539,AA,C,2345348330,JASSM,3,118,76,2,2,1,225,9,2,0,1,26,0,0,0,0,-179685.40368826812,-4778360.559541549,4211300.022917271,-2.36693,-0.400752,0.381194,77.875,-32.875,-33.75,0.0,0.0,0.0,0.0,0.0,0.0,2,0,41.56140193411808,-92.1535349986728,10002.624692139789,119.80991605651096,-0.0050530343155348,0.0024938641257033,,9351.585978208032,10940.833293995036,150,3,2025-09-12,2025-09-26 17:26:01.574,AA,C,1534057728,AMBUSH51,1,1,48,2,1,1,225,2,1,0,0,9,1,225,2,1,-145237.31852596125,-4791984.968163952,4196955.24694313,2.24996,3.07705,-0.145665,-108.706,9.45082,17.374,-0.071882,-7.75566,7.17376,-0.000296485,-0.00532944,0.0100566,4,0,41.39048215692822,-91.73601102767596,9430.26473392097,-82.43675431757738,4.046041353358303,-2.3530458318036924,188.377,9351.585978208032,10940.833293995036,150,True,21.366552307238063,False,158.58789420697656,178.6440946028749,False,20.06945963304536,True,False
3,1970-07-23 10:29:39.627255654,2025-09-12,2025-09-26 17:26:02.725,AA,C,2346660682,JASSM,3,118,76,2,2,1,225,9,2,0,1,26,0,0,0,0,-179599.67907889312,-4778396.887666549,4211262.710417271,-2.36693,-0.400752,0.381194,77.875,-32.875,-33.75,0.0,0.0,0.0,0.0,0.0,0.0,2,0,41.56095316605981,-92.15249220409112,10002.623575643483,119.81060786675263,-0.0041529177442029,0.0024923731661655,,9351.585978208032,10940.833293995036,150,3,2025-09-12,2025-09-26 17:26:02.707,AA,C,1535409794,AMBUSH51,1,1,48,2,1,1,225,2,1,0,0,9,1,225,2,1,-145360.74663008886,-4791974.337643616,4196974.775110537,2.24594,3.08426,-0.146081,-108.211,8.54555,17.5463,-0.166634,-7.63722,6.99748,-0.00308448,0.00249151,-0.00423921,4,0,41.39065497947664,-91.73748930291846,9455.680224275417,-82.68996156199591,4.3701808132048905,-2.541671162673883,187.302,9351.585978208032,10940.833293995036,150,True,21.249482435771018,False,158.3186592016554,178.70238918366223,False,20.394377230145917,True,False
3,1970-07-23 10:29:39.637298138,2025-09-12,2025-09-26 17:26:03.729,AA,C,2347913380,JASSM,3,118,76,2,2,1,225,9,2,0,1,26,0,0,0,0,-179517.85095389312,-4778431.565400924,4211227.093229771,-2.36693,-0.400752,0.381194,77.875,-32.875,-33.75,0.0,0.0,0.0,0.0,0.0,0.0,2,0,41.560524777635976,-92.151496821261,10002.627956428572,119.81126821739218,-0.0032937095465269,0.0024909417550477,,9351.585978208032,10940.833293995036,150,3,2025-09-12,2025-09-26 17:26:03.874,AA,C,1536801626,AMBUSH51,1,1,48,2,1,1,225,2,1,0,0,9,1,225,2,1,-145485.57952218544,-4791964.369739758,4196995.037097162,2.24777,3.09285,-0.150156,-107.582,7.73688,17.7572,-0.11963,-7.56376,7.05178,-0.0113777,-0.00645713,-0.00363376,4,0,41.39082854240271,-91.73898412316728,9484.430709056278,-82.8364108620643,4.89151561116933,-2.3761378136247027,186.508,9351.585978208032,10940.833293995036,150,True,21.134210191394995,False,158.10322006298367,178.76271875407448,False,20.667957259039348,True,False
3,1970-07-23 10:29:39.648295226,2025-09-12,2025-09-26 17:26:04.829,AA,C,2349225732,JASSM,3,118,76,2,2,1,225,9,2,0,1,26,0,0,0,0,-179432.12536795562,-4778467.891572799,4211189.778776646,-2.36693,-0.400752,0.381194,77.875,-32.875,-33.75,0.0,0.0,0.0,0.0,0.0,0.0,2,0,41.56007598974525,-92.15045404406744,10002.627812217175,119.811960004107,-0.0023935851800043,0.0024894536269344,,9351.585978208032,10940.833293995036,150,3,2025-09-12,2025-09-26 17:26:05.007,AA,C,1538153692,AMBUSH51,1,1,48,2,1,1,225,2,1,0,0,9,1,225,2,1,-145607.82629823373,-4791955.363732853,4197015.1829529,2.25143,3.09766,-0.151337,-107.012,7.09632,17.9057,-0.164094,-7.47127,7.12601,0.00214405,0.00543347,-0.0048946,4,0,41.390996047414845,-91.740447705327,9515.110628791552,-82.9660694682129,5.142126561120975,-2.136397400087111,185.591,9351.585978208032,10940.833293995036,150,True,21.01791435679216,False,157.9264553675286,178.82285976862983,False,20.90347840874201,True,False
3,1970-07-23 10:29:39.659316330,2025-09-12,2025-09-26 17:26:05.931,AA,C,2350538082,JASSM,3,118,76,2,2,1,225,9,2,0,1,26,0,0,0,0,-179346.40075858062,-4778504.215791549,4211152.462370396,-2.36693,-0.400657,0.381194,77.875,-32.875,-33.75,0.0,0.0,0.0,0.0,0.0,0.0,2,0,41.55962719064462,-92.1494112938735,10002.623885393805,119.8090077130921,-0.0050599086283568,0.0004445442011862,,9351.585978208032,10940.833293995036,150,3,2025-09-12,2025-09-26 17:26:06.007,AA,C,1539346690,AMBUSH51,1,1,48,2,1,1,225,2,1,0,0,9,1,225,2,1,-145713.35879679228,-4791948.107997955,4197032.782384083,2.25195,3.10483,-0.154929,-106.303,6.7028,17.8586,-0.010246,-7.41329,6.86909,-0.00294508,0.00493621,0.00347147,4,0,41.391138952906594,-91.74171099227776,9543.3300712784,-83.07951248503129,5.584613868355805,-2.054241587341685,184.54,9351.585978208032,10940.833293995036,150,True,20.910225666068662,False,157.800975538712,178.87532138918607,False,21.08100117492865,True,False
3,1970-07-23 10:29:39.670339133,2025-09-12,2025-09-26 17:26:07.033,AA,C,2351790782,JASSM,3,118,76,2,2,1,225,9,2,0,1,26,0,0,0,0,-179264.57263358062,-4778538.889619674,4211116.841276646,-2.36693,-0.400657,0.381194,77.875,-32.875,-33.75,0.0,0.0,0.0,0.0,0.0,0.0,2,0,41.55919877245376,-92.1484159534933,10002.624761671208,119.80966801836092,-0.0042006999742736,0.0004430547721079,,9351.585978208032,10940.833293995036,150,3,2025-09-12,2025-09-26 17:26:07.207,AA,C,1540778288,AMBUSH51,1,1,48,2,1,1,225,2,1,0,0,9,1,225,2,1,-145841.08650831704,-4791940.018012768,4197054.08412937,2.25039,3.11023,-0.153869,-105.579,6.06934,17.9126,-0.0460465,-7.41719,6.8807,-0.00446808,0.00062938,0.000895696,4,0,41.39130778603771,-91.74323972052338,9579.19608047337,-83.32818322884054,5.776073715098467,-2.1205152021424984,183.294,9351.585978208032,10940.833293995036,150,True,20.793822651748982,False,157.601174325366,178.94106361508568,False,21.345610306841195,True,False
3,1970-07-23 10:29:39.680377828,2025-09-12,2025-09-26 17:26:08.037,AA,C,2353043480,JASSM,3,118,76,2,2,1,225,9,2,0,1,26,0,0,0,0,-179182.74353201812,-4778573.561494674,4211081.220182896,-2.36693,-0.400657,0.381194,77.875,-32.875,-33.75,0.0,0.0,0.0,0.0,0.0,0.0,2,0,41.55877035748619,-92.1474206154446,10002.625467181691,119.8103283164908,-0.0033414901352429,0.0004415796288706,,9351.585978208032,10940.833293995036,150,3,2025-09-12,2025-09-26 17:26:08.240,AA,C,1542011054,AMBUSH51,1,1,48,2,1,1,225,2,1,0,0,9,1,225,2,1,-145949.7603044028,-4791933.478944375,4197072.350117218,2.25099,3.11158,-0.154442,-104.928,5.85379,17.7256,-0.163673,-7.22446,6.92437,-0.00911821,-0.0093658,-0.00328422,4,0,41.391450328691406,-91.7445402760484,9610.872943415718,-83.35465941081056,5.856378415056072,-2.077216519371896,182.353,9351.585978208032,10940.833293995036,150,True,20.687167276098023,False,157.5001683817673,178.99745146907694,False,21.50330059045564,True,False
3,1970-07-23 10:29:39.691255780,2025-09-12,2025-09-26 17:26:09.125,AA,C,2354355832,JASSM,3,118,76,2,2,1,225,9,2,0,1,26,0,0,0,0,-179097.01892264312,-4778609.883760299,4211043.901823521,-2.36693,-0.400657,0.381194,77.875,-32.875,-33.75,0.0,0.0,0.0,0.0,0.0,0.0,2,0,41.55832152927616,-92.146377908102,10002.62753748312,119.81102003297936,-0.0024413727209746,0.0004400262966478,,9351.585978208032,10940.833293995036,150,3,2025-09-12,2025-09-26 17:26:09.040,AA,C,1542965452,AMBUSH51,1,1,48,2,1,1,225,2,1,0,0,9,1,225,2,1,-146033.39445005305,-4791928.761794882,4197086.3109957725,2.24764,3.11541,-0.152116,-104.423,5.60586,17.5628,-0.211988,-7.21469,6.91669,-0.0106766,0.00201298,-0.00612631,4,0,41.39155749153812,-91.74554105555616,9635.821720272024,-83.59946025764607,5.933032605772925,-2.260309302465508,181.62,9351.585978208032,10940.833293995036,150,True,20.590875191137386,False,157.38005559865945,179.0409067871271,False,21.667028351106442,True,False
3,1970-07-23 10:29:39.702255163,2025-09-12,2025-09-26 17:26:10.225,AA,C,2355608530,JASSM,3,118,76,2,2,1,225,9,2,0,1,26,0,0,0,0,-179015.19079764312,-4778644.553682174,4211008.276823521,-2.36684,-0.400657,0.38129,77.875,-32.875,-33.75,0.0,0.0,0.0,0.0,0.0,0.0,2,0,41.55789308173115,-92.14538260954195,10002.624684950148,119.81552259602518,-0.0055079416138014,0.0059297678561767,,9351.585978208032,10940.833293995036,150,3,2025-09-12,2025-09-26 17:26:10.274,AA,C,1544436818,AMBUSH51,1,1,48,2,1,1,225,2,1,0,0,9,1,225,2,1,-146161.15354064756,-4791921.763283704,4197107.613159755,2.245,3.11858,-0.14809,-103.761,5.22187,17.4102,-0.0700164,-7.09438,6.86294,-0.00202546,0.00642384,-0.0102521,4,0,41.39171977738996,-91.74706976736805,9674.397692720764,-83.89386129007168,5.918082644558607,-2.414753107676923,180.422,9351.585978208032,10940.833293995036,150,True,20.47472823586522,False,157.21322965765674,179.1097671284607,False,21.90282818418763,True,False
3,1970-07-23 10:29:39.712297423,2025-09-12,2025-09-26 17:26:11.229,AA,C,2356861230,JASSM,3,118,76,2,2,1,225,9,2,0,1,26,0,0,0,0,-178933.36169608062,-4778679.221650924,4210972.653776646,-2.36684,-0.400657,0.38129,77.875,-32.875,-33.75,0.0,0.0,0.0,0.0,0.0,0.0,2,0,41.55746465056222,-92.14438731331174,10002.625912484062,119.81618284946872,-0.004648737667693,0.0059283583740513,,9351.585978208032,10940.833293995036,150,3,2025-09-12,2025-09-26 17:26:11.241,AA,C,1545590050,AMBUSH51,1,1,48,2,1,1,225,2,1,0,0,9,1,225,2,1,-146261.10986612443,-4791916.505795615,4197123.99723447,2.24308,3.12026,-0.145341,-103.161,5.28017,16.8248,-0.185508,-7.14544,6.7196,-0.00368369,0.00955721,-0.00222104,4,0,41.391843529188016,-91.7482657248155,9704.508657769611,-84.0769150614965,5.887386549219293,-2.529639652774218,179.469,9351.585978208032,10940.833293995036,150,True,20.37277816226376,False,157.10181527487308,179.1640328845355,False,22.070278747648757,True,False
3,1970-07-23 10:29:39.723319376,2025-09-12,2025-09-26 17:26:12.331,AA,C,2358173580,JASSM,3,118,76,2,2,1,225,9,2,0,1,26,0,0,0,0,-178847.63708670562,-4778715.540010299,4210935.331511021,-2.36684,-0.400657,0.38129,77.875,-32.875,-33.75,0.0,0.0,0.0,0.0,0.0,0.0,2,0,41.557015791744085,-92.14334464969434,10002.624937461404,119.81687451920158,-0.0037486195915623,0.0059268620291217,,9351.585978208032,10940.833293995036,150,3,2025-09-12,2025-09-26 17:26:12.273,AA,C,1546822816,AMBUSH51,1,1,48,2,1,1,225,2,1,0,0,9,1,225,2,1,-146367.34056997637,-4791910.873015254,4197141.318125395,2.24372,3.12121,-0.142331,-102.609,4.99752,16.713,-0.114257,-6.92042,6.65149,0.011411,-0.0030928,0.00148867,4,0,41.39197468563053,-91.74953677167092,9736.205308756777,-84.24411112111999,5.815719600469525,-2.502036899858227,178.638,9351.585978208032,10940.833293995036,150,True,20.265236573859315,False,156.98157488037265,179.22224331369418,False,22.249043735893693,True,False
3,1970-07-23 10:29:39.734334914,2025-09-12,2025-09-26 17:26:13.433,AA,C,2359426280,JASSM,3,118,76,2,2,1,225,9,2,0,1,26,0,0,0,0,-178765.80798514312,-4778750.206025924,4210899.704557896,-2.36684,-0.400657,0.38129,77.875,-32.875,-33.75,0.0,0.0,0.0,0.0,0.0,0.0,2,0,41.55658732821669,-92.14234938125776,10002.622517214288,119.81753474276148,-0.0028894087960431,0.005925439430806,,9351.585978208032,10940.833293995036,150,3,2025-09-12,2025-09-26 17:26:13.507,AA,C,1548294180,AMBUSH51,1,1,48,2,1,1,225,2,1,0,0,9,1,225,2,1,-146494.55138918725,-4791904.283092265,4197161.570935308,2.24423,3.12176,-0.138755,-101.968,5.09072,16.0849,-0.137248,-6.75843,6.57777,0.00598067,-0.00552502,-0.00968621,4,0,41.392127501366446,-91.75105878986012,9773.49123255782,-84.42107206733013,5.705946472530845,-2.4863811206053423,177.636,9351.585978208032,10940.833293995036,150,True,20.149702513064383,False,156.87037896941382,179.29357880051612,False,22.434123639341703,True,False
3,1970-07-23 10:29:39.746535812,2025-09-12,2025-09-26 17:26:14.653,AA,C,2360738630,JASSM,3,118,76,2,2,1,225,9,2,0,1,26,0,0,0,0,-178680.08239920562,-4778786.522432174,4210862.380339146,-2.36684,-0.400657,0.38129,77.875,-32.875,-33.75,0.0,0.0,0.0,0.0,0.0,0.0,2,0,41.5561384495682,-92.14130673502312,10002.622514898205,119.81822638897025,-0.0019892829209757,0.0059239459173286,,9351.585978208032,10940.833293995036,150,3,2025-09-12,2025-09-26 17:26:14.773,AA,C,1549805312,AMBUSH51,1,1,48,2,1,1,225,2,1,0,0,9,1,225,2,1,-146622.42547219846,-4791897.588052411,4197181.331664229,2.24541,3.12183,-0.132978,-101.281,5.14951,15.49,-0.0461097,-6.92411,6.34454,0.00429539,0.00921808,0.000783344,4,0,41.39227747858623,-91.75258877128203,9809.509472558802,-84.67528413001452,5.492472438375697,-2.4431081027304624,176.536,9351.585978208032,10940.833293995036,150,True,20.03152021262288,False,156.75343517511385,179.36598284789568,False,22.626415672705534,True,False
3,1970-07-23 10:29:39.758536749,2025-09-12,2025-09-26 17:26:15.853,AA,C,2362050980,JASSM,3,118,76,2,2,1,225,9,2,0,1,26,0,0,0,0,-178594.35778983062,-4778822.838838424,4210825.056120396,-2.36684,-0.400561,0.38129,77.875,-32.875,-33.75,0.0,0.0,0.0,0.0,0.0,0.0,2,0,41.55568956121319,-92.14026411490887,10002.62777203403,119.81527422613078,-0.0046555988104032,0.0038785181650468,,9351.585978208032,10940.833293995036,150,3,2025-09-12,2025-09-26 17:26:15.973,AA,C,1551236910,AMBUSH51,1,1,48,2,1,1,225,2,1,0,0,9,1,225,2,1,-146744.06696176424,-4791891.139527871,4197199.487092779,2.24494,3.1209,-0.126762,-100.683,5.15275,14.9509,-0.100281,-6.72161,6.48378,0.00198385,-0.00857933,-0.00283273,4,0,41.39241626557224,-91.75404421212222,9842.19073982144,-84.91110176889964,5.2198579897197925,-2.4988226642629794,175.742,9351.585978208032,10940.833293995036,150,True,19.9166134227675,False,156.61966285275787,179.43537731191367,False,22.83291382049315,True,False
3,1970-07-23 10:29:39.767255665,2025-09-12,2025-09-26 17:26:16.725,AA,C,2363363332,JASSM,3,118,76,2,2,1,225,9,2,0,1,26,0,0,0,0,-178508.63220389312,-4778859.151338424,4210787.729948521,-2.36684,-0.400561,0.38129,77.875,-32.875,-33.75,0.0,0.0,0.0,0.0,0.0,0.0,2,0,41.55524067373744,-92.139221499278,10002.62427529959,119.81596583986304,-0.00375547907294,0.0038769754811531,,9351.585978208032,10940.833293995036,150,3,2025-09-12,2025-09-26 17:26:16.706,AA,C,1552111776,AMBUSH51,1,1,48,2,1,1,225,2,1,0,0,9,1,225,2,1,-146817.56315894565,-4791887.205070513,4197210.021121471,2.24527,3.12065,-0.126115,-100.314,5.35153,14.3618,-0.11125,-6.66909,6.32149,0.00237708,-0.00499239,0.00366497,4,0,41.392497398826215,-91.75492360916964,9860.901715043025,-84.9301233013194,5.185150005134428,-2.4830803943762545,175.143,9351.585978208032,10940.833293995036,150,True,19.825946064302617,False,156.5356534377548,179.4769002989219,False,22.962125882736125,True,False
3,1970-07-23 10:29:39.778274998,2025-09-12,2025-09-26 17:26:17.827,AA,C,2364675684,JASSM,3,118,76,2,2,1,225,9,2,0,1,26,0,0,0,0,-178422.90661795562,-4778895.463838424,4210750.401823521,-2.36684,-0.400561,0.38129,77.875,-32.875,-33.75,0.0,0.0,0.0,0.0,0.0,0.0,2,0,41.554791763620045,-92.1381788980744,10002.621697821503,119.8166574378888,-0.0028553527247526,0.0038754213441324,,9351.585978208032,10940.833293995036,150,3,2025-09-12,2025-09-26 17:26:17.973,AA,C,1553622908,AMBUSH51,1,1,48,2,1,1,225,2,1,0,0,9,1,225,2,1,-146943.52991588897,-4791879.99931343,4197227.619954317,2.24965,3.11764,-0.120549,-99.8133,5.6727,13.6373,-0.0615684,-6.65495,6.42467,-0.00438902,-0.00156981,0.000960194,4,0,41.39263611279594,-91.75643099802735,9890.851356286446,-85.0592556100439,4.847724627165606,-2.264577571114554,174.116,9351.585978208032,10940.833293995036,150,True,19.70905873835802,False,156.4630904978776,179.54877207566605,False,23.113352613742972,True,False
3,1970-07-23 10:29:39.789297402,2025-09-12,2025-09-26 17:26:18.929,AA,C,2365988034,JASSM,3,118,76,2,2,1,225,9,2,0,1,26,0,0,0,0,-178337.18103201812,-4778931.776338424,4210713.073698521,-2.36684,-0.400561,0.38129,77.875,-32.875,-33.75,0.0,0.0,0.0,0.0,0.0,0.0,2,0,41.5543428440146,-92.13713631129852,10002.624290262473,119.81734902020683,-0.0019552263060922,0.0038738671660301,,9351.585978208032,10940.833293995036,150,3,2025-09-12,2025-09-26 17:26:18.773,AA,C,1554577308,AMBUSH51,1,1,48,2,1,1,225,2,1,0,0,9,1,225,2,1,-147023.34074473055,-4791875.169463048,4197238.373146866,2.25132,3.11581,-0.116342,-99.5979,5.91934,13.1782,-0.0638619,-6.55431,6.35903,-0.00135967,-0.00144081,-0.00337993,4,0,41.39272288054005,-91.7573861571508,9908.319286376074,-85.17326711554323,4.611468691864622,-2.190609604824832,173.86,9351.585978208032,10940.833293995036,150,True,19.615295611359194,False,156.42454558445576,179.59323759181862,False,23.20199826124926,True,False
3,1970-07-23 10:29:39.801741663,2025-09-12,2025-09-26 17:26:20.174,AA,C,2367240734,JASSM,3,118,76,2,2,1,225,9,2,0,1,26,0,0,0,0,-178255.35193045562,-4778966.436494674,4210677.442839146,-2.36684,-0.400561,0.381386,77.875,-32.875,-33.75,0.0,0.0,0.0,0.0,0.0,0.0,2,0,41.55391433520424,-92.1361411274884,10002.628378408155,119.82185159638055,-0.0050216613135446,0.0038721910841641,,9351.585978208032,10940.833293995036,150,3,2025-09-12,2025-09-26 17:26:20.006,AA,C,1556048672,AMBUSH51,1,1,48,2,1,1,225,2,1,0,0,9,1,225,2,1,-147146.4989856252,-4791867.380043486,4197254.164327251,2.25315,3.10987,-0.110616,-99.2426,6.33044,12.4079,-0.115277,-6.64607,6.34789,-0.00305535,-0.0155743,-0.00157397,4,0,41.392853341754176,-91.75886021417554,9932.712996133463,-85.19850254730049,4.142120718626845,-2.12612602511202,173.261,9351.585978208032,10940.833293995036,150,True,19.502457576289487,False,156.35060066696795,179.66099915631904,False,23.355546893918067,True,False
3,1970-07-23 10:29:39.810353221,2025-09-12,2025-09-26 17:26:21.035,AA,C,2368553084,JASSM,3,118,76,2,2,1,225,9,2,0,1,26,0,0,0,0,-178169.62634451812,-4779002.745088424,4210640.112761021,-2.36684,-0.400561,0.381386,77.875,-32.875,-33.75,0.0,0.0,0.0,0.0,0.0,0.0,2,0,41.55346540720397,-92.1350985706564,10002.627241308475,119.82254314694146,-0.0041215408351315,0.0038707053470142,,9351.585978208032,10940.833293995036,150,3,2025-09-12,2025-09-26 17:26:20.873,AA,C,1557082604,AMBUSH51,1,1,48,2,1,1,225,2,1,0,0,9,1,225,2,1,-147232.51838272912,-4791861.536519851,4197264.727693766,2.25385,3.09728,-0.100172,-99.144,6.75773,11.8527,-0.0308148,-5.70581,5.64085,-0.00561865,-0.0422975,0.00417055,4,0,41.392943702053365,-91.75988991299316,9947.753130496509,-85.17555461783509,3.2086866873698736,-2.1607267837196904,173.041,9351.585978208032,10940.833293995036,150,True,19.405715820861566,False,156.3357403631073,179.70539298901727,False,23.426782242629386,True,False
3,1970-07-23 10:29:39.821257353,2025-09-12,2025-09-26 17:26:22.125,AA,C,2369865436,JASSM,3,118,76,2,2,1,225,9,2,0,1,26,0,0,0,0,-178083.90075858062,-4779039.053682174,4210602.780729771,-2.36684,-0.400561,0.381386,77.875,-32.875,-33.75,0.0,0.0,0.0,0.0,0.0,0.0,2,0,41.55301645656292,-92.13405602825146,10002.62702362404,119.82323468179696,-0.0032214137446929,0.0038692081571811,,9351.585978208032,10940.833293995036,150,3,2025-09-12,2025-09-26 17:26:22.073,AA,C,1558514204,AMBUSH51,1,1,48,2,1,1,225,2,1,0,0,9,1,225,2,1,-147350.8236443358,-4791851.768337183,4197277.519830286,2.26111,3.06935,-0.078998,-99.1865,9.01375,9.71297,-0.0812671,-5.10805,4.94702,0.00484467,-0.0236803,0.00390216,4,0,41.39306653991616,-91.7613067293523,9960.419210975517,-85.03379271560601,1.212142637093694,-1.8822113609060147,173.212,9351.585978208032,10940.833293995036,150,True,19.292940290172005,False,156.43230907287025,179.75821305044212,False,23.41889432661796,True,False
3,1970-07-23 10:29:39.832295931,2025-09-12,2025-09-26 17:26:23.229,AA,C,2371177786,JASSM,3,118,76,2,2,1,225,9,2,0,1,26,0,0,0,0,-177998.17517264312,-4779075.360322799,4210565.448698521,-2.36684,-0.400561,0.381386,77.875,-32.875,-33.75,0.0,0.0,0.0,0.0,0.0,0.0,2,0,41.55256750808597,-92.133013501145,10002.627183858584,119.82392620036762,-0.0023212929438362,0.0038677207099694,,9351.585978208032,10940.833293995036,150,3,2025-09-12,2025-09-26 17:26:23.307,AA,C,1559985568,AMBUSH51,1,1,48,2,1,1,225,2,1,0,0,9,1,225,2,1,-147473.99554977493,-4791838.562595814,4197287.894076319,2.25918,3.04118,-0.0527965,-99.505,11.8466,7.11918,-0.137395,-4.8497,4.7371,-0.0037149,-0.026383,0.00568314,4,0,41.393192591559256,-91.76278294823472,9959.759074611731,-85.09232160330876,-0.9876566907155044,-2.0993299869493405,173.774,9351.585978208032,10940.833293995036,150,True,19.177788588802542,False,156.3954010786296,179.79214879854186,False,23.553213582963572,True,False
3,1970-07-23 10:29:39.843295955,2025-09-12,2025-09-26 17:26:24.329,AA,C,2372430486,JASSM,3,118,76,2,2,1,225,9,2,0,1,26,0,0,0,0,-177916.34607108062,-4779110.014619674,4210529.811979771,-2.36684,-0.400465,0.381386,77.875,-32.875,-33.75,0.0,0.0,0.0,0.0,0.0,0.0,2,0,41.5521389589562,-92.13201837440828,10002.623659914734,119.82094275456286,-0.0050285149585525,0.0018219075665981,,9351.585978208032,10940.833293995036,150,3,2025-09-12,2025-09-26 17:26:24.106,AA,C,1560939968,AMBUSH51,1,1,48,2,1,1,225,2,1,0,0,9,1,225,2,1,-147553.73892537944,-4791828.272267314,4197292.826735758,2.25607,3.02906,-0.0408176,-99.8521,13.5435,5.51918,0.0809465,-5.20738,5.02072,0.000970597,-0.0193235,0.00130973,4,0,41.39327249988816,-91.76373931831942,9951.183892817167,-85.1461232258624,-1.9616102222880951,-2.3090616496536445,174.666,9351.585978208032,10940.833293995036,150,True,19.086725627681474,False,156.25076221556142,179.79610503736075,False,23.761135394236412,True,False
3,1970-07-23 10:29:39.854314085,2025-09-12,2025-09-26 17:26:25.431,AA,C,2373742836,JASSM,3,118,76,2,2,1,225,9,2,0,1,26,0,0,0,0,-177830.62048514312,-4779146.319307174,4210492.477995396,-2.36684,-0.400465,0.381386,77.875,-32.875,-33.75,0.0,0.0,0.0,0.0,0.0,0.0,2,0,41.55168999043451,-92.13097587637009,10002.624882455928,119.82163424195554,-0.004128393934214,0.0018203611712633,,9351.585978208032,10940.833293995036,150,3,2025-09-12,2025-09-26 17:26:25.406,AA,C,1562490866,AMBUSH51,1,1,48,2,1,1,225,2,1,0,0,9,1,225,2,1,-147684.21146194809,-4791808.9807727,4197298.948928664,2.2555,3.01329,-0.0259538,-100.751,15.5297,3.70865,-0.0254246,-5.88006,5.75256,-0.0114318,-0.0195836,-0.00496326,4,0,41.39340467263375,-91.76530499874072,9926.894633606218,-85.18503901282351,-3.200830128779377,-2.3700478465863064,176.328,9351.585978208032,10940.833293995036,150,True,18.96797128633924,False,155.99636739455326,179.77046771221617,False,24.114404382411394,True,False
3,1970-07-23 10:29:39.865334788,2025-09-12,2025-09-26 17:26:26.533,AA,C,2375055188,JASSM,3,118,76,2,2,1,225,9,2,0,1,26,0,0,0,0,-177744.89489920562,-4779182.622041549,4210455.142057896,-2.36684,-0.400465,0.381386,77.875,-32.875,-33.75,0.0,0.0,0.0,0.0,0.0,0.0,2,0,41.55124101092354,-92.12993339362846,10002.62223243979,119.82232571306452,-0.0032282726566807,0.0018188131069082,,9351.585978208032,10940.833293995036,150,3,2025-09-12,2025-09-26 17:26:26.473,AA,C,1563763398,AMBUSH51,1,1,48,2,1,1,225,2,1,0,0,9,1,225,2,1,-147792.11939678562,-4791791.908383137,4197302.4469391,2.24977,3.00374,-0.0152959,-101.49,15.1197,4.01042,-0.210027,-6.16411,5.91413,-0.000311049,-0.00883941,-0.00117033,4,0,41.39351004779545,-91.76660032139124,9900.668371686928,-85.27922161896129,-4.014641014749549,-2.7033953210112025,178.308,9351.585978208032,10940.833293995036,150,True,18.860565163845717,False,155.96181026406933,179.726092050472,False,24.219350653101888,True,False
3,1970-07-23 10:29:39.877731969,2025-09-12,2025-09-26 17:26:27.773,AA,C,2376307900,JASSM,3,118,76,2,2,1,225,9,2,0,1,26,0,0,0,0,-177663.06482108062,-4779217.274385299,4210419.503386021,-2.36684,-0.400465,0.381386,77.875,-32.875,-33.75,0.0,0.0,0.0,0.0,0.0,0.0,2,0,41.55081243375392,-92.1289382967566,10002.624157283171,119.82298574774978,-0.0023690588752042,0.0018173429006067,,9351.585978208032,10940.833293995036,150,3,2025-09-12,2025-09-26 17:26:27.941,AA,C,1565513130,AMBUSH51,1,1,48,2,1,1,225,2,1,0,0,9,1,225,2,1,-147942.48954370874,-4791766.763645016,4197305.363859115,2.23944,3.0015,-0.00819881,-102.89,17.1325,1.62067,-0.156196,-6.78052,6.01953,-0.0165584,-0.00254561,-0.000408837,4,0,41.39365170355338,-91.76840587064903,9856.553768398684,-85.50019794104088,-4.378869425843432,-3.280845387460353,180.593,9351.585978208032,10940.833293995036,150,True,18.734743396139745,False,155.36119841492638,179.64368126041538,False,24.93784463574163,True,False
3,1970-07-23 10:29:39.886393799,2025-09-12,2025-09-26 17:26:28.639,AA,C,2377679890,JASSM,3,118,76,2,2,1,225,9,2,0,1,26,0,0,0,0,-177573.44275076812,-4779255.225557174,4210380.468229771,-2.36684,-0.400465,0.381386,77.875,-32.875,-33.75,0.0,0.0,0.0,0.0,0.0,0.0,2,0,41.55034302215741,-92.12784846060244,10002.62331055876,119.8237086153404,-0.0014280222237147,0.0018157197662202,,9351.585978208032,10940.833293995036,150,3,2025-09-12,2025-09-26 17:26:28.773,AA,C,1566507294,AMBUSH51,1,1,48,2,1,1,225,2,1,0,0,9,1,225,2,1,-148027.57272733803,-4791752.446995443,4197306.366370187,2.23263,2.99987,-0.00249809,-103.548,17.4961,0.88865,-0.130747,-6.90053,6.04164,-0.00175914,0.00314274,-0.00247487,4,0,41.39372799911776,-91.76942753523024,9829.972942580387,-85.68350807073188,-4.66503331558499,-3.657241917546551,181.461,9351.585978208032,10940.833293995036,150,True,18.636448632834508,False,155.08310974495845,179.5904565495693,False,25.279591910774926,True,False
3,1970-07-23 10:29:39.898392569,2025-09-12,2025-09-26 17:26:29.839,AA,C,2378992242,JASSM,3,118,76,2,2,1,225,9,2,0,1,26,0,0,0,0,-177487.71716483062,-4779291.526338424,4210343.130339146,-2.36684,-0.400465,0.381482,77.875,-32.875,-33.75,0.0,0.0,0.0,0.0,0.0,0.0,2,0,41.54989401268636,-92.12680602200936,10002.627127762284,119.8282426233046,-0.0044534026279795,0.0018140029132966,,9351.585978208032,10940.833293995036,150,3,2025-09-12,2025-09-26 17:26:30.006,AA,C,1567978660,AMBUSH51,1,1,48,2,1,1,225,2,1,0,0,9,1,225,2,1,-148156.52611535788,-4791730.44396909,4197307.2500183545,2.23431,2.99946,0.00248119,-104.457,17.7216,0.175361,-0.274496,-7.17809,6.48462,0.00582254,0.0101627,-0.0155514,4,0,41.39384113565982,-91.77097610781628,9787.565548839111,-85.88319551687398,-4.870600231536904,-3.5445194922945085,183.294,9351.585978208032,10940.833293995036,150,True,18.519090680611637,False,154.7654035721723,179.50487806406082,False,25.692925937820757,True,False
3,1970-07-23 10:29:39.909273602,2025-09-12,2025-09-26 17:26:30.927,AA,C,2380304592,JASSM,3,118,76,2,2,1,225,9,2,0,1,26,0,0,0,0,-177401.99255545562,-4779327.823213424,4210305.792448521,-2.36684,-0.400465,0.381482,77.875,-32.875,-33.75,0.0,0.0,0.0,0.0,0.0,0.0,2,0,41.54944501681495,-92.12576361127006,10002.6266192412,119.8289340222054,-0.0035533009835201,0.0018125284517511,,9351.585978208032,10940.833293995036,150,3,2025-09-12,2025-09-26 17:26:30.806,AA,C,1568933058,AMBUSH51,1,1,48,2,1,1,225,2,1,0,0,9,1,225,2,1,-148240.19054615026,-4791716.265331624,4197307.441715883,2.23497,3.00601,0.00440574,-105.003,17.6179,-0.100345,-0.216081,-7.47968,6.55806,0.00497574,0.00885397,-0.00205875,4,0,41.39391137485638,-91.77198078581252,9759.466817146667,-86.21627914107341,-4.66229513816919,-3.4805041291497014,183.941,9351.585978208032,10940.833293995036,150,True,18.42413913788579,False,154.5844321295584,179.44625801749166,False,25.936299182876112,True,False
3,1970-07-23 10:29:39.920274872,2025-09-12,2025-09-26 17:26:32.027,AA,C,2381616942,JASSM,3,118,76,2,2,1,225,9,2,0,1,26,0,0,0,0,-177316.26501639312,-4779364.122041549,4210268.450651646,-2.36684,-0.400465,0.381482,77.875,-32.875,-33.75,0.0,0.0,0.0,0.0,0.0,0.0,2,0,41.54899597414843,-92.12472117901528,10002.627305758568,119.82962542924076,-0.0026531573755592,0.0018110349612349,,9351.585978208032,10940.833293995036,150,3,2025-09-12,2025-09-26 17:26:32.140,AA,C,1570523724,AMBUSH51,1,1,48,2,1,1,225,2,1,0,0,9,1,225,2,1,-148380.04591964913,-4791693.402119972,4197306.84732889,2.23652,3.01282,0.00874682,-105.915,17.0116,-0.456528,-0.045232,-7.49819,6.4225,0.0148648,-0.00612215,0.00275159,4,0,41.39401760737521,-91.77365992930562,9712.581682848788,-86.66378399243557,-4.53364662308875,-3.358671778366969,185.518,9351.585978208032,10940.833293995036,150,True,18.302017370517753,False,154.21886458862778,179.3448304189606,False,26.406600672617003,True,False
3,1970-07-23 10:29:39.940533195,2025-09-12,2025-09-26 17:26:34.053,AA,C,2382869642,JASSM,3,118,76,2,2,1,225,9,2,0,1,26,0,0,0,0,-177234.43591483062,-4779398.768525924,4210232.806120396,-2.36674,-0.400369,0.381482,77.875,-32.875,-33.75,0.0,0.0,0.0,0.0,0.0,0.0,2,0,41.54856734698141,-92.12372616529215,10002.62686684529,119.82664213019648,-0.0053603717732891,0.0052562223550575,,9351.585978208032,10940.833293995036,150,3,2025-09-12,2025-09-26 17:26:34.075,AA,C,1572830188,AMBUSH51,1,1,48,2,1,1,225,2,1,0,0,9,1,225,2,1,-148586.18271463778,-4791661.328513629,4197305.666226571,2.22937,3.0259,0.0116028,-107.237,16.0218,-0.828768,-0.112328,-7.7686,6.57559,-0.00157397,0.00667975,0.0051089,4,0,41.394162416814105,-91.7761342880983,9646.831123283597,-87.28601130104632,-4.078904136057314,-3.728993120306929,186.911,9351.585978208032,10940.833293995036,150,True,18.150511866294416,False,153.7295995654183,179.1905192177679,False,27.052591764764554,True,False
3,1970-07-23 10:29:39.941732419,2025-09-12,2025-09-26 17:26:34.173,AA,C,2384181994,JASSM,3,118,76,2,2,1,225,9,2,0,1,26,0,0,0,0,-177148.70935233062,-4779435.063447799,4210195.464323521,-2.36674,-0.400369,0.381482,77.875,-32.875,-33.75,0.0,0.0,0.0,0.0,0.0,0.0,2,0,41.548118308861326,-92.1226837746595,10002.628162532586,119.8273334977262,-0.0044602483225461,0.005254686576087,,9351.585978208032,10940.833293995036,150,3,2025-09-12,2025-09-26 17:26:34.075,AA,C,1572830188,AMBUSH51,1,1,48,2,1,1,225,2,1,0,0,9,1,225,2,1,-148586.18271463778,-4791661.328513629,4197305.666226571,2.22937,3.0259,0.0116028,-107.237,16.0218,-0.828768,-0.112328,-7.7686,6.57559,-0.00157397,0.00667975,0.0051089,4,0,41.394162416814105,-91.7761342880983,9646.831123283597,-87.28601130104632,-4.078904136057314,-3.728993120306929,186.911,9351.585978208032,10940.833293995036,150,True,18.0966023117383,False,153.7295995654183,179.188417585939,False,27.054607393898692,True,False
3,1970-07-23 10:29:39.953733732,2025-09-12,2025-09-26 17:26:35.373,AA,C,2385553996,JASSM,3,118,76,2,2,1,225,9,2,0,1,26,0,0,0,0,-177059.08630545562,-4779473.006807174,4210156.423307896,-2.36674,-0.400369,0.381482,77.875,-32.875,-33.875,0.0,0.0,0.0,0.0,0.0,0.0,2,0,41.547648845124414,-92.12159402077502,10002.62773661138,119.82805627245833,-0.0035192095436284,0.0052530758974262,,9351.585978208032,10940.833293995036,150,3,2025-09-12,2025-09-26 17:26:35.540,AA,C,1574579920,AMBUSH51,1,1,48,2,1,1,225,2,1,0,0,9,1,225,2,1,-148744.7272235584,-4791638.50183806,4197304.686785678,2.23266,3.03789,0.0106074,-108.305,14.6247,-0.492761,-0.239516,-8.06585,6.97627,-0.00136591,-0.018277,-0.00284937,4,0,41.39426232216249,-91.77803670886456,9600.652881145035,-87.7002899460764,-3.5247305411484264,-3.5208302581801005,187.938,9351.585978208032,10940.833293995036,150,True,17.963765562581386,False,153.39201669154357,179.1324947617748,False,27.453795455165984,True,False
3,1970-07-23 10:29:39.964373825,2025-09-12,2025-09-26 17:26:36.437,AA,C,2386866348,JASSM,3,118,76,2,2,1,225,9,2,0,1,26,0,0,0,0,-176973.35974295562,-4779509.299775924,4210119.077604771,-2.36674,-0.400369,0.381482,77.875,-32.875,-33.875,0.0,0.0,0.0,0.0,0.0,0.0,2,0,41.54719977294609,-92.12055166051572,10002.626314706651,119.82874760728824,-0.0026190792196519,0.0052515269944695,,9351.585978208032,10940.833293995036,150,3,2025-09-12,2025-09-26 17:26:36.373,AA,C,1575574086,AMBUSH51,1,1,48,2,1,1,225,2,1,0,0,9,1,225,2,1,-148835.36070933763,-4791626.38035806,4197304.154928908,2.23672,3.03749,0.0130166,-108.793,14.3554,-0.761836,-0.250585,-7.8139,6.67807,0.00545844,0.00576013,0.00113288,4,0,41.3943140918682,-91.7791239080846,9576.603307254005,-87.78959964697763,-3.632331943598879,-3.282551868285283,188.414,9351.585978208032,10940.833293995036,150,True,17.86635314716144,False,153.180647888939,179.0586604187553,False,27.74003635679928,True,False
3,1970-07-23 10:29:39.974426126,2025-09-12,2025-09-26 17:26:37.442,AA,C,2388178700,JASSM,3,118,76,2,2,1,225,9,2,0,1,26,0,0,0,0,-176887.63415701812,-4779545.590791549,4210081.731901646,-2.36674,-0.400369,0.381482,77.875,-32.875,-33.875,0.0,0.0,0.0,0.0,0.0,0.0,2,0,41.546750702718505,-92.11950932723826,10002.625358973495,119.82943891808398,-0.0017189626649415,0.0052499832953367,,9351.585978208032,10940.833293995036,150,3,2025-09-12,2025-09-26 17:26:37.606,AA,C,1577045450,AMBUSH51,1,1,48,2,1,1,225,2,1,0,0,9,1,225,2,1,-148970.70891303668,-4791609.112363125,4197303.049742797,2.23877,3.04568,0.0111014,-109.413,13.5059,-0.799115,-0.13489,-7.76408,6.80751,-0.0129299,0.0142885,0.00255393,4,0,41.39438432529968,-91.7807471835047,9542.073029351572,-88.01938143973754,-3.206632496770651,-3.157335064959735,188.964,9351.585978208032,10940.833293995036,150,True,17.747763500994893,False,152.90162550333434,178.94716714902341,False,28.129689217043033,True,False
3,1970-07-23 10:29:39.986251429,2025-09-12,2025-09-26 17:26:38.625,AA,C,2389491050,JASSM,3,118,76,2,2,1,225,9,2,0,1,26,0,0,0,0,-176801.90759451812,-4779581.879854049,4210044.386198521,-2.36674,-0.400369,0.381578,77.875,-32.875,-33.875,0.0,0.0,0.0,0.0,0.0,0.0,2,0,41.54630163487317,-92.11846699756023,10002.624691870902,119.8339729458486,-0.0047442090196929,0.005248267326389,,9351.585978208032,10940.833293995036,150,3,2025-09-12,2025-09-26 17:26:38.773,AA,C,1578437282,AMBUSH51,1,1,48,2,1,1,225,2,1,0,0,9,1,225,2,1,-149098.10388076253,-4791593.819242833,4197302.200193116,2.24197,3.05301,0.0131181,-109.973,12.7152,-0.715746,-0.194477,-7.90522,6.82506,-0.00121819,0.00361503,-0.0016031,4,0,41.39444598709956,-91.78227472431362,9512.356240398452,-88.38535141491377,-2.9670821217876706,-2.9591833130962426,189.477,9351.585978208032,10940.833293995036,150,True,17.633187519565038,False,152.69050217040984,178.8400864593701,False,28.44660769351101,True,False
3,1970-07-23 10:29:39.998532538,2025-09-12,2025-09-26 17:26:39.853,AA,C,2390743748,JASSM,3,118,76,2,2,1,225,9,2,0,1,26,0,0,0,0,-176720.07751639312,-4779616.520479049,4210008.735807896,-2.36674,-0.400369,0.381578,77.875,-32.875,-33.875,0.0,0.0,0.0,0.0,0.0,0.0,2,0,41.5458729490925,-92.11747205736312,10002.626646404777,119.83463281245662,-0.0038849932846269,0.0052468475364757,,9351.585978208032,10940.833293995036,150,3,2025-09-12,2025-09-26 17:26:39.940,AA,C,1579829114,AMBUSH51,1,1,48,2,1,1,225,2,1,0,0,9,1,225,2,1,-149228.0972585446,-4791579.213977264,4197301.563807326,2.24772,3.0609,0.0124165,-110.525,11.719,-0.383936,0.00314747,-8.17534,6.91601,0.0235346,0.0193568,0.00815489,4,0,41.394504495105856,-91.78383305706744,9485.00150709536,-88.65541999319036,-2.6004545060646085,-2.6226581205368333,189.795,9351.585978208032,10940.833293995036,150,True,17.52003854020455,False,152.5194395098771,178.72911608958543,False,28.72571442996028,True,False
3,1970-07-23 10:29:40.008293210,2025-09-12,2025-09-26 17:26:40.829,AA,C,2392115752,JASSM,3,118,76,2,2,1,225,9,2,0,1,26,0,0,0,0,-176630.45446951812,-4779654.457979049,4209969.688932896,-2.36674,-0.400369,0.381578,77.875,-32.875,-33.875,0.0,0.0,0.0,0.0,0.0,0.0,2,0,41.5454034312691,-92.1163823814792,10002.626117705033,119.83535550347548,-0.0029439534700123,0.0052452948731241,,9351.585978208032,10940.833293995036,150,3,2025-09-12,2025-09-26 17:26:40.842,AA,C,1580902812,AMBUSH51,1,1,48,2,1,1,225,2,1,0,0,9,1,225,2,1,-149326.28708274543,-4791569.173513692,4197301.294058107,2.25392,3.07451,0.00632763,-110.715,10.6383,0.0950022,-0.207654,-8.45696,7.15159,0.00595986,0.0119333,-0.010791,4,0,41.39454420115068,-91.78500977104088,9467.241888052402,-88.91050914680154,-1.7839152079854717,-2.264899101094363,189.868,9351.585978208032,10940.833293995036,150,True,17.417281520933603,False,152.38549060657797,178.64259296791604,False,28.94174077540227,True,False
3,1970-07-23 10:29:40.018335846,2025-09-12,2025-09-26 17:26:41.833,AA,C,2393368452,JASSM,3,118,76,2,2,1,225,9,2,0,1,26,0,0,0,0,-176548.62439139312,-4779689.094697799,4209934.036589146,-2.36674,-0.400273,0.381578,77.875,-32.875,-33.875,0.0,0.0,0.0,0.0,0.0,0.0,2,0,41.54497473752934,-92.11538747054928,10002.624107126803,119.8323723577637,-0.0056511590951046,0.0031985503508276,,9351.585978208032,10940.833293995036,150,3,2025-09-12,2025-09-26 17:26:41.939,AA,C,1582215112,AMBUSH51,1,1,48,2,1,1,225,2,1,0,0,9,1,225,2,1,-149449.04269947615,-4791557.691482374,4197302.116695453,2.26462,3.09004,-0.00231723,-110.831,9.29595,1.10046,-0.256399,-8.62724,7.71165,0.00104134,0.0150978,0.00737675,4,0,41.39459528806942,-91.78648048923384,9450.195567384964,-89.12846656217816,-0.7878571047727668,-1.648918405067075,189.795,9351.585978208032,10940.833293995036,150,True,17.307841018196086,False,152.37221457144295,178.53535313606977,False,29.054671828057305,True,False
3,1970-07-23 10:29:40.029353775,2025-09-12,2025-09-26 17:26:42.935,AA,C,2394621150,JASSM,3,118,76,2,2,1,225,9,2,0,1,26,0,0,0,0,-176466.79528983062,-4779723.731416549,4209898.382292271,-2.36674,-0.400273,0.381578,77.875,-32.875,-33.875,0.0,0.0,0.0,0.0,0.0,0.0,2,0,41.54454602177954,-92.11439258445294,10002.622645860862,119.83303217127478,-0.0047919503600502,0.0031970680192872,,9351.585978208032,10940.833293995036,150,3,2025-09-12,2025-09-26 17:26:42.973,AA,C,1583447876,AMBUSH51,1,1,48,2,1,1,225,2,1,0,0,9,1,225,2,1,-149562.36546783833,-4791548.481035839,4197303.608457915,2.265,3.09677,-0.00613981,-110.806,8.38965,1.70239,-0.224565,-8.05847,6.98208,-0.0127468,0.000390112,-0.00168216,4,0,41.39463911336819,-91.78783767989682,9439.47242025403,-89.22022452849768,-0.3526027115613042,-1.624432323827164,189.6,9351.585978208032,10940.833293995036,150,True,17.203036284672947,False,152.32175061984202,178.43477529931224,False,29.200950716418134,True,False
3,1970-07-23 10:29:40.039376787,2025-09-12,2025-09-26 17:26:43.937,AA,C,2395873850,JASSM,3,118,76,2,2,1,225,9,2,0,1,26,0,0,0,0,-176384.96521170562,-4779758.366182174,4209862.729948521,-2.36674,-0.400273,0.381578,77.875,-32.875,-33.875,0.0,0.0,0.0,0.0,0.0,0.0,2,0,41.54411732241019,-92.1133977006725,10002.62526373598,119.83369197765433,-0.0039327469778434,0.003195611385634,,9351.585978208032,10940.833293995036,150,3,2025-09-12,2025-09-26 17:26:43.973,AA,C,1584640876,AMBUSH51,1,1,48,2,1,1,225,2,1,0,0,9,1,225,2,1,-149673.28352070117,-4791540.005219409,4197305.578657004,2.26371,3.09667,-0.00232942,-110.789,8.1024,1.88243,-0.0368967,-7.64809,6.5649,-0.00861678,0.00950728,-0.00284105,4,0,41.39468222992778,-91.78916587280612,9431.416240606904,-89.38089887986204,-0.5004886071104624,-1.6973793446197711,189.123,9351.585978208032,10940.833293995036,150,True,17.09941794427264,False,152.29961242740444,178.33515570105763,False,29.32265144273254,True,False
3,1970-07-23 10:29:40.050390337,2025-09-12,2025-09-26 17:26:45.039,AA,C,2397186200,JASSM,3,118,76,2,2,1,225,9,2,0,1,26,0,0,0,0,-176299.23864920562,-4779794.649385299,4209825.376432896,-2.36674,-0.400273,0.381578,77.875,-32.875,-33.875,0.0,0.0,0.0,0.0,0.0,0.0,2,0,41.54366818129204,-92.11235545816696,10002.623533898965,119.83438318631627,-0.0030326216980492,0.0031940685700064,,9351.585978208032,10940.833293995036,150,3,2025-09-12,2025-09-26 17:26:45.040,AA,C,1585913408,AMBUSH51,1,1,48,2,1,1,225,2,1,0,0,9,1,225,2,1,-149792.41805907548,-4791531.4993967805,4197307.6598774,2.283,3.1028,-0.00440035,-110.688,7.43703,2.29862,-0.299521,-7.82882,6.83123,0.0461736,-0.00404572,-0.0108909,4,0,41.39472473139232,-91.790592234186,9424.165314982072,-89.52498091870663,-0.1576120826973136,-0.590174416172908,188.854,9351.585978208032,10940.833293995036,150,True,16.989672901861155,False,152.24602906285298,178.22623214484628,False,29.481866740749282,True,False
3,1970-07-23 10:29:40.062251482,2025-09-12,2025-09-26 17:26:46.225,AA,C,2398558202,JASSM,3,118,76,2,2,1,225,9,2,0,1,26,0,0,0,0,-176209.61462576812,-4779832.581025924,4209786.323698521,-2.36674,-0.400273,0.381578,77.875,-32.875,-33.875,0.0,0.0,0.0,0.0,0.0,0.0,2,0,41.54319861050257,-92.11126584721298,10002.622322754862,119.83510580287064,-0.0020915735722638,0.0031924555180313,,9351.585978208032,10940.833293995036,150,3,2025-09-12,2025-09-26 17:26:46.106,AA,C,1587185940,AMBUSH51,1,1,48,2,1,1,225,2,1,0,0,9,1,225,2,1,-149909.32946762937,-4791523.557130751,4197309.977885642,2.35515,3.10445,-0.00754987,-110.444,7.3486,2.69172,-0.234779,-7.60639,6.4208,0.0824821,-0.00492581,-0.00759313,4,0,41.39476587543042,-91.7919918301722,9418.65064905316,-89.45341587968913,0.0340963171905047,3.5441055666598453,188.5,9351.585978208032,10940.833293995036,150,True,16.878605401259502,False,152.37791884903973,178.11744655269788,False,29.45857726743438,True,False
3,1970-07-23 10:29:40.072271234,2025-09-12,2025-09-26 17:26:47.227,AA,C,2399810902,JASSM,3,118,76,2,2,1,225,9,2,0,1,26,0,0,0,0,-176127.78454764312,-4779867.213838424,4209750.667448521,-2.36674,-0.400273,0.381578,77.875,-32.875,-33.875,0.0,0.0,0.0,0.0,0.0,0.0,2,0,41.542769869320615,-92.1102710056014,10002.626453247,119.8357655637049,-0.0012323632541525,0.0031909857267987,,9351.585978208032,10940.833293995036,150,3,2025-09-12,2025-09-26 17:26:47.373,AA,C,1588697072,AMBUSH51,1,1,48,2,1,1,225,2,1,0,0,9,1,225,2,1,-150050.12445664857,-4791513.323530777,4197313.717993248,2.43519,3.09263,-0.0138896,-110.372,8.34007,3.6637,-0.436704,-7.33386,6.51172,0.0171181,-0.00368785,0.0192237,4,0,41.39482578467104,-91.79367760014186,9412.431299165042,-88.73399355597633,-0.2326607565233419,8.121561187112706,187.95,9351.585978208032,10940.833293995036,150,True,16.761002047699346,False,153.09461114990194,177.98790171631433,False,28.87485510208401,True,False
3,1970-07-23 10:29:40.083313948,2025-09-12,2025-09-26 17:26:48.331,AA,C,2401123254,JASSM,3,118,76,2,2,1,225,9,2,0,1,26,0,0,0,0,-176042.05798514312,-4779903.493135299,4209713.311979771,-2.36674,-0.400273,0.381674,77.875,-32.875,-33.875,0.0,0.0,0.0,0.0,0.0,0.0,2,0,41.54232070990201,-92.10922880809254,10002.626397929858,119.84029959066112,-0.0042574699392456,0.003189297026476,,9351.585978208032,10940.833293995036,150,3,2025-09-12,2025-09-26 17:26:48.140,AA,C,1589611704,AMBUSH51,1,1,48,2,1,1,225,2,1,0,0,9,1,225,2,1,-150134.73113299737,-4791506.465158127,4197316.703351398,2.43317,3.0816,-0.0230573,-110.378,9.00676,4.53507,-0.148686,-7.20966,6.58692,-0.00843993,-0.0058059,0.0091078,4,0,41.394870971166654,-91.79469088212336,9408.555999243548,-87.92298730343848,-0.3580772013787326,7.990201050396868,187.864,9351.585978208032,10940.833293995036,150,True,16.667094801941253,False,153.65908017322863,177.90773137446484,False,28.391309723576583,True,False
3,1970-07-23 10:29:40.094338303,2025-09-12,2025-09-26 17:26:49.433,AA,C,2402375952,JASSM,3,118,76,2,2,1,225,9,2,0,1,26,0,0,0,0,-175960.22790701812,-4779938.122041549,4209677.651823521,-2.36674,-0.400273,0.381674,77.875,-32.875,-33.875,0.0,0.0,0.0,0.0,0.0,0.0,2,0,41.54189194801833,-92.10823399511456,10002.62208911144,119.84095932114928,-0.003398259011558,0.0031878815305412,,9351.585978208032,10940.833293995036,150,3,2025-09-12,2025-09-26 17:26:49.306,AA,C,1591003536,AMBUSH51,1,1,48,2,1,1,225,2,1,0,0,9,1,225,2,1,-150262.71656758143,-4791494.983726957,4197322.398773776,2.44692,3.07044,-0.037167,-110.557,10.2547,5.8047,-0.140109,-7.16901,6.70928,0.0112654,0.00475312,0.0138932,4,0,41.39495385424023,-91.79622410272071,9402.537104629504,-86.89482077827682,-0.3012770087620593,8.75289390404566,188.145,9351.585978208032,10940.833293995036,150,True,16.554698838960036,False,154.563437394979,177.79092942965906,False,27.606456783011136,True,False
3,1970-07-23 10:29:40.104353430,2025-09-12,2025-09-26 17:26:50.435,AA,C,2403628652,JASSM,3,118,76,2,2,1,225,9,2,0,1,26,0,0,0,0,-175878.39782889312,-4779972.750947799,4209641.991667271,-2.36674,-0.400177,0.381674,77.875,-32.875,-33.875,0.0,0.0,0.0,0.0,0.0,0.0,2,0,41.541463177496766,-92.10723919527888,10002.622490884867,119.83797632437064,-0.0061054569552862,0.0011406732863793,,9351.585978208032,10940.833293995036,150,3,2025-09-12,2025-09-26 17:26:50.539,AA,C,1592474900,AMBUSH51,1,1,48,2,1,1,225,2,1,0,0,9,1,225,2,1,-150399.72517421108,-4791480.989072559,4197330.32617691,2.43274,3.05264,-0.0546889,-110.795,11.5968,7.28744,-0.146102,-7.12952,6.76721,-0.0176091,0.00802173,0.0122724,4,0,41.39506505078843,-91.79786606191333,9395.883121237011,-85.4688819876281,-0.3986373712126394,7.884700786154953,188.817,9351.585978208032,10940.833293995036,150,True,16.437338007209174,False,155.57220488931145,177.66823175303756,False,26.722422527973986,True,False
3,1970-07-23 10:29:40.115370896,2025-09-12,2025-09-26 17:26:51.537,AA,C,2404941002,JASSM,3,118,76,2,2,1,225,9,2,0,1,26,0,0,0,0,-175792.67077811187,-4780009.028291549,4209604.632292271,-2.36674,-0.400177,0.381674,77.875,-32.875,-33.875,0.0,0.0,0.0,0.0,0.0,0.0,2,0,41.54101397594378,-92.1061970347462,10002.624139252546,119.83866744259352,-0.0052053269401826,0.0011391307582568,,9351.585978208032,10940.833293995036,150,3,2025-09-12,2025-09-26 17:26:51.540,AA,C,1593667900,AMBUSH51,1,1,48,2,1,1,225,2,1,0,0,9,1,225,2,1,-150510.58876461044,-4791468.990608942,4197337.977062734,2.39024,3.04357,-0.0681325,-111.024,10.5079,9.63083,-0.0744896,-7.12579,6.74301,-0.0338253,0.0114277,0.0121517,4,0,41.39516736875513,-91.79919494798158,9391.52909574187,-84.54911017766729,-0.2755055459262129,5.412486373649252,189.404,9351.585978208032,10940.833293995036,150,True,16.32975958524906,False,156.07734535967458,177.56798715820017,False,26.29511112461899,True,False
3,1970-07-23 10:29:40.126391545,2025-09-12,2025-09-26 17:26:52.639,AA,C,2406193702,JASSM,3,118,76,2,2,1,225,9,2,0,1,26,0,0,0,0,-175710.84069998687,-4780043.655244674,4209568.972136021,-2.36674,-0.400177,0.381674,77.875,-32.875,-33.875,0.0,0.0,0.0,0.0,0.0,0.0,2,0,41.54058519938474,-92.10520226268144,10002.62939355896,119.8393271289952,-0.0043461222628382,0.0011376703060181,,9351.585978208032,10940.833293995036,150,3,2025-09-12,2025-09-26 17:26:52.673,AA,C,1595019964,AMBUSH51,1,1,48,2,1,1,225,2,1,0,0,9,1,225,2,1,-150636.18396879558,-4791453.85249044,4197347.458628093,2.33636,3.04128,-0.0772502,-111.259,12.9884,9.05156,-0.197098,-7.20913,6.9674,-0.0353399,-0.00847322,-0.000541995,4,0,41.39529795201619,-91.8007010032116,9384.568892636778,-84.07227855654776,-0.0259052121459997,2.314609319634379,189.954,9351.585978208032,10940.833293995036,150,True,16.217060227714608,False,156.6813620636872,177.45647092033855,False,25.826385394248,True,False
3,1970-07-23 10:29:40.138535449,2025-09-12,2025-09-26 17:26:53.853,AA,C,2407506050,JASSM,3,118,76,2,2,1,225,9,2,0,1,26,0,0,0,0,-175625.11364920562,-4780079.928682174,4209531.610807896,-2.36674,-0.400177,0.381674,77.875,-32.875,-33.875,0.0,0.0,0.0,0.0,0.0,0.0,2,0,41.54013598944462,-92.10416013205982,10002.627311368502,119.84001821538166,-0.0034459982719734,0.0011361358536902,,9351.585978208032,10940.833293995036,150,3,2025-09-12,2025-09-26 17:26:53.840,AA,C,1596411796,AMBUSH51,1,1,48,2,1,1,225,2,1,0,0,9,1,225,2,1,-150765.370566378,-4791437.821037564,4197358.097358667,2.34282,3.01903,-0.0667489,-111.588,14.2597,8.88597,0.15943,-5.55552,5.19136,0.0726076,-0.0346637,-0.00209204,4,0,41.39544096984154,-91.80225030448808,9378.207802552351,-83.67938222750435,-1.3746932105710237,2.5880627683934856,190.614,9351.585978208032,10940.833293995036,150,True,16.099936298658413,False,157.0049607669226,177.3414890719595,False,25.627921264930123,True,False
3,1970-07-23 10:29:40.147293709,2025-09-12,2025-09-26 17:26:54.729,AA,C,2408760824,JASSM,3,118,76,2,2,1,225,9,2,0,1,26,0,0,0,0,-175543.14782889312,-4780114.610322799,4209495.888151646,-2.36674,-0.400177,0.381674,77.875,-32.875,-33.875,0.0,0.0,0.0,0.0,0.0,0.0,2,0,41.53970647777605,-92.10316373801376,10002.628204934044,119.84067896592794,-0.0025853659293536,0.0011346671419139,,9351.585978208032,10940.833293995036,150,3,2025-09-12,2025-09-26 17:26:54.572,AA,C,1597286662,AMBUSH51,1,1,48,2,1,1,225,2,1,0,0,9,1,225,2,1,-150848.32335307822,-4791426.164018269,4197364.508480307,2.44935,3.0075,-0.0589328,-111.939,16.0944,8.30503,-0.221145,-5.6395,5.51257,0.146924,0.000652266,-0.00481138,4,0,41.395538063474994,-91.8032456523788,9369.863477875791,-83.57599956358838,-2.1643981285065257,8.64676005102113,191.078,9351.585978208032,10940.833293995036,150,True,16.007659224781282,False,157.31896641792798,177.26431980979012,False,25.40361915378938,True,False
