Subject_cm,Timestamp,SampleDate_cm,SampleTime_cm,Configuration_cm,Scenario_cm,DisTime_cm,MarkingTxt_cm,Application_cm,EntId_cm,Site_cm,ExerciseId_cm,ForceId_cm,Category_cm,Country_cm,Domain_cm,Kind_cm,Extra_cm,Specific_cm,Subcategory_cm,AltCategory_cm,AltCountry_cm,AltDomain_cm,AltKind_cm,ECEF_X_cm,ECEF_Y_cm,ECEF_Z_cm,OriPhi_cm,OriPsi_cm,OriTheta_cm,LinVelX_cm,LinVelY_cm,LinVelZ_cm,LinAccX_cm,LinAccY_cm,LinAccZ_cm,AngVelX_cm,AngVelY_cm,AngVelZ_cm,DrAlg_cm,Appearance_cm,Latitude_cm,Longitude_cm,Altitude_cm,Heading_cm,Pitch_cm,Roll_cm,CalibratedAirspeed_cm,CM_Altitude_Lead_cm,CM_Altitude_Wing_cm,CM_Airspeed_cm,Subject_ac,SampleDate_ac,SampleTime_ac,Configuration_ac,Scenario_ac,DisTime_ac,MarkingTxt_ac,Application_ac,EntId_ac,Site_ac,ExerciseId_ac,ForceId_ac,Category_ac,Country_ac,Domain_ac,Kind_ac,Extra_ac,Specific_ac,Subcategory_ac,AltCategory_ac,AltCountry_ac,AltDomain_ac,AltKind_ac,ECEF_X_ac,ECEF_Y_ac,ECEF_Z_ac,OriPhi_ac,OriPsi_ac,OriTheta_ac,LinVelX_ac,LinVelY_ac,LinVelZ_ac,LinAccX_ac,LinAccY_ac,LinAccZ_ac,AngVelX_ac,AngVelY_ac,AngVelZ_ac,DrAlg_ac,Appearance_ac,Latitude_ac,Longitude_ac,Altitude_ac,Heading_ac,Pitch_ac,Roll_ac,CalibratedAirspeed_ac,CM_Altitude_Lead_ac,CM_Altitude_Wing_ac,CM_Airspeed_ac,Bank_Angle_Condition,distance_nm,Distance_Condition,angle_between_vel,angle_between_pos,Cone_Condition,angle_between_pos_nose,Nose_Cone_Condition,Intercept_Criteria
3,1970-07-23 10:29:32.266962160,2025-09-12,2025-09-26 17:13:46.696,AH,C,1468578480,JASSM,3,105,76,2,2,1,225,9,2,0,1,26,0,0,0,0,-188355.9417742056,-4786074.391572799,4202212.909636021,-2.30155,-0.153302,0.128183,88.875,-13.625,-11.5,0.0,0.0,0.0,0.0,0.0,0.0,2,0,41.4521987641098,-92.25371216417876,10002.624280561196,99.81553123581394,-0.0050983446202817,0.0023915224148994,,9006.830035856614,10864.345111209012,150,3,2025-09-12,2025-09-26 17:13:46.553,AH,C,657163882,AMBUSH51,1,1,48,2,1,1,225,2,1,0,0,9,1,225,2,1,-149783.90261058614,-4792053.456093283,4196523.623098676,2.53531,2.68385,-0.435598,-94.6271,45.2213,46.1223,-0.170722,-7.06481,6.39077,0.0392723,0.000641864,0.0267138,4,0,41.38632797769457,-91.79029561263782,9006.830035856614,-55.62953519702898,-0.1390284209535528,8.345967513240769,191.164,9006.830035856614,10864.345111209012,150,True,21.211527001887173,False,156.9539845326075,178.99131266413428,False,22.250798894812476,True,False
3,1970-07-23 10:29:32.277238722,2025-09-12,2025-09-26 17:13:47.723,AH,C,1469831178,JASSM,3,105,76,2,2,1,225,9,2,0,1,26,0,0,0,0,-188262.5316179556,-4786088.834932174,4202200.727995396,-2.30155,-0.153302,0.128183,88.875,-13.625,-11.5,0.0,0.0,0.0,0.0,0.0,0.0,2,0,41.45205249183704,-92.2525888559403,10002.625564338074,99.81627485919395,-0.004243803245103,0.0023909261936245,,9006.830035856614,10864.345111209012,150,3,2025-09-12,2025-09-26 17:13:47.754,AH,C,658595480,AMBUSH51,1,1,48,2,1,1,225,2,1,0,0,9,1,225,2,1,-149896.07336950875,-4791998.7488399865,4196579.750998764,2.53912,2.66071,-0.450357,-93.693,46.5646,47.2786,-0.173107,-7.17866,6.79115,-0.0701337,0.0071999,0.013864,4,0,41.38701148827243,-91.79165590343462,9002.609496069535,-54.17715503523445,-0.3309659643795876,7.989919991238302,191.628,9006.830035856614,10864.345111209012,150,True,21.092582279983993,False,155.96755011270824,179.04859282957082,False,23.316173271557147,True,False
3,1970-07-23 10:29:32.288263444,2025-09-12,2025-09-26 17:13:48.826,AH,C,1471143528,JASSM,3,105,76,2,2,1,225,9,2,0,1,26,0,0,0,0,-188164.67419608065,-4786103.963838424,4202187.964323521,-2.30155,-0.153302,0.128183,88.875,-13.625,-11.5,0.0,0.0,0.0,0.0,0.0,0.0,2,0,41.45189924236744,-92.25141207330088,10002.622265210246,99.81705387999486,-0.0033485775502534,0.0023903000421413,,9006.830035856614,10864.345111209012,150,3,2025-09-12,2025-09-26 17:13:48.953,AH,C,660027078,AMBUSH51,1,1,48,2,1,1,225,2,1,0,0,9,1,225,2,1,-150008.54498569228,-4791942.3158722725,4196637.710687719,2.4382,2.65158,-0.456698,-93.1812,47.2083,48.3298,-0.179147,-7.22031,6.86444,-0.120542,-0.000897777,-0.00201922,4,0,41.38771755965897,-91.79302046230092,8998.149443364166,-53.585861921642575,-0.3784313205180498,1.9750926592362692,192.056,9006.830035856614,10864.345111209012,150,True,20.970799091104517,False,155.32676845111467,179.10609308290995,False,24.034141983146824,True,False
3,1970-07-23 10:29:32.298300785,2025-09-12,2025-09-26 17:13:49.830,AH,C,1472396230,JASSM,3,105,76,2,2,1,225,9,2,0,1,26,0,0,0,0,-188071.26403983065,-4786118.405244674,4202175.780729771,-2.30155,-0.153302,0.128183,88.875,-13.625,-11.5,0.0,0.0,0.0,0.0,0.0,0.0,2,0,41.45175294608079,-92.25028877631492,10002.624056643495,99.81779749150624,-0.0024940365447239,0.0023897020929191,,9006.830035856614,10864.345111209012,150,3,2025-09-12,2025-09-26 17:13:49.854,AH,C,661100778,AMBUSH51,1,1,48,2,1,1,225,2,1,0,0,9,1,225,2,1,-150092.6050060765,-4791899.483654241,4196681.863787698,2.38095,2.64783,-0.454733,-93.3865,47.4645,48.7852,-0.0533109,-7.28384,6.78154,-0.0540549,0.00437861,-0.00699392,4,0,41.38825478988862,-91.79404058291226,8995.021952056743,-53.51926281431552,-0.5906139252468592,-1.4001460293849666,192.752,9006.830035856614,10864.345111209012,150,True,20.868573931019686,False,155.18094126138817,179.14775738306523,False,24.240260648519072,True,False
3,1970-07-23 10:29:32.309338616,2025-09-12,2025-09-26 17:13:50.933,AH,C,1473708580,JASSM,3,105,76,2,2,1,225,9,2,0,1,26,0,0,0,0,-187973.40466483065,-4786133.532197799,4202163.017057896,-2.30155,-0.153302,0.128183,88.875,-13.625,-11.5,0.0,0.0,0.0,0.0,0.0,0.0,2,0,41.45159968515895,-92.24911198207468,10002.625773225667,99.8185765153558,-0.0015987962998569,0.0023890906247215,,9006.830035856614,10864.345111209012,150,3,2025-09-12,2025-09-26 17:13:51.086,AH,C,662572142,AMBUSH51,1,1,48,2,1,1,225,2,1,0,0,9,1,225,2,1,-150207.40840393343,-4791841.321550791,4196741.898429563,2.29251,2.65041,-0.449086,-94.0521,47.2357,48.795,-0.0129045,-7.18113,6.63441,-0.0560751,0.00623242,-0.00185901,4,0,41.388984693603234,-91.7954336956359,8991.005935116598,-53.835958360877015,-0.7397248274336989,-6.399545455281018,193.168,9006.830035856614,10864.345111209012,150,True,20.745341893390354,False,155.43113193899055,179.20127545131916,False,24.07286426905408,True,False
3,1970-07-23 10:29:32.323759253,2025-09-12,2025-09-26 17:13:52.375,AH,C,1475020930,JASSM,3,105,76,2,2,1,225,9,2,0,1,26,0,0,0,0,-187875.5472429556,-4786148.659150924,4202150.249479771,-2.30155,-0.153302,0.128183,88.875,-13.625,-11.5,0.0,0.0,0.0,0.0,0.0,0.0,2,0,41.4514463853898,-92.24793521671975,10002.624312454716,99.81935551771504,-0.0007035687012649,0.0023884497135808,,9006.830035856614,10864.345111209012,150,3,2025-09-12,2025-09-26 17:13:52.387,AH,C,664123040,AMBUSH51,1,1,48,2,1,1,225,2,1,0,0,9,1,225,2,1,-150331.05652759693,-4791780.079834162,4196805.087410232,2.26744,2.66811,-0.438203,-95.1501,46.5631,48.0536,-0.0861118,-7.29295,6.69063,0.00734762,0.00707506,-0.0157345,4,0,41.38975254577439,-91.79693364735664,8986.948985820776,-54.93382343632122,-0.5795763581389463,-7.38780030727627,193.779,9006.830035856614,10864.345111209012,150,True,20.61702166219393,False,156.14724410021768,179.25147459294814,False,23.446570079096126,True,False
3,1970-07-23 10:29:32.331197746,2025-09-12,2025-09-26 17:13:53.119,AH,C,1476273632,JASSM,3,105,76,2,2,1,225,9,2,0,1,26,0,0,0,0,-187782.1370867056,-4786163.096650924,4202138.063932896,-2.30145,-0.153206,0.128279,88.875,-13.625,-11.5,0.0,0.0,0.0,0.0,0.0,0.0,2,0,41.45130006522239,-92.24681193719212,10002.62669784446,99.82055326080147,-0.0075723934023201,0.0071768357673294,,9006.830035856614,10864.345111209012,150,3,2025-09-12,2025-09-26 17:13:53.220,AH,C,665117206,AMBUSH51,1,1,48,2,1,1,225,2,1,0,0,9,1,225,2,1,-150409.74650200657,-4791741.850475442,4196844.399766453,2.27911,2.6729,-0.43125,-95.9401,46.3003,47.5108,-0.0283469,-7.29569,6.70365,0.0134916,-0.0115525,-0.00358382,4,0,41.39023068198724,-91.79788795970248,8984.251099254549,-55.38783657596324,-0.7021056106433025,-6.598203579959918,194.17,9006.830035856614,10864.345111209012,150,True,20.518436127123632,False,156.6044578110468,179.27815591278593,False,23.047475893115486,True,False
3,1970-07-23 10:29:32.342560943,2025-09-12,2025-09-26 17:13:54.256,AH,C,1477585980,JASSM,3,105,76,2,2,1,225,9,2,0,1,26,0,0,0,0,-187684.27966483065,-4786178.219697799,4202125.294401646,-2.30145,-0.153206,0.128279,88.875,-13.625,-11.5,0.0,0.0,0.0,0.0,0.0,0.0,2,0,41.45114675199742,-92.24563518449878,10002.6214001741,99.82133225023134,-0.0066771688239394,0.0071762115595775,,9006.830035856614,10864.345111209012,150,3,2025-09-12,2025-09-26 17:13:54.287,AH,C,666389738,AMBUSH51,1,1,48,2,1,1,225,2,1,0,0,9,1,225,2,1,-150511.87656737663,-4791692.912280593,4196894.730874877,2.30369,2.69058,-0.424965,-96.5376,45.5856,47.2694,-0.0730319,-7.38221,6.82578,0.0769498,-0.00507145,-0.002943,4,0,41.39084252576524,-91.79912630814266,8980.926562493216,-56.307848954991954,-0.3355617197126648,-4.761225477426902,194.439,9006.830035856614,10864.345111209012,150,True,20.403436690069558,False,157.03299103839106,179.30773729581077,False,22.68584966350639,True,False
3,1970-07-23 10:29:32.353240570,2025-09-12,2025-09-26 17:13:55.324,AH,C,1478898332,JASSM,3,105,76,2,2,1,225,9,2,0,1,26,0,0,0,0,-187586.42028983065,-4786193.342744674,4202112.526823521,-2.30145,-0.153206,0.128279,88.875,-13.625,-11.5,0.0,0.0,0.0,0.0,0.0,0.0,2,0,41.45099344036173,-92.24445841400131,10002.625274250026,99.82211124907558,-0.0057819293054056,0.0071756037212327,,9006.830035856614,10864.345111209012,150,3,2025-09-12,2025-09-26 17:13:55.286,AH,C,667582738,AMBUSH51,1,1,48,2,1,1,225,2,1,0,0,9,1,225,2,1,-150608.44998885065,-4791646.994920955,4196942.141586811,2.38821,2.69512,-0.420507,-96.7908,45.6637,47.1918,-0.165546,-7.12356,6.58503,0.0411635,0.00386054,-0.00219607,4,0,41.39141770886378,-91.80029716832904,8978.276625410439,-56.65670777305118,-0.3574682841045101,0.1903766692150084,194.659,9006.830035856614,10864.345111209012,150,True,20.291843920860487,False,157.10605347849037,179.32988082709912,False,22.68262376017002,True,False
3,1970-07-23 10:29:32.364279198,2025-09-12,2025-09-26 17:13:56.427,AH,C,1480210682,JASSM,3,105,76,2,2,1,225,9,2,0,1,26,0,0,0,0,-187488.5628679556,-4786208.463838424,4202099.755339146,-2.30145,-0.153206,0.128279,88.875,-13.625,-11.5,0.0,0.0,0.0,0.0,0.0,0.0,2,0,41.45084010150688,-92.24328167330538,10002.62117148368,99.82289022582373,-0.0048867050906413,0.007174977779334,,9006.830035856614,10864.345111209012,150,3,2025-09-12,2025-09-26 17:13:56.220,AH,C,668696202,AMBUSH51,1,1,48,2,1,1,225,2,1,0,0,9,1,225,2,1,-150698.51631029998,-4791604.329192741,4196986.035654767,2.41972,2.69151,-0.428565,-96.8698,45.777,47.5121,-0.0851642,-7.50166,6.83135,0.0226837,-0.0055375,0.0183789,4,0,41.391951012473015,-91.8013890957731,8975.50082589233,-56.20329867632904,-0.1500472861344437,1.9085415892862063,194.854,9006.830035856614,10864.345111209012,150,True,20.1842158251052,False,156.9992802259503,179.34450144167977,False,22.851457717547987,True,False
3,1970-07-23 10:29:32.375299849,2025-09-12,2025-09-26 17:13:57.529,AH,C,1481523034,JASSM,3,105,76,2,2,1,225,9,2,0,1,26,0,0,0,0,-187390.7034929556,-4786223.584932174,4202086.985807896,-2.30145,-0.153206,0.128279,88.875,-13.625,-11.5,0.0,0.0,0.0,0.0,0.0,0.0,2,0,41.45068676424116,-92.24210491480636,10002.626240616391,99.82366921198562,-0.0039914659361599,0.0071743682068255,,9006.830035856614,10864.345111209012,150,3,2025-09-12,2025-09-26 17:13:57.586,AH,C,670326634,AMBUSH51,1,1,48,2,1,1,225,2,1,0,0,9,1,225,2,1,-150830.97607626053,-4791541.10182181,4197051.781396265,2.44156,2.68908,-0.435772,-96.4462,45.9432,48.3927,-0.0850401,-7.23439,6.59942,0.00299085,-0.000897777,0.000747974,4,0,41.39274621172273,-91.8029951972615,8972.834509885182,-55.829319530866,0.0655310226967665,3.101141457880452,195.38,9006.830035856614,10864.345111209012,150,True,20.05111132972112,False,156.56734214376323,179.35667900994994,False,23.374089694283917,True,False
3,1970-07-23 10:29:32.385338908,2025-09-12,2025-09-26 17:13:58.533,AH,C,1482775732,JASSM,3,105,76,2,2,1,225,9,2,0,1,26,0,0,0,0,-187297.2933367056,-4786238.016572799,4202074.794401646,-2.30145,-0.153206,0.128279,88.875,-13.625,-11.5,0.0,0.0,0.0,0.0,0.0,0.0,2,0,41.45054038248423,-92.24098166423094,10002.625707605312,99.824412774963,-0.003136929054239,0.007173781454728,,9006.830035856614,10864.345111209012,150,3,2025-09-12,2025-09-26 17:13:58.554,AH,C,671479866,AMBUSH51,1,1,48,2,1,1,225,2,1,0,0,9,1,225,2,1,-150924.02837680362,-4791496.282757865,4197098.458744715,2.42677,2.68166,-0.440505,-96.2714,46.5641,48.5679,-0.191644,-7.20257,6.78342,-0.0272922,0.000254873,-0.00170505,4,0,41.39331053106263,-91.80412365022818,8971.045878041763,-55.36370270306276,0.0013763326415308,2.0737030011260247,195.685,9006.830035856614,10864.345111209012,150,True,19.94404776076814,False,156.3049055256371,179.35610490580288,False,23.71126409699478,True,False
3,1970-07-23 10:29:32.396339378,2025-09-12,2025-09-26 17:13:59.633,AH,C,1484028432,JASSM,3,105,76,2,2,1,225,9,2,0,1,26,0,0,0,0,-187203.8831804556,-4786252.448213424,4202062.601042271,-2.30145,-0.153206,0.128279,88.875,-13.625,-11.5,0.0,0.0,0.0,0.0,0.0,0.0,2,0,41.45039397658161,-92.23985841870582,10002.625596039095,99.825156332438,-0.0022823899024863,0.0071731816791178,,9006.830035856614,10864.345111209012,150,3,2025-09-12,2025-09-26 17:13:59.520,AH,C,672633098,AMBUSH51,1,1,48,2,1,1,225,2,1,0,0,9,1,225,2,1,-151017.0142242645,-4791451.144258422,4197145.5459230775,2.3788,2.67727,-0.44309,-96.2786,46.6752,48.9309,-0.256258,-7.21924,6.82532,-0.0857153,-0.00144705,-0.00303039,4,0,41.39387951898039,-91.8052514493264,8969.361967069726,-55.09743592843144,-0.0439619578941839,-0.7822367992751325,195.954,9006.830035856614,10864.345111209012,150,True,19.836995104251123,False,156.16740311449584,179.34779748320835,False,23.918108594935692,True,False
3,1970-07-23 10:29:32.407356947,2025-09-12,2025-09-26 17:14:00.735,AH,C,1485340782,JASSM,3,105,76,2,2,1,225,9,2,0,1,26,0,0,0,0,-187106.02575858065,-4786267.565400924,4202049.827604771,-2.30145,-0.153206,0.128279,88.875,-13.625,-11.5,0.0,0.0,0.0,0.0,0.0,0.0,2,0,41.45024060073768,-92.2386817015034,10002.62765956949,99.8259352843673,-0.0013871686635803,0.0071725652546349,,9006.830035856614,10864.345111209012,150,3,2025-09-12,2025-09-26 17:14:00.686,AH,C,674024930,AMBUSH51,1,1,48,2,1,1,225,2,1,0,0,9,1,225,2,1,-151129.40723801704,-4791396.472440444,4197202.554518987,2.30944,2.6747,-0.442342,-96.7108,46.5005,48.9659,-0.0957576,-7.26262,6.65528,-0.0370939,-0.00232298,0.00200049,4,0,41.39456854826392,-91.8066147013232,8967.262417113387,-55.02998135749638,-0.1647419421543969,-4.819764314282734,196.443,9006.830035856614,10864.345111209012,150,True,19.715878085775365,False,156.3217478753566,179.32755729540355,False,23.84912118611662,True,False
3,1970-07-23 10:29:32.417238164,2025-09-12,2025-09-26 17:14:01.723,AH,C,1486593480,JASSM,3,105,76,2,2,1,225,9,2,0,1,26,0,0,0,0,-187012.61560233065,-4786281.993135299,4202037.632292271,-2.30145,-0.15311,0.128279,88.875,-13.625,-11.5,0.0,0.0,0.0,0.0,0.0,0.0,2,0,41.45009418244997,-92.2375584681458,10002.623256314106,99.8230425546984,-0.0045895649383868,0.0064694082228001,,9006.830035856614,10864.345111209012,150,3,2025-09-12,2025-09-26 17:14:01.853,AH,C,675416762,AMBUSH51,1,1,48,2,1,1,225,2,1,0,0,9,1,225,2,1,-151241.7677225969,-4791342.35617923,4197258.851254705,2.28389,2.68098,-0.433591,-97.4386,46.2521,48.4824,0.045107,-7.13389,6.54481,-0.0175696,-0.00418512,-0.000417159,4,0,41.39524945669481,-91.8079773842857,8964.99233415077,-55.6108722835816,-0.3087454542422835,-6.128305810467416,196.785,9006.830035856614,10864.345111209012,150,True,19.597353836691642,False,156.73419839770978,179.2969884760571,False,23.525567236250005,True,False
3,1970-07-23 10:29:32.428258462,2025-09-12,2025-09-26 17:14:02.825,AH,C,1487846180,JASSM,3,105,76,2,2,1,225,9,2,0,1,26,0,0,0,0,-186919.2034929556,-4786296.420869674,4202025.436979771,-2.30145,-0.15311,0.128279,88.875,-13.625,-11.5,0.0,0.0,0.0,0.0,0.0,0.0,2,0,41.44994775364567,-92.2364352164943,10002.623328904105,99.82378610969036,-0.0037350116635297,0.0064687672164985,,9006.830035856614,10864.345111209012,150,3,2025-09-12,2025-09-26 17:14:02.686,AH,C,676410928,AMBUSH51,1,1,48,2,1,1,225,2,1,0,0,9,1,225,2,1,-151323.3745117389,-4791303.236761914,4197299.473115584,2.31762,2.68538,-0.432639,-97.884,46.0305,48.2886,-0.200757,-7.27541,6.84123,0.0922213,-0.00024655,-0.000949792,4,0,41.39574108973521,-91.80896704151542,8963.227118113431,-55.815930353996166,-0.1914534858270798,-4.0893665673941255,196.968,9006.830035856614,10864.345111209012,150,True,19.49730790971785,False,156.9720723741736,179.26832484337956,False,23.350881773284804,True,False
3,1970-07-23 10:29:32.439279249,2025-09-12,2025-09-26 17:14:03.927,AH,C,1489158530,JASSM,3,105,76,2,2,1,225,9,2,0,1,26,0,0,0,0,-186821.34607108065,-4786311.534150924,4202012.659636021,-2.30145,-0.15311,0.128375,88.875,-13.625,-11.5,0.0,0.0,0.0,0.0,0.0,0.0,2,0,41.44979433967945,-92.23525851724304,10002.622198890176,99.8286556077897,-0.0065061656429763,0.0064677569370475,,9006.830035856614,10864.345111209012,150,3,2025-09-12,2025-09-26 17:14:03.853,AH,C,677802760,AMBUSH51,1,1,48,2,1,1,225,2,1,0,0,9,1,225,2,1,-151436.90167036292,-4791249.675588228,4197354.95968633,2.37714,2.69185,-0.428067,-98.2709,45.9045,48.2125,-0.382877,-7.20859,6.97446,0.0296058,0.00242909,-0.00240829,4,0,41.39641297931372,-91.81034350209158,8960.67214793857,-56.24179312791796,-0.1505498525301128,-0.5229842281775188,197.225,9006.830035856614,10864.345111209012,150,True,19.37590287719599,False,157.13263178200677,179.22264166504402,False,23.276932280295934,True,False
3,1970-07-23 10:29:32.450298047,2025-09-12,2025-09-26 17:14:05.029,AH,C,1490470882,JASSM,3,105,76,2,2,1,225,9,2,0,1,26,0,0,0,0,-186723.48669608065,-4786326.647432174,4201999.882292271,-2.30145,-0.15311,0.128375,88.875,-13.625,-11.5,0.0,0.0,0.0,0.0,0.0,0.0,2,0,41.44964091412697,-92.23408180019156,10002.625999538894,99.82943455043284,-0.0056109279610127,0.0064671475805971,,9006.830035856614,10864.345111209012,150,3,2025-09-12,2025-09-26 17:14:05.053,AH,C,679234358,AMBUSH51,1,1,48,2,1,1,225,2,1,0,0,9,1,225,2,1,-151554.74013878463,-4791194.384839632,4197412.3698481005,2.40459,2.6858,-0.434835,-98.356,45.9503,48.4605,-0.15989,-7.18481,6.80201,-0.0112404,-0.00765555,0.00318227,4,0,41.397107316775454,-91.81177215044764,8958.381078705772,-55.74790714226147,-0.0819730899396141,0.9041422485192848,197.787,9006.830035856614,10864.345111209012,150,True,19.252006569093467,False,157.06772391846155,179.16794677625944,False,23.43118415300002,True,False
3,1970-07-23 10:29:32.461320541,2025-09-12,2025-09-26 17:14:06.132,AH,C,1491783232,JASSM,3,105,76,2,2,1,225,9,2,0,1,26,0,0,0,0,-186625.62732108065,-4786341.758760299,4201987.102995396,-2.30145,-0.15311,0.128375,88.875,-13.625,-11.5,0.0,0.0,0.0,0.0,0.0,0.0,2,0,41.44948747498609,-92.23290508959587,10002.625877177525,99.8302134864312,-0.0047156906635645,0.0064665365360737,,9006.830035856614,10864.345111209012,150,3,2025-09-12,2025-09-26 17:14:06.154,AH,C,680546656,AMBUSH51,1,1,48,2,1,1,225,2,1,0,0,9,1,225,2,1,-151663.48865661956,-4791142.945557303,4197465.930598112,2.35874,2.68065,-0.43631,-98.4864,46.3723,48.4898,-0.136896,-7.27443,6.6436,-0.0560668,0.00014044,-0.00667767,4,0,41.39775444851728,-91.8130907778628,8956.515062854654,-55.49554936066579,-0.201869881485264,-1.8484828818503745,198.056,9006.830035856614,10864.345111209012,150,True,19.13350154258284,False,156.9863981141834,179.1105472658898,False,23.603166083262682,True,False
3,1970-07-23 10:29:32.472378134,2025-09-12,2025-09-26 17:14:07.237,AH,C,1493095584,JASSM,3,105,76,2,2,1,225,9,2,0,1,26,0,0,0,0,-186527.7698992056,-4786356.868135299,4201974.321745396,-2.30145,-0.15311,0.128375,88.875,-13.625,-11.5,0.0,0.0,0.0,0.0,0.0,0.0,2,0,41.44933402180376,-92.2317284088003,10002.622018858918,99.83099240033192,-0.0038204709134265,0.0064659203694001,,9006.830035856614,10864.345111209012,150,3,2025-09-12,2025-09-26 17:14:07.419,AH,C,682057788,AMBUSH51,1,1,48,2,1,1,225,2,1,0,0,9,1,225,2,1,-151787.8760780986,-4791084.177182495,4197527.344112718,2.31641,2.68379,-0.43619,-98.8554,46.0726,48.512,-0.108823,-7.29734,6.60987,-0.0150354,0.00100389,-0.00964252,4,0,41.39849523299643,-91.8145990409242,8954.885692676527,-55.620174889459065,-0.0944505619958476,-4.19744148528824,198.459,9006.830035856614,10864.345111209012,150,True,19.005721610396975,False,157.15540682954713,179.03905457353144,False,23.530709264396613,True,False
3,1970-07-23 10:29:32.483217113,2025-09-12,2025-09-26 17:14:08.321,AH,C,1494407936,JASSM,3,105,76,2,2,1,225,9,2,0,1,26,0,0,0,0,-186429.9105242056,-4786371.977510299,4201961.540495396,-2.30145,-0.15311,0.128375,88.875,-13.625,-11.5,0.0,0.0,0.0,0.0,0.0,0.0,2,0,41.449180557034815,-92.2305517102055,10002.623091471838,99.83177132364284,-0.0029252339756933,0.0064653075907255,,9006.830035856614,10864.345111209012,150,3,2025-09-12,2025-09-26 17:14:08.286,AH,C,683091720,AMBUSH51,1,1,48,2,1,1,225,2,1,0,0,9,1,225,2,1,-151872.65351191608,-4791044.473302479,4197568.770261624,2.30098,2.6891,-0.431847,-99.2065,45.9264,48.1787,-0.142488,-7.19318,6.65983,-0.0179087,-0.0034361,0.00864591,4,0,41.39899511819767,-91.815626899116,8953.708740536782,-55.992434053664525,-0.0863074538105159,-4.9527970152207645,198.789,9006.830035856614,10864.345111209012,150,True,18.901628197462784,False,157.38866055322978,178.98661188489578,False,23.367808728475048,True,False
3,1970-07-23 10:29:32.494238751,2025-09-12,2025-09-26 17:14:09.423,AH,C,1495779940,JASSM,3,105,76,2,2,1,225,9,2,0,1,26,0,0,0,0,-186327.60388358065,-4786387.772432174,4201948.177214146,-2.30145,-0.15311,0.128375,88.875,-13.625,-11.5,0.0,0.0,0.0,0.0,0.0,0.0,2,0,41.44902010372808,-92.22932154243092,10002.624402287016,99.83258563869002,-0.0019893126895872,0.0064646654834879,,9006.830035856614,10864.345111209012,150,3,2025-09-12,2025-09-26 17:14:09.419,AH,C,684443786,AMBUSH51,1,1,48,2,1,1,225,2,1,0,0,9,1,225,2,1,-151985.9462850535,-4790992.162475647,4197623.148728865,2.3384,2.69542,-0.429533,-99.8043,45.5389,47.8219,-0.291141,-7.29377,6.80341,0.12513,-0.00101221,-0.00459915,4,0,41.39965205353116,-91.81700022426584,8951.853710842715,-56.32387683221351,0.0441630893855116,-2.6573440500889225,199.131,9006.830035856614,10864.345111209012,150,True,18.77829366118303,False,157.75560156759823,178.91511342526263,False,23.090344315025643,True,False
3,1970-07-23 10:29:32.505257449,2025-09-12,2025-09-26 17:14:10.525,AH,C,1497032638,JASSM,3,105,76,2,2,1,225,9,2,0,1,26,0,0,0,0,-186234.19372733065,-4786402.192354049,4201935.976042271,-2.30145,-0.153015,0.128375,88.875,-13.625,-11.5,0.0,0.0,0.0,0.0,0.0,0.0,2,0,41.448873601003534,-92.2281983548177,10002.626937210867,99.82969295593468,-0.0051917074108318,0.0057610371776504,,9006.830035856614,10864.345111209012,150,3,2025-09-12,2025-09-26 17:14:10.619,AH,C,685875384,AMBUSH51,1,1,48,2,1,1,225,2,1,0,0,9,1,225,2,1,-152105.47562495983,-4790937.1348892,4197680.313325557,2.44076,2.7007,-0.427968,-99.7873,45.6906,48.0807,-0.182281,-7.38956,6.74386,0.0698633,0.0100025,0.0133501,4,0,41.4003427658702,-91.81844911701025,8949.857687018746,-56.58640750551931,0.1695091167710468,3.33248246488522,199.168,9006.830035856614,10864.345111209012,150,True,18.656212140740564,False,157.63298302387963,178.8365914965684,False,23.30794198081871,True,False
3,1970-07-23 10:29:32.516297709,2025-09-12,2025-09-26 17:14:11.629,AH,C,1498344988,JASSM,3,105,76,2,2,1,225,9,2,0,1,26,0,0,0,0,-186136.33435233065,-4786417.297822799,4201923.190886021,-2.30145,-0.153015,0.128375,88.875,-13.625,-11.5,0.0,0.0,0.0,0.0,0.0,0.0,2,0,41.44872009701894,-92.22702167468005,10002.625281751329,99.83047185995974,-0.0042964712557723,0.0057603641620892,,9006.830035856614,10864.345111209012,150,3,2025-09-12,2025-09-26 17:14:11.753,AH,C,687227450,AMBUSH51,1,1,48,2,1,1,225,2,1,0,0,9,1,225,2,1,-152217.52812225957,-4790885.064337296,4197734.856359091,2.50526,2.6885,-0.439912,-99.2946,46.0668,49.1592,-0.175789,-7.17609,6.70031,-0.00274326,-0.000302727,0.00500487,4,0,41.40099958362317,-91.81980759033269,8948.873356226653,-55.65644264093682,0.2331742601707083,6.737748881296984,199.388,9006.830035856614,10864.345111209012,150,True,18.53607545884219,False,157.07617321274952,178.75821976860223,False,23.951636881113266,True,False
3,1970-07-23 10:29:32.530568327,2025-09-12,2025-09-26 17:14:13.056,AH,C,1499657338,JASSM,3,105,76,2,2,1,225,9,2,0,1,26,0,0,0,0,-186038.47497733065,-4786432.401338424,4201910.405729771,-2.30145,-0.153015,0.128375,88.875,-13.625,-11.5,0.0,0.0,0.0,0.0,0.0,0.0,2,0,41.44856659262147,-92.22584500099715,10002.62394495506,99.8312507573378,-0.0034012377321567,0.0057597024401136,,9006.830035856614,10864.345111209012,150,3,2025-09-12,2025-09-26 17:14:13.053,AH,C,688778348,AMBUSH51,1,1,48,2,1,1,225,2,1,0,0,9,1,225,2,1,-152345.6785241195,-4790823.900065202,4197799.065334076,2.44923,2.67388,-0.449188,-98.4902,46.927,50.0758,-0.11861,-7.37183,6.59146,-0.110707,0.00150115,0.015,4,0,41.40177269368589,-91.821361873825,8947.762263371538,-54.74169366737493,0.1070070564193486,3.169696139215976,199.571,9006.830035856614,10864.345111209012,150,True,18.406220195488974,False,156.36533295150966,178.6621308663194,False,24.774761076097843,True,False
3,1970-07-23 10:29:32.538336968,2025-09-12,2025-09-26 17:14:13.833,AH,C,1500969690,JASSM,3,105,76,2,2,1,225,9,2,0,1,26,0,0,0,0,-185940.61560233065,-4786447.504854049,4201897.618620396,-2.30145,-0.153015,0.128471,88.875,-13.625,-11.5,0.0,0.0,0.0,0.0,0.0,0.0,2,0,41.448413063009575,-92.22466833286174,10002.623484521757,99.83612025894438,-0.0061723257407935,0.0057587178974746,,9006.830035856614,10864.345111209012,150,3,2025-09-12,2025-09-26 17:14:13.786,AH,C,689653214,AMBUSH51,1,1,48,2,1,1,225,2,1,0,0,9,1,225,2,1,-152417.8128178724,-4790789.394965587,4197835.287477373,2.35786,2.66599,-0.4551,-98.4222,47.126,49.9598,-0.131838,-7.21519,6.64446,-0.116421,0.00803422,0.00229386,4,0,41.4022088516469,-91.8222368063396,8947.127143057067,-54.213727429278514,0.0805621561231172,-2.2617782954508368,199.608,9006.830035856614,10864.345111209012,150,True,18.309690556561996,False,156.33258370242703,178.60438022908198,False,24.87597183972372,True,False
3,1970-07-23 10:29:32.552169584,2025-09-12,2025-09-26 17:14:15.216,AH,C,1502222390,JASSM,3,105,76,2,2,1,225,9,2,0,1,26,0,0,0,0,-185847.20544608065,-4786461.920869674,4201885.413542271,-2.30145,-0.153015,0.128471,88.875,-13.625,-11.5,0.0,0.0,0.0,0.0,0.0,0.0,2,0,41.44826651174254,-92.22354516800392,10002.62725655858,99.83686373179086,-0.0053177940243795,0.0057581438921787,,9006.830035856614,10864.345111209012,150,3,2025-09-12,2025-09-26 17:14:15.252,AH,C,691402946,AMBUSH51,1,1,48,2,1,1,225,2,1,0,0,9,1,225,2,1,-152562.6495828221,-4790720.348191008,4197907.809885863,2.21921,2.67583,-0.442984,-99.2624,46.446,49.2432,-0.112297,-7.20708,6.40301,-0.0628267,-0.0121309,-0.0184351,4,0,41.40308178492536,-91.82399350891548,8945.992835696607,-55.05936565053876,-0.0824012057783182,-9.96110098890621,199.987,9006.830035856614,10864.345111209012,150,True,18.172491609137264,False,156.94717189034643,178.49011973119462,False,24.38865881631949,True,False
3,1970-07-23 10:29:32.560218013,2025-09-12,2025-09-26 17:14:16.021,AH,C,1503594394,JASSM,3,105,76,2,2,1,225,9,2,0,1,26,0,0,0,0,-185744.89685233065,-4786477.707979049,4201872.044401646,-2.30145,-0.153015,0.128471,88.875,-13.625,-11.5,0.0,0.0,0.0,0.0,0.0,0.0,2,0,41.4481059909215,-92.22231501504886,10002.62831892634,99.83767802234328,-0.0043818592945806,0.005757518768854,,9006.830035856614,10864.345111209012,150,3,2025-09-12,2025-09-26 17:14:15.986,AH,C,692277812,AMBUSH51,1,1,48,2,1,1,225,2,1,0,0,9,1,225,2,1,-152635.71482965315,-4790686.283265727,4197943.391079442,2.18924,2.68055,-0.435168,-100.036,46.0523,48.2452,-0.0133613,-7.27439,6.41454,-0.0189345,0.00355054,-0.0159426,4,0,41.40351080077384,-91.82487943192714,8945.13449569309,-55.54411023743765,-0.2427808531235178,-11.562071185782155,199.767,9006.830035856614,10864.345111209012,150,False,18.073168491281674,False,157.55640969974903,178.4300650857656,False,23.850304221100103,True,False
3,1970-07-23 10:29:32.571239031,2025-09-12,2025-09-26 17:14:17.123,AH,C,1504906744,JASSM,3,105,76,2,2,1,225,9,2,0,1,26,0,0,0,0,-185647.0394304556,-4786492.807588424,4201859.253386021,-2.30145,-0.153015,0.128471,88.875,-13.625,-11.5,0.0,0.0,0.0,0.0,0.0,0.0,2,0,41.44795242164415,-92.2211383887158,10002.62531659037,99.83845687892288,-0.0034866413526106,0.0057569010777329,,9006.830035856614,10864.345111209012,150,3,2025-09-12,2025-09-26 17:14:17.119,AH,C,693629876,AMBUSH51,1,1,48,2,1,1,225,2,1,0,0,9,1,225,2,1,-152750.24890152205,-4790634.009795626,4197997.666538845,2.25597,2.69383,-0.419457,-101.089,45.245,47.1066,-0.370279,-7.16371,6.58438,0.0937714,0.00997333,-0.0105621,4,0,41.40416647272262,-91.82626776325898,8943.309719427167,-56.66586065244258,-0.4244420359925649,-7.4169048026630415,200.097,9006.830035856614,10864.345111209012,150,True,17.951964810609077,False,158.38554944175957,178.3397766988104,False,23.121521997223578,True,False
3,1970-07-23 10:29:32.588959922,2025-09-12,2025-09-26 17:14:18.895,AH,C,1506219096,JASSM,3,105,76,2,2,1,225,9,2,0,1,26,0,0,0,0,-185549.1800554556,-4786507.905244674,4201846.464323521,-2.30145,-0.153015,0.128471,88.875,-13.625,-11.5,0.0,0.0,0.0,0.0,0.0,0.0,2,0,41.4477988655809,-92.21996174549254,10002.626688192073,99.8392357443078,-0.0025914111296065,0.0057563110957036,,9006.830035856614,10864.345111209012,150,3,2025-09-12,2025-09-26 17:14:18.853,AH,C,695697740,AMBUSH51,1,1,48,2,1,1,225,2,1,0,0,9,1,225,2,1,-152923.8100638857,-4790556.153857516,4198078.522088691,2.47208,2.71383,-0.419841,-100.801,44.5981,47.3502,-0.0974933,-7.6727,6.59546,0.073342,0.00601604,0.0179649,4,0,41.40514255305874,-91.828371130738,8940.882091454758,-57.41043841801934,0.3145141474155254,5.433016107784585,199.461,9006.830035856614,10864.345111209012,150,True,17.796220006785372,False,158.4011792046916,178.20499079007206,False,23.241473487895597,True,False
3,1970-07-23 10:29:32.593301454,2025-09-12,2025-09-26 17:14:19.330,AH,C,1507531446,JASSM,3,105,76,2,2,1,225,9,2,0,1,26,0,0,0,0,-185451.3206804556,-4786523.002900924,4201833.671354771,-2.30145,-0.152919,0.128471,88.875,-13.625,-11.5,0.0,0.0,0.0,0.0,0.0,0.0,2,0,41.44764527112845,-92.21878510781865,10002.624694575035,99.8363785192958,-0.0057530982792352,0.0050521574288328,,9006.830035856614,10864.345111209012,150,3,2025-09-12,2025-09-26 17:14:19.286,AH,C,696214708,AMBUSH51,1,1,48,2,1,1,225,2,1,0,0,9,1,225,2,1,-152967.13377276537,-4790536.707158355,4198098.89664577,2.49932,2.71071,-0.425063,-100.354,44.865,47.5378,-0.131582,-7.60642,6.46431,0.0615263,0.00462204,0.0194816,4,0,41.40538756156195,-91.82889618040603,8940.664535572965,-57.08608575252756,0.4182835158051585,6.9227136917086165,199.168,9006.830035856614,10864.345111209012,150,True,17.717090753434313,False,158.15909740817065,178.16621450255252,False,23.525960880894008,True,False
3,1970-07-23 10:29:32.603322327,2025-09-12,2025-09-26 17:14:20.332,AH,C,1508784146,JASSM,3,105,76,2,2,1,225,9,2,0,1,26,0,0,0,0,-185357.90857108065,-4786537.413057174,4201821.460417271,-2.30145,-0.152919,0.128471,88.875,-13.625,-11.5,0.0,0.0,0.0,0.0,0.0,0.0,2,0,41.4474986582084,-92.21766194881718,10002.625584033958,99.83712197698478,-0.0048985505357578,0.0050515274807884,,9006.830035856614,10864.345111209012,150,3,2025-09-12,2025-09-26 17:14:20.419,AH,C,697566772,AMBUSH51,1,1,48,2,1,1,225,2,1,0,0,9,1,225,2,1,-153080.66902958936,-4790484.802523261,4198153.481105125,2.54791,2.69571,-0.433722,-99.2089,45.7359,48.5013,-0.337533,-7.49225,6.30775,0.00207955,-0.00167176,0.00375235,4,0,41.406043266512455,-91.83027251791036,8940.366781558394,-56.1789392042123,0.2409414980831533,9.354240220691938,199.168,9006.830035856614,10864.345111209012,150,True,17.5990144782338,False,157.3385730124474,178.07035170798062,False,24.449439376801326,True,False
3,1970-07-23 10:29:32.614336740,2025-09-12,2025-09-26 17:14:21.433,AH,C,1510096490,JASSM,3,105,76,2,2,1,225,9,2,0,1,26,0,0,0,0,-185260.04919608065,-4786552.506807174,4201808.667448521,-2.30145,-0.152919,0.128471,88.875,-13.625,-11.5,0.0,0.0,0.0,0.0,0.0,0.0,2,0,41.447345063478885,-92.2164853237992,10002.623994848656,99.8379008233531,-0.0040033210878911,0.0050508772658665,,9006.830035856614,10864.345111209012,150,3,2025-09-12,2025-09-26 17:14:21.486,AH,C,698839304,AMBUSH51,1,1,48,2,1,1,225,2,1,0,0,9,1,225,2,1,-153185.23536751632,-4790435.226745812,4198205.470448519,2.54276,2.68659,-0.437479,-98.1441,46.8489,49.5178,-0.351996,-7.60604,6.33446,-0.0248121,0.00590993,0.0116045,4,0,41.40666928737502,-91.83154083052708,8939.469691305172,-55.686984672444936,0.0739276530117444,8.839677831661843,198.691,9006.830035856614,10864.345111209012,150,True,17.48361672467062,False,156.45995120229793,177.97545888461974,False,25.43125214783096,True,False
3,1970-07-23 10:29:32.626233609,2025-09-12,2025-09-26 17:14:22.623,AH,C,1511349196,JASSM,3,105,76,2,2,1,225,9,2,0,1,26,0,0,0,0,-185166.63903983065,-4786566.915010299,4201796.454557896,-2.30145,-0.152919,0.128471,88.875,-13.625,-11.5,0.0,0.0,0.0,0.0,0.0,0.0,2,0,41.44719842609987,-92.21536219940096,10002.625577684586,99.83864425370687,-0.0031487908664034,0.0050502421567785,,9006.830035856614,10864.345111209012,150,3,2025-09-12,2025-09-26 17:14:22.653,AH,C,700231136,AMBUSH51,1,1,48,2,1,1,225,2,1,0,0,9,1,225,2,1,-153300.0575230091,-4790379.544517431,4198263.976637984,2.43357,2.67018,-0.449028,-97.267,47.3088,50.3451,0.157136,-7.48698,6.47106,-0.127976,0.00561657,0.0118479,4,0,41.407373664227634,-91.83293404252008,8938.510873093617,-54.615560511822544,-0.0189997379226524,2.18083616239606,198.691,9006.830035856614,10864.345111209012,150,True,17.36450105706539,False,155.8525227985255,177.86708314704217,False,26.150200930468745,True,False
3,1970-07-23 10:29:32.634295234,2025-09-12,2025-09-26 17:14:23.429,AH,C,1512422936,JASSM,3,105,76,2,2,1,225,9,2,0,1,26,0,0,0,0,-185086.5706804556,-4786579.262666549,4201785.985807896,-2.30145,-0.152919,0.128471,88.875,-13.625,-11.5,0.0,0.0,0.0,0.0,0.0,0.0,2,0,41.44707273828873,-92.2143994963889,10002.623710233043,99.83928149452076,-0.0024163166951058,0.0050497114086763,,9006.830035856614,10864.345111209012,150,3,2025-09-12,2025-09-26 17:14:23.385,AH,C,701106002,AMBUSH51,1,1,48,2,1,1,225,2,1,0,0,9,1,225,2,1,-153370.19771873415,-4790345.054946818,4198300.340341464,2.3654,2.67022,-0.448565,-97.0656,47.4805,50.3368,0.0615183,-7.56714,6.31515,-0.0881975,-0.0108097,-0.00284521,4,0,41.40781097715636,-91.83378529598676,8938.116030148909,-54.63551724107757,-0.0364693289986957,-1.7239671710945177,198.545,9006.830035856614,10864.345111209012,150,True,17.279095103324888,False,155.75630870179364,177.7969219070278,False,26.321898085663488,True,False
3,1970-07-23 10:29:32.643802321,2025-09-12,2025-09-26 17:14:24.380,AH,C,1513556332,JASSM,3,105,76,2,2,1,225,9,2,0,1,26,0,0,0,0,-185002.05700858065,-4786592.297822799,4201774.935026646,-2.30145,-0.152919,0.128567,88.875,-13.625,-11.5,0.0,0.0,0.0,0.0,0.0,0.0,2,0,41.44694004643405,-92.21338334822192,10002.628524761469,99.84404476618836,-0.0053094458039019,0.0050488860944199,,9006.830035856614,10864.345111209012,150,3,2025-09-12,2025-09-26 17:14:24.485,AH,C,702418300,AMBUSH51,1,1,48,2,1,1,225,2,1,0,0,9,1,225,2,1,-153477.54565284593,-4790292.329822168,4198356.000348046,2.29188,2.67341,-0.440045,-97.2987,47.1649,50.0823,-0.0225389,-7.10371,6.13301,-0.0335943,-0.0148398,-0.024602,4,0,41.40847994493616,-91.8350881186302,8937.681044783032,-55.08901705651871,-0.2814864781715175,-5.8565757169424,198.435,9006.830035856614,10864.345111209012,150,True,17.169284854292474,False,155.97684628034267,177.69076793693696,False,26.211333073974725,True,False
3,1970-07-23 10:29:32.654355815,2025-09-12,2025-09-26 17:14:25.435,AH,C,1514749378,JASSM,3,105,76,2,2,1,225,9,2,0,1,26,0,0,0,0,-184913.0941179556,-4786606.016572799,4201763.300261021,-2.30145,-0.152919,0.128567,88.875,-13.625,-11.5,0.0,0.0,0.0,0.0,0.0,0.0,2,0,41.446800360094485,-92.2123137106707,10002.62641211664,99.84475278635418,-0.0044956006254484,0.0050483372622724,,9006.830035856614,10864.345111209012,150,3,2025-09-12,2025-09-26 17:14:25.319,AH,C,703412466,AMBUSH51,1,1,48,2,1,1,225,2,1,0,0,9,1,225,2,1,-153558.40855144124,-4790252.979830196,4198397.358801416,2.28354,2.68089,-0.436,-97.601,46.9521,49.4178,-0.227317,-7.30223,6.52562,0.0275814,-0.0109366,-0.010508,4,0,41.40897783124176,-91.83606938423392,8937.026345928552,-55.5318743549273,-0.1858590237016259,-6.150783418182935,198.325,9006.830035856614,10864.345111209012,150,True,17.07279780020386,False,156.31543480361805,177.6086751539653,False,25.96208274263034,True,False
3,1970-07-23 10:29:32.663256697,2025-09-12,2025-09-26 17:14:26.325,AH,C,1515882772,JASSM,3,105,76,2,2,1,225,9,2,0,1,26,0,0,0,0,-184828.5784929556,-4786619.047822799,4201752.247526646,-2.30145,-0.152919,0.128567,88.875,-13.625,-11.5,0.0,0.0,0.0,0.0,0.0,0.0,2,0,41.44666766033636,-92.2112975494634,10002.625036050826,99.84542540735592,-0.0037224424248154,0.0050478284006821,,9006.830035856614,10864.345111209012,150,3,2025-09-12,2025-09-26 17:14:26.385,AH,C,704684998,AMBUSH51,1,1,48,2,1,1,225,2,1,0,0,9,1,225,2,1,-153661.84423704204,-4790203.385060063,4198449.384755579,2.32201,2.6903,-0.428715,-97.9553,46.5199,48.9372,-0.042117,-7.14121,6.38202,0.0662888,0.00438485,-0.0155597,4,0,41.40960436404125,-91.83732430741988,8936.110895582118,-56.17532363924646,-0.1547076316329799,-3.718753426683975,198.056,9006.830035856614,10864.345111209012,150,True,16.965572206286538,False,156.6681875083341,177.50637589182736,False,25.715326542836944,True,False
3,1970-07-23 10:29:32.682334728,2025-09-12,2025-09-26 17:14:28.233,AH,C,1518149560,JASSM,3,105,76,2,2,1,225,9,2,0,1,26,0,0,0,0,-184659.5472429556,-4786645.108369674,4201730.140104771,-2.30145,-0.152823,0.128567,88.875,-13.625,-11.5,0.0,0.0,0.0,0.0,0.0,0.0,2,0,41.44640223233495,-92.20926524037316,10002.624694993645,99.8431346461346,-0.0062330430071541,0.0043427793977899,,9006.830035856614,10864.345111209012,150,3,2025-09-12,2025-09-26 17:14:28.052,AH,C,706673330,AMBUSH51,1,1,48,2,1,1,225,2,1,0,0,9,1,225,2,1,-153824.8908960254,-4790125.810428266,4198530.808661401,2.46348,2.69252,-0.433224,-97.6998,46.3866,49.4046,-0.186277,-7.53421,6.62083,0.03085,-0.00373155,0.00591201,4,0,41.41058441399897,-91.83930227297978,8934.895388235698,-56.08362298101287,0.1142918345605771,4.439820887725905,197.909,9006.830035856614,10864.345111209012,150,True,16.777117018513344,False,156.48888491814714,177.3401201772023,False,26.060203519025315,True,False
3,1970-07-23 10:29:32.683787145,2025-09-12,2025-09-26 17:14:28.378,AH,C,1517016166,JASSM,3,105,76,2,2,1,225,9,2,0,1,26,0,0,0,0,-184744.0628679556,-4786632.079072799,4201741.194792271,-2.30145,-0.152919,0.128567,88.875,-13.625,-11.5,0.0,0.0,0.0,0.0,0.0,0.0,2,0,41.44653495159962,-92.21028139239714,10002.627477393256,99.8460980238456,-0.0029492842063358,0.0050473195047395,,9006.830035856614,10864.345111209012,150,3,2025-09-12,2025-09-26 17:14:28.419,AH,C,707110762,AMBUSH51,1,1,48,2,1,1,225,2,1,0,0,9,1,225,2,1,-153861.30446582564,-4790108.361245302,4198549.197803084,2.47819,2.6867,-0.437106,-97.4975,46.6859,49.5253,-0.077665,-7.32146,6.49582,0.0332094,0.00208996,0.0271466,4,0,41.41080540626525,-91.83974407223708,8934.764986125165,-55.71127161328294,0.0697261204318622,5.143206724143678,197.873,9006.830035856614,10864.345111209012,150,True,16.802025385250474,False,156.3212605798337,177.31308618109202,False,26.258646643696014,True,False
3,1970-07-23 10:29:32.691235057,2025-09-12,2025-09-26 17:14:29.123,AH,C,1519282954,JASSM,3,105,76,2,2,1,225,9,2,0,1,26,0,0,0,0,-184575.03357108065,-4786658.137666549,4201719.083464146,-2.30145,-0.152823,0.128567,88.875,-13.625,-11.5,0.0,0.0,0.0,0.0,0.0,0.0,2,0,41.44626949046788,-92.2082491158346,10002.62167357595,99.84380723759394,-0.0054599000985511,0.0043422033116638,,9006.830035856614,10864.345111209012,150,3,2025-09-12,2025-09-26 17:14:29.086,AH,C,707906094,AMBUSH51,1,1,48,2,1,1,225,2,1,0,0,9,1,225,2,1,-153925.5233360206,-4790077.390628849,4198582.003333352,2.51304,2.67765,-0.442307,-97.17,46.28,50.5638,-0.107615,-7.27587,6.4987,0.0526692,-0.00220855,0.0135811,4,0,41.41119884513646,-91.84052331123868,8934.864987708694,-55.16552112253698,-0.0320545032357455,6.919209607380205,197.909,9006.830035856614,10864.345111209012,150,True,16.67165149087865,False,156.0114623792584,177.2353816779703,False,26.632773648068994,True,False
3,1970-07-23 10:29:32.701251936,2025-09-12,2025-09-26 17:14:30.125,AH,C,1520356696,JASSM,3,105,76,2,2,1,225,9,2,0,1,26,0,0,0,0,-184494.9652117056,-4786670.481416549,4201708.610807896,-2.30145,-0.152823,0.128567,88.875,-13.625,-11.5,0.0,0.0,0.0,0.0,0.0,0.0,2,0,41.4461437400153,-92.20728644208796,10002.627039402749,99.8444444473578,-0.0047274266067115,0.0043416748641839,,9006.830035856614,10864.345111209012,150,3,2025-09-12,2025-09-26 17:14:30.153,AH,C,709178626,AMBUSH51,1,1,48,2,1,1,225,2,1,0,0,9,1,225,2,1,-154029.28624085107,-4790026.021758295,4198636.183319397,2.54077,2.67118,-0.450917,-96.2141,47.7937,51.0536,-0.147074,-7.38121,6.63716,0.0094511,0.00686076,0.0152934,4,0,41.41185036239125,-91.84178291193554,8934.315954202217,-54.58584532895893,0.1035240483520058,8.34860765940813,197.873,9006.830035856614,10864.345111209012,150,True,16.566684407821704,False,155.22307638264041,177.12279658727286,False,27.54991843505874,True,False
3,1970-07-23 10:29:32.710295936,2025-09-12,2025-09-26 17:14:31.029,AH,C,1521490090,JASSM,3,105,76,2,2,1,225,9,2,0,1,26,0,0,0,0,-184410.4495867056,-4786683.508760299,4201697.554167271,-2.30145,-0.152823,0.128567,88.875,-13.625,-11.5,0.0,0.0,0.0,0.0,0.0,0.0,2,0,41.44601099273862,-92.20627030317152,10002.626467103784,99.8451170448815,-0.0039542691517793,0.004341113483985,,9006.830035856614,10864.345111209012,150,3,2025-09-12,2025-09-26 17:14:30.986,AH,C,710172792,AMBUSH51,1,1,48,2,1,1,225,2,1,0,0,9,1,225,2,1,-154108.22949586634,-4789986.064415237,4198678.371449194,2.555,2.65999,-0.456976,-95.5767,48.7237,51.7473,-0.149839,-7.13924,6.63368,0.0320401,0.000329774,0.0144362,4,0,41.412357773056,-91.8427415750058,8933.850569177104,-53.927284771060975,-0.0306344514695757,8.882965973159857,198.166,9006.830035856614,10864.345111209012,150,True,16.4738409439446,False,154.60445645919995,177.03127512448322,False,28.266030543814427,True,False
3,1970-07-23 10:29:32.720573616,2025-09-12,2025-09-26 17:14:32.057,AH,C,1522623484,JASSM,3,105,76,2,2,1,225,9,2,0,1,26,0,0,0,0,-184325.93591483065,-4786696.536104049,4201686.495573521,-2.30145,-0.152823,0.128567,88.875,-13.625,-11.5,0.0,0.0,0.0,0.0,0.0,0.0,2,0,41.44587822286036,-92.2052541917414,10002.625655557578,99.84578962244028,-0.0031811265899094,0.0043405356545803,,9006.830035856614,10864.345111209012,150,3,2025-09-12,2025-09-26 17:14:32.052,AH,C,711445324,AMBUSH51,1,1,48,2,1,1,225,2,1,0,0,9,1,225,2,1,-154210.3376271465,-4789932.714911866,4198734.619846317,2.56303,2.64775,-0.467619,-94.6038,49.6542,52.9931,-0.144427,-7.27017,6.64265,-0.0133834,-0.00263091,0.0107203,4,0,41.41303532967374,-91.8439822089134,8932.803437236264,-53.05361377048455,-0.0012772479235243,9.030063163804575,198.288,9006.830035856614,10864.345111209012,150,True,16.367222498445038,False,153.72668217156257,176.90944435615927,False,29.26713621958694,True,False
3,1970-07-23 10:29:32.729234543,2025-09-12,2025-09-26 17:14:32.923,AH,C,1523756878,JASSM,3,105,76,2,2,1,225,9,2,0,1,26,0,0,0,0,-184241.42028983065,-4786709.561494674,4201675.436979771,-2.30145,-0.152823,0.128567,88.875,-13.625,-11.5,0.0,0.0,0.0,0.0,0.0,0.0,2,0,41.44574545607792,-92.20423806200894,10002.623676817871,99.84646221034008,-0.0024079694980955,0.0043399725636553,,9006.830035856614,10864.345111209012,150,3,2025-09-12,2025-09-26 17:14:32.953,AH,C,712519024,AMBUSH51,1,1,48,2,1,1,225,2,1,0,0,9,1,225,2,1,-154294.9872622006,-4789887.244455123,4198782.624801194,2.55182,2.6344,-0.47594,-93.8429,50.5008,53.9647,-0.0843844,-7.26198,6.69395,-0.0346513,-0.00585791,0.0174011,4,0,41.413613695264495,-91.84501121662808,8931.867528589122,-52.22870184380609,-0.1022233443456022,8.03904479665092,198.472,9006.830035856614,10864.345111209012,150,True,16.270837558593584,False,153.0142276433146,176.8020813184311,False,30.089450918357418,False,False
3,1970-07-23 10:29:32.742985429,2025-09-12,2025-09-26 17:14:34.298,AH,C,1524830620,JASSM,3,105,76,2,2,1,225,9,2,0,1,26,0,0,0,0,-184161.35388358065,-4786721.901338424,4201664.960417271,-2.30145,-0.152823,0.128663,88.875,-13.625,-11.5,0.0,0.0,0.0,0.0,0.0,0.0,2,0,41.44561966850375,-92.20327542889645,10002.625420722505,99.8511900876848,-0.0053417363576986,0.0043391867679197,,9006.830035856614,10864.345111209012,150,3,2025-09-12,2025-09-26 17:14:34.320,AH,C,714149454,AMBUSH51,1,1,48,2,1,1,225,2,1,0,0,9,1,225,2,1,-154422.37825036008,-4789816.923233192,4198856.967343594,2.4598,2.6189,-0.48291,-93.0765,51.77,54.7672,-0.0930573,-7.16146,6.48129,-0.0882287,-0.00264964,0.0180481,4,0,41.414509496050194,-91.84656055503388,8930.373196518955,-51.37560128204248,-0.325476784165351,2.3538379275355177,198.875,9006.830035856614,10864.345111209012,150,True,16.15149547088803,False,152.25056521142207,176.63809214701428,False,31.026369880828128,False,False
3,1970-07-23 10:29:32.748316190,2025-09-12,2025-09-26 17:14:34.831,AH,C,1526083320,JASSM,3,105,76,2,2,1,225,9,2,0,1,26,0,0,0,0,-184067.94079764312,-4786736.295869674,4201652.735807896,-2.30145,-0.152823,0.128663,88.875,-13.625,-11.5,0.0,0.0,0.0,0.0,0.0,0.0,2,0,41.44547290512185,-92.20215233529515,10002.622528938318,99.8519334723096,-0.0044871851399483,0.0043386255953287,,9006.830035856614,10864.345111209012,150,3,2025-09-12,2025-09-26 17:14:34.885,AH,C,714825488,AMBUSH51,1,1,48,2,1,1,225,2,1,0,0,9,1,225,2,1,-154474.18213376813,-4789788.054246119,4198887.506822584,2.41187,2.61817,-0.485478,-93.0679,51.7678,55.073,0.0574595,-7.26404,6.6,-0.0718585,0.00709587,0.00405612,4,0,41.41487747051672,-91.8471907149322,8929.767103825083,-51.25095452673543,-0.2389964149696371,-0.4119640943786211,199.021,9006.830035856614,10864.345111209012,150,True,16.06965223106144,False,152.16114561375122,176.56255598297497,False,31.18993206735344,False,False
3,1970-07-23 10:29:32.759334360,2025-09-12,2025-09-26 17:14:35.933,AH,C,1527395670,JASSM,3,105,76,2,2,1,225,9,2,0,1,26,0,0,0,0,-183970.08044608065,-4786751.375947799,4201639.929167271,-2.30145,-0.152823,0.128663,88.875,-13.625,-11.5,0.0,0.0,0.0,0.0,0.0,0.0,2,0,41.445319141094345,-92.20097577810424,10002.625024045688,99.85271224258965,-0.0035919495464834,0.004338036016179,,9006.830035856614,10864.345111209012,150,3,2025-09-12,2025-09-26 17:14:35.953,AH,C,716098020,AMBUSH51,1,1,48,2,1,1,225,2,1,0,0,9,1,225,2,1,-154574.36298587397,-4789732.189211613,4198946.838807414,2.37239,2.61778,-0.482935,-93.3212,51.6118,55.2937,-0.252524,-7.26156,6.64394,-0.0118063,-0.00222104,-0.00382101,4,0,41.41559113085604,-91.848409383053,8929.104099491837,-51.33329246127128,-0.3602335392218144,-2.68399677631808,199.4,9006.830035856614,10864.345111209012,150,True,15.956772334826818,False,152.21086894983472,176.4241894726232,False,31.277595718589993,False,False
3,1970-07-23 10:29:32.770351705,2025-09-12,2025-09-26 17:14:37.035,AH,C,1528648368,JASSM,3,105,76,2,2,1,225,9,2,0,1,26,0,0,0,0,-183876.66931326807,-4786765.768525924,4201627.704557896,-2.30145,-0.152823,0.128663,88.875,-13.625,-11.5,0.0,0.0,0.0,0.0,0.0,0.0,2,0,41.44517236643444,-92.19985271910848,10002.627065802442,99.85345559987556,-0.0027374180997473,0.0043374826626227,,9006.830035856614,10864.345111209012,150,3,2025-09-12,2025-09-26 17:14:37.119,AH,C,717489852,AMBUSH51,1,1,48,2,1,1,225,2,1,0,0,9,1,225,2,1,-154682.6165657031,-4789672.089067466,4199010.569003653,2.34472,2.62656,-0.480463,-93.7458,51.3772,55.1291,-0.0882988,-7.40094,6.73587,-0.0143322,0.00390632,-0.000556559,4,0,41.4163581141202,-91.84972618052872,8928.221929735619,-51.761762377338414,-0.1697577554389701,-4.034702374320266,199.474,9006.830035856614,10864.345111209012,150,True,15.841690021205247,False,152.44026935843095,176.27471517028445,False,31.199195497674815,False,False
3,1970-07-23 10:29:32.780236078,2025-09-12,2025-09-26 17:14:38.023,AH,C,1529901068,JASSM,3,105,76,2,2,1,225,9,2,0,1,26,0,0,0,0,-183783.25720389312,-4786780.161104049,4201615.476042271,-2.30145,-0.152727,0.128663,88.875,-13.625,-11.5,0.0,0.0,0.0,0.0,0.0,0.0,2,0,41.44502555467906,-92.19872965350316,10002.625195869818,99.8505630656495,-0.0059397849408646,0.0036323345666439,,9006.830035856614,10864.345111209012,150,3,2025-09-12,2025-09-26 17:14:37.852,AH,C,718364718,AMBUSH51,1,1,48,2,1,1,225,2,1,0,0,9,1,225,2,1,-154751.2257002674,-4789634.206503706,4199050.871136278,2.33996,2.62675,-0.479077,-94.0214,51.3454,54.8561,-0.0228292,-7.0768,6.34655,0.00812368,-0.00912653,-0.00269957,4,0,41.41684236962493,-91.85056067849482,8927.98605714289,-51.8224888809077,-0.2217220191431348,-4.301680530842508,199.584,9006.830035856614,10864.345111209012,150,True,15.750101686460603,False,152.60825645416182,176.17451710639952,False,31.13491527138403,False,False
3,1970-07-23 10:29:32.791253140,2025-09-12,2025-09-26 17:14:39.125,AH,C,1531153766,JASSM,3,105,76,2,2,1,225,9,2,0,1,26,0,0,0,0,-183689.84509451807,-4786794.551729049,4201603.249479771,-2.30145,-0.152727,0.128663,88.875,-13.625,-11.5,0.0,0.0,0.0,0.0,0.0,0.0,2,0,41.44487875675839,-92.19760659385678,10002.627430903514,99.8513064190802,-0.0050852453024217,0.0036317269766863,,9006.830035856614,10864.345111209012,150,3,2025-09-12,2025-09-26 17:14:39.119,AH,C,719875848,AMBUSH51,1,1,48,2,1,1,225,2,1,0,0,9,1,225,2,1,-154870.5472620047,-4789569.322708996,4199119.753948455,2.35488,2.63646,-0.469055,-94.574,50.5844,54.837,-0.328354,-7.29449,6.69879,0.0664864,-0.00770548,-0.0135041,4,0,41.41767044178117,-91.85201163875152,8927.42031041062,-52.57498786653926,-0.3191779633973506,-3.189653483133024,200.06,9006.830035856614,10864.345111209012,150,True,15.628825009038522,False,152.95608540809096,176.01015550343482,False,30.946014169545325,False,False
3,1970-07-23 10:29:32.801271103,2025-09-12,2025-09-26 17:14:40.127,AH,C,1532406466,JASSM,3,105,76,2,2,1,225,9,2,0,1,26,0,0,0,0,-183596.43298514312,-4786808.940400924,4201591.020964146,-2.30145,-0.152727,0.128663,88.875,-13.625,-11.5,0.0,0.0,0.0,0.0,0.0,0.0,2,0,41.44473194632071,-92.1964835401688,10002.6252881007,99.85204976640112,-0.004230706038507,0.0036311177027316,,9006.830035856614,10864.345111209012,150,3,2025-09-12,2025-09-26 17:14:40.119,AH,C,721068848,AMBUSH51,1,1,48,2,1,1,225,2,1,0,0,9,1,225,2,1,-154964.99147983332,-4789518.183004883,4199173.82751647,2.41077,2.64344,-0.467772,-94.6974,50.787,54.4328,-0.278607,-7.69615,6.88496,0.0486974,0.00669639,0.00371282,4,0,41.41832154521722,-91.8531600308962,8926.54119909889,-52.890114356251736,-0.1341307808104924,0.1946093256895536,200.06,9006.830035856614,10864.345111209012,150,True,15.522302260512646,False,153.06211757895454,175.87607753968504,False,30.981659156465067,False,False
3,1970-07-23 10:29:32.813296766,2025-09-12,2025-09-26 17:14:41.329,AH,C,1533778468,JASSM,3,105,76,2,2,1,225,9,2,0,1,26,0,0,0,0,-183494.1253679556,-4786824.700166549,4201577.626432896,-2.30145,-0.152727,0.128663,88.875,-13.625,-11.5,0.0,0.0,0.0,0.0,0.0,0.0,2,0,41.444571127311406,-92.19525354501528,10002.627174062583,99.85286389561116,-0.0032947872022695,0.0036304352089156,,9006.830035856614,10864.345111209012,150,3,2025-09-12,2025-09-26 17:14:41.485,AH,C,722699280,AMBUSH51,1,1,48,2,1,1,225,2,1,0,0,9,1,225,2,1,-155094.13745384678,-4789447.611702479,4199248.800618508,2.54101,2.63982,-0.472011,-93.9563,51.3972,55.0039,-0.284331,-7.26409,6.55699,0.0638732,0.00362752,0.00949688,4,0,41.41922264183292,-91.85473066363858,8926.012467554367,-52.59115134279622,-0.076013084571034,7.561997530851536,199.755,9006.830035856614,10864.345111209012,150,True,15.390616455856657,False,152.53421258060246,175.69125424916874,False,31.698145227857978,False,False
3,1970-07-23 10:29:32.831383841,2025-09-12,2025-09-26 17:14:43.138,AH,C,1535031168,JASSM,3,105,76,2,2,1,225,9,2,0,1,26,0,0,0,0,-183400.71325858065,-4786839.086885299,4201565.395964146,-2.30145,-0.152727,0.128663,88.875,-13.625,-11.5,0.0,0.0,0.0,0.0,0.0,0.0,2,0,41.44442429234565,-92.1941305028309,10002.62576082331,99.85360723077886,-0.0024402482882036,0.0036298242049994,,9006.830035856614,10864.345111209012,150,3,2025-09-12,2025-09-26 17:14:43.218,AH,C,724767144,AMBUSH51,1,1,48,2,1,1,225,2,1,0,0,9,1,225,2,1,-155254.7290657076,-4789356.790340781,4199344.82999927,2.61389,2.60933,-0.490242,-92.1445,53.0594,56.6687,-0.265239,-7.26552,6.62127,-0.00871665,0.00523998,0.0122703,4,0,41.42038027102216,-91.8566849770562,8923.913692297714,-50.74095684491046,-0.3200547836106856,10.923023396256722,199.498,9006.830035856614,10864.345111209012,150,False,15.245322364584583,False,151.12624653734068,175.45399455602063,False,33.34861210940841,False,False
3,1970-07-23 10:29:32.834330067,2025-09-12,2025-09-26 17:14:43.433,AH,C,1536283866,JASSM,3,105,76,2,2,1,225,9,2,0,1,26,0,0,0,0,-183307.30017264312,-4786853.473604049,4201553.163542271,-2.30145,-0.152727,0.128663,88.875,-13.625,-11.5,0.0,0.0,0.0,0.0,0.0,0.0,2,0,41.44427743345985,-92.19300745403856,10002.624677665788,99.85435056815405,-0.0015856985153794,0.0036292018941893,,9006.830035856614,10864.345111209012,150,3,2025-09-12,2025-09-26 17:14:43.585,AH,C,725204576,AMBUSH51,1,1,48,2,1,1,225,2,1,0,0,9,1,225,2,1,-155288.70223550827,-4789336.712686654,4199366.030077242,2.61118,2.60391,-0.496708,-91.543,53.5936,57.0011,-0.286977,-7.35086,6.58113,-0.0258295,0.00697311,0.000656428,4,0,41.42063628064878,-91.85709875611612,8923.268136327073,-50.29160141772768,-0.2201487100441064,10.618484652020658,199.278,9006.830035856614,10864.345111209012,150,False,15.17426912789209,False,150.72471144635304,175.38825561930818,False,33.818759698636725,False,False
3,1970-07-23 10:29:32.846350914,2025-09-12,2025-09-26 17:14:44.635,AH,C,1537655870,JASSM,3,105,76,2,2,1,225,9,2,0,1,26,0,0,0,0,-183204.9925554556,-4786869.229463424,4201539.765104771,-2.30145,-0.152727,0.128759,88.875,-13.625,-11.5,0.0,0.0,0.0,0.0,0.0,0.0,2,0,41.44411657417336,-92.191777477841,10002.624289981364,99.8592554240602,-0.0043159520965404,0.0036283387048513,,9006.830035856614,10864.345111209012,150,3,2025-09-12,2025-09-26 17:14:44.752,AH,C,726596408,AMBUSH51,1,1,48,2,1,1,225,2,1,0,0,9,1,225,2,1,-155393.8269931878,-4789273.91333108,4199432.604006313,2.57423,2.58417,-0.5121,-90.181,54.4203,58.1726,-0.179033,-7.62875,6.61338,-0.0242212,-0.0133626,0.0106641,4,0,41.42143902412737,-91.8583794132604,8921.737538924408,-48.96673043715808,-0.1966807995293926,7.950295445457811,199.351,9006.830035856614,10864.345111209012,150,True,15.056551178105883,False,149.78592506414194,175.21181334103258,False,34.93407886988761,False,False
3,1970-07-23 10:29:32.858227544,2025-09-12,2025-09-26 17:14:45.822,AH,C,1538908570,JASSM,3,105,76,2,2,1,225,9,2,0,1,26,0,0,0,0,-183111.57946951807,-4786883.614229049,4201527.532682896,-2.30145,-0.152727,0.128759,88.875,-13.625,-11.5,0.0,0.0,0.0,0.0,0.0,0.0,2,0,41.44396970393578,-92.19065444055391,10002.628177852965,99.85999874931429,-0.0034614048863662,0.0036277886578023,,9006.830035856614,10864.345111209012,150,3,2025-09-12,2025-09-26 17:14:45.853,AH,C,727908708,AMBUSH51,1,1,48,2,1,1,225,2,1,0,0,9,1,225,2,1,-155493.00076147378,-4789212.784064863,4199497.527581365,2.56711,2.57795,-0.513488,-89.2009,55.1809,59.2247,0.0697321,-7.44376,6.71167,0.0126261,0.00803006,0.015826,4,0,41.42222182604713,-91.8595883343597,8920.26606947975,-48.67945642432849,-0.3360667184238231,7.365649693692146,199.241,9006.830035856614,10864.345111209012,150,True,14.94716167743025,False,149.01533869361182,175.03753629790683,False,35.879233969107524,False,False
3,1970-07-23 10:29:32.867252174,2025-09-12,2025-09-26 17:14:46.725,AH,C,1540220920,JASSM,3,105,76,2,2,1,225,9,2,0,1,26,0,0,0,0,-183013.7191179556,-4786898.680635299,4201514.714323521,-2.30145,-0.152631,0.128759,88.875,-13.625,-11.5,0.0,0.0,0.0,0.0,0.0,0.0,2,0,41.4438158246077,-92.1894779439355,10002.621643286577,99.85714165800972,-0.0066230801894504,0.0029221578240186,,9006.830035856614,10864.345111209012,150,3,2025-09-12,2025-09-26 17:14:46.585,AH,C,728783572,AMBUSH51,1,1,48,2,1,1,225,2,1,0,0,9,1,225,2,1,-155557.9035334395,-4789171.935348976,4199540.939147968,2.58863,2.56797,-0.522423,-88.4463,55.7731,59.7203,-0.00226553,-7.40341,6.50154,0.0265265,-0.00323845,0.0118459,4,0,41.42274536383505,-91.8603798377582,8919.237964658327,-47.97005036816395,-0.2642208833573679,8.311851373007334,199.168,9006.830035856614,10864.345111209012,150,True,14.85550927345875,False,148.50656767107546,174.91248905726638,False,36.51562122818964,False,False
3,1970-07-23 10:29:32.878270619,2025-09-12,2025-09-26 17:14:47.827,AH,C,1541592922,JASSM,3,105,76,2,2,1,225,9,2,0,1,26,0,0,0,0,-182911.4105242056,-4786914.432588424,4201501.313932896,-2.30145,-0.152631,0.128759,88.875,-13.625,-11.5,0.0,0.0,0.0,0.0,0.0,0.0,2,0,41.44365493787117,-92.18824797528656,10002.623374691077,99.85795575496084,-0.0056871564505406,0.0029214906052297,,9006.830035856614,10864.345111209012,150,3,2025-09-12,2025-09-26 17:14:47.985,AH,C,730453772,AMBUSH51,1,1,48,2,1,1,225,2,1,0,0,9,1,225,2,1,-155680.47627236968,-4789092.535525749,4199625.454650954,2.58756,2.55021,-0.533593,-86.9502,56.9168,61.0282,-0.0259548,-7.21643,6.62153,-0.0626852,-0.0112862,0.0150021,4,0,41.42376457478437,-91.86187554973068,8917.25583496374,-46.88584525513534,-0.3325750022061422,7.732219681975695,199.119,9006.830035856614,10864.345111209012,150,True,14.727496228600966,False,147.41732259647742,174.68157819525595,False,37.83796435009229,False,False
3,1970-07-23 10:29:32.892230062,2025-09-12,2025-09-26 17:14:49.223,AH,C,1542905274,JASSM,3,105,76,2,2,1,225,9,2,0,1,26,0,0,0,0,-182813.55017264312,-4786929.498994674,4201488.495573521,-2.30145,-0.152631,0.128759,88.875,-13.625,-11.5,0.0,0.0,0.0,0.0,0.0,0.0,2,0,41.44350103392526,-92.18707149003929,10002.62730877131,99.85873444965468,-0.0047919256317854,0.0029208522674649,,9006.830035856614,10864.345111209012,150,3,2025-09-12,2025-09-26 17:14:49.151,AH,C,731845604,AMBUSH51,1,1,48,2,1,1,225,2,1,0,0,9,1,225,2,1,-155780.8274355466,-4789026.019153705,4199696.605449008,2.51926,2.53674,-0.539539,-86.1898,57.1181,62.0918,-0.307643,-7.37396,6.78021,-0.0634092,-0.00311361,-0.00431203,4,0,41.42462119880635,-91.86310072216074,8916.177199248326,-46.1577594403798,-0.4873211872107779,3.4191915865622207,199.046,9006.830035856614,10864.345111209012,150,True,14.615046120752465,False,146.84129462559102,174.48137136189,False,38.609348396068576,False,False
3,1970-07-23 10:29:32.900329215,2025-09-12,2025-09-26 17:14:50.032,AH,C,1544217626,JASSM,3,105,76,2,2,1,225,9,2,0,1,26,0,0,0,0,-182715.68982108065,-4786944.563447799,4201475.675261021,-2.30145,-0.152631,0.128759,88.875,-13.625,-11.5,0.0,0.0,0.0,0.0,0.0,0.0,2,0,41.44334711639371,-92.18589501124362,10002.627319679515,99.8595131376995,-0.003896695182105,0.0029202122416134,,9006.830035856614,10864.345111209012,150,3,2025-09-12,2025-09-26 17:14:49.852,AH,C,732680702,AMBUSH51,1,1,48,2,1,1,225,2,1,0,0,9,1,225,2,1,-155840.77134116218,-4788985.590764387,4199739.82302826,2.46211,2.53283,-0.543446,-85.8875,57.6301,61.9838,0.0534777,-7.45294,6.39593,-0.0435625,0.00173418,0.00941157,4,0,41.42514186208741,-91.86383285427026,8915.382676885736,-45.86788855414643,-0.4336695869675173,0.0269974928982836,199.193,9006.830035856614,10864.345111209012,150,True,14.52639788129545,False,146.6593088126954,174.34964555974975,False,38.92944327662501,False,False
