Subject_cm,Timestamp,SampleDate_cm,SampleTime_cm,Configuration_cm,Scenario_cm,DisTime_cm,MarkingTxt_cm,Application_cm,EntId_cm,Site_cm,ExerciseId_cm,ForceId_cm,Category_cm,Country_cm,Domain_cm,Kind_cm,Extra_cm,Specific_cm,Subcategory_cm,AltCategory_cm,AltCountry_cm,AltDomain_cm,AltKind_cm,ECEF_X_cm,ECEF_Y_cm,ECEF_Z_cm,OriPhi_cm,OriPsi_cm,OriTheta_cm,LinVelX_cm,LinVelY_cm,LinVelZ_cm,LinAccX_cm,LinAccY_cm,LinAccZ_cm,AngVelX_cm,AngVelY_cm,AngVelZ_cm,DrAlg_cm,Appearance_cm,Latitude_cm,Longitude_cm,Altitude_cm,Heading_cm,Pitch_cm,Roll_cm,CalibratedAirspeed_cm,CM_Altitude_Lead_cm,CM_Altitude_Wing_cm,CM_Airspeed_cm,Subject_ac,SampleDate_ac,SampleTime_ac,Configuration_ac,Scenario_ac,DisTime_ac,MarkingTxt_ac,Application_ac,EntId_ac,Site_ac,ExerciseId_ac,ForceId_ac,Category_ac,Country_ac,Domain_ac,Kind_ac,Extra_ac,Specific_ac,Subcategory_ac,AltCategory_ac,AltCountry_ac,AltDomain_ac,AltKind_ac,ECEF_X_ac,ECEF_Y_ac,ECEF_Z_ac,OriPhi_ac,OriPsi_ac,OriTheta_ac,LinVelX_ac,LinVelY_ac,LinVelZ_ac,LinAccX_ac,LinAccY_ac,LinAccZ_ac,AngVelX_ac,AngVelY_ac,AngVelZ_ac,DrAlg_ac,Appearance_ac,Latitude_ac,Longitude_ac,Altitude_ac,Heading_ac,Pitch_ac,Roll_ac,CalibratedAirspeed_ac,CM_Altitude_Lead_ac,CM_Altitude_Wing_ac,CM_Airspeed_ac,Bank_Angle_Condition,distance_nm,Distance_Condition,angle_between_vel,angle_between_pos,Cone_Condition,angle_between_pos_nose,Nose_Cone_Condition,Intercept_Criteria
3,1970-07-23 10:29:32.272297241,2025-09-12,2025-09-26 17:13:47.229,AH,C,1469234654,JASSM,3,102,76,2,2,1,225,9,2,0,1,26,0,0,0,0,-163216.16540701812,-4785341.637666549,4204086.015104771,-2.36559,-0.397301,0.382249,74.625,-31.125,-32.375,0.0,0.0,0.0,0.0,0.0,0.0,2,0,41.47469365952638,-91.9534600353419,10002.628444599892,119.85375274122345,-0.0035687830649562,0.0050450606428174,,9006.830035856614,10864.345111209012,150,3,2025-09-12,2025-09-26 17:13:47.353,AH,C,658118280,AMBUSH51,1,1,48,2,1,1,225,2,1,0,0,9,1,225,2,1,-149859.16630689363,-4792016.885287242,4196561.137834346,2.55235,2.66555,-0.447614,-93.9805,46.0569,46.9639,-0.15802,-7.30857,6.72809,-0.0444842,0.0102251,0.0227066,4,0,41.38678480306631,-91.79120827866092,9004.016660261106,-54.46733196234852,-0.2779670614673566,8.870197849632289,191.323,9006.830035856614,10864.345111209012,150,True,9.00129336205841,False,176.03886644208166,173.92073733037915,False,2.6092807315140916,True,False
3,1970-07-23 10:29:32.281355319,2025-09-12,2025-09-26 17:13:48.135,AH,C,1470368048,JASSM,3,102,76,2,2,1,225,9,2,0,1,26,0,0,0,0,-163145.27282889312,-4785371.391572799,4204055.106901646,-2.36559,-0.397301,0.382249,74.625,-31.125,-32.375,0.0,0.0,0.0,0.0,0.0,0.0,2,0,41.47432240842623,-91.9526000799527,10002.62801796064,119.8543222783599,-0.0028251590827558,0.0050438143403704,,9006.830035856614,10864.345111209012,150,3,2025-09-12,2025-09-26 17:13:48.220,AH,C,659152212,AMBUSH51,1,1,48,2,1,1,225,2,1,0,0,9,1,225,2,1,-149940.35595683235,-4791976.723157004,4196602.33844602,2.50994,2.65634,-0.453009,-93.4469,46.6904,47.9299,-0.169799,-7.2188,6.75946,-0.0760801,0.00326133,0.00790106,4,0,41.38728676651887,-91.79219308492108,9000.823226100572,-53.90881613049383,-0.3703355414333759,6.20753743850768,191.824,9006.830035856614,10864.345111209012,150,True,8.903426550832137,False,175.4307630660548,173.87920942755497,False,2.1362828097679754,True,False
3,1970-07-23 10:29:32.291238095,2025-09-12,2025-09-26 17:13:49.123,AH,C,1471501444,JASSM,3,102,76,2,2,1,225,9,2,0,1,26,0,0,0,0,-163074.38025076812,-4785401.145479049,4204024.196745396,-2.36559,-0.397301,0.382249,74.625,-31.125,-32.375,0.0,0.0,0.0,0.0,0.0,0.0,2,0,41.473951137703295,-91.95174013437725,10002.626875926297,119.8548918048062,-0.0020815284964759,0.0050425565878108,,9006.830035856614,10864.345111209012,150,3,2025-09-12,2025-09-26 17:13:48.953,AH,C,660027078,AMBUSH51,1,1,48,2,1,1,225,2,1,0,0,9,1,225,2,1,-150008.54498569228,-4791942.3158722725,4196637.710687719,2.4382,2.65158,-0.456698,-93.1812,47.2083,48.3298,-0.179147,-7.22031,6.86444,-0.120542,-0.000897777,-0.00201922,4,0,41.38771755965897,-91.79302046230092,8998.149443364166,-53.585861921642575,-0.3784313205180498,1.9750926592362692,192.056,9006.830035856614,10864.345111209012,150,True,8.813799166199344,False,175.0898074798377,173.84155078614276,False,2.003850241516629,True,False
3,1970-07-23 10:29:32.302959598,2025-09-12,2025-09-26 17:13:50.295,AH,C,1472575186,JASSM,3,102,76,2,2,1,225,9,2,0,1,26,0,0,0,0,-163007.21911795562,-4785429.331025924,4203994.913542271,-2.36559,-0.397301,0.382249,74.625,-31.125,-32.375,0.0,0.0,0.0,0.0,0.0,0.0,2,0,41.47359941631704,-91.9509254621845,10002.623485071748,119.85543134364096,-0.0013770462708384,0.0050413762717301,,9006.830035856614,10864.345111209012,150,3,2025-09-12,2025-09-26 17:13:50.286,AH,C,661617744,AMBUSH51,1,1,48,2,1,1,225,2,1,0,0,9,1,225,2,1,-150132.38022678896,-4791879.207918346,4196702.818845853,2.35584,2.64817,-0.453545,-93.5058,47.3663,48.9675,-0.069939,-7.21831,6.70787,-0.0739121,-0.00616168,-0.00592033,4,0,41.38850946664473,-91.79452328910124,8993.659366956894,-53.57816378984949,-0.6288853918059136,-2.8299989611332887,192.948,9006.830035856614,10864.345111209012,150,True,8.689207397269785,False,174.96214133952435,173.80130029525859,False,1.8314496903314321,True,False
3,1970-07-23 10:29:32.309337781,2025-09-12,2025-09-26 17:13:50.933,AH,C,1473708580,JASSM,3,102,76,2,2,1,225,9,2,0,1,26,0,0,0,0,-162936.32653983062,-4785459.082979049,4203964.003386021,-2.36559,-0.397205,0.382249,74.625,-31.125,-32.375,0.0,0.0,0.0,0.0,0.0,0.0,2,0,41.47322814466259,-91.95006553651544,10002.624415798527,119.85236296701834,-0.0042030772530009,0.0029912820894509,,9006.830035856614,10864.345111209012,150,3,2025-09-12,2025-09-26 17:13:51.086,AH,C,662572142,AMBUSH51,1,1,48,2,1,1,225,2,1,0,0,9,1,225,2,1,-150207.40840393343,-4791841.321550791,4196741.898429563,2.29251,2.65041,-0.449086,-94.0521,47.2357,48.795,-0.0129045,-7.18113,6.63441,-0.0560751,0.00623242,-0.00185901,4,0,41.388984693603234,-91.7954336956359,8991.005935116598,-53.835958360877015,-0.7397248274336989,-6.399545455281018,193.168,9006.830035856614,10864.345111209012,150,True,8.594999504918457,False,175.20646341449242,173.76148660254995,False,2.0206805026573726,True,False
3,1970-07-23 10:29:32.319205764,2025-09-12,2025-09-26 17:13:51.920,AH,C,1474841974,JASSM,3,102,76,2,2,1,225,9,2,0,1,26,0,0,0,0,-162865.43396170562,-4785488.834932174,4203933.091276646,-2.36559,-0.397205,0.382249,74.625,-31.125,-32.375,0.0,0.0,0.0,0.0,0.0,0.0,2,0,41.47285685338565,-91.9492056206601,10002.624631218823,119.85293246150974,-0.0034594463586529,0.0029899754102868,,9006.830035856614,10864.345111209012,150,3,2025-09-12,2025-09-26 17:13:51.954,AH,C,663606074,AMBUSH51,1,1,48,2,1,1,225,2,1,0,0,9,1,225,2,1,-150289.02043113118,-4791800.710259276,4196783.820113563,2.26935,2.66057,-0.44406,-94.7894,47.0282,48.0922,-0.205391,-7.20871,6.68224,0.000352661,-0.00506729,-0.00966332,4,0,41.38949408287899,-91.79642378254204,8988.326212564729,-54.418873112176094,-0.5973932777259485,-7.468065933474744,193.706,9006.830035856614,10864.345111209012,150,True,8.496691998260845,False,175.67142494379303,173.717669784643,False,2.503409061813533,True,False
3,1970-07-23 10:29:32.328238053,2025-09-12,2025-09-26 17:13:52.823,AH,C,1475975366,JASSM,3,102,76,2,2,1,225,9,2,0,1,26,0,0,0,0,-162794.54138358062,-4785518.584932174,4203902.179167271,-2.36559,-0.397205,0.382249,74.625,-31.125,-32.375,0.0,0.0,0.0,0.0,0.0,0.0,2,0,41.4724855672905,-91.94834571541318,10002.623576630416,119.85350194478283,-0.00271582172389,0.0029886784969556,,9006.830035856614,10864.345111209012,150,3,2025-09-12,2025-09-26 17:13:52.820,AH,C,664640006,AMBUSH51,1,1,48,2,1,1,225,2,1,0,0,9,1,225,2,1,-150372.07362677873,-4791760.078964971,4196825.662466994,2.27161,2.67151,-0.434079,-95.5599,46.366,47.8211,-0.0684875,-7.27048,6.59457,0.016211,-0.00437029,-0.0109138,4,0,41.39000277804868,-91.79743110796524,8985.541630714182,-55.22411340883058,-0.6329216694412891,-7.063351625046168,193.974,9006.830035856614,10864.345111209012,150,True,8.397787264493715,False,176.1599140865335,173.66949605854782,False,2.830099241658842,True,False
3,1970-07-23 10:29:32.337295855,2025-09-12,2025-09-26 17:13:53.729,AH,C,1477049108,JASSM,3,102,76,2,2,1,225,9,2,0,1,26,0,0,0,0,-162727.37976248687,-4785546.768525924,4203872.894011021,-2.36559,-0.397205,0.382345,74.625,-31.125,-32.375,0.0,0.0,0.0,0.0,0.0,0.0,2,0,41.47213382033783,-91.94753107487422,10002.624297650722,119.85788884129376,-0.0059321236141525,0.002987187281049,,9006.830035856614,10864.345111209012,150,3,2025-09-12,2025-09-26 17:13:53.686,AH,C,665673940,AMBUSH51,1,1,48,2,1,1,225,2,1,0,0,9,1,225,2,1,-150454.61928709698,-4791720.247120121,4196866.575028913,2.28542,2.68162,-0.428065,-96.2389,46.0273,47.2892,-0.155737,-7.40605,6.84697,0.0166583,0.00591617,-0.00283065,4,0,41.39050052622113,-91.79843208675835,8982.672945620012,-55.84491131063016,-0.5261176283078549,-6.023892543118718,194.317,9006.830035856614,10864.345111209012,150,True,8.301838218663512,False,176.59622274779616,173.61948276230098,False,3.281010013643762,True,False
3,1970-07-23 10:29:32.346338005,2025-09-12,2025-09-26 17:13:54.633,AH,C,1478122852,JASSM,3,102,76,2,2,1,225,9,2,0,1,26,0,0,0,0,-162660.21814139312,-4785574.952119674,4203843.606901646,-2.36559,-0.397205,0.382345,74.625,-31.125,-32.375,0.0,0.0,0.0,0.0,0.0,0.0,2,0,41.47178205442415,-91.94671644314286,10002.623941813988,119.85842833405168,-0.0052276306107109,0.0029859986243777,,9006.830035856614,10864.345111209012,150,3,2025-09-12,2025-09-26 17:13:54.520,AH,C,666668104,AMBUSH51,1,1,48,2,1,1,225,2,1,0,0,9,1,225,2,1,-150534.33681989156,-4791682.258104484,4196905.7183690285,2.32505,2.69137,-0.423631,-96.681,45.6128,47.1307,-0.118275,-7.36533,6.72318,0.103417,-0.00124524,-0.00533777,4,0,41.390975887387775,-91.79939860596504,8980.286522436532,-56.39046158831579,-0.3626652916311139,-3.518520710860736,194.585,9006.830035856614,10864.345111209012,150,True,8.207937450467947,False,176.88526941720298,173.5673182152353,False,3.5356937256289585,True,False
3,1970-07-23 10:29:32.355755883,2025-09-12,2025-09-26 17:13:55.575,AH,C,1479196594,JASSM,3,102,76,2,2,1,225,9,2,0,1,26,0,0,0,0,-162593.05700858062,-4785603.133760299,4203814.319792271,-2.36559,-0.397205,0.382345,74.625,-31.125,-32.375,0.0,0.0,0.0,0.0,0.0,0.0,2,0,41.47143029425488,-91.94590182685208,10002.621995001417,119.85896781282143,-0.004523147617146,0.0029848174719987,,9006.830035856614,10864.345111209012,150,3,2025-09-12,2025-09-26 17:13:55.754,AH,C,668139470,AMBUSH51,1,1,48,2,1,1,225,2,1,0,0,9,1,225,2,1,-150653.95793323923,-4791625.454013648,4196964.29032326,2.40362,2.69459,-0.422761,-96.8523,45.7511,47.2955,-0.0419226,-7.19025,6.53594,0.0431838,-0.00627611,0.0139493,4,0,41.39168687249121,-91.80084887953257,8976.85043497944,-56.54802105138973,-0.2822527764465561,1.0601749249092542,194.854,9006.830035856614,10864.345111209012,150,True,8.088145098693294,False,176.8456691058781,173.50267078761124,False,3.5618713615041564,True,False
3,1970-07-23 10:29:32.364277901,2025-09-12,2025-09-26 17:13:56.427,AH,C,1480270336,JASSM,3,102,76,2,2,1,225,9,2,0,1,26,0,0,0,0,-162525.89538748687,-4785631.315400924,4203785.032682896,-2.36559,-0.397205,0.382345,74.625,-31.125,-32.375,0.0,0.0,0.0,0.0,0.0,0.0,2,0,41.471078528394,-91.9450872135293,10002.623174196997,119.85950728586356,-0.0038186608351015,0.0029836385584744,,9006.830035856614,10864.345111209012,150,3,2025-09-12,2025-09-26 17:13:56.220,AH,C,668696202,AMBUSH51,1,1,48,2,1,1,225,2,1,0,0,9,1,225,2,1,-150698.51631029998,-4791604.329192741,4196986.035654767,2.41972,2.69151,-0.428565,-96.8698,45.777,47.5121,-0.0851642,-7.50166,6.83135,0.0226837,-0.0055375,0.0183789,4,0,41.391951012473015,-91.8013890957731,8975.50082589233,-56.20329867632904,-0.1500472861344437,1.9085415892862063,194.854,9006.830035856614,10864.345111209012,150,True,8.017206253654638,False,176.7814538361238,173.45675946850963,False,3.519552911100171,True,False
3,1970-07-23 10:29:32.376277879,2025-09-12,2025-09-26 17:13:57.627,AH,C,1481642336,JASSM,3,102,76,2,2,1,225,9,2,0,1,26,0,0,0,0,-162440.07800467435,-4785667.325166549,4203747.608854771,-2.36559,-0.397205,0.382345,74.625,-31.125,-32.375,0.0,0.0,0.0,0.0,0.0,0.0,2,0,41.470629032452656,-91.94404633450873,10002.625978385526,119.86019659660376,-0.0029184807047913,0.0029821232951909,,9006.830035856614,10864.345111209012,150,3,2025-09-12,2025-09-26 17:13:57.620,AH,C,670366400,AMBUSH51,1,1,48,2,1,1,225,2,1,0,0,9,1,225,2,1,-150833.22578930567,-4791540.021981785,4197052.901583932,2.44102,2.68893,-0.435621,-96.443,46.0771,48.3094,-0.298109,-7.2294,6.89119,-0.00734554,-0.00235211,0.00108295,4,0,41.392759776848514,-91.80302247807758,8972.782341727276,-55.82973188080276,0.0540295815609634,3.066455791071199,195.416,9006.830035856614,10864.345111209012,150,True,7.875661208978251,False,176.3459776940062,173.37790384687042,False,3.138120751225027,True,False
3,1970-07-23 10:29:32.395766016,2025-09-12,2025-09-26 17:13:59.576,AH,C,1482954690,JASSM,3,102,76,2,2,1,225,9,2,0,1,26,0,0,0,0,-162357.99157889312,-4785701.766572799,4203711.811979771,-2.36559,-0.397205,0.382345,74.625,-31.125,-32.375,0.0,0.0,0.0,0.0,0.0,0.0,2,0,41.47019908605501,-91.94305072286372,10002.626433933056,119.86085592377177,-0.002057445189216,0.0029806875896915,,9006.830035856614,10864.345111209012,150,3,2025-09-12,2025-09-26 17:13:59.520,AH,C,672633098,AMBUSH51,1,1,48,2,1,1,225,2,1,0,0,9,1,225,2,1,-151017.0142242645,-4791451.144258422,4197145.5459230775,2.3788,2.67727,-0.44309,-96.2786,46.6752,48.9309,-0.256258,-7.21924,6.82532,-0.0857153,-0.00144705,-0.00303039,4,0,41.39387951898039,-91.8052514493264,8969.361967069726,-55.09743592843144,-0.0439619578941839,-0.7822367992751325,195.954,9006.830035856614,10864.345111209012,150,True,7.703837602706439,False,175.9552715635378,173.29013369268125,False,2.886522299190242,True,False
3,1970-07-23 10:29:32.398315849,2025-09-12,2025-09-26 17:13:59.831,AH,C,1484267040,JASSM,3,102,76,2,2,1,225,9,2,0,1,26,0,0,0,0,-162275.90466483062,-4785736.207979049,4203676.013151646,-2.36559,-0.397205,0.382345,74.625,-31.125,-32.375,0.0,0.0,0.0,0.0,0.0,0.0,2,0,41.46976911793608,-91.94205511853598,10002.627335931831,119.8615152404745,-0.0011963993062748,0.0029792426885379,,9006.830035856614,10864.345111209012,150,3,2025-09-12,2025-09-26 17:13:59.819,AH,C,672990998,AMBUSH51,1,1,48,2,1,1,225,2,1,0,0,9,1,225,2,1,-151044.9479838743,-4791437.563422434,4197159.695415177,2.35549,2.67642,-0.443715,-96.35,46.692,48.9445,-0.0832982,-7.22624,6.612,-0.0798543,-0.00540851,0.0042517,4,0,41.39405059734043,-91.8055902617365,8968.815021103925,-55.04087751859469,-0.0475645699682976,-2.138977160804421,195.954,9006.830035856614,10864.345111209012,150,True,7.634193175518289,False,175.9667404824437,173.23902836750545,False,2.9466353919174626,True,False
3,1970-07-23 10:29:32.409336025,2025-09-12,2025-09-26 17:14:00.933,AH,C,1485579392,JASSM,3,102,76,2,2,1,225,9,2,0,1,26,0,0,0,0,-162193.81823904935,-4785770.647432174,4203640.212370396,-2.36559,-0.397109,0.382345,74.625,-31.125,-32.375,0.0,0.0,0.0,0.0,0.0,0.0,2,0,41.46933913953213,-91.9410595339956,10002.623967107584,119.85853692546614,-0.0039050055556359,0.0009284401188225,,9006.830035856614,10864.345111209012,150,3,2025-09-12,2025-09-26 17:14:01.053,AH,C,674462364,AMBUSH51,1,1,48,2,1,1,225,2,1,0,0,9,1,225,2,1,-151164.27524416376,-4791379.660642288,4197220.077120557,2.29962,2.67678,-0.440206,-96.9405,46.4173,48.8462,-0.0624576,-7.19662,6.66819,-0.0287132,0.000881132,-0.0139077,4,0,41.394780314245786,-91.80703757656562,8966.625705804745,-55.19258140928252,-0.1806405320835469,-5.331021041869413,196.516,9006.830035856614,10864.345111209012,150,True,7.504559155872816,False,176.23239567045547,173.16346010979572,False,3.226354252242949,True,False
3,1970-07-23 10:29:32.423382577,2025-09-12,2025-09-26 17:14:02.338,AH,C,1486891742,JASSM,3,102,76,2,2,1,225,9,2,0,1,26,0,0,0,0,-162111.73181326812,-4785805.086885299,4203604.411589146,-2.36559,-0.397109,0.382345,74.625,-31.125,-32.375,0.0,0.0,0.0,0.0,0.0,0.0,2,0,41.468909152479405,-91.94006396261145,10002.625328934671,119.85919620920627,-0.0030439631315793,0.0009269365837485,,9006.830035856614,10864.345111209012,150,3,2025-09-12,2025-09-26 17:14:02.286,AH,C,675933728,AMBUSH51,1,1,48,2,1,1,225,2,1,0,0,9,1,225,2,1,-151283.61463711364,-4791322.071386645,4197279.904406592,2.28688,2.6847,-0.432579,-97.6199,46.284,48.2852,0.0668163,-7.28443,6.6893,0.0429112,0.00115993,-0.0116149,4,0,41.39550440254823,-91.80848495074868,8964.016706617303,-55.79235046778665,-0.2183757564169745,-5.86695977729412,196.748,9006.830035856614,10864.345111209012,150,True,7.37513589374563,False,176.62210993980568,173.08306096923098,False,3.7150053905652523,True,False
3,1970-07-23 10:29:32.434158584,2025-09-12,2025-09-26 17:14:03.415,AH,C,1488144442,JASSM,3,102,76,2,2,1,225,9,2,0,1,26,0,0,0,0,-162033.37634451812,-4785837.957979049,4203570.237761021,-2.36559,-0.397109,0.382441,74.625,-31.125,-32.375,0.0,0.0,0.0,0.0,0.0,0.0,2,0,41.46849871732937,-91.9391136550118,10002.623051823406,119.86367304861676,-0.0061427150847481,0.0009252342454077,,9006.830035856614,10864.345111209012,150,3,2025-09-12,2025-09-26 17:14:03.453,AH,C,677325560,AMBUSH51,1,1,48,2,1,1,225,2,1,0,0,9,1,225,2,1,-151398.2719435363,-4791267.8690325925,4197336.130919029,2.36388,2.69231,-0.427504,-98.1548,46.1416,47.9494,-0.16051,-7.22663,6.74316,0.0341873,0.00854188,-0.0109013,4,0,41.39618489521652,-91.80987514454677,8961.574238679186,-56.2810783397782,-0.1579312422857128,-1.2716801813144931,197.078,9006.830035856614,10864.345111209012,150,True,7.251681067374758,False,176.90430906327288,172.99788318369087,False,4.081367732186149,True,False
3,1970-07-23 10:29:32.441256511,2025-09-12,2025-09-26 17:14:04.125,AH,C,1489456792,JASSM,3,102,76,2,2,1,225,9,2,0,1,26,0,0,0,0,-161951.28991873687,-4785872.395479049,4203534.435026646,-2.36559,-0.397109,0.382441,74.625,-31.125,-32.375,0.0,0.0,0.0,0.0,0.0,0.0,2,0,41.46806871183526,-91.93811811013282,10002.624617737869,119.86433230391566,-0.005281672183848,0.0009237868291121,,9006.830035856614,10864.345111209012,150,3,2025-09-12,2025-09-26 17:14:04.031,AH,C,678001592,AMBUSH51,1,1,48,2,1,1,225,2,1,0,0,9,1,225,2,1,-151453.284816087,-4791242.125256989,4197363.09164326,2.38182,2.69248,-0.428082,-98.3347,44.7031,49.3749,-0.382877,-7.20859,6.97446,0.0296058,0.00242909,-0.00240829,4,0,41.396509714907324,-91.81054207435372,8961.01528136509,-56.2650737844758,-0.1273332769241404,-0.240217144326277,197.225,9006.830035856614,10864.345111209012,150,True,7.164730078665994,False,176.79332106724564,172.9285973227902,False,3.8733393848168296,True,False
3,1970-07-23 10:29:32.452274084,2025-09-12,2025-09-26 17:14:05.227,AH,C,1490709492,JASSM,3,102,76,2,2,1,225,9,2,0,1,26,0,0,0,0,-161872.93444998687,-4785905.266572799,4203500.259245396,-2.36559,-0.397109,0.382441,74.625,-31.125,-32.375,0.0,0.0,0.0,0.0,0.0,0.0,2,0,41.46765824737927,-91.93716782707818,10002.626923225753,119.864961581342,-0.0044597676131284,0.0009224090473632,,9006.830035856614,10864.345111209012,150,3,2025-09-12,2025-09-26 17:14:05.053,AH,C,679234358,AMBUSH51,1,1,48,2,1,1,225,2,1,0,0,9,1,225,2,1,-151554.74013878463,-4791194.384839632,4197412.3698481005,2.40459,2.6858,-0.434835,-98.356,45.9503,48.4605,-0.15989,-7.18481,6.80201,-0.0112404,-0.00765555,0.00318227,4,0,41.397107316775454,-91.81177215044764,8958.381078705772,-55.74790714226147,-0.0819730899396141,0.9041422485192848,197.787,9006.830035856614,10864.345111209012,150,True,7.050043929711742,False,176.85682515300596,172.8412686389476,False,4.10578651736987,True,False
3,1970-07-23 10:29:32.462315377,2025-09-12,2025-09-26 17:14:06.231,AH,C,1491962190,JASSM,3,102,76,2,2,1,225,9,2,0,1,26,0,0,0,0,-161794.57898123687,-4785938.135713424,4203466.081511021,-2.36549,-0.397109,0.382441,74.625,-31.125,-32.375,0.0,0.0,0.0,0.0,0.0,0.0,2,0,41.46724777350557,-91.93621755680054,10002.62449693787,119.86559084518656,-0.0036378627309547,0.0064125016954259,,9006.830035856614,10864.345111209012,150,3,2025-09-12,2025-09-26 17:14:06.286,AH,C,680705724,AMBUSH51,1,1,48,2,1,1,225,2,1,0,0,9,1,225,2,1,-151675.68761066903,-4791137.075317474,4197472.095466604,2.35289,2.68159,-0.438909,-98.3989,46.2499,48.6129,-0.137964,-7.21886,6.76454,-0.0627601,-0.0011745,0.0116212,4,0,41.39782869253512,-91.81323873543842,8956.400178827573,-55.42949169838822,-0.059740219744211,-2.161110551084052,198.129,9006.830035856614,10864.345111209012,150,True,6.92241077814893,False,176.74553196591418,172.74684810786985,False,4.115670719585133,True,False
3,1970-07-23 10:29:32.473334807,2025-09-12,2025-09-26 17:14:07.333,AH,C,1493214890,JASSM,3,102,76,2,2,1,225,9,2,0,1,26,0,0,0,0,-161716.22351248687,-4785971.004854049,4203431.903776646,-2.36549,-0.397109,0.382441,74.625,-31.125,-32.375,0.0,0.0,0.0,0.0,0.0,0.0,2,0,41.46683729175255,-91.93526729850988,10002.6263810145,119.86622009597224,-0.0028159577899387,0.0064111222165757,,9006.830035856614,10864.345111209012,150,3,2025-09-12,2025-09-26 17:14:07.419,AH,C,682057788,AMBUSH51,1,1,48,2,1,1,225,2,1,0,0,9,1,225,2,1,-151787.8760780986,-4791084.177182495,4197527.344112718,2.31641,2.68379,-0.43619,-98.8554,46.0726,48.512,-0.108823,-7.29734,6.60987,-0.0150354,0.00100389,-0.00964252,4,0,41.39849523299643,-91.8145990409242,8954.885692676527,-55.620174889459065,-0.0944505619958476,-4.19744148528824,198.459,9006.830035856614,10864.345111209012,150,True,6.800590377454038,False,176.94463493806967,172.65141082680265,False,4.386005803392238,True,False
3,1970-07-23 10:29:32.484193688,2025-09-12,2025-09-26 17:14:08.419,AH,C,1494527240,JASSM,3,102,76,2,2,1,225,9,2,0,1,26,0,0,0,0,-161634.13659842435,-4786005.436494674,4203396.097136021,-2.36549,-0.397109,0.382441,74.625,-31.125,-32.375,0.0,0.0,0.0,0.0,0.0,0.0,2,0,41.4664072615016,-91.93427180099036,10002.62330066193,119.86687929819404,-0.0019549166946308,0.0064096834552422,,9006.830035856614,10864.345111209012,150,3,2025-09-12,2025-09-26 17:14:08.286,AH,C,683091720,AMBUSH51,1,1,48,2,1,1,225,2,1,0,0,9,1,225,2,1,-151872.65351191608,-4791044.473302479,4197568.770261624,2.30098,2.6891,-0.431847,-99.2065,45.9264,48.1787,-0.142488,-7.19318,6.65983,-0.0179087,-0.0034361,0.00864591,4,0,41.39899511819767,-91.815626899116,8953.708740536782,-55.992434053664525,-0.0863074538105159,-4.9527970152207645,198.789,9006.830035856614,10864.345111209012,150,True,6.6944106378816315,False,177.17771999978996,172.55986107815076,False,4.713604253998147,True,False
3,1970-07-23 10:29:32.494237522,2025-09-12,2025-09-26 17:14:09.423,AH,C,1495779940,JASSM,3,102,76,2,2,1,225,9,2,0,1,26,0,0,0,0,-161555.78112967435,-4786038.303682174,4203361.917448521,-2.36549,-0.397013,0.382441,74.625,-31.125,-32.375,0.0,0.0,0.0,0.0,0.0,0.0,2,0,41.465996762076834,-91.9333215680332,10002.624968591048,119.86387117740392,-0.0047026532944571,0.0043585105514959,,9006.830035856614,10864.345111209012,150,3,2025-09-12,2025-09-26 17:14:09.419,AH,C,684443786,AMBUSH51,1,1,48,2,1,1,225,2,1,0,0,9,1,225,2,1,-151985.9462850535,-4790992.162475647,4197623.148728865,2.3384,2.69542,-0.429533,-99.8043,45.5389,47.8219,-0.291141,-7.29377,6.80341,0.12513,-0.00101221,-0.00459915,4,0,41.39965205353116,-91.81700022426584,8951.853710842715,-56.32387683221351,0.0441630893855116,-2.6573440500889225,199.131,9006.830035856614,10864.345111209012,150,True,6.572507319108065,False,177.54484801441515,172.45061719042675,False,5.162275591742807,True,False
3,1970-07-23 10:29:32.505256055,2025-09-12,2025-09-26 17:14:10.525,AH,C,1497032638,JASSM,3,102,76,2,2,1,225,9,2,0,1,26,0,0,0,0,-161477.42566092435,-4786071.168916549,4203327.737761021,-2.36549,-0.397013,0.382441,74.625,-31.125,-32.375,0.0,0.0,0.0,0.0,0.0,0.0,2,0,41.46558626640615,-91.93237134785107,10002.626147841627,119.86450038743648,-0.0038807543148769,0.0043570869559585,,9006.830035856614,10864.345111209012,150,3,2025-09-12,2025-09-26 17:14:10.619,AH,C,685875384,AMBUSH51,1,1,48,2,1,1,225,2,1,0,0,9,1,225,2,1,-152105.47562495983,-4790937.1348892,4197680.313325557,2.44076,2.7007,-0.427968,-99.7873,45.6906,48.0807,-0.182281,-7.38956,6.74386,0.0698633,0.0100025,0.0133501,4,0,41.4003427658702,-91.81844911701025,8949.857687018746,-56.58640750551931,0.1695091167710468,3.33248246488522,199.168,9006.830035856614,10864.345111209012,150,True,6.44669639450331,False,177.42209024846883,172.33305392152408,False,5.155167548229398,True,False
3,1970-07-23 10:29:32.516296787,2025-09-12,2025-09-26 17:14:11.629,AH,C,1498344988,JASSM,3,102,76,2,2,1,225,9,2,0,1,26,0,0,0,0,-161395.33874686187,-4786105.598604049,4203291.929167271,-2.36549,-0.397013,0.382441,74.625,-31.125,-32.375,0.0,0.0,0.0,0.0,0.0,0.0,2,0,41.465156209461725,-91.93137588938993,10002.627787186357,119.86515954753708,-0.0030197128708666,0.004355591794668,,9006.830035856614,10864.345111209012,150,3,2025-09-12,2025-09-26 17:14:11.753,AH,C,687227450,AMBUSH51,1,1,48,2,1,1,225,2,1,0,0,9,1,225,2,1,-152217.52812225957,-4790885.064337296,4197734.856359091,2.50526,2.6885,-0.439912,-99.2946,46.0668,49.1592,-0.175789,-7.17609,6.70031,-0.00274326,-0.000302727,0.00500487,4,0,41.40099958362317,-91.81980759033269,8948.873356226653,-55.65644264093682,0.2331742601707083,6.737748881296984,199.388,9006.830035856614,10864.345111209012,150,True,6.323046862470394,False,176.85855923848746,172.2161822182346,False,4.684301919469524,True,False
3,1970-07-23 10:29:32.527318401,2025-09-12,2025-09-26 17:14:12.731,AH,C,1499657338,JASSM,3,102,76,2,2,1,225,9,2,0,1,26,0,0,0,0,-161313.25183279935,-4786140.026338424,4203256.118620396,-2.36549,-0.397013,0.382441,74.625,-31.125,-32.375,0.0,0.0,0.0,0.0,0.0,0.0,2,0,41.46472614233164,-91.9303804448714,10002.625115017694,119.8658186927839,-0.0021586711075681,0.0043540949671105,,9006.830035856614,10864.345111209012,150,3,2025-09-12,2025-09-26 17:14:12.654,AH,C,688301148,AMBUSH51,1,1,48,2,1,1,225,2,1,0,0,9,1,225,2,1,-152306.91016524582,-4790842.448376752,4197779.50972187,2.48344,2.67893,-0.446442,-98.6361,46.991,49.6717,0.0226678,-7.14981,6.40094,-0.0668714,-0.00699392,0.0078428,4,0,41.40153766247589,-91.82089164745038,8947.92300177593,-55.03962174247231,0.1689117800484542,5.254283785746243,199.571,9006.830035856614,10864.345111209012,150,True,6.213543767656213,False,176.300736191237,172.11251849839238,False,4.30877870486505,True,False
3,1970-07-23 10:29:32.538336025,2025-09-12,2025-09-26 17:14:13.833,AH,C,1500969690,JASSM,3,102,76,2,2,1,225,9,2,0,1,26,0,0,0,0,-161231.16491873687,-4786174.454072799,4203220.308073521,-2.36549,-0.397013,0.382536,74.625,-31.125,-32.375,0.0,0.0,0.0,0.0,0.0,0.0,2,0,41.46429606655538,-91.92938501350788,10002.627173491202,119.87032550028904,-0.0052181404024883,0.0043523793199758,,9006.830035856614,10864.345111209012,150,3,2025-09-12,2025-09-26 17:14:13.786,AH,C,689653214,AMBUSH51,1,1,48,2,1,1,225,2,1,0,0,9,1,225,2,1,-152417.8128178724,-4790789.394965587,4197835.287477373,2.35786,2.66599,-0.4551,-98.4222,47.126,49.9598,-0.131838,-7.21519,6.64446,-0.116421,0.00803422,0.00229386,4,0,41.4022088516469,-91.8222368063396,8947.127143057067,-54.213727429278514,0.0805621561231172,-2.2617782954508368,199.608,9006.830035856614,10864.345111209012,150,True,6.089886734316112,False,176.12117439757418,171.99639727760464,False,4.243985035334432,True,False
3,1970-07-23 10:29:32.552168504,2025-09-12,2025-09-26 17:14:15.216,AH,C,1502222390,JASSM,3,102,76,2,2,1,225,9,2,0,1,26,0,0,0,0,-161152.80896170562,-4786207.315400924,4203186.124479771,-2.36549,-0.397013,0.382536,74.625,-31.125,-32.375,0.0,0.0,0.0,0.0,0.0,0.0,2,0,41.46388553526625,-91.92843483871944,10002.628085136255,119.87095465913636,-0.0043962368304604,0.0043510097836687,,9006.830035856614,10864.345111209012,150,3,2025-09-12,2025-09-26 17:14:15.252,AH,C,691402946,AMBUSH51,1,1,48,2,1,1,225,2,1,0,0,9,1,225,2,1,-152562.6495828221,-4790720.348191008,4197907.809885863,2.21921,2.67583,-0.442984,-99.2624,46.446,49.2432,-0.112297,-7.20708,6.40301,-0.0628267,-0.0121309,-0.0184351,4,0,41.40308178492536,-91.82399350891548,8945.992835696607,-55.05936565053876,-0.0824012057783182,-9.96110098890621,199.987,9006.830035856614,10864.345111209012,150,True,5.946538922228174,False,176.73477583913282,171.86024669788142,False,4.949836407884134,True,False
3,1970-07-23 10:29:32.560215486,2025-09-12,2025-09-26 17:14:16.021,AH,C,1503594394,JASSM,3,102,76,2,2,1,225,9,2,0,1,26,0,0,0,0,-161066.99060233062,-4786243.305635299,4203148.683073521,-2.36549,-0.397013,0.382536,74.625,-31.125,-32.375,0.0,0.0,0.0,0.0,0.0,0.0,2,0,41.46343588608403,-91.92739418598052,10002.627357705467,119.87164372214112,-0.0034960520995029,0.0043495001296503,,9006.830035856614,10864.345111209012,150,3,2025-09-12,2025-09-26 17:14:15.986,AH,C,692277812,AMBUSH51,1,1,48,2,1,1,225,2,1,0,0,9,1,225,2,1,-152635.71482965315,-4790686.283265727,4197943.391079442,2.18924,2.68055,-0.435168,-100.036,46.0523,48.2452,-0.0133613,-7.27439,6.41454,-0.0189345,0.00355054,-0.0159426,4,0,41.40351080077384,-91.82487943192714,8945.13449569309,-55.54411023743765,-0.2427808531235178,-11.562071185782155,199.767,9006.830035856614,10864.345111209012,150,False,5.845825768420513,False,177.34529159628005,171.74381063418397,False,5.694600974193375,True,False
3,1970-07-23 10:29:32.571237837,2025-09-12,2025-09-26 17:14:17.123,AH,C,1504906744,JASSM,3,102,76,2,2,1,225,9,2,0,1,26,0,0,0,0,-160984.90368826812,-4786277.729463424,4203112.868620396,-2.36549,-0.397013,0.382536,74.625,-31.125,-32.375,0.0,0.0,0.0,0.0,0.0,0.0,2,0,41.46300578129117,-91.9263987956543,10002.625523846318,119.87230280911676,-0.0026350094675231,0.0043480577174597,,9006.830035856614,10864.345111209012,150,3,2025-09-12,2025-09-26 17:14:17.119,AH,C,693629876,AMBUSH51,1,1,48,2,1,1,225,2,1,0,0,9,1,225,2,1,-152750.24890152205,-4790634.009795626,4197997.666538845,2.25597,2.69383,-0.419457,-101.089,45.245,47.1066,-0.370279,-7.16371,6.58438,0.0937714,0.00997333,-0.0105621,4,0,41.40416647272262,-91.82626776325898,8943.309719427167,-56.66586065244258,-0.4244420359925649,-7.4169048026630415,200.097,9006.830035856614,10864.345111209012,150,True,5.721290421535648,False,178.17249728391516,171.5929792930314,False,6.654754238851739,True,False
3,1970-07-23 10:29:32.588959038,2025-09-12,2025-09-26 17:14:18.895,AH,C,1506219096,JASSM,3,102,76,2,2,1,225,9,2,0,1,26,0,0,0,0,-160902.81677420562,-4786312.151338424,4203077.054167271,-2.36549,-0.397013,0.382536,74.625,-31.125,-32.375,0.0,0.0,0.0,0.0,0.0,0.0,2,0,41.46257567948511,-91.92540341926792,10002.623621354069,119.87296188124084,-0.0017739730748171,0.0043466250611033,,9006.830035856614,10864.345111209012,150,3,2025-09-12,2025-09-26 17:14:18.853,AH,C,695697740,AMBUSH51,1,1,48,2,1,1,225,2,1,0,0,9,1,225,2,1,-152923.8100638857,-4790556.153857516,4198078.522088691,2.47208,2.71383,-0.419841,-100.801,44.5981,47.3502,-0.0974933,-7.6727,6.59546,0.073342,0.00601604,0.0179649,4,0,41.40514255305874,-91.828371130738,8940.882091454758,-57.41043841801934,0.3145141474155254,5.433016107784585,199.461,9006.830035856614,10864.345111209012,150,True,5.559645492481909,False,178.17932035325796,171.38410299088372,False,6.804348816194173,True,False
3,1970-07-23 10:29:32.593300640,2025-09-12,2025-09-26 17:14:19.330,AH,C,1507531446,JASSM,3,102,76,2,2,1,225,9,2,0,1,26,0,0,0,0,-160820.72937186187,-4786346.573213424,4203041.239714146,-2.36549,-0.396918,0.382536,74.625,-31.125,-32.375,0.0,0.0,0.0,0.0,0.0,0.0,2,0,41.46214556913186,-91.9244080501973,10002.626409125283,119.86998386742582,-0.0044825680898674,0.0022949003239487,,9006.830035856614,10864.345111209012,150,3,2025-09-12,2025-09-26 17:14:19.286,AH,C,696214708,AMBUSH51,1,1,48,2,1,1,225,2,1,0,0,9,1,225,2,1,-152967.13377276537,-4790536.707158355,4198098.89664577,2.49932,2.71071,-0.425063,-100.354,44.865,47.5378,-0.131582,-7.60642,6.46431,0.0615263,0.00462204,0.0194816,4,0,41.40538756156195,-91.82889618040603,8940.664535572965,-57.08608575252756,0.4182835158051585,6.9227136917086165,199.168,9006.830035856614,10864.345111209012,150,True,5.480923430343918,False,177.94228974191904,171.2707230656738,False,6.692221561330734,True,False
3,1970-07-23 10:29:32.603321415,2025-09-12,2025-09-26 17:14:20.332,AH,C,1508784146,JASSM,3,102,76,2,2,1,225,9,2,0,1,26,0,0,0,0,-160742.37341483062,-4786379.430635299,4203007.050261021,-2.36549,-0.396918,0.382536,74.625,-31.125,-32.375,0.0,0.0,0.0,0.0,0.0,0.0,2,0,41.46173498032913,-91.92345793976382,10002.627571756891,119.87061295692376,-0.0036606572254463,0.0022934637549508,,9006.830035856614,10864.345111209012,150,3,2025-09-12,2025-09-26 17:14:20.419,AH,C,697566772,AMBUSH51,1,1,48,2,1,1,225,2,1,0,0,9,1,225,2,1,-153080.66902958936,-4790484.802523261,4198153.481105125,2.54791,2.69571,-0.433722,-99.2089,45.7359,48.5013,-0.337533,-7.49225,6.30775,0.00207955,-0.00167176,0.00375235,4,0,41.406043266512455,-91.83027251791036,8940.366781558394,-56.1789392042123,0.2409414980831533,9.354240220691938,199.168,9006.830035856614,10864.345111209012,150,True,5.359250118332083,False,177.1250112521789,171.10660674726284,False,6.071108490111805,True,False
3,1970-07-23 10:29:32.614335581,2025-09-12,2025-09-26 17:14:21.433,AH,C,1510096490,JASSM,3,102,76,2,2,1,225,9,2,0,1,26,0,0,0,0,-160660.28650076812,-4786413.848604049,4202971.231901646,-2.36549,-0.396918,0.382536,74.625,-31.125,-32.375,0.0,0.0,0.0,0.0,0.0,0.0,2,0,41.4613048499007,-91.92246260381108,10002.621561792794,119.87127198576032,-0.0027996202195728,0.0022919730725297,,9006.830035856614,10864.345111209012,150,3,2025-09-12,2025-09-26 17:14:21.486,AH,C,698839304,AMBUSH51,1,1,48,2,1,1,225,2,1,0,0,9,1,225,2,1,-153185.23536751632,-4790435.226745812,4198205.470448519,2.54276,2.68659,-0.437479,-98.1441,46.8489,49.5178,-0.351996,-7.60604,6.33446,-0.0248121,0.00590993,0.0116045,4,0,41.40666928737502,-91.83154083052708,8939.469691305172,-55.686984672444936,0.0739276530117444,8.839677831661843,198.691,9006.830035856614,10864.345111209012,150,True,5.240203288424141,False,176.2490559785416,170.94867490801303,False,5.422541696760607,True,False
3,1970-07-23 10:29:32.625254808,2025-09-12,2025-09-26 17:14:22.525,AH,C,1511349196,JASSM,3,102,76,2,2,1,225,9,2,0,1,26,0,0,0,0,-160581.93005545562,-4786446.704072799,4202937.042448521,-2.36549,-0.396918,0.382536,74.625,-31.125,-32.375,0.0,0.0,0.0,0.0,0.0,0.0,2,0,41.460894256699504,-91.92151251286556,10002.626710815144,119.87190105186474,-0.0019777117920798,0.0022905484910177,,9006.830035856614,10864.345111209012,150,3,2025-09-12,2025-09-26 17:14:22.653,AH,C,700231136,AMBUSH51,1,1,48,2,1,1,225,2,1,0,0,9,1,225,2,1,-153300.0575230091,-4790379.544517431,4198263.976637984,2.43357,2.67018,-0.449028,-97.267,47.3088,50.3451,0.157136,-7.48698,6.47106,-0.127976,0.00561657,0.0118479,4,0,41.407373664227634,-91.83293404252008,8938.510873093617,-54.615560511822544,-0.0189997379226524,2.18083616239606,198.691,9006.830035856614,10864.345111209012,150,True,5.116189704254435,False,175.64049845569505,170.78834750060216,False,4.985714112922945,True,False
3,1970-07-23 10:29:32.644954066,2025-09-12,2025-09-26 17:14:24.495,AH,C,1512661546,JASSM,3,102,76,2,2,1,225,9,2,0,1,26,0,0,0,0,-160499.84265311187,-4786481.122041549,4202901.222136021,-2.36549,-0.396918,0.382632,74.625,-31.125,-32.375,0.0,0.0,0.0,0.0,0.0,0.0,2,0,41.46046409630064,-91.9205171967846,10002.625664134424,119.87640787434252,-0.0050370368974395,0.0022888419441701,,9006.830035856614,10864.345111209012,150,3,2025-09-12,2025-09-26 17:14:24.485,AH,C,702418300,AMBUSH51,1,1,48,2,1,1,225,2,1,0,0,9,1,225,2,1,-153477.54565284593,-4790292.329822168,4198356.000348046,2.29188,2.67341,-0.440045,-97.2987,47.1649,50.0823,-0.0225389,-7.10371,6.13301,-0.0335943,-0.0148398,-0.024602,4,0,41.40847994493616,-91.8350881186302,8937.681044783032,-55.08901705651871,-0.2814864781715175,-5.8565757169424,198.435,9006.830035856614,10864.345111209012,150,True,4.94813516292509,False,175.76536913763925,170.58001095295526,False,5.321795109108745,True,False
3,1970-07-23 10:29:32.646294169,2025-09-12,2025-09-26 17:14:24.629,AH,C,1513914246,JASSM,3,102,76,2,2,1,225,9,2,0,1,26,0,0,0,0,-160421.48669608062,-4786513.973604049,4202867.030729771,-2.36549,-0.396918,0.382632,74.625,-31.125,-32.375,0.0,0.0,0.0,0.0,0.0,0.0,2,0,41.46005349696548,-91.9195671377858,10002.625837822425,119.87703690889774,-0.0042151380454811,0.0022874783902081,,9006.830035856614,10864.345111209012,150,3,2025-09-12,2025-09-26 17:14:24.485,AH,C,702418300,AMBUSH51,1,1,48,2,1,1,225,2,1,0,0,9,1,225,2,1,-153477.54565284593,-4790292.329822168,4198356.000348046,2.29188,2.67341,-0.440045,-97.2987,47.1649,50.0823,-0.0225389,-7.10371,6.13301,-0.0335943,-0.0148398,-0.024602,4,0,41.40847994493616,-91.8350881186302,8937.681044783032,-55.08901705651871,-0.2814864781715175,-5.8565757169424,198.435,9006.830035856614,10864.345111209012,150,True,4.8994673560367366,False,175.76536913763925,170.48701093092507,False,5.413796211872005,True,False
3,1970-07-23 10:29:32.657333223,2025-09-12,2025-09-26 17:14:25.733,AH,C,1515226594,JASSM,3,102,76,2,2,1,225,9,2,0,1,26,0,0,0,0,-160339.39929373687,-4786548.389619674,4202831.208464146,-2.36549,-0.396918,0.382632,74.625,-31.125,-32.375,0.0,0.0,0.0,0.0,0.0,0.0,2,0,41.45962331813086,-91.91857184819774,10002.624995323797,119.8776958851568,-0.0033540901229155,0.0022860345990476,,9006.830035856614,10864.345111209012,150,3,2025-09-12,2025-09-26 17:14:25.685,AH,C,703849900,AMBUSH51,1,1,48,2,1,1,225,2,1,0,0,9,1,225,2,1,-153593.58298970843,-4790236.093018042,4198415.09521827,2.30038,2.68328,-0.434151,-97.7797,46.7694,49.2324,-0.31624,-7.72143,6.59542,0.0407266,-0.00274743,-0.013733,4,0,41.40919132029451,-91.83649614015874,8936.75747619401,-55.695160492356365,-0.1781776560450435,-5.127470186795468,198.325,9006.830035856614,10864.345111209012,150,True,4.772467432659009,False,176.25616671182104,170.29738470886514,False,6.10389065075134,True,False
3,1970-07-23 10:29:32.668353057,2025-09-12,2025-09-26 17:14:26.835,AH,C,1516538946,JASSM,3,102,76,2,2,1,225,9,2,0,1,26,0,0,0,0,-160257.31189139312,-4786582.803682174,4202795.386198521,-2.36549,-0.396918,0.382632,74.625,-31.125,-32.375,0.0,0.0,0.0,0.0,0.0,0.0,2,0,41.4591931422842,-91.91757657254574,10002.624083975126,119.87835484656662,-0.0024930484381687,0.002284600563695,,9006.830035856614,10864.345111209012,150,3,2025-09-12,2025-09-26 17:14:26.853,AH,C,705241730,AMBUSH51,1,1,48,2,1,1,225,2,1,0,0,9,1,225,2,1,-153708.24006509752,-4790181.344483991,4198472.47617753,2.37198,2.69035,-0.429438,-98.0428,46.531,48.7618,-0.232682,-7.41284,6.25317,0.154167,-0.00226889,0.00383558,4,0,41.40988251768131,-91.83788712945154,8935.676177140389,-56.149222922392646,-0.1222252995738212,-0.854194041180453,198.129,9006.830035856614,10864.345111209012,150,True,4.646878990544189,False,176.53095678827714,170.09210617873413,False,6.588437014539245,True,False
3,1970-07-23 10:29:32.679227729,2025-09-12,2025-09-26 17:14:27.922,AH,C,1517791646,JASSM,3,102,76,2,2,1,225,9,2,0,1,26,0,0,0,0,-160178.95544608062,-4786615.653291549,4202761.192839146,-2.36549,-0.396918,0.382632,74.625,-31.125,-32.375,0.0,0.0,0.0,0.0,0.0,0.0,2,0,41.45878251712879,-91.91662654558776,10002.628516884335,119.87898384405366,-0.0016711453995195,0.0022832375391937,,9006.830035856614,10864.345111209012,150,3,2025-09-12,2025-09-26 17:14:28.052,AH,C,706673330,AMBUSH51,1,1,48,2,1,1,225,2,1,0,0,9,1,225,2,1,-153824.8908960254,-4790125.810428266,4198530.808661401,2.46348,2.69252,-0.433224,-97.6998,46.3866,49.4046,-0.186277,-7.53421,6.62083,0.03085,-0.00373155,0.00591201,4,0,41.41058441399897,-91.83930227297978,8934.895388235698,-56.08362298101287,0.1142918345605771,4.439820887725905,197.909,9006.830035856614,10864.345111209012,150,True,4.52241557636775,False,176.2751527462639,169.87809787255884,False,6.482643631321,True,False
3,1970-07-23 10:29:32.689255841,2025-09-12,2025-09-26 17:14:28.925,AH,C,1519044346,JASSM,3,102,76,2,2,1,225,9,2,0,1,26,0,0,0,0,-160100.59948904935,-4786648.500947799,4202726.995573521,-2.36549,-0.396822,0.382632,74.625,-31.125,-32.375,0.0,0.0,0.0,0.0,0.0,0.0,2,0,41.45837186928615,-91.91567653723432,10002.62401563536,119.87597601750866,-0.0044188677115848,0.0002310722246414,,9006.830035856614,10864.345111209012,150,3,2025-09-12,2025-09-26 17:14:28.953,AH,C,707747028,AMBUSH51,1,1,48,2,1,1,225,2,1,0,0,9,1,225,2,1,-153913.53873771548,-4790083.158756742,4198575.818052311,2.50545,2.67957,-0.44158,-97.1891,46.8568,49.993,-0.147554,-7.39267,6.52974,0.0474261,-0.000277759,0.00479473,4,0,41.41112506505423,-91.84037789253082,8934.680566653518,-55.26680046025945,0.0053476205933705,6.531410639310781,197.873,9006.830035856614,10864.345111209012,150,True,4.415928449747658,False,175.83685494711335,169.6846586744139,False,6.2581415919210555,True,False
3,1970-07-23 10:29:32.700276533,2025-09-12,2025-09-26 17:14:30.027,AH,C,1520356696,JASSM,3,102,76,2,2,1,225,9,2,0,1,26,0,0,0,0,-160018.51159842435,-4786682.911104049,4202691.171354771,-2.36549,-0.396822,0.382632,74.625,-31.125,-32.375,0.0,0.0,0.0,0.0,0.0,0.0,2,0,41.45794167848312,-91.91468129557134,10002.622984253629,119.87663494015324,-0.0035578282274083,0.0002295938549139,,9006.830035856614,10864.345111209012,150,3,2025-09-12,2025-09-26 17:14:30.053,AH,C,709059326,AMBUSH51,1,1,48,2,1,1,225,2,1,0,0,9,1,225,2,1,-154019.66500699328,-4790030.834034959,4198631.112941275,2.53956,2.67216,-0.449712,-96.2912,47.7087,50.9548,-0.155615,-7.36501,6.5645,0.0146214,0.00302414,0.00926385,4,0,41.4117893447244,-91.8416660977039,8934.38627316547,-54.66971376249977,0.086970050977624,8.303523894918508,197.836,9006.830035856614,10864.345111209012,150,True,4.2950896176111675,False,175.08313172630372,169.46807030031968,False,5.773618387654354,True,False
3,1970-07-23 10:29:32.718163658,2025-09-12,2025-09-26 17:14:31.816,AH,C,1521609396,JASSM,3,102,76,2,2,1,225,9,2,0,1,26,0,0,0,0,-159940.15564139312,-4786715.758760299,4202656.974089146,-2.3654,-0.396822,0.382632,74.625,-31.125,-32.375,0.0,0.0,0.0,0.0,0.0,0.0,2,0,41.45753101451623,-91.91373131175828,10002.62730900353,119.87726389355292,-0.0027359220210805,0.0057196353341645,,9006.830035856614,10864.345111209012,150,3,2025-09-12,2025-09-26 17:14:31.786,AH,C,711127192,AMBUSH51,1,1,48,2,1,1,225,2,1,0,0,9,1,225,2,1,-154184.1399926057,-4789946.509506114,4198720.065682505,2.56295,2.65103,-0.465831,-94.8241,49.5316,52.609,-0.217903,-7.29623,6.83945,-0.00655491,0.00403739,0.0194234,4,0,41.412860028297786,-91.84366385892731,8933.067865793357,-53.24638987039081,0.0352222288099733,9.109798991752376,198.288,9006.830035856614,10864.345111209012,150,True,4.136515109758605,False,173.72314157538023,169.21083775097824,False,4.868882752998373,True,False
3,1970-07-23 10:29:32.722313537,2025-09-12,2025-09-26 17:14:32.231,AH,C,1522921746,JASSM,3,102,76,2,2,1,225,9,2,0,1,26,0,0,0,0,-159858.06775076812,-4786750.166963424,4202621.147917271,-2.3654,-0.396822,0.382632,74.625,-31.125,-32.375,0.0,0.0,0.0,0.0,0.0,0.0,2,0,41.457100805279175,-91.9127360965841,10002.626481712226,119.8779227876705,-0.0018748821496134,0.0057181552623152,,9006.830035856614,10864.345111209012,150,3,2025-09-12,2025-09-26 17:14:32.253,AH,C,711683924,AMBUSH51,1,1,48,2,1,1,225,2,1,0,0,9,1,225,2,1,-154229.23619361882,-4789922.692280937,4198745.19046912,2.56278,2.64471,-0.470541,-94.4284,49.8441,53.211,-0.0557714,-7.25677,6.72575,-0.00453258,0.00541683,0.0223009,4,0,41.41316269625817,-91.84421189019528,8932.592497271033,-52.82610579829269,0.0187551754800102,8.937103913505975,198.398,9006.830035856614,10864.345111209012,150,True,4.055197941886608,False,173.35438245709963,169.04205774231468,False,4.678763792760519,True,False
3,1970-07-23 10:29:32.737030478,2025-09-12,2025-09-26 17:14:33.703,AH,C,1524293750,JASSM,3,102,76,2,2,1,225,9,2,0,1,26,0,0,0,0,-159772.24890311187,-4786786.139619674,4202583.690886021,-2.3654,-0.396822,0.382728,74.625,-31.125,-32.375,0.0,0.0,0.0,0.0,0.0,0.0,2,0,41.45665101296425,-91.91169566195786,10002.62658468632,119.88245957286114,-0.004894930864752,0.0057163930885911,,9006.830035856614,10864.345111209012,150,3,2025-09-12,2025-09-26 17:14:33.685,AH,C,713393890,AMBUSH51,1,1,48,2,1,1,225,2,1,0,0,9,1,225,2,1,-154362.5278616649,-4789850.186820541,4198821.832433778,2.51361,2.62454,-0.480903,-93.329,51.2318,54.5303,-0.069038,-7.14591,6.53713,-0.0640667,-0.0151436,0.00816737,4,0,41.41408589379592,-91.84583255810531,8931.17768363925,-51.6659341430155,-0.2225078505244865,5.588603215950818,198.765,9006.830035856614,10864.345111209012,150,True,3.910763136170291,False,172.3117640637727,168.8037039592541,False,4.110500351000115,True,False
3,1970-07-23 10:29:32.747364637,2025-09-12,2025-09-26 17:14:34.736,AH,C,1525606100,JASSM,3,102,76,2,2,1,225,9,2,0,1,26,0,0,0,0,-159690.16101248687,-4786820.545869674,4202547.862761021,-2.3654,-0.396822,0.382728,74.625,-31.125,-32.375,0.0,0.0,0.0,0.0,0.0,0.0,2,0,41.45622078450809,-91.91070047446694,10002.626391580488,119.88311843724654,-0.0040338905017042,0.0057149691383005,,9006.830035856614,10864.345111209012,150,3,2025-09-12,2025-09-26 17:14:34.753,AH,C,714666422,AMBUSH51,1,1,48,2,1,1,225,2,1,0,0,9,1,225,2,1,-154462.7029545314,-4789794.455478347,4198880.734217218,2.42208,2.61781,-0.485541,-93.0611,51.6322,55.1479,-0.118745,-7.34066,6.89685,-0.0970545,0.00877283,0.0132503,4,0,41.41479587043671,-91.8470510761005,8929.899790254856,-51.2349024039224,-0.2483751215986482,0.1633468506405954,199.058,9006.830035856614,10864.345111209012,150,True,3.7907371129932885,False,171.95897582761617,168.59023585985457,False,4.0157050263578284,True,False
3,1970-07-23 10:29:32.755234493,2025-09-12,2025-09-26 17:14:35.523,AH,C,1526918450,JASSM,3,102,76,2,2,1,225,9,2,0,1,26,0,0,0,0,-159608.07361014312,-4786854.952119674,4202512.032682896,-2.3654,-0.396822,0.382728,74.625,-31.125,-32.375,0.0,0.0,0.0,0.0,0.0,0.0,2,0,41.45579053413999,-91.90970530596678,10002.626726816903,119.88377728343798,-0.0031728472558571,0.0057135314643895,,9006.830035856614,10864.345111209012,150,3,2025-09-12,2025-09-26 17:14:35.554,AH,C,715620820,AMBUSH51,1,1,48,2,1,1,225,2,1,0,0,9,1,225,2,1,-154537.06597525362,-4789752.934165873,4198924.801235238,2.37832,2.61682,-0.485939,-93.1706,51.6224,55.3253,-0.0859351,-7.25854,6.66894,-0.0260501,-0.00677338,0.00586208,4,0,41.41532610462809,-91.84795569428124,8929.330415944652,-51.18264948380788,-0.2637437743259852,-2.3707041128016773,199.327,9006.830035856614,10864.345111209012,150,True,3.6884836072730938,False,171.9432069869991,168.3841461769648,False,4.162267332033042,True,False
3,1970-07-23 10:29:32.766253025,2025-09-12,2025-09-26 17:14:36.625,AH,C,1528171150,JASSM,3,102,76,2,2,1,225,9,2,0,1,26,0,0,0,0,-159529.71716483062,-4786887.793916549,4202477.829557896,-2.3654,-0.396822,0.382728,74.625,-31.125,-32.5,0.0,0.0,0.0,0.0,0.0,0.0,2,0,41.45537982439793,-91.90875538143092,10002.626463360772,119.88440617085074,-0.0023509361157639,0.0057121532485261,,9006.830035856614,10864.345111209012,150,3,2025-09-12,2025-09-26 17:14:36.686,AH,C,716972886,AMBUSH51,1,1,48,2,1,1,225,2,1,0,0,9,1,225,2,1,-154641.72208029026,-4789694.669869171,4198986.593592951,2.35478,2.62543,-0.480934,-93.5397,51.6473,55.0605,-0.0374143,-7.28696,6.59445,-0.0146859,0.00872289,-0.000487899,4,0,41.41606978041515,-91.84922878344597,8928.467934271905,-51.7006912563379,-0.1880745046509394,-3.4884982213557296,199.4,9006.830035856614,10864.345111209012,150,True,3.5676764092691737,False,172.17766314896096,168.21388351040073,False,4.588264901691223,True,False
3,1970-07-23 10:29:32.776272273,2025-09-12,2025-09-26 17:14:37.627,AH,C,1529423850,JASSM,3,102,76,2,2,1,225,9,2,0,1,26,0,0,0,0,-159451.36071951812,-4786920.633760299,4202443.626432896,-2.3654,-0.396726,0.382728,74.625,-31.125,-32.5,0.0,0.0,0.0,0.0,0.0,0.0,2,0,41.45496911841305,-91.90780546965752,10002.625710431668,119.8813985069553,-0.0050986528746794,0.003659552425148,,9006.830035856614,10864.345111209012,150,3,2025-09-12,2025-09-26 17:14:37.485,AH,C,717927284,AMBUSH51,1,1,48,2,1,1,225,2,1,0,0,9,1,225,2,1,-154717.41036802073,-4789652.750400125,4199031.146517543,2.3411,2.62739,-0.48042,-93.8466,51.4102,54.9733,-0.0923413,-7.30314,6.51518,-0.00954057,-0.0042621,-0.00277031,4,0,41.41660539158541,-91.85014942768362,8928.09070214265,-51.79544648652182,-0.1429340957999993,-4.219676935979044,199.388,9006.830035856614,10864.345111209012,150,True,3.4670646992507743,False,172.35065492196676,167.985707793151,False,4.913346311349772,True,False
3,1970-07-23 10:29:32.788594817,2025-09-12,2025-09-26 17:14:38.859,AH,C,1530736200,JASSM,3,102,76,2,2,1,225,9,2,0,1,26,0,0,0,0,-159369.27282889312,-4786955.036104049,4202407.794401646,-2.3654,-0.396726,0.382728,74.625,-31.125,-32.5,0.0,0.0,0.0,0.0,0.0,0.0,2,0,41.45453885309177,-91.9068103351383,10002.625925598357,119.88205731438704,-0.0042376118252879,0.0036580704207872,,9006.830035856614,10864.345111209012,150,3,2025-09-12,2025-09-26 17:14:38.685,AH,C,719358882,AMBUSH51,1,1,48,2,1,1,225,2,1,0,0,9,1,225,2,1,-154830.2292610547,-4789591.153688146,4199096.559613728,2.33348,2.63471,-0.472564,-94.3855,51.1367,54.4956,0.145743,-7.34033,6.49274,0.0181126,-0.00285562,-0.00438485,4,0,41.41739174087836,-91.85152140019316,8927.557049777315,-52.3738457697414,-0.2296150590183699,-4.462426953082415,199.767,9006.830035856614,10864.345111209012,150,True,3.3390511594477,False,172.71227921903605,167.6910287603686,False,5.530772005746048,True,False
3,1970-07-23 10:29:32.796330642,2025-09-12,2025-09-26 17:14:39.633,AH,C,1531809942,JASSM,3,102,76,2,2,1,225,9,2,0,1,26,0,0,0,0,-159302.10974295562,-4786983.182588424,4202378.476042271,-2.3654,-0.396726,0.382728,74.625,-31.125,-32.5,0.0,0.0,0.0,0.0,0.0,0.0,2,0,41.45418680835795,-91.90599614111984,10002.62471715839,119.8825963298646,-0.0035331202896297,0.0036568562614813,,9006.830035856614,10864.345111209012,150,3,2025-09-12,2025-09-26 17:14:39.685,AH,C,720551882,AMBUSH51,1,1,48,2,1,1,225,2,1,0,0,9,1,225,2,1,-154923.65080338286,-4789540.511242927,4199150.203542637,2.38911,2.64285,-0.46741,-94.6542,50.9606,54.2642,-0.156284,-7.45053,6.74321,0.0528273,-0.00137423,-0.00055864,4,0,41.41803718720615,-91.8526573691297,8926.883687007012,-52.88125588604452,-0.1702234625417415,-1.061923279485279,199.718,9006.830035856614,10864.345111209012,150,True,3.2338417725941437,False,172.89996352551793,167.42684869114626,False,5.956206265527055,True,False
3,1970-07-23 10:29:32.806236144,2025-09-12,2025-09-26 17:14:40.623,AH,C,1533002988,JASSM,3,102,76,2,2,1,225,9,2,0,1,26,0,0,0,0,-159227.48571951812,-4787014.456025924,4202345.899870396,-2.3654,-0.396726,0.382728,74.625,-31.125,-32.5,0.0,0.0,0.0,0.0,0.0,0.0,2,0,41.453795641557214,-91.90509151105744,10002.625683640865,119.88319521170332,-0.0027503650213255,0.0036555005273402,,9006.830035856614,10864.345111209012,150,3,2025-09-12,2025-09-26 17:14:40.685,AH,C,721744880,AMBUSH51,1,1,48,2,1,1,225,2,1,0,0,9,1,225,2,1,-155018.17538950598,-4789489.310420292,4199204.448478745,2.45407,2.64185,-0.470015,-94.5515,50.9386,54.542,-0.0553415,-7.59307,6.67735,0.109395,-0.00274326,0.0106682,4,0,41.41868978901268,-91.85380675830478,8926.236811971288,-52.74435728872322,-0.0923226415936248,2.6340852948428544,199.791,9006.830035856614,10864.345111209012,150,True,3.123375847086705,False,172.79515192901502,167.1240537542104,False,6.119806265569836,True,False
3,1970-07-23 10:29:32.817234870,2025-09-12,2025-09-26 17:14:41.723,AH,C,1534255688,JASSM,3,102,76,2,2,1,225,9,2,0,1,26,0,0,0,0,-159149.12732108062,-4787047.291963424,4202311.692839146,-2.3654,-0.396726,0.382728,74.625,-31.125,-32.5,0.0,0.0,0.0,0.0,0.0,0.0,2,0,41.45338490250531,-91.9041416237108,10002.623312544849,119.88382404969924,-0.0019284444743421,0.0036540855704419,,9006.830035856614,10864.345111209012,150,3,2025-09-12,2025-09-26 17:14:41.852,AH,C,723136712,AMBUSH51,1,1,48,2,1,1,225,2,1,0,0,9,1,225,2,1,-155127.89618755082,-4789428.941578235,4199268.557001744,2.56401,2.63627,-0.473966,-93.6552,51.6977,55.2545,-0.262484,-7.30033,6.48682,0.0466521,-0.00126604,0.00477184,4,0,41.419460579905234,-91.85514132015685,8925.672581852657,-52.38206967606996,-0.1131064142292602,8.787053573888803,199.498,9006.830035856614,10864.345111209012,150,True,2.999771504531196,False,172.14511926978224,166.7777003061867,False,5.945246041929095,True,False
3,1970-07-23 10:29:32.828251649,2025-09-12,2025-09-26 17:14:42.825,AH,C,1535627690,JASSM,3,102,76,2,2,1,225,9,2,0,1,26,0,0,0,0,-159063.30798514312,-4787083.254854049,4202274.227995396,-2.3654,-0.396726,0.382824,74.625,-31.125,-32.5,0.0,0.0,0.0,0.0,0.0,0.0,2,0,41.45293503772735,-91.90310130589074,10002.625120077637,119.8883608482145,-0.0049483554771569,0.0036523283220329,,9006.830035856614,10864.345111209012,150,3,2025-09-12,2025-09-26 17:14:42.852,AH,C,724329710,AMBUSH51,1,1,48,2,1,1,225,2,1,0,0,9,1,225,2,1,-155221.50166477117,-4789375.960275548,4199324.600280022,2.61006,2.61483,-0.486395,-92.5707,52.6546,56.2959,-0.114419,-7.37305,6.4013,0.0180835,0.00526703,0.0254259,4,0,41.420136066993386,-91.856280465186,8924.493870234292,-51.09535337279564,-0.3027045600881409,10.853230588156284,199.388,9006.830035856614,10864.345111209012,150,False,2.882021563337072,False,171.29819499168445,166.4174758842799,False,5.630025139287521,True,False
3,1970-07-23 10:29:32.839272408,2025-09-12,2025-09-26 17:14:43.927,AH,C,1536940042,JASSM,3,102,76,2,2,1,225,9,2,0,1,26,0,0,0,0,-158981.22009451812,-4787117.651338424,4202238.392057896,-2.3654,-0.396726,0.382824,74.625,-31.125,-32.5,0.0,0.0,0.0,0.0,0.0,0.0,2,0,41.45250474010442,-91.90210623587484,10002.624813987828,119.88901958645722,-0.0040873197952422,0.0036509105053215,,9006.830035856614,10864.345111209012,150,3,2025-09-12,2025-09-26 17:14:43.952,AH,C,725642010,AMBUSH51,1,1,48,2,1,1,225,2,1,0,0,9,1,225,2,1,-155321.57706602773,-4789317.27931564,4199386.557851029,2.59297,2.60002,-0.500723,-91.1212,53.8907,57.4288,-0.146562,-7.58819,6.88621,-0.0521407,0.000641864,0.0212606,4,0,41.42088412917097,-91.85749916284728,8922.660986307048,-49.99316848425209,-0.1743882653110961,9.467196730361902,199.351,9006.830035856614,10864.345111209012,150,True,2.7610711505442125,False,170.24850066658115,166.0497208614144,False,5.271971183787599,True,False
3,1970-07-23 10:29:32.850309845,2025-09-12,2025-09-26 17:14:45.030,AH,C,1538252392,JASSM,3,102,76,2,2,1,225,9,2,0,1,26,0,0,0,0,-158899.13220389312,-4787152.047822799,4202202.554167271,-2.3654,-0.396726,0.382824,74.625,-31.125,-32.5,0.0,0.0,0.0,0.0,0.0,0.0,2,0,41.45207442066792,-91.90111117901058,10002.624996481838,119.88967831037178,-0.0032262774837005,0.0036494812290627,,9006.830035856614,10864.345111209012,150,3,2025-09-12,2025-09-26 17:14:45.085,AH,C,726994074,AMBUSH51,1,1,48,2,1,1,225,2,1,0,0,9,1,225,2,1,-155424.42171280572,-4789255.303237011,4199452.386453412,2.5727,2.58157,-0.512921,-89.8554,54.7002,58.4275,-0.077403,-7.34317,6.51216,-0.0151374,0.00318019,-0.00615752,4,0,41.42167737890343,-91.85875226137487,8921.358087870161,-48.83764008325869,-0.2447380922845434,7.788705589675873,199.388,9006.830035856614,10864.345111209012,150,True,2.6372319584676998,False,169.39148018273787,165.6659879313147,False,5.05484817522905,True,False
3,1970-07-23 10:29:32.872349113,2025-09-12,2025-09-26 17:14:47.234,AH,C,1540817442,JASSM,3,102,76,2,2,1,225,9,2,0,1,26,0,0,0,0,-158738.68689139312,-4787219.274385299,4202132.503386021,-2.3654,-0.39663,0.382824,74.625,-31.125,-32.5,0.0,0.0,0.0,0.0,0.0,0.0,2,0,41.45123330747974,-91.89916632472392,10002.623070358191,119.88732951163465,-0.0051129357319309,0.0015949625509766,,9006.830035856614,10864.345111209012,150,3,2025-09-12,2025-09-26 17:14:47.285,AH,C,729618672,AMBUSH51,1,1,48,2,1,1,225,2,1,0,0,9,1,225,2,1,-155619.38230224213,-4789132.326447366,4199583.044675362,2.60391,2.55994,-0.527756,-87.6674,56.3935,60.41,-0.140335,-7.3403,6.46479,0.00897673,-0.00284313,0.0188117,4,0,41.423253365574126,-91.86112995190084,8918.153792245308,-47.469078540986885,-0.2842350429333763,8.95422911773017,199.083,9006.830035856614,10864.345111209012,150,True,2.396727964823839,False,167.77328104000853,164.87730704459696,False,4.883720686545567,True,False
3,1970-07-23 10:29:32.878954692,2025-09-12,2025-09-26 17:14:47.895,AH,C,1539505092,JASSM,3,102,76,2,2,1,225,9,2,0,1,26,0,0,0,0,-158820.77478201812,-4787184.879854049,4202168.343229771,-2.3654,-0.396726,0.382824,74.625,-31.125,-32.5,0.0,0.0,0.0,0.0,0.0,0.0,2,0,41.45166364534627,-91.90016135510756,10002.622683672926,119.89030708499035,-0.0024043635559442,0.003648113545128,,9006.830035856614,10864.345111209012,150,3,2025-09-12,2025-09-26 17:14:47.985,AH,C,730453772,AMBUSH51,1,1,48,2,1,1,225,2,1,0,0,9,1,225,2,1,-155680.47627236968,-4789092.535525749,4199625.454650954,2.58756,2.55021,-0.533593,-86.9502,56.9168,61.0282,-0.0259548,-7.21643,6.62153,-0.0626852,-0.0112862,0.0150021,4,0,41.42376457478437,-91.86187554973068,8917.25583496374,-46.88584525513534,-0.3325750022061422,7.732219681975695,199.119,9006.830035856614,10864.345111209012,150,True,2.401353406671154,False,167.25919273433058,165.1369341692948,False,4.562253845105571,True,False
3,1970-07-23 10:29:32.888186570,2025-09-12,2025-09-26 17:14:48.818,AH,C,1542070142,JASSM,3,102,76,2,2,1,225,9,2,0,1,26,0,0,0,0,-158660.33044608062,-4787252.104463424,4202098.292448521,-2.3654,-0.39663,0.382824,74.625,-31.125,-32.5,0.0,0.0,0.0,0.0,0.0,0.0,2,0,41.45082252747753,-91.89821653780764,10002.624862986151,119.88795825136668,-0.0042910355611623,0.0015935479004248,,9006.830035856614,10864.345111209012,150,3,2025-09-12,2025-09-26 17:14:48.752,AH,C,731368404,AMBUSH51,1,1,48,2,1,1,225,2,1,0,0,9,1,225,2,1,-155746.90637601088,-4789048.642266253,4199672.372969773,2.54426,2.53982,-0.538967,-86.3693,57.1939,61.68,0.0946703,-7.4695,6.64904,-0.0763422,0.00614088,0.013217,4,0,41.424329586712815,-91.86268652734194,8916.487770251078,-46.295665125096455,-0.4175808690399478,4.943497882796772,199.241,9006.830035856614,10864.345111209012,150,True,2.2538486015535053,False,166.8360417924467,164.42852374005636,False,4.813600125514059,True,False
3,1970-07-23 10:29:32.893250696,2025-09-12,2025-09-26 17:14:49.325,AH,C,1543322842,JASSM,3,102,76,2,2,1,225,9,2,0,1,26,0,0,0,0,-158581.97302420562,-4787284.934541549,4202064.079557896,-2.3654,-0.39663,0.382824,74.625,-31.125,-32.5,0.0,0.0,0.0,0.0,0.0,0.0,2,0,41.45041172662252,-91.89726675119958,10002.626644583685,119.8885869857708,-0.003469121275773,0.0015921263208534,,9006.830035856614,10864.345111209012,150,3,2025-09-12,2025-09-26 17:14:49.485,AH,C,732243270,AMBUSH51,1,1,48,2,1,1,225,2,1,0,0,9,1,225,2,1,-155809.8397259222,-4789006.380879243,4199717.566631989,2.48961,2.53487,-0.54288,-85.956,57.5981,61.8832,-0.306593,-7.25188,6.63269,-0.0959102,-0.00236043,-0.00100389,4,0,41.42487391878984,-91.86345509352388,8915.712980588665,-45.96580625480782,-0.3963383358243564,1.6635220312669745,199.193,9006.830035856614,10864.345111209012,150,True,2.1586978746975767,False,166.55737608485813,164.01909321076147,False,5.113454551194494,True,False
3,1970-07-23 10:29:32.904271808,2025-09-12,2025-09-26 17:14:50.427,AH,C,1544694844,JASSM,3,102,76,2,2,1,225,9,2,0,1,26,0,0,0,0,-158496.15368826812,-4787320.887666549,4202026.606901646,-2.3654,-0.39663,0.382824,74.625,-31.125,-32.5,0.0,0.0,0.0,0.0,0.0,0.0,2,0,41.44996180489494,-91.89622653224896,10002.62165369368,119.88927557818909,-0.0025689417286994,0.0015905761088898,,9006.830035856614,10864.345111209012,150,3,2025-09-12,2025-09-26 17:14:50.318,AH,C,733237434,AMBUSH51,1,1,48,2,1,1,225,2,1,0,0,9,1,225,2,1,-155880.459677935,-4788958.473141117,4199768.877494877,2.44831,2.53348,-0.54463,-85.7397,57.5723,62.2164,-0.0511333,-7.43903,6.54443,-0.0259752,0.00195472,-0.000602332,4,0,41.42549164384986,-91.8643177353063,8914.953432589,-45.85062939335772,-0.3601728513523197,-0.744502802786648,199.119,9006.830035856614,10864.345111209012,150,True,2.053016288492907,False,166.40454405436103,163.53203805735617,False,5.34489089254972,True,False
