Subject_cm,Timestamp,SampleDate_cm,SampleTime_cm,Configuration_cm,Scenario_cm,DisTime_cm,MarkingTxt_cm,Application_cm,EntId_cm,Site_cm,ExerciseId_cm,ForceId_cm,Category_cm,Country_cm,Domain_cm,Kind_cm,Extra_cm,Specific_cm,Subcategory_cm,AltCategory_cm,AltCountry_cm,AltDomain_cm,AltKind_cm,ECEF_X_cm,ECEF_Y_cm,ECEF_Z_cm,OriPhi_cm,OriPsi_cm,OriTheta_cm,LinVelX_cm,LinVelY_cm,LinVelZ_cm,LinAccX_cm,LinAccY_cm,LinAccZ_cm,AngVelX_cm,AngVelY_cm,AngVelZ_cm,DrAlg_cm,Appearance_cm,Latitude_cm,Longitude_cm,Altitude_cm,Heading_cm,Pitch_cm,Roll_cm,CalibratedAirspeed_cm,CM_Altitude_Lead_cm,CM_Altitude_Wing_cm,CM_Airspeed_cm,Subject_ac,SampleDate_ac,SampleTime_ac,Configuration_ac,Scenario_ac,DisTime_ac,MarkingTxt_ac,Application_ac,EntId_ac,Site_ac,ExerciseId_ac,ForceId_ac,Category_ac,Country_ac,Domain_ac,Kind_ac,Extra_ac,Specific_ac,Subcategory_ac,AltCategory_ac,AltCountry_ac,AltDomain_ac,AltKind_ac,ECEF_X_ac,ECEF_Y_ac,ECEF_Z_ac,OriPhi_ac,OriPsi_ac,OriTheta_ac,LinVelX_ac,LinVelY_ac,LinVelZ_ac,LinAccX_ac,LinAccY_ac,LinAccZ_ac,AngVelX_ac,AngVelY_ac,AngVelZ_ac,DrAlg_ac,Appearance_ac,Latitude_ac,Longitude_ac,Altitude_ac,Heading_ac,Pitch_ac,Roll_ac,CalibratedAirspeed_ac,CM_Altitude_Lead_ac,CM_Altitude_Wing_ac,CM_Airspeed_ac,Bank_Angle_Condition,distance_nm,Distance_Condition,angle_between_vel,angle_between_pos,Cone_Condition,angle_between_pos_nose,Nose_Cone_Condition,Intercept_Criteria
3,1970-07-23 09:46:47.476347498,2025-09-09,2025-09-26 17:59:07.634,HH,C,1645983024,JASSM,3,103,76,2,2,1,225,9,2,0,1,26,0,0,0,0,-103917.82879029664,-4798515.942457494,4191019.903776646,2.29972,3.00238,-0.132498,-81.75,11.5,11.0,0.0,0.0,0.0,0.0,0.0,0.0,2,0,41.31794390219761,-91.24061741927302,10000.000153877469,-79.86432268946066,-0.0052608244880322,-0.0012670970755857,,8987.758710775177,10858.05979093449,150,3,2025-09-09,2025-09-26 17:59:07.736,HH,C,3224354714,HAWK11,1,1,73,2,1,1,225,2,1,0,0,12,1,225,2,1,-149256.19763358062,-4790399.586885299,4199270.515104771,2.34862,2.83087,-0.399794,-76.25,30.625,30.125,-0.0625,-6.92188,7.0625,-0.00195312,-0.00195312,0.00976562,4,0,41.41480801438082,-91.78460780861413,10858.05979093449,-62.5433277504589,3.833038436487767,0.822101940787582,145.349,8987.758710775177,10858.05979093449,150,True,25.193604310022117,False,18.382279723289283,176.67388511347892,False,164.9202268226165,False,False
3,1970-07-23 09:46:47.486327559,2025-09-09,2025-09-26 17:59:08.632,HH,C,1647235722,JASSM,3,103,76,2,2,1,225,9,2,0,1,26,0,0,0,0,-104003.87566529664,-4798503.888746557,4191031.4926438336,2.29972,3.00238,-0.132498,-81.75,11.5,11.0,0.0,0.0,0.0,0.0,0.0,0.0,2,0,41.3180827677177,-91.2416474818152,10000.00121673717,-79.86500277566749,-0.0044748252209562,-0.001267655971373,,8987.758710775177,10858.05979093449,150,3,2025-09-09,2025-09-26 17:59:08.631,HH,C,3225388648,HAWK11,1,1,73,2,1,1,225,2,1,0,0,12,1,225,2,1,-149322.54724295562,-4790372.970674361,4199296.894011021,2.35015,2.82569,-0.401999,-76.25,30.625,30.375,-0.109375,-6.89062,7.15625,0.0117188,0.0,0.0175781,4,0,41.415132112420594,-91.78541052957576,10854.939553954886,-62.26303895834935,3.724008998482343,0.8127302338422965,145.288,8987.758710775177,10858.05979093449,150,True,25.186152341459717,False,18.483511815629612,176.64343867797436,False,164.85230521342734,False,False
3,1970-07-23 09:46:47.497205628,2025-09-09,2025-09-26 17:59:09.720,HH,C,1648548074,JASSM,3,103,76,2,2,1,225,9,2,0,1,26,0,0,0,0,-104094.01824342164,-4798491.259840307,4191043.632292271,2.29972,3.00238,-0.132498,-81.75,11.5,11.0,0.0,0.0,0.0,0.0,0.0,0.0,2,0,41.318228236172125,-91.24272657886712,10000.001171830188,-79.8657152383292,-0.003651412767385,-0.0012682443669735,,8987.758710775177,10858.05979093449,150,3,2025-09-09,2025-09-26 17:59:10.034,HH,C,3227019078,HAWK11,1,1,73,2,1,1,225,2,1,0,0,12,1,225,2,1,-149426.14880545562,-4790331.045869674,4199338.755339146,2.36463,2.81955,-0.412641,-76.125,30.75,30.875,-0.1875,-6.9375,6.9375,0.0,0.00195312,0.0136719,4,0,41.41564487079236,-91.78666409025652,10850.634433141631,-61.5991754432764,3.9151500094894782,1.5471967863804303,145.508,8987.758710775177,10858.05979093449,150,True,25.198850655939793,False,18.776999027237633,176.59825270502714,False,164.60792283724868,False,False
3,1970-07-23 09:46:47.507251071,2025-09-09,2025-09-26 17:59:10.725,HH,C,1649800772,JASSM,3,103,76,2,2,1,225,9,2,0,1,26,0,0,0,0,-104180.06511842164,-4798479.203199682,4191055.2192063336,2.29972,3.00238,-0.132498,-81.75,11.5,11.0,0.0,0.0,0.0,0.0,0.0,0.0,2,0,41.318367087013264,-91.24375665112068,9999.99886480843,-79.86639533480245,-0.0028654122391745,-0.0012688072267304,,8987.758710775177,10858.05979093449,150,3,2025-09-09,2025-09-26 17:59:10.830,HH,C,3228053012,HAWK11,1,1,73,2,1,1,225,2,1,0,0,12,1,225,2,1,-149492.20153983062,-4790304.134736861,4199365.729948521,2.35821,2.81543,-0.41475,-76.0,30.875,31.25,-0.1875,-6.79688,7.0,-0.0078125,-0.0078125,0.0,4,0,41.4159747849836,-91.78746339490668,10848.066678813211,-61.36202027180112,3.844106645567477,1.10028483917065,145.349,8987.758710775177,10858.05979093449,150,True,25.191347108810426,False,19.019951344220697,176.56692330544792,False,164.3986140428176,False,False
3,1970-07-23 09:46:47.518266551,2025-09-09,2025-09-26 17:59:11.826,HH,C,1651113666,JASSM,3,103,76,2,2,1,225,9,2,0,1,26,0,0,0,0,-104270.24480592164,-4798466.567457494,4191067.362761021,2.29972,3.00238,-0.132498,-81.75,11.5,11.0,0.0,0.0,0.0,0.0,0.0,0.0,2,0,41.31851259791069,-91.2448362022166,10000.000890367874,-79.86710810128221,-0.0020416601222036,-0.0012693980436183,,8987.758710775177,10858.05979093449,150,3,2025-09-09,2025-09-26 17:59:11.736,HH,C,3229007410,HAWK11,1,1,73,2,1,1,225,2,1,0,0,12,1,225,2,1,-149552.81872733062,-4790278.998994674,4199390.960417271,2.35562,2.8091,-0.419064,-75.875,31.0,31.5,-0.109375,-6.92188,6.98438,-0.0078125,-0.00585938,0.00585938,4,0,41.41628336840498,-91.78819709508062,10845.665179728963,-60.95341611422748,3.778519745973445,0.8323480610641513,145.447,8987.758710775177,10858.05979093449,150,True,25.17841391159709,False,19.21185018832269,176.53653830165376,False,164.23820927290947,False,False
3,1970-07-23 09:46:47.528305765,2025-09-09,2025-09-26 17:59:12.830,HH,C,1652366554,JASSM,3,103,76,2,2,1,225,9,2,0,1,26,0,0,0,0,-104356.30535279664,-4798454.507887182,4191078.949675084,2.29972,3.00238,-0.132498,-81.75,11.5,11.0,0.0,0.0,0.0,0.0,0.0,0.0,2,0,41.31865144550412,-91.24586644735564,10000.000178483577,-79.86778831575788,-0.0012555356814507,-0.0012699545654277,,8987.758710775177,10858.05979093449,150,3,2025-09-09,2025-09-26 17:59:12.924,HH,C,3230518542,HAWK11,1,1,73,2,1,1,225,2,1,0,0,12,1,225,2,1,-149649.40857108062,-4790238.535127486,4199431.155729771,2.35533,2.80067,-0.417818,-75.875,31.75,31.5,-0.09375,-6.84375,7.0,0.0078125,0.0175781,-0.0078125,4,0,41.41677746354675,-91.78936637053344,10840.81446352046,-60.69679529778797,3.413205949532935,0.6355809937474058,145.398,8987.758710775177,10858.05979093449,150,True,25.189429349218116,False,19.504494530236332,176.49217590855298,False,163.98332876706144,False,False
3,1970-07-23 09:46:47.540328151,2025-09-09,2025-09-26 17:59:14.032,HH,C,1653738402,JASSM,3,103,76,2,2,1,225,9,2,0,1,26,0,0,0,0,-104450.53386842164,-4798441.302809057,4191091.636198521,2.29972,3.00238,-0.132402,-81.75,11.5,11.0,0.0,0.0,0.0,0.0,0.0,0.0,2,0,41.31880346538959,-91.24699447786784,10000.001395524832,-79.8726303132871,-0.0040537368554509,-0.0012704096068163,,8987.758710775177,10858.05979093449,150,3,2025-09-09,2025-09-26 17:59:13.830,HH,C,3231592240,HAWK11,1,1,73,2,1,1,225,2,1,0,0,12,1,225,2,1,-149717.67419608062,-4790209.711885299,4199459.733854771,2.35437,2.79808,-0.41964,-75.875,31.5,32.0,-0.078125,-6.79688,7.01562,-0.00390625,-0.0136719,0.00195312,4,0,41.41712914722492,-91.7901928601548,10837.205032971407,-60.52768823295302,3.389946117785951,0.5304078869627995,145.606,8987.758710775177,10858.05979093449,150,True,25.178966326722204,False,19.608790426456153,176.45793333064495,False,163.92012972272352,False,False
3,1970-07-23 09:46:47.551193572,2025-09-09,2025-09-26 17:59:15.119,HH,C,1655050470,JASSM,3,103,76,2,2,1,225,9,2,0,1,26,0,0,0,0,-104540.65886842164,-4798428.670973119,4191103.769011021,2.29972,3.00238,-0.132402,-81.75,11.5,11.0,0.0,0.0,0.0,0.0,0.0,0.0,2,0,41.31894885717153,-91.24807338965952,9999.999835959745,-79.87334266382524,-0.0032304837619499,-0.0012710581815594,,8987.758710775177,10858.05979093449,150,3,2025-09-09,2025-09-26 17:59:15.034,HH,C,3232984072,HAWK11,1,1,73,2,1,1,225,2,1,0,0,12,1,225,2,1,-149805.68591483062,-4790172.116182174,4199496.636198521,2.3538,2.78667,-0.420215,-75.875,32.25,31.75,-0.171875,-6.71875,6.75,0.0078125,-0.00195312,0.0117188,4,0,41.41758552862576,-91.7912585912906,10831.611700926234,-60.08592840558912,2.988122510119896,0.2555516510005627,145.398,8987.758710775177,10858.05979093449,150,True,25.182714434908338,False,19.80030527291454,176.41581961436813,False,163.76177733686018,False,False
3,1970-07-23 09:46:47.563987098,2025-09-09,2025-09-26 17:59:16.398,HH,C,1656362528,JASSM,3,103,76,2,2,1,225,9,2,0,1,26,0,0,0,0,-104630.78191529664,-4798416.039137182,4191115.900846959,2.29972,3.00229,-0.132402,-81.75,11.5,11.0,0.0,0.0,0.0,0.0,0.0,0.0,2,0,41.31909423248907,-91.24915228293612,10000.000384107872,-79.87042919262902,-0.0064673219819585,-0.0019969422461698,,8987.758710775177,10858.05979093449,150,3,2025-09-09,2025-09-26 17:59:16.433,HH,C,3234654270,HAWK11,1,1,73,2,1,1,225,2,1,0,0,12,1,225,2,1,-149911.94958670562,-4790126.338838424,4199541.278776646,2.3862,2.78983,-0.431432,-75.75,32.5,32.125,-0.15625,-7.0625,7.26562,0.0332031,0.0117188,0.00195312,4,0,41.41813942274592,-91.7925454993759,10824.108523420698,-59.74412945501823,3.557825691739315,2.2066962690214176,146.29,8987.758710775177,10858.05979093449,150,True,25.19754219194474,False,20.08775739045925,176.3660969185025,False,163.52568303639157,False,False
3,1970-07-23 09:46:47.573246540,2025-09-09,2025-09-26 17:59:17.324,HH,C,1657616030,JASSM,3,103,76,2,2,1,225,9,2,0,1,26,0,0,0,0,-104716.88347779664,-4798403.969801244,4191127.489714146,2.29972,3.00229,-0.132402,-81.75,11.5,11.0,0.0,0.0,0.0,0.0,0.0,0.0,2,0,41.31923310733665,-91.25018303845236,9999.99858389,-79.87110975189402,-0.0056808222385027,-0.0019975049677447,,8987.758710775177,10858.05979093449,150,3,2025-09-09,2025-09-26 17:59:17.330,HH,C,3235727970,HAWK11,1,1,73,2,1,1,225,2,1,0,0,12,1,225,2,1,-149980.11755545562,-4790097.018525924,4199570.337370396,2.39982,2.78801,-0.439773,-75.5,32.5,32.75,-0.203125,-7.21875,7.21875,0.00585938,0.00976562,0.00390625,4,0,41.41849730256358,-91.79337104364262,10820.324553714574,-59.336734243135744,3.826167880173705,2.9689614340997825,146.547,8987.758710775177,10858.05979093449,150,True,25.191608521132004,False,20.41951592380011,176.33160755822675,False,163.23420960313584,False,False
3,1970-07-23 09:46:47.584267270,2025-09-09,2025-09-26 17:59:18.426,HH,C,1658987542,JASSM,3,103,76,2,2,1,225,9,2,0,1,26,0,0,0,0,-104811.09050904664,-4798390.763746557,4191140.1703782086,2.29972,3.00229,-0.132402,-81.75,11.5,11.0,0.0,0.0,0.0,0.0,0.0,0.0,2,0,41.3193850538884,-91.2513108328599,10000.00165090828,-79.87185438352111,-0.0048202809871367,-0.0019981292846099,,8987.758710775177,10858.05979093449,150,3,2025-09-09,2025-09-26 17:59:18.547,HH,C,3237159568,HAWK11,1,1,73,2,1,1,225,2,1,0,0,12,1,225,2,1,-150069.60388358062,-4790058.064424361,4199609.899870396,2.42254,2.77593,-0.45866,-75.0,32.625,33.5,-0.328125,-7.21875,7.20312,0.0214844,0.00195312,0.0078125,4,0,41.41897941572719,-91.79445495073308,10817.294366421478,-58.12645462663442,4.143838900181773,4.054427382418068,146.498,8987.758710775177,10858.05979093449,150,True,25.19432271356025,False,20.937497447042034,176.28618369074186,False,162.76632182021768,False,False
3,1970-07-23 09:46:47.595308057,2025-09-09,2025-09-26 17:59:19.530,HH,C,1660359234,JASSM,3,103,76,2,2,1,225,9,2,0,1,26,0,0,0,0,-104905.30925904664,-4798377.554762182,4191152.8500657086,2.29972,3.00229,-0.132402,-81.75,11.5,11.0,0.0,0.0,0.0,0.0,0.0,0.0,2,0,41.31953699866786,-91.25243877313264,10000.000745493431,-79.87259911371304,-0.0039596341560091,-0.0019987441248029,,8987.758710775177,10858.05979093449,150,3,2025-09-09,2025-09-26 17:59:19.426,HH,C,3238233268,HAWK11,1,1,73,2,1,1,225,2,1,0,0,12,1,225,2,1,-150137.56286795562,-4790028.167939986,4199640.804167271,2.43778,2.76999,-0.467768,-74.625,32.75,34.375,-0.15625,-7.14062,7.3125,0.0117188,-0.00195312,0.0195312,4,0,41.41935320535693,-91.7952782352295,10816.091104473157,-57.54042728925756,4.296087914825678,4.8188384247247145,146.29,8987.758710775177,10858.05979093449,150,True,25.18409279872674,False,21.467236914195734,176.2488094350662,False,162.27818233908735,False,False
3,1970-07-23 09:46:47.606347471,2025-09-09,2025-09-26 17:59:20.634,HH,C,1661671584,JASSM,3,103,76,2,2,1,225,9,2,0,1,26,0,0,0,0,-104995.45379029664,-4798364.915113744,4191164.980925084,2.29972,3.00229,-0.132402,-81.75,11.5,11.0,0.0,0.0,0.0,0.0,0.0,0.0,2,0,41.319682370071874,-91.25351794426064,9999.998601703684,-79.87331164585846,-0.0031362018860328,-0.0019993395487355,,8987.758710775177,10858.05979093449,150,3,2025-09-09,2025-09-26 17:59:20.736,HH,C,3239784166,HAWK11,1,1,73,2,1,1,225,2,1,0,0,12,1,225,2,1,-150233.91247733062,-4789985.149385299,4199685.925261021,2.4491,2.75637,-0.477547,-74.0,33.375,35.25,-0.125,-6.90625,7.03125,0.0,-0.00195312,0.0117188,4,0,41.41989571812037,-91.79644570941628,10815.670657590908,-56.651468806564125,4.202213604144191,5.177845350408989,146.132,8987.758710775177,10858.05979093449,150,True,25.193581171841174,False,22.268252935229974,176.19770636113478,False,161.52917510456624,False,False
3,1970-07-23 09:46:47.618362846,2025-09-09,2025-09-26 17:59:21.836,HH,C,1662983988,JASSM,3,103,76,2,2,1,225,9,2,0,1,26,0,0,0,0,-105085.60027467164,-4798352.275465307,4191177.1117844586,2.29972,3.00229,-0.132402,-81.75,11.5,11.0,0.0,0.0,0.0,0.0,0.0,0.0,2,0,41.31982773110037,-91.25459714349503,10000.000893215618,-79.8740241986265,-0.0023127524472376,-0.0019999316056393,,8987.758710775177,10858.05979093449,150,3,2025-09-09,2025-09-26 17:59:22.034,HH,C,3241295298,HAWK11,1,1,73,2,1,1,225,2,1,0,0,12,1,225,2,1,-150328.16833670562,-4789942.089814986,4199730.964323521,2.46118,2.73748,-0.487422,-73.375,34.25,35.875,-0.046875,-6.73438,6.84375,0.00390625,0.0,0.0195312,4,0,41.42043830054308,-91.79758819832942,10814.816485167436,-55.56987610172712,3.93217505219696,5.444671334557925,146.132,8987.758710775177,10858.05979093449,150,True,25.20199590415605,False,23.057879099282868,176.1460288340497,False,160.7898134036158,False,False
3,1970-07-23 09:46:47.628225678,2025-09-09,2025-09-26 17:59:22.822,HH,C,1664236944,JASSM,3,103,76,2,2,1,225,9,2,0,1,26,0,0,0,0,-105171.66277467164,-4798340.206129369,4191188.691862584,2.29972,3.00229,-0.132402,-81.75,11.5,11.0,0.0,0.0,0.0,0.0,0.0,0.0,2,0,41.31996650285116,-91.25562745590965,9999.998811287936,-79.87470447527845,-0.0015266070435675,-0.002000502220533,,8987.758710775177,10858.05979093449,150,3,2025-09-09,2025-09-26 17:59:22.830,HH,C,3242289462,HAWK11,1,1,73,2,1,1,225,2,1,0,0,12,1,225,2,1,-150388.95153983062,-4789912.952119674,4199761.272917271,2.41266,2.73125,-0.493367,-72.875,34.625,36.5,0.046875,-6.82812,6.89062,-0.21875,0.00976562,0.00585938,4,0,41.4208048730832,-91.79832548436086,10813.644791162673,-55.10594879273492,3.956104830277921,2.528918438524439,145.557,8987.758710775177,10858.05979093449,150,True,25.192404620568357,False,23.622511220460623,176.10816404924657,False,160.26404971653596,False,False
3,1970-07-23 09:46:47.639249289,2025-09-09,2025-09-26 17:59:23.924,HH,C,1665608638,JASSM,3,103,76,2,2,1,225,9,2,0,1,26,0,0,0,0,-105265.88347779664,-4798326.993238744,4191201.369596959,2.29972,3.00229,-0.132402,-81.75,11.5,11.0,0.0,0.0,0.0,0.0,0.0,0.0,2,0,41.32011841506575,-91.25675544056276,10000.00225989793,-79.87544924340494,-0.000665940596562,-0.0020011232839704,,8987.758710775177,10858.05979093449,150,3,2025-09-09,2025-09-26 17:59:23.830,HH,C,3243561994,HAWK11,1,1,73,2,1,1,225,2,1,0,0,12,1,225,2,1,-150467.01989920562,-4789875.995088424,4199800.114714146,2.14537,2.74007,-0.483492,-73.125,32.625,38.125,-0.0625,-6.8125,6.98438,-0.238281,0.0136719,-0.0195312,4,0,41.42127232649979,-91.7992722723954,10813.10536221694,-55.82293824598594,3.864797313188846,-12.59771436373424,146.083,8987.758710775177,10858.05979093449,150,False,25.188978302963516,False,23.51977416304196,176.06132024731536,False,160.41736761185646,False,False
3,1970-07-23 09:46:47.651162798,2025-09-09,2025-09-26 17:59:25.116,HH,C,1666862426,JASSM,3,103,76,2,2,1,225,9,2,0,1,26,0,0,0,0,-105352.00261842164,-4798314.914137182,4191212.9555344586,2.29972,3.00229,-0.132306,-81.75,11.5,11.0,0.0,0.0,0.0,0.0,0.0,0.0,2,0,41.32025725772292,-91.25778644070104,10000.000144875909,-79.88022714995233,-0.003538267327444,-0.002001570878843,,8987.758710775177,10858.05979093449,150,3,2025-09-09,2025-09-26 17:59:25.236,HH,C,3245152660,HAWK11,1,1,73,2,1,1,225,2,1,0,0,12,1,225,2,1,-150566.40661795562,-4789830.391572799,4199846.091276646,2.02016,2.77593,-0.427789,-75.375,33.25,33.375,-0.046875,-6.875,6.76562,-0.0449219,0.00195312,-0.0507812,4,0,41.4218353864834,-91.80047707938203,10808.443620525322,-59.38819986563458,2.9030918240609265,-19.077790085905917,146.498,8987.758710775177,10858.05979093449,150,False,25.20267226386115,False,20.99531788086644,176.00887398921228,False,162.9804225930225,False,False
3,1970-07-23 09:46:47.661305675,2025-09-09,2025-09-26 17:59:26.130,HH,C,1668173688,JASSM,3,103,76,2,2,1,225,9,2,0,1,26,0,0,0,0,-105442.07097779664,-4798302.281324682,4191225.071745396,2.29972,3.00219,-0.132306,-81.75,11.5,11.0,0.0,0.0,0.0,0.0,0.0,0.0,2,0,41.32040244929308,-91.25886472467816,10000.000441478323,-79.8773131969245,-0.006775610020992,-0.0027269538599252,,8987.758710775177,10858.05979093449,150,3,2025-09-09,2025-09-26 17:59:26.236,HH,C,3246385426,HAWK11,1,1,73,2,1,1,225,2,1,0,0,12,1,225,2,1,-150644.33630545562,-4789796.867158736,4199879.235807896,1.98296,2.8091,-0.38781,-77.0,31.75,31.25,-0.078125,-6.96875,6.96875,0.0234375,0.0136719,-0.03125,4,0,41.42224397445333,-91.8014209507991,10803.977860667088,-62.24859317835072,2.542224103305736,-20.59104366259897,146.608,8987.758710775177,10858.05979093449,150,False,25.20056969799866,False,19.03798267807425,175.97013350561937,False,164.97033275718786,False,False
3,1970-07-23 09:46:47.672933518,2025-09-09,2025-09-26 17:59:27.293,HH,C,1669426388,JASSM,3,103,76,2,2,1,225,9,2,0,1,26,0,0,0,0,-105528.11785279664,-4798290.211012182,4191236.6469407086,2.29972,3.00219,-0.132306,-81.75,11.5,11.0,0.0,0.0,0.0,0.0,0.0,0.0,2,0,41.320541157669965,-91.2598948689641,10000.00087707025,-79.87799337028231,-0.0059896068104688,-0.0027275306055538,,8987.758710775177,10858.05979093449,150,3,2025-09-09,2025-09-26 17:59:27.126,HH,C,3247459124,HAWK11,1,1,73,2,1,1,225,2,1,0,0,12,1,225,2,1,-150714.15857108062,-4789768.892549361,4199906.319792271,2.04614,2.83288,-0.374195,-78.375,30.5,29.0,-0.15625,-6.98438,7.0625,0.09375,0.0117188,-0.0234375,4,0,41.42258014832105,-91.80226586146264,10799.38038440596,-63.69025949813249,2.9111540359151404,-16.533006406587273,147.011,8987.758710775177,10858.05979093449,150,False,25.195297826151048,False,17.21952728796321,175.9388767562061,False,166.80485447550763,False,False
3,1970-07-23 09:46:47.683551905,2025-09-09,2025-09-26 17:59:28.355,HH,C,1670679276,JASSM,3,103,76,2,2,1,225,9,2,0,1,26,0,0,0,0,-105614.17644654664,-4798278.137769994,4191248.222136021,2.29972,3.00219,-0.132306,-81.75,11.5,11.0,0.0,0.0,0.0,0.0,0.0,0.0,2,0,41.32067987269671,-91.26092515825243,9999.998676307268,-79.87867364126238,-0.0052034968534196,-0.0027281043803621,,8987.758710775177,10858.05979093449,150,3,2025-09-09,2025-09-26 17:59:28.272,HH,C,3248174924,HAWK11,1,1,73,2,1,1,225,2,1,0,0,12,1,225,2,1,-150760.94568045562,-4789751.348604049,4199922.972136021,2.09302,2.85435,-0.357897,-79.0,29.625,27.875,-0.15625,-6.92188,7.07812,0.0859375,0.0078125,-0.03125,4,0,41.42278816344451,-91.802831579665,10796.007962427935,-65.1611914249157,3.1000636155988763,-13.483524735286808,146.914,8987.758710775177,10858.05979093449,150,False,25.175952557449598,False,16.229058137779155,175.9176604127056,False,167.8102103758674,False,False
3,1970-07-23 09:46:47.693244969,2025-09-09,2025-09-26 17:59:29.324,HH,C,1671991436,JASSM,3,103,76,2,2,1,225,9,2,0,1,26,0,0,0,0,-105704.30730592164,-4798265.493238744,4191260.345182896,2.29972,3.00219,-0.132306,-81.75,11.5,11.0,0.0,0.0,0.0,0.0,0.0,0.0,2,0,41.32082514249798,-91.26200420518708,10000.000887541515,-79.87938610755886,-0.0043801883176302,-0.0027287059707886,,8987.758710775177,10858.05979093449,150,3,2025-09-09,2025-09-26 17:59:29.126,HH,C,3249566756,HAWK11,1,1,73,2,1,1,225,2,1,0,0,12,1,225,2,1,-150853.57263358062,-4789717.676729049,4199954.052214146,2.14604,2.87842,-0.337476,-79.875,28.375,26.125,-0.109375,-6.875,7.03125,0.0449219,0.0,0.00195312,4,0,41.42318092432429,-91.80395117428758,10787.847010405576,-66.90490959210206,3.2445043430579017,-10.072448942896196,147.06,8987.758710775177,10858.05979093449,150,False,25.181289426155384,False,14.76272287668434,175.8853079567392,False,169.29329969620994,False,False
3,1970-07-23 09:46:47.704804792,2025-09-09,2025-09-26 17:59:30.480,HH,C,1673304768,JASSM,3,103,76,2,2,1,225,9,2,0,1,26,0,0,0,0,-105794.51629029664,-4798252.836012182,4191272.4770188336,2.29972,3.00219,-0.132306,-81.75,11.5,11.0,0.0,0.0,0.0,0.0,0.0,0.0,2,0,41.32097052677439,-91.263084192689,9999.999436642956,-79.8800991969532,-0.0035561660560271,-0.002729306692186,,8987.758710775177,10858.05979093449,150,3,2025-09-09,2025-09-26 17:59:31.034,HH,C,3252032286,HAWK11,1,1,73,2,1,1,225,2,1,0,0,12,1,225,2,1,-151019.20935233062,-4789660.845674361,4200005.485807896,2.34594,2.8789,-0.32856,-80.5,27.5,24.75,-0.140625,-6.25,6.1875,0.0761719,-0.0253906,0.0117188,4,0,41.42383514918851,-91.80595200958612,10772.585893440497,-67.29791243892721,2.916462652143745,1.3687076590133178,147.011,8987.758710775177,10858.05979093449,150,True,25.228931731678816,False,13.676537281210534,175.84024494253,False,170.40449059841362,False,False
3,1970-07-23 09:46:47.715224035,2025-09-09,2025-09-26 17:59:31.522,HH,C,1674616138,JASSM,3,103,76,2,2,1,225,9,2,0,1,26,0,0,0,0,-105884.59246217164,-4798240.197340307,4191284.590300084,2.29982,3.00219,-0.132306,-81.75,11.5,11.0,0.0,0.0,0.0,0.0,0.0,0.0,2,0,41.32111568268141,-91.26416259496216,10000.000614946324,-79.88081124172199,-0.0027333577272131,0.0027615697489606,,8987.758710775177,10858.05979093449,150,3,2025-09-09,2025-09-26 17:59:31.330,HH,C,3252469718,HAWK11,1,1,73,2,1,1,225,2,1,0,0,12,1,225,2,1,-151048.14880545562,-4789650.703096236,4200014.102995396,2.37173,2.87295,-0.327026,-80.375,27.75,24.625,-0.046875,-6.14062,6.17188,0.0683594,-0.0117188,0.00976562,4,0,41.42394822796184,-91.80630167314284,10768.595690349086,-67.14184477698527,2.6212416471731967,2.74426048884253,147.011,8987.758710775177,10858.05979093449,150,True,25.196568720292856,False,13.775512301776084,175.82579843265796,False,170.30820280296086,False,False
3,1970-07-23 09:46:47.732005136,2025-09-09,2025-09-26 17:59:33.200,HH,C,1675869074,JASSM,3,103,76,2,2,1,225,9,2,0,1,26,0,0,0,0,-105970.65496217164,-4798228.120191869,4191296.163542271,2.29982,3.00219,-0.132306,-81.75,11.5,11.0,0.0,0.0,0.0,0.0,0.0,0.0,2,0,41.32125436898711,-91.26519294999684,10000.001119678564,-79.88149156390416,-0.0019472109516618,0.002760993062958,,8987.758710775177,10858.05979093449,150,3,2025-09-09,2025-09-26 17:59:33.126,HH,C,3254577350,HAWK11,1,1,73,2,1,1,225,2,1,0,0,12,1,225,2,1,-151191.09997733062,-4789598.663057174,4200057.075651646,2.47719,2.83115,-0.353391,-79.875,30.25,25.375,-0.09375,-6.625,6.57812,-0.0507812,-0.0214844,0.0136719,4,0,41.42452106836023,-91.80802964485196,10745.00780584352,-64.4911470020621,2.0240965321052897,8.094900570917037,148.612,8987.758710775177,10858.05979093449,150,True,25.23338155232362,False,15.327324810593709,175.78526129553492,False,168.75407104169284,False,False
3,1970-07-23 09:46:47.747323512,2025-09-09,2025-09-26 17:59:34.732,HH,C,1678493540,JASSM,3,103,76,2,2,1,225,9,2,0,1,26,0,0,0,0,-106150.92449342164,-4798202.820387182,4191320.401823521,2.29982,3.00219,-0.132306,-81.75,11.5,11.0,0.0,0.0,0.0,0.0,0.0,0.0,2,0,41.32154482841074,-91.26735118263376,10000.001151006816,-79.88291660650489,-0.0003005212811558,0.002759793071769,,8987.758710775177,10858.05979093449,150,3,2025-09-09,2025-09-26 17:59:34.831,HH,C,3256645214,HAWK11,1,1,73,2,1,1,225,2,1,0,0,12,1,225,2,1,-151329.91638358062,-4789543.741182174,4200100.751432896,2.384,2.82262,-0.335942,-80.0,32.125,26.0,-0.203125,-6.51562,6.70312,-0.0253906,-0.00390625,0.00585938,4,0,41.42511655702021,-91.80970932546812,10715.551897255033,-64.89324525360556,1.0005214597186145,2.579758606749391,149.932,8987.758710775177,10858.05979093449,150,True,25.21687655388851,False,16.36642519360804,175.73191308931186,False,167.74049328433523,False,False
3,1970-07-23 09:46:47.747610139,2025-09-09,2025-09-26 17:59:34.761,HH,C,1677181188,JASSM,3,103,76,2,2,1,225,9,2,0,1,26,0,0,0,0,-106060.78191529664,-4798215.471754369,4191308.2817063336,2.29982,3.00219,-0.132306,-81.75,11.5,11.0,0.0,0.0,0.0,0.0,0.0,0.0,2,0,41.32139958948188,-91.26627197028915,10000.0000383788,-79.88220402076878,-0.0011239378386644,0.0027603947501834,,8987.758710775177,10858.05979093449,150,3,2025-09-09,2025-09-26 17:59:34.831,HH,C,3256645214,HAWK11,1,1,73,2,1,1,225,2,1,0,0,12,1,225,2,1,-151329.91638358062,-4789543.741182174,4200100.751432896,2.384,2.82262,-0.335942,-80.0,32.125,26.0,-0.203125,-6.51562,6.70312,-0.0253906,-0.00390625,0.00585938,4,0,41.42511655702021,-91.80970932546812,10715.551897255033,-64.89324525360556,1.0005214597186145,2.579758606749391,149.932,8987.758710775177,10858.05979093449,150,True,25.2662077602697,False,16.36642519360804,175.74028898769689,False,167.73253298983073,False,False
3,1970-07-23 09:46:47.759183561,2025-09-09,2025-09-26 17:59:35.918,HH,C,1679805888,JASSM,3,103,76,2,2,1,225,9,2,0,1,26,0,0,0,0,-106241.06707154664,-4798190.168043432,4191332.520964146,2.29982,3.0021,-0.13221,-81.75,11.5,11.0,0.0,0.0,0.0,0.0,0.0,0.0,2,0,41.3216900564185,-91.26843040002808,10000.002072243147,-79.88410031528821,-0.0071962307400194,0.0020350446200591,,8987.758710775177,10858.05979093449,150,3,2025-09-09,2025-09-26 17:59:35.220,HH,C,3257082648,HAWK11,1,1,73,2,1,1,225,2,1,0,0,12,1,225,2,1,-151359.84607108062,-4789531.515596236,4200110.306120396,2.38112,2.8184,-0.336325,-80.125,32.5,26.0,-0.34375,-6.70312,6.59375,0.00390625,-0.0078125,0.00585938,4,0,41.42524816158259,-91.8100716248382,10708.557627371283,-64.71901493217578,0.8521050645953601,2.33805240304412,150.286,8987.758710775177,10858.05979093449,150,True,25.1853147206096,False,16.503147819040514,175.71518624371302,False,167.6092048995986,False,False
3,1970-07-23 09:46:47.810009692,2025-09-09,2025-09-26 17:59:41.000,HH,C,1683624478,JASSM,3,103,76,2,2,1,225,9,2,0,1,26,0,0,0,0,-106503.36004029664,-4798153.346754369,4191367.778776646,2.29982,3.0021,-0.13221,-81.75,11.5,11.0,0.0,0.0,0.0,0.0,0.0,0.0,2,0,41.322112572798574,-91.27157068890304,10000.001621575284,-79.88617381264696,-0.0048002885164662,0.0020332812557355,,8987.758710775177,10858.05979093449,150,3,2025-09-09,2025-09-26 17:59:41.532,HH,C,3264678072,HAWK11,1,1,73,2,1,1,225,2,1,0,0,12,1,225,2,1,-151842.87536795562,-4789284.008760299,4200330.878386021,3.10315,2.5327,-0.632479,-64.5,47.125,49.25,-0.296875,-9.73438,10.1094,0.0410156,0.0585938,0.0722656,4,0,41.4281185825654,-91.81593795978738,10616.41208330078,-42.62233861606919,3.505779144035814,36.81006128111883,156.079,8987.758710775177,10858.05979093449,150,False,25.340684803422985,False,35.579716140220384,175.45962417900878,False,148.9569931304221,False,False
3,1970-07-23 09:46:47.828877918,2025-09-09,2025-09-26 17:59:42.887,HH,C,1681058808,JASSM,3,103,76,2,2,1,225,9,2,0,1,26,0,0,0,0,-106327.12761842164,-4798178.086988744,4191344.090300084,2.29982,3.0021,-0.13221,-81.75,11.5,11.0,0.0,0.0,0.0,0.0,0.0,0.0,2,0,41.32182870156871,-91.26946075087578,10000.00073311552,-79.88478064241708,-0.006410101036595,0.0020344615708106,,8987.758710775177,10858.05979093449,150,3,2025-09-09,2025-09-26 17:59:43.034,HH,C,3266427804,HAWK11,1,1,73,2,1,1,225,2,1,0,0,12,1,225,2,1,-151930.31384451812,-4789211.936494674,4200409.247526646,-3.04054,2.39924,-0.71982,-55.0,51.5,56.75,-0.140625,-9.46875,9.84375,0.0214844,0.0683594,0.0742188,4,0,41.42905983736556,-91.81701028922994,10616.15824302921,-34.83800008444559,3.925575176279681,40.51392926004486,154.918,8987.758710775177,10858.05979093449,150,False,25.498067503161433,False,43.34986982547291,175.3810927641525,False,141.26882797518823,False,False
3,1970-07-23 09:46:47.829021082,2025-09-09,2025-09-26 17:59:42.902,HH,C,1684935992,JASSM,3,103,76,2,2,1,225,9,2,0,1,26,0,0,0,0,-106593.44402467164,-4798140.698316869,4191379.886198521,2.29982,3.0021,-0.13221,-81.75,11.5,11.0,0.0,0.0,0.0,0.0,0.0,0.0,2,0,41.32225766654938,-91.27264922465471,10000.000500474309,-79.88688596167962,-0.0039774064560992,0.0020326746684225,,8987.758710775177,10858.05979093449,150,3,2025-09-09,2025-09-26 17:59:43.034,HH,C,3266427804,HAWK11,1,1,73,2,1,1,225,2,1,0,0,12,1,225,2,1,-151930.31384451812,-4789211.936494674,4200409.247526646,-3.04054,2.39924,-0.71982,-55.0,51.5,56.75,-0.140625,-9.46875,9.84375,0.0214844,0.0683594,0.0742188,4,0,41.42905983736556,-91.81701028922994,10616.15824302921,-34.83800008444559,3.925575176279681,40.51392926004486,154.918,8987.758710775177,10858.05979093449,150,False,25.352393453246172,False,43.34986982547291,175.3544127807678,False,141.2955070052078,False,False
3,1970-07-23 09:46:47.829029966,2025-09-09,2025-09-26 17:59:42.902,HH,C,1686248828,JASSM,3,103,76,2,2,1,225,9,2,0,1,26,0,0,0,0,-106683.62175904664,-4798128.036207494,4191392.005339146,2.29982,3.0021,-0.13221,-81.75,11.5,11.0,0.0,0.0,0.0,0.0,0.0,0.0,2,0,41.3224028982382,-91.2737288877604,10000.000546631,-79.88759885715889,-0.0031536684624703,0.0020320703959861,,8987.758710775177,10858.05979093449,150,3,2025-09-09,2025-09-26 17:59:43.034,HH,C,3266427804,HAWK11,1,1,73,2,1,1,225,2,1,0,0,12,1,225,2,1,-151930.31384451812,-4789211.936494674,4200409.247526646,-3.04054,2.39924,-0.71982,-55.0,51.5,56.75,-0.140625,-9.46875,9.84375,0.0214844,0.0683594,0.0742188,4,0,41.42905983736556,-91.81701028922994,10616.15824302921,-34.83800008444559,3.925575176279681,40.51392926004486,154.918,8987.758710775177,10858.05979093449,150,False,25.303068048736908,False,43.34986982547291,175.34530893266964,False,141.30461049637574,False,False
3,1970-07-23 09:46:47.845362615,2025-09-09,2025-09-26 17:59:44.536,HH,C,1690126056,JASSM,3,103,76,2,2,1,225,9,2,0,1,26,0,0,0,0,-106949.94011842164,-4798090.634840307,4191427.792448521,2.29982,3.0021,-0.13221,-81.75,11.5,11.0,0.0,0.0,0.0,0.0,0.0,0.0,2,0,41.322831760704624,-91.27691744418956,10000.00069750954,-79.88970425509166,-0.000720951633123,0.0020302719501245,,8987.758710775177,10858.05979093449,150,3,2025-09-09,2025-09-26 17:59:44.724,HH,C,3268455902,HAWK11,1,1,73,2,1,1,225,2,1,0,0,12,1,225,2,1,-152013.23669608062,-4789118.411104049,4200512.823698521,-2.88245,2.20951,-0.788658,-42.375,56.875,63.625,-0.328125,-9.0,9.20312,0.0253906,0.0390625,0.0800781,4,0,41.43029970521563,-91.8180368190137,10617.540094737104,-26.013746015209257,3.1741654990537227,42.65968937661064,153.977,8987.758710775177,10858.05979093449,150,False,25.221067112944816,False,52.61560595317581,175.18123490317103,False,132.20311024914358,False,False
3,1970-07-23 09:46:47.864942803,2025-09-09,2025-09-26 17:59:46.494,HH,C,1682370940,JASSM,3,103,76,2,2,1,225,9,2,0,1,26,0,0,0,0,-106417.25652467164,-4798165.434644994,4191356.2055344586,2.29982,3.0021,-0.13221,-81.75,11.5,11.0,0.0,0.0,0.0,0.0,0.0,0.0,2,0,41.3219738851892,-91.27053981445748,10000.000908740718,-79.88549313594069,-0.0055868094601949,0.0020338567541683,,8987.758710775177,10858.05979093449,150,3,2025-09-09,2025-09-26 17:59:46.724,HH,C,3270762366,HAWK11,1,1,73,2,1,1,225,2,1,0,0,12,1,225,2,1,-152080.37536795562,-4789000.731416549,4200640.188932896,-2.68926,1.94394,-0.856537,-26.75,62.75,68.375,-0.4375,-9.8125,10.7969,-0.015625,0.107422,0.0820312,4,0,41.43184682724791,-91.81888390414068,10609.964974827571,-14.97169037046231,2.784018155736881,43.11527387600915,155.016,8987.758710775177,10858.05979093449,150,False,25.573062305506085,False,62.93023525403626,175.05724336676352,False,122.01134323091617,False,False
3,1970-07-23 09:46:47.878342763,2025-09-09,2025-09-26 17:59:47.834,HH,C,1694003564,JASSM,3,103,76,2,2,1,225,9,2,0,1,26,0,0,0,0,-107216.27800904664,-4798053.221754369,4191463.574675084,2.29982,3.002,-0.132114,-81.75,11.5,11.0,0.0,0.0,0.0,0.0,0.0,0.0,2,0,41.32326056883762,-91.28010627865908,10000.000271631112,-79.89228082762082,-0.0060072381721595,0.0013048359623602,,8987.758710775177,10858.05979093449,150,3,2025-09-09,2025-09-26 17:59:48.130,HH,C,3272472332,HAWK11,1,1,73,2,1,1,225,2,1,0,0,12,1,225,2,1,-152108.62732108062,-4788909.645479049,4200742.642057896,-2.58217,1.72237,-0.91339,-12.875,63.625,72.875,-0.1875,-9.73438,11.0469,-0.0449219,0.0683594,0.0683594,4,0,41.43307491829457,-91.8192561496289,10610.664951400173,-6.413347375949046,4.207391526263563,39.92964464703115,155.651,8987.758710775177,10858.05979093449,150,False,25.171610343786536,False,71.44975898011987,174.81891442886635,False,113.73130834619997,False,False
3,1970-07-23 09:46:47.890939926,2025-09-09,2025-09-26 17:59:49.093,HH,C,1695256272,JASSM,3,103,76,2,2,1,225,9,2,0,1,26,0,0,0,0,-107302.32293092164,-4798041.133863744,4191475.132292271,2.29982,3.002,-0.132114,-81.75,11.5,11.0,0.0,0.0,0.0,0.0,0.0,0.0,2,0,41.32339907291458,-91.281136494301,10000.000566436884,-79.8929610866943,-0.0052212516387523,0.0013042584643545,,8987.758710775177,10858.05979093449,150,3,2025-09-09,2025-09-26 17:59:49.038,HH,C,3273506264,HAWK11,1,1,73,2,1,1,225,2,1,0,0,12,1,225,2,1,-152115.58923514312,-4788853.375947799,4200806.966276646,-2.47287,1.58547,-0.922498,-4.75,64.0,74.625,-0.265625,-9.25,10.5469,0.03125,0.0664062,0.0761719,4,0,41.43384253653874,-91.81936072291704,10612.524696357974,-1.6102841137329786,4.317093137534399,40.31429661427031,155.749,8987.758710775177,10858.05979093449,150,False,25.141230750855044,False,76.27293526548975,174.71080450036698,False,109.01598258265642,False,False
3,1970-07-23 09:46:47.901060395,2025-09-09,2025-09-26 17:59:50.106,HH,C,1696508974,JASSM,3,103,76,2,2,1,225,9,2,0,1,26,0,0,0,0,-107388.36980592164,-4798029.044019994,4191486.690886021,2.29982,3.002,-0.132114,-81.75,11.5,11.0,0.0,0.0,0.0,0.0,0.0,0.0,2,0,41.32353758571199,-91.2821667381387,10000.002218517018,-79.89364136626271,-0.0044352443546792,0.0013036664764815,,8987.758710775177,10858.05979093449,150,3,2025-09-09,2025-09-26 17:59:50.334,HH,C,3275096928,HAWK11,1,1,73,2,1,1,225,2,1,0,0,12,1,225,2,1,-152113.26892264312,-4788767.186494674,4200907.411589146,-2.25946,1.37301,-0.91013,7.5,64.125,75.875,-0.328125,-8.875,10.0312,0.0292969,0.0585938,0.0742188,4,0,41.43503371365167,-91.81936571255376,10618.531604156498,5.834700292265189,3.9449153280903904,43.40806149527597,155.749,8987.758710775177,10858.05979093449,150,False,25.113370920631237,False,83.36335204610268,174.543941781446,False,102.09210663612174,False,False
3,1970-07-23 09:46:47.901301933,2025-09-09,2025-09-26 17:59:50.130,HH,C,1687560694,JASSM,3,103,76,2,2,1,225,9,2,0,1,26,0,0,0,0,-106773.73113404664,-4798115.381910619,4191404.114714146,2.29982,3.0021,-0.13221,-81.75,11.5,11.0,0.0,0.0,0.0,0.0,0.0,0.0,2,0,41.32254801641428,-91.2748077376884,9999.999267764344,-79.88831121776276,-0.0023305533987723,0.002031460087476,,8987.758710775177,10858.05979093449,150,3,2025-09-09,2025-09-26 17:59:50.334,HH,C,3275096928,HAWK11,1,1,73,2,1,1,225,2,1,0,0,12,1,225,2,1,-152113.26892264312,-4788767.186494674,4200907.411589146,-2.25946,1.37301,-0.91013,7.5,64.125,75.875,-0.328125,-8.875,10.0312,0.0292969,0.0585938,0.0742188,4,0,41.43503371365167,-91.81936571255376,10618.531604156498,5.834700292265189,3.9449153280903904,43.40806149527597,155.749,8987.758710775177,10858.05979093449,150,False,25.44917753853699,False,83.36335204610268,174.6163325832512,False,102.01972411255774,False,False
3,1970-07-23 09:46:47.901449108,2025-09-09,2025-09-26 17:59:50.144,HH,C,1691438092,JASSM,3,103,76,2,2,1,225,9,2,0,1,26,0,0,0,0,-107040.06121217164,-4798077.976637182,4191439.900846959,2.29982,3.002,-0.13221,-81.75,11.5,11.0,0.0,0.0,0.0,0.0,0.0,0.0,2,0,41.32297686403775,-91.27799644917108,10000.001112051988,-79.8867906649222,-0.0039577677970132,0.0013056293897284,,8987.758710775177,10858.05979093449,150,3,2025-09-09,2025-09-26 17:59:50.334,HH,C,3275096928,HAWK11,1,1,73,2,1,1,225,2,1,0,0,12,1,225,2,1,-152113.26892264312,-4788767.186494674,4200907.411589146,-2.25946,1.37301,-0.91013,7.5,64.125,75.875,-0.328125,-8.875,10.0312,0.0292969,0.0585938,0.0742188,4,0,41.43503371365167,-91.81936571255376,10618.531604156498,5.834700292265189,3.9449153280903904,43.40806149527597,155.749,8987.758710775177,10858.05979093449,150,False,25.30366312406865,False,83.36335204610268,174.5852004254427,False,102.0508525703266,False,False
3,1970-07-23 09:46:47.901661797,2025-09-09,2025-09-26 17:59:50.166,HH,C,1692691376,JASSM,3,103,76,2,2,1,225,9,2,0,1,26,0,0,0,0,-107126.14714967164,-4798065.883863744,4191451.466276646,2.29982,3.002,-0.13221,-81.75,11.5,11.0,0.0,0.0,0.0,0.0,0.0,0.0,2,0,41.32311546337733,-91.2790271467196,10000.0004801001,-79.88747123839357,-0.0031714048810305,0.0013050975598553,,8987.758710775177,10858.05979093449,150,3,2025-09-09,2025-09-26 17:59:50.334,HH,C,3275096928,HAWK11,1,1,73,2,1,1,225,2,1,0,0,12,1,225,2,1,-152113.26892264312,-4788767.186494674,4200907.411589146,-2.25946,1.37301,-0.91013,7.5,64.125,75.875,-0.328125,-8.875,10.0312,0.0292969,0.0585938,0.0742188,4,0,41.43503371365167,-91.81936571255376,10618.531604156498,5.834700292265189,3.9449153280903904,43.40806149527597,155.749,8987.758710775177,10858.05979093449,150,False,25.2566302341247,False,83.36335204610268,174.57506108227648,False,102.06099076009065,False,False
3,1970-07-23 09:46:47.902724973,2025-09-09,2025-09-26 17:59:50.272,HH,C,1688873042,JASSM,3,103,76,2,2,1,225,9,2,0,1,26,0,0,0,0,-106863.87371217164,-4798102.722730932,4191416.227995396,2.29982,3.0021,-0.13221,-81.75,11.5,11.0,0.0,0.0,0.0,0.0,0.0,0.0,2,0,41.32269317549256,-91.2758869899941,10000.000571493769,-79.8890238461172,-0.0015071354447062,0.0020308520119028,,8987.758710775177,10858.05979093449,150,3,2025-09-09,2025-09-26 17:59:50.334,HH,C,3275096928,HAWK11,1,1,73,2,1,1,225,2,1,0,0,12,1,225,2,1,-152113.26892264312,-4788767.186494674,4200907.411589146,-2.25946,1.37301,-0.91013,7.5,64.125,75.875,-0.328125,-8.875,10.0312,0.0292969,0.0585938,0.0742188,4,0,41.43503371365167,-91.81936571255376,10618.531604156498,5.834700292265189,3.9449153280903904,43.40806149527597,155.749,8987.758710775177,10858.05979093449,150,False,25.399925508784825,False,83.36335204610268,174.6058355468342,False,102.03021987433375,False,False
3,1970-07-23 09:46:47.912198616,2025-09-09,2025-09-26 17:59:51.219,HH,C,1697762034,JASSM,3,103,76,2,2,1,225,9,2,0,1,26,0,0,0,0,-107474.44011842164,-4798016.949293432,4191498.2504563336,2.29982,3.002,-0.132114,-81.75,11.5,11.0,0.0,0.0,0.0,0.0,0.0,0.0,2,0,41.32367612177578,-91.28319726738432,9999.999197022937,-79.89432183616825,-0.0036490236007429,0.0013030795710536,,8987.758710775177,10858.05979093449,150,3,2025-09-09,2025-09-26 17:59:50.629,HH,C,3275494594,HAWK11,1,1,73,2,1,1,225,2,1,0,0,12,1,225,2,1,-152110.26696951812,-4788746.123994674,4200932.132292271,-2.21056,1.32037,-0.903898,10.375,63.875,76.0,-0.203125,-8.79688,9.9375,0.0234375,0.0644531,0.0703125,4,0,41.43532644404372,-91.81933782816895,10620.189497803533,7.728988812060752,3.85879552558972,43.96287281307007,155.7,8987.758710775177,10858.05979093449,150,False,25.06982679206029,False,85.01484659712001,174.49426828315165,False,100.49010038339703,False,False
3,1970-07-23 09:46:47.920599829,2025-09-09,2025-09-26 17:59:52.059,HH,C,1699073606,JASSM,3,103,76,2,2,1,225,9,2,0,1,26,0,0,0,0,-107564.52996217164,-4798004.290113744,4191510.3500657086,2.29982,3.002,-0.132114,-81.75,11.5,11.0,0.0,0.0,0.0,0.0,0.0,0.0,2,0,41.32382111677919,-91.284275927491,10000.001626916332,-79.89503408942885,-0.002826086152425,0.0013024661527618,,8987.758710775177,10858.05979093449,150,3,2025-09-09,2025-09-26 17:59:52.428,HH,C,3277482926,HAWK11,1,1,73,2,1,1,225,2,1,0,0,12,1,225,2,1,-152078.77966483062,-4788637.305635299,4201056.931120396,-2.04623,1.07388,-0.845799,26.0,63.625,74.25,-0.0625,-8.73438,9.98438,-0.0664062,0.0703125,0.0820312,4,0,41.43682214402981,-91.81900277935688,10621.17730472058,17.328571596279158,2.9253124754296875,43.08183587419335,156.812,8987.758710775177,10858.05979093449,150,False,25.030226946559868,False,93.92672537769195,174.27664793224855,False,91.79657158710945,False,False
3,1970-07-23 09:46:47.944399400,2025-09-09,2025-09-26 17:59:54.439,HH,C,1700386396,JASSM,3,103,76,2,2,1,225,9,2,0,1,26,0,0,0,0,-107654.70183717164,-4797991.617262182,4191522.4594407086,2.29982,3.002,-0.132114,-81.75,11.5,11.0,0.0,0.0,0.0,0.0,0.0,0.0,2,0,41.323966237966445,-91.28535557513337,10000.000394218589,-79.89574699683347,-0.0020023982237033,0.0013018480723765,,8987.758710775177,10858.05979093449,150,3,2025-09-09,2025-09-26 17:59:54.227,HH,C,3279709856,HAWK11,1,1,73,2,1,1,225,2,1,0,0,12,1,225,2,1,-152014.00134451812,-4788519.108369674,4201192.019011021,-2.00137,0.852318,-0.782522,41.75,60.375,71.5,-0.125,-8.64062,9.8125,-0.0566406,0.0546875,0.0527344,4,0,41.43844938182511,-91.81827334101663,10618.865962840491,26.763156897597195,3.182614902858301,36.90312352761889,158.156,8987.758710775177,10858.05979093449,150,False,24.976026994966393,False,103.08578563276721,174.0299116235353,False,82.88409773084875,False,False
3,1970-07-23 09:46:47.953378160,2025-09-09,2025-09-26 17:59:55.337,HH,C,1701698648,JASSM,3,103,76,2,2,1,225,9,2,0,1,26,0,0,0,0,-107744.83855592164,-4797978.949293432,4191534.5629563336,2.29982,3.002,-0.132114,-81.75,11.5,11.0,0.0,0.0,0.0,0.0,0.0,0.0,2,0,41.324111285101694,-91.28643480664536,10000.000883288232,-79.89645963152243,-0.0011790327331146,0.0013012375074729,,8987.758710775177,10858.05979093449,150,3,2025-09-09,2025-09-26 17:59:55.175,HH,C,3280544956,HAWK11,1,1,73,2,1,1,225,2,1,0,0,12,1,225,2,1,-151981.75818045562,-4788476.217744674,4201240.718229771,-1.97577,0.783193,-0.756253,47.125,58.875,70.25,-0.140625,-8.5625,9.70312,-0.0214844,0.0566406,0.0605469,4,0,41.43903934985552,-91.81790420413915,10616.654131265144,29.98498215956145,3.2868330216819466,35.79551790375363,158.877,8987.758710775177,10858.05979093449,150,False,24.92060999457414,False,106.25498083897524,173.92956431974127,False,79.81511186028175,False,False
3,1970-07-23 09:46:47.953778129,2025-09-09,2025-09-26 17:59:55.377,HH,C,1703011470,JASSM,3,103,76,2,2,1,225,9,2,0,1,26,0,0,0,0,-107835.01238404664,-4797966.274488744,4191546.6703782086,2.29982,3.0019,-0.132114,-81.75,11.5,11.0,0.0,0.0,0.0,0.0,0.0,0.0,2,0,41.32425638417424,-91.28751448770164,9999.999379987496,-79.89354640800919,-0.0044153711590155,0.0005770812860566,,8987.758710775177,10858.05979093449,150,3,2025-09-09,2025-09-26 17:59:55.175,HH,C,3280544956,HAWK11,1,1,73,2,1,1,225,2,1,0,0,12,1,225,2,1,-151981.75818045562,-4788476.217744674,4201240.718229771,-1.97577,0.783193,-0.756253,47.125,58.875,70.25,-0.140625,-8.5625,9.70312,-0.0214844,0.0566406,0.0605469,4,0,41.43903934985552,-91.81790420413915,10616.654131265144,29.98498215956145,3.2868330216819466,35.79551790375363,158.877,8987.758710775177,10858.05979093449,150,False,24.87140039195989,False,106.25498083897524,173.91748067596922,False,79.82719496027275,False,False
3,1970-07-23 09:46:47.965178867,2025-09-09,2025-09-26 17:59:56.517,HH,C,1704322996,JASSM,3,103,76,2,2,1,225,9,2,0,1,26,0,0,0,0,-107925.09832154664,-4797953.611402807,4191558.7660813336,2.29982,3.0019,-0.132114,-81.75,11.5,11.0,0.0,0.0,0.0,0.0,0.0,0.0,2,0,41.32440133603371,-91.28859312136778,10000.00081802843,-79.89425865200934,-0.0035924679225227,0.0005765167298927,,8987.758710775177,10858.05979093449,150,3,2025-09-09,2025-09-26 17:59:56.629,HH,C,3282652588,HAWK11,1,1,73,2,1,1,225,2,1,0,0,12,1,225,2,1,-151884.91247733062,-4788373.698213424,4201359.321745396,-1.86532,0.61714,-0.685689,59.75,53.75,66.375,-0.140625,-8.89062,10.0,-0.0195312,0.0527344,0.0605469,4,0,41.44046809565716,-91.8167854477583,10614.613103748234,38.18080252625009,3.9266095091134128,36.34766996805184,160.112,8987.758710775177,10858.05979093449,150,False,24.797745489605763,False,114.03896912094696,173.68351869128242,False,72.27593951314643,False,False
3,1970-07-23 09:46:47.975320247,2025-09-09,2025-09-26 17:59:57.532,HH,C,1705635576,JASSM,3,103,76,2,2,1,225,9,2,0,1,26,0,0,0,0,-108015.25652467164,-4797940.937574682,4191570.869596959,2.29982,3.0019,-0.132114,-81.75,11.5,11.0,0.0,0.0,0.0,0.0,0.0,0.0,2,0,41.32454638474037,-91.28967262524093,10000.001052567117,-79.89497147268534,-0.0027689061031167,0.0005759609433946,,8987.758710775177,10858.05979093449,150,3,2025-09-09,2025-09-26 17:59:57.535,HH,C,3283487686,HAWK11,1,1,73,2,1,1,225,2,1,0,0,12,1,225,2,1,-151840.89489920562,-4788336.166963424,4201403.610807896,-1.84365,0.572367,-0.652038,64.5,51.75,64.125,-0.3125,-8.28125,9.35938,-0.0214844,0.0449219,0.0625,4,0,41.44099862424427,-91.8162735065324,10615.091094377574,40.95727327074338,3.622129387071293,36.18082736039207,159.867,8987.758710775177,10858.05979093449,150,False,24.735403261494334,False,117.11628617439563,173.58542212688567,False,69.29672599345635,False,False
3,1970-07-23 09:46:47.986198896,2025-09-09,2025-09-26 17:59:58.619,HH,C,1706888554,JASSM,3,103,76,2,2,1,225,9,2,0,1,26,0,0,0,0,-108101.32097779664,-4797928.836988744,4191582.423307896,2.29982,3.0019,-0.132018,-81.75,11.5,11.0,0.0,0.0,0.0,0.0,0.0,0.0,2,0,41.32468484957267,-91.29070311790802,9999.999329861685,-79.89974891784543,-0.0056419347380481,0.000575691595749,,8987.758710775177,10858.05979093449,150,3,2025-09-09,2025-09-26 17:59:58.725,HH,C,3285038584,HAWK11,1,1,73,2,1,1,225,2,1,0,0,12,1,225,2,1,-151750.37146170562,-4788269.057588424,4201482.866667271,-1.81058,0.478027,-0.586556,72.25,47.75,60.0,-0.203125,-8.34375,9.40625,-0.0195312,0.0449219,0.0546875,4,0,41.4419499066459,-91.8152168415328,10615.168598797216,46.75024118818539,3.5381719894872585,35.297271982159025,160.772,8987.758710775177,10858.05979093449,150,False,24.659025288478176,False,122.3662614695687,173.4152836037153,False,64.216443610001,False,False
3,1970-07-23 09:46:47.998494477,2025-09-09,2025-09-26 17:59:59.849,HH,C,1708200628,JASSM,3,103,76,2,2,1,225,9,2,0,1,26,0,0,0,0,-108191.44402467164,-4797916.166090307,4191594.520964146,2.29982,3.0019,-0.132018,-81.75,11.5,11.0,0.0,0.0,0.0,0.0,0.0,0.0,2,0,41.32482982618562,-91.29178221073394,10000.000600108717,-79.90046147108153,-0.0048186929946921,0.0005750731198621,,8987.758710775177,10858.05979093449,150,3,2025-09-09,2025-09-26 17:59:59.336,HH,C,3285873684,HAWK11,1,1,73,2,1,1,225,2,1,0,0,12,1,225,2,1,-151697.72204764312,-4788235.581025924,4201522.983854771,-1.79965,0.431432,-0.557123,76.25,45.25,57.625,-0.21875,-8.39062,9.375,-0.0234375,0.0410156,0.0507812,4,0,41.442429773064646,-91.8146001557373,10615.890119898842,49.554559660616135,3.76843119054394,34.65712801114842,161.138,8987.758710775177,10858.05979093449,150,False,24.59150918908066,False,125.2201745132002,173.31961797597478,False,61.45757276502561,False,False
3,1970-07-23 09:46:48.007242874,2025-09-09,2025-09-26 18:00:00.724,HH,C,1709512748,JASSM,3,103,76,2,2,1,225,9,2,0,1,26,0,0,0,0,-108281.57097779664,-4797903.493238744,4191606.618620396,2.29982,3.0019,-0.132018,-81.75,11.5,11.0,0.0,0.0,0.0,0.0,0.0,0.0,2,0,41.32497480375876,-91.29286135549305,10000.001604482704,-79.90117406066962,-0.003995414469437,0.0005744499829481,,8987.758710775177,10858.05979093449,150,3,2025-09-09,2025-09-26 18:00:01.127,HH,C,3287782482,HAWK11,1,1,73,2,1,1,225,2,1,0,0,12,1,225,2,1,-151568.76013358062,-4788166.530244674,4201607.501432896,-1.81115,0.327984,-0.482916,84.0,39.125,51.75,-0.28125,-8.46875,9.4375,-0.0722656,0.0507812,0.0429688,4,0,41.44343533856725,-91.81308467904952,10619.64503573134,56.22726711245895,4.227318717604812,31.514559591444662,162.262,8987.758710775177,10858.05979093449,150,False,24.49442115508191,False,131.41867559341304,173.12590981443034,False,55.45064724230028,False,False
3,1970-07-23 09:46:48.018298490,2025-09-09,2025-09-26 18:00:01.829,HH,C,1710765934,JASSM,3,103,76,2,2,1,225,9,2,0,1,26,0,0,0,0,-108367.65105592164,-4797891.388746557,4191618.171354771,2.29982,3.0019,-0.132018,-81.75,11.5,11.0,0.0,0.0,0.0,0.0,0.0,0.0,2,0,41.32511325454385,-91.29389204920771,10000.001226685945,-79.90185465859581,-0.0032091039578503,0.0005738623333883,,8987.758710775177,10858.05979093449,150,3,2025-09-09,2025-09-26 18:00:02.032,HH,C,3289055014,HAWK11,1,1,73,2,1,1,225,2,1,0,0,12,1,225,2,1,-151475.98278983062,-4788126.204072799,4201659.247526646,-1.88306,0.269501,-0.441691,88.125,34.75,48.5,-0.078125,-8.09375,9.15625,-0.0957031,0.0253906,0.046875,4,0,41.44404197995377,-91.81199085528708,10625.670601456864,60.02745792852279,4.700313652222063,26.19542251661313,162.641,8987.758710775177,10858.05979093449,150,False,24.41097733872377,False,135.03418750961845,172.99783869158398,False,51.95834798717508,False,False
3,1970-07-23 09:46:48.028338288,2025-09-09,2025-09-26 18:00:02.833,HH,C,1712018682,JASSM,3,103,76,2,2,1,225,9,2,0,1,26,0,0,0,0,-108453.69793092164,-4797879.287184057,4191629.7192063336,2.29982,3.0019,-0.132018,-81.75,11.5,11.0,0.0,0.0,0.0,0.0,0.0,0.0,2,0,41.32525165014804,-91.29492235018928,9999.999586525391,-79.90253499906552,-0.0024230951107667,0.0005732676729074,,8987.758710775177,10858.05979093449,150,3,2025-09-09,2025-09-26 18:00:02.924,HH,C,3290088946,HAWK11,1,1,73,2,1,1,225,2,1,0,0,12,1,225,2,1,-151396.88708670562,-4788096.362275924,4201698.546354771,-1.93953,0.239109,-0.412257,90.875,31.75,45.75,0.03125,-7.67188,8.60938,-0.0996094,0.03125,0.0332031,4,0,41.4444996468878,-91.81105660420194,10631.507401446155,62.350000508657054,4.677188906929547,22.42859574905063,162.69,8987.758710775177,10858.05979093449,150,False,24.331916601956095,False,137.65512972092236,172.89389975297308,False,49.43836532619667,False,False
3,1970-07-23 09:46:48.040178540,2025-09-09,2025-09-26 18:00:04.017,HH,C,1713390148,JASSM,3,103,76,2,2,1,225,9,2,0,1,26,0,0,0,0,-108547.90105592164,-4797866.038160619,4191642.360807896,2.29982,3.0019,-0.132018,-81.75,11.5,11.0,0.0,0.0,0.0,0.0,0.0,0.0,2,0,41.32540314992707,-91.29605031690484,9999.999549254157,-79.9032798334746,-0.0015625822725119,0.0005726201956443,,8987.758710775177,10858.05979093449,150,3,2025-09-09,2025-09-26 18:00:04.126,HH,C,3291441012,HAWK11,1,1,73,2,1,1,225,2,1,0,0,12,1,225,2,1,-151290.86950858062,-4788061.028291549,4201746.563932896,-2.03099,0.206416,-0.397397,93.625,28.125,43.5,-0.09375,-7.51562,8.42188,-0.105469,0.0,0.0195312,4,0,41.445053885132886,-91.80980257931378,10640.690913275208,64.15774726299003,5.348599020595326,16.60825297604387,162.739,8987.758710775177,10858.05979093449,150,False,24.23644881548358,False,140.2544549299498,172.7649306820643,False,46.958574238798406,False,False
3,1970-07-23 09:46:48.051340127,2025-09-09,2025-09-26 18:00:05.134,HH,C,1714642848,JASSM,3,103,76,2,2,1,225,9,2,0,1,26,0,0,0,0,-108633.94597779664,-4797853.935621557,4191653.907682896,2.29982,3.00181,-0.132018,-81.75,11.5,11.0,0.0,0.0,0.0,0.0,0.0,0.0,2,0,41.32554152566995,-91.29708060397034,10000.001543589238,-79.90032489318664,-0.0048467393883783,-0.0001528237932923,,8987.758710775177,10858.05979093449,150,3,2025-09-09,2025-09-26 18:00:05.031,HH,C,3292713544,HAWK11,1,1,73,2,1,1,225,2,1,0,0,12,1,225,2,1,-151189.61950858062,-4788029.997041549,4201789.522917271,-2.13712,0.200664,-0.37199,95.25,26.75,41.125,-0.109375,-6.28125,7.09375,-0.09375,-0.00976562,0.0214844,4,0,41.445547471240815,-91.80860390423754,10649.843044959094,65.43672688172948,4.580941257101733,10.514313815951358,161.847,8987.758710775177,10858.05979093449,150,False,24.146840961924944,False,141.9485034364607,172.64627582629726,False,45.38607079073511,False,False
3,1970-07-23 09:46:48.061279129,2025-09-09,2025-09-26 18:00:06.127,HH,C,1715896520,JASSM,3,103,76,2,2,1,225,9,2,0,1,26,0,0,0,0,-108720.05925904664,-4797841.822340307,4191665.4613938336,2.29982,3.00181,-0.132018,-81.75,11.5,11.0,0.0,0.0,0.0,0.0,0.0,0.0,2,0,41.32567999300869,-91.29811171422811,9999.999648540235,-79.90100577382299,-0.0040601246291038,-0.000153362415664,,8987.758710775177,10858.05979093449,150,3,2025-09-09,2025-09-26 18:00:06.221,HH,C,3293827008,HAWK11,1,1,73,2,1,1,225,2,1,0,0,12,1,225,2,1,-151100.37536795562,-4788003.819307174,4201825.233854771,-2.23079,0.193282,-0.367484,96.25,26.125,40.125,0.03125,-6.51562,7.375,-0.101562,0.00585938,0.00585938,4,0,41.44596099835041,-91.80754690663932,10656.123125553975,65.89653890817011,4.694957636121304,5.031815468478301,162.69,8987.758710775177,10858.05979093449,150,True,24.061949485776577,False,142.74835146517182,172.54212755264751,False,44.69136042644273,False,False
3,1970-07-23 09:46:48.072320218,2025-09-09,2025-09-26 18:00:07.232,HH,C,1717268440,JASSM,3,103,76,2,2,1,225,9,2,0,1,26,0,0,0,0,-108814.29168092164,-4797828.565504369,4191678.104948521,2.29982,3.00181,-0.132018,-81.75,11.5,11.0,0.0,0.0,0.0,0.0,0.0,0.0,2,0,41.3258315171913,-91.29924004751456,9999.999606251831,-79.9017508566105,-0.0031993419592478,-0.0001539636606741,,8987.758710775177,10858.05979093449,150,3,2025-09-09,2025-09-26 18:00:07.126,HH,C,3294940474,HAWK11,1,1,73,2,1,1,225,2,1,0,0,12,1,225,2,1,-151010.07653983062,-4787978.192354049,4201860.733854771,-2.3026,0.190405,-0.369402,96.875,25.875,39.5,0.0,-6.39062,7.25,-0.0488281,-0.00390625,0.00390625,4,0,41.44637001132316,-91.80647708010947,10663.22228576827,65.92123822378704,4.88329552068021,0.8601280178674919,162.873,8987.758710775177,10858.05979093449,150,True,23.97208866673855,False,143.20422518585136,172.43603939684974,False,44.34301851626345,False,False
3,1970-07-23 09:46:48.084337639,2025-09-09,2025-09-26 18:00:08.433,HH,C,1718580764,JASSM,3,103,76,2,2,1,225,9,2,0,1,26,0,0,0,0,-108904.43230592164,-4797815.883863744,4191690.197721959,2.29982,3.00181,-0.132018,-81.75,11.5,11.0,0.0,0.0,0.0,0.0,0.0,0.0,2,0,41.32597644219162,-91.30031939088757,9999.999059668133,-79.90246359153974,-0.0023759380889546,-0.0001545296005824,,8987.758710775177,10858.05979093449,150,3,2025-09-09,2025-09-26 18:00:08.423,HH,C,3296610672,HAWK11,1,1,73,2,1,1,225,2,1,0,0,12,1,225,2,1,-150873.73474295562,-4787940.016572799,4201913.136198521,-2.25054,0.200089,-0.319739,97.875,27.25,37.375,0.140625,-4.79688,5.53125,0.142578,-0.0292969,0.03125,4,0,41.44697638553056,-91.8048615345007,10672.62118316134,67.65314713024159,2.5637623716551428,4.142897889730183,163.338,8987.758710775177,10858.05979093449,150,True,23.86470852980535,False,143.81408536985566,172.285116857355,False,43.897066489115716,False,False
3,1970-07-23 09:46:48.095218915,2025-09-09,2025-09-26 18:00:09.521,HH,C,1719951904,JASSM,3,103,76,2,2,1,225,9,2,0,1,26,0,0,0,0,-108998.61394654664,-4797802.632887182,4191702.831511021,2.29982,3.00181,-0.131922,-81.75,11.5,11.0,0.0,0.0,0.0,0.0,0.0,0.0,2,0,41.32612785076485,-91.30144712669112,9999.998709001336,-79.9073052232892,-0.0051748715142858,-0.0001548790621096,,8987.758710775177,10858.05979093449,150,3,2025-09-09,2025-09-26 18:00:09.329,HH,C,3297724138,HAWK11,1,1,73,2,1,1,225,2,1,0,0,12,1,225,2,1,-150781.15075858062,-4787913.313447799,4201946.702604771,-2.10107,0.193761,-0.316096,99.125,27.5,35.625,0.1875,-6.375,7.32812,0.117188,0.0195312,0.0,4,0,41.44737916558723,-91.80376476253916,10672.712026005936,68.0418910015313,2.673898313619683,12.611202038704782,165.22,8987.758710775177,10858.05979093449,150,False,23.77380804321397,False,144.65351301579034,172.17716943789017,False,43.168789712743845,False,False
3,1970-07-23 09:46:48.106238907,2025-09-09,2025-09-26 18:00:10.623,HH,C,1721264246,JASSM,3,103,76,2,2,1,225,9,2,0,1,26,0,0,0,0,-109088.75457154664,-4797789.949293432,4191714.923307896,2.29982,3.00181,-0.131922,-81.75,11.5,11.0,0.0,0.0,0.0,0.0,0.0,0.0,2,0,41.32627276006558,-91.3025264803736,10000.000089225714,-79.9080179691935,-0.0043514664607239,-0.0001555086570957,,8987.758710775177,10858.05979093449,150,3,2025-09-09,2025-09-26 18:00:10.719,HH,C,3299394336,HAWK11,1,1,73,2,1,1,225,2,1,0,0,12,1,225,2,1,-150640.86950858062,-4787875.961885299,4201994.032682896,-2.0238,0.167683,-0.281102,101.375,25.625,32.625,-0.125,-6.35938,7.15625,-0.0117188,0.00585938,0.0332031,4,0,41.44794711638022,-91.80210176235305,10672.83624794461,70.48654725330101,2.3596668345920717,16.706463930960368,165.77,8987.758710775177,10858.05979093449,150,False,23.663972236558998,False,146.80459224865692,172.02755034063387,False,41.16781964278293,False,False
3,1970-07-23 09:46:48.117271104,2025-09-09,2025-09-26 18:00:11.727,HH,C,1722576608,JASSM,3,103,76,2,2,1,225,9,2,0,1,26,0,0,0,0,-109178.89714967164,-4797777.263746557,4191727.0141282086,2.29982,3.00181,-0.131922,-81.75,11.5,11.0,0.0,0.0,0.0,0.0,0.0,0.0,2,0,41.326417663981424,-91.3036058626812,9999.998982036524,-79.90873073605923,-0.0035280429695566,-0.0001561397428353,,8987.758710775177,10858.05979093449,150,3,2025-09-09,2025-09-26 18:00:11.719,HH,C,3300666868,HAWK11,1,1,73,2,1,1,225,2,1,0,0,12,1,225,2,1,-150532.34216483062,-4787849.231416549,4202027.104948521,-2.06493,0.152152,-0.26931,103.125,24.0,30.5,0.234375,-6.78125,7.60938,-0.0625,0.0078125,0.0136719,4,0,41.44834968440485,-91.8008143629036,10670.56793502049,71.56529890265232,2.5344684330488696,14.15415660637251,166.637,8987.758710775177,10858.05979093449,150,False,23.567302398647854,False,148.4337464928085,171.91207943029988,False,39.654173983679975,False,False
3,1970-07-23 09:46:48.127403624,2025-09-09,2025-09-26 18:00:12.740,HH,C,1723829736,JASSM,3,103,76,2,2,1,225,9,2,0,1,26,0,0,0,0,-109264.97136842164,-4797765.150465307,4191738.558073521,2.29982,3.00181,-0.131922,-81.75,11.5,11.0,0.0,0.0,0.0,0.0,0.0,0.0,2,0,41.32655601212824,-91.3046365343087,9999.998744087878,-79.90941133889561,-0.0027417837294325,-0.0001567359565449,,8987.758710775177,10858.05979093449,150,3,2025-09-09,2025-09-26 18:00:12.929,HH,C,3302058700,HAWK11,1,1,73,2,1,1,225,2,1,0,0,12,1,225,2,1,-150410.28357108062,-4787821.911104049,4202061.774870396,-2.09465,0.126937,-0.247067,104.875,22.25,28.625,0.015625,-7.0,7.84375,0.0117188,0.00976562,0.0488281,4,0,41.4487690581456,-91.79936540024823,10669.281634625446,73.450947818162,2.710334823535788,12.168678119201983,168.299,8987.758710775177,10858.05979093449,150,False,23.466339754985153,False,149.99090509409777,171.7886087148916,False,38.220480734401164,False,False
3,1970-07-23 09:46:48.138338328,2025-09-09,2025-09-26 18:00:13.833,HH,C,1725141658,JASSM,3,103,76,2,2,1,225,9,2,0,1,26,0,0,0,0,-109355.08464967164,-4797752.467848119,4191750.644011021,2.29982,3.00181,-0.131922,-81.75,11.5,11.0,0.0,0.0,0.0,0.0,0.0,0.0,2,0,41.32670084981007,-91.30571557547982,10000.001093896084,-79.91012388451607,-0.0019186275434241,-0.0001573673553951,,8987.758710775177,10858.05979093449,150,3,2025-09-09,2025-09-26 18:00:13.830,HH,C,3303092632,HAWK11,1,1,73,2,1,1,225,2,1,0,0,12,1,225,2,1,-150318.96911795562,-4787803.547822799,4202086.321745396,-2.07394,0.112843,-0.236041,105.875,20.625,27.5,-0.015625,-6.98438,7.82812,0.0,0.00195312,0.00585938,4,0,41.44906105088381,-91.79828061117875,10670.4070381507,74.44723795417566,2.869250045417801,13.210536184140512,169.155,8987.758710775177,10858.05979093449,150,False,23.37646967949411,False,151.09080147974655,171.69353460076124,False,37.21533369322897,False,False
