Subject_cm,Timestamp,SampleDate_cm,SampleTime_cm,Configuration_cm,Scenario_cm,DisTime_cm,MarkingTxt_cm,Application_cm,EntId_cm,Site_cm,ExerciseId_cm,ForceId_cm,Category_cm,Country_cm,Domain_cm,Kind_cm,Extra_cm,Specific_cm,Subcategory_cm,AltCategory_cm,AltCountry_cm,AltDomain_cm,AltKind_cm,ECEF_X_cm,ECEF_Y_cm,ECEF_Z_cm,OriPhi_cm,OriPsi_cm,OriTheta_cm,LinVelX_cm,LinVelY_cm,LinVelZ_cm,LinAccX_cm,LinAccY_cm,LinAccZ_cm,AngVelX_cm,AngVelY_cm,AngVelZ_cm,DrAlg_cm,Appearance_cm,Latitude_cm,Longitude_cm,Altitude_cm,Heading_cm,Pitch_cm,Roll_cm,CalibratedAirspeed_cm,CM_Altitude_Lead_cm,CM_Altitude_Wing_cm,CM_Airspeed_cm,Subject_ac,SampleDate_ac,SampleTime_ac,Configuration_ac,Scenario_ac,DisTime_ac,MarkingTxt_ac,Application_ac,EntId_ac,Site_ac,ExerciseId_ac,ForceId_ac,Category_ac,Country_ac,Domain_ac,Kind_ac,Extra_ac,Specific_ac,Subcategory_ac,AltCategory_ac,AltCountry_ac,AltDomain_ac,AltKind_ac,ECEF_X_ac,ECEF_Y_ac,ECEF_Z_ac,OriPhi_ac,OriPsi_ac,OriTheta_ac,LinVelX_ac,LinVelY_ac,LinVelZ_ac,LinAccX_ac,LinAccY_ac,LinAccZ_ac,AngVelX_ac,AngVelY_ac,AngVelZ_ac,DrAlg_ac,Appearance_ac,Latitude_ac,Longitude_ac,Altitude_ac,Heading_ac,Pitch_ac,Roll_ac,CalibratedAirspeed_ac,CM_Altitude_Lead_ac,CM_Altitude_Wing_ac,CM_Airspeed_ac,Bank_Angle_Condition,distance_nm,Distance_Condition,angle_between_vel,angle_between_pos,Cone_Condition,angle_between_pos_nose,Nose_Cone_Condition,Intercept_Criteria
3,1970-07-23 10:17:04.326293113,2025-09-11,2025-09-26 20:27:12.629,HA,C,2534624460,JASSM,3,116,76,2,2,1,225,9,2,0,1,26,0,0,0,0,-188261.4573992056,-4786089.000947799,4202200.587370396,-2.30155,-0.153302,0.128183,90.875,-13.875,-11.75,0.0,0.0,0.0,0.0,0.0,0.0,2,0,41.452050806520326,-92.2525759379406,10002.624237658634,99.81628341082067,-0.004233975498518,0.0023909162587722,,8905.102926237949,10943.217344713625,150,3,2025-09-11,2025-09-26 20:27:12.737,HA,C,1617287414,AMBUSH51,1,1,48,2,1,1,225,2,1,0,0,9,1,225,2,1,-144243.76351990676,-4792523.566254889,4196136.997728628,2.29525,2.90582,-0.243079,-110.422,18.8494,22.634,-0.0521706,-7.49294,6.46191,-0.00147826,0.00329046,-0.00404156,4,0,41.3819320891372,-91.72394868280492,8906.759708570842,-71.84055171384233,0.5944322300927499,-1.2234607875635668,195.099,8905.102926237949,10943.217344713625,150,True,24.142087894756205,False,175.74346942996615,179.4009043620028,False,3.902569985944438,True,False
3,1970-07-23 10:17:04.337310683,2025-09-11,2025-09-26 20:27:13.731,HA,C,2535877426,JASSM,3,116,76,2,2,1,225,9,2,0,1,26,0,0,0,0,-188166.0394304556,-4786103.752900924,4202188.144011021,-2.30155,-0.153302,0.128183,90.875,-13.875,-11.75,0.0,0.0,0.0,0.0,0.0,0.0,2,0,41.45190139061596,-92.25142849080284,10002.626109522347,99.8170430117541,-0.0033610687614728,0.0023903187797768,,8905.102926237949,10943.217344713625,150,3,2025-09-11,2025-09-26 20:27:13.802,HA,C,1618559946,AMBUSH51,1,1,48,2,1,1,225,2,1,0,0,9,1,225,2,1,-144360.57953215786,-4792501.341879098,4196159.176764516,2.29379,2.90704,-0.244942,-110.261,20.4826,21.0823,-0.259466,-7.49316,6.63742,-0.00132222,0.00275367,-0.00443063,4,0,41.382193117627466,-91.72535197767152,8908.833749161051,-71.80930351556343,0.7180425844675387,-1.2894726928530644,194.72,8905.102926237949,10943.217344713625,150,True,24.02489714658421,False,176.17643749035216,179.40160369963525,False,3.6246763163923403,True,False
3,1970-07-23 10:17:04.349271923,2025-09-11,2025-09-26 20:27:14.927,HA,C,2537189022,JASSM,3,116,76,2,2,1,225,9,2,0,1,26,0,0,0,0,-188066.15857108065,-4786119.194307174,4202175.114714146,-2.30155,-0.153302,0.128183,90.875,-13.875,-11.75,0.0,0.0,0.0,0.0,0.0,0.0,2,0,41.45174495053915,-92.25022738113938,10002.62344086448,99.81783813444386,-0.0024473305817219,0.0023896701949694,,8905.102926237949,10943.217344713625,150,3,2025-09-11,2025-09-26 20:27:14.970,HA,C,1619951778,AMBUSH51,1,1,48,2,1,1,225,2,1,0,0,9,1,225,2,1,-144489.70743732812,-4792477.237378647,4196183.991489951,2.30287,2.90751,-0.248879,-110.065,20.3944,21.0569,0.0358254,-7.58793,6.42712,0.01092,0.00661525,0.0150874,4,0,41.38248090161629,-91.72690301991253,8912.919042132851,-71.66217191574731,0.8912812375509755,-0.7608220499321755,194.573,8905.102926237949,10943.217344713625,150,True,23.898437136130898,False,176.1825863564016,179.4029445845986,False,3.6256991008298103,True,False
3,1970-07-23 10:17:04.359290711,2025-09-11,2025-09-26 20:27:15.929,HA,C,2538501634,JASSM,3,116,76,2,2,1,225,9,2,0,1,26,0,0,0,0,-187966.1995867056,-4786134.647432174,4202162.075651646,-2.30155,-0.153302,0.128183,90.875,-13.875,-11.75,0.0,0.0,0.0,0.0,0.0,0.0,2,0,41.45158838054813,-92.2490253379366,10002.62614995605,99.8186338726559,-0.0015328786464244,0.0023890259696215,,8905.102926237949,10943.217344713625,150,3,2025-09-11,2025-09-26 20:27:16.037,HA,C,1621224310,AMBUSH51,1,1,48,2,1,1,225,2,1,0,0,9,1,225,2,1,-144606.02021325464,-4792455.83167622,4196206.248105667,2.31276,2.90907,-0.255125,-109.786,20.1659,21.1442,-0.228727,-7.6085,6.80414,0.00583503,0.00811744,0.00643008,4,0,41.38273763931089,-91.7283000316999,8917.154170929642,-71.45893182691918,1.1989010779076863,-0.1675520250472775,194.341,8905.102926237949,10943.217344713625,150,True,23.77907998957806,False,176.1582675227092,179.40401025016652,False,3.64261971325944,True,False
3,1970-07-23 10:17:04.371392277,2025-09-11,2025-09-26 20:27:17.139,HA,C,2539813720,JASSM,3,116,76,2,2,1,225,9,2,0,1,26,0,0,0,0,-187866.2816179556,-4786150.090791549,4202149.040495396,-2.30155,-0.153302,0.128183,90.875,-13.875,-11.75,0.0,0.0,0.0,0.0,0.0,0.0,2,0,41.45143187289305,-92.2478237953462,10002.622643294224,99.81942927699758,-0.0006188049113391,0.002388392246979,,8905.102926237949,10943.217344713625,150,3,2025-09-11,2025-09-26 20:27:17.302,HA,C,1622735442,AMBUSH51,1,1,48,2,1,1,225,2,1,0,0,9,1,225,2,1,-144745.33914880478,-4792430.25995074,4196233.621391567,2.32776,2.90814,-0.25963,-109.405,19.6912,21.8023,0.0325582,-7.73907,6.57962,0.0139223,-0.00234587,0.00792186,4,0,41.38304955645344,-91.72997335553742,8923.953426580805,-71.23513159183832,1.33710951987454,0.6833976765195225,193.657,8905.102926237949,10943.217344713625,150,True,23.64693376632582,False,175.90207753545158,179.40613025397252,False,3.860540905835366,True,False
3,1970-07-23 10:17:04.381410034,2025-09-11,2025-09-26 20:27:18.141,HA,C,2541126074,JASSM,3,116,76,2,2,1,225,9,2,0,1,26,0,0,0,0,-187766.34216483065,-4786165.538057174,4202136.003386021,-2.30145,-0.153206,0.128279,90.875,-13.875,-11.75,0.0,0.0,0.0,0.0,0.0,0.0,2,0,41.45127532127327,-92.2466219999031,10002.627757697528,99.82067899608118,-0.0074278974868937,0.0071767361682805,,8905.102926237949,10943.217344713625,150,3,2025-09-11,2025-09-26 20:27:18.036,HA,C,1623610308,AMBUSH51,1,1,48,2,1,1,225,2,1,0,0,9,1,225,2,1,-144825.49382128072,-4792415.671675546,4196249.550650736,2.33966,2.90683,-0.262138,-109.189,19.7398,21.9611,-0.115802,-7.4024,6.73052,0.017994,-0.00410813,-0.000766699,4,0,41.38322948314456,-91.73093603466464,8928.566659485137,-71.08075398142402,1.3817945133772764,1.3492908251027365,193.461,8905.102926237949,10943.217344713625,150,True,23.54762391350345,False,175.79413772566403,179.40691795328118,False,3.975178336061455,True,False
3,1970-07-23 10:17:04.392251239,2025-09-11,2025-09-26 20:27:19.225,HA,C,2542438424,JASSM,3,116,76,2,2,1,225,9,2,0,1,26,0,0,0,0,-187666.4027117056,-4786180.983369674,4202122.962370396,-2.30145,-0.153206,0.128279,90.875,-13.875,-11.75,0.0,0.0,0.0,0.0,0.0,0.0,2,0,41.45111874237238,-92.24542021115504,10002.624927164305,99.8214745585194,-0.0065136254981549,0.0071760970841856,,8905.102926237949,10943.217344713625,150,3,2025-09-11,2025-09-26 20:27:19.202,HA,C,1625002138,AMBUSH51,1,1,48,2,1,1,225,2,1,0,0,9,1,225,2,1,-144951.56304984007,-4792392.629378491,4196275.328072237,2.35591,2.90582,-0.268056,-108.665,19.7474,22.4982,-0.196253,-7.57959,6.59554,0.0126698,0.00286602,0.00487795,4,0,41.38351792528133,-91.7324502050376,8937.158943054634,-70.7949570882359,1.5722559427190776,2.2727080048697417,192.887,8905.102926237949,10943.217344713625,150,True,23.422759870617806,False,175.4786539454507,179.40941985834564,False,4.291679234714962,True,False
3,1970-07-23 10:17:04.403689953,2025-09-11,2025-09-26 20:27:20.368,HA,C,2543750776,JASSM,3,116,76,2,2,1,225,9,2,0,1,26,0,0,0,0,-187566.46325858065,-4786196.426729049,4202109.921354771,-2.30145,-0.153206,0.128279,90.875,-13.875,-11.75,0.0,0.0,0.0,0.0,0.0,0.0,2,0,41.45096216253959,-92.24421842910152,10002.62263549348,99.82227011405294,-0.0055993561435817,0.0071754692915473,,8905.102926237949,10943.217344713625,150,3,2025-09-11,2025-09-26 20:27:20.369,HA,C,1626393970,AMBUSH51,1,1,48,2,1,1,225,2,1,0,0,9,1,225,2,1,-145078.88758340338,-4792368.894882533,4196302.395961595,2.3793,2.89979,-0.275343,-108.086,19.8935,23.3715,-0.163934,-7.46291,6.70971,0.00872706,0.0021607,-0.00108087,4,0,41.38381895223372,-91.73397963206584,8946.94933634486,-70.26321199664072,1.6124239208186022,3.53502946390034,192.422,8905.102926237949,10943.217344713625,150,True,23.297090312696927,False,174.97392730740583,179.41226605260658,False,4.8006525957949115,True,False
3,1970-07-23 10:17:04.415290109,2025-09-11,2025-09-26 20:27:21.529,HA,C,2545004240,JASSM,3,116,76,2,2,1,225,9,2,0,1,26,0,0,0,0,-187471.0081804556,-4786211.176729049,4202097.466276646,-2.30145,-0.153206,0.128279,90.875,-13.875,-11.75,0.0,0.0,0.0,0.0,0.0,0.0,2,0,41.45081260448145,-92.24307057769649,10002.626127314645,99.82302996627404,-0.0047261123097751,0.0071748771077913,,8905.102926237949,10943.217344713625,150,3,2025-09-11,2025-09-26 20:27:21.469,HA,C,1627706270,AMBUSH51,1,1,48,2,1,1,225,2,1,0,0,9,1,225,2,1,-145196.29745058934,-4792346.700634176,4196328.022656914,2.39116,2.89446,-0.278937,-107.518,20.2437,24.0025,-0.112177,-7.48805,6.62756,0.00382933,-0.00218566,0.00127436,4,0,41.38410285272818,-91.73539008643029,8956.673404065828,-69.9132071923494,1.5379185451251836,4.141054537566061,191.811,8905.102926237949,10943.217344713625,150,True,23.17932828961668,False,174.5484804148344,179.4148917007883,False,5.246608204864328,True,False
3,1970-07-23 10:17:04.424889924,2025-09-11,2025-09-26 20:27:22.488,HA,C,2546315826,JASSM,3,116,76,2,2,1,225,9,2,0,1,26,0,0,0,0,-187371.12732108065,-4786226.610322799,4202084.429167271,-2.30145,-0.153206,0.128279,90.875,-13.875,-11.75,0.0,0.0,0.0,0.0,0.0,0.0,2,0,41.45065607092376,-92.24186951186424,10002.624396206533,99.82382504285589,-0.0038123756005688,0.0071742288636315,,8905.102926237949,10943.217344713625,150,3,2025-09-11,2025-09-26 20:27:22.669,HA,C,1629137868,AMBUSH51,1,1,48,2,1,1,225,2,1,0,0,9,1,225,2,1,-145325.2482905737,-4792321.5974961,4196357.060004538,2.39194,2.88414,-0.287116,-106.889,20.9378,24.5018,-0.0721739,-7.35938,6.54515,-0.0181875,-0.000408837,0.00652787,4,0,41.38442498575239,-91.73693945950995,8967.5066774181,-69.1840310442648,1.442533948968543,4.03954528386742,191.188,8905.102926237949,10943.217344713625,150,True,23.052590785600984,False,174.1105916344844,179.41757479385078,False,5.725436283612499,True,False
3,1970-07-23 10:17:04.435388092,2025-09-11,2025-09-26 20:27:23.538,HA,C,2547568626,JASSM,3,116,76,2,2,1,225,9,2,0,1,26,0,0,0,0,-187275.7230242056,-4786241.350557174,4202071.977995396,-2.30145,-0.153206,0.128279,90.875,-13.875,-11.75,0.0,0.0,0.0,0.0,0.0,0.0,2,0,41.45050656207654,-92.24072228278828,10002.62722320452,99.82458447849751,-0.0029395957604792,0.0071736299683901,,8905.102926237949,10943.217344713625,150,3,2025-09-11,2025-09-26 20:27:23.402,HA,C,1630012734,AMBUSH51,1,1,48,2,1,1,225,2,1,0,0,9,1,225,2,1,-145404.05522846925,-4792305.739940822,4196375.392279523,2.38293,2.87784,-0.28875,-106.483,21.3683,24.8297,-0.192184,-7.17277,6.33029,-0.0144695,-0.0105642,0.00930962,4,0,41.38462887240937,-91.7378865361936,8974.134124633789,-68.8798105843959,1.2542297760878942,3.4278765841325045,190.638,8905.102926237949,10943.217344713625,150,True,22.95621316047394,False,173.82139177830499,179.41847205926604,False,6.039103002420907,True,False
3,1970-07-23 10:17:04.446889308,2025-09-11,2025-09-26 20:27:24.688,HA,C,2548821480,JASSM,3,116,76,2,2,1,225,9,2,0,1,26,0,0,0,0,-187180.31482108065,-4786256.088838424,4202059.524870396,-2.30145,-0.153206,0.128279,90.875,-13.875,-11.75,0.0,0.0,0.0,0.0,0.0,0.0,2,0,41.45035704114648,-92.23957501320405,10002.625498271613,99.82534393870128,-0.0020667819812081,0.007173036255222,,8905.102926237949,10943.217344713625,150,3,2025-09-11,2025-09-26 20:27:24.535,HA,C,1631364798,AMBUSH51,1,1,48,2,1,1,225,2,1,0,0,9,1,225,2,1,-145523.67283842212,-4792281.000783255,4196403.447921845,2.36742,2.87087,-0.289564,-106.028,22.0235,25.0633,-0.181378,-7.03283,6.32252,-0.0197792,0.00240205,0.00326133,4,0,41.38494386300569,-91.73932431560078,8983.051254041033,-68.5850373389273,1.0082443354540334,2.431551315516747,189.783,8905.102926237949,10943.217344713625,150,True,22.836948880654017,False,173.51487664857555,179.4196276300707,False,6.387168674116865,True,False
3,1970-07-23 10:17:04.456547806,2025-09-11,2025-09-26 20:27:25.654,HA,C,2550133574,JASSM,3,116,76,2,2,1,225,9,2,0,1,26,0,0,0,0,-187080.3948992056,-4786271.524385299,4202046.481901646,-2.30145,-0.153206,0.128279,90.875,-13.875,-11.75,0.0,0.0,0.0,0.0,0.0,0.0,2,0,41.45020042902008,-92.23837349636864,10002.627606782322,99.8261393066445,-0.0011526925271662,0.0071724062660377,,8905.102926237949,10943.217344713625,150,3,2025-09-11,2025-09-26 20:27:25.702,HA,C,1632756630,AMBUSH51,1,1,48,2,1,1,225,2,1,0,0,9,1,225,2,1,-145647.99115665743,-4792254.503349647,4196432.70182895,2.35156,2.86141,-0.289401,-105.773,22.78,24.9974,0.0128316,-6.94678,6.34325,-0.0205573,-0.00851899,0.0153225,4,0,41.38527653435907,-91.74081889535064,8990.60092596067,-68.23643178457509,0.6246314893971547,1.373066541124863,189.477,8905.102926237949,10943.217344713625,150,True,22.712513989958516,False,173.3326874992483,179.4194236648196,False,6.621112266700499,True,False
3,1970-07-23 10:17:04.467389851,2025-09-11,2025-09-26 20:27:26.738,HA,C,2551386272,JASSM,3,116,76,2,2,1,225,9,2,0,1,26,0,0,0,0,-186984.99841483065,-4786286.258760299,4202034.026823521,-2.30145,-0.15311,0.128279,90.875,-13.875,-11.75,0.0,0.0,0.0,0.0,0.0,0.0,2,0,41.45005089201205,-92.23722637946534,10002.62312633227,99.82326238651306,-0.0043369171647767,0.0064692186550357,,8905.102926237949,10943.217344713625,150,3,2025-09-11,2025-09-26 20:27:26.935,HA,C,1634227996,AMBUSH51,1,1,48,2,1,1,225,2,1,0,0,9,1,225,2,1,-145777.5370433749,-4792225.965399699,4196463.470931205,2.35121,2.85586,-0.290911,-105.585,23.1393,25.2597,-0.246538,-7.19711,6.41972,-0.000795827,0.000970597,0.0142906,4,0,41.385630607700406,-91.74237667362172,8996.816611436558,-67.9653620037358,0.464089892037185,1.2649008653916958,189.16,8905.102926237949,10943.217344713625,150,True,22.587542080338103,False,173.10396621037503,179.4177745088942,False,6.879524527892722,True,False
3,1970-07-23 10:17:04.478868822,2025-09-11,2025-09-26 20:27:27.886,HA,C,2552638972,JASSM,3,116,76,2,2,1,225,9,2,0,1,26,0,0,0,0,-186889.59997733065,-4786300.993135299,4202021.571745396,-2.30145,-0.15311,0.128279,90.875,-13.875,-11.75,0.0,0.0,0.0,0.0,0.0,0.0,2,0,41.44990134401586,-92.23607924448544,10002.623322209458,99.82402175079308,-0.0034641922412264,0.0064685619488093,,8905.102926237949,10943.217344713625,150,3,2025-09-11,2025-09-26 20:27:27.802,HA,C,1635261928,AMBUSH51,1,1,48,2,1,1,225,2,1,0,0,9,1,225,2,1,-145868.79774307087,-4792205.468254506,4196485.359294054,2.35417,2.85194,-0.293084,-105.423,23.3462,25.5078,-0.204078,-7.09822,6.37975,-0.00746413,0.00301166,0.00234795,4,0,41.385883801099176,-91.74347422830256,9000.69490612855,-67.72762289512944,0.3944128120508687,1.3712129226141272,188.964,8905.102926237949,10943.217344713625,150,True,22.48399912365392,False,172.92193080713315,179.4153636939547,False,7.079914027102147,True,False
3,1970-07-23 10:17:04.488332289,2025-09-11,2025-09-26 20:27:28.833,HA,C,2553891672,JASSM,3,116,76,2,2,1,225,9,2,0,1,26,0,0,0,0,-186794.2034929556,-4786315.727510299,4202009.116667271,-2.30145,-0.15311,0.128375,90.875,-13.875,-11.75,0.0,0.0,0.0,0.0,0.0,0.0,2,0,41.449751784123485,-92.23493213811956,10002.628569298731,99.82887165879082,-0.0062578588740843,0.0064675858716891,,8905.102926237949,10943.217344713625,150,3,2025-09-11,2025-09-26 20:27:28.701,HA,C,1636335626,AMBUSH51,1,1,48,2,1,1,225,2,1,0,0,9,1,225,2,1,-145963.9518714777,-4792183.820455467,4196508.267608782,2.36322,2.84933,-0.296947,-105.161,23.917,25.4462,0.0171134,-7.2102,6.33863,0.0115442,0.000795827,0.00128061,4,0,41.3861500094299,-91.74461871676137,9004.251005735316,-67.46960697625782,0.4443173314839486,1.8485218957596772,189.037,8905.102926237949,10943.217344713625,150,True,22.378245812706528,False,172.75995451568417,179.41213328586022,False,7.281408485291635,True,False
3,1970-07-23 10:17:04.499335283,2025-09-11,2025-09-26 20:27:29.933,HA,C,2555204022,JASSM,3,116,76,2,2,1,225,9,2,0,1,26,0,0,0,0,-186694.26403983065,-4786331.161104049,4201996.065886021,-2.30145,-0.15311,0.128375,90.875,-13.875,-11.75,0.0,0.0,0.0,0.0,0.0,0.0,2,0,41.44959508695264,-92.23373041108584,10002.62765844506,99.82966715640922,-0.0053435913467597,0.0064669566987473,,8905.102926237949,10943.217344713625,150,3,2025-09-11,2025-09-26 20:27:29.968,HA,C,1637846758,AMBUSH51,1,1,48,2,1,1,225,2,1,0,0,9,1,225,2,1,-146096.06155784143,-4792153.094817829,4196540.436522682,2.37272,2.8449,-0.298492,-104.872,24.5522,25.6976,-0.0687025,-6.94521,6.20615,-0.0121226,0.00326549,0.0122932,4,0,41.38652602954578,-91.74620795576166,9008.336040967864,-67.2392578056382,0.3308848790043406,2.3203704263258325,188.842,8905.102926237949,10943.217344713625,150,True,22.249172287216073,False,172.43841796707827,179.4066876035919,False,7.643889014305389,True,False
3,1970-07-23 10:17:04.510970763,2025-09-11,2025-09-26 20:27:31.097,HA,C,2556516350,JASSM,3,116,76,2,2,1,225,9,2,0,1,26,0,0,0,0,-186594.32653983065,-4786346.592744674,4201983.015104771,-2.30145,-0.15311,0.128375,90.875,-13.875,-11.75,0.0,0.0,0.0,0.0,0.0,0.0,2,0,41.449438388397766,-92.23252871409062,10002.62747335997,99.8304626316692,-0.0044293436153308,0.0064663353832016,,8905.102926237949,10943.217344713625,150,3,2025-09-11,2025-09-26 20:27:31.235,HA,C,1639357890,AMBUSH51,1,1,48,2,1,1,225,2,1,0,0,9,1,225,2,1,-146228.22126301468,-4792121.559145431,4196572.957374201,2.36408,2.84089,-0.303787,-104.511,24.938,26.02,0.012781,-7.23744,6.40542,-0.00371074,-0.00259554,0.0159322,4,0,41.38690921266572,-91.74779810518947,9011.205232080649,-66.86927931719043,0.3827929050900938,1.7591872009953429,188.769,8905.102926237949,10943.217344713625,150,True,22.119990870676393,False,172.1411153228475,179.39932822158397,False,7.973119549243478,True,False
3,1970-07-23 10:17:04.520291764,2025-09-11,2025-09-26 20:27:32.029,HA,C,2557769072,JASSM,3,116,76,2,2,1,225,9,2,0,1,26,0,0,0,0,-186498.92810233065,-4786361.321260299,4201970.556120396,-2.30145,-0.15311,0.128375,90.875,-13.875,-11.75,0.0,0.0,0.0,0.0,0.0,0.0,2,0,41.44928880207395,-92.23138160342202,10002.62470621657,99.83122197066038,-0.003556622028064,0.0064657488603007,,8905.102926237949,10943.217344713625,150,3,2025-09-11,2025-09-26 20:27:32.036,HA,C,1640312290,AMBUSH51,1,1,48,2,1,1,225,2,1,0,0,9,1,225,2,1,-146312.04363312566,-4792101.25920001,4196593.722066317,2.3641,2.84285,-0.304323,-104.265,25.4668,25.9172,0.00692627,-7.16018,6.29092,1.56045e-05,0.00211701,0.00628652,4,0,41.38715494427339,-91.74880677668152,9012.59602110003,-66.92147343093562,0.4820327507376403,1.7935381980427516,188.573,8905.102926237949,10943.217344713625,150,True,22.020472267421766,False,171.9892751379605,179.39320540190857,False,8.161527771739202,True,False
3,1970-07-23 10:17:04.531268432,2025-09-11,2025-09-26 20:27:33.126,HA,C,2559081424,JASSM,3,116,76,2,2,1,225,9,2,0,1,26,0,0,0,0,-186398.98669608065,-4786376.750947799,4201957.501432896,-2.30145,-0.15311,0.128375,90.875,-13.875,-11.75,0.0,0.0,0.0,0.0,0.0,0.0,2,0,41.44913206515812,-92.23017987195158,10002.62129756056,99.8320174639072,-0.0026423380785283,0.0064651196954372,,8905.102926237949,10943.217344713625,150,3,2025-09-11,2025-09-26 20:27:33.068,HA,C,1641545054,AMBUSH51,1,1,48,2,1,1,225,2,1,0,0,9,1,225,2,1,-146418.6354020786,-4792074.779396235,4196620.522701075,2.36658,2.84121,-0.306841,-103.976,25.7675,26.2722,-0.181546,-7.38788,6.58572,-0.0117647,0.000535753,0.0120539,4,0,41.387474042293285,-91.75008969608564,9013.590607407032,-66.75617572560326,0.5178835394163657,1.9087625914169644,188.769,8905.102926237949,10943.217344713625,150,True,21.905564137895595,False,171.71226307545396,179.38437454665527,False,8.463075216087894,True,False
3,1970-07-23 10:17:04.542388770,2025-09-11,2025-09-26 20:27:34.238,HA,C,2560334610,JASSM,3,116,76,2,2,1,225,9,2,0,1,26,0,0,0,0,-186303.55310233065,-4786391.485322799,4201945.036589146,-2.30145,-0.15311,0.128375,90.875,-13.875,-11.75,0.0,0.0,0.0,0.0,0.0,0.0,2,0,41.44898238914661,-92.22903234914554,10002.626800189111,99.83277707109896,-0.0017692927814912,0.006464521933073,,8905.102926237949,10943.217344713625,150,3,2025-09-11,2025-09-26 20:27:34.368,HA,C,1643095954,AMBUSH51,1,1,48,2,1,1,225,2,1,0,0,9,1,225,2,1,-146554.1117110049,-4792040.921552016,4196654.877620913,2.36014,2.84354,-0.307855,-103.699,25.8212,26.8763,-0.197269,-7.42989,6.8835,-0.0053773,0.00543555,0.00424753,4,0,41.38788276406356,-91.75172035652378,9014.998946424792,-66.80324254997562,0.6515232350604588,1.580132823152423,188.964,8905.102926237949,10943.217344713625,150,True,21.776810452378335,False,171.40990509981,179.3722707724228,False,8.78453043822175,True,False
3,1970-07-23 10:17:04.553387526,2025-09-11,2025-09-26 20:27:35.338,HA,C,2561646652,JASSM,3,116,76,2,2,1,225,9,2,0,1,26,0,0,0,0,-186203.6370867056,-4786406.909150924,4201931.983854771,-2.30145,-0.153015,0.128375,90.875,-13.875,-11.75,0.0,0.0,0.0,0.0,0.0,0.0,2,0,41.44882566985717,-92.22783093518905,10002.62609787165,99.82993616980262,-0.0049121692965269,0.0057608263100785,,8905.102926237949,10943.217344713625,150,3,2025-09-11,2025-09-26 20:27:35.336,HA,C,1644249186,AMBUSH51,1,1,48,2,1,1,225,2,1,0,0,9,1,225,2,1,-146653.3171570776,-4792016.060946346,4196680.606299508,2.3587,2.84867,-0.313374,-103.38,25.5271,27.4548,-0.191664,-7.93439,7.05982,0.00458667,0.000121715,-0.00296589,4,0,41.38818630525178,-91.75291448024196,9017.110749127756,-66.7678548461753,1.072984777024094,1.5879619868546653,188.879,8905.102926237949,10943.217344713625,150,True,21.666017984595936,False,171.20259060949783,179.3621246736126,False,8.995211061810934,True,False
3,1970-07-23 10:17:04.565267733,2025-09-11,2025-09-26 20:27:36.526,HA,C,2562958824,JASSM,3,116,76,2,2,1,225,9,2,0,1,26,0,0,0,0,-186103.7113054556,-4786422.332979049,4201918.929167271,-2.30145,-0.153015,0.128375,90.875,-13.875,-11.75,0.0,0.0,0.0,0.0,0.0,0.0,2,0,41.44866892710207,-92.2266294102926,10002.625556268444,99.83073151904574,-0.0039980305924723,0.0057601455349417,,8905.102926237949,10943.217344713625,150,3,2025-09-11,2025-09-26 20:27:36.501,HA,C,1645641018,AMBUSH51,1,1,48,2,1,1,225,2,1,0,0,9,1,225,2,1,-146774.171215943,-4791985.788797278,4196712.955675725,2.38004,2.84191,-0.314983,-102.886,25.7139,27.912,-0.135863,-7.43079,6.57432,0.0193901,-0.00105174,0.00127436,4,0,41.38856278188615,-91.7543691953714,9021.906998449278,-66.44791720844775,0.871015259842604,2.696490863620157,188.487,8905.102926237949,10943.217344713625,150,True,21.54293682295815,False,170.87734768318262,179.34945103766046,False,9.34717002077574,True,False
3,1970-07-23 10:17:04.574351220,2025-09-11,2025-09-26 20:27:37.435,HA,C,2564211522,JASSM,3,116,76,2,2,1,225,9,2,0,1,26,0,0,0,0,-186008.3128679556,-4786437.057588424,4201906.464323521,-2.30145,-0.153015,0.128375,90.875,-13.875,-11.75,0.0,0.0,0.0,0.0,0.0,0.0,2,0,41.448519265663805,-92.22548232854903,10002.625479220442,99.83149082734256,-0.0031253074911538,0.0057594871354473,,8905.102926237949,10943.217344713625,150,3,2025-09-11,2025-09-26 20:27:37.568,HA,C,1646913550,AMBUSH51,1,1,48,2,1,1,225,2,1,0,0,9,1,225,2,1,-146883.00560148433,-4791958.3268516045,4196742.461721852,2.39687,2.83381,-0.321758,-102.608,25.9899,28.41,0.0409843,-7.31641,6.6292,0.000410917,0.000179971,0.00890183,4,0,41.38890551795348,-91.75567931743068,9026.551418292112,-65.86379828378004,0.8222852567139999,3.524441129623363,188.377,8905.102926237949,10943.217344713625,150,True,21.429093511963355,False,170.54869305030851,179.33666997067104,False,9.70198266630694,True,False
3,1970-07-23 10:17:04.585310789,2025-09-11,2025-09-26 20:27:38.531,HA,C,2565464222,JASSM,3,116,76,2,2,1,225,9,2,0,1,26,0,0,0,0,-185912.91638358065,-4786451.780244674,4201893.999479771,-2.30145,-0.153015,0.128471,90.875,-13.875,-11.75,0.0,0.0,0.0,0.0,0.0,0.0,2,0,41.44836960395912,-92.22433527632934,10002.625653042884,99.83634072412366,-0.0059189279790161,0.0057585448971487,,8905.102926237949,10943.217344713625,150,3,2025-09-11,2025-09-26 20:27:38.701,HA,C,1648265614,AMBUSH51,1,1,48,2,1,1,225,2,1,0,0,9,1,225,2,1,-146999.71838491264,-4791928.116044767,4196775.212978622,2.41192,2.82252,-0.327797,-102.311,26.4759,29.2109,-0.130723,-7.26132,6.74751,0.00557079,0.000741732,0.0182541,4,0,41.38928506360402,-91.75708457122398,9032.073970121846,-65.19019339740495,0.621565968688458,4.188620131829593,188.133,8905.102926237949,10943.217344713625,150,True,21.310670127775794,False,170.0359460104892,179.321144391489,False,10.245000825003517,True,False
3,1970-07-23 10:17:04.596286604,2025-09-11,2025-09-26 20:27:39.628,HA,C,2566776572,JASSM,3,116,76,2,2,1,225,9,2,0,1,26,0,0,0,0,-185812.97497733065,-4786467.202119674,4201880.940886021,-2.30145,-0.153015,0.128471,90.875,-13.875,-11.75,0.0,0.0,0.0,0.0,0.0,0.0,2,0,41.4482128135696,-92.22313358241423,10002.625863931844,99.83713617808316,-0.0050046500025432,0.0057579420969289,,8905.102926237949,10943.217344713625,150,3,2025-09-11,2025-09-26 20:27:39.770,HA,C,1649538146,AMBUSH51,1,1,48,2,1,1,225,2,1,0,0,9,1,225,2,1,-147108.08927474482,-4791899.30023515,4196806.519585511,2.41701,2.81221,-0.33513,-102.108,27.0826,29.9819,-0.274872,-7.28373,6.93812,0.00221687,0.000363064,0.0213916,4,0,41.389648063318944,-91.75838968058812,9037.272732999989,-64.50055245864306,0.5138228467114,4.295275026244217,188.023,8905.102926237949,10943.217344713625,150,True,21.194367260018034,False,169.52170692166158,179.3044093278154,False,10.792922248839059,True,False
3,1970-07-23 10:17:04.607267010,2025-09-11,2025-09-26 20:27:40.726,HA,C,2568029472,JASSM,3,116,76,2,2,1,225,9,2,0,1,26,0,0,0,0,-185717.5628679556,-4786481.924775924,4201868.472136021,-2.30145,-0.153015,0.128471,90.875,-13.875,-11.75,0.0,0.0,0.0,0.0,0.0,0.0,2,0,41.44806310569702,-92.22198635423597,10002.626023738614,99.83789557647218,-0.0041318047965416,0.0057573552876107,,8905.102926237949,10943.217344713625,150,3,2025-09-11,2025-09-26 20:27:40.901,HA,C,1650890212,AMBUSH51,1,1,48,2,1,1,225,2,1,0,0,9,1,225,2,1,-147224.3369825644,-4791867.917041532,4196840.881761452,2.41793,2.80139,-0.340508,-101.892,27.6595,30.7567,-0.296425,-7.30092,6.83527,-0.0261083,-0.0032967,0.000585687,4,0,41.39004551080189,-91.75978983937487,9043.385751488608,-63.87243548775501,0.3113313485393739,4.147188487638792,188.341,8905.102926237949,10943.217344713625,150,True,21.075997145485807,False,169.01279145926935,179.2847489354301,False,11.338519082418276,True,False
3,1970-07-23 10:17:04.617286870,2025-09-11,2025-09-26 20:27:41.728,HA,C,2569341622,JASSM,3,116,76,2,2,1,225,9,2,0,1,26,0,0,0,0,-185617.63903983065,-4786497.342744674,4201855.411589146,-2.30145,-0.153015,0.128471,90.875,-13.875,-11.75,0.0,0.0,0.0,0.0,0.0,0.0,2,0,41.44790629678317,-92.220784883543,10002.624503433906,99.83869087783604,-0.0032176843032139,0.0057567311831425,,8905.102926237949,10943.217344713625,150,3,2025-09-11,2025-09-26 20:27:41.668,HA,C,1651804844,AMBUSH51,1,1,48,2,1,1,225,2,1,0,0,9,1,225,2,1,-147302.14295800522,-4791846.357469957,4196864.527642253,2.40769,2.79543,-0.347711,-101.685,27.9483,31.3347,-0.0999719,-7.1642,6.5973,-0.0224153,0.00530032,-0.00151155,4,0,41.39031918287643,-91.76072719499037,9047.52097842794,-63.35318345555839,0.3714884061389945,3.448122601533544,188.219,8905.102926237949,10943.217344713625,150,True,20.97691348688879,False,168.6624491142529,179.2692701832681,False,11.712153838824207,True,False
3,1970-07-23 10:17:04.634469055,2025-09-11,2025-09-26 20:27:43.446,HA,C,2570594420,JASSM,3,116,76,2,2,1,225,9,2,0,1,26,0,0,0,0,-185522.23278983065,-4786512.061494674,4201842.940886021,-2.30145,-0.153015,0.128471,90.875,-13.875,-11.75,0.0,0.0,0.0,0.0,0.0,0.0,2,0,41.44775657420675,-92.21963773800732,10002.621341278946,99.83945021690212,-0.0023448936004806,0.0057561436790284,,8905.102926237949,10943.217344713625,150,3,2025-09-11,2025-09-26 20:27:43.568,HA,C,1654071542,AMBUSH51,1,1,48,2,1,1,225,2,1,0,0,9,1,225,2,1,-147494.10505453506,-4791792.054189599,4196923.814244798,2.3645,2.78387,-0.358231,-101.492,28.8491,31.8138,-0.145467,-7.21922,6.66221,-0.0227211,-0.00426626,-0.000802069,4,0,41.39100736227276,-91.76304026987609,9057.059757087623,-62.48926854383249,0.354394936715812,0.750108148516989,188.5,8905.102926237949,10943.217344713625,150,True,20.81520053156798,False,168.19194128032132,179.22973929496945,False,12.260366565931518,True,False
3,1970-07-23 10:17:04.640866985,2025-09-11,2025-09-26 20:27:44.086,HA,C,2571966316,JASSM,3,116,76,2,2,1,225,9,2,0,1,26,0,0,0,0,-185417.7581804556,-4786528.180635299,4201829.284636021,-2.30145,-0.152919,0.128471,90.875,-13.875,-11.75,0.0,0.0,0.0,0.0,0.0,0.0,2,0,41.44759259780371,-92.21838156175914,10002.626385671112,99.8366456406026,-0.0054460639645677,0.0050519337667682,,8905.102926237949,10943.217344713625,150,3,2025-09-11,2025-09-26 20:27:43.968,HA,C,1654548742,AMBUSH51,1,1,48,2,1,1,225,2,1,0,0,9,1,225,2,1,-147535.37896754735,-4791780.202758374,4196936.684264938,2.35985,2.78336,-0.358711,-101.514,28.8436,31.992,-0.060068,-7.0759,6.63175,-0.00925553,-0.00035058,0.0138994,4,0,41.39115719569695,-91.76353767652486,9058.947801749411,-62.450942333431406,0.3548240730921422,0.4741394330018293,188.536,8905.102926237949,10943.217344713625,150,True,20.73436974310971,False,168.12722869191882,179.21851684670753,False,12.337822232042692,True,False
3,1970-07-23 10:17:04.650332484,2025-09-11,2025-09-26 20:27:45.033,HA,C,2573219024,JASSM,3,116,76,2,2,1,225,9,2,0,1,26,0,0,0,0,-185322.3597429556,-4786542.895479049,4201816.813932896,-2.30145,-0.152919,0.128471,90.875,-13.875,-11.75,0.0,0.0,0.0,0.0,0.0,0.0,2,0,41.447442872706816,-92.21723452246016,10002.624559456872,99.83740490466614,-0.0045733472166856,0.0050512997290357,,8905.102926237949,10943.217344713625,150,3,2025-09-11,2025-09-26 20:27:44.868,HA,C,1655622440,AMBUSH51,1,1,48,2,1,1,225,2,1,0,0,9,1,225,2,1,-147626.55450733227,-4791753.825497946,4196965.340877779,2.35454,2.7879,-0.3588,-101.516,29.0382,32.1779,-0.163923,-7.28152,6.8086,-0.00630316,0.00608886,0.000654347,4,0,41.39149087509926,-91.76463654576963,9063.128369989186,-62.6190077470185,0.5321438395330964,0.2598885296392776,188.781,8905.102926237949,10943.217344713625,150,True,20.630032208451645,False,168.0017447340833,179.19578266175753,False,12.49797138075806,True,False
3,1970-07-23 10:17:04.661345324,2025-09-11,2025-09-26 20:27:46.134,HA,C,2574531374,JASSM,3,116,76,2,2,1,225,9,2,0,1,26,0,0,0,0,-185222.42028983065,-4786558.311494674,4201803.747526646,-2.30145,-0.152919,0.128471,90.875,-13.875,-11.75,0.0,0.0,0.0,0.0,0.0,0.0,2,0,41.4472859898496,-92.2160328888051,10002.625134212472,99.8382003041594,-0.0036590852573566,0.0050506172825546,,8905.102926237949,10943.217344713625,150,3,2025-09-11,2025-09-26 20:27:46.301,HA,C,1657332404,AMBUSH51,1,1,48,2,1,1,225,2,1,0,0,9,1,225,2,1,-147772.10101818538,-4791711.317929325,4197011.359133724,2.36628,2.78491,-0.358651,-101.601,29.4932,32.4479,-0.208474,-7.20922,6.69428,0.00277863,-0.00524622,0.0139493,4,0,41.39202774139903,-91.76639087685264,9069.418394270906,-62.5136399120446,0.4136627483105811,0.8734168059651127,188.903,8905.102926237949,10943.217344713625,150,True,20.492147126855276,False,167.78996726878148,179.1581685884343,False,12.76885517600666,True,False
3,1970-07-23 10:17:04.671332288,2025-09-11,2025-09-26 20:27:47.133,HA,C,2575784666,JASSM,3,116,76,2,2,1,225,9,2,0,1,26,0,0,0,0,-185126.9769304556,-4786573.032197799,4201791.269011021,-2.30145,-0.152919,0.128471,90.875,-13.875,-11.75,0.0,0.0,0.0,0.0,0.0,0.0,2,0,41.44713616408909,-92.21488532068194,10002.626430095324,99.83895991364628,-0.0027859567290287,0.0050499761710737,,8905.102926237949,10943.217344713625,150,3,2025-09-11,2025-09-26 20:27:47.068,HA,C,1658247038,AMBUSH51,1,1,48,2,1,1,225,2,1,0,0,9,1,225,2,1,-147849.99860611997,-4791688.440269312,4197036.133945681,2.36952,2.7864,-0.363967,-101.617,29.4682,32.8193,-0.162278,-7.42968,6.98374,-0.00562073,0.00876659,0.00120362,4,0,41.39231680464178,-91.7673298663957,9072.792640700134,-62.35401708158575,0.6855311526236979,1.0906893112704872,188.817,8905.102926237949,10943.217344713625,150,True,20.395331042263468,False,167.6542425560229,179.13582032304984,False,12.92837620129182,True,False
3,1970-07-23 10:17:04.682332031,2025-09-11,2025-09-26 20:27:48.233,HA,C,2577097188,JASSM,3,116,76,2,2,1,225,9,2,0,1,26,0,0,0,0,-185027.0238054556,-4786588.446260299,4201778.198698521,-2.30145,-0.152919,0.128567,90.875,-13.875,-11.75,0.0,0.0,0.0,0.0,0.0,0.0,2,0,41.44697924510748,-92.2136835358398,10002.622859154517,99.84384606405436,-0.0055378458615917,0.005049038539498,,8905.102926237949,10943.217344713625,150,3,2025-09-11,2025-09-26 20:27:48.135,HA,C,1659519570,AMBUSH51,1,1,48,2,1,1,225,2,1,0,0,9,1,225,2,1,-147957.52162768028,-4791656.722691467,4197070.662416718,2.36361,2.78181,-0.360614,-101.567,29.853,32.9108,-0.00193745,-6.65979,6.18637,-0.00146162,-0.00200673,0.00288058,4,0,41.39271885596868,-91.76862603002334,9077.83276049697,-62.31820770727418,0.3765454216729181,0.6591803409038706,188.426,8905.102926237949,10943.217344713625,150,True,20.279103425262576,False,167.50488277168282,179.10442594077958,False,13.126412385058703,True,False
3,1970-07-23 10:17:04.694332342,2025-09-11,2025-09-26 20:27:49.433,HA,C,2578468612,JASSM,3,116,76,2,2,1,225,9,2,0,1,26,0,0,0,0,-184922.58435233065,-4786604.551729049,4201764.542448521,-2.30145,-0.152919,0.128567,90.875,-13.875,-11.75,0.0,0.0,0.0,0.0,0.0,0.0,2,0,41.446815276967634,-92.2124278160931,10002.625294220908,99.84467725717964,-0.0045824217046809,0.005048410680052,,8905.102926237949,10943.217344713625,150,3,2025-09-11,2025-09-26 20:27:49.535,HA,C,1661189768,AMBUSH51,1,1,48,2,1,1,225,2,1,0,0,9,1,225,2,1,-148100.3963248763,-4791613.5545750735,4197116.592642067,2.3608,2.77997,-0.36542,-101.518,30.4861,32.9039,-0.155283,-7.01448,6.52935,-0.00644256,0.00466781,0.00578301,4,0,41.39325948653034,-91.77034875065767,9082.13301009273,-62.05436410582999,0.5018764440345331,0.4629714239716844,188.5,8905.102926237949,10943.217344713625,150,True,20.140160923391324,False,167.32373346875698,179.06008760212066,False,13.37746962234504,True,False
3,1970-07-23 10:17:04.705346422,2025-09-11,2025-09-26 20:27:50.534,HA,C,2579840430,JASSM,3,116,76,2,2,1,225,9,2,0,1,26,0,0,0,0,-184818.11560233065,-4786620.661104049,4201750.878386021,-2.30145,-0.152919,0.128567,90.875,-13.875,-11.75,0.0,0.0,0.0,0.0,0.0,0.0,2,0,41.44665122589589,-92.21117175070634,10002.62341197759,99.84550867638902,-0.0036267257478257,0.0050477596781853,,8905.102926237949,10943.217344713625,150,3,2025-09-11,2025-09-26 20:27:50.468,HA,C,1662303234,AMBUSH51,1,1,48,2,1,1,225,2,1,0,0,9,1,225,2,1,-148194.64792099094,-4791584.730124673,4197146.771297441,2.35964,2.77842,-0.366985,-101.512,30.8061,32.8776,-0.127779,-6.92348,6.47363,0.000294404,0.00455338,0.000252792,4,0,41.393617367077695,-91.77148533875544,9083.86064194332,-61.93312400738672,0.5072399376281778,0.3658802089240954,188.622,8905.102926237949,10943.217344713625,150,True,20.028989290266537,False,167.24280458664296,179.0282333675612,False,13.504149287734402,True,False
3,1970-07-23 10:17:04.717332461,2025-09-11,2025-09-26 20:27:51.733,HA,C,2581153624,JASSM,3,116,76,2,2,1,225,9,2,0,1,26,0,0,0,0,-184718.1097429556,-4786636.081025924,4201737.800261021,-2.30145,-0.152919,0.128567,90.875,-13.875,-11.75,0.0,0.0,0.0,0.0,0.0,0.0,2,0,41.4464941926412,-92.20996935077096,10002.6287718339,99.84630457063768,-0.0027118612310319,0.0050471584626516,,8905.102926237949,10943.217344713625,150,3,2025-09-11,2025-09-26 20:27:51.736,HA,C,1663814364,AMBUSH51,1,1,48,2,1,1,225,2,1,0,0,9,1,225,2,1,-148323.46351413414,-4791544.778003999,4197188.117766925,2.33281,2.77403,-0.370511,-101.594,31.1908,32.8736,-0.0895554,-6.95766,6.38788,-0.0739683,-0.00739964,0.0116087,4,0,41.394110465377416,-91.7730389629586,9085.078461392824,-61.62555348539994,0.4848767313631706,-1.258960357099589,189.135,8905.102926237949,10943.217344713625,150,True,19.900471801506455,False,167.15201942197191,178.98372482032678,False,13.655990316922718,True,False
3,1970-07-23 10:17:04.727389310,2025-09-11,2025-09-26 20:27:52.738,HA,C,2582465134,JASSM,3,116,76,2,2,1,225,9,2,0,1,26,0,0,0,0,-184618.2347429556,-4786651.477510299,4201724.735807896,-2.30145,-0.152823,0.128567,90.875,-13.875,-11.75,0.0,0.0,0.0,0.0,0.0,0.0,2,0,41.4463373485145,-92.20876853148738,10002.623974520277,99.84346342707272,-0.005855110918503,0.0043425005249241,,8905.102926237949,10943.217344713625,150,3,2025-09-11,2025-09-26 20:27:52.768,HA,C,1665047130,AMBUSH51,1,1,48,2,1,1,225,2,1,0,0,9,1,225,2,1,-148427.21256614546,-4791512.555970364,4197221.231846701,2.23639,2.77444,-0.371661,-101.851,31.1927,32.3908,-0.0142548,-7.29319,6.61286,-0.107743,0.000546156,-0.00764098,4,0,41.3945065982344,-91.77429029696252,9085.552784783578,-61.594885418356654,0.5476360092624553,-6.774514983001018,189.563,8905.102926237949,10943.217344713625,150,True,19.786384174698217,False,167.38448699936504,178.94619921280577,False,13.475119287680066,True,False
3,1970-07-23 10:17:04.737405511,2025-09-11,2025-09-26 20:27:53.740,HA,C,2583658182,JASSM,3,116,76,2,2,1,225,9,2,0,1,26,0,0,0,0,-184527.37732108065,-4786665.485322799,4201712.851042271,-2.30145,-0.152823,0.128567,90.875,-13.875,-11.75,0.0,0.0,0.0,0.0,0.0,0.0,2,0,41.446194646854906,-92.20767613689938,10002.628069959486,99.84418650207228,-0.0050239358732329,0.0043418902069833,,8905.102926237949,10943.217344713625,150,3,2025-09-11,2025-09-26 20:27:53.668,HA,C,1666120830,AMBUSH51,1,1,48,2,1,1,225,2,1,0,0,9,1,225,2,1,-148519.83049956424,-4791484.271912057,4197250.246506173,2.14575,2.78853,-0.362876,-102.425,30.6342,31.5631,-0.0851853,-7.24562,6.77957,-0.104135,0.00636558,-0.017218,4,0,41.3948536675079,-91.7754072114634,9085.978939197576,-62.48382669087827,0.7291406913905253,-11.687669815406696,189.758,8905.102926237949,10943.217344713625,150,False,19.68368453826379,False,167.97174101617452,178.91277577849482,False,12.929122725143403,True,False
3,1970-07-23 10:17:04.748269544,2025-09-11,2025-09-26 20:27:54.826,HA,C,2584910878,JASSM,3,116,76,2,2,1,225,9,2,0,1,26,0,0,0,0,-184431.9808367056,-4786680.190400924,4201700.370573521,-2.30145,-0.152823,0.128567,90.875,-13.875,-11.75,0.0,0.0,0.0,0.0,0.0,0.0,2,0,41.446044806791406,-92.20652917469464,10002.626618413153,99.84494569412304,-0.0041512380773247,0.0043412510427719,,8905.102926237949,10943.217344713625,150,3,2025-09-11,2025-09-26 20:27:54.901,HA,C,1667592194,AMBUSH51,1,1,48,2,1,1,225,2,1,0,0,9,1,225,2,1,-148646.1345291944,-4791447.508550677,4197287.615765365,2.01218,2.80942,-0.345259,-103.854,28.9499,29.6564,-0.207815,-7.51336,6.89821,-0.0959248,-0.00189022,-0.0208985,4,0,41.395301355539296,-91.7769297083094,9086.246780789244,-63.99178635789247,0.8255595667396731,-18.945912594891517,189.991,8905.102926237949,10943.217344713625,150,False,19.55954626950675,False,169.45640969550897,178.87071110890875,False,11.490641519805491,True,False
3,1970-07-23 10:17:04.759282943,2025-09-11,2025-09-26 20:27:55.928,HA,C,2586223230,JASSM,3,116,76,2,2,1,225,9,2,0,1,26,0,0,0,0,-184332.0394304556,-4786695.594697799,4201687.294401646,-2.30145,-0.152823,0.128567,90.875,-13.875,-11.75,0.0,0.0,0.0,0.0,0.0,0.0,2,0,41.445887816408245,-92.205327574695,10002.62455930715,99.84574104935444,-0.0032369633831361,0.0043405819861165,,8905.102926237949,10943.217344713625,150,3,2025-09-11,2025-09-26 20:27:55.968,HA,C,1668864726,AMBUSH51,1,1,48,2,1,1,225,2,1,0,0,9,1,225,2,1,-148758.38613346597,-4791417.365834637,4197317.759934181,1.89837,2.83484,-0.319963,-105.595,27.0408,26.732,-0.0919752,-7.61105,6.94616,-0.103617,0.00687324,-0.0331844,4,0,41.39566345549603,-91.77828189307117,9086.062885741894,-65.99168243412464,0.8097083231043216,-25.01952132967837,190.773,8905.102926237949,10943.217344713625,150,False,19.441292525305798,False,171.43451331777962,178.837121801827,False,9.563863862909965,True,False
3,1970-07-23 10:17:04.769330941,2025-09-11,2025-09-26 20:27:56.933,HA,C,2587476540,JASSM,3,116,76,2,2,1,225,9,2,0,1,26,0,0,0,0,-184236.5941179556,-4786710.305635299,4201674.806120396,-2.30145,-0.152823,0.128567,90.875,-13.875,-11.75,0.0,0.0,0.0,0.0,0.0,0.0,2,0,41.44573787652819,-92.20418003700604,10002.625881562197,99.84650061770004,-0.0023638194761403,0.0043399426176871,,8905.102926237949,10943.217344713625,150,3,2025-09-11,2025-09-26 20:27:57.035,HA,C,1670137258,AMBUSH51,1,1,48,2,1,1,225,2,1,0,0,9,1,225,2,1,-148871.06672503188,-4791389.960560029,4197344.271531143,1.79385,2.87357,-0.280213,-107.522,24.4648,23.1102,0.013754,-7.82109,7.3077,-0.0606878,0.0199498,-0.0501871,4,0,41.39598465124047,-91.77963820168164,9084.77236020386,-69.1039104429774,0.781882847414613,-30.39512514432099,191.396,8905.102926237949,10943.217344713625,150,False,19.325708149498166,False,173.88740577705687,178.8090008719304,False,7.161427275138152,True,False
3,1970-07-23 10:17:04.780886222,2025-09-11,2025-09-26 20:27:58.088,HA,C,2588728628,JASSM,3,116,76,2,2,1,225,9,2,0,1,26,0,0,0,0,-184141.24353201807,-4786725.000947799,4201662.329557896,-2.30145,-0.152823,0.128663,90.875,-13.875,-11.75,0.0,0.0,0.0,0.0,0.0,0.0,2,0,41.44558807556924,-92.20303364396077,10002.628078432444,99.85135012724754,-0.0051577651741957,0.0043390679327927,,8905.102926237949,10943.217344713625,150,3,2025-09-11,2025-09-26 20:27:58.168,HA,C,1671489324,AMBUSH51,1,1,48,2,1,1,225,2,1,0,0,9,1,225,2,1,-148994.59519382587,-4791363.88867735,4197368.053880818,1.75585,2.91429,-0.22763,-109.637,21.2831,18.4687,-0.0809731,-7.79876,7.40227,-0.0354856,0.025738,-0.0453642,4,0,41.39627746629676,-91.781123623577,9081.67786019915,-72.84903978653483,0.3865508797666361,-32.02415960256125,191.738,8905.102926237949,10943.217344713625,150,False,19.204705725487486,False,176.89602064576346,178.78658355930918,False,4.2358712366439315,True,False
3,1970-07-23 10:17:04.790882928,2025-09-11,2025-09-26 20:27:59.088,HA,C,2589981326,JASSM,3,116,76,2,2,1,225,9,2,0,1,26,0,0,0,0,-184045.84509451807,-4786739.700166549,4201649.845182896,-2.30145,-0.152823,0.128663,90.875,-13.875,-11.75,0.0,0.0,0.0,0.0,0.0,0.0,2,0,41.44543819817951,-92.20188668247172,10002.623246615884,99.85210930971792,-0.0042850535282994,0.0043385023885198,,8905.102926237949,10943.217344713625,150,3,2025-09-11,2025-09-26 20:27:59.134,HA,C,1672642556,AMBUSH51,1,1,48,2,1,1,225,2,1,0,0,9,1,225,2,1,-149100.47118001714,-4791344.811864825,4197383.619304808,1.73308,2.94628,-0.187628,-111.37,18.4431,14.2331,-0.123266,-7.73336,7.4906,-0.0144591,0.0176611,-0.046442,4,0,41.396476443326605,-91.78239557104138,9076.621180661416,-75.75161382686473,0.1644524587375828,-32.96519440166524,192.826,8905.102926237949,10943.217344713625,150,False,19.09403270262812,False,179.27714706784892,178.77395131137692,False,1.9028883331792776,True,False
3,1970-07-23 10:17:04.801425217,2025-09-11,2025-09-26 20:28:00.142,HA,C,2591234022,JASSM,3,116,76,2,2,1,225,9,2,0,1,26,0,0,0,0,-183950.44665701807,-4786754.401338424,4201637.360807896,-2.30145,-0.152823,0.128663,90.875,-13.875,-11.75,0.0,0.0,0.0,0.0,0.0,0.0,2,0,41.44528829772496,-92.20073972536424,10002.62807828578,99.8528684870311,-0.0034123392074551,0.0043379254610286,,8905.102926237949,10943.217344713625,150,3,2025-09-11,2025-09-26 20:28:00.234,HA,C,1673954854,AMBUSH51,1,1,48,2,1,1,225,2,1,0,0,9,1,225,2,1,-149223.467698157,-4791326.516251732,4197396.361249605,1.71979,2.98762,-0.133783,-113.048,14.909,9.21334,0.0128482,-7.90307,7.50355,0.00521085,0.0236782,-0.0510359,4,0,41.39664852516673,-91.78387176911863,9068.6782654017,-79.60914194289364,-0.1658221440243441,-33.3471445714088,194.048,8905.102926237949,10943.217344713625,150,False,18.974531024256724,False,177.09332495642664,178.76825507663222,False,2.28430621336171,True,False
3,1970-07-23 10:17:04.811330871,2025-09-11,2025-09-26 20:28:01.133,HA,C,2592486724,JASSM,3,116,76,2,2,1,225,9,2,0,1,26,0,0,0,0,-183855.04821951807,-4786769.100557174,4201624.874479771,-2.30145,-0.152727,0.128663,90.875,-13.875,-11.75,0.0,0.0,0.0,0.0,0.0,0.0,2,0,41.4451383842819,-92.19959277443382,10002.62873260102,99.84999176423892,-0.0065965366330589,0.0036328180693518,,8905.102926237949,10943.217344713625,150,3,2025-09-11,2025-09-26 20:28:01.001,HA,C,1674869486,AMBUSH51,1,1,48,2,1,1,225,2,1,0,0,9,1,225,2,1,-149310.42408694106,-4791316.05918744,4197401.997174097,1.7517,3.01387,-0.100358,-114.102,12.264,5.99537,-0.107993,-8.01044,7.64831,0.0476571,0.0305338,-0.0520159,4,0,41.39673266578318,-91.78491449834176,9061.845841334582,-82.03325784305481,-0.3273858601863794,-31.332453394549407,194.842,8905.102926237949,10943.217344713625,150,False,18.875104039740393,False,175.01394087538137,178.76856098925222,False,4.148573294266984,True,False
3,1970-07-23 10:17:04.822304299,2025-09-11,2025-09-26 20:28:02.230,HA,C,2593739424,JASSM,3,116,76,2,2,1,225,9,2,0,1,26,0,0,0,0,-183759.64978201807,-4786783.797822799,4201612.386198521,-2.30145,-0.152727,0.128663,90.875,-13.875,-11.75,0.0,0.0,0.0,0.0,0.0,0.0,2,0,41.44498845785037,-92.19844582967993,10002.625209552438,99.85075092890584,-0.0057238230995478,0.0036321823893046,,8905.102926237949,10943.217344713625,150,3,2025-09-11,2025-09-26 20:28:02.401,HA,C,1676539684,AMBUSH51,1,1,48,2,1,1,225,2,1,0,0,9,1,225,2,1,-149471.2459015332,-4791301.884072159,4197405.786656762,1.81944,3.05725,-0.0503735,-115.675,7.53949,0.472065,-0.0221641,-8.08881,7.69933,0.0587237,0.0225859,-0.0354897,4,0,41.39681274396133,-91.78684106177036,9047.532441084224,-85.82142374019354,-0.3731260603465464,-27.240947700159623,196.284,8905.102926237949,10943.217344713625,150,False,18.73643838317548,False,171.392176941519,178.78335801202405,False,7.688106136510195,True,False
3,1970-07-23 10:17:04.833661002,2025-09-11,2025-09-26 20:28:03.366,HA,C,2594932590,JASSM,3,116,76,2,2,1,225,9,2,0,1,26,0,0,0,0,-183668.7855242056,-4786797.795869674,4201600.491667271,-2.30145,-0.152727,0.128663,90.875,-13.875,-11.75,0.0,0.0,0.0,0.0,0.0,0.0,2,0,41.44484565195366,-92.19735340313024,10002.62514515429,99.85147400578008,-0.0048925897721306,0.0036315821005899,,8905.102926237949,10943.217344713625,150,3,2025-09-11,2025-09-26 20:28:03.334,HA,C,1677653150,AMBUSH51,1,1,48,2,1,1,225,2,1,0,0,9,1,225,2,1,-149580.5111192253,-4791296.016657175,4197404.235954487,1.85759,3.08078,-0.0222104,-116.531,4.43888,-2.73017,-0.109989,-8.0524,7.57314,0.0343517,0.0196481,-0.0328911,4,0,41.3968168931677,-91.78814860400142,9038.122940485526,-87.92361308540997,-0.4306183020224596,-24.99129439966201,196.92,8905.102926237949,10943.217344713625,150,False,18.62847227143797,False,169.20918329025184,178.8000928787046,False,9.860468468395162,True,False
3,1970-07-23 10:17:04.843651794,2025-09-11,2025-09-26 20:28:04.365,HA,C,2596185168,JASSM,3,116,76,2,2,1,225,9,2,0,1,26,0,0,0,0,-183573.39587576807,-4786812.489229049,4201588.003386021,-2.30145,-0.152727,0.128663,90.875,-13.875,-11.75,0.0,0.0,0.0,0.0,0.0,0.0,2,0,41.444695724434446,-92.1962065755234,10002.622347223469,99.85223308849562,-0.0040199587326784,0.0036309535641432,,8905.102926237949,10943.217344713625,150,3,2025-09-11,2025-09-26 20:28:04.301,HA,C,1678806382,AMBUSH51,1,1,48,2,1,1,225,2,1,0,0,9,1,225,2,1,-149692.5641626083,-4791292.772518569,4197399.716940183,1.89699,3.10582,0.00366658,-117.097,1.5803,-5.6366,-0.0369731,-7.90606,7.57631,0.0368068,0.0154848,-0.0298139,4,0,41.39678486423617,-91.7894884736493,9028.94706027078,-89.98569769291127,-0.333916714924876,-22.70707843805948,198.3,8905.102926237949,10943.217344713625,150,False,18.516928216255256,False,167.2302341622972,178.82268328864615,False,11.850572330304002,True,False
3,1970-07-23 10:17:04.853402855,2025-09-11,2025-09-26 20:28:05.340,HA,C,2597497518,JASSM,3,116,76,2,2,1,225,9,2,0,1,26,0,0,0,0,-183473.45446951807,-4786827.883760299,4201574.919401646,-2.30145,-0.152727,0.128663,90.875,-13.875,-11.75,0.0,0.0,0.0,0.0,0.0,0.0,2,0,41.44453863162728,-92.19500502978796,10002.625182300251,99.8530283865988,-0.0031056880592181,0.0036302961236742,,8905.102926237949,10943.217344713625,150,3,2025-09-11,2025-09-26 20:28:05.267,HA,C,1679959614,AMBUSH51,1,1,48,2,1,1,225,2,1,0,0,9,1,225,2,1,-149806.7783186031,-4791292.142696865,4197392.372231784,1.92958,3.12424,0.0321153,-117.56,-0.855977,-8.53148,-0.168736,-7.43924,7.02559,0.030513,0.00101221,-0.0267741,4,0,41.39671778872579,-91.79085318466956,9020.244459638256,-91.9070584524492,-0.6193106509332243,-20.84220309054477,199.278,8905.102926237949,10943.217344713625,150,False,18.40211765075707,False,165.3990397099766,178.85074149240307,False,13.714739589579564,True,False
3,1970-07-23 10:17:04.866043045,2025-09-11,2025-09-26 20:28:06.604,HA,C,2598690566,JASSM,3,116,76,2,2,1,225,9,2,0,1,26,0,0,0,0,-183382.60095389312,-4786841.875947799,4201563.022917271,-2.30145,-0.152727,0.128663,90.875,-13.875,-11.75,0.0,0.0,0.0,0.0,0.0,0.0,2,0,41.44439581229891,-92.19391274940182,10002.621386219538,99.85375136027169,-0.0022745547645762,0.0036296978635716,,8905.102926237949,10943.217344713625,150,3,2025-09-11,2025-09-26 20:28:06.568,HA,C,1681510512,AMBUSH51,1,1,48,2,1,1,225,2,1,0,0,9,1,225,2,1,-149959.72328671312,-4791294.957539713,4197378.355879327,1.98209,-3.12468,0.0513075,-117.883,-4.42885,-11.5627,-0.0956032,-8.45918,7.49421,0.0333551,0.0186931,-0.0300636,4,0,41.39657795283642,-91.79267930818472,9008.52951272794,-94.03052759540518,0.124892885883736,-17.90641083883749,200.378,8905.102926237949,10943.217344713625,150,False,18.27248797406242,False,163.18424476186073,178.89661137062672,False,15.971068894998789,True,False
3,1970-07-23 10:17:04.873303623,2025-09-11,2025-09-26 20:28:07.330,HA,C,2599883578,JASSM,3,116,76,2,2,1,225,9,2,0,1,26,0,0,0,0,-183291.74548514312,-4786855.870088424,4201551.126432896,-2.30145,-0.152727,0.128663,90.875,-13.875,-11.75,0.0,0.0,0.0,0.0,0.0,0.0,2,0,41.44425297141582,-92.1928204495685,10002.62661754844,99.854474344767,-0.0014434016353512,0.0036290916575254,,8905.102926237949,10943.217344713625,150,3,2025-09-11,2025-09-26 20:28:07.234,HA,C,1682305846,AMBUSH51,1,1,48,2,1,1,225,2,1,0,0,9,1,225,2,1,-150038.2827523984,-4791298.307167472,4197369.977075542,2.00276,-3.10945,0.0607896,-117.798,-6.43369,-12.6045,-0.0897231,-8.40173,7.33269,0.033561,0.0138037,-0.0267242,4,0,41.39648682812524,-91.79361657349637,9004.641430107315,-95.01553120334498,0.4183864327536485,-16.775847840775818,200.635,8905.102926237949,10943.217344713625,150,False,18.181893999552884,False,162.17174474889956,178.9216039777238,False,17.001069686052638,True,False
3,1970-07-23 10:17:04.883342968,2025-09-11,2025-09-26 20:28:08.334,HA,C,2601017450,JASSM,3,116,76,2,2,1,225,9,2,0,1,26,0,0,0,0,-183205.39685233065,-4786869.166963424,4201539.819792271,-2.30145,-0.152727,0.128759,90.875,-13.875,-11.75,0.0,0.0,0.0,0.0,0.0,0.0,2,0,41.444117223023525,-92.19178233852864,10002.627477860751,99.85925220682218,-0.0043196529668699,0.0036283540877585,,8905.102926237949,10943.217344713625,150,3,2025-09-11,2025-09-26 20:28:08.234,HA,C,1683498844,AMBUSH51,1,1,48,2,1,1,225,2,1,0,0,9,1,225,2,1,-150155.08835553928,-4791305.585075551,4197356.352387902,1.99307,-3.08942,0.0691728,-117.432,-9.12155,-14.36,-0.097905,-8.25256,7.29265,-0.0196835,0.0166957,-0.0139993,4,0,41.39632978170254,-91.7950092756192,9001.986962855059,-96.13564223131128,0.9574394511293112,-17.418944199807818,199.938,8905.102926237949,10943.217344713625,150,False,18.074180241873712,False,160.66236521376845,178.96383506604332,False,18.552789446113753,True,False
3,1970-07-23 10:17:04.893425599,2025-09-11,2025-09-26 20:28:09.342,HA,C,2602210066,JASSM,3,116,76,2,2,1,225,9,2,0,1,26,0,0,0,0,-183114.57361014312,-4786883.153291549,4201527.925261021,-2.30145,-0.152727,0.128759,90.875,-13.875,-11.75,0.0,0.0,0.0,0.0,0.0,0.0,2,0,41.44397441424759,-92.19069043677986,10002.629384881282,99.85997492386652,-0.0034887958157001,0.0036278088145774,,8905.102926237949,10943.217344713625,150,3,2025-09-11,2025-09-26 20:28:09.267,HA,C,1684731610,AMBUSH51,1,1,48,2,1,1,225,2,1,0,0,9,1,225,2,1,-150276.52873990397,-4791316.226430998,4197340.189230738,1.99052,-3.06576,0.0823205,-116.704,-11.9568,-16.2174,-0.153173,-8.34631,7.35761,0.0044868,0.0143072,-0.0285156,4,0,41.396134707674,-91.79645608059012,9002.463864414445,-97.5984706108744,1.4673400137745367,-17.698479467145923,199.315,8905.102926237949,10943.217344713625,150,False,17.961993527848932,False,159.03425601147995,179.01192953696994,False,20.23423736616989,True,False
3,1970-07-23 10:17:04.903422466,2025-09-11,2025-09-26 20:28:10.342,HA,C,2603403276,JASSM,3,116,76,2,2,1,225,9,2,0,1,26,0,0,0,0,-183023.70544608065,-4786897.143525924,4201516.022917271,-2.30145,-0.152631,0.128759,90.875,-13.875,-11.75,0.0,0.0,0.0,0.0,0.0,0.0,2,0,41.4438315293725,-92.18959800113645,10002.62411396506,99.85706219389265,-0.0067144356602384,0.0029222242910139,,8905.102926237949,10943.217344713625,150,3,2025-09-11,2025-09-26 20:28:10.334,HA,C,1686004142,AMBUSH51,1,1,48,2,1,1,225,2,1,0,0,9,1,225,2,1,-150400.02157654864,-4791329.830469261,4197321.745830936,2.01214,-3.04657,0.102462,-116.036,-14.4526,-18.1618,-0.105567,-8.12506,7.02943,0.0133127,0.00996085,-0.0223425,4,0,41.39590621363545,-91.79792628537037,9005.448080371025,-99.19007446962858,1.5150589788062754,-16.60222544391666,198.569,8905.102926237949,10943.217344713625,150,False,17.849091470372983,False,157.48438891201334,179.0638611384452,False,21.85176091620917,True,False
3,1970-07-23 10:17:04.913282640,2025-09-11,2025-09-26 20:28:11.328,HA,C,2604596146,JASSM,3,116,76,2,2,1,225,9,2,0,1,26,0,0,0,0,-182932.86267264312,-4786911.129854049,4201504.124479771,-2.30145,-0.152631,0.128759,90.875,-13.875,-11.75,0.0,0.0,0.0,0.0,0.0,0.0,2,0,41.443688677948415,-92.18850587553368,10002.624523160346,99.8577850550486,-0.005883402353611,0.0029216345867773,,8905.102926237949,10943.217344713625,150,3,2025-09-11,2025-09-26 20:28:11.367,HA,C,1687236906,AMBUSH51,1,1,48,2,1,1,225,2,1,0,0,9,1,225,2,1,-150520.23762357197,-4791345.70607377,4197301.628533795,2.03711,-3.03128,0.114802,-115.23,-16.7075,-19.9198,-0.0186861,-8.04105,6.85666,0.027286,0.0056124,-0.0175717,4,0,41.39565349951839,-91.79935648109492,9010.143620117453,-100.2996044032152,1.6913103126012423,-15.297881130560718,197.934,8905.102926237949,10943.217344713625,150,False,17.7382459081861,False,156.05940683021197,179.11610127119093,False,23.350617888936952,True,False
3,1970-07-23 10:17:04.923329227,2025-09-11,2025-09-26 20:28:12.332,HA,C,2605789194,JASSM,3,116,76,2,2,1,225,9,2,0,1,26,0,0,0,0,-182842.00622733065,-4786925.118135299,4201492.222136021,-2.30145,-0.152631,0.128759,90.875,-13.875,-11.75,0.0,0.0,0.0,0.0,0.0,0.0,2,0,41.44354578128363,-92.1874135904268,10002.624376654256,99.85850801972884,-0.0050522417179942,0.002921031574507,,8905.102926237949,10943.217344713625,150,3,2025-09-11,2025-09-26 20:28:12.301,HA,C,1688350372,AMBUSH51,1,1,48,2,1,1,225,2,1,0,0,9,1,225,2,1,-150626.5710748271,-4791361.420621451,4197282.227799472,2.04434,-3.02092,0.13306,-114.513,-18.0144,-21.5047,-0.166701,-7.3715,6.50183,0.0034153,0.0203347,-0.0172138,4,0,41.39540915986465,-91.8006208794608,9014.931636599096,-101.47192273380556,1.4284534926148704,-14.98832761532076,197.518,8905.102926237949,10943.217344713625,150,False,17.63470129850745,False,155.0129123096915,179.16146512609566,False,24.47445536421657,True,False
3,1970-07-23 10:17:04.933362131,2025-09-11,2025-09-26 20:28:13.336,HA,C,2606982616,JASSM,3,116,76,2,2,1,225,9,2,0,1,26,0,0,0,0,-182751.1214617056,-4786939.108369674,4201480.315886021,-2.30145,-0.152631,0.128759,90.875,-13.875,-11.75,0.0,0.0,0.0,0.0,0.0,0.0,2,0,41.44340284270226,-92.18632097074388,10002.6223021301,99.85923120380646,-0.0042208250235431,0.0029204410053664,,8905.102926237949,10943.217344713625,150,3,2025-09-11,2025-09-26 20:28:13.435,HA,C,1689702438,AMBUSH51,1,1,48,2,1,1,225,2,1,0,0,9,1,225,2,1,-150756.68462058395,-4791382.269071815,4197256.001720972,2.05862,-3.00782,0.153786,-113.705,-19.3626,-23.6778,0.00278947,-7.44842,6.35525,0.0195545,0.00209828,-0.0138557,4,0,41.39508373569868,-91.8021674216652,9019.38819577832,-102.85200774976786,1.1825311499128643,-14.308809231472326,197.188,8905.102926237949,10943.217344713625,150,False,17.519460731927328,False,153.73931732103802,179.21375063052122,False,25.85353746892064,True,False
3,1970-07-23 10:17:04.943423319,2025-09-11,2025-09-26 20:28:14.342,HA,C,2608175634,JASSM,3,116,76,2,2,1,225,9,2,0,1,26,0,0,0,0,-182660.26794608065,-4786953.094697799,4201468.413542271,-2.30145,-0.152631,0.128759,90.875,-13.875,-11.75,0.0,0.0,0.0,0.0,0.0,0.0,2,0,41.44325993624636,-92.18522873113032,10002.626455065034,99.85995413427295,-0.0033896927414847,0.0029198441030068,,8905.102926237949,10943.217344713625,150,3,2025-09-11,2025-09-26 20:28:14.434,HA,C,1690895436,AMBUSH51,1,1,48,2,1,1,225,2,1,0,0,9,1,225,2,1,-150869.26595880045,-4791401.5991480565,4197231.458951109,2.08775,-2.99634,0.167829,-113.104,-20.382,-25.4683,-0.218445,-7.20447,6.67734,0.0321421,0.000571123,-0.0169475,4,0,41.39478197167858,-91.8035050758081,9022.41259624586,-103.88500004359886,1.1217101262065872,-12.766140172629086,196.956,8905.102926237949,10943.217344713625,150,False,17.413315406830996,False,152.72424753825578,179.25267730319402,False,26.964834200943255,True,False
3,1970-07-23 10:17:04.953260262,2025-09-11,2025-09-26 20:28:15.326,HA,C,2609428186,JASSM,3,116,76,2,2,1,225,9,2,0,1,26,0,0,0,0,-182564.88025076807,-4786967.776338424,4201455.915495396,-2.30145,-0.152631,0.128759,90.875,-13.875,-11.75,0.0,0.0,0.0,0.0,0.0,0.0,2,0,41.44310989125448,-92.18408198806314,10002.62524740728,99.86071313722384,-0.002517083239143,0.0029192217287935,,8905.102926237949,10943.217344713625,150,3,2025-09-11,2025-09-26 20:28:15.134,HA,C,1691730536,AMBUSH51,1,1,48,2,1,1,225,2,1,0,0,9,1,225,2,1,-150948.28753596867,-4791415.95214383,4197213.059004812,2.10727,-2.98917,0.175841,-112.698,-21.1204,-26.5564,-0.166096,-7.25478,6.38645,0.0187909,-0.00785737,-0.0159155,4,0,41.39455756119932,-91.80444368090475,9023.925729247496,-104.4976927433572,1.1115761936058848,-11.729631914242754,197.103,8905.102926237949,10943.217344713625,150,False,17.321636923688036,False,152.06249384359882,179.27446438523666,False,27.695047570241243,True,False
3,1970-07-23 10:17:04.963302373,2025-09-11,2025-09-26 20:28:16.330,HA,C,2610562010,JASSM,3,116,76,2,2,1,225,9,2,0,1,26,0,0,0,0,-182478.53454764312,-4786981.065400924,4201444.601042271,-2.30145,-0.152631,0.128759,90.875,-13.875,-11.75,0.0,0.0,0.0,0.0,0.0,0.0,2,0,41.44297405711838,-92.18304395204106,10002.62376000136,99.86140018752404,-0.0017271900252211,0.0029186559444631,,8905.102926237949,10943.217344713625,150,3,2025-09-11,2025-09-26 20:28:16.367,HA,C,1693201900,AMBUSH51,1,1,48,2,1,1,225,2,1,0,0,9,1,225,2,1,-151087.09693872536,-4791442.326578982,4197179.169616857,2.10984,-2.97908,0.18905,-111.898,-22.1984,-28.2117,-0.191682,-7.25913,6.5787,-0.0417295,0.00389175,-0.0179462,4,0,41.39414584466123,-91.80609198215366,9026.048845980122,-105.44121561282375,1.0205605708110923,-11.705093762530169,197.628,8905.102926237949,10943.217344713625,150,False,17.205392866944834,False,151.04228007352313,179.3014952213939,False,28.840952987285505,True,False
