Subject_cm,Timestamp,SampleDate_cm,SampleTime_cm,Configuration_cm,Scenario_cm,DisTime_cm,MarkingTxt_cm,Application_cm,EntId_cm,Site_cm,ExerciseId_cm,ForceId_cm,Category_cm,Country_cm,Domain_cm,Kind_cm,Extra_cm,Specific_cm,Subcategory_cm,AltCategory_cm,AltCountry_cm,AltDomain_cm,AltKind_cm,ECEF_X_cm,ECEF_Y_cm,ECEF_Z_cm,OriPhi_cm,OriPsi_cm,OriTheta_cm,LinVelX_cm,LinVelY_cm,LinVelZ_cm,LinAccX_cm,LinAccY_cm,LinAccZ_cm,AngVelX_cm,AngVelY_cm,AngVelZ_cm,DrAlg_cm,Appearance_cm,Latitude_cm,Longitude_cm,Altitude_cm,Heading_cm,Pitch_cm,Roll_cm,CalibratedAirspeed_cm,CM_Altitude_Lead_cm,CM_Altitude_Wing_cm,CM_Airspeed_cm,Subject_ac,SampleDate_ac,SampleTime_ac,Configuration_ac,Scenario_ac,DisTime_ac,MarkingTxt_ac,Application_ac,EntId_ac,Site_ac,ExerciseId_ac,ForceId_ac,Category_ac,Country_ac,Domain_ac,Kind_ac,Extra_ac,Specific_ac,Subcategory_ac,AltCategory_ac,AltCountry_ac,AltDomain_ac,AltKind_ac,ECEF_X_ac,ECEF_Y_ac,ECEF_Z_ac,OriPhi_ac,OriPsi_ac,OriTheta_ac,LinVelX_ac,LinVelY_ac,LinVelZ_ac,LinAccX_ac,LinAccY_ac,LinAccZ_ac,AngVelX_ac,AngVelY_ac,AngVelZ_ac,DrAlg_ac,Appearance_ac,Latitude_ac,Longitude_ac,Altitude_ac,Heading_ac,Pitch_ac,Roll_ac,CalibratedAirspeed_ac,CM_Altitude_Lead_ac,CM_Altitude_Wing_ac,CM_Airspeed_ac,Bank_Angle_Condition,distance_nm,Distance_Condition,angle_between_vel,angle_between_pos,Cone_Condition,angle_between_pos_nose,Nose_Cone_Condition,Intercept_Criteria
3,1970-07-23 10:16:58.171221670,2025-09-11,2025-09-26 20:16:57.122,HH,C,1800124888,JASSM,3,102,76,2,2,1,225,9,2,0,1,26,0,0,0,0,-163146.06823904935,-4785371.057588424,4204055.452604771,-2.36559,-0.397301,0.382249,73.25,-30.625,-31.75,0.0,0.0,0.0,0.0,0.0,0.0,2,0,41.47432656743828,-91.95260972860244,10002.62528352353,119.8543158882097,-0.00283349933085,0.0050438227186302,,8988.574530004647,11016.82538521552,150,3,2025-09-11,2025-09-26 20:16:57.244,HH,C,882996684,AMBUSH51,1,1,48,2,1,1,225,2,1,0,0,9,1,225,2,1,-150367.1433341705,-4791243.757884251,4197414.068000478,2.32499,2.77563,-0.384236,-99.1299,37.3859,41.2509,-0.0576071,-7.16769,6.99056,-0.0164981,-0.00804462,0.0016031,4,0,41.397047669452505,-91.79756577773828,8991.471815838779,-61.14462489836767,1.117739841391083,-1.6601964539399172,194.842,8988.574530004647,11016.82538521552,150,True,8.371412298562566,False,178.044526817622,176.06847280531153,False,5.445159947133904,True,False
3,1970-07-23 10:16:58.180285641,2025-09-11,2025-09-26 20:16:58.028,HH,C,1801317934,JASSM,3,102,76,2,2,1,225,9,2,0,1,26,0,0,0,0,-163072.82019217435,-4785401.799775924,4204023.517057896,-2.36559,-0.397301,0.382249,73.25,-30.625,-31.75,0.0,0.0,0.0,0.0,0.0,0.0,2,0,41.47394297374758,-91.95172121075748,10002.626874924086,119.85490433753098,-0.0020651674484903,0.0050425342870418,,8988.574530004647,11016.82538521552,150,3,2025-09-11,2025-09-26 20:16:57.977,HH,C,883871550,AMBUSH51,1,1,48,2,1,1,225,2,1,0,0,9,1,225,2,1,-150439.85529086195,-4791216.106773796,4197444.296062179,2.32293,2.77708,-0.386042,-99.3852,37.4094,41.308,-0.0747154,-7.34716,7.14831,0.00896008,0.0091078,0.000225745,4,0,41.39740265940664,-91.79844481531276,8994.648924439607,-61.12620002372879,1.246066820506092,-1.7465395544072744,195.526,8988.574530004647,11016.82538521552,150,True,8.2807453376671,False,178.0065551866049,176.01903363632655,False,5.53118080506241,True,False
3,1970-07-23 10:16:58.189141254,2025-09-11,2025-09-26 20:16:58.914,HH,C,1802452128,JASSM,3,102,76,2,2,1,225,9,2,0,1,26,0,0,0,0,-163003.18542654935,-4785431.024385299,4203993.155729771,-2.36559,-0.397301,0.382249,73.25,-30.625,-31.75,0.0,0.0,0.0,0.0,0.0,0.0,2,0,41.47357829487161,-91.95087653310938,10002.626733410716,119.855463748133,-0.001334736529528,0.0050413081452959,,8988.574530004647,11016.82538521552,150,3,2025-09-11,2025-09-26 20:16:59.044,HH,C,885144082,AMBUSH51,1,1,48,2,1,1,225,2,1,0,0,9,1,225,2,1,-150545.13524332977,-4791176.563012797,4197488.155767537,2.32566,2.78322,-0.386082,-99.6633,37.0467,41.6439,-0.086235,-7.06559,7.14504,0.00655699,0.000958114,-0.00360255,4,0,41.39791433319076,-91.79971740920958,9000.667043858972,-61.35482203920208,1.4799027502271036,-1.4632829789312034,195.869,8988.574530004647,11016.82538521552,150,True,8.17241724115774,False,177.82444451763908,175.95625496582858,False,5.648081977334649,True,False
3,1970-07-23 10:16:58.199160129,2025-09-11,2025-09-26 20:16:59.916,HH,C,1803644398,JASSM,3,102,76,2,2,1,225,9,2,0,1,26,0,0,0,0,-162929.98523123687,-4785461.745088424,4203961.237761021,-2.36559,-0.397205,0.382249,73.25,-30.625,-31.75,0.0,0.0,0.0,0.0,0.0,0.0,2,0,41.473194924545766,-91.94998861670688,10002.625086176637,119.8524139086939,-0.0041365553445227,0.0029911579205305,,8988.574530004647,11016.82538521552,150,3,2025-09-11,2025-09-26 20:16:59.843,HH,C,886098480,AMBUSH51,1,1,48,2,1,1,225,2,1,0,0,9,1,225,2,1,-150624.8479651212,-4791146.892335054,4197521.385777808,2.32871,2.78426,-0.387759,-99.8615,36.9171,41.7606,-0.122142,-7.09938,7.06049,0.00685036,0.00129933,0.00932419,4,0,41.3983002780109,-91.80068086517608,9005.93944532157,-61.32600004531487,1.5876263160455382,-1.264908377814656,195.979,8988.574530004647,11016.82538521552,150,True,8.077605978477479,False,177.7359341724342,175.90104754623616,False,5.750493946743853,True,False
3,1970-07-23 10:16:58.209202098,2025-09-11,2025-09-26 20:17:00.920,HH,C,1804837444,JASSM,3,102,76,2,2,1,225,9,2,0,1,26,0,0,0,0,-162856.73718436187,-4785492.483369674,4203929.300261021,-2.36559,-0.397205,0.382249,73.25,-30.625,-31.75,0.0,0.0,0.0,0.0,0.0,0.0,2,0,41.47281132063235,-91.9491001313587,10002.623949040291,119.85300232337671,-0.0033682294545623,0.0029898287821732,,8988.574530004647,11016.82538521552,150,3,2025-09-11,2025-09-26 20:17:00.877,HH,C,887331246,AMBUSH51,1,1,48,2,1,1,225,2,1,0,0,9,1,225,2,1,-150728.57062466285,-4791108.375096415,4197564.890299361,2.33313,2.78523,-0.387307,-100.061,36.8464,41.9924,-0.175923,-7.09327,7.00326,-0.0124784,0.00463453,0.00297629,4,0,41.3988037133926,-91.80193450206733,9013.60465285495,-61.38156669447577,1.6071548299634135,-0.9923727110158534,196.541,8988.574530004647,11016.82538521552,150,True,7.968012072127582,False,177.68123996759115,175.83493223977035,False,5.811273931023106,True,False
3,1970-07-23 10:16:58.221618151,2025-09-11,2025-09-26 20:17:02.161,HH,C,1806030812,JASSM,3,102,76,2,2,1,225,9,2,0,1,26,0,0,0,0,-162783.46960623687,-4785523.231416549,4203897.352995396,-2.36559,-0.397205,0.382249,73.25,-30.625,-31.75,0.0,0.0,0.0,0.0,0.0,0.0,2,0,41.472427589767015,-91.9482114189419,10002.627720414068,119.85359088396363,-0.0025996893798027,0.0029884840814907,,8988.574530004647,11016.82538521552,150,3,2025-09-11,2025-09-26 20:17:02.043,HH,C,888723078,AMBUSH51,1,1,48,2,1,1,225,2,1,0,0,9,1,225,2,1,-150844.37103365822,-4791065.369485251,4197613.686454823,2.33931,2.78608,-0.387508,-100.196,36.9062,42.1925,-0.0621633,-7.08666,6.89984,0.00331959,-0.00665478,-0.0111218,4,0,41.39936729802909,-91.80333413888236,9022.652837068545,-61.40586752936272,1.6483820367425857,-0.6206311708132363,196.81,8988.574530004647,11016.82538521552,150,True,7.850955409477857,False,177.6941033319336,175.76239119775644,False,5.836036709026301,True,False
3,1970-07-23 10:16:58.229261412,2025-09-11,2025-09-26 20:17:02.926,HH,C,1807224048,JASSM,3,102,76,2,2,1,225,9,2,0,1,26,0,0,0,0,-162710.20984061187,-4785553.973604049,4203865.407682896,-2.36559,-0.397205,0.382345,73.25,-30.625,-31.75,0.0,0.0,0.0,0.0,0.0,0.0,2,0,41.47204389850008,-91.94732281281838,10002.625761290805,119.85802676393736,-0.0057520228513076,0.0029868893284369,,8988.574530004647,11016.82538521552,150,3,2025-09-11,2025-09-26 20:17:02.877,HH,C,889717244,AMBUSH51,1,1,48,2,1,1,225,2,1,0,0,9,1,225,2,1,-150928.16619320062,-4791034.313130726,4197649.106338002,2.34303,2.78844,-0.387308,-100.227,36.8928,42.3777,-0.0512517,-7.14156,7.01651,0.00654659,-0.00137631,-0.00897881,4,0,41.3997754739763,-91.80434693058196,9029.600456104716,-61.50276645887013,1.730400393518332,-0.3593057703631425,197.03,8988.574530004647,11016.82538521552,150,True,7.753548318072583,False,177.69004991987148,175.70193809506657,False,5.849708539286543,True,False
3,1970-07-23 10:16:58.239626185,2025-09-11,2025-09-26 20:17:03.962,HH,C,1808416584,JASSM,3,102,76,2,2,1,225,9,2,0,1,26,0,0,0,0,-162636.99304373687,-4785584.698213424,4203833.479948521,-2.36559,-0.397205,0.382345,73.25,-30.625,-31.75,0.0,0.0,0.0,0.0,0.0,0.0,2,0,41.47166041488306,-91.94643473817162,10002.626163470615,119.85861489329376,-0.0049840133565731,0.0029855924624357,,8988.574530004647,11016.82538521552,150,3,2025-09-11,2025-09-26 20:17:04.043,HH,C,891109074,AMBUSH51,1,1,48,2,1,1,225,2,1,0,0,9,1,225,2,1,-151044.14193580713,-4790991.430096831,4197698.311313892,2.3344,2.78726,-0.390626,-100.324,36.8633,42.6332,-0.171801,-7.1203,7.05135,-0.00300126,-0.00185693,-0.000552398,4,0,41.400341026193686,-91.80574865555094,9039.866372343266,-61.32440046033091,1.8206192419855096,-0.873561577942647,197.628,8988.574530004647,11016.82538521552,150,True,7.636402582774871,False,177.66500459370724,175.62599743928183,False,5.879585050547101,True,False
3,1970-07-23 10:16:58.250039608,2025-09-11,2025-09-26 20:17:05.003,HH,C,1809609630,JASSM,3,102,76,2,2,1,225,9,2,0,1,26,0,0,0,0,-162563.74499686187,-4785615.434541549,4203801.538542271,-2.36559,-0.397205,0.382345,73.25,-30.625,-31.75,0.0,0.0,0.0,0.0,0.0,0.0,2,0,41.47127676871153,-91.9455462955226,10002.626807580418,119.859203261886,-0.0042156803681016,0.0029843017465656,,8988.574530004647,11016.82538521552,150,3,2025-09-11,2025-09-26 20:17:04.910,HH,C,892143008,AMBUSH51,1,1,48,2,1,1,225,2,1,0,0,9,1,225,2,1,-151130.97131151386,-4790959.52321331,4197735.167589072,2.3281,2.78597,-0.390505,-100.459,36.6636,42.8719,-0.0123299,-7.04351,6.85778,-0.0148627,0.00311777,0.00187358,4,0,41.40076336764564,-91.80679804693962,9048.08518255632,-61.28200154178831,1.7680221795084432,-1.2615155581294089,197.97,8988.574530004647,11016.82538521552,150,True,7.537183264559199,False,177.54948420951166,175.56075268484847,False,5.9667460267641435,True,False
3,1970-07-23 10:16:58.259220708,2025-09-11,2025-09-26 20:17:05.922,HH,C,1810743024,JASSM,3,102,76,2,2,1,225,9,2,0,1,26,0,0,0,0,-162494.16052420562,-4785644.631807174,4203771.194792271,-2.36559,-0.397205,0.382345,73.25,-30.625,-31.75,0.0,0.0,0.0,0.0,0.0,0.0,2,0,41.47091231556205,-91.94470229963578,10002.626760898178,119.85976219159248,-0.0034857821910777,0.0029830847942872,,8988.574530004647,11016.82538521552,150,3,2025-09-11,2025-09-26 20:17:06.078,HH,C,893534840,AMBUSH51,1,1,48,2,1,1,225,2,1,0,0,9,1,225,2,1,-151248.70140762877,-4790916.344057484,4197785.326448813,2.31785,2.78893,-0.389082,-100.674,36.7057,42.8404,-0.0399046,-7.1842,6.9306,-0.00740172,0.00387095,0.00493621,4,0,41.401336760692125,-91.8082208835044,9059.844509867036,-61.45111894715589,1.8234953955244932,-1.789473392105057,198.154,8988.574530004647,11016.82538521552,150,True,7.421292460020105,False,177.53254190278653,175.48100505158948,False,6.096999725623332,True,False
3,1970-07-23 10:16:58.269259628,2025-09-11,2025-09-26 20:17:06.925,HH,C,1811995726,JASSM,3,102,76,2,2,1,225,9,2,0,1,26,0,0,0,0,-162417.24841483062,-4785676.903291549,4203737.653776646,-2.36559,-0.397205,0.382345,73.25,-30.625,-31.75,0.0,0.0,0.0,0.0,0.0,0.0,2,0,41.470509465902,-91.94376943739996,10002.62551464309,119.8603799676489,-0.0026790165497281,0.0029817306538621,,8988.574530004647,11016.82538521552,150,3,2025-09-11,2025-09-26 20:17:07.110,HH,C,894767604,AMBUSH51,1,1,48,2,1,1,225,2,1,0,0,9,1,225,2,1,-151351.72755135252,-4790878.72834244,4197829.350651736,2.32712,2.79073,-0.387759,-100.794,36.4348,43.0825,-0.0777489,-7.16124,6.93978,0.0195794,-0.0111343,-0.00134094,4,0,41.4018383871789,-91.8094659691034,9070.844334717562,-61.573209591965146,1.8395618440123267,-1.2233724247940254,198.264,8988.574530004647,11016.82538521552,150,True,7.309848636838109,False,177.38479926336626,175.40314183597414,False,6.217830366129816,True,False
3,1970-07-23 10:16:58.280276730,2025-09-11,2025-09-26 20:17:08.027,HH,C,1813248422,JASSM,3,102,76,2,2,1,225,9,2,0,1,26,0,0,0,0,-162340.33825858062,-4785709.172822799,4203704.112761021,-2.36559,-0.397205,0.382345,73.25,-30.625,-31.75,0.0,0.0,0.0,0.0,0.0,0.0,2,0,41.47010661988752,-91.94283661086313,10002.623785530232,119.8609977151306,-0.0018722721399566,0.0029803772179376,,8988.574530004647,11016.82538521552,150,3,2025-09-11,2025-09-26 20:17:07.943,HH,C,895761770,AMBUSH51,1,1,48,2,1,1,225,2,1,0,0,9,1,225,2,1,-151435.8615015776,-4790847.977837229,4197865.523931106,2.33279,2.7947,-0.388023,-100.765,36.3643,43.2464,-0.130847,-7.19744,6.94321,0.013889,0.00298253,-0.0011849,4,0,41.40224971000777,-91.8104827653615,9080.23400447888,-61.71076779182279,2.0011170879699995,-0.816766232519807,198.533,8988.574530004647,11016.82538521552,150,True,7.209949839950496,False,177.3529418517346,175.33292100599303,False,6.256453927888644,True,False
3,1970-07-23 10:16:58.292027192,2025-09-11,2025-09-26 20:17:09.202,HH,C,1814501526,JASSM,3,102,76,2,2,1,225,9,2,0,1,26,0,0,0,0,-162263.40271170562,-4785741.454072799,4203670.560026646,-2.36559,-0.397205,0.382345,73.25,-30.625,-31.75,0.0,0.0,0.0,0.0,0.0,0.0,2,0,41.46970362258263,-91.9419034874921,10002.627425638851,119.8616156542496,-0.00106525573132,0.0029790141832552,,8988.574530004647,11016.82538521552,150,3,2025-09-11,2025-09-26 20:17:09.043,HH,C,897074068,AMBUSH51,1,1,48,2,1,1,225,2,1,0,0,9,1,225,2,1,-151545.8465725121,-4790808.292340196,4197912.535142006,2.33171,2.79542,-0.389758,-100.85,36.2999,43.2827,-0.0807565,-7.19143,7.01873,-0.00225432,-0.00664854,0.00834839,4,0,41.40278247959755,-91.81181180783994,9093.178475868026,-61.6673931629498,2.099077870987009,-0.8615488412141573,198.679,8988.574530004647,11016.82538521552,150,True,7.094347948316445,False,177.30833347425462,175.24613963010745,False,6.375881560193297,True,False
3,1970-07-23 10:16:58.301157756,2025-09-11,2025-09-26 20:17:10.115,HH,C,1815813576,JASSM,3,102,76,2,2,1,225,9,2,0,1,26,0,0,0,0,-162182.84802420562,-4785775.250947799,4203635.427214146,-2.36559,-0.397109,0.382345,73.25,-30.625,-31.75,0.0,0.0,0.0,0.0,0.0,0.0,2,0,41.469281665493526,-91.94092648244684,10002.624776007711,119.85862503471542,-0.0037899286313334,0.0009282305685767,,8988.574530004647,11016.82538521552,150,3,2025-09-11,2025-09-26 20:17:10.243,HH,C,898505668,AMBUSH51,1,1,48,2,1,1,225,2,1,0,0,9,1,225,2,1,-151666.6541983102,-4790765.018036407,4197964.301325602,2.32606,2.79886,-0.391891,-100.934,36.0457,43.4123,-0.0282406,-7.04548,7.00817,-0.00493205,-0.0036941,0.0053232,4,0,41.40336664507661,-91.81327153189424,9108.463986060427,-61.708755517247184,2.3161215009366822,-1.111391916102247,198.533,8988.574530004647,11016.82538521552,150,True,6.969906546804827,False,177.17170736268199,175.14907032153562,False,6.541568908827047,True,False
3,1970-07-23 10:16:58.312176574,2025-09-11,2025-09-26 20:17:11.217,HH,C,1817125812,JASSM,3,102,76,2,2,1,225,9,2,0,1,26,0,0,0,0,-162102.28161795562,-4785809.051729049,4203600.290495396,-2.36559,-0.397109,0.382345,73.25,-30.625,-31.75,0.0,0.0,0.0,0.0,0.0,0.0,2,0,41.46885965283124,-91.93994934835295,10002.62681766058,119.85927210829186,-0.0029448372290228,0.0009267662133249,,8988.574530004647,11016.82538521552,150,3,2025-09-11,2025-09-26 20:17:11.177,HH,C,899619132,AMBUSH51,1,1,48,2,1,1,225,2,1,0,0,9,1,225,2,1,-151761.36313805834,-4790731.309794829,4198005.01752594,2.32454,2.79918,-0.392578,-100.988,35.8375,43.5176,-0.0901071,-7.13428,7.03918,-0.00780535,0.00156149,-0.00122859,4,0,41.403824204029625,-91.81441583888676,9121.27792176391,-61.693149940657534,2.3567249973132656,-1.1912971882588772,198.716,8988.574530004647,11016.82538521552,150,True,6.861463677383744,False,177.0614520368351,175.0629055350102,False,6.681808604656991,True,False
3,1970-07-23 10:16:58.323197967,2025-09-11,2025-09-26 20:17:12.319,HH,C,1818378522,JASSM,3,102,76,2,2,1,225,9,2,0,1,26,0,0,0,0,-162025.37048514312,-4785841.317354049,4203566.745573521,-2.36559,-0.397109,0.382441,73.25,-30.625,-31.75,0.0,0.0,0.0,0.0,0.0,0.0,2,0,41.46845677284563,-91.93901655901873,10002.623929912736,119.8637373463658,-0.0060587344231213,0.0009250874765884,,8988.574530004647,11016.82538521552,150,3,2025-09-11,2025-09-26 20:17:12.310,HH,C,900971198,AMBUSH51,1,1,48,2,1,1,225,2,1,0,0,9,1,225,2,1,-151875.13815987407,-4790691.150440637,4198053.915760495,2.32143,2.79716,-0.395439,-101.116,35.4932,43.7165,-0.124643,-7.20238,7.00429,-0.00686908,0.00278696,-0.00117866,4,0,41.40437176889689,-91.81579040161829,9137.471081996217,-61.50207621050092,2.396235280648193,-1.405751849681908,198.679,8988.574530004647,11016.82538521552,150,True,6.743744117610192,False,176.87112569027732,174.96416482903797,False,6.8757620723407635,True,False
3,1970-07-23 10:16:58.333238893,2025-09-11,2025-09-26 20:17:13.323,HH,C,1819571586,JASSM,3,102,76,2,2,1,225,9,2,0,1,26,0,0,0,0,-161952.12097342435,-4785872.047822799,4203534.798307896,-2.36559,-0.397109,0.382441,73.25,-30.625,-31.875,0.0,0.0,0.0,0.0,0.0,0.0,2,0,41.46807306485301,-91.9381281887031,10002.62877840938,119.86432562985912,-0.0052903890136668,0.0009238012320698,,8988.574530004647,11016.82538521552,150,3,2025-09-11,2025-09-26 20:17:13.110,HH,C,901925596,AMBUSH51,1,1,48,2,1,1,225,2,1,0,0,9,1,225,2,1,-151956.07572160842,-4790662.743957342,4198088.83366299,2.31575,2.79782,-0.396983,-101.222,35.3238,43.7899,-0.0562755,-7.21058,7.01603,-0.0250181,0.0112217,-0.000983081,4,0,41.4047612163624,-91.81676819281157,9149.682421440828,-61.46374322116409,2.4837555724863982,-1.715089343904422,198.973,8988.574530004647,11016.82538521552,150,True,6.648400911684465,False,176.78244330891894,174.9498074926452,False,7.021668476475677,True,False
3,1970-07-23 10:16:58.343259544,2025-09-11,2025-09-26 20:17:14.325,HH,C,1820765304,JASSM,3,102,76,2,2,1,225,9,2,0,1,26,0,0,0,0,-161878.83142264312,-4785902.791963424,4203502.831511021,-2.36559,-0.397109,0.382441,73.25,-30.625,-31.875,0.0,0.0,0.0,0.0,0.0,0.0,2,0,41.467689144897534,-91.9372393445428,10002.625225541977,119.8649142226557,-0.0045216267125517,0.0009225178310914,,8988.574530004647,11016.82538521552,150,3,2025-09-11,2025-09-26 20:17:14.311,HH,C,903357196,AMBUSH51,1,1,48,2,1,1,225,2,1,0,0,9,1,225,2,1,-152078.04756515843,-4790620.218971956,4198141.422189624,2.28671,2.80151,-0.401996,-101.367,35.0942,43.5616,-0.10204,-7.37333,7.09205,-0.0177589,0.00940741,-0.0036296,4,0,41.40534618901183,-91.81824162379606,9168.71956201135,-61.39530063955901,2.8249082455435066,-3.2932103774439865,199.083,8988.574530004647,11016.82538521552,150,True,6.528060991386111,False,176.66074613041184,174.8405979214095,False,7.308705338032746,True,False
3,1970-07-23 10:16:58.353139166,2025-09-11,2025-09-26 20:17:15.313,HH,C,1822017314,JASSM,3,102,76,2,2,1,225,9,2,0,1,26,0,0,0,0,-161801.96277029935,-4785935.038057174,4203469.302214146,-2.36549,-0.397109,0.382441,73.25,-30.625,-31.875,0.0,0.0,0.0,0.0,0.0,0.0,2,0,41.46728645600098,-91.9363071046419,10002.62388895654,119.8655315473082,-0.0037153152762391,0.0064126328261212,,8988.574530004647,11016.82538521552,150,3,2025-09-11,2025-09-26 20:17:15.410,HH,C,904669494,AMBUSH51,1,1,48,2,1,1,225,2,1,0,0,9,1,225,2,1,-152188.9323077707,-4790582.482553789,4198189.000540113,2.2693,2.80956,-0.401727,-101.601,34.0711,43.7418,-0.0781756,-7.43718,7.19725,-0.00731225,0.00541475,-0.00878947,4,0,41.40587092680662,-91.81958079182496,9187.806338957003,-61.70397363742848,3.119698534368573,-4.12662020527867,199.046,8988.574530004647,11016.82538521552,150,True,6.412521141798262,False,176.13851438930794,174.73005729277514,False,7.790457670648005,True,False
3,1970-07-23 10:16:58.364156398,2025-09-11,2025-09-26 20:17:16.415,HH,C,1823270014,JASSM,3,102,76,2,2,1,225,9,2,0,1,26,0,0,0,0,-161725.05163748687,-4785967.301729049,4203435.755339146,-2.36549,-0.397109,0.382441,73.25,-30.625,-31.875,0.0,0.0,0.0,0.0,0.0,0.0,2,0,41.4668835448332,-91.9353743611947,10002.628175157995,119.86614920047346,-0.0029085621628966,0.0064112817242463,,8988.574530004647,11016.82538521552,150,3,2025-09-11,2025-09-26 20:17:16.410,HH,C,905862492,AMBUSH51,1,1,48,2,1,1,225,2,1,0,0,9,1,225,2,1,-152291.53142951697,-4790548.316429211,4198233.0593304,2.26506,2.81603,-0.402912,-101.806,33.218,43.7516,-0.142765,-7.59045,7.30741,0.0075432,0.00739755,-0.00144081,4,0,41.40635221515503,-91.8208196253898,9207.397425898238,-61.89349603576882,3.412870885868505,-4.234840954211756,198.789,8988.574530004647,11016.82538521552,150,True,6.302169955216451,False,175.70536586046606,174.61979432736067,False,8.259559716692705,True,False
3,1970-07-23 10:16:58.374199042,2025-09-11,2025-09-26 20:17:17.419,HH,C,1824463060,JASSM,3,102,76,2,2,1,225,9,2,0,1,26,0,0,0,0,-161651.80310233062,-4785998.026338424,4203403.804167271,-2.36549,-0.397109,0.382441,73.25,-30.625,-31.875,0.0,0.0,0.0,0.0,0.0,0.0,2,0,41.46649981696853,-91.93448604787544,10002.625665524683,119.8667374278754,-0.0021402298338113,0.0064099973651647,,8988.574530004647,11016.82538521552,150,3,2025-09-11,2025-09-26 20:17:17.243,HH,C,906856658,AMBUSH51,1,1,48,2,1,1,225,2,1,0,0,9,1,225,2,1,-152375.43242724554,-4790521.142069872,4198268.924876921,2.26898,2.82176,-0.400931,-101.98,32.6227,43.6082,-0.0707107,-7.40311,7.22606,0.0103312,-0.0104227,-0.0179774,4,0,41.40674012272287,-91.82183240943806,9224.949911857942,-62.18631066793937,3.5526621256197286,-3.899598461549832,198.679,8988.574530004647,11016.82538521552,150,True,6.205670618196594,False,175.40217961990464,174.51897202174825,False,8.657811500799774,True,False
3,1970-07-23 10:16:58.386424572,2025-09-11,2025-09-26 20:17:18.642,HH,C,1825656630,JASSM,3,102,76,2,2,1,225,9,2,0,1,26,0,0,0,0,-161578.52234061187,-4786028.764619674,4203371.839323521,-2.36549,-0.397109,0.382441,73.25,-30.625,-31.875,0.0,0.0,0.0,0.0,0.0,0.0,2,0,41.466115915069054,-91.93359735415184,10002.62814031284,119.86732590269692,-0.0013715602128497,0.0064087138918247,,8988.574530004647,11016.82538521552,150,3,2025-09-11,2025-09-26 20:17:18.510,HH,C,908367790,AMBUSH51,1,1,48,2,1,1,225,2,1,0,0,9,1,225,2,1,-152504.71986024603,-4790480.502576778,4198324.089440898,2.28888,2.83267,-0.403157,-101.983,31.5061,43.6693,-0.0984924,-7.50789,7.3116,0.00519837,0.00453674,0.01159,4,0,41.40732981165464,-91.8233926118625,9254.82124802539,-62.49402489514418,4.057474394833691,-2.5349140583573297,198.19,8988.574530004647,11016.82538521552,150,True,6.082098447994306,False,174.86927609963553,174.37719304500118,False,9.218696507600697,True,False
3,1970-07-23 10:16:58.393259098,2025-09-11,2025-09-26 20:17:19.325,HH,C,1826790204,JASSM,3,102,76,2,2,1,225,9,2,0,1,26,0,0,0,0,-161508.92517264312,-4786057.956025924,4203341.477995396,-2.36549,-0.397013,0.382441,73.25,-30.625,-31.875,0.0,0.0,0.0,0.0,0.0,0.0,2,0,41.465751292840864,-91.93275334268736,10002.622586269048,119.86424744143191,-0.0042111658582602,0.0043576617495913,,8988.574530004647,11016.82538521552,150,3,2025-09-11,2025-09-26 20:17:19.343,HH,C,909361956,AMBUSH51,1,1,48,2,1,1,225,2,1,0,0,9,1,225,2,1,-152590.31727599146,-4790454.270542027,4198360.7319186,2.29968,2.83351,-0.405335,-101.932,30.9528,43.7634,-0.190605,-7.35459,7.23574,-0.000134198,-0.00535233,-0.00721654,4,0,41.407717011201846,-91.8244253325981,9276.52194473791,-62.434752351854975,4.17641348923437,-1.893054843463863,197.665,8988.574530004647,11016.82538521552,150,True,5.987231714368702,False,174.60911309372162,174.26653488688078,False,9.517607813442103,True,False
3,1970-07-23 10:16:58.404117713,2025-09-11,2025-09-26 20:17:20.411,HH,C,1828042198,JASSM,3,102,76,2,2,1,225,9,2,0,1,26,0,0,0,0,-161432.05749686187,-4786090.196260299,4203307.946745396,-2.36549,-0.397013,0.382441,73.25,-30.625,-31.875,0.0,0.0,0.0,0.0,0.0,0.0,2,0,41.46534858898534,-91.93182117234396,10002.622652986334,119.86486469639377,-0.0034048740842689,0.0043562667372767,,8988.574530004647,11016.82538521552,150,3,2025-09-11,2025-09-26 20:17:20.544,HH,C,910793554,AMBUSH51,1,1,48,2,1,1,225,2,1,0,0,9,1,225,2,1,-152712.3475273469,-4790417.445467886,4198412.982544799,2.29705,2.83683,-0.400649,-101.767,30.5741,43.5813,-0.193998,-6.98478,6.8905,0.00476768,-0.00263715,0.000637702,4,0,41.40826567424223,-91.8258974099432,9308.90049199846,-62.75141718104324,4.118828854706129,-1.9922062232871207,196.687,8988.574530004647,11016.82538521552,150,True,5.866144744467349,False,174.45462863211077,174.11498588484895,False,9.832551319789284,True,False
3,1970-07-23 10:16:58.413300381,2025-09-11,2025-09-26 20:17:21.330,HH,C,1829176122,JASSM,3,102,76,2,2,1,225,9,2,0,1,26,0,0,0,0,-161362.43884451812,-4786119.397432174,4203277.575651646,-2.36549,-0.397013,0.382441,73.25,-30.625,-31.875,0.0,0.0,0.0,0.0,0.0,0.0,2,0,41.464983833969605,-91.930976919941,10002.625255800796,119.8654237305059,-0.002674608628974,0.0043549846444866,,8988.574530004647,11016.82538521552,150,3,2025-09-11,2025-09-26 20:17:21.344,HH,C,911747954,AMBUSH51,1,1,48,2,1,1,225,2,1,0,0,9,1,225,2,1,-152792.60153920617,-4790393.325106779,4198447.255136813,2.28449,2.83709,-0.398654,-101.698,30.4241,43.3642,-0.206907,-6.97639,6.93521,-0.0130755,-0.0133897,0.000238228,4,0,41.408625302399045,-91.82686550517973,9330.244381852255,-62.84466172736642,4.050884872676107,-2.712363265197117,196.284,8988.574530004647,11016.82538521552,150,True,5.774648303097261,False,174.3968104938017,173.99870416540926,False,10.046034157370658,True,False
3,1970-07-23 10:16:58.426014280,2025-09-11,2025-09-26 20:17:22.601,HH,C,1830428290,JASSM,3,102,76,2,2,1,225,9,2,0,1,26,0,0,0,0,-161285.55993826812,-4786151.639619674,4203244.038542271,-2.36549,-0.397013,0.382536,73.25,-30.625,-31.875,0.0,0.0,0.0,0.0,0.0,0.0,2,0,41.464581066771714,-91.930044636505,10002.624367851302,119.86988872748442,-0.005788715809962,0.0043533404758221,,8988.574530004647,11016.82538521552,150,3,2025-09-11,2025-09-26 20:17:22.543,HH,C,913179552,AMBUSH51,1,1,48,2,1,1,225,2,1,0,0,9,1,225,2,1,-152915.55127275578,-4790356.499873975,4198499.373587524,2.27097,2.83393,-0.394809,-101.711,30.2964,42.8662,-0.208579,-6.81214,6.82041,-0.0143904,-0.00383558,-0.0121018,4,0,41.40917286543608,-91.82834860248408,9362.423972932023,-62.88978625918335,3.7791273182574394,-3.5603862034826164,195.673,8988.574530004647,11016.82538521552,150,True,5.653275969475227,False,174.33865149460746,173.83115613535017,False,10.388969478356927,True,False
3,1970-07-23 10:16:58.434254114,2025-09-11,2025-09-26 20:17:23.425,HH,C,1831621338,JASSM,3,102,76,2,2,1,225,9,2,0,1,26,0,0,0,0,-161212.31140311187,-4786182.360322799,4203212.083464146,-2.36549,-0.397013,0.382536,73.25,-30.625,-31.875,0.0,0.0,0.0,0.0,0.0,0.0,2,0,41.46419729451945,-91.92915638761072,10002.62637461624,119.87047688554128,-0.0050203826586788,0.0043520555005293,,8988.574530004647,11016.82538521552,150,3,2025-09-11,2025-09-26 20:17:23.344,HH,C,914133950,AMBUSH51,1,1,48,2,1,1,225,2,1,0,0,9,1,225,2,1,-152996.98220428833,-4790332.27574354,4198533.44411174,2.23808,2.83631,-0.387997,-101.86,30.1719,42.3791,-0.0681811,-6.75632,6.61859,-0.105783,-0.00240829,-0.00940325,4,0,41.409531500874486,-91.82933082178783,9383.177200509466,-63.26077844852745,3.601832500852279,-5.416285137646183,195.148,8988.574530004647,11016.82538521552,150,True,5.559097502647218,False,174.25261736949392,173.6980253276677,False,10.72116806812655,True,False
3,1970-07-23 10:16:58.443156689,2025-09-11,2025-09-26 20:17:24.315,HH,C,1832754732,JASSM,3,102,76,2,2,1,225,9,2,0,1,26,0,0,0,0,-161142.72497733062,-4786211.543916549,4203181.724089146,-2.36549,-0.397013,0.382536,73.25,-30.625,-31.875,0.0,0.0,0.0,0.0,0.0,0.0,2,0,41.46383269713412,-91.92831255750092,10002.62464910584,119.8710356273522,-0.0042904602622502,0.0043508296111021,,8988.574530004647,11016.82538521552,150,3,2025-09-11,2025-09-26 20:17:24.310,HH,C,915287182,AMBUSH51,1,1,48,2,1,1,225,2,1,0,0,9,1,225,2,1,-153094.40580058805,-4790303.50012746,4198573.773064257,2.14088,2.84048,-0.384779,-102.223,29.5843,41.67,0.0401667,-6.89471,6.81972,-0.0891379,0.00802589,-0.00987346,4,0,41.40995641105915,-91.83050587746293,9407.579222311935,-63.54814918239472,3.6357140885650914,-10.913641526726517,194.769,8988.574530004647,11016.82538521552,150,False,5.457899787720865,False,173.89349839842745,173.54346205446274,False,11.356857036519616,True,False
3,1970-07-23 10:16:58.453175901,2025-09-11,2025-09-26 20:17:25.317,HH,C,1833888642,JASSM,3,102,76,2,2,1,225,9,2,0,1,26,0,0,0,0,-161073.10681326812,-4786240.739229049,4203151.351042271,-2.36549,-0.397013,0.382536,73.25,-30.625,-31.875,0.0,0.0,0.0,0.0,0.0,0.0,2,0,41.46346793789986,-91.92746835262189,10002.622793381384,119.87159461327364,-0.0035602106286065,0.0043496121408172,,8988.574530004647,11016.82538521552,150,3,2025-09-11,2025-09-26 20:17:25.443,HH,C,916639248,AMBUSH51,1,1,48,2,1,1,225,2,1,0,0,9,1,225,2,1,-153211.58005295246,-4790270.241818761,4198620.514831922,2.02066,2.85739,-0.364904,-103.175,28.4582,39.7417,0.128343,-7.10226,6.93715,-0.0969692,-0.000739651,-0.018071,4,0,41.41044750724045,-91.83191865218146,9436.432836899732,-64.99864247395128,3.5084637279316366,-17.537429047842995,194.463,8988.574530004647,11016.82538521552,150,False,5.345772402331309,False,173.0555198756084,173.35002386780334,False,12.677641826079196,True,False
3,1970-07-23 10:16:58.467216723,2025-09-11,2025-09-26 20:17:26.721,HH,C,1835081480,JASSM,3,102,76,2,2,1,225,9,2,0,1,26,0,0,0,0,-160999.87097342435,-4786271.452119674,4203119.399870396,-2.36549,-0.397013,0.382536,73.25,-30.625,-31.875,0.0,0.0,0.0,0.0,0.0,0.0,2,0,41.46308421601026,-91.9265802890539,10002.626063652877,119.872182635637,-0.002792013043467,0.0043483302321167,,8988.574530004647,11016.82538521552,150,3,2025-09-11,2025-09-26 20:17:26.744,HH,C,918190146,AMBUSH51,1,1,48,2,1,1,225,2,1,0,0,9,1,225,2,1,-153345.8658780665,-4790234.764407738,4198670.155971959,1.93851,2.87339,-0.325608,-104.785,26.8985,36.2923,-0.000576228,-6.25154,6.21713,-0.0130464,-0.0179691,-0.0357665,4,0,41.4109680993848,-91.83353675424716,9467.476772935952,-67.23462382847259,2.596931344236886,-22.052641180077146,193.926,8988.574530004647,11016.82538521552,150,False,5.22299657972668,False,171.53827726642203,173.10058450539051,False,14.80056576850257,True,False
3,1970-07-23 10:16:58.473254521,2025-09-11,2025-09-26 20:17:27.325,HH,C,1836274450,JASSM,3,102,76,2,2,1,225,9,2,0,1,26,0,0,0,0,-160926.62683279935,-4786302.166963424,4203087.442839146,-2.36549,-0.397013,0.382536,73.25,-30.625,-31.875,0.0,0.0,0.0,0.0,0.0,0.0,2,0,41.462700437752986,-91.92569213591712,10002.624484245238,119.87277071283272,-0.0020237257515359,0.0043470427221643,,8988.574530004647,11016.82538521552,150,3,2025-09-11,2025-09-26 20:17:27.143,HH,C,918667346,AMBUSH51,1,1,48,2,1,1,225,2,1,0,0,9,1,225,2,1,-153388.58610292108,-4790223.97097635,4198684.741619935,1.93516,2.87355,-0.310738,-105.296,26.6432,35.1114,-0.0728643,-5.93783,5.83387,-0.00537314,-0.0163504,-0.033871,4,0,41.41112263207556,-91.83405133535256,9475.94886137594,-67.8629212481378,2.020915110001748,-22.26737765959397,193.51,8988.574530004647,11016.82538521552,150,False,5.153174226928049,False,171.09148123306304,172.97039517909758,False,15.47665138607356,True,False
3,1970-07-23 10:16:58.483617472,2025-09-11,2025-09-26 20:17:28.361,HH,C,1837407992,JASSM,3,102,76,2,2,1,225,9,2,0,1,26,0,0,0,0,-160857.03112967435,-4786331.350557174,4203057.077604771,-2.36549,-0.396918,0.382536,73.25,-30.625,-31.875,0.0,0.0,0.0,0.0,0.0,0.0,2,0,41.46233577720195,-91.92484823368768,10002.623220860904,119.86969241029595,-0.0048633474993488,0.0022955553362154,,8988.574530004647,11016.82538521552,150,3,2025-09-11,2025-09-26 20:17:28.311,HH,C,920059178,AMBUSH51,1,1,48,2,1,1,225,2,1,0,0,9,1,225,2,1,-153511.5897143951,-4790193.125949409,4198723.136280817,1.94464,2.87218,-0.271019,-106.78,26.8152,31.0591,-0.0253527,-5.40619,5.38346,0.0203784,-0.0142573,-0.0269135,4,0,41.411541870114526,-91.8355328822514,9493.10398187555,-69.47271304284034,0.4104214221273153,-21.78063352383126,193.62,8988.574530004647,11016.82538521552,150,False,5.041403894806014,False,169.82619828124456,172.6885343226998,False,17.30272192939045,True,False
3,1970-07-23 10:16:58.492182223,2025-09-11,2025-09-26 20:17:29.218,HH,C,1838601304,JASSM,3,102,76,2,2,1,225,9,2,0,1,26,0,0,0,0,-160783.76599295562,-4786362.073213424,4203025.110807896,-2.36549,-0.396918,0.382536,73.25,-30.625,-31.875,0.0,0.0,0.0,0.0,0.0,0.0,2,0,41.461951877333576,-91.92395984678429,10002.62523669768,119.87028063362982,-0.0040948411243563,0.0022942200526703,,8988.574530004647,11016.82538521552,150,3,2025-09-11,2025-09-26 20:17:29.109,HH,C,921013576,AMBUSH51,1,1,48,2,1,1,225,2,1,0,0,9,1,225,2,1,-153597.4609175346,-4790171.639049084,4198746.895046628,1.95532,2.87045,-0.249511,-107.847,27.1264,28.2952,-0.0576358,-5.41094,5.52823,0.019569,-0.00968621,-0.0349301,4,0,41.41181370446824,-91.8365671708276,9498.591481612975,-70.3056253138932,-0.5026976582915118,-21.193263934044197,193.852,8988.574530004647,11016.82538521552,150,False,4.948817013377043,False,168.86492485691946,172.4477597022686,False,18.611763777615426,True,False
3,1970-07-23 10:16:58.502194748,2025-09-11,2025-09-26 20:17:30.219,HH,C,1839734698,JASSM,3,102,76,2,2,1,225,9,2,0,1,26,0,0,0,0,-160714.17956717435,-4786391.250947799,4202994.747526646,-2.36549,-0.396918,0.382536,73.25,-30.625,-31.875,0.0,0.0,0.0,0.0,0.0,0.0,2,0,41.46158725023969,-91.92311607724704,10002.621563607772,119.87083931053516,-0.0033649243108087,0.0022929541987095,,8988.574530004647,11016.82538521552,150,3,2025-09-11,2025-09-26 20:17:30.409,HH,C,922564476,AMBUSH51,1,1,48,2,1,1,225,2,1,0,0,9,1,225,2,1,-153739.2938336132,-4790135.580852679,4198781.442566002,1.98162,2.86487,-0.205264,-109.424,28.0476,24.0712,-0.0438373,-5.09829,4.93294,0.00551254,-0.0148003,-0.0350715,4,0,41.412234365551576,-91.83827573432912,9496.078371914213,-71.94099195676598,-2.464834753810016,-19.716191447382005,195.111,8988.574530004647,11016.82538521552,150,False,4.829175995526147,False,167.35320708839507,172.06366472573936,False,20.579746066202116,True,False
3,1970-07-23 10:16:58.513214817,2025-09-11,2025-09-26 20:17:31.321,HH,C,1841106058,JASSM,3,102,76,2,2,1,225,9,2,0,1,26,0,0,0,0,-160629.98278983062,-4786426.555635299,4202958.009245396,-2.36549,-0.396918,0.382536,73.25,-30.625,-31.875,0.0,0.0,0.0,0.0,0.0,0.0,2,0,41.46114605349496,-91.92209516234853,10002.62378355331,119.8715152735717,-0.0024817518930128,0.0022914189075716,,8988.574530004647,11016.82538521552,150,3,2025-09-11,2025-09-26 20:17:31.209,HH,C,923518874,AMBUSH51,1,1,48,2,1,1,225,2,1,0,0,9,1,225,2,1,-153827.26272274397,-4790112.790048433,4198799.486689049,1.98341,2.85974,-0.183243,-110.407,28.8904,21.2747,0.1903,-5.36688,4.95193,0.0409638,-0.010637,-0.0169641,4,0,41.4124749608966,-91.83933560990371,9486.134405307886,-72.66369761859029,-3.5388122215635023,-19.632838833172407,195.783,8988.574530004647,11016.82538521552,150,False,4.73027112703427,False,166.31957012465415,171.75787805010268,False,21.917098149049373,True,False
3,1970-07-23 10:16:58.525613961,2025-09-11,2025-09-26 20:17:32.561,HH,C,1842418408,JASSM,3,102,76,2,2,1,225,9,2,0,1,26,0,0,0,0,-160549.40905936187,-4786460.338838424,4202922.851042271,-2.36549,-0.396918,0.382632,73.25,-30.625,-31.875,0.0,0.0,0.0,0.0,0.0,0.0,2,0,41.46072384156314,-91.92111819202108,10002.623190314867,119.87600995243936,-0.005556960292497,0.0022897149660569,,8988.574530004647,11016.82538521552,150,3,2025-09-11,2025-09-26 20:17:32.409,HH,C,924950472,AMBUSH51,1,1,48,2,1,1,225,2,1,0,0,9,1,225,2,1,-153959.6921285703,-4790077.561068216,4198823.179602233,2.12748,2.86331,-0.151208,-111.888,29.8704,18.0279,-0.132039,-5.97842,5.64149,0.0827421,-0.0024499,-0.0233224,4,0,41.41281918144372,-91.84093152888576,9461.379207384036,-74.1446032524552,-4.647060655503557,-11.2380972513794,197.628,8988.574530004647,11016.82538521552,150,False,4.611024514806985,False,164.9965191827885,171.3139804888506,False,23.64768032701761,True,False
3,1970-07-23 10:16:58.535256408,2025-09-11,2025-09-26 20:17:33.525,HH,C,1843671536,JASSM,3,102,76,2,2,1,225,9,2,0,1,26,0,0,0,0,-160472.47107108062,-4786492.596650924,4202889.278776646,-2.36549,-0.396918,0.382632,73.25,-30.625,-31.875,0.0,0.0,0.0,0.0,0.0,0.0,2,0,41.460320675814,-91.92018531791598,10002.623343961708,119.8766276120947,-0.0047499338864881,0.0022883746711801,,8988.574530004647,11016.82538521552,150,3,2025-09-11,2025-09-26 20:17:33.643,HH,C,926421838,AMBUSH51,1,1,48,2,1,1,225,2,1,0,0,9,1,225,2,1,-154099.35350183723,-4790040.280008957,4198844.0946235135,2.21209,2.8629,-0.139277,-113.413,30.4158,16.0444,-0.0630534,-6.67384,6.28051,0.0235638,-0.00151779,0.0038335,4,0,41.41315545706423,-91.84261467260218,9426.13088879794,-74.63022317908128,-5.130328257716866,-6.352748942071883,199.571,8988.574530004647,11016.82538521552,150,True,4.491573105349518,False,164.08276414209044,170.81220934981718,False,25.03426395609145,True,False
3,1970-07-23 10:16:58.546440889,2025-09-11,2025-09-26 20:17:34.644,HH,C,1844983458,JASSM,3,102,76,2,2,1,225,9,2,0,1,26,0,0,0,0,-160391.92370779935,-4786526.368135299,4202854.130339146,-2.36549,-0.396918,0.382632,73.25,-30.625,-31.875,0.0,0.0,0.0,0.0,0.0,0.0,2,0,41.45989857799272,-91.91920869232597,10002.626247946588,119.87727423449168,-0.0039050423351759,0.0022869625795596,,8988.574530004647,11016.82538521552,150,3,2025-09-11,2025-09-26 20:17:34.443,HH,C,927376236,AMBUSH51,1,1,48,2,1,1,225,2,1,0,0,9,1,225,2,1,-154190.50526760888,-4790015.878345848,4198856.765185623,2.23206,2.8645,-0.13394,-114.418,30.5209,15.4804,-0.0525342,-6.99437,6.49017,0.0306461,-0.00204418,-0.00403947,4,0,41.41336871987015,-91.843713236913,9400.833485236457,-74.91785748695433,-5.271671115783957,-5.169770342026369,201.197,8988.574530004647,11016.82538521552,150,True,4.39520772141993,False,163.75115983368133,170.42472504125172,False,25.748859344490196,True,False
3,1970-07-23 10:16:58.557612332,2025-09-11,2025-09-26 20:17:35.761,HH,C,1846296558,JASSM,3,102,76,2,2,1,225,9,2,0,1,26,0,0,0,0,-160311.30359061187,-4786560.166963424,4202818.948698521,-2.36549,-0.396918,0.382632,73.25,-30.625,-31.875,0.0,0.0,0.0,0.0,0.0,0.0,2,0,41.45947609958343,-91.91823119855312,10002.622788287832,119.8779214262908,-0.003059392885946,0.0022855565098033,,8988.574530004647,11016.82538521552,150,3,2025-09-11,2025-09-26 20:17:35.843,HH,C,929046436,AMBUSH51,1,1,48,2,1,1,225,2,1,0,0,9,1,225,2,1,-154351.73613952607,-4789973.526820448,4198878.036122459,2.23845,2.87227,-0.131343,-115.893,28.8194,16.3883,-0.146845,-7.41601,6.79665,-0.0366674,0.00458251,-0.0013139,4,0,41.41373339425271,-91.84565610907067,9355.615457593643,-75.33066798323304,-5.048930524642667,-4.707845206520276,203.787,8988.574530004647,11016.82538521552,150,True,4.264061076591889,False,163.6177600386018,169.78122425743183,False,26.576053961831775,True,False
3,1970-07-23 10:16:58.568174757,2025-09-11,2025-09-26 20:17:36.817,HH,C,1847667812,JASSM,3,102,76,2,2,1,225,9,2,0,1,26,0,0,0,0,-160227.11316092435,-4786595.463838424,4202782.208464146,-2.36549,-0.396918,0.382632,73.25,-30.625,-31.875,0.0,0.0,0.0,0.0,0.0,0.0,2,0,41.45903489141425,-91.9172104288994,10002.62590377583,119.87859726496085,-0.0021762873805105,0.0022840786599856,,8988.574530004647,11016.82538521552,150,3,2025-09-11,2025-09-26 20:17:36.976,HH,C,930398500,AMBUSH51,1,1,48,2,1,1,225,2,1,0,0,9,1,225,2,1,-154483.07951712474,-4789940.090202041,4198895.046709128,2.2,2.88473,-0.141715,-117.45,28.7505,15.4874,-0.181494,-8.1271,7.57438,-0.0378367,0.0149543,0.00333415,4,0,41.414021971481,-91.84723844162193,9320.71846195583,-75.37816730445861,-4.125121951107492,-6.809953664983284,205.62,8988.574530004647,11016.82538521552,150,True,4.1465242546325065,False,163.06750223675343,169.1925271789328,False,27.713055658448575,True,False
3,1970-07-23 10:16:58.579195293,2025-09-11,2025-09-26 20:17:37.919,HH,C,1848920512,JASSM,3,102,76,2,2,1,225,9,2,0,1,26,0,0,0,0,-160150.20153983062,-4786627.706025924,4202748.644011021,-2.36549,-0.396822,0.382632,73.25,-30.625,-31.875,0.0,0.0,0.0,0.0,0.0,0.0,2,0,41.45863183434639,-91.9162779247135,10002.624207133986,119.87557785236262,-0.0049391680800059,0.0002319860892608,,8988.574530004647,11016.82538521552,150,3,2025-09-11,2025-09-26 20:17:37.876,HH,C,931472200,AMBUSH51,1,1,48,2,1,1,225,2,1,0,0,9,1,225,2,1,-154588.75840469764,-4789914.9650284005,4198909.121713478,2.17645,2.90994,-0.156026,-118.395,26.6646,16.0485,-0.211421,-9.30104,8.59673,-0.0259814,0.0202348,-0.00469486,4,0,41.41424618700384,-91.84851091479769,9297.862178490492,-75.7469014980423,-2.518646149288222,-7.923567366333973,206.977,8988.574530004647,11016.82538521552,150,True,4.046952031371573,False,162.72080786559286,168.67514488844924,False,28.60143760829984,True,False
3,1970-07-23 10:16:58.589216668,2025-09-11,2025-09-26 20:17:38.921,HH,C,1850173728,JASSM,3,102,76,2,2,1,225,9,2,0,1,26,0,0,0,0,-160073.25769217435,-4786659.961885299,4202715.063932896,-2.36549,-0.396822,0.382632,73.25,-30.625,-31.875,0.0,0.0,0.0,0.0,0.0,0.0,2,0,41.45822858930696,-91.9153450412904,10002.623672472922,119.87619549265048,-0.0041320765774628,0.0002305856671662,,8988.574530004647,11016.82538521552,150,3,2025-09-11,2025-09-26 20:17:39.076,HH,C,932903798,AMBUSH51,1,1,48,2,1,1,225,2,1,0,0,9,1,225,2,1,-154731.15506653071,-4789885.010727008,4198928.709843704,2.17067,2.9393,-0.168483,-119.169,22.9474,16.882,-0.0761074,-9.92224,8.3595,0.00367953,0.0232538,-0.00863343,4,0,41.41452927788452,-91.85022401708838,9278.017970098012,-76.34296364835697,-0.8110925822265485,-7.966088063748703,206.977,8988.574530004647,11016.82538521552,150,True,3.9305636300065503,False,162.00730918265427,167.97961377508634,False,29.995750667507984,True,False
3,1970-07-23 10:16:58.600234240,2025-09-11,2025-09-26 20:17:40.023,HH,C,1851485810,JASSM,3,102,76,2,2,1,225,9,2,0,1,26,0,0,0,0,-159992.70007498687,-4786693.731416549,4202679.905729771,-2.36549,-0.396822,0.382632,73.25,-30.625,-31.875,0.0,0.0,0.0,0.0,0.0,0.0,2,0,41.457806398048426,-91.91436835665422,10002.622297140431,119.87684212740297,-0.0032870796492513,0.0002291199884241,,8988.574530004647,11016.82538521552,150,3,2025-09-11,2025-09-26 20:17:40.209,HH,C,934255864,AMBUSH51,1,1,48,2,1,1,225,2,1,0,0,9,1,225,2,1,-154867.06821556768,-4789860.853988651,4198948.136895612,2.18834,2.96375,-0.174712,-119.345,19.3108,17.6503,-0.132516,-9.75088,8.12168,0.0450126,0.024421,-0.00875202,4,0,41.414778005969445,-91.85185742344348,9271.576782340211,-77.00721731716732,0.4522600917896793,-6.712085952448247,206.158,8988.574530004647,11016.82538521552,150,True,3.8165924932298907,False,161.21379716786151,167.2527380630627,False,31.4448036004572,False,False
3,1970-07-23 10:16:58.611273079,2025-09-11,2025-09-26 20:17:41.127,HH,C,1852797910,JASSM,3,102,76,2,2,1,225,9,2,0,1,26,0,0,0,0,-159912.14148123687,-4786727.500947799,4202644.747526646,-2.3654,-0.396822,0.382632,73.25,-30.625,-31.875,0.0,0.0,0.0,0.0,0.0,0.0,2,0,41.45738419866108,-91.91339167300966,10002.625397619717,119.87748875608348,-0.0024420751680615,0.005719130893788,,8988.574530004647,11016.82538521552,150,3,2025-09-11,2025-09-26 20:17:41.076,HH,C,935289796,AMBUSH51,1,1,48,2,1,1,225,2,1,0,0,9,1,225,2,1,-154969.23548744805,-4789845.039103258,4198963.675343482,2.20875,2.98026,-0.179506,-119.019,17.0041,18.32,-0.227485,-9.28225,7.73571,0.0278893,0.0171909,-0.0084649,4,0,41.41495732478446,-91.85308437398268,9274.534712437382,-77.42733826502536,1.3289838355985384,-5.382745199352198,205.339,8988.574530004647,11016.82538521552,150,True,3.719432422055367,False,160.7485590704535,166.63069550592542,False,32.456972090905595,False,False
3,1970-07-23 10:16:58.622138514,2025-09-11,2025-09-26 20:17:42.213,HH,C,1854110264,JASSM,3,102,76,2,2,1,225,9,2,0,1,26,0,0,0,0,-159831.56677420562,-4786761.276338424,4202609.581511021,-2.3654,-0.396822,0.382728,73.25,-30.625,-31.875,0.0,0.0,0.0,0.0,0.0,0.0,2,0,41.45696190656895,-91.91241480703876,10002.629161632743,119.88198345899404,-0.0055171358793001,0.0057174304163499,,8988.574530004647,11016.82538521552,150,3,2025-09-11,2025-09-26 20:17:42.243,HH,C,936681628,AMBUSH51,1,1,48,2,1,1,225,2,1,0,0,9,1,225,2,1,-155108.2368598956,-4789826.255112205,4198985.1437723655,2.24035,2.99153,-0.181054,-118.301,15.013,18.5534,-0.219039,-8.43786,6.78653,0.00913693,0.00777414,-0.0102396,4,0,41.4151872250705,-91.8547526266887,9285.999614029352,-77.78637977615244,1.8621822664217464,-3.466076648432764,203.751,8988.574530004647,11016.82538521552,150,True,3.606329220211956,False,160.23428181083065,165.79492617263438,False,33.73839270866137,False,False
3,1970-07-23 10:16:58.633154996,2025-09-11,2025-09-26 20:17:43.315,HH,C,1855362962,JASSM,3,102,76,2,2,1,225,9,2,0,1,26,0,0,0,0,-159754.65515311187,-4786793.514619674,4202576.011198521,-2.3654,-0.396822,0.382728,73.25,-30.625,-31.875,0.0,0.0,0.0,0.0,0.0,0.0,2,0,41.45655879422525,-91.91148236379756,10002.626496064006,119.88260078749084,-0.0047103807667117,0.005716079885113,,8988.574530004647,11016.82538521552,150,3,2025-09-11,2025-09-26 20:17:43.509,HH,C,938192758,AMBUSH51,1,1,48,2,1,1,225,2,1,0,0,9,1,225,2,1,-155255.95759674092,-4789808.362374794,4199008.4353335975,2.2641,3.00256,-0.189204,-117.123,13.4628,18.7669,-0.09759,-8.26569,6.51456,0.0284012,-0.00579134,-0.000494141,4,0,41.41542242080352,-91.8565247358862,9304.318324725416,-77.85334175982457,2.638096447215307,-1.9916765712094573,201.673,8988.574530004647,11016.82538521552,150,True,3.4927462331116224,False,159.87554424008576,164.86650637151712,False,34.96398601984076,False,False
3,1970-07-23 10:16:58.643174092,2025-09-11,2025-09-26 20:17:44.317,HH,C,1856616304,JASSM,3,102,76,2,2,1,225,9,2,0,1,26,0,0,0,0,-159677.70398123687,-4786825.766572799,4202542.425261021,-2.3654,-0.396822,0.382728,73.25,-30.625,-31.875,0.0,0.0,0.0,0.0,0.0,0.0,2,0,41.45615549534924,-91.91054945377452,10002.624401223697,119.8832184200816,-0.003903225614772,0.005714752778491,,8988.574530004647,11016.82538521552,150,3,2025-09-11,2025-09-26 20:17:44.275,HH,C,939107392,AMBUSH51,1,1,48,2,1,1,225,2,1,0,0,9,1,225,2,1,-155345.31327082368,-4789798.183778306,4199022.799477745,2.27298,3.00593,-0.187699,-116.407,12.8435,18.8951,-0.198192,-7.91586,6.46404,0.0100129,0.00129725,0.00315938,4,0,41.415562697567566,-91.85759643241391,9317.587361327209,-78.04486535407972,2.72320741518301,-1.4555216190204383,200.5,8988.574530004647,11016.82538521552,150,True,3.4061710863979955,False,159.76062805285028,164.18717833186471,False,35.72931791026615,False,False
3,1970-07-23 10:16:58.655193861,2025-09-11,2025-09-26 20:17:45.519,HH,C,1857987878,JASSM,3,102,76,2,2,1,225,9,2,0,1,26,0,0,0,0,-159593.49353201812,-4786861.063447799,4202505.667448521,-2.3654,-0.396822,0.382728,73.25,-30.625,-31.875,0.0,0.0,0.0,0.0,0.0,0.0,2,0,41.455714104181375,-91.90952854890033,10002.625145401787,119.88389430395792,-0.0030199069704231,0.005713267913226,,8988.574530004647,11016.82538521552,150,3,2025-09-11,2025-09-26 20:17:45.643,HH,C,940737822,AMBUSH51,1,1,48,2,1,1,225,2,1,0,0,9,1,225,2,1,-155504.05077970048,-4789780.584037359,4199048.405912463,2.27444,2.99834,-0.183076,-115.181,12.8023,18.3638,-0.169075,-6.76007,5.70308,-0.000689717,-0.0224423,-0.00253937,4,0,41.41580960092632,-91.859500088112,9342.548809450873,-77.95931404578049,2.2293881389525847,-1.4481937194358925,198.386,8988.574530004647,11016.82538521552,150,True,3.285361849882362,False,159.68947104672574,163.05849217139706,False,36.95403532209643,False,False
3,1970-07-23 10:16:58.665216573,2025-09-11,2025-09-26 20:17:46.521,HH,C,1859240630,JASSM,3,102,76,2,2,1,225,9,2,0,1,26,0,0,0,0,-159516.57946951812,-4786893.299775924,4202472.095182896,-2.3654,-0.396822,0.382728,73.25,-30.625,-31.875,0.0,0.0,0.0,0.0,0.0,0.0,2,0,41.45531096729745,-91.90859611298988,10002.626092744486,119.88451161232264,-0.0022131326931029,0.0057119269714764,,8988.574530004647,11016.82538521552,150,3,2025-09-11,2025-09-26 20:17:46.442,HH,C,941692222,AMBUSH51,1,1,48,2,1,1,225,2,1,0,0,9,1,225,2,1,-155595.86089974266,-4789769.974479656,4199062.814883892,2.27576,2.99006,-0.173283,-114.67,13.5025,17.5651,-0.228387,-6.27254,5.3922,-0.00724151,-0.0269468,-0.0061596,4,0,41.415952242011,-91.86060129026878,9355.06323012424,-78.06706022429117,1.5081377873634607,-1.4600221617345033,197.494,8988.574530004647,11016.82538521552,150,True,3.1991913697384344,False,159.72795747404854,162.26977470424887,False,37.76522244379553,False,False
3,1970-07-23 10:16:58.677254361,2025-09-11,2025-09-26 20:17:47.725,HH,C,1860552714,JASSM,3,102,76,2,2,1,225,9,2,0,1,26,0,0,0,0,-159436.01989920562,-4786927.061494674,4202436.931120396,-2.3654,-0.396726,0.382728,73.25,-30.625,-31.875,0.0,0.0,0.0,0.0,0.0,0.0,2,0,41.454888725917655,-91.90761949565372,10002.624114438666,119.88152162747566,-0.0049377474451072,0.0036592891766244,,8988.574530004647,11016.82538521552,150,3,2025-09-11,2025-09-26 20:17:47.742,HH,C,943243120,AMBUSH51,1,1,48,2,1,1,225,2,1,0,0,9,1,225,2,1,-155744.32106522136,-4789751.007276817,4199084.23299062,2.27589,2.97017,-0.154821,-114.12,15.5263,15.4836,-0.170102,-5.84462,4.83964,0.0118271,-0.0196439,-0.00378564,4,0,41.41618095229052,-91.86238268370516,9366.771179874608,-78.1033384846765,-0.0339484050513151,-1.6394295554782878,196.333,8988.574530004647,11016.82538521552,150,True,3.0873892894336215,False,159.7636717254629,161.0626289055162,False,39.06967754019321,False,False
3,1970-07-23 10:16:58.687254177,2025-09-11,2025-09-26 20:17:48.725,HH,C,1861806058,JASSM,3,102,76,2,2,1,225,9,2,0,1,26,0,0,0,0,-159359.06872733062,-4786959.311494674,4202403.339323521,-2.3654,-0.396726,0.382728,73.25,-30.625,-31.875,0.0,0.0,0.0,0.0,0.0,0.0,2,0,41.45448536770833,-91.9066866342676,10002.621706557238,119.88213920749828,-0.0041305787544091,0.0036578862299511,,8988.574530004647,11016.82538521552,150,3,2025-09-11,2025-09-26 20:17:48.609,HH,C,944277052,AMBUSH51,1,1,48,2,1,1,225,2,1,0,0,9,1,225,2,1,-155842.24689264572,-4789736.9993834365,4199097.056165427,2.2811,2.96164,-0.143681,-113.915,16.8811,14.1972,0.0222318,-6.09071,4.98633,-0.0150125,-0.0169038,0.00527119,4,0,41.416331900334015,-91.863558296599,9367.988137383209,-78.25414391500618,-0.8193835962768655,-1.4124517255692373,196.321,8988.574530004647,11016.82538521552,150,True,3.000313189632064,False,159.75783336656613,160.11841581219025,False,40.07730832892095,False,False
3,1970-07-23 10:16:58.698814877,2025-09-11,2025-09-26 20:17:49.881,HH,C,1863177936,JASSM,3,102,76,2,2,1,225,9,2,0,1,26,0,0,0,0,-159274.83923514312,-4786994.610322799,4202366.571745396,-2.3654,-0.396726,0.382728,73.25,-30.5,-31.875,0.0,0.0,0.0,0.0,0.0,0.0,2,0,41.45404386840649,-91.90566555331952,10002.62332063281,119.88281518564348,-0.0032470747611612,0.0036563665335476,,8988.574530004647,11016.82538521552,150,3,2025-09-11,2025-09-26 20:17:49.775,HH,C,945668884,AMBUSH51,1,1,48,2,1,1,225,2,1,0,0,9,1,225,2,1,-155975.04798017835,-4789716.474330395,4199113.02293759,2.2828,2.95633,-0.137527,-113.863,17.8958,13.223,-0.112956,-6.63125,5.84209,0.00142833,-0.0155576,-0.00890391,4,0,41.41653607672762,-91.865153194966,9362.799281657046,-78.31433309275253,-1.2784099639184945,-1.3565015019935498,196.516,8988.574530004647,11016.82538521552,150,True,2.895443350951905,False,159.75732156649818,158.79467864768887,False,41.4336608129074,False,False
3,1970-07-23 10:16:58.710134426,2025-09-11,2025-09-26 20:17:51.013,HH,C,1864549396,JASSM,3,102,76,2,2,1,225,9,2,0,1,26,0,0,0,0,-159190.63513358062,-4787029.897432174,4202329.813932896,-2.3654,-0.396726,0.382728,73.25,-30.5,-31.875,0.0,0.0,0.0,0.0,0.0,0.0,2,0,41.45360249063079,-91.90464479444204,10002.624400948698,119.88349094465316,-0.0023638360770335,0.0036548449546451,,8988.574530004647,11016.82538521552,150,3,2025-09-11,2025-09-26 20:17:50.909,HH,C,947020950,AMBUSH51,1,1,48,2,1,1,225,2,1,0,0,9,1,225,2,1,-156103.86320621014,-4789695.702142338,4199127.63320248,2.28028,2.95144,-0.135231,-113.884,17.9925,13.0383,-0.332844,-6.81978,6.02021,-0.00654035,0.00551046,0.00177163,4,0,41.41673331936008,-91.8667005708822,9353.748527170284,-78.22683890431776,-1.5708839672749848,-1.5409185874491562,196.773,8988.574530004647,11016.82538521552,150,True,2.7937758278071274,False,159.7143691444423,157.44361491659254,False,42.83020048285564,False,False
3,1970-07-23 10:16:58.720154876,2025-09-11,2025-09-26 20:17:52.015,HH,C,1865802102,JASSM,3,102,76,2,2,1,225,9,2,0,1,26,0,0,0,0,-159113.72302420562,-4787062.127900924,4202296.237761021,-2.3654,-0.396726,0.382728,73.25,-30.5,-31.875,0.0,0.0,0.0,0.0,0.0,0.0,2,0,41.453199322171706,-91.90371244469314,10002.624376666476,119.8841081702087,-0.0015570823428539,0.003653450115705,,8988.574530004647,11016.82538521552,150,3,2025-09-11,2025-09-26 20:17:52.010,HH,C,948333248,AMBUSH51,1,1,48,2,1,1,225,2,1,0,0,9,1,225,2,1,-156228.93866430206,-4789674.8105481295,4199141.131045429,2.27949,2.94477,-0.132276,-113.926,19.2705,11.8222,-0.137847,-6.97411,5.91555,-0.0130963,-0.0102396,-0.00981104,4,0,41.4169244698027,-91.86820331516168,9341.698644562344,-78.09837648562478,-1.9642485247529389,-1.640932333124699,197.188,8988.574530004647,11016.82538521552,150,True,2.6994456975175516,False,159.61443382328486,156.0596920165174,False,44.32584348929615,False,False
3,1970-07-23 10:16:58.731172119,2025-09-11,2025-09-26 20:17:53.117,HH,C,1867114980,JASSM,3,102,76,2,2,1,225,9,2,0,1,26,0,0,0,0,-159033.11560233062,-4787095.905244674,4202261.048307896,-2.3654,-0.396726,0.382824,73.25,-30.5,-31.875,0.0,0.0,0.0,0.0,0.0,0.0,2,0,41.45277678434133,-91.9027353124032,10002.624529424162,119.8886031372521,-0.0046316676998275,0.0036518166662538,,8988.574530004647,11016.82538521552,150,3,2025-09-11,2025-09-26 20:17:53.109,HH,C,949645546,AMBUSH51,1,1,48,2,1,1,225,2,1,0,0,9,1,225,2,1,-156355.26731539617,-4789653.258195418,4199154.162987064,2.27503,2.94716,-0.135722,-114.052,19.4653,11.4886,-0.176063,-7.62427,6.46072,-0.0564933,0.0105413,-0.00437653,4,0,41.41711614486512,-91.86972130297818,9327.12168493127,-78.04434348061723,-1.7300360421898036,-1.880310189035952,197.751,8988.574530004647,11016.82538521552,150,True,2.6042691276561936,False,159.52710324557762,154.5417723111972,False,45.930901377148096,False,False
3,1970-07-23 10:16:58.743198884,2025-09-11,2025-09-26 20:17:54.319,HH,C,1868486472,JASSM,3,102,76,2,2,1,225,9,2,0,1,26,0,0,0,0,-158948.91052420562,-4787131.190400924,4202224.284636021,-2.3654,-0.396726,0.382824,73.25,-30.5,-31.875,0.0,0.0,0.0,0.0,0.0,0.0,2,0,41.45233535276901,-91.9017145823542,10002.622293317978,119.88927886029184,-0.0037484078350195,0.0036503343493834,,8988.574530004647,11016.82538521552,150,3,2025-09-11,2025-09-26 20:17:54.343,HH,C,951116912,AMBUSH51,1,1,48,2,1,1,225,2,1,0,0,9,1,225,2,1,-156494.7888462047,-4789629.856175637,4199168.738637951,2.27667,2.95184,-0.140239,-114.161,18.6141,11.8722,-0.111082,-7.93371,6.73048,0.0571654,0.00921599,-0.015903,4,0,41.41732666066915,-91.87139767502728,9312.415267403503,-78.03232543378572,-1.3580198137505275,-1.749554875365241,198.19,8988.574530004647,11016.82538521552,150,True,2.504186641182891,False,159.42453462954157,152.7639840870411,False,47.80983340753833,False,False
3,1970-07-23 10:16:58.753234060,2025-09-11,2025-09-26 20:17:55.323,HH,C,1869739172,JASSM,3,102,76,2,2,1,225,9,2,0,1,26,0,0,0,0,-158871.99939139312,-4787163.416963424,4202190.706511021,-2.3654,-0.396726,0.382824,73.25,-30.5,-31.875,0.0,0.0,0.0,0.0,0.0,0.0,2,0,41.45193217036582,-91.90078228211851,10002.621558505054,119.88989603764578,-0.0029416673550787,0.0036489972265691,,8988.574530004647,11016.82538521552,150,3,2025-09-11,2025-09-26 20:17:55.275,HH,C,952230378,AMBUSH51,1,1,48,2,1,1,225,2,1,0,0,9,1,225,2,1,-156602.1760486474,-4789612.503251654,4199179.958305237,2.29111,2.95962,-0.133721,-114.297,18.1751,12.1485,-0.109478,-8.02607,6.86974,0.00353805,-0.00244158,0.0109096,4,0,41.41748475893541,-91.87268769973926,9302.726307889474,-78.60671755458726,-1.2801247430507108,-0.8479135808184638,198.08,8988.574530004647,11016.82538521552,150,True,2.4224179391108724,False,159.39116587241327,151.2085745376079,False,49.394967192716976,False,False
3,1970-07-23 10:16:58.763275584,2025-09-11,2025-09-26 20:17:56.327,HH,C,1870932898,JASSM,3,102,76,2,2,1,225,9,2,0,1,26,0,0,0,0,-158798.70642264312,-4787194.127900924,4202158.708464146,-2.3654,-0.396726,0.382824,73.25,-30.5,-31.875,0.0,0.0,0.0,0.0,0.0,0.0,2,0,41.45154794849148,-91.8998938510661,10002.62673522875,119.89048416926144,-0.0021728788076234,0.0036477234717799,,8988.574530004647,11016.82538521552,150,3,2025-09-11,2025-09-26 20:17:56.209,HH,C,953343844,AMBUSH51,1,1,48,2,1,1,225,2,1,0,0,9,1,225,2,1,-156707.63553036458,-4789595.736615527,4199191.605791532,2.29625,2.95798,-0.142076,-114.36,17.8471,12.6023,-0.0620241,-7.66558,6.79011,0.00482386,-0.00141584,0.00956762,4,0,41.4176426168027,-91.87395446687596,9295.258622275624,-78.1899908230444,-1.0271052349413012,-0.5750991177087451,198.044,8988.574530004647,11016.82538521552,150,True,2.3450422850463277,False,159.46197325842402,149.59670645128563,False,50.9300754229217,False,False
3,1970-07-23 10:16:58.774272045,2025-09-11,2025-09-26 20:17:57.427,HH,C,1872244570,JASSM,3,102,76,2,2,1,225,9,2,0,1,26,0,0,0,0,-158718.17321951812,-4787227.870088424,4202123.546354771,-2.3654,-0.39663,0.382824,73.25,-30.5,-31.875,0.0,0.0,0.0,0.0,0.0,0.0,2,0,41.451125757230805,-91.89891766958276,10002.623745111809,119.8874941168056,-0.0048977580358341,0.0015945844784098,,8988.574530004647,11016.82538521552,150,3,2025-09-11,2025-09-26 20:17:57.408,HH,C,954775442,AMBUSH51,1,1,48,2,1,1,225,2,1,0,0,9,1,225,2,1,-156845.41024126616,-4789574.176890172,4199207.052258447,2.30077,2.95825,-0.142689,-114.209,17.7288,12.8582,-0.164331,-7.57111,6.49954,0.00806751,-0.0122994,0.0018923,4,0,41.41784832630266,-91.87560927657226,9286.857975809564,-78.17530298768015,-0.9908901029487416,-0.3136881695054362,198.154,8988.574530004647,11016.82538521552,150,True,2.2550683612902263,False,159.53715891703257,147.45750605402705,False,52.99073565489682,False,False
3,1970-07-23 10:16:58.784155345,2025-09-11,2025-09-26 20:17:58.415,HH,C,1873437616,JASSM,3,102,76,2,2,1,225,9,2,0,1,26,0,0,0,0,-158644.92321951812,-4787258.559541549,4202091.565886021,-2.3654,-0.39663,0.382824,73.25,-30.5,-31.875,0.0,0.0,0.0,0.0,0.0,0.0,2,0,41.450741758920486,-91.89802978275026,10002.62571071583,119.88808187883498,-0.0041294274244341,0.001593273186887,,8988.574530004647,11016.82538521552,150,3,2025-09-11,2025-09-26 20:17:58.342,HH,C,955888908,AMBUSH51,1,1,48,2,1,1,225,2,1,0,0,9,1,225,2,1,-156950.95863233606,-4789557.76787206,4199219.111599625,2.2975,2.95728,-0.144608,-114.126,17.5144,13.1137,-0.180493,-7.75369,6.3972,0.0041976,-0.00429955,0.00221479,4,0,41.41800678647626,-91.8768769822556,9281.184394659424,-78.05753726618804,-0.9570963318982304,-0.5111543888166248,198.117,8988.574530004647,11016.82538521552,150,True,2.182338933712085,False,159.57632925829512,145.59507407657395,False,54.80865366115756,False,False
3,1970-07-23 10:16:58.794193952,2025-09-11,2025-09-26 20:17:59.419,HH,C,1874630676,JASSM,3,102,76,2,2,1,225,9,2,0,1,26,0,0,0,0,-158571.67321951812,-4787289.248994674,4202059.581511021,-2.3654,-0.39663,0.382824,73.25,-30.5,-31.875,0.0,0.0,0.0,0.0,0.0,0.0,2,0,41.45035772738245,-91.89714190638966,10002.622959393915,119.88866962945582,-0.0033610836314844,0.0015919390205633,,8988.574530004647,11016.82538521552,150,3,2025-09-11,2025-09-26 20:17:59.575,HH,C,957360272,AMBUSH51,1,1,48,2,1,1,225,2,1,0,0,9,1,225,2,1,-157092.2823635704,-4789535.811505208,4199235.518912919,2.29913,2.95649,-0.146145,-114.072,17.4438,13.3611,-0.154271,-7.48821,6.52661,-0.00587872,0.00127228,-0.000136279,4,0,41.418220606682034,-91.87857437839534,9274.197953299932,-77.9632142150201,-0.9300192262902766,-0.4259620779315711,197.787,8988.574530004647,11016.82538521552,150,True,2.1012638494561546,False,159.652812531571,143.1602452143613,False,57.163181611581464,False,False
