Subject_cm,Timestamp,SampleDate_cm,SampleTime_cm,Configuration_cm,Scenario_cm,DisTime_cm,MarkingTxt_cm,Application_cm,EntId_cm,Site_cm,ExerciseId_cm,ForceId_cm,Category_cm,Country_cm,Domain_cm,Kind_cm,Extra_cm,Specific_cm,Subcategory_cm,AltCategory_cm,AltCountry_cm,AltDomain_cm,AltKind_cm,ECEF_X_cm,ECEF_Y_cm,ECEF_Z_cm,OriPhi_cm,OriPsi_cm,OriTheta_cm,LinVelX_cm,LinVelY_cm,LinVelZ_cm,LinAccX_cm,LinAccY_cm,LinAccZ_cm,AngVelX_cm,AngVelY_cm,AngVelZ_cm,DrAlg_cm,Appearance_cm,Latitude_cm,Longitude_cm,Altitude_cm,Heading_cm,Pitch_cm,Roll_cm,CalibratedAirspeed_cm,CM_Altitude_Lead_cm,CM_Altitude_Wing_cm,CM_Airspeed_cm,Subject_ac,SampleDate_ac,SampleTime_ac,Configuration_ac,Scenario_ac,DisTime_ac,MarkingTxt_ac,Application_ac,EntId_ac,Site_ac,ExerciseId_ac,ForceId_ac,Category_ac,Country_ac,Domain_ac,Kind_ac,Extra_ac,Specific_ac,Subcategory_ac,AltCategory_ac,AltCountry_ac,AltDomain_ac,AltKind_ac,ECEF_X_ac,ECEF_Y_ac,ECEF_Z_ac,OriPhi_ac,OriPsi_ac,OriTheta_ac,LinVelX_ac,LinVelY_ac,LinVelZ_ac,LinAccX_ac,LinAccY_ac,LinAccZ_ac,AngVelX_ac,AngVelY_ac,AngVelZ_ac,DrAlg_ac,Appearance_ac,Latitude_ac,Longitude_ac,Altitude_ac,Heading_ac,Pitch_ac,Roll_ac,CalibratedAirspeed_ac,CM_Altitude_Lead_ac,CM_Altitude_Wing_ac,CM_Airspeed_ac,Bank_Angle_Condition,distance_nm,Distance_Condition,angle_between_vel,angle_between_pos,Cone_Condition,angle_between_pos_nose,Nose_Cone_Condition,Intercept_Criteria
3,1970-07-23 10:29:47.508283534,2025-09-12,2025-09-26 17:39:10.828,AA,D,3286910686,JASSM,3,130,76,2,2,1,225,9,2,0,1,26,0,0,0,0,-171305.58435233062,-4793411.471650924,4194623.880339146,-2.29541,0.0350898,-0.0800546,89.875,3.125,7.25,0.0,0.0,0.0,0.0,0.0,0.0,2,0,41.361137722680375,-92.04674931179812,10002.623399709675,83.87915846691104,-0.0051871877873377,0.0066288581189955,,9140.793540731764,11002.764919195506,150,3,2025-09-12,2025-09-26 17:39:10.937,AA,D,1796113340,HAWK11,1,1,73,2,1,1,225,2,1,0,0,12,1,225,2,1,-133777.70935233062,-4790707.549775924,4199507.897917271,-2.0076,-0.342461,0.315712,122.0,-40.625,-42.25,0.0,-7.25,7.17188,0.0683594,0.00976562,0.0429688,4,0,41.41729839454982,-91.599535496015,11006.125953563882,115.30550926120952,0.8674501849258315,19.477213093775617,200.854,9140.793540731764,11002.764919195506,150,False,20.419581405135663,False,30.409147119634447,176.49973060176043,False,146.09738981972743,False,False
3,1970-07-23 10:29:47.519743176,2025-09-12,2025-09-26 17:39:11.974,AA,D,3288272608,JASSM,3,130,76,2,2,1,225,9,2,0,1,26,0,0,0,0,-171202.9522722525,-4793407.897432174,4194632.100065708,-2.29541,0.0348022,-0.079767,89.875,3.125,7.25,0.0,0.0,0.0,0.0,0.0,0.0,2,0,41.3612362807206,-92.04552563553926,10002.624465517954,83.90319490877411,-0.0028895389543623,0.0053119891241323,,9140.793540731764,11002.764919195506,150,3,2025-09-12,2025-09-26 17:39:11.830,AA,D,1797266572,HAWK11,1,1,73,2,1,1,225,2,1,0,0,12,1,225,2,1,-133661.01013358062,-4790747.511689986,4199465.651823521,-1.94854,-0.358856,0.327793,120.75,-42.875,-45.0,-0.140625,-7.40625,7.375,0.0332031,0.0117188,0.0234375,4,0,41.41679486139189,-91.59812756232188,11004.706371465643,116.42527072931595,1.01595044770996,23.17645649238027,201.148,9140.793540731764,11002.764919195506,150,False,20.421807400107088,False,31.988961901671747,176.60218661470165,False,144.62009860270305,False,False
3,1970-07-23 10:29:47.530418254,2025-09-12,2025-09-26 17:39:13.041,AA,D,3289525308,JASSM,3,130,76,2,2,1,225,9,2,0,1,26,0,0,0,0,-171108.55066092435,-4793404.608369674,4194639.659636021,-2.29541,0.0348022,-0.079767,89.875,3.125,7.25,0.0,0.0,0.0,0.0,0.0,0.0,2,0,41.36132692563069,-92.04440008804436,10002.624495187056,83.90393867596234,-0.002039901481727,0.0053124030306005,,9140.793540731764,11002.764919195506,150,3,2025-09-12,2025-09-26 17:39:13.032,AA,D,1798698170,HAWK11,1,1,73,2,1,1,225,2,1,0,0,12,1,225,2,1,-133517.05310233062,-4790800.172822799,4199409.249479771,-1.9749,-0.392507,0.366717,118.875,-45.75,-48.5,-0.078125,-7.5,7.39062,0.00585938,0.0117188,0.0507812,4,0,41.41612472328076,-91.59638968195186,11001.93570085845,119.28477686100904,0.7141265390039477,22.36536214931882,201.844,9140.793540731764,11002.764919195506,150,False,20.4415942225828,False,34.04316937646223,176.73946593732296,False,142.70331640668752,False,False
3,1970-07-23 10:29:47.541441512,2025-09-12,2025-09-26 17:39:14.144,AA,D,3290837658,JASSM,3,130,76,2,2,1,225,9,2,0,1,26,0,0,0,0,-171009.65393240875,-4793401.161104049,4194647.578581333,-2.29541,0.0348022,-0.079767,89.875,3.125,7.25,0.0,0.0,0.0,0.0,0.0,0.0,2,0,41.36142188042826,-92.04322094273267,10002.62428686168,83.90471786228512,-0.0011498068000641,0.0053128420854223,,9140.793540731764,11002.764919195506,150,3,2025-09-12,2025-09-26 17:39:14.233,AA,D,1800169536,HAWK11,1,1,73,2,1,1,225,2,1,0,0,12,1,225,2,1,-133371.09216483062,-4790858.674775924,4199346.106901646,-1.97078,-0.419735,0.385796,116.5,-49.0,-52.125,-0.125,-8.15625,7.34375,-0.0371094,0.0175781,0.0234375,4,0,41.41537464429146,-91.59462594676756,10998.778313970148,121.08845114559892,0.9429903254192302,23.20093489076575,201.844,9140.793540731764,11002.764919195506,150,False,20.45946542261443,False,36.30928832650009,176.88977936170568,False,140.58828416596396,False,False
3,1970-07-23 10:29:47.552945768,2025-09-12,2025-09-26 17:39:15.294,AA,D,3292150010,JASSM,3,130,76,2,2,1,225,9,2,0,1,26,0,0,0,0,-170910.75720389312,-4793397.713838424,4194655.495573521,-2.29541,0.0348981,-0.079767,89.875,3.125,7.25,0.0,0.0,0.0,0.0,0.0,0.0,2,0,41.36151680994989,-92.04204179399346,10002.624903908736,83.90186709820507,-0.004359331260944,0.0057511242558387,,9140.793540731764,11002.764919195506,150,3,2025-09-12,2025-09-26 17:39:15.438,AA,D,1801680668,HAWK11,1,1,73,2,1,1,225,2,1,0,0,12,1,225,2,1,-133226.56482108062,-4790922.163057174,4199277.683073521,-2.0355,-0.456168,0.422612,113.375,-51.875,-55.125,-0.046875,-8.10938,7.01562,-0.0214844,0.0136719,0.0195312,4,0,41.41455898571749,-91.59287772610038,10996.535740385898,123.93375124544151,0.7332624883163247,20.355843219490072,201.771,9140.793540731764,11002.764919195506,150,False,20.476178254565212,False,38.48184020242569,177.05025809386456,False,138.5774251171638,False,False
3,1970-07-23 10:29:47.563477558,2025-09-12,2025-09-26 17:39:16.347,AA,D,3293462362,JASSM,3,130,76,2,2,1,225,9,2,0,1,26,0,0,0,0,-170811.86023123687,-4793394.264619674,4194663.412565708,-2.29541,0.0348981,-0.079767,89.875,3.125,7.25,0.0,0.0,0.0,0.0,0.0,0.0,2,0,41.36161173904828,-92.04086263974408,10002.625752885067,83.90264629335296,-0.0034692351911502,0.0057515051365164,,9140.793540731764,11002.764919195506,150,3,2025-09-12,2025-09-26 17:39:16.327,AA,D,1802873666,HAWK11,1,1,73,2,1,1,225,2,1,0,0,12,1,225,2,1,-133114.83435233062,-4790975.004854049,4199220.905729771,-2.07222,-0.475342,0.429035,110.75,-54.0,-57.125,-0.03125,-8.03125,6.9375,-0.015625,0.00390625,0.0214844,4,0,41.41387983399792,-91.59152500162104,10995.639861334834,124.9190606526843,1.1439762439880554,18.72193412284169,201.258,9140.793540731764,11002.764919195506,150,False,20.476705958593556,False,40.11375238583676,177.18041073253409,False,137.07705855266215,False,False
3,1970-07-23 10:29:47.574243391,2025-09-12,2025-09-26 17:39:17.424,AA,D,3294834364,JASSM,3,130,76,2,2,1,225,9,2,0,1,26,0,0,0,0,-170708.46814139312,-4793390.657197799,4194671.687956333,-2.29541,0.0348981,-0.0796711,89.875,3.125,7.25,0.0,0.0,0.0,0.0,0.0,0.0,2,0,41.36171096869149,-92.03962988689914,10002.625396571671,83.9075735894049,-0.0061802315003655,0.0057515891117644,,9140.793540731764,11002.764919195506,150,3,2025-09-12,2025-09-26 17:39:17.327,AA,D,1803947366,HAWK11,1,1,73,2,1,1,225,2,1,0,0,12,1,225,2,1,-133015.47497733062,-4791024.536104049,4199168.022917271,-2.09916,-0.494709,0.447731,108.625,-55.5,-58.625,-0.015625,-7.78125,6.46875,0.0136719,0.0078125,0.0214844,4,0,41.41324460660943,-91.59032123519066,10995.90778948939,126.38411343961695,1.0289961967436068,17.677167686186444,200.928,9140.793540731764,11002.764919195506,150,False,20.46868231385183,False,41.36414042019375,177.30011998403964,False,135.94740056689983,False,False
3,1970-07-23 10:29:47.585259442,2025-09-12,2025-09-26 17:39:18.525,AA,D,3296146716,JASSM,3,130,76,2,2,1,225,9,2,0,1,26,0,0,0,0,-170609.57116873687,-4793387.206025924,4194679.602018833,-2.29541,0.0348981,-0.0796711,89.875,3.125,7.25,0.0,0.0,0.0,0.0,0.0,0.0,2,0,41.36180586489304,-92.03845072647158,10002.625437057315,83.90835279161652,-0.0052901369786158,0.0057520257204784,,9140.793540731764,11002.764919195506,150,3,2025-09-12,2025-09-26 17:39:18.529,AA,D,1805219898,HAWK11,1,1,73,2,1,1,225,2,1,0,0,12,1,225,2,1,-132901.89294608062,-4791084.067354049,4199103.976042271,-2.07078,-0.513117,0.462975,105.875,-57.0,-60.75,-0.15625,-7.85938,6.35938,0.00976562,0.00585938,0.0253906,4,0,41.41247686161227,-91.58894422152808,10995.580581746628,127.67350679813052,1.0107019631299774,19.78994629431801,200.818,9140.793540731764,11002.764919195506,150,False,20.46970950355991,False,42.946398399068684,177.44523555495618,False,134.510351689237,False,False
3,1970-07-23 10:29:47.596377460,2025-09-12,2025-09-26 17:39:19.637,AA,D,3297459066,JASSM,3,130,76,2,2,1,225,9,2,0,1,26,0,0,0,0,-170510.67444022125,-4793383.752900924,4194687.515104771,-2.29541,0.0348981,-0.0796711,89.875,3.125,7.25,0.0,0.0,0.0,0.0,0.0,0.0,2,0,41.36190075397143,-92.03727156636256,10002.623635073354,83.90913199508978,-0.0044000447396828,0.0057524675135446,,9140.793540731764,11002.764919195506,150,3,2025-09-12,2025-09-26 17:39:19.734,AA,D,1806691262,HAWK11,1,1,73,2,1,1,225,2,1,0,0,12,1,225,2,1,-132773.43200858062,-4791155.359346236,4199026.538542271,-2.0099,-0.542262,0.490011,102.375,-58.625,-63.75,-0.171875,-7.9375,6.40625,0.0722656,0.0078125,0.0371094,4,0,41.41155119617737,-91.58738555010956,10994.116777450612,129.81150588333435,0.8227954394294633,24.078348143307085,200.451,9140.793540731764,11002.764919195506,150,False,20.47758382780843,False,44.99453222324428,177.6195948964419,False,132.6357753146238,False,False
3,1970-07-23 10:29:47.607755532,2025-09-12,2025-09-26 17:39:20.775,AA,D,3298771418,JASSM,3,130,76,2,2,1,225,9,2,0,1,26,0,0,0,0,-170411.777467565,-4793380.299775924,4194695.428190708,-2.29541,0.0348981,-0.0796711,89.875,3.125,7.25,0.0,0.0,0.0,0.0,0.0,0.0,2,0,41.36199563101816,-92.03609239991356,10002.626871459126,83.90991120422507,-0.0035099503348699,0.0057529090798854,,9140.793540731764,11002.764919195506,150,3,2025-09-12,2025-09-26 17:39:20.624,AA,D,1807924028,HAWK11,1,1,73,2,1,1,225,2,1,0,0,12,1,225,2,1,-132668.90857108062,-4791217.093721236,4198958.655729771,-2.00232,-0.574668,0.511966,98.875,-60.25,-66.375,-0.078125,-7.98438,6.70312,0.0175781,0.0195312,0.0429688,4,0,41.41074292402189,-91.58611612191784,10991.523758442134,131.86815276900907,0.9181314280057372,25.435426378685825,200.818,9140.793540731764,11002.764919195506,150,False,20.473764586920527,False,46.9679734408203,177.7693357647552,False,130.81192852175164,False,False
3,1970-07-23 10:29:47.618417495,2025-09-12,2025-09-26 17:39:21.841,AA,D,3300083768,JASSM,3,130,76,2,2,1,225,9,2,0,1,26,0,0,0,0,-170312.88025076812,-4793376.844697799,4194703.339323521,-2.29541,0.0348981,-0.0796711,89.875,3.125,7.25,0.0,0.0,0.0,0.0,0.0,0.0,2,0,41.36209049444835,-92.034913227954,10002.626105437115,83.91069041847415,-0.0026198545509994,0.0057533489097745,,9140.793540731764,11002.764919195506,150,3,2025-09-12,2025-09-26 17:39:21.937,AA,D,1809594226,HAWK11,1,1,73,2,1,1,225,2,1,0,0,12,1,225,2,1,-132533.76013358062,-4791303.409150924,4198862.940886021,-2.04154,-0.62155,0.549836,93.875,-62.75,-69.75,-0.375,-8.45312,6.95312,0.0664062,0.015625,0.0488281,4,0,41.40960556651133,-91.58447265574917,10986.92070419721,135.03556256499644,0.6992497015981746,24.59389889108762,201.148,9140.793540731764,11002.764919195506,150,False,20.484009044462493,False,49.760437732183895,177.97972418565107,False,128.2306407228562,False,False
3,1970-07-23 10:29:47.629239759,2025-09-12,2025-09-26 17:39:22.923,AA,D,3301336468,JASSM,3,130,76,2,2,1,225,9,2,0,1,26,0,0,0,0,-170218.47863944,-4793373.545869674,4194710.890104771,-2.29541,0.0348981,-0.0796711,89.875,3.125,7.25,0.0,0.0,0.0,0.0,0.0,0.0,2,0,41.36218103422538,-92.03378765517613,10002.626516209051,83.91143421496547,-0.0017702204480067,0.0057537685905137,,9140.793540731764,11002.764919195506,150,3,2025-09-12,2025-09-26 17:39:22.937,AA,D,1810787224,HAWK11,1,1,73,2,1,1,225,2,1,0,0,12,1,225,2,1,-132441.85778983062,-4791367.346650924,4198791.528776646,-1.94614,-0.650696,0.565943,89.875,-64.5,-72.375,-0.171875,-7.98438,6.78125,0.0898438,0.0117188,0.0292969,4,0,41.40875825585353,-91.58335338256184,10982.96943383729,136.72101220744256,0.8449641903721856,30.96644329090303,201.111,9140.793540731764,11002.764919195506,150,False,20.475944238335778,False,51.94940627559166,178.13338358971254,False,126.1957781011919,False,False
3,1970-07-23 10:29:47.640256732,2025-09-12,2025-09-26 17:39:24.025,AA,D,3302648828,JASSM,3,130,76,2,2,1,225,9,2,0,1,26,0,0,0,0,-170119.58093436187,-4793370.087861861,4194718.799284458,-2.29541,0.0349939,-0.0796711,89.875,3.125,7.125,0.0,0.0,0.0,0.0,0.0,0.0,2,0,41.36227587836036,-92.03260847193626,10002.624153051276,83.90858342606687,-0.0049797420171321,0.0061915828715675,,9140.793540731764,11002.764919195506,150,3,2025-09-12,2025-09-26 17:39:23.327,AA,D,1811184890,HAWK11,1,1,73,2,1,1,225,2,1,0,0,12,1,225,2,1,-132412.74060233062,-4791388.548799361,4198767.645964146,-1.92927,-0.663255,0.573613,88.5,-65.125,-73.25,-0.0625,-7.98438,6.71875,0.0625,0.0253906,0.046875,4,0,41.408475691910624,-91.582998459992,10981.315092037115,137.46961488653474,0.863335856635136,32.33259553153943,201.258,9140.793540731764,11002.764919195506,150,False,20.436060320347718,False,52.643363294699746,178.11475272507016,False,125.48955415591853,False,False
3,1970-07-23 10:29:47.651377680,2025-09-12,2025-09-26 17:39:25.137,AA,D,3303961170,JASSM,3,130,76,2,2,1,225,9,2,0,1,26,0,0,0,0,-170020.68444998687,-4793366.629854049,4194726.707487583,-2.29541,0.0349939,-0.0796711,89.875,3.125,7.125,0.0,0.0,0.0,0.0,0.0,0.0,2,0,41.36237070355782,-92.03142929984531,10002.624839036984,83.9093626447247,-0.004089653971618,0.0061919644513431,,9140.793540731764,11002.764919195506,150,3,2025-09-12,2025-09-26 17:39:25.233,AA,D,1813411822,HAWK11,1,1,73,2,1,1,225,2,1,0,0,12,1,225,2,1,-132256.32653983062,-4791512.602510299,4198624.083464146,-1.87337,-0.752513,0.643505,78.75,-67.625,-80.25,-0.234375,-8.51562,7.21875,0.0214844,0.0234375,0.046875,4,0,41.40679428441101,-91.58108855959848,10964.30353561058,143.21303107819145,0.0583378183953167,38.50813246243806,201.954,9140.793540731764,11002.764919195506,150,False,20.454473774573817,False,57.87239086802814,178.418211448453,False,120.56191028818319,False,False
3,1970-07-23 10:29:47.662394715,2025-09-12,2025-09-26 17:39:26.239,AA,D,3305273522,JASSM,3,130,76,2,2,1,225,9,2,0,1,26,0,0,0,0,-169921.78698904935,-4793363.169893111,4194734.614714146,-2.29541,0.0349939,-0.0796711,89.875,3.125,7.125,0.0,0.0,0.0,0.0,0.0,0.0,2,0,41.36246552188948,-92.03025011349968,10002.623575909314,83.91014187427264,-0.0031995573036895,0.0061923503110148,,9140.793540731764,11002.764919195506,150,3,2025-09-12,2025-09-26 17:39:26.123,AA,D,1814565054,HAWK11,1,1,73,2,1,1,225,2,1,0,0,12,1,225,2,1,-132182.29528983062,-4791579.504854049,4198544.413542271,-1.89629,-0.8086,0.681087,73.375,-69.875,-82.75,-0.046875,-8.875,7.3125,0.0234375,0.0390625,0.0664062,4,0,41.40587062689534,-91.5801819325226,10950.96794235358,146.51261104289546,-0.3559409618932503,39.16346920572776,202.028,9140.793540731764,11002.764919195506,150,False,20.434397165536087,False,60.63762133373333,178.58063643354325,False,117.96161285316917,False,False
3,1970-07-23 10:29:47.673418221,2025-09-12,2025-09-26 17:39:27.341,AA,D,3306645524,JASSM,3,130,76,2,2,1,225,9,2,0,1,26,0,0,0,0,-169818.3945329947,-4793359.552705611,4194742.880339146,-2.29541,0.0349939,-0.0796711,89.875,3.125,7.125,0.0,0.0,0.0,0.0,0.0,0.0,2,0,41.36256462999258,-92.029017328203,10002.625591116654,83.91095652463504,-0.0022690055303524,0.0061927467944126,,9140.793540731764,11002.764919195506,150,3,2025-09-12,2025-09-26 17:39:27.327,AA,D,1815797820,HAWK11,1,1,73,2,1,1,225,2,1,0,0,12,1,225,2,1,-132110.72888358062,-4791652.271455611,4198456.110807896,-1.91508,-0.882902,0.717424,66.0,-71.25,-87.0,-0.203125,-9.29688,7.79688,0.00585938,0.046875,0.0507812,4,0,41.40485339519222,-91.57930284893222,10933.501162771254,150.37727914676557,-0.4717644901752251,40.8002456718496,202.138,9140.793540731764,11002.764919195506,150,False,20.410133477556197,False,64.36351955435667,178.75793674431787,False,114.41277101074452,False,False
3,1970-07-23 10:29:47.684445031,2025-09-12,2025-09-26 17:39:28.444,AA,D,3307898224,JASSM,3,130,76,2,2,1,225,9,2,0,1,26,0,0,0,0,-169723.99255545562,-4793356.248018111,4194750.426237583,-2.29541,0.0349939,-0.0795753,89.875,3.125,7.125,0.0,0.0,0.0,0.0,0.0,0.0,2,0,41.36265511401768,-92.02789173719538,10002.625113462434,83.91581299304009,-0.0050609504168073,0.0061928816089794,,9140.793540731764,11002.764919195506,150,3,2025-09-12,2025-09-26 17:39:28.233,AA,D,1816871518,HAWK11,1,1,73,2,1,1,225,2,1,0,0,12,1,225,2,1,-132054.62732108062,-4791716.926729049,4198377.263151646,-1.96426,-0.957588,0.746953,59.25,-72.875,-89.875,-0.25,-9.875,8.40625,0.0,0.0390625,0.0605469,4,0,41.40394570047892,-91.57861123862612,10917.65479051142,153.98147062340857,-0.4661088826594029,40.81445418023812,202.541,9140.793540731764,11002.764919195506,150,False,20.383348143952155,False,67.66249877056012,178.91440916680327,False,111.27245335001557,False,False
3,1970-07-23 10:29:47.695455024,2025-09-12,2025-09-26 17:39:29.545,AA,D,3309270226,JASSM,3,130,76,2,2,1,225,9,2,0,1,26,0,0,0,0,-169620.59997733062,-4793352.626924361,4194758.689909458,-2.29541,0.0349939,-0.0795753,89.875,3.125,7.125,0.0,0.0,0.0,0.0,0.0,0.0,2,0,41.3627542069043,-92.02665894493724,10002.623850279764,83.91662765104533,-0.0041303977849171,0.0061933547993314,,9140.793540731764,11002.764919195506,150,3,2025-09-12,2025-09-26 17:39:30.029,AA,D,1819217750,HAWK11,1,1,73,2,1,1,225,2,1,0,0,12,1,225,2,1,-131954.53357108062,-4791864.943330611,4198195.882292271,-2.07011,-1.1547,0.792205,42.5,-77.0,-94.125,-0.125,-10.5625,9.0625,0.0214844,0.0625,0.0625,4,0,41.40185713769058,-91.57736659939904,10881.428263131038,162.45642903875438,0.2849437257776678,42.61051599347491,203.237,9140.793540731764,11002.764919195506,150,False,20.36831065302739,False,75.50640930312119,179.2685752514718,False,103.79538150971972,False,False
3,1970-07-23 10:29:47.706475726,2025-09-12,2025-09-26 17:39:30.647,AA,D,3310582578,JASSM,3,130,76,2,2,1,225,9,2,0,1,26,0,0,0,0,-169521.70263846344,-4793349.163057174,4194766.593229771,-2.29541,0.0349939,-0.0795753,89.875,3.125,7.125,0.0,0.0,0.0,0.0,0.0,0.0,2,0,41.36284897315674,-92.02547974785546,10002.62498513669,83.91740689360722,-0.0032403038652977,0.0061938014346106,,9140.793540731764,11002.764919195506,150,3,2025-09-12,2025-09-26 17:39:30.327,AA,D,1819496116,HAWK11,1,1,73,2,1,1,225,2,1,0,0,12,1,225,2,1,-131945.34607108062,-4791883.215791549,4198172.864714146,-2.082,-1.1827,0.795177,40.0,-77.375,-94.75,-0.40625,-10.625,9.14062,0.0136719,0.046875,0.0527344,4,0,41.40159455866182,-91.57725081737355,10875.814114855391,163.57816359330914,0.4748719441087679,43.08041777648575,203.519,9140.793540731764,11002.764919195506,150,False,20.31824844852852,False,76.66383746658316,179.31046371830976,False,102.68186901927066,False,False
3,1970-07-23 10:29:47.717236905,2025-09-12,2025-09-26 17:39:31.723,AA,D,3311894928,JASSM,3,130,76,2,2,1,225,9,2,0,1,26,0,0,0,0,-169422.80529959625,-4793345.697236861,4194774.495573521,-2.29541,0.0349939,-0.0795753,89.875,3.125,7.125,0.0,0.0,0.0,0.0,0.0,0.0,2,0,41.36294373233725,-92.02430054817695,10002.6242561262,83.91818613935558,-0.0023502100447255,0.0061942530734581,,9140.793540731764,11002.764919195506,150,3,2025-09-12,2025-09-26 17:39:32.124,AA,D,1821524214,HAWK11,1,1,73,2,1,1,225,2,1,0,0,12,1,225,2,1,-131892.38122733062,-4792018.240205611,4198010.101042271,-2.21957,-1.41213,0.807737,21.875,-80.375,-96.125,-0.265625,-11.9375,10.5156,0.0,0.078125,0.0664062,4,0,41.39970122412178,-91.57657360297236,10851.246245580169,172.64583115702513,1.806687829285156,44.84207792599114,203.775,9140.793540731764,11002.764919195506,150,False,20.28244516113183,False,84.85016305387526,179.60415313414003,False,94.82491829468452,False,False
3,1970-07-23 10:29:47.728277673,2025-09-12,2025-09-26 17:39:32.827,AA,D,3313147628,JASSM,3,130,76,2,2,1,225,9,2,0,1,26,0,0,0,0,-169328.40319998687,-4793342.388643111,4194782.037565708,-2.29541,0.0350898,-0.0795753,89.875,3.125,7.125,0.0,0.0,0.0,0.0,0.0,0.0,2,0,41.36303416708053,-92.02317494429764,10002.625005196182,83.91529989623143,-0.0056001996107562,0.0066315631016264,,9140.793540731764,11002.764919195506,150,3,2025-09-12,2025-09-26 17:39:33.031,AA,D,1822518380,HAWK11,1,1,73,2,1,1,225,2,1,0,0,12,1,225,2,1,-131878.38122733062,-4792085.459932174,4197930.993620396,-2.30883,-1.52804,0.803806,12.625,-81.5,-95.5,-0.234375,-11.9688,10.7344,-0.0175781,0.0800781,0.0644531,4,0,41.39876960366646,-91.57638423715774,10844.031577908752,177.2044299886231,2.4728570003694896,44.691639971437965,203.995,9140.793540731764,11002.764919195506,150,False,20.23391680953385,False,88.99554057552037,179.71780849883388,False,90.8409778226348,False,False
3,1970-07-23 10:29:47.738394413,2025-09-12,2025-09-26 17:39:33.839,AA,D,3314400326,JASSM,3,130,76,2,2,1,225,9,2,0,1,26,0,0,0,0,-169234.0011003775,-4793339.079072799,4194789.578581333,-2.29541,0.0350898,-0.0795753,89.875,3.125,7.125,0.0,0.0,0.0,0.0,0.0,0.0,2,0,41.36312459002113,-92.02204933771372,10002.625844046515,83.91604372895836,-0.0047505648790708,0.0066319335669723,,9140.793540731764,11002.764919195506,150,3,2025-09-12,2025-09-26 17:39:33.733,AA,D,1823552312,HAWK11,1,1,73,2,1,1,225,2,1,0,0,12,1,225,2,1,-131872.50622733062,-4792156.467744674,4197848.308073521,-2.39761,-1.64366,0.78885,2.625,-82.25,-94.375,-0.03125,-12.1094,10.7188,-0.00195312,0.0800781,0.0664062,4,0,41.397789962299335,-91.57629070158494,10838.928872704291,-178.1660630199673,3.373257911643082,44.57927854095561,204.215,9140.793540731764,11002.764919195506,150,False,20.180956776432712,False,93.52004533450065,179.76867989637284,False,86.48571372464151,False,False
3,1970-07-23 10:29:47.748446605,2025-09-12,2025-09-26 17:39:34.844,AA,D,3315593372,JASSM,3,130,76,2,2,1,225,9,2,0,1,26,0,0,0,0,-169144.09424002594,-4793335.924775924,4194796.760221958,-2.29541,0.0350898,-0.0795753,89.875,3.125,7.125,0.0,0.0,0.0,0.0,0.0,0.0,2,0,41.36321070882656,-92.0209773283463,10002.624593758144,83.9167521443696,-0.0039413875403937,0.0066322982247938,,9140.793540731764,11002.764919195506,150,3,2025-09-12,2025-09-26 17:39:34.733,AA,D,1824745310,HAWK11,1,1,73,2,1,1,225,2,1,0,0,12,1,225,2,1,-131876.57263358062,-4792238.668916549,4197754.579557896,-2.48495,-1.76916,0.762772,-8.875,-82.125,-92.25,-0.171875,-12.0781,10.8281,0.00195312,0.0800781,0.0546875,4,0,41.39666755713145,-91.57631225811636,10838.085156751196,-172.9183730626363,4.44581936854899,44.97244425345963,204.899,9140.793540731764,11002.764919195506,150,False,20.1245853891851,False,98.81355160163164,179.69594912814404,False,81.38520199433785,False,False
3,1970-07-23 10:29:47.760955800,2025-09-12,2025-09-26 17:39:36.095,AA,D,3316846080,JASSM,3,130,76,2,2,1,225,9,2,0,1,26,0,0,0,0,-169049.6914079947,-4793332.613252486,4194804.299284458,-2.29541,0.0350898,-0.0795753,89.875,3.125,7.125,0.0,0.0,0.0,0.0,0.0,0.0,2,0,41.36330110883954,-92.01985170775778,10002.625329096616,83.91749598896493,-0.0030917470750469,0.0066326665560247,,9140.793540731764,11002.764919195506,150,3,2025-09-12,2025-09-26 17:39:35.029,AA,D,1825103210,HAWK11,1,1,73,2,1,1,225,2,1,0,0,12,1,225,2,1,-131880.00622733062,-4792263.840791549,4197726.417448521,-2.51285,-1.80952,0.752897,-12.75,-81.5,-91.625,-0.390625,-12.0938,10.7656,0.00585938,0.0820312,0.0566406,4,0,41.3963271362102,-91.57634500315062,10839.147435810872,-171.16948135746182,4.766080300026146,45.10412325107893,204.899,9140.793540731764,11002.764919195506,150,False,20.070086310783022,False,100.63942992561445,179.65472404689237,False,79.61746905491493,False,False
3,1970-07-23 10:29:47.770475112,2025-09-12,2025-09-26 17:39:37.047,AA,D,3318158422,JASSM,3,130,76,2,2,1,225,9,2,0,1,26,0,0,0,0,-168950.79443533844,-4793329.142549361,4194812.196745396,-2.29541,0.0350898,-0.0795753,89.875,3.125,7.125,0.0,0.0,0.0,0.0,0.0,0.0,2,0,41.36339580630821,-92.01867249818594,10002.626178497663,83.91827524823861,-0.0022016585245145,0.0066330580793557,,9140.793540731764,11002.764919195506,150,3,2025-09-12,2025-09-26 17:39:38.625,AA,D,1829278706,HAWK11,1,1,73,2,1,1,225,2,1,0,0,12,1,225,2,1,-131991.01013358062,-4792537.523408736,4197429.227995396,-2.77986,-2.19935,0.629603,-48.0,-73.125,-77.875,-0.203125,-10.5156,9.39062,0.00195312,0.0664062,0.0664062,4,0,41.39267461827614,-91.57758109954324,10875.269772211266,-152.6203261085206,6.359008637783047,45.993303539396805,205.071,9140.793540731764,11002.764919195506,150,False,19.940762070550463,False,118.84727514537178,179.09880884352518,False,62.02859668614711,False,False
3,1970-07-23 10:29:47.781236264,2025-09-12,2025-09-26 17:39:38.123,AA,D,3319470774,JASSM,3,130,76,2,2,1,225,9,2,0,1,26,0,0,0,0,-168851.89685233062,-4793325.669893111,4194820.093229771,-2.29541,0.0350898,-0.0794794,89.875,3.125,7.125,0.0,0.0,0.0,0.0,0.0,0.0,2,0,41.36349049683268,-92.01749327873031,10002.625111054684,83.92316714039718,-0.0049531767858514,0.0066332293160206,,9140.793540731764,11002.764919195506,150,3,2025-09-12,2025-09-26 17:39:38.625,AA,D,1829278706,HAWK11,1,1,73,2,1,1,225,2,1,0,0,12,1,225,2,1,-131991.01013358062,-4792537.523408736,4197429.227995396,-2.77986,-2.19935,0.629603,-48.0,-73.125,-77.875,-0.203125,-10.5156,9.39062,0.00195312,0.0664062,0.0664062,4,0,41.39267461827614,-91.57758109954324,10875.269772211266,-152.6203261085206,6.359008637783047,45.993303539396805,205.071,9140.793540731764,11002.764919195506,150,False,19.887336715380716,False,118.84727514537178,179.09629779047359,False,62.03104840520583,False,False
3,1970-07-23 10:29:47.791261382,2025-09-12,2025-09-26 17:39:39.126,AA,D,3320723472,JASSM,3,130,76,2,2,1,225,9,2,0,1,26,0,0,0,0,-168757.49450858062,-4793322.354463424,4194827.629362583,-2.29541,0.0350898,-0.0794794,89.875,3.125,7.125,0.0,0.0,0.0,0.0,0.0,0.0,2,0,41.36358086609047,-92.0163676559727,10002.624194038026,83.9239109905395,-0.0041035416155984,0.0066336624051638,,9140.793540731764,11002.764919195506,150,3,2025-09-12,2025-09-26 17:39:38.625,AA,D,1829278706,HAWK11,1,1,73,2,1,1,225,2,1,0,0,12,1,225,2,1,-131991.01013358062,-4792537.523408736,4197429.227995396,-2.77986,-2.19935,0.629603,-48.0,-73.125,-77.875,-0.203125,-10.5156,9.39062,0.00195312,0.0664062,0.0664062,4,0,41.39267461827614,-91.57758109954324,10875.269772211266,-152.6203261085206,6.359008637783047,45.993303539396805,205.071,9140.793540731764,11002.764919195506,150,False,19.836339882124452,False,118.84727514537178,179.09388862978858,False,62.033400082393925,False,False
3,1970-07-23 10:29:47.802374542,2025-09-12,2025-09-26 17:39:40.237,AA,D,3321976172,JASSM,3,130,76,2,2,1,225,9,2,0,1,26,0,0,0,0,-168663.09216483062,-4793319.038057174,4194835.164518833,-2.29541,0.0350898,-0.0794794,89.875,3.125,7.125,0.0,0.0,0.0,0.0,0.0,0.0,2,0,41.36367122354534,-92.01524203051105,10002.623366798667,83.92465484380764,-0.0032539068487982,0.0066340946975792,,9140.793540731764,11002.764919195506,150,3,2025-09-12,2025-09-26 17:39:40.125,AA,D,1830988670,HAWK11,1,1,73,2,1,1,225,2,1,0,0,12,1,225,2,1,-132069.01794608062,-4792637.331025924,4197320.823698521,-2.87526,-2.33529,0.574284,-59.375,-66.625,-71.625,-0.265625,-10.25,9.0,-0.0175781,0.0664062,0.0566406,4,0,41.39133629052376,-91.57848013563672,10890.957111752892,-145.4240926457089,6.15640465447017,45.73016204064997,203.812,9140.793540731764,11002.764919195506,150,False,19.738100128059045,False,125.91216131483534,178.87514919557364,False,55.192544628791154,False,False
3,1970-07-23 10:29:47.812418189,2025-09-12,2025-09-26 17:39:41.241,AA,D,3323228872,JASSM,3,130,76,2,2,1,225,9,2,0,1,26,0,0,0,0,-168568.68976004547,-4793315.720674361,4194842.699675083,-2.29541,0.0350898,-0.0794794,89.875,3.125,7.125,0.0,0.0,0.0,0.0,0.0,0.0,2,0,41.36376157580629,-92.01411640161686,10002.624741348944,83.92539870068248,-0.002404271242095,0.006634532707323,,9140.793540731764,11002.764919195506,150,3,2025-09-12,2025-09-26 17:39:41.327,AA,D,1832658868,HAWK11,1,1,73,2,1,1,225,2,1,0,0,12,1,225,2,1,-132158.78747733062,-4792724.432588424,4197224.974089146,-2.9509,-2.45562,0.511678,-69.125,-59.375,-65.0,-0.21875,-10.125,8.9375,-0.0078125,0.0664062,0.0605469,4,0,41.39015636642616,-91.5795238199782,10903.428315577175,-138.48337262014647,5.99277135927948,45.69854191476364,201.881,9140.793540731764,11002.764919195506,150,False,19.634438262690832,False,132.80500155573452,178.6811821599956,False,48.496077562088274,False,False
3,1970-07-23 10:29:47.824415053,2025-09-12,2025-09-26 17:39:42.441,AA,D,3324600874,JASSM,3,130,76,2,2,1,225,9,2,0,1,26,0,0,0,0,-168465.29663260406,-4793312.085908736,4194850.950651646,-2.29541,0.0351857,-0.0794794,89.875,3.125,7.125,0.0,0.0,0.0,0.0,0.0,0.0,2,0,41.3638605167322,-92.0128835667952,10002.624055396846,83.9225834137833,-0.0055731874844762,0.0070713500473597,,9140.793540731764,11002.764919195506,150,3,2025-09-12,2025-09-26 17:39:42.827,AA,D,1834408600,HAWK11,1,1,73,2,1,1,225,2,1,0,0,12,1,225,2,1,-132267.33435233062,-4792805.415010299,4197134.306120396,-3.0089,-2.57383,0.440061,-78.0,-51.625,-57.125,-0.28125,-10.3438,9.15625,0.0,0.0703125,0.0585938,4,0,41.38904473204802,-91.5807937859626,10913.371177075122,-131.16953333874017,5.681345822244267,46.22786560566645,198.606,9140.793540731764,11002.764919195506,150,False,19.516314557863282,False,140.04083942681592,178.49805310262937,False,41.446066073254485,False,False
3,1970-07-23 10:29:47.835438788,2025-09-12,2025-09-26 17:39:43.543,AA,D,3325913224,JASSM,3,130,76,2,2,1,225,9,2,0,1,26,0,0,0,0,-168366.39892752594,-4793308.608369674,4194858.842253208,-2.29541,0.0351857,-0.0794794,89.875,3.125,7.125,0.0,0.0,0.0,0.0,0.0,0.0,2,0,41.36395514399784,-92.01170433115524,10002.625213924888,83.92336269890664,-0.0046830945144813,0.0070717495295632,,9140.793540731764,11002.764919195506,150,3,2025-09-12,2025-09-26 17:39:43.123,AA,D,1834726732,HAWK11,1,1,73,2,1,1,225,2,1,0,0,12,1,225,2,1,-132288.94372733062,-4792819.081025924,4197118.739714146,-3.01734,-2.5953,0.423762,-79.625,-49.75,-55.625,-0.234375,-10.2969,9.0,0.00195312,0.0742188,0.0644531,4,0,41.388854803422994,-91.58104741360616,10914.697118902104,-129.70639145923664,5.705190012551183,46.40479111813217,197.897,9140.793540731764,11002.764919195506,150,False,19.450637697307908,False,141.532960109696,178.46332715727775,False,39.98818662344422,False,False
3,1970-07-23 10:29:47.845457213,2025-09-12,2025-09-26 17:39:44.545,AA,D,3327165922,JASSM,3,130,76,2,2,1,225,9,2,0,1,26,0,0,0,0,-168271.99643118805,-4793305.288057174,4194866.373503208,-2.29541,0.0351857,-0.0794794,89.875,3.125,7.125,0.0,0.0,0.0,0.0,0.0,0.0,2,0,41.36404545269947,-92.0105786926128,10002.625391193957,83.92410656633724,-0.0038334599734491,0.0070721246872906,,9140.793540731764,11002.764919195506,150,3,2025-09-12,2025-09-26 17:39:44.629,AA,D,1836476464,HAWK11,1,1,73,2,1,1,225,2,1,0,0,12,1,225,2,1,-132412.44372733062,-4792885.264619674,4197043.130339146,-3.06489,-2.71054,0.339585,-87.25,-41.0,-46.25,-0.265625,-10.4688,9.40625,-0.00585938,0.0625,0.0703125,4,0,41.38793038651694,-91.58250082851258,10921.923922498434,-121.88428224367236,5.335040922366241,46.89788681407104,193.962,9140.793540731764,11002.764919195506,150,False,19.330208133424815,False,149.3627212884613,178.3115143745058,False,32.31315644647385,False,False
3,1970-07-23 10:29:47.856478326,2025-09-12,2025-09-26 17:39:45.647,AA,D,3328418620,JASSM,3,130,76,2,2,1,225,9,2,0,1,26,0,0,0,0,-168177.59393485016,-4793301.965791549,4194873.904753208,-2.29541,0.0351857,-0.0794794,89.875,3.125,7.125,0.0,0.0,0.0,0.0,0.0,0.0,2,0,41.36413576199865,-92.00945305177632,10002.62537236584,83.92485043662028,-0.0029838248279586,0.0070725114118487,,9140.793540731764,11002.764919195506,150,3,2025-09-12,2025-09-26 17:39:45.535,AA,D,1837510396,HAWK11,1,1,73,2,1,1,225,2,1,0,0,12,1,225,2,1,-132489.31872733062,-4792917.623018111,4197005.534636021,-3.09826,-2.7743,0.283499,-90.875,-35.375,-40.375,-0.375,-10.5312,9.39062,-0.00390625,0.0664062,0.0488281,4,0,41.38747145781867,-91.58340843241956,10925.219654398825,-117.13049969619816,5.290099389926205,46.54729597408752,191.958,9140.793540731764,11002.764919195506,150,False,19.23644789806236,False,154.10828064739738,178.2346538410255,False,27.64574735588103,True,False
3,1970-07-23 10:29:47.876393695,2025-09-12,2025-09-26 17:39:47.639,AA,D,3330864366,JASSM,3,130,76,2,2,1,225,9,2,0,1,26,0,0,0,0,-167993.28407462066,-4793295.477510299,4194888.604948521,-2.29541,0.0351857,-0.0794794,89.875,3.125,7.125,0.0,0.0,0.0,0.0,0.0,0.0,2,0,41.36431203525968,-92.0072553612159,10002.625831894711,83.92630276580451,-0.0013250133945453,0.0070732530921792,,9140.793540731764,11002.764919195506,150,3,2025-09-12,2025-09-26 17:39:47.396,AA,D,1838623862,HAWK11,1,1,73,2,1,1,225,2,1,0,0,12,1,225,2,1,-132577.01794608062,-4792948.385713424,4196969.915495396,-3.12903,-2.84208,0.225495,-94.25,-29.5,-33.875,0.0,-10.4062,9.25,-0.00195312,0.0703125,0.0644531,4,0,41.38703357735599,-91.58444584623685,10929.617426930832,-112.10265145463984,5.0010773903644825,46.21385302701645,187.974,9140.793540731764,11002.764919195506,150,False,19.088437088132924,False,159.19050872362826,178.1570098137302,False,22.64374208841748,True,False
3,1970-07-23 10:29:47.882574810,2025-09-12,2025-09-26 17:39:48.257,AA,D,3329611668,JASSM,3,130,76,2,2,1,225,9,2,0,1,26,0,0,0,0,-168087.6866472525,-4793298.800752486,4194881.075651646,-2.29541,0.0351857,-0.0794794,89.875,3.125,7.125,0.0,0.0,0.0,0.0,0.0,0.0,2,0,41.36422175483109,-92.00838100863024,10002.623494143589,83.92555888856374,-0.002174648108281,0.007072873819895,,9140.793540731764,11002.764919195506,150,3,2025-09-12,2025-09-26 17:39:48.273,AA,D,1840174760,HAWK11,1,1,73,2,1,1,225,2,1,0,0,12,1,225,2,1,-132701.71325858062,-4792980.605439986,4196931.308073521,3.11801,-2.92952,0.137962,-97.25,-20.75,-24.625,-0.15625,-10.0625,9.0625,-0.0078125,0.0644531,0.0664062,4,0,41.38656075432352,-91.58592468039316,10933.643572820123,-105.04841668402794,4.907314647569796,45.65993578564828,186.593,9140.793540731764,11002.764919195506,150,False,19.070972693066224,False,166.3549166724849,178.0912941048235,False,15.548289987642086,True,False
3,1970-07-23 10:29:47.888541426,2025-09-12,2025-09-26 17:39:48.854,AA,D,3332117066,JASSM,3,130,76,2,2,1,225,9,2,0,1,26,0,0,0,0,-167898.88142569488,-4793292.152314986,4194896.133268833,-2.29541,0.0351857,-0.0793835,89.875,3.125,7.125,0.0,0.0,0.0,0.0,0.0,0.0,2,0,41.364402309705376,-92.00612971059653,10002.625849674789,83.9311592434026,-0.0041170218567199,0.0070734724981235,,9140.793540731764,11002.764919195506,150,3,2025-09-12,2025-09-26 17:39:48.927,AA,D,1841685892,HAWK11,1,1,73,2,1,1,225,2,1,0,0,12,1,225,2,1,-132825.88903983062,-4793001.312471236,4196904.642057896,3.0972,-3.01571,0.0582913,-98.875,-12.5,-16.125,-0.15625,-10.0312,9.0,-0.00390625,0.0703125,0.0664062,4,0,41.38623709659026,-91.5874010977782,10935.217417135136,-98.3431269652514,4.362610933965841,45.49503422400764,186.104,9140.793540731764,11002.764919195506,150,False,18.90135395223615,False,173.0356731304324,178.0359867823139,False,8.926622588949506,True,False
3,1970-07-23 10:29:47.897455031,2025-09-12,2025-09-26 17:39:49.745,AA,D,3333369766,JASSM,3,130,76,2,2,1,225,9,2,0,1,26,0,0,0,0,-167804.47866936153,-4793288.826143111,4194903.659636021,-2.29541,0.0351857,-0.0793835,89.875,3.125,7.125,0.0,0.0,0.0,0.0,0.0,0.0,2,0,41.364492565773936,-92.00500405599192,10002.623830641936,83.93190312804049,-0.0032673867240457,0.0070739102714766,,9140.793540731764,11002.764919195506,150,3,2025-09-12,2025-09-26 17:39:49.833,AA,D,1842839124,HAWK11,1,1,73,2,1,1,225,2,1,0,0,12,1,225,2,1,-132922.34216483062,-4793010.013643111,4196891.595182896,3.08915,-3.08186,-0.00891626,-99.0,-5.75,-9.375,-0.25,-9.90625,8.92188,-0.00195312,0.0703125,0.0703125,4,0,41.386081352401966,-91.58855033548956,10934.907162363465,-92.93391491507928,4.095740302396677,45.52658085936222,185.909,9140.793540731764,11002.764919195506,150,False,18.798111495758413,False,178.41240655342816,178.0127296935121,False,3.569533699712805,True,False
3,1970-07-23 10:29:47.908476094,2025-09-12,2025-09-26 17:39:50.847,AA,D,3334632546,JASSM,3,130,76,2,2,1,225,9,2,0,1,26,0,0,0,0,-167709.3162706656,-4793285.472627486,4194911.246550083,-2.29541,0.0352816,-0.0793835,89.875,3.125,7.125,0.0,0.0,0.0,0.0,0.0,0.0,2,0,41.364583540300245,-92.00386934053628,10002.625001767889,83.92902281076033,-0.0065105461538763,0.0075102474933884,,9140.793540731764,11002.764919195506,150,3,2025-09-12,2025-09-26 17:39:50.833,AA,D,1843873056,HAWK11,1,1,73,2,1,1,225,2,1,0,0,12,1,225,2,1,-133007.69372733062,-4793012.242158736,4196885.368620396,3.07717,-3.13987,-0.0677828,-98.625,0.0,-3.5,-0.140625,-9.95312,9.10938,-0.0195312,0.0703125,0.0703125,4,0,41.38601197496264,-91.58956910722618,10932.710903580662,-88.19764598949179,3.832191205769217,45.04014162659269,185.713,9140.793540731764,11002.764919195506,150,False,18.700679027320625,False,176.80784307588755,178.00377564181088,False,1.303756324796734,True,False
3,1970-07-23 10:29:47.918255995,2025-09-12,2025-09-26 17:39:51.825,AA,D,3335875162,JASSM,3,130,76,2,2,1,225,9,2,0,1,26,0,0,0,0,-167615.67331107086,-4793282.170869674,4194918.711393833,-2.29541,0.0352816,-0.0793835,89.875,3.125,7.125,0.0,0.0,0.0,0.0,0.0,0.0,2,0,41.36467305566129,-92.00275274051778,10002.624309796414,83.92976071434086,-0.0056677492060791,0.0075106359018778,,9140.793540731764,11002.764919195506,150,3,2025-09-12,2025-09-26 17:39:52.035,AA,D,1845423956,HAWK11,1,1,73,2,1,1,225,2,1,0,0,12,1,225,2,1,-133135.61169608062,-4793006.582002486,4196885.802214146,2.88705,3.05972,-0.159822,-96.75,7.625,5.375,-0.171875,-10.1094,9.28125,-0.224609,0.0605469,0.0527344,4,0,41.38602744376564,-91.5910989418013,10928.462825170833,-81.08161144334869,3.7358051796832985,34.07274754822473,186.068,9140.793540731764,11002.764919195506,150,False,18.581458424350185,False,169.92823464252123,178.01490535277162,False,8.125748083311755,True,False
3,1970-07-23 10:29:47.929273837,2025-09-12,2025-09-26 17:39:52.927,AA,D,3337127862,JASSM,3,130,76,2,2,1,225,9,2,0,1,26,0,0,0,0,-167521.27044852203,-4793278.841768111,4194926.235807896,-2.29541,0.0352816,-0.0793835,89.875,3.125,7.125,0.0,0.0,0.0,0.0,0.0,0.0,2,0,41.36476328293798,-92.00162707653742,10002.624668224227,83.93050460915936,-0.0048181136055079,0.0075110239337764,,9140.793540731764,11002.764919195506,150,3,2025-09-12,2025-09-26 17:39:53.136,AA,D,1846696488,HAWK11,1,1,73,2,1,1,225,2,1,0,0,12,1,225,2,1,-133239.01013358062,-4792996.413057174,4196894.948698521,2.68696,3.03651,-0.222044,-94.875,10.125,12.0,0.0,-9.76562,9.07812,-0.136719,0.0488281,0.0078125,4,0,41.38613259095949,-91.59233739349808,10930.35045413824,-77.53295623632103,5.111305816319905,22.63005442089197,187.143,9140.793540731764,11002.764919195506,150,False,18.475291101656524,False,165.7900380983897,178.03942085824067,False,12.337579114881606,True,False
3,1970-07-23 10:29:47.940133890,2025-09-12,2025-09-26 17:39:54.013,AA,D,3338380560,JASSM,3,130,76,2,2,1,225,9,2,0,1,26,0,0,0,0,-167426.86764700836,-4793275.511689986,4194933.759245396,-2.29541,0.0352816,-0.0793835,89.875,3.125,7.125,0.0,0.0,0.0,0.0,0.0,0.0,2,0,41.36485349839851,-92.00050141058357,10002.625121666506,83.93124850661819,-0.0039684789513052,0.0075114112141863,,9140.793540731764,11002.764919195506,150,3,2025-09-12,2025-09-26 17:39:54.035,AA,D,1847730420,HAWK11,1,1,73,2,1,1,225,2,1,0,0,12,1,225,2,1,-133320.75622733062,-4792986.674775924,4196906.476042271,2.55897,3.04083,-0.245245,-93.25,11.25,15.875,-0.0625,-9.21875,8.34375,-0.142578,0.0234375,0.0078125,4,0,41.386254821113646,-91.5933170719902,10936.98552717497,-76.68865314869102,6.169391611688183,15.437002464734864,188.487,9140.793540731764,11002.764919195506,150,False,18.380823699776588,False,163.33873685001916,178.0645836729463,False,14.84378979616863,True,False
3,1970-07-23 10:29:47.949436705,2025-09-12,2025-09-26 17:39:54.943,AA,D,3339573608,JASSM,3,130,76,2,2,1,225,9,2,0,1,26,0,0,0,0,-167336.96014578766,-4793272.338838424,4194940.923307896,-2.29541,0.0352816,-0.0793835,89.875,3.125,7.125,0.0,0.0,0.0,0.0,0.0,0.0,2,0,41.36493940813907,-91.99942934459176,10002.624095103332,83.93195698373103,-0.0031593028357627,0.0075117804803173,,9140.793540731764,11002.764919195506,150,3,2025-09-12,2025-09-26 17:39:55.035,AA,D,1848963184,HAWK11,1,1,73,2,1,1,225,2,1,0,0,12,1,225,2,1,-133415.87341483062,-4792972.979463424,4196924.007292271,2.49531,3.02472,-0.27813,-91.25,11.875,19.125,0.09375,-8.54688,7.79688,-0.00390625,0.0234375,0.0234375,4,0,41.3864389013288,-91.59445778502209,10947.826327049976,-74.6716501640078,6.740157119507059,11.777648349907263,190.174,9140.793540731764,11002.764919195506,150,False,18.281815484141863,False,161.23118178056023,178.10271188611213,False,17.018658991595963,True,False
3,1970-07-23 10:29:47.960452697,2025-09-12,2025-09-26 17:39:56.045,AA,D,3340885958,JASSM,3,130,76,2,2,1,225,9,2,0,1,26,0,0,0,0,-167238.06189139312,-4793268.847627486,4194948.803190708,-2.29541,0.0352816,-0.0793835,89.875,3.125,7.125,0.0,0.0,0.0,0.0,0.0,0.0,2,0,41.365033899745306,-91.99825006915488,10002.623881525516,83.93273631183517,-0.0022692091728916,0.0075121890762064,,9140.793540731764,11002.764919195506,150,3,2025-09-12,2025-09-26 17:39:55.925,AA,D,1850076650,HAWK11,1,1,73,2,1,1,225,2,1,0,0,12,1,225,2,1,-133501.59997733062,-4792960.286104049,4196942.491667271,2.50116,3.01159,-0.295387,-89.625,12.625,21.375,-0.078125,-8.14062,7.17188,0.0214844,0.00976562,0.0136719,4,0,41.38662500202669,-91.59548599999088,10962.561169197512,-73.44432787021809,6.849679818466055,12.045198475732107,191.885,9140.793540731764,11002.764919195506,150,False,18.183023752183928,False,159.5976304886638,178.1395956552595,False,18.702242655786186,True,False
3,1970-07-23 10:29:47.970492305,2025-09-12,2025-09-26 17:39:57.049,AA,D,3342079004,JASSM,3,130,76,2,2,1,225,9,2,0,1,26,0,0,0,0,-167148.15435965484,-4793265.672822799,4194955.966276646,-2.29541,0.0352816,-0.0793835,89.875,3.125,7.125,0.0,0.0,0.0,0.0,0.0,0.0,2,0,41.36511979352999,-91.99717799769074,10002.62471011236,83.93344479510849,-0.0014600328876533,0.0075125632895088,,9140.793540731764,11002.764919195506,150,3,2025-09-12,2025-09-26 17:39:57.123,AA,D,1851349182,HAWK11,1,1,73,2,1,1,225,2,1,0,0,12,1,225,2,1,-133595.50622733062,-4792943.887666549,4196964.987761021,2.44449,2.98848,-0.306509,-87.75,14.0,23.0,0.078125,-7.35938,6.4375,-0.103516,-0.00585938,0.0351562,4,0,41.3868588596751,-91.59661315855205,10977.446314417151,-72.12243166349978,6.323056796849697,8.558024262337744,193.816,9140.793540731764,11002.764919195506,150,True,18.084857934430424,False,158.0283783511692,178.18699773552854,False,20.311929816751018,True,False
3,1970-07-23 10:29:47.981254514,2025-09-12,2025-09-26 17:39:58.125,AA,D,3343331704,JASSM,3,130,76,2,2,1,225,9,2,0,1,26,0,0,0,0,-167053.75140555328,-4793262.338838424,4194963.485807896,-2.29541,0.0352816,-0.0793835,89.875,3.125,7.125,0.0,0.0,0.0,0.0,0.0,0.0,2,0,41.36520996233232,-91.9960523192556,10002.6252899004,83.93418870609482,-0.0006103984727827,0.0075129472720716,,9140.793540731764,11002.764919195506,150,3,2025-09-12,2025-09-26 17:39:58.029,AA,D,1852422882,HAWK11,1,1,73,2,1,1,225,2,1,0,0,12,1,225,2,1,-133674.63513358062,-4792929.785127486,4196984.618620396,2.40058,2.96154,-0.320123,-86.625,15.125,23.125,-0.140625,-6.92188,6.09375,-0.0292969,-0.00390625,0.015625,4,0,41.38706215689917,-91.59756304420864,10990.75636881614,-70.55559923280718,5.745053070153087,5.731191960613993,195.49,9140.793540731764,11002.764919195506,150,True,17.992106834502767,False,157.41414421143008,178.22724273271513,False,20.950351904190768,True,False
3,1970-07-23 10:29:47.992955466,2025-09-12,2025-09-26 17:39:59.295,AA,D,3344584400,JASSM,3,130,76,2,2,1,225,9,2,0,1,26,0,0,0,0,-166959.34851248687,-4793259.002900924,4194971.004362583,-2.29541,0.0352816,-0.0792876,89.875,3.125,7.125,0.0,0.0,0.0,0.0,0.0,0.0,2,0,41.36530012512296,-91.99492663925383,10002.623561520868,83.93904518840405,-0.0034024400201266,0.0075132227834348,,9140.793540731764,11002.764919195506,150,3,2025-09-12,2025-09-26 17:39:59.233,AA,D,1854013546,HAWK11,1,1,73,2,1,1,225,2,1,0,0,12,1,225,2,1,-133790.10778983062,-4792907.678682174,4197013.583464146,2.38256,2.94611,-0.308522,-85.125,16.625,22.5,-0.203125,-6.5,5.54688,-0.015625,-0.0234375,0.0,4,0,41.3873700374659,-91.59894972795436,11007.11852795434,-70.48839300318036,4.676288160189039,4.431269541375946,197.824,9140.793540731764,11002.764919195506,150,True,17.880213960987046,False,156.95711484133705,178.2911255282927,False,21.445139756488413,True,False
3,1970-07-23 10:29:48.001413132,2025-09-12,2025-09-26 17:40:00.141,AA,D,3345777448,JASSM,3,130,76,2,2,1,225,9,2,0,1,26,0,0,0,0,-166869.44073660797,-4793255.826143111,4194978.164518833,-2.29541,0.0353774,-0.0792876,89.875,3.125,7.125,0.0,0.0,0.0,0.0,0.0,0.0,2,0,41.36538597981515,-91.99385455694896,10002.626173859384,83.93612343238382,-0.0066928981071615,0.007949025911337,,9140.793540731764,11002.764919195506,150,3,2025-09-12,2025-09-26 17:40:00.233,AA,D,1855206544,HAWK11,1,1,73,2,1,1,225,2,1,0,0,12,1,225,2,1,-133874.15857108062,-4792889.575166549,4197035.075651646,2.37067,2.92655,-0.317151,-84.125,18.0,22.0,-0.140625,-6.70312,5.82812,-0.0234375,0.00585938,0.0195312,4,0,41.38760886035112,-91.5999597522067,11014.96851202519,-69.40328516412643,4.219471399573838,3.489477141630597,198.313,9140.793540731764,11002.764919195506,150,True,17.787376417289806,False,156.5286282331007,178.34003078477755,False,21.90158285353227,True,False
3,1970-07-23 10:29:48.012432559,2025-09-12,2025-09-26 17:40:01.243,AA,D,3347089798,JASSM,3,130,76,2,2,1,225,9,2,0,1,26,0,0,0,0,-166770.54236014312,-4793252.329072799,4194986.039518833,-2.29541,0.0353774,-0.0792876,89.875,3.125,7.125,0.0,0.0,0.0,0.0,0.0,0.0,2,0,41.36548041616045,-91.99267526636764,10002.624863065595,83.93690277736799,-0.0058028050509646,0.0079494437226131,,9140.793540731764,11002.764919195506,150,3,2025-09-12,2025-09-26 17:40:01.327,AA,D,1856518844,HAWK11,1,1,73,2,1,1,225,2,1,0,0,12,1,225,2,1,-133965.76794608062,-4792868.010713424,4197059.151823521,2.28467,2.90967,-0.319931,-83.0,19.25,21.5,-0.09375,-6.46875,5.59375,-0.0976562,0.0,0.0,4,0,41.38788444818823,-91.6010612263452,11020.431746286602,-68.6648605638782,3.650576129002774,-1.6899156283327412,198.533,9140.793540731764,11002.764919195506,150,True,17.68576008077748,False,156.0787595384477,178.39690276359536,False,22.39191845918513,True,False
3,1970-07-23 10:29:48.022495408,2025-09-12,2025-09-26 17:40:02.249,AA,D,3348282846,JASSM,3,130,76,2,2,1,225,9,2,0,1,26,0,0,0,0,-166680.63464529935,-4793249.149385299,4194993.197721958,-2.29541,0.0353774,-0.0792876,89.875,3.125,7.125,0.0,0.0,0.0,0.0,0.0,0.0,2,0,41.36556625408591,-91.99160318009068,10002.62481790195,83.93761127667719,-0.004993629129971,0.0079498206403011,,9140.793540731764,11002.764919195506,150,3,2025-09-12,2025-09-26 17:40:02.253,AA,D,1854808878,HAWK11,1,1,73,2,1,1,225,2,1,0,0,12,1,225,2,1,-133846.59607108062,-4792895.596650924,4197028.034636021,2.36914,2.93451,-0.311686,-84.5,17.5,22.375,-0.078125,-6.5625,5.6875,-0.00976562,0.00390625,0.015625,4,0,41.387530086476886,-91.59962850919295,11012.617493400514,-69.92789346187368,4.329274008763272,3.50345991155269,198.276,9140.793540731764,11002.764919195506,150,True,17.699943271285434,False,156.59498432772932,178.3124264812845,False,21.817543980800963,True,False
3,1970-07-23 10:29:48.033340221,2025-09-12,2025-09-26 17:40:03.334,AA,D,3349475892,JASSM,3,130,76,2,2,1,225,9,2,0,1,26,0,0,0,0,-166590.7268083853,-4793245.968721236,4195000.354948521,-2.29541,0.0353774,-0.0792876,89.875,3.125,7.125,0.0,0.0,0.0,0.0,0.0,0.0,2,0,41.36565208125658,-91.99053108994406,10002.62442342205,83.93831977975445,-0.0041844525168869,0.0079501966747434,,9140.793540731764,11002.764919195506,150,3,2025-09-12,2025-09-26 17:40:03.419,AA,D,1859063908,HAWK11,1,1,73,2,1,1,225,2,1,0,0,12,1,225,2,1,-134141.53747733062,-4792825.693330611,4197102.540495396,2.19052,2.91917,-0.292223,-82.375,19.625,19.375,0.03125,-7.03125,6.17188,0.03125,0.0,-0.0078125,4,0,41.38839984248424,-91.60317494758786,11022.523313524904,-70.18890846875023,2.960594357549541,-7.008053075361835,198.349,9140.793540731764,11002.764919195506,150,True,17.496136148852734,False,156.82325582909917,178.5062654424736,False,21.740657000424427,True,False
3,1970-07-23 10:29:48.043255020,2025-09-12,2025-09-26 17:40:04.325,AA,D,3350728592,JASSM,3,130,76,2,2,1,225,9,2,0,1,26,0,0,0,0,-166496.32361014312,-4793242.627900924,4195007.869596958,-2.29541,0.0353774,-0.0792876,89.875,3.125,7.125,0.0,0.0,0.0,0.0,0.0,0.0,2,0,41.36574219273636,-91.98940539308816,10002.624795880814,83.93906371074338,-0.0033348173150672,0.0079505952160249,,9140.793540731764,11002.764919195506,150,3,2025-09-12,2025-09-26 17:40:04.419,AA,D,1860177372,HAWK11,1,1,73,2,1,1,225,2,1,0,0,12,1,225,2,1,-134218.58044608062,-4792807.641572799,4197120.153776646,2.2305,2.92137,-0.287717,-82.25,19.375,18.375,0.03125,-7.125,6.35938,0.0585938,0.00390625,-0.0078125,4,0,41.38861329812156,-91.60410127411924,11021.620673633946,-70.46199917646227,2.8761285097795226,-4.695117450659151,197.714,9140.793540731764,11002.764919195506,150,True,17.404573696473815,False,157.37516241218495,178.55186984231372,False,21.230954167923738,True,False
3,1970-07-23 10:29:48.053731979,2025-09-12,2025-09-26 17:40:05.373,AA,D,3351981290,JASSM,3,130,76,2,2,1,225,9,2,0,1,26,0,0,0,0,-166401.92041190094,-4793239.286104049,4195015.382292271,-2.29541,0.0353774,-0.0792876,89.875,3.125,7.125,0.0,0.0,0.0,0.0,0.0,0.0,2,0,41.365832285816175,-91.98827969353133,10002.623140693217,83.93980764485214,-0.0024851832087874,0.0079509864014067,,9140.793540731764,11002.764919195506,150,3,2025-09-12,2025-09-26 17:40:05.419,AA,D,1861449904,HAWK11,1,1,73,2,1,1,225,2,1,0,0,12,1,225,2,1,-134306.36560233062,-4792787.312471236,4197139.935026646,2.3259,2.91984,-0.287813,-82.0,19.125,18.25,0.0,-7.1875,6.42188,0.0585938,0.00585938,0.00585938,4,0,41.38885313818826,-91.60515668666632,11020.561452872093,-70.40162842166647,2.8185354556880045,0.7487059281218482,196.895,9140.793540731764,11002.764919195506,150,True,17.307355804050403,False,157.48773087850662,178.60418029039874,False,21.174747665144963,True,False
3,1970-07-23 10:29:48.064416749,2025-09-12,2025-09-26 17:40:06.441,AA,D,3353293640,JASSM,3,130,76,2,2,1,225,9,2,0,1,26,0,0,0,0,-166303.02185233062,-4793235.784150924,4195023.253386021,-2.29541,0.0353774,-0.0792876,89.875,3.125,7.125,0.0,0.0,0.0,0.0,0.0,0.0,2,0,41.36592666770346,-91.98710038667387,10002.625247951162,83.94058700751698,-0.0015950898196769,0.007951406644851,,9140.793540731764,11002.764919195506,150,3,2025-09-12,2025-09-26 17:40:06.623,AA,D,1862642904,HAWK11,1,1,73,2,1,1,225,2,1,0,0,12,1,225,2,1,-134388.23669608062,-4792768.123018111,4197158.487761021,2.36377,2.90824,-0.299126,-81.375,19.375,18.375,0.0,-7.1875,6.51562,0.0292969,0.0078125,0.0234375,4,0,41.38907888218844,-91.60614108044835,11019.23773484366,-69.49339860387323,2.7895305068739,2.770732765266406,196.822,9140.793540731764,11002.764919195506,150,True,17.210845768651993,False,157.1950868017747,178.65326311424795,False,21.517809396769483,True,False
3,1970-07-23 10:29:48.075436605,2025-09-12,2025-09-26 17:40:07.543,AA,D,3354546340,JASSM,3,130,76,2,2,1,225,9,2,0,1,26,0,0,0,0,-166208.61865408844,-4793232.440400924,4195030.764128208,-2.29541,0.0353774,-0.0792876,89.875,3.125,7.125,0.0,0.0,0.0,0.0,0.0,0.0,2,0,41.36601673665096,-91.98597468156792,10002.623991744244,83.94133094802483,-0.000745456511666,0.0079517962348265,,9140.793540731764,11002.764919195506,150,3,2025-09-12,2025-09-26 17:40:07.419,AA,D,1863756370,HAWK11,1,1,73,2,1,1,225,2,1,0,0,12,1,225,2,1,-134463.94372733062,-4792749.773408736,4197176.044401646,2.39435,2.89616,-0.313987,-80.75,20.0,18.75,-0.09375,-7.29688,6.60938,0.0292969,0.00585938,0.0175781,4,0,41.38929392603772,-91.60705156827056,11017.397967709045,-68.41952548364664,2.8834751186322936,4.367399029307649,197.042,9140.793540731764,11002.764919195506,150,True,17.12004277834483,False,156.62076834105025,178.70011896086123,False,22.13895822276451,True,False
3,1970-07-23 10:29:48.085471122,2025-09-12,2025-09-26 17:40:08.547,AA,D,3355799040,JASSM,3,130,76,2,2,1,225,9,2,0,1,26,0,0,0,0,-166114.21521170562,-4793229.095674361,4195038.274870396,-2.29541,0.0353774,-0.0792876,89.875,3.125,7.125,0.0,0.0,0.0,0.0,0.0,0.0,2,0,41.3661068004408,-91.98484897084674,10002.624921807976,83.94207489357738,0.0001041792746515,0.0079521914064488,,9140.793540731764,11002.764919195506,150,3,2025-09-12,2025-09-26 17:40:08.327,AA,D,1864909602,HAWK11,1,1,73,2,1,1,225,2,1,0,0,12,1,225,2,1,-134541.62341483062,-4792730.194307174,4197194.542448521,2.38793,2.88781,-0.321944,-80.0,20.375,19.375,-0.125,-7.21875,6.57812,-0.0449219,-0.00195312,0.00195312,4,0,41.38952230200956,-91.60798603852834,11014.71475965483,-67.77633587799419,2.8617787842725573,3.8822496058006295,196.968,9140.793540731764,11002.764919195506,150,True,17.028242606105167,False,155.99989041026618,178.7501951431962,False,22.814339775401777,True,False
3,1970-07-23 10:29:48.097330839,2025-09-12,2025-09-26 17:40:09.733,AA,D,3357051738,JASSM,3,130,76,2,2,1,225,9,2,0,1,26,0,0,0,0,-166019.81189139312,-4793225.749971236,4195045.784636021,-2.29541,0.0354733,-0.0791918,89.875,3.125,7.125,0.0,0.0,0.0,0.0,0.0,0.0,2,0,41.36619685240139,-91.9837232588828,10002.625952004162,83.9433010731085,-0.0067875317204777,0.0083873838387702,,9140.793540731764,11002.764919195506,150,3,2025-09-12,2025-09-26 17:40:10.123,AA,D,1866977466,HAWK11,1,1,73,2,1,1,225,2,1,0,0,12,1,225,2,1,-134679.72888358062,-4792694.066377486,4197228.640104771,2.32897,2.87353,-0.33575,-79.125,21.0,19.625,0.0,-7.1875,6.51562,-0.0078125,0.0078125,0.0,4,0,41.38994432306879,-91.60964787754192,11009.33407118026,-66.66924850356676,2.8368121348536275,0.2947995159531005,196.858,9140.793540731764,11002.764919195506,150,True,16.904793913739514,False,155.4160176828737,178.8458431411551,False,23.496327067333073,True,False
3,1970-07-23 10:29:48.107254037,2025-09-12,2025-09-26 17:40:10.725,AA,D,3358364078,JASSM,3,130,76,2,2,1,225,9,2,0,1,26,0,0,0,0,-165920.91394217435,-4793222.243135299,4195053.650846958,-2.29551,0.0354733,-0.0791918,89.875,3.125,7.125,0.0,0.0,0.0,0.0,0.0,0.0,2,0,41.366291183508615,-91.98254394816884,10002.625057726687,83.94408044392122,-0.005897445769069,0.00289633598137,,9140.793540731764,11002.764919195506,150,3,2025-09-12,2025-09-26 17:40:10.623,AA,D,1867573966,HAWK11,1,1,73,2,1,1,225,2,1,0,0,12,1,225,2,1,-134719.64294608062,-4792683.346650924,4197238.882292271,2.3375,2.87267,-0.335367,-78.75,21.0,19.875,0.0,-7.1875,6.45312,0.0429688,0.00195312,0.0,4,0,41.39007055977684,-91.61012826567698,11007.936959461218,-66.6536490017189,2.7881106100206043,0.76821924252602,196.822,9140.793540731764,11002.764919195506,150,True,16.83046263981473,False,155.20922237837146,178.8716377901812,False,23.73295901624002,True,False
3,1970-07-23 10:29:48.118932737,2025-09-12,2025-09-26 17:40:11.893,AA,D,3359616780,JASSM,3,130,76,2,2,1,225,9,2,0,1,26,0,0,0,0,-165826.51025565094,-4793218.895479049,4195061.158659458,-2.29551,0.0354733,-0.0791918,89.875,3.25,7.125,0.0,0.0,0.0,0.0,0.0,0.0,2,0,41.36638121141194,-91.9814182262848,10002.626455670028,83.94482440086158,-0.0050478090008668,0.0028967357310385,,9140.793540731764,11002.764919195506,150,3,2025-09-12,2025-09-26 17:40:11.919,AA,D,1869204396,HAWK11,1,1,73,2,1,1,225,2,1,0,0,12,1,225,2,1,-134826.31872733062,-4792654.245088424,4197266.421354771,2.44536,2.86826,-0.340544,-77.875,21.625,20.375,-0.21875,-7.17188,6.57812,0.119141,0.00976562,0.0136719,4,0,41.39041173787805,-91.61141232975685,11003.45520673139,-66.27460800012574,2.8183595070913388,6.882893133876376,196.675,9140.793540731764,11002.764919195506,150,True,16.723612588742245,False,154.43931450217366,178.87627272279545,False,24.530065269065965,True,False
3,1970-07-23 10:29:48.128393885,2025-09-12,2025-09-26 17:40:12.839,AA,D,3360869486,JASSM,3,130,76,2,2,1,225,9,2,0,1,26,0,0,0,0,-165732.10608084625,-4793215.545869674,4195068.665495396,-2.29551,0.0354733,-0.0791918,89.875,3.25,7.125,0.0,0.0,0.0,0.0,0.0,0.0,2,0,41.36647123341615,-91.98029249627452,10002.625498677997,83.94556836450536,-0.0041981679578528,0.0028971401266703,,9140.793540731764,11002.764919195506,150,3,2025-09-12,2025-09-26 17:40:12.919,AA,D,1870317862,HAWK11,1,1,73,2,1,1,225,2,1,0,0,12,1,225,2,1,-134898.95153983062,-4792633.783174361,4197285.856901646,2.53481,2.8441,-0.356363,-77.0,22.75,21.0,-0.015625,-7.14062,6.4375,0.0605469,0.00585938,0.0351562,4,0,41.39065250395334,-91.61228684183908,11000.30038611047,-64.7208908177584,2.4971256104296065,11.6074631178919,196.553,9140.793540731764,11002.764919195506,150,False,16.634642593783664,False,153.43732739992035,178.92810844571218,False,25.584348716265453,True,False
3,1970-07-23 10:29:48.140541458,2025-09-12,2025-09-26 17:40:14.054,AA,D,3362181838,JASSM,3,130,76,2,2,1,225,9,2,0,1,26,0,0,0,0,-165633.20739920562,-4793212.036104049,4195076.528776646,-2.29551,0.0354733,-0.0791918,89.875,3.25,7.125,0.0,0.0,0.0,0.0,0.0,0.0,2,0,41.36656552713888,-91.97911316811803,10002.625699731236,83.94634775110295,-0.0033080766604079,0.002897561421275,,9140.793540731764,11002.764919195506,150,3,2025-09-12,2025-09-26 17:40:13.825,AA,D,1871391562,HAWK11,1,1,73,2,1,1,225,2,1,0,0,12,1,225,2,1,-134968.16247733062,-4792612.827119674,4197305.509245396,2.56645,2.81227,-0.380427,-76.0,24.0,22.25,0.0,-7.375,6.82812,0.00585938,0.00976562,0.0371094,4,0,41.39089823941048,-91.61312065071066,10996.166110272125,-62.54639658965942,2.2281571710493417,12.853087493111286,196.822,9140.793540731764,11002.764919195506,150,False,16.545114176753078,False,152.04432011052614,178.98043634053306,False,27.034853639020245,True,False
3,1970-07-23 10:29:48.149450897,2025-09-12,2025-09-26 17:40:14.945,AA,D,3363434536,JASSM,3,130,76,2,2,1,225,9,2,0,1,26,0,0,0,0,-165538.8038347525,-4793208.684541549,4195084.033659458,-2.29551,0.0354733,-0.0791918,89.875,3.25,7.125,0.0,0.0,0.0,0.0,0.0,0.0,2,0,41.36665552488464,-91.97798743984752,10002.625193669845,83.94709171632698,-0.002458441864747,0.0028979646735918,,9140.793540731764,11002.764919195506,150,3,2025-09-12,2025-09-26 17:40:14.825,AA,D,1872624326,HAWK11,1,1,73,2,1,1,225,2,1,0,0,12,1,225,2,1,-135046.10974295562,-4792586.731416549,4197330.491667271,2.54075,2.78667,-0.405354,-74.5,25.5,24.125,0.015625,-7.5,6.90625,-0.0644531,0.00195312,0.0253906,4,0,41.39120906040015,-91.61406055678984,10991.55745551505,-60.577137879060345,2.261283897868638,10.896541341396926,196.932,9140.793540731764,11002.764919195506,150,False,16.45362238526222,False,150.10089484943697,179.04586056483123,False,29.054058343162488,True,False
3,1970-07-23 10:29:48.164530850,2025-09-12,2025-09-26 17:40:16.453,AA,D,3364746888,JASSM,3,130,76,2,2,1,225,9,2,0,1,26,0,0,0,0,-165439.90490897125,-4793205.172822799,4195091.894987583,-2.29551,0.0354733,-0.0791918,89.875,3.25,7.125,0.0,0.0,0.0,0.0,0.0,0.0,2,0,41.36674979345064,-91.9768081029269,10002.626222417714,83.94787111157608,-0.0015683491833191,0.0028983841878631,,9140.793540731764,11002.764919195506,150,3,2025-09-12,2025-09-26 17:40:16.419,AA,D,1874413824,HAWK11,1,1,73,2,1,1,225,2,1,0,0,12,1,225,2,1,-135155.74255545562,-4792547.620088424,4197369.163542271,2.55638,2.76855,-0.424337,-72.75,25.125,27.625,-0.125,-7.48438,6.84375,-0.00390625,0.00195312,0.00976562,4,0,41.39168439829907,-91.61538336146371,10986.824523526608,-59.13568327775023,2.356012991843245,11.431640768495516,197.421,9140.793540731764,11002.764919195506,150,False,16.34346087272454,False,148.05335013404124,179.14372656396623,False,31.244767403378344,False,False
