Subject_cm,Timestamp,SampleDate_cm,SampleTime_cm,Configuration_cm,Scenario_cm,DisTime_cm,MarkingTxt_cm,Application_cm,EntId_cm,Site_cm,ExerciseId_cm,ForceId_cm,Category_cm,Country_cm,Domain_cm,Kind_cm,Extra_cm,Specific_cm,Subcategory_cm,AltCategory_cm,AltCountry_cm,AltDomain_cm,AltKind_cm,ECEF_X_cm,ECEF_Y_cm,ECEF_Z_cm,OriPhi_cm,OriPsi_cm,OriTheta_cm,LinVelX_cm,LinVelY_cm,LinVelZ_cm,LinAccX_cm,LinAccY_cm,LinAccZ_cm,AngVelX_cm,AngVelY_cm,AngVelZ_cm,DrAlg_cm,Appearance_cm,Latitude_cm,Longitude_cm,Altitude_cm,Heading_cm,Pitch_cm,Roll_cm,CalibratedAirspeed_cm,CM_Altitude_Lead_cm,CM_Altitude_Wing_cm,CM_Airspeed_cm,Subject_ac,SampleDate_ac,SampleTime_ac,Configuration_ac,Scenario_ac,DisTime_ac,MarkingTxt_ac,Application_ac,EntId_ac,Site_ac,ExerciseId_ac,ForceId_ac,Category_ac,Country_ac,Domain_ac,Kind_ac,Extra_ac,Specific_ac,Subcategory_ac,AltCategory_ac,AltCountry_ac,AltDomain_ac,AltKind_ac,ECEF_X_ac,ECEF_Y_ac,ECEF_Z_ac,OriPhi_ac,OriPsi_ac,OriTheta_ac,LinVelX_ac,LinVelY_ac,LinVelZ_ac,LinAccX_ac,LinAccY_ac,LinAccZ_ac,AngVelX_ac,AngVelY_ac,AngVelZ_ac,DrAlg_ac,Appearance_ac,Latitude_ac,Longitude_ac,Altitude_ac,Heading_ac,Pitch_ac,Roll_ac,CalibratedAirspeed_ac,CM_Altitude_Lead_ac,CM_Altitude_Wing_ac,CM_Airspeed_ac,Bank_Angle_Condition,distance_nm,Distance_Condition,angle_between_vel,angle_between_pos,Cone_Condition,angle_between_pos_nose,Nose_Cone_Condition,Intercept_Criteria
3,1970-07-23 10:29:32.264961488,2025-09-12,2025-09-26 17:13:46.496,AH,C,1468339870,JASSM,3,101,76,2,2,1,225,9,2,0,1,26,0,0,0,0,-155736.42517264312,-4777167.186494674,4213591.597136021,-2.71093,-1.01118,0.751842,35.375,-56.25,-62.125,0.0,0.0,0.0,0.0,0.0,0.0,2,0,41.58896942772939,-91.86719042828138,10002.623925246957,155.9382815517294,-0.0042671294299212,-0.000656627794446,,9006.830035856614,10864.345111209012,150,3,2025-09-12,2025-09-26 17:13:46.429,AH,C,4272433576,HAWK11,1,1,73,2,1,1,225,2,1,0,0,12,1,225,2,1,-148456.12732108062,-4791916.980439986,4197581.556120396,2.40883,2.52417,-0.599211,-96.875,46.75,50.125,-0.078125,-6.67188,6.79688,-0.0078125,0.0078125,0.00390625,4,0,41.394528382635336,-91.7744860427086,10864.345111209012,-43.480709021314325,1.7251888755260525,-3.294094251962477,191.127,9006.830035856614,10864.345111209012,150,True,12.3860118109719,False,148.15917000485732,175.58286994078952,False,36.22831630067484,False,False
3,1970-07-23 10:29:32.275278796,2025-09-12,2025-09-26 17:13:47.527,AH,C,1469592570,JASSM,3,101,76,2,2,1,225,9,2,0,1,26,0,0,0,0,-155699.30505545562,-4777226.459932174,4213526.206511021,-2.71093,-1.01118,0.751842,35.375,-56.25,-62.125,0.0,0.0,0.0,0.0,0.0,0.0,2,0,41.58818262471461,-91.86672254902386,10002.62255898325,155.93859211935,-0.0034060160795486,-0.0006578875174144,,9006.830035856614,10864.345111209012,150,3,2025-09-12,2025-09-26 17:13:47.335,AH,C,4273706108,HAWK11,1,1,73,2,1,1,225,2,1,0,0,12,1,225,2,1,-148558.83044608062,-4791866.962861861,4197634.724089146,2.40432,2.52369,-0.597677,-97.375,47.0,50.0,0.03125,-6.67188,6.89062,0.0,-0.00390625,0.00585938,4,0,41.395165889472295,-91.77573138360336,10864.476007109968,-43.51876411320877,1.643505941990555,-3.568599352256042,191.323,9006.830035856614,10864.345111209012,150,True,12.279789475047574,False,148.04781631786585,175.3788332473085,False,36.54270478542551,False,False
3,1970-07-23 10:29:32.286296755,2025-09-12,2025-09-26 17:13:48.629,AH,C,1470904920,JASSM,3,101,76,2,2,1,225,9,2,0,1,26,0,0,0,0,-155660.41638358062,-4777288.553682174,4213457.702604771,-2.71093,-1.01118,0.751842,35.375,-56.25,-62.125,0.0,0.0,0.0,0.0,0.0,0.0,2,0,41.58735836999541,-91.86623239171595,10002.621857683274,155.93891746945908,-0.0025039098362666,-0.0006591931927459,,9006.830035856614,10864.345111209012,150,3,2025-09-12,2025-09-26 17:13:48.523,AH,C,4275097940,HAWK11,1,1,73,2,1,1,225,2,1,0,0,12,1,225,2,1,-148673.04333670562,-4791811.284150924,4197693.661589146,2.42264,2.52062,-0.602375,-97.875,47.375,50.0,-0.140625,-6.96875,7.03125,0.00976562,0.00195312,0.0,4,0,41.39587388094911,-91.77711633696936,10864.084175362235,-43.23818181136147,1.7644410928054604,-2.6100190154620435,191.946,9006.830035856614,10864.345111209012,150,True,12.16521975759927,False,148.00597128740984,175.14889726794934,False,36.81343551121056,False,False
3,1970-07-23 10:29:32.297319444,2025-09-12,2025-09-26 17:13:49.731,AH,C,1472276922,JASSM,3,101,76,2,2,1,225,9,2,0,1,26,0,0,0,0,-155619.76013358062,-4777353.469697799,4213386.085417271,-2.71083,-1.01118,0.751842,35.375,-56.25,-62.125,0.0,0.0,0.0,0.0,0.0,0.0,2,0,41.58649665142015,-91.86571996899475,10002.627395978918,155.9392575929476,-0.0015608031968634,0.0048445753465379,,9006.830035856614,10864.345111209012,150,3,2025-09-12,2025-09-26 17:13:49.835,AH,C,4276648838,HAWK11,1,1,73,2,1,1,225,2,1,0,0,12,1,225,2,1,-148800.45935233062,-4791749.637666549,4197758.804167271,2.56616,2.52062,-0.611771,-98.125,47.625,50.25,-0.015625,-7.09375,7.1875,0.304688,0.0292969,0.015625,4,0,41.39665680351821,-91.7786612539854,10863.492616715375,-42.90321919463978,2.1865863581414744,5.625149595786467,192.752,9006.830035856614,10864.345111209012,150,True,12.041815585168091,False,148.0749884711172,174.8880917675309,False,37.006296338947685,False,False
3,1970-07-23 10:29:32.308338976,2025-09-12,2025-09-26 17:13:50.833,AH,C,1473529622,JASSM,3,101,76,2,2,1,225,9,2,0,1,26,0,0,0,0,-155582.63903983062,-4777412.739229049,4213320.690886021,-2.71083,-1.01118,0.751842,35.375,-56.25,-62.125,0.0,0.0,0.0,0.0,0.0,0.0,2,0,41.58570983930027,-91.8652521152671,10002.6227022016,155.9395681284602,-0.0006996838318211,0.0048433213828144,,9006.830035856614,10864.345111209012,150,3,2025-09-12,2025-09-26 17:13:50.838,AH,C,4277762304,HAWK11,1,1,73,2,1,1,225,2,1,0,0,12,1,225,2,1,-148890.75427420562,-4791704.942354049,4197806.671354771,2.84237,2.49636,-0.635164,-96.5,48.5,52.0,-0.21875,-7.34375,7.42188,0.246094,0.0234375,0.0351562,4,0,41.397229116231614,-91.77975647531632,10864.294400677923,-41.1867962068704,2.5423286303034844,20.71050883377644,192.985,9006.830035856614,10864.345111209012,150,False,11.942002226335063,False,149.2631475659764,174.69629955754075,False,36.01464231282532,False,False
3,1970-07-23 10:29:32.319356606,2025-09-12,2025-09-26 17:13:51.935,AH,C,1474782320,JASSM,3,101,76,2,2,1,225,9,2,0,1,26,0,0,0,0,-155545.51892264312,-4777472.008760299,4213255.296354771,-2.71083,-1.01118,0.751842,35.375,-56.25,-62.125,0.0,0.0,0.0,0.0,0.0,0.0,2,0,41.5849230249787,-91.8647842845984,10002.62280753761,155.9398786438434,0.0001614322572635,0.0048420593334452,,9006.830035856614,10864.345111209012,150,3,2025-09-12,2025-09-26 17:13:52.024,AH,C,4279352968,HAWK11,1,1,73,2,1,1,225,2,1,0,0,12,1,225,2,1,-149017.63513358062,-4791637.159150924,4197879.261198521,3.07371,2.43136,-0.670733,-91.625,51.625,55.875,-0.171875,-8.70312,8.70312,0.0625,0.0546875,0.0507812,4,0,41.39809887921783,-91.78129734310836,10864.74512947799,-37.59544649789705,2.4027913906944587,31.857357214362004,193.669,9006.830035856614,10864.345111209012,150,False,11.819049592504932,False,152.58276462537768,174.43663959828953,False,32.95759039617629,False,False
3,1970-07-23 10:29:32.329237451,2025-09-12,2025-09-26 17:13:52.923,AH,C,1476035020,JASSM,3,101,76,2,2,1,225,9,2,0,1,26,0,0,0,0,-155508.39782889312,-4777531.276338424,4213189.901823521,-2.71083,-1.01118,0.751842,35.375,-56.25,-62.125,0.0,0.0,0.0,0.0,0.0,0.0,2,0,41.58413622049557,-91.86431645435108,10002.622765566985,155.94018915412283,0.001022540979463,0.0048408095677929,,9006.830035856614,10864.345111209012,150,3,2025-09-12,2025-09-26 17:13:52.727,AH,C,4280148302,HAWK11,1,1,73,2,1,1,225,2,1,0,0,12,1,225,2,1,-149078.55505545562,-4791601.572236861,4197917.993620396,3.11302,2.4257,-0.665939,-88.875,53.625,59.0,-0.0625,-9.03125,9.125,0.0410156,0.046875,0.0488281,4,0,41.39856075832227,-91.78203831255854,10865.9007573795,-37.54925886001725,2.0320640944865533,33.910687406270505,193.974,9006.830035856614,10864.345111209012,150,False,11.73084224354059,False,154.77939247476942,174.30090606392264,False,30.90210173433568,False,False
3,1970-07-23 10:29:32.340256291,2025-09-12,2025-09-26 17:13:54.025,AH,C,1477407024,JASSM,3,101,76,2,2,1,225,9,2,0,1,26,0,0,0,0,-155467.74157889312,-4777596.186494674,4213118.280729771,-2.71083,-1.01118,0.751938,35.375,-56.25,-62.125,0.0,0.0,0.0,0.0,0.0,0.0,2,0,41.58327450158516,-91.86380408486455,10002.626601146409,155.94282183152015,-0.0030243706114338,0.0048394263552433,,9006.830035856614,10864.345111209012,150,3,2025-09-12,2025-09-26 17:13:54.023,AH,C,4281738966,HAWK11,1,1,73,2,1,1,225,2,1,0,0,12,1,225,2,1,-149194.72888358062,-4791525.567354049,4198002.249479771,-3.10545,2.39128,-0.674472,-82.25,58.0,64.875,-0.125,-8.70312,8.76562,0.0292969,0.0410156,0.0449219,4,0,41.39956013159375,-91.78345439269108,10870.638544311738,-36.002750557282624,1.5485610828636551,36.442156742169885,194.439,9006.830035856614,10864.345111209012,150,False,11.597720621506529,False,159.49721832253326,174.06751373541323,False,26.424482573988964,True,False
3,1970-07-23 10:29:32.351277544,2025-09-12,2025-09-26 17:13:55.127,AH,C,1478659722,JASSM,3,101,76,2,2,1,225,9,2,0,1,26,0,0,0,0,-155430.62048514312,-4777655.452119674,4213052.882292271,-2.71083,-1.01109,0.751938,35.375,-56.25,-62.125,0.0,0.0,0.0,0.0,0.0,0.0,2,0,41.582487678252754,-91.86333627917656,10002.62315433306,155.93948783497137,-0.0038378136183558,0.0010874143089756,,9006.830035856614,10864.345111209012,150,3,2025-09-12,2025-09-26 17:13:55.023,AH,C,4282852432,HAWK11,1,1,73,2,1,1,225,2,1,0,0,12,1,225,2,1,-149270.31091483062,-4791468.317354049,4198065.733854771,-3.0695,2.36108,-0.678978,-77.375,61.75,68.75,0.0,-8.54688,8.60938,0.0117188,0.0371094,0.0449219,4,0,41.40031522959305,-91.7843786128278,10873.34444028903,-34.73884179621578,1.0126698013429631,37.44680699409027,194.732,9006.830035856614,10864.345111209012,150,False,11.490420356093772,False,162.94414479345127,173.91402108059677,False,23.130908703551558,True,False
3,1970-07-23 10:29:32.362296866,2025-09-12,2025-09-26 17:13:56.229,AH,C,1479972074,JASSM,3,101,76,2,2,1,225,9,2,0,1,26,0,0,0,0,-155391.73181326812,-4777717.540010299,4212984.370573521,-2.71083,-1.01109,0.751938,35.375,-56.25,-62.125,0.0,0.0,0.0,0.0,0.0,0.0,2,0,41.58166339067291,-91.86284621028666,10002.626867838337,155.93981308996874,-0.0029356911296043,0.0010860784746312,,9006.830035856614,10864.345111209012,150,3,2025-09-12,2025-09-26 17:13:56.335,AH,C,4284403330,HAWK11,1,1,73,2,1,1,225,2,1,0,0,12,1,225,2,1,-149367.46325858062,-4791382.832979049,4198160.354948521,-3.06499,2.3143,-0.694222,-70.125,66.5,74.5,-0.25,-9.17188,8.95312,-0.0332031,0.0292969,0.0488281,4,0,41.40144445950823,-91.78557105694937,10875.819102274325,-32.52159229073257,0.6372910008269682,36.03750398653636,194.964,9006.830035856614,10864.345111209012,150,False,11.355704524316785,False,167.80240888044042,173.7328309658479,False,18.459314741817863,True,False
3,1970-07-23 10:29:32.373322965,2025-09-12,2025-09-26 17:13:57.332,AH,C,1481284424,JASSM,3,101,76,2,2,1,225,9,2,0,1,26,0,0,0,0,-155352.84314139312,-4777779.623994674,4212915.858854771,-2.71083,-1.01109,0.751938,35.375,-56.25,-62.125,0.0,0.0,0.0,0.0,0.0,0.0,2,0,41.58083912420477,-91.8623561553827,10002.626181382077,155.9401383303889,-0.0020335902682837,0.0010847510883102,,9006.830035856614,10864.345111209012,150,3,2025-09-12,2025-09-26 17:13:57.335,AH,C,4285596328,HAWK11,1,1,73,2,1,1,225,2,1,0,0,12,1,225,2,1,-149434.91247733062,-4791313.982393111,4198237.122526646,-3.05272,2.25927,-0.71378,-64.375,69.5,78.0,-0.125,-8.48438,8.46875,-0.0214844,0.0292969,0.0371094,4,0,41.40235972245903,-91.7864024906155,10878.204368879184,-29.883279003438897,0.3773734971281514,34.722763427324224,195.38,9006.830035856614,10864.345111209012,150,False,11.238246001076094,False,171.23402507197764,173.60645067161437,False,15.157445451786673,True,False
3,1970-07-23 10:29:32.384338180,2025-09-12,2025-09-26 17:13:58.433,AH,C,1482596774,JASSM,3,101,76,2,2,1,225,9,2,0,1,26,0,0,0,0,-155313.95446951812,-4777841.707979049,4212847.343229771,-2.71083,-1.01109,0.751938,35.375,-56.25,-62.125,0.0,0.0,0.0,0.0,0.0,0.0,2,0,41.58001482923347,-91.86186611294188,10002.622170733555,155.94046355724336,-0.0011314652657913,0.0010834129619796,,9006.830035856614,10864.345111209012,150,3,2025-09-12,2025-09-26 17:13:58.523,AH,C,4286829094,HAWK11,1,1,73,2,1,1,225,2,1,0,0,12,1,225,2,1,-149498.13513358062,-4791240.208955611,4198319.356901646,-3.06106,2.2005,-0.739954,-58.5,72.0,81.25,-0.015625,-8.60938,8.5,-0.0546875,0.0273438,0.0429688,4,0,41.40334195052348,-91.78718528861056,10880.026325205372,-26.957103208674376,0.4942141808726751,32.02893258006137,195.416,9006.830035856614,10864.345111209012,150,False,11.1176670096404,False,174.53798661845684,173.49438189932735,False,11.96694985126041,True,False
3,1970-07-23 10:29:32.395456245,2025-09-12,2025-09-26 17:13:59.545,AH,C,1483849474,JASSM,3,101,76,2,2,1,225,9,2,0,1,26,0,0,0,0,-155276.83337576812,-4777900.969697799,4212781.944792271,-2.71083,-1.01109,0.751938,35.375,-56.25,-62.125,0.0,0.0,0.0,0.0,0.0,0.0,2,0,41.57922802088827,-91.8613983558235,10002.62870119638,155.94077398904108,-0.0002703644621303,0.0010821447490143,,9006.830035856614,10864.345111209012,150,3,2025-09-12,2025-09-26 17:13:59.429,AH,C,4288022094,HAWK11,1,1,73,2,1,1,225,2,1,0,0,12,1,225,2,1,-149553.38318045562,-4791166.200166549,4198402.087370396,-3.07477,2.13856,-0.759416,-52.875,73.875,84.0,-0.015625,-8.42188,8.28125,-0.0429688,0.0273438,0.0488281,4,0,41.40433040254064,-91.78787292525348,10881.741915470237,-24.13514566548577,0.3480510130519516,28.845631117733067,195.795,9006.830035856614,10864.345111209012,150,False,11.000499332795238,False,177.47025764483055,173.40314793965015,False,9.081174433721378,True,False
3,1970-07-23 10:29:32.404558970,2025-09-12,2025-09-26 17:14:00.455,AH,C,1484982868,JASSM,3,101,76,2,2,1,225,9,2,0,1,26,0,0,0,0,-155243.24841483062,-4777954.584932174,4212722.772917271,-2.71083,-1.01109,0.751938,35.375,-56.25,-62.125,0.0,0.0,0.0,0.0,0.0,0.0,2,0,41.578516147253225,-91.86097516723402,10002.628530869451,155.94105483832203,0.0005087215432069,0.0010809911101681,,9006.830035856614,10864.345111209012,150,3,2025-09-12,2025-09-26 17:14:00.725,AH,C,4289692292,HAWK11,1,1,73,2,1,1,225,2,1,0,0,12,1,225,2,1,-149621.81091483062,-4791060.436494674,4198521.686979771,-3.08484,2.06848,-0.788179,-46.0,75.625,87.375,-0.3125,-8.375,8.17188,-0.0449219,0.0214844,0.03125,4,0,41.405754177832414,-91.78872989032556,10886.376074139334,-20.84423949445127,0.7076412577702158,25.492096704695893,196.284,9006.830035856614,10864.345111209012,150,False,10.861048950791522,False,178.32796275842173,173.31520807035193,False,5.751608354986996,True,False
3,1970-07-23 10:29:32.413277510,2025-09-12,2025-09-26 17:14:01.327,AH,C,1486116262,JASSM,3,101,76,2,2,1,225,9,2,0,1,26,0,0,0,0,-155209.66150076812,-4778008.200166549,4212663.597136021,-2.71083,-1.01109,0.752034,35.375,-56.25,-62.125,0.0,0.0,0.0,0.0,0.0,0.0,2,0,41.57780424605399,-91.8605519645425,10002.623564365558,155.94363005727763,-0.0037051243835577,0.001079794472835,,9006.830035856614,10864.345111209012,150,3,2025-09-12,2025-09-26 17:14:01.335,AH,C,4290408090,HAWK11,1,1,73,2,1,1,225,2,1,0,0,12,1,225,2,1,-149647.82849295562,-4791013.289033736,4198574.685026646,-3.0833,2.03665,-0.797478,-42.75,76.625,88.625,-0.0625,-8.54688,8.25,-0.0429688,0.015625,0.0292969,4,0,41.406387560289,-91.78905832272766,10887.413909268384,-19.458159300290944,0.7325286252431226,24.29822889102312,196.626,9006.830035856614,10864.345111209012,150,False,10.773954952517837,False,176.910587273199,173.27150263757295,False,4.256019677872246,True,False
3,1970-07-23 10:29:32.423315490,2025-09-12,2025-09-26 17:14:02.331,AH,C,1487249658,JASSM,3,101,76,2,2,1,225,9,2,0,1,26,0,0,0,0,-155176.07556326812,-4778061.815400924,4212604.421354771,-2.71083,-1.01109,0.752034,35.375,-56.25,-62.125,0.0,0.0,0.0,0.0,0.0,0.0,2,0,41.5770923430192,-91.86012878284356,10002.622540439295,155.94391089418667,-0.0029260107317367,0.0010786693512819,,9006.830035856614,10864.345111209012,150,3,2025-09-12,2025-09-26 17:14:02.225,AH,C,4291402256,HAWK11,1,1,73,2,1,1,225,2,1,0,0,12,1,225,2,1,-149682.23474295562,-4790948.597627486,4198649.726042271,-3.08848,1.99274,-0.814352,-39.125,77.0,90.25,-0.140625,-8.39062,8.1875,-0.0410156,0.0234375,0.0292969,4,0,41.40727254060526,-91.78949353350906,10893.781998288016,-17.49025276400614,1.0437251694082277,22.21683408937969,196.858,9006.830035856614,10864.345111209012,150,False,10.67102891743069,False,175.10553771298203,173.2259033048974,False,3.0204678486682726,True,False
3,1970-07-23 10:29:32.436168410,2025-09-12,2025-09-26 17:14:03.616,AH,C,1488383052,JASSM,3,101,76,2,2,1,225,9,2,0,1,26,0,0,0,0,-155142.48962576812,-4778115.428682174,4212545.245573521,-2.71083,-1.01109,0.752034,35.375,-56.25,-62.125,0.0,0.0,0.0,0.0,0.0,0.0,2,0,41.57638044999684,-91.85970561119834,10002.62059021982,155.94419172047503,-0.0021469078605969,0.001077548448527,,9006.830035856614,10864.345111209012,150,3,2025-09-12,2025-09-26 17:14:03.725,AH,C,4293311054,HAWK11,1,1,73,2,1,1,225,2,1,0,0,12,1,225,2,1,-149737.65271170562,-4790822.976533736,4198795.854948521,-3.07017,1.91633,-0.83276,-32.25,78.125,92.5,-0.046875,-7.59375,7.375,-0.00976562,0.0078125,0.0234375,4,0,41.40899592304687,-91.79020254948966,10906.178781797404,-14.335649821172831,1.1508179435362722,20.11404205910487,197.225,9006.830035856614,10864.345111209012,150,False,10.516423816045023,False,171.8146974926541,173.1954043259448,False,2.7383098583181176,True,False
3,1970-07-23 10:29:32.442237291,2025-09-12,2025-09-26 17:14:04.223,AH,C,1489516446,JASSM,3,101,76,2,2,1,225,9,2,0,1,26,0,0,0,0,-155108.90368826812,-4778169.041963424,4212486.071745396,-2.71083,-1.01109,0.752034,35.375,-56.25,-62.125,0.0,0.0,0.0,0.0,0.0,0.0,2,0,41.57566856847772,-91.85928244884649,10002.626756965725,155.9444725366475,-0.0013678168997401,0.0010764328911124,,9006.830035856614,10864.345111209012,150,3,2025-09-12,2025-09-26 17:14:04.031,AH,C,4293549654,HAWK11,1,1,73,2,1,1,225,2,1,0,0,12,1,225,2,1,-149744.04724295562,-4790807.280244674,4198814.339323521,-3.06614,1.90664,-0.835444,-31.625,78.375,92.75,-0.25,-7.51562,7.26562,-0.0078125,0.0117188,0.0253906,4,0,41.40921287982362,-91.79028481189428,10908.178135096628,-13.935063665678712,1.1974072906272293,19.94202287626933,197.225,9006.830035856614,10864.345111209012,150,False,10.456483872948802,False,171.50811690994811,173.166838248882,False,2.8701953692886844,True,False
3,1970-07-23 10:29:32.451297080,2025-09-12,2025-09-26 17:14:05.129,AH,C,1490590188,JASSM,3,101,76,2,2,1,225,9,2,0,1,26,0,0,0,0,-155077.08532889312,-4778219.831025924,4212430.009245396,-2.71083,-1.01109,0.752034,35.375,-56.25,-62.125,0.0,0.0,0.0,0.0,0.0,0.0,2,0,41.57499414687335,-91.85888156649752,10002.62338966007,155.94473856387145,-0.0006297250610222,0.0010753737675944,,9006.830035856614,10864.345111209012,150,3,2025-09-12,2025-09-26 17:14:05.225,AH,C,4294901720,HAWK11,1,1,73,2,1,1,225,2,1,0,0,12,1,225,2,1,-149776.58825858062,-4790717.687471236,4198919.026823521,-3.06825,1.85976,-0.841964,-27.5,79.125,93.625,0.078125,-7.39062,7.15625,-0.0351562,0.0078125,0.0371094,4,0,41.41044645030977,-91.79070707322865,10917.513940809857,-12.103462492751524,1.1062664433214262,17.859964740355974,197.714,9006.830035856614,10864.345111209012,150,False,10.336207502940356,False,169.59207391137036,173.15709963911078,False,4.229786636810897,True,False
3,1970-07-23 10:29:32.460338451,2025-09-12,2025-09-26 17:14:06.033,AH,C,1491723580,JASSM,3,101,76,2,2,1,225,9,2,0,1,26,0,0,0,0,-155043.49939139312,-4778273.442354049,4212370.831511021,-2.71083,-1.01099,0.752034,35.375,-56.25,-62.125,0.0,0.0,0.0,0.0,0.0,0.0,2,0,41.57428224750956,-91.85845842300152,10002.623786440778,155.94137078390423,-0.0015273581923959,-0.002681736012114,,9006.830035856614,10864.345111209012,150,3,2025-09-12,2025-09-26 17:14:06.132,AH,C,1206956,HAWK11,1,1,73,2,1,1,225,2,1,0,0,12,1,225,2,1,-149803.57263358062,-4790631.645479049,4199019.714323521,-3.06758,1.81374,-0.852606,-23.875,79.75,94.375,0.125,-7.53125,7.32812,-0.0253906,0.0078125,0.0195312,4,0,41.41163292829727,-91.79106163115826,10926.484713076074,-10.266527299781025,1.3188049055466284,15.96096543392817,198.056,9006.830035856614,10864.345111209012,150,False,10.217086401013557,False,167.90612963181158,173.1571292296114,False,5.715194786753784,True,False
3,1970-07-23 10:29:32.469237971,2025-09-12,2025-09-26 17:14:06.923,AH,C,1492797322,JASSM,3,101,76,2,2,1,225,9,2,0,1,26,0,0,0,0,-155011.68103201812,-4778324.231416549,4212314.767057896,-2.71074,-1.01099,0.752034,35.375,-56.25,-62.125,0.0,0.0,0.0,0.0,0.0,0.0,2,0,41.57360780971985,-91.85805755779576,10002.62329667142,155.94163679249982,-0.0007892542370141,0.0028086245682908,,9006.830035856614,10864.345111209012,150,3,2025-09-12,2025-09-26 17:14:07.023,AH,C,2161354,HAWK11,1,1,73,2,1,1,225,2,1,0,0,12,1,225,2,1,-149821.09411795562,-4790566.978486861,4199095.552214146,-3.06863,1.78488,-0.856632,-21.375,80.125,95.125,-0.25,-7.59375,7.35938,-0.03125,0.00585938,0.0136719,4,0,41.41252627200161,-91.79129514702744,10933.376154442472,-9.156797275407376,1.336931346257269,14.679006462550651,198.459,9006.830035856614,10864.345111209012,150,False,10.118815685355289,False,166.72109978677423,173.15915276631787,False,6.843215402745989,True,False
3,1970-07-23 10:29:32.479305529,2025-09-12,2025-09-26 17:14:07.930,AH,C,1493930716,JASSM,3,101,76,2,2,1,225,9,2,0,1,26,0,0,0,0,-154978.09509451812,-4778377.840791549,4212255.589323521,-2.71074,-1.01099,0.752034,35.375,-56.25,-62.125,0.0,0.0,0.0,0.0,0.0,0.0,2,0,41.57289591880949,-91.85763443315372,10002.626428081734,155.9419175683038,-1.0160712195372566e-05,0.0028074570889961,,9006.830035856614,10864.345111209012,150,3,2025-09-12,2025-09-26 17:14:08.023,AH,C,3394120,HAWK11,1,1,73,2,1,1,225,2,1,0,0,12,1,225,2,1,-149841.29528983062,-4790484.573213424,4199193.245573521,-3.08282,1.74768,-0.867754,-18.625,80.0,95.875,-0.09375,-7.67188,7.42188,-0.0410156,0.0078125,0.0175781,4,0,41.41367216228917,-91.7915673171419,10944.287238909184,-7.681882479365023,1.7321905871757357,12.28718699240857,198.569,9006.830035856614,10864.345111209012,150,False,10.003116673682628,False,165.42830760782658,173.1750235627338,False,8.143791218484656,True,False
3,1970-07-23 10:29:32.488315522,2025-09-12,2025-09-26 17:14:08.831,AH,C,1495064110,JASSM,3,101,76,2,2,1,225,9,2,0,1,26,0,0,0,0,-154944.50915701812,-4778431.448213424,4212196.409636021,-2.71074,-1.01099,0.75213,35.375,-56.25,-62.125,0.0,0.0,0.0,0.0,0.0,0.0,2,0,41.57218402476167,-91.85721131856172,10002.62438064171,155.94449159968883,-0.0042207749585422,0.0028062193885604,,9006.830035856614,10864.345111209012,150,3,2025-09-12,2025-09-26 17:14:08.725,AH,C,4229218,HAWK11,1,1,73,2,1,1,225,2,1,0,0,12,1,225,2,1,-149853.06872733062,-4790428.152314986,4199260.520964146,-3.06777,1.72324,-0.873314,-16.75,79.875,96.5,-0.15625,-7.73438,7.51562,0.00390625,0.00976562,0.0136719,4,0,41.41445972007566,-91.79172908239865,10952.444594217426,-6.741998833150921,1.9163025688348616,12.108406562213393,198.801,9006.830035856614,10864.345111209012,150,False,9.909420684693684,False,164.53677172759078,173.18236590149962,False,9.049510532915171,True,False
3,1970-07-23 10:29:32.498356277,2025-09-12,2025-09-26 17:14:09.835,AH,C,1496197504,JASSM,3,101,76,2,2,1,225,9,2,0,1,26,0,0,0,0,-154910.92321951812,-4778485.055635299,4212137.227995396,-2.71074,-1.01099,0.75213,35.375,-56.25,-62.125,0.0,0.0,0.0,0.0,0.0,0.0,2,0,41.57147211591863,-91.85678821326049,10002.621945773926,155.94477235486116,-0.0034416680552046,0.0028050765768667,,9006.830035856614,10864.345111209012,150,3,2025-09-12,2025-09-26 17:14:10.023,AH,C,5780118,HAWK11,1,1,73,2,1,1,225,2,1,0,0,12,1,225,2,1,-149872.20544608062,-4790323.915986861,4199385.862761021,-3.04208,1.69083,-0.877533,-13.5,80.0,97.0,-0.21875,-7.21875,7.01562,-0.015625,0.0078125,0.00976562,4,0,41.41592229941104,-91.79199670995254,10969.607884918749,-5.531075674134399,2.008747476300436,12.19645558306397,199.131,9006.830035856614,10864.345111209012,150,False,9.77564010701092,False,163.05080330170873,173.23175824946023,False,10.548920015161023,True,False
3,1970-07-23 10:29:32.507235631,2025-09-12,2025-09-26 17:14:10.723,AH,C,1497271246,JASSM,3,101,76,2,2,1,225,9,2,0,1,26,0,0,0,0,-154879.10486014312,-4778535.840791549,4212081.161589146,-2.71074,-1.01099,0.75213,35.375,-56.25,-62.125,0.0,0.0,0.0,0.0,0.0,0.0,2,0,41.57079768214089,-91.85638738431726,10002.62207349162,155.94503832472157,-0.0027035734390946,0.0028039976600508,,9006.830035856614,10864.345111209012,150,3,2025-09-12,2025-09-26 17:14:10.631,AH,C,6535682,HAWK11,1,1,73,2,1,1,225,2,1,0,0,12,1,225,2,1,-149880.04333670562,-4790272.867158736,4199447.245573521,-3.05377,1.66792,-0.879738,-12.0,80.125,97.125,-0.1875,-7.40625,7.20312,-0.0527344,0.0136719,0.015625,4,0,41.4166388541306,-91.79210945061998,10977.895623634682,-4.684137620554616,2.047472874166065,10.545521775920202,199.168,9006.830035856614,10864.345111209012,150,False,9.689110833682626,False,162.37477135802445,173.2463553956274,False,11.220290110386989,True,False
3,1970-07-23 10:29:32.517273249,2025-09-12,2025-09-26 17:14:11.727,AH,C,1498464292,JASSM,3,101,76,2,2,1,225,9,2,0,1,26,0,0,0,0,-154843.75134451812,-4778592.268525924,4212018.864714146,-2.71074,-1.01099,0.75213,35.375,-56.25,-62.125,0.0,0.0,0.0,0.0,0.0,0.0,2,0,41.570048304953815,-91.85594203128738,10002.623878546385,155.94533383436314,-0.0018834648341659,0.002802795143589,,9006.830035856614,10864.345111209012,150,3,2025-09-12,2025-09-26 17:14:11.725,AH,C,7847982,HAWK11,1,1,73,2,1,1,225,2,1,0,0,12,1,225,2,1,-149892.02380545562,-4790183.936494674,4199554.798307896,-3.10909,1.64634,-0.88434,-10.125,79.875,97.625,-0.078125,-7.28125,7.125,-0.0527344,0.0136719,0.00585938,4,0,41.41789163387588,-91.79228585896868,10993.557237357118,-3.877979971482896,2.242195106785473,6.451960302615961,199.425,9006.830035856614,10864.345111209012,150,True,9.56613453672809,False,161.49558814267226,173.29711712139186,False,12.165982221653259,True,False
3,1970-07-23 10:29:32.527317693,2025-09-12,2025-09-26 17:14:12.731,AH,C,1499657338,JASSM,3,101,76,2,2,1,225,9,2,0,1,26,0,0,0,0,-154808.39685233062,-4778648.694307174,4211956.567839146,-2.71074,-1.01099,0.75213,35.375,-56.25,-62.125,0.0,0.0,0.0,0.0,0.0,0.0,2,0,41.56929893778968,-91.85549667761212,10002.62509655013,155.94562934005765,-0.0010633636033765,0.0028016049125473,,9006.830035856614,10864.345111209012,150,3,2025-09-12,2025-09-26 17:14:13.023,AH,C,9438646,HAWK11,1,1,73,2,1,1,225,2,1,0,0,12,1,225,2,1,-149904.07458670562,-4790077.215791549,4199684.886198521,3.1344,1.62544,-0.892585,-8.625,79.625,98.0,0.140625,-7.34375,7.10938,-0.0195312,0.00390625,0.0214844,4,0,41.41940233721812,-91.79246976679002,11014.399820663508,-3.090082207152133,2.6603324454005053,3.282141614785785,199.535,9006.830035856614,10864.345111209012,150,True,9.428303378830497,False,160.79258178658034,173.37407133661682,False,12.964110175015266,True,False
3,1970-07-23 10:29:32.541358139,2025-09-12,2025-09-26 17:14:14.135,AH,C,1500790734,JASSM,3,101,76,2,2,1,225,9,2,0,1,26,0,0,0,0,-154774.81091483062,-4778702.297822799,4211897.384245396,-2.71074,-1.01099,0.75213,35.375,-56.25,-62.125,0.0,0.0,0.0,0.0,0.0,0.0,2,0,41.56858703244298,-91.85507361147532,10002.624488684907,155.94591005324128,-0.0002842660512663,0.0028004651491498,,9006.830035856614,10864.345111209012,150,3,2025-09-12,2025-09-26 17:14:14.023,AH,C,10552112,HAWK11,1,1,73,2,1,1,225,2,1,0,0,12,1,225,2,1,-149911.19763358062,-4790003.106416549,4199775.409636021,3.11312,1.61614,-0.880217,-7.875,80.0,97.75,-0.046875,-5.90625,5.79688,-0.0273438,-0.00976562,0.0117188,4,0,41.42045289921587,-91.79258260039973,11029.192799503247,-2.7968653581274814,1.933562051062832,1.6615859786458798,199.645,9006.830035856614,10864.345111209012,150,True,9.320223505043622,False,160.4852028128841,173.4239126666282,False,13.293503415588859,True,False
3,1970-07-23 10:29:32.546235598,2025-09-12,2025-09-26 17:14:14.623,AH,C,1501983790,JASSM,3,101,76,2,2,1,225,9,2,0,1,26,0,0,0,0,-154739.45642264312,-4778758.723604049,4211835.083464146,-2.71074,-1.01099,0.75213,35.375,-56.25,-62.125,0.0,0.0,0.0,0.0,0.0,0.0,2,0,41.56783763542377,-91.85462827787087,10002.625553380978,155.94620553708745,0.0005358594052526,0.0027992641665852,,9006.830035856614,10864.345111209012,150,3,2025-09-12,2025-09-26 17:14:14.631,AH,C,11307678,HAWK11,1,1,73,2,1,1,225,2,1,0,0,12,1,225,2,1,-149915.52185233062,-4789951.898408736,4199836.782682896,3.11609,1.60972,-0.882806,-7.375,80.75,97.125,-0.03125,-6.64062,6.375,-0.00585938,0.00585938,-0.00195312,4,0,41.42117098473656,-91.792653426106,11036.818394537411,-2.5548887275913232,2.069487134224385,1.5563328085878612,199.755,9006.830035856614,10864.345111209012,150,True,9.229294342290546,False,160.31710380156264,173.44852341979674,False,13.431526218610001,True,False
3,1970-07-23 10:29:32.556273734,2025-09-12,2025-09-26 17:14:15.627,AH,C,1503176828,JASSM,3,101,76,2,2,1,225,9,2,0,1,26,0,0,0,0,-154704.10290701812,-4778815.145479049,4211772.782682896,-2.71074,-1.01099,0.75213,35.375,-56.25,-62.125,0.0,0.0,0.0,0.0,0.0,0.0,2,0,41.56708825970578,-91.85418296776965,10002.62139447861,155.9465010009642,0.0013559598243227,0.0027980635671493,,9006.830035856614,10864.345111209012,150,3,2025-09-12,2025-09-26 17:14:15.631,AH,C,12540444,HAWK11,1,1,73,2,1,1,225,2,1,0,0,12,1,225,2,1,-149922.74255545562,-4789867.529268111,4199937.663542271,3.10449,1.6056,-0.882039,-6.875,81.125,97.0,-0.171875,-6.75,6.53125,-0.0253906,0.0,-0.0078125,4,0,41.42235247430978,-91.79277127004544,11048.884557318355,-2.407253937840834,2.019115709007364,0.7145469545404122,200.024,9006.830035856614,10864.345111209012,150,True,9.111226902195401,False,160.10736020033548,173.51203838718124,False,13.689325522068158,True,False
3,1970-07-23 10:29:32.568555798,2025-09-12,2025-09-26 17:14:16.855,AH,C,1504369872,JASSM,3,101,76,2,2,1,225,9,2,0,1,26,0,0,0,0,-154668.74841483062,-4778871.569307174,4211710.481901646,-2.71074,-1.01099,0.752226,35.375,-56.25,-62.125,0.0,0.0,0.0,0.0,0.0,0.0,2,0,41.56633887069778,-91.8537376555062,10002.626231889828,155.9490911550778,-0.00281673705557,0.0027968539567803,,9006.830035856614,10864.345111209012,150,3,2025-09-12,2025-09-26 17:14:17.131,AH,C,14290174,HAWK11,1,1,73,2,1,1,225,2,1,0,0,12,1,225,2,1,-149932.44177420562,-4789748.082002486,4200079.399870396,3.10056,1.59275,-0.879642,-6.5,81.5,96.75,0.0,-6.75,6.53125,0.00195312,-0.0078125,0.0,4,0,41.42401794605646,-91.7929318593286,11063.581315897116,-1.9451895904442615,1.862633456696296,-0.0626867768872373,199.987,9006.830035856614,10864.345111209012,150,True,8.964924634140313,False,159.95816032834605,173.6201360058253,False,13.931847116658044,True,False
3,1970-07-23 10:29:32.576334644,2025-09-12,2025-09-26 17:14:17.633,AH,C,1505503268,JASSM,3,101,76,2,2,1,225,9,2,0,1,26,0,0,0,0,-154635.16247733062,-4778925.168916549,4211651.294401646,-2.71074,-1.01099,0.752226,35.375,-56.25,-62.125,0.0,0.0,0.0,0.0,0.0,0.0,2,0,41.56562695552287,-91.8533146295032,10002.623606000076,155.94937182531433,-0.0020376367884497,0.0027957430829433,,9006.830035856614,10864.345111209012,150,3,2025-09-12,2025-09-26 17:14:17.523,AH,C,14727608,HAWK11,1,1,73,2,1,1,225,2,1,0,0,12,1,225,2,1,-149934.49841483062,-4789718.518525924,4200114.233854771,3.10276,1.5893,-0.87667,-6.375,81.75,96.75,0.0,-6.67188,6.45312,-0.00585938,-0.0078125,0.00585938,4,0,41.42442855723554,-91.79296749653268,11066.660880545824,-1.825548280064735,1.6880063654086113,-0.0848061912455779,199.681,9006.830035856614,10864.345111209012,150,True,8.89451089247493,False,159.90640774726828,173.62405145959343,False,13.981182104041975,True,False
3,1970-07-23 10:29:32.585227384,2025-09-12,2025-09-26 17:14:18.522,AH,C,1506636662,JASSM,3,101,76,2,2,1,225,9,2,0,1,26,0,0,0,0,-154601.57556326812,-4778978.768525924,4211592.106901646,-2.71074,-1.01089,0.752226,35.375,-56.25,-62.125,0.0,0.0,0.0,0.0,0.0,0.0,2,0,41.56491503889179,-91.85289160109124,10002.624767210868,155.9460092134745,-0.0029331268139918,-0.000957361096786,,9006.830035856614,10864.345111209012,150,3,2025-09-12,2025-09-26 17:14:18.523,AH,C,16000140,HAWK11,1,1,73,2,1,1,225,2,1,0,0,12,1,225,2,1,-149941.20153983062,-4789630.312471236,4200217.802214146,3.0949,1.58115,-0.874081,-6.25,82.25,96.5,-0.125,-6.71875,6.64062,-0.00976562,0.0,0.0,4,0,41.42565110812461,-91.7930806017394,11075.111463362726,-1.5316086642830105,1.5307443181460885,-0.8854309392179945,199.425,9006.830035856614,10864.345111209012,150,True,8.77664483136616,False,159.86835512332073,173.70024824827826,False,14.076737598280204,True,False
3,1970-07-23 10:29:32.595253446,2025-09-12,2025-09-26 17:14:19.525,AH,C,1507829708,JASSM,3,101,76,2,2,1,225,9,2,0,1,26,0,0,0,0,-154566.22204764312,-4779035.188447799,4211529.804167271,-2.71074,-1.01089,0.752226,35.375,-56.25,-62.125,0.0,0.0,0.0,0.0,0.0,0.0,2,0,41.56416565457152,-91.85244633188016,10002.628265146126,155.94630463330063,-0.0021130248710516,-0.0009585821883592,,9006.830035856614,10864.345111209012,150,3,2025-09-12,2025-09-26 17:14:19.523,AH,C,16914772,HAWK11,1,1,73,2,1,1,225,2,1,0,0,12,1,225,2,1,-149945.85583670562,-4789567.785127486,4200290.827604771,3.09471,1.57664,-0.873986,-6.125,82.5,96.375,0.0,-6.73438,6.59375,0.0,-0.00195312,0.00585938,4,0,41.42651512027459,-91.79315961802158,11080.249332305151,-1.366151137610684,1.521225617605,-1.0899879569054771,199.278,9006.830035856614,10864.345111209012,150,True,8.677294388368034,False,159.82016744695537,173.7441424853675,False,14.161801692539221,True,False
3,1970-07-23 10:29:32.609417344,2025-09-12,2025-09-26 17:14:20.941,AH,C,1509022754,JASSM,3,101,76,2,2,1,225,9,2,0,1,26,0,0,0,0,-154530.86755545562,-4779091.606416549,4211467.499479771,-2.71074,-1.01089,0.752226,35.375,-56.25,-62.125,0.0,0.0,0.0,0.0,0.0,0.0,2,0,41.563416267121774,-91.85200106201933,10002.626924341015,155.9466000491827,-0.0012929182910761,-0.0009597963547352,,9006.830035856614,10864.345111209012,150,3,2025-09-12,2025-09-26 17:14:21.131,AH,C,19101936,HAWK11,1,1,73,2,1,1,225,2,1,0,0,12,1,225,2,1,-149957.03357108062,-4789414.996064986,4200468.077604771,3.0857,1.56543,-0.870247,-6.25,82.875,96.625,0.171875,-6.75,6.64062,-0.00195312,0.00195312,0.00976562,4,0,41.42861837572671,-91.79335037328804,11090.22215788263,-0.9579448854641794,1.2993841661460412,-2.0882996507935574,198.801,9006.830035856614,10864.345111209012,150,True,8.505675222420322,False,159.8707850147775,173.9060624212425,False,14.280673883375412,True,False
3,1970-07-23 10:29:32.615333721,2025-09-12,2025-09-26 17:14:21.533,AH,C,1510156148,JASSM,3,101,76,2,2,1,225,9,2,0,1,26,0,0,0,0,-154497.28161795562,-4779145.202119674,4211408.308073521,-2.71074,-1.01089,0.752226,35.375,-56.25,-62.125,0.0,0.0,0.0,0.0,0.0,0.0,2,0,41.562704342203645,-91.85157807565228,10002.62207703908,155.9468806769493,-0.0005138154283157,-0.0009609590820543,,9006.830035856614,10864.345111209012,150,3,2025-09-12,2025-09-26 17:14:21.725,AH,C,19817736,HAWK11,1,1,73,2,1,1,225,2,1,0,0,12,1,225,2,1,-149960.35778983062,-4789364.976533736,4200525.815886021,3.08973,1.56102,-0.871876,-6.125,83.375,96.375,0.0625,-7.0625,6.82812,0.00195312,0.0078125,-0.00195312,4,0,41.42930504245605,-91.79340881968623,11092.83957874722,-0.7935702797657389,1.390543421337707,-2.047002960642899,198.728,9006.830035856614,10864.345111209012,150,True,8.419201782485375,False,159.8279392162236,173.9397192234615,False,14.337588464329432,True,False
3,1970-07-23 10:29:32.625254202,2025-09-12,2025-09-26 17:14:22.525,AH,C,1511408848,JASSM,3,101,76,2,2,1,225,9,2,0,1,26,0,0,0,0,-154460.15954764312,-4779204.440400924,4211342.886198521,-2.71074,-1.01089,0.752226,35.375,-56.25,-62.125,0.0,0.0,0.0,0.0,0.0,0.0,2,0,41.56191747191943,-91.85111056561588,10002.623872050346,155.94719083908336,0.0003473049413861,-0.0009622392904681,,9006.830035856614,10864.345111209012,150,3,2025-09-12,2025-09-26 17:14:22.523,AH,C,20772134,HAWK11,1,1,73,2,1,1,225,2,1,0,0,12,1,225,2,1,-149965.44763358062,-4789298.249971236,4200602.733854771,3.08033,1.56572,-0.868713,-6.375,83.625,96.25,-0.09375,-6.59375,6.34375,-0.00976562,-0.00195312,0.0,4,0,41.43022022854342,-91.79349462156289,11096.15738145946,-0.9703921700623126,1.213321476641811,-2.383515805570008,198.581,9006.830035856614,10864.345111209012,150,True,8.314424065653347,False,159.94534921437184,173.99086815403277,False,14.267431584539088,True,False
3,1970-07-23 10:29:32.635275382,2025-09-12,2025-09-26 17:14:23.527,AH,C,1512542242,JASSM,3,101,76,2,2,1,225,9,2,0,1,26,0,0,0,0,-154426.57263358062,-4779258.034150924,4211283.694792271,-2.71074,-1.01089,0.752322,35.375,-56.25,-62.125,0.0,0.0,0.0,0.0,0.0,0.0,2,0,41.56120555538272,-91.85068758785695,10002.622291234113,155.94976504730909,-0.0038631575777214,-0.0009634445238909,,9006.830035856614,10864.345111209012,150,3,2025-09-12,2025-09-26 17:14:23.335,AH,C,21726534,HAWK11,1,1,73,2,1,1,225,2,1,0,0,12,1,225,2,1,-149970.70153983062,-4789231.207979049,4200679.503386021,3.07659,1.56246,-0.87226,-6.625,83.875,96.125,0.015625,-6.8125,6.65625,0.00390625,0.0,0.0078125,4,0,41.43113625946312,-91.79358250470706,11098.395395364018,-0.8463231219695663,1.415229994282565,-2.7376668271379505,198.655,9006.830035856614,10864.345111209012,150,True,8.214472533057867,False,160.06197406802931,174.0464301514104,False,14.202159989490916,True,False
3,1970-07-23 10:29:32.644333487,2025-09-12,2025-09-26 17:14:24.433,AH,C,1513675636,JASSM,3,101,76,2,2,1,225,9,2,0,1,26,0,0,0,0,-154392.98571951812,-4779311.629854049,4211224.501432896,-2.71064,-1.01089,0.752322,35.375,-56.25,-62.125,0.0,0.0,0.0,0.0,0.0,0.0,2,0,41.56049361239493,-91.85026461862697,10002.625116142126,155.95004565154505,-0.0030840389640059,0.0045268986926401,,9006.830035856614,10864.345111209012,150,3,2025-09-12,2025-09-26 17:14:24.631,AH,C,23277432,HAWK11,1,1,73,2,1,1,225,2,1,0,0,12,1,225,2,1,-149979.55114920562,-4789121.936494674,4200804.392057896,3.07093,1.56063,-0.873794,-7.0,84.125,96.25,-0.015625,-6.96875,6.79688,-0.0117188,0.00390625,0.0117188,4,0,41.432627636783344,-91.7937291720758,11101.560629564974,-0.7778955370922426,1.5034926174851893,-3.1398981163372275,198.313,9006.830035856614,10864.345111209012,150,True,8.080921755489737,False,160.22569577018686,174.1595667069667,False,14.158176787446012,True,False
3,1970-07-23 10:29:32.654354914,2025-09-12,2025-09-26 17:14:25.435,AH,C,1514809030,JASSM,3,101,76,2,2,1,225,9,2,0,1,26,0,0,0,0,-154359.39978201812,-4779365.221650924,4211165.308073521,-2.71064,-1.01089,0.752322,35.375,-56.25,-62.125,0.0,0.0,0.0,0.0,0.0,0.0,2,0,41.55978169088416,-91.8498416718874,10002.622298634584,155.95032623691273,-0.0023049453947137,0.0045257702007649,,9006.830035856614,10864.345111209012,150,3,2025-09-12,2025-09-26 17:14:25.335,AH,C,24112532,HAWK11,1,1,73,2,1,1,225,2,1,0,0,12,1,225,2,1,-149984.14099295562,-4789062.836885299,4200871.897917271,3.06624,1.56083,-0.87178,-7.125,84.25,96.375,0.0,-7.07812,6.78125,-0.0117188,0.00390625,0.0,4,0,41.43343401407689,-91.79380615173832,11103.175804226355,-0.7868433922458229,1.389068296870598,-3.4008257909230504,198.325,9006.830035856614,10864.345111209012,150,True,7.9873965584721045,False,160.27735907408518,174.2075415681843,False,14.160822276980113,True,False
3,1970-07-23 10:29:32.663256042,2025-09-12,2025-09-26 17:14:26.325,AH,C,1515882772,JASSM,3,101,76,2,2,1,225,9,2,0,1,26,0,0,0,0,-154327.58044608062,-4779415.993135299,4211109.229948521,-2.71064,-1.01089,0.752322,35.375,-56.25,-62.125,0.0,0.0,0.0,0.0,0.0,0.0,2,0,41.55910723439336,-91.84944098102072,10002.623417914469,155.95059205396095,-0.0015668499280351,0.0045247087744571,,9006.830035856614,10864.345111209012,150,3,2025-09-12,2025-09-26 17:14:26.023,AH,C,24907864,HAWK11,1,1,73,2,1,1,225,2,1,0,0,12,1,225,2,1,-149989.08630545562,-4789006.283174361,4200936.433073521,3.05694,1.5613,-0.872164,-7.375,84.375,96.5,-0.0625,-7.07812,6.82812,-0.0136719,0.00390625,0.0078125,4,0,41.43420512788803,-91.79388642893431,11104.631803877006,-0.8042108407735641,1.4120958949306135,-3.913009689973112,198.239,9006.830035856614,10864.345111209012,150,True,7.898286819677143,False,160.38450263755496,174.25264876724907,False,14.105575935083381,True,False
3,1970-07-23 10:29:32.682334081,2025-09-12,2025-09-26 17:14:28.233,AH,C,1518149560,JASSM,3,101,76,2,2,1,225,9,2,0,1,26,0,0,0,0,-154260.40759451812,-4779523.174775924,4210990.839323521,-2.71064,-1.01089,0.752322,35.375,-56.25,-62.125,0.0,0.0,0.0,0.0,0.0,0.0,2,0,41.55768336886237,-91.84859512204088,10002.623327397732,155.951153182487,-8.645772914186098e-06,0.0045224533013095,,9006.830035856614,10864.345111209012,150,3,2025-09-12,2025-09-26 17:14:28.131,AH,C,27373394,HAWK11,1,1,73,2,1,1,225,2,1,0,0,12,1,225,2,1,-150004.79919608062,-4788831.860322799,4201135.897917271,3.06077,1.56687,-0.874369,-8.25,84.625,96.75,-0.15625,-7.10938,6.96875,0.0136719,0.0,0.0,4,0,41.43658617969236,-91.79413953664434,11110.105984592035,-1.006726317632407,1.54457792396127,-3.454159440459954,197.763,9006.830035856614,10864.345111209012,150,True,7.666151741040517,False,160.7641493362651,174.42698276925984,False,13.9226989876965,True,False
3,1970-07-23 10:29:32.683786172,2025-09-12,2025-09-26 17:14:28.378,AH,C,1517016166,JASSM,3,101,76,2,2,1,225,9,2,0,1,26,0,0,0,0,-154293.99353201812,-4779469.584932174,4211050.034636021,-2.71064,-1.01089,0.752322,35.375,-56.25,-62.125,0.0,0.0,0.0,0.0,0.0,0.0,2,0,41.55839529671676,-91.84901804066448,10002.623797874534,155.95087262740634,-0.0007877407652248,0.0045235829624328,,9006.830035856614,10864.345111209012,150,3,2025-09-12,2025-09-26 17:14:28.429,AH,C,27771060,HAWK11,1,1,73,2,1,1,225,2,1,0,0,12,1,225,2,1,-150007.09997733062,-4788803.461885299,4201168.440886021,3.07439,1.56524,-0.873698,-8.125,84.5,96.875,-0.078125,-6.92188,6.64062,0.0292969,-0.0117188,0.00390625,4,0,41.43697434978395,-91.7941776700308,11111.12709906121,-0.9475809783890496,1.5053262969399712,-2.744158693858322,197.873,9006.830035856614,10864.345111209012,150,True,7.690070523294809,False,160.7044812514603,174.50125407918483,False,14.064770883974372,True,False
3,1970-07-23 10:29:32.691234435,2025-09-12,2025-09-26 17:14:29.123,AH,C,1519282954,JASSM,3,101,76,2,2,1,225,9,2,0,1,26,0,0,0,0,-154226.82068045562,-4779576.764619674,4210931.642057896,-2.71064,-1.01089,0.752322,35.375,-56.25,-62.125,0.0,0.0,0.0,0.0,0.0,0.0,2,0,41.55697142639944,-91.848172201005,10002.622393389323,155.9514337352203,0.0007704647215997,0.0045213263337754,,9006.830035856614,10864.345111209012,150,3,2025-09-12,2025-09-26 17:14:29.023,AH,C,28486860,HAWK11,1,1,73,2,1,1,225,2,1,0,0,12,1,225,2,1,-150012.07068045562,-4788752.903291549,4201226.183073521,3.0904,1.56178,-0.871972,-8.25,84.625,96.875,-0.09375,-6.8125,6.48438,0.00976562,0.0,-0.0078125,4,0,41.43766394158919,-91.79425601462978,11112.591269374954,-0.8223051215057949,1.404865751810497,-1.975075908740948,197.946,9006.830035856614,10864.345111209012,150,True,7.556670353538361,False,160.75968500254947,174.505144556119,False,14.01916973378951,True,False
3,1970-07-23 10:29:32.700275998,2025-09-12,2025-09-26 17:14:30.027,AH,C,1520356696,JASSM,3,101,76,2,2,1,225,9,2,0,1,26,0,0,0,0,-154195.00134451812,-4779627.534150924,4210875.561979771,-2.71064,-1.0108,0.752322,35.375,-56.25,-62.125,0.0,0.0,0.0,0.0,0.0,0.0,2,0,41.55629696226308,-91.84777154560744,10002.628921569676,155.9480566710968,-0.0001661213508179,0.0007677021331297,,9006.830035856614,10864.345111209012,150,3,2025-09-12,2025-09-26 17:14:29.977,AH,C,29202660,HAWK11,1,1,73,2,1,1,225,2,1,0,0,12,1,225,2,1,-150017.08044608062,-4788701.565400924,4201284.563932896,3.10046,1.56083,-0.871397,-8.375,85.0,96.75,0.015625,-6.92188,6.64062,0.00976562,-0.00390625,-0.00976562,4,0,41.43836247363637,-91.79433511960544,11113.532474616912,-0.7875372636596357,1.3720318347826597,-1.4394487582924598,197.946,9006.830035856614,10864.345111209012,150,True,7.471742045595164,False,160.81808874918895,174.54585425512502,False,13.992311469513025,True,False
3,1970-07-23 10:29:32.710295662,2025-09-12,2025-09-26 17:14:31.029,AH,C,1521490090,JASSM,3,101,76,2,2,1,225,9,2,0,1,26,0,0,0,0,-154161.41443045562,-4779681.122041549,4210816.362761021,-2.71064,-1.0108,0.752418,35.375,-56.25,-62.125,0.0,0.0,0.0,0.0,0.0,0.0,2,0,41.55558501510007,-91.84734864340166,10002.62647025097,155.95063255230383,-0.004379519985414,0.000766449028997,,9006.830035856614,10864.345111209012,150,3,2025-09-12,2025-09-26 17:14:31.131,AH,C,30992158,HAWK11,1,1,73,2,1,1,225,2,1,0,0,12,1,225,2,1,-150029.78357108062,-4788573.543916549,4201429.751432896,3.10065,1.55939,-0.868904,-8.5,85.375,96.875,-0.109375,-7.03125,6.78125,0.0136719,0.0078125,0.0117188,4,0,41.44010168678944,-91.79453490457652,11115.04720716512,-0.7367494742570401,1.2301491101666564,-1.4901660967271142,198.129,9006.830035856614,10864.345111209012,150,True,7.323521201973348,False,160.8669827568959,174.6957782080998,False,14.10004198828461,True,False
3,1970-07-23 10:29:32.720573021,2025-09-12,2025-09-26 17:14:32.057,AH,C,1522623484,JASSM,3,101,76,2,2,1,225,9,2,0,1,26,0,0,0,0,-154127.82751639312,-4779734.707979049,4210757.163542271,-2.71064,-1.0108,0.752418,35.375,-56.25,-62.125,0.0,0.0,0.0,0.0,0.0,0.0,2,0,41.5548730779468,-91.84692575123144,10002.62309097379,155.9509130743861,-0.0036004189655513,0.000765306802517,,9006.830035856614,10864.345111209012,150,3,2025-09-12,2025-09-26 17:14:32.131,AH,C,32145390,HAWK11,1,1,73,2,1,1,225,2,1,0,0,12,1,225,2,1,-150037.98083670562,-4788491.206025924,4201523.097136021,3.1111,1.55565,-0.867754,-8.5,85.5,97.125,-0.15625,-7.14062,6.82812,-0.0117188,0.00390625,-0.00390625,4,0,41.44122004781753,-91.79466372797344,11115.962907700618,-0.5992891554729821,1.1634839164314963,-1.0519635868425417,198.288,9006.830035856614,10864.345111209012,150,True,7.211617176070722,False,160.85792933642512,174.78293881968156,False,14.211046654863091,True,False
3,1970-07-23 10:29:32.729233960,2025-09-12,2025-09-26 17:14:32.923,AH,C,1523756878,JASSM,3,101,76,2,2,1,225,9,2,0,1,26,0,0,0,0,-154094.24060233062,-4779788.293916549,4210697.964323521,-2.71064,-1.0108,0.752418,35.375,-56.25,-62.125,0.0,0.0,0.0,0.0,0.0,0.0,2,0,41.55416113914981,-91.846502868342,10002.62357630042,155.95119358636444,-0.0028213178488385,0.0007641645615467,,9006.830035856614,10864.345111209012,150,3,2025-09-12,2025-09-26 17:14:32.725,AH,C,32940722,HAWK11,1,1,73,2,1,1,225,2,1,0,0,12,1,225,2,1,-150043.68005545562,-4788434.045869674,4201587.856901646,3.09759,1.55795,-0.866795,-8.5,85.5,97.375,-0.09375,-7.04688,6.78125,-0.0175781,0.0,-0.0078125,4,0,41.44199614387177,-91.79475326393867,11116.51239649796,-0.6853564312788968,1.1104414427533038,-1.727620986080421,198.435,9006.830035856614,10864.345111209012,150,True,7.119719528691346,False,160.84951174582298,174.83453947556572,False,14.288016185565093,True,False
3,1970-07-23 10:29:32.742984854,2025-09-12,2025-09-26 17:14:34.298,AH,C,1524830620,JASSM,3,101,76,2,2,1,225,9,2,0,1,26,0,0,0,0,-154062.42224295562,-4779839.057588424,4210641.880339146,-2.71064,-1.0108,0.752418,35.375,-56.25,-62.125,0.0,0.0,0.0,0.0,0.0,0.0,2,0,41.553486677333474,-91.84610226160866,10002.62175466335,155.95145931820247,-0.0020832325341276,0.0007630784541848,,9006.830035856614,10864.345111209012,150,3,2025-09-12,2025-09-26 17:14:34.335,AH,C,34769986,HAWK11,1,1,73,2,1,1,225,2,1,0,0,12,1,225,2,1,-150056.81677420562,-4788301.817354049,4201737.827604771,3.11791,1.55143,-0.869671,-8.625,85.625,97.75,-0.125,-7.23438,7.03125,0.0175781,0.00585938,0.00195312,4,0,41.44379258682754,-91.79495983038323,11118.146519104115,-0.4422030295248471,1.274269278671078,-0.842953198520712,198.911,9006.830035856614,10864.345111209012,150,True,6.970730038396043,False,160.89084255255636,175.00390578385216,False,14.443645648775759,True,False
3,1970-07-23 10:29:32.748315500,2025-09-12,2025-09-26 17:14:34.831,AH,C,1526023666,JASSM,3,101,76,2,2,1,225,9,2,0,1,26,0,0,0,0,-154027.06677420562,-4779895.463838424,4210579.563932896,-2.71064,-1.0108,0.752418,35.375,-56.25,-62.125,0.0,0.0,0.0,0.0,0.0,0.0,2,0,41.55273725512537,-91.84565713115788,10002.627097527911,155.95175457951046,-0.001263114185349,0.0007618789095788,,9006.830035856614,10864.345111209012,150,3,2025-09-12,2025-09-26 17:14:34.929,AH,C,35525552,HAWK11,1,1,73,2,1,1,225,2,1,0,0,12,1,225,2,1,-150062.20544608062,-4788247.391572799,4201799.659636021,3.12347,1.55162,-0.870055,-8.625,85.75,97.875,-0.25,-7.15625,6.84375,0.0,0.0,-0.00585938,4,0,41.44453271111146,-91.79504463665346,11119.048466195554,-0.4491439010022324,1.2970457338063648,-0.5160415979648324,199.131,9006.830035856614,10864.345111209012,150,True,6.878519667242981,False,160.88595194078377,175.0535395491414,False,14.508611764610468,True,False
3,1970-07-23 10:29:32.758352161,2025-09-12,2025-09-26 17:14:35.835,AH,C,1527216712,JASSM,3,101,76,2,2,1,225,9,2,0,1,26,0,0,0,0,-153991.71228201812,-4779951.868135299,4210517.245573521,-2.71064,-1.0108,0.752418,35.375,-56.25,-62.125,0.0,0.0,0.0,0.0,0.0,0.0,2,0,41.55198782940805,-91.84521202343689,10002.62775659143,155.95204982136752,-0.0004429979835605,0.0007606701544342,,9006.830035856614,10864.345111209012,150,3,2025-09-12,2025-09-26 17:14:35.835,AH,C,36479952,HAWK11,1,1,73,2,1,1,225,2,1,0,0,12,1,225,2,1,-150069.28552420562,-4788178.881807174,4201877.726042271,3.13296,1.54472,-0.873027,-8.625,85.75,98.0,-0.421875,-7.23438,6.92188,0.00976562,0.0078125,-0.00585938,4,0,41.44546588211875,-91.79515494125374,11120.719502873126,-0.1934708665890513,1.4666006246750074,-0.2686643001265389,199.437,9006.830035856614,10864.345111209012,150,True,6.775009353391858,False,160.8815290953548,175.12534406211648,False,14.603012561605281,True,False
3,1970-07-23 10:29:32.768235437,2025-09-12,2025-09-26 17:14:36.823,AH,C,1528409760,JASSM,3,101,76,2,2,1,225,9,2,0,1,26,0,0,0,0,-153956.35778983062,-4780008.270479049,4210454.927214146,-2.71064,-1.0108,0.752418,35.375,-56.25,-62.125,0.0,0.0,0.0,0.0,0.0,0.0,2,0,41.55123841352275,-91.84476692675094,10002.62790492472,155.95234505153098,0.0003771074542146,0.0007594656168564,,9006.830035856614,10864.345111209012,150,3,2025-09-12,2025-09-26 17:14:36.725,AH,C,37513884,HAWK11,1,1,73,2,1,1,225,2,1,0,0,12,1,225,2,1,-150076.84607108062,-4788105.098604049,4201962.013151646,3.13776,1.54146,-0.87504,-8.625,85.625,98.25,-0.09375,-7.07812,6.89062,0.00390625,0.0078125,0.0117188,4,0,41.4464723219025,-91.79527296871858,11122.980087597942,-0.0733326133402832,1.5826360296174495,-0.1339637185230341,199.4,9006.830035856614,10864.345111209012,150,True,6.667253900025221,False,160.87272220241192,175.2075413374427,False,14.723260394465848,True,False
3,1970-07-23 10:29:32.778264751,2025-09-12,2025-09-26 17:14:37.826,AH,C,1529602806,JASSM,3,101,76,2,2,1,225,9,2,0,1,26,0,0,0,0,-153921.00232108062,-4780064.670869674,4210392.606901646,-2.71064,-1.0108,0.752418,35.375,-56.25,-62.125,0.0,0.0,0.0,0.0,0.0,0.0,2,0,41.5504889945028,-91.8443218294058,10002.623214966805,155.95264027775767,0.0011972175353588,0.0007582680045543,,9006.830035856614,10864.345111209012,150,3,2025-09-12,2025-09-26 17:14:37.631,AH,C,38746650,HAWK11,1,1,73,2,1,1,225,2,1,0,0,12,1,225,2,1,-150085.56286795562,-4788016.391572799,4202063.651823521,-3.12539,1.52813,-0.874848,-8.375,85.75,98.5,-0.15625,-7.20312,7.03125,0.00976562,0.0078125,0.0136719,4,0,41.44768444397435,-91.79541041489924,11126.336129019948,0.4162622770109831,1.574574172313676,0.4416641180087155,199.62,9006.830035856614,10864.345111209012,150,True,6.547597928886778,False,160.75419815170758,175.31761580276847,False,14.975243395512678,True,False
3,1970-07-23 10:29:32.788295275,2025-09-12,2025-09-26 17:14:38.829,AH,C,1530795852,JASSM,3,101,76,2,2,1,225,9,2,0,1,26,0,0,0,0,-153885.64782889312,-4780121.073213424,4210330.286589146,-2.71064,-1.0108,0.752513,35.375,-56.25,-62.125,0.0,0.0,0.0,0.0,0.0,0.0,2,0,41.54973956182207,-91.8438767532817,10002.627677355676,155.95522940840647,-0.0029720719398811,0.0007570389625032,,9006.830035856614,10864.345111209012,150,3,2025-09-12,2025-09-26 17:14:39.023,AH,C,40416848,HAWK11,1,1,73,2,1,1,225,2,1,0,0,12,1,225,2,1,-150097.09216483062,-4787895.989229049,4202202.683073521,-2.99433,1.49975,-0.880122,-7.625,85.25,99.125,-0.109375,-7.59375,7.26562,0.179688,0.00390625,0.0117188,4,0,41.44933697921497,-91.7955933682615,11133.22154246801,1.4497743228394795,1.898158658817511,6.731663760148116,200.024,9006.830035856614,10864.345111209012,150,True,6.402415648206592,False,160.40184867361614,175.48511871078574,False,15.56308683238296,True,False
3,1970-07-23 10:29:32.797331923,2025-09-12,2025-09-26 17:14:39.733,AH,C,1531929248,JASSM,3,101,76,2,2,1,225,9,2,0,1,26,0,0,0,0,-153852.06091483062,-4780174.651338424,4210271.081511021,-2.71064,-1.0108,0.752513,35.375,-56.25,-62.125,0.0,0.0,0.0,0.0,0.0,0.0,2,0,41.54902761832536,-91.84345394031284,10002.624105898483,155.95550984564056,-0.0021929775282636,0.0007559286631699,,9006.830035856614,10864.345111209012,150,3,2025-09-12,2025-09-26 17:14:39.631,AH,C,41172414,HAWK11,1,1,73,2,1,1,225,2,1,0,0,12,1,225,2,1,-150101.22302420562,-4787842.397432174,4202265.126432896,-2.89251,1.48806,-0.884052,-6.375,84.875,99.625,-0.125,-7.73438,7.35938,0.125,0.0214844,0.00585938,4,0,41.4500764941152,-91.7956628389066,11137.43039979995,1.8679661634134723,2.1385271651993825,12.062798701159766,199.681,9006.830035856614,10864.345111209012,150,False,6.313001949640049,False,159.8341679875109,175.54835029154654,False,16.236350683861236,True,False
3,1970-07-23 10:29:32.808352701,2025-09-12,2025-09-26 17:14:40.835,AH,C,1533181946,JASSM,3,101,76,2,2,1,225,9,2,0,1,26,0,0,0,0,-153814.93786795562,-4780233.870088424,4210205.642057896,-2.71054,-1.0108,0.752513,35.375,-56.25,-62.125,0.0,0.0,0.0,0.0,0.0,0.0,2,0,41.5482407114868,-91.84298662319176,10002.62169894288,155.95581979634918,-0.0013318522563988,0.0062461710979006,,9006.830035856614,10864.345111209012,150,3,2025-09-12,2025-09-26 17:14:40.631,AH,C,42365412,HAWK11,1,1,73,2,1,1,225,2,1,0,0,12,1,225,2,1,-150105.94568045562,-4787757.311494674,4202365.001432896,-2.78418,1.44942,-0.884436,-3.5,84.375,100.125,-0.140625,-7.73438,7.34375,0.0429688,0.0195312,0.0234375,4,0,41.45125590196049,-91.7957511909609,11145.576281103706,3.268981646486491,2.2360065905015185,16.611392456157418,199.645,9006.830035856614,10864.345111209012,150,False,6.1935980905107,False,158.5550153029521,175.6745171842685,False,17.68998753289071,True,False
3,1970-07-23 10:29:32.819391275,2025-09-12,2025-09-26 17:14:41.939,AH,C,1534374992,JASSM,3,101,76,2,2,1,225,9,2,0,1,26,0,0,0,0,-153779.58337576812,-4780290.268525924,4210143.319792271,-2.71054,-1.0107,0.752513,35.375,-56.25,-62.125,0.0,0.0,0.0,0.0,0.0,0.0,2,0,41.547491283494765,-91.84254157941224,10002.625171508154,155.95247289070073,-0.0021863658727205,0.002491795181912,,9006.830035856614,10864.345111209012,150,3,2025-09-12,2025-09-26 17:14:42.023,AH,C,43956078,HAWK11,1,1,73,2,1,1,225,2,1,0,0,12,1,225,2,1,-150107.64099295562,-4787644.385713424,4202498.813932896,-2.75666,1.39563,-0.87945,0.75,84.0,100.375,-0.140625,-7.42188,7.125,-0.0449219,0.0136719,0.0175781,4,0,41.45283054991325,-91.79581378806829,11158.782668709442,5.246578763147846,2.124463660752179,15.8841205454463,199.388,9006.830035856614,10864.345111209012,150,False,6.054844703562918,False,156.685411784831,175.8787906773217,False,19.8084249359463,True,False
3,1970-07-23 10:29:32.827276105,2025-09-12,2025-09-26 17:14:42.727,AH,C,1535508386,JASSM,3,101,76,2,2,1,225,9,2,0,1,26,0,0,0,0,-153745.99646170562,-4780343.846650924,4210084.110807896,-2.71054,-1.0107,0.752513,35.375,-56.25,-62.125,0.0,0.0,0.0,0.0,0.0,0.0,2,0,41.546779308500426,-91.84211879573895,10002.625304160514,155.95275329607472,-0.0014072472017319,0.0024906245917045,,9006.830035856614,10864.345111209012,150,3,2025-09-12,2025-09-26 17:14:42.929,AH,C,45069542,HAWK11,1,1,73,2,1,1,225,2,1,0,0,12,1,225,2,1,-150105.70544608062,-4787564.512666549,4202593.384245396,-2.78887,1.3778,-0.860659,3.25,84.625,100.125,0.15625,-6.40625,6.14062,-0.0253906,-0.00390625,0.0332031,4,0,41.45394437831621,-91.79582058765068,11167.726469594983,6.02419688555528,1.131114722222449,13.279615508486346,199.425,9006.830035856614,10864.345111209012,150,False,5.945441150018147,False,155.62070737525565,176.03125178944558,False,21.028202869102568,True,False
3,1970-07-23 10:29:32.837312027,2025-09-12,2025-09-26 17:14:43.731,AH,C,1536641780,JASSM,3,101,76,2,2,1,225,9,2,0,1,26,0,0,0,0,-153712.40857108062,-4780397.422822799,4210024.903776646,-2.71054,-1.0107,0.752513,35.375,-56.25,-62.125,0.0,0.0,0.0,0.0,0.0,0.0,2,0,41.54606735685736,-91.84169601040144,10002.628681045224,155.95303369860443,-0.0006281479222856,0.0024894716492311,,9006.830035856614,10864.345111209012,150,3,2025-09-12,2025-09-26 17:14:43.835,AH,C,45944408,HAWK11,1,1,73,2,1,1,225,2,1,0,0,12,1,225,2,1,-150102.39489920562,-4787502.170869674,4202666.267057896,-2.7951,1.36716,-0.853277,5.0,85.125,100.0,0.140625,-6.82812,6.35938,-0.0195312,0.00585938,0.0195312,4,0,41.4548077939685,-91.79580437612556,11172.55324202488,6.473067102931949,0.7620331537386271,12.46917573039036,199.388,9006.830035856614,10864.345111209012,150,False,5.850531973459702,False,154.87672330094037,176.1530362557253,False,21.90527384631356,True,False
3,1970-07-23 10:29:32.848350358,2025-09-12,2025-09-26 17:14:44.835,AH,C,1537954132,JASSM,3,101,76,2,2,1,225,9,2,0,1,26,0,0,0,0,-153673.51794608062,-4780459.456025924,4209956.345182896,-2.71054,-1.0107,0.752513,35.375,-56.25,-62.125,0.0,0.0,0.0,0.0,0.0,0.0,2,0,41.545242982959614,-91.84120648936754,10002.624955113148,155.95335835709923,0.0002739708201981,0.0024881282109083,,9006.830035856614,10864.345111209012,150,3,2025-09-12,2025-09-26 17:14:44.725,AH,C,47137408,HAWK11,1,1,73,2,1,1,225,2,1,0,0,12,1,225,2,1,-150095.92224295562,-4787416.366182174,4202765.813932896,-2.81246,1.34089,-0.846182,7.125,85.375,99.375,-0.078125,-7.35938,6.34375,-0.0371094,0.00390625,0.0253906,4,0,41.45599135415308,-91.7957591525355,11177.3928533602,7.513444736798637,0.4979425756471307,10.355914925954714,199.388,9006.830035856614,10864.345111209012,150,False,5.730808103018719,False,153.9616406266504,176.33746689956413,False,23.030562857919268,True,False
3,1970-07-23 10:29:32.860195207,2025-09-12,2025-09-26 17:14:46.019,AH,C,1539266484,JASSM,3,101,76,2,2,1,225,9,2,0,1,26,0,0,0,0,-153634.62732108062,-4780521.489229049,4209887.784636021,-2.71054,-1.0107,0.752609,35.375,-56.25,-62.125,0.0,0.0,0.0,0.0,0.0,0.0,2,0,41.54441859370406,-91.840716980769,10002.62216082756,155.95597867927498,-0.0038162575861969,0.0024867265009352,,9006.830035856614,10864.345111209012,150,3,2025-09-12,2025-09-26 17:14:45.929,AH,C,48688306,HAWK11,1,1,73,2,1,1,225,2,1,0,0,12,1,225,2,1,-150084.37341483062,-4787303.942354049,4202895.270964146,-2.86126,1.32028,-0.83554,9.5,85.875,98.375,0.0,-7.10938,5.9375,-0.0605469,0.00195312,0.0,4,0,41.4575361041885,-91.79566321222724,11181.399182611114,8.38622970492862,0.019551113282161,6.683829169050535,199.241,9006.830035856614,10864.345111209012,150,True,5.59179840375435,False,152.93529372307248,176.6035759205974,False,24.36489322100807,True,False
3,1970-07-23 10:29:32.870235153,2025-09-12,2025-09-26 17:14:47.023,AH,C,1540578834,JASSM,3,101,76,2,2,1,225,9,2,0,1,26,0,0,0,0,-153595.73767264312,-4780583.522432174,4209819.226042271,-2.71054,-1.0107,0.752609,35.375,-56.25,-62.125,0.0,0.0,0.0,0.0,0.0,0.0,2,0,41.54359421521472,-91.84022749629764,10002.628874704104,155.95630330305184,-0.0029141419257632,0.002485411101112,,9006.830035856614,10864.345111209012,150,3,2025-09-12,2025-09-26 17:14:47.131,AH,C,50040370,HAWK11,1,1,73,2,1,1,225,2,1,0,0,12,1,225,2,1,-150072.42614920562,-4787206.270479049,4203006.966276646,-2.89903,1.30436,-0.831226,10.75,85.625,98.25,-0.09375,-7.375,6.15625,-0.0332031,-0.0078125,0.0214844,4,0,41.45887328784732,-91.79555697389198,11183.061895430968,9.032333709197683,-0.1192853875662966,3.8441019015928,199.241,9006.830035856614,10864.345111209012,150,True,5.464761218375479,False,152.37947697740148,176.83565548554088,False,25.248793532844967,True,False
