Subject_cm,Timestamp,SampleDate_cm,SampleTime_cm,Configuration_cm,Scenario_cm,DisTime_cm,MarkingTxt_cm,Application_cm,EntId_cm,Site_cm,ExerciseId_cm,ForceId_cm,Category_cm,Country_cm,Domain_cm,Kind_cm,Extra_cm,Specific_cm,Subcategory_cm,AltCategory_cm,AltCountry_cm,AltDomain_cm,AltKind_cm,ECEF_X_cm,ECEF_Y_cm,ECEF_Z_cm,OriPhi_cm,OriPsi_cm,OriTheta_cm,LinVelX_cm,LinVelY_cm,LinVelZ_cm,LinAccX_cm,LinAccY_cm,LinAccZ_cm,AngVelX_cm,AngVelY_cm,AngVelZ_cm,DrAlg_cm,Appearance_cm,Latitude_cm,Longitude_cm,Altitude_cm,Heading_cm,Pitch_cm,Roll_cm,CalibratedAirspeed_cm,CM_Altitude_Lead_cm,CM_Altitude_Wing_cm,CM_Airspeed_cm,Subject_ac,SampleDate_ac,SampleTime_ac,Configuration_ac,Scenario_ac,DisTime_ac,MarkingTxt_ac,Application_ac,EntId_ac,Site_ac,ExerciseId_ac,ForceId_ac,Category_ac,Country_ac,Domain_ac,Kind_ac,Extra_ac,Specific_ac,Subcategory_ac,AltCategory_ac,AltCountry_ac,AltDomain_ac,AltKind_ac,ECEF_X_ac,ECEF_Y_ac,ECEF_Z_ac,OriPhi_ac,OriPsi_ac,OriTheta_ac,LinVelX_ac,LinVelY_ac,LinVelZ_ac,LinAccX_ac,LinAccY_ac,LinAccZ_ac,AngVelX_ac,AngVelY_ac,AngVelZ_ac,DrAlg_ac,Appearance_ac,Latitude_ac,Longitude_ac,Altitude_ac,Heading_ac,Pitch_ac,Roll_ac,CalibratedAirspeed_ac,CM_Altitude_Lead_ac,CM_Altitude_Wing_ac,CM_Airspeed_ac,Bank_Angle_Condition,distance_nm,Distance_Condition,angle_between_vel,angle_between_pos,Cone_Condition,angle_between_pos_nose,Nose_Cone_Condition,Intercept_Criteria
3,1970-07-23 09:46:47.476347754,2025-09-09,2025-09-26 17:59:07.634,HH,C,1646043072,JASSM,3,105,76,2,2,1,225,9,2,0,1,26,0,0,0,0,-119050.07683717164,-4814841.272535619,4171978.582975865,2.50557,2.45379,-0.614551,-55.875,46.0,51.125,0.0,0.0,0.0,0.0,0.0,0.0,2,0,41.090167032394746,-91.41638675914317,9999.999915760767,-40.083571669519806,-0.0043967530755158,-0.0021820059073854,,8987.758710775177,10858.05979093449,150,3,2025-09-09,2025-09-26 17:59:07.735,HH,C,3898001426,AMBUSH51,1,1,48,2,1,1,225,2,1,0,0,9,1,225,2,1,-149455.05254158983,-4790247.138480781,4198573.939936472,2.15548,2.71958,-0.425664,-95.653,45.4812,46.6242,-0.0154326,-7.11742,7.06129,-0.138498,0.00392296,-0.0187971,4,0,41.41097673319092,-91.7870407449484,8986.673642220814,-57.36874853936084,0.7402149440591785,-12.593288382452206,187.29,8987.758710775177,10858.05979093449,150,False,25.52342533280321,False,16.72631048740443,178.90308091612113,False,164.22862016263235,False,False
3,1970-07-23 09:46:47.485167140,2025-09-09,2025-09-26 17:59:08.516,HH,C,1647176070,JASSM,3,105,76,2,2,1,225,9,2,0,1,26,0,0,0,0,-119103.24480592164,-4814797.590406713,4172027.15133524,2.50557,2.45379,-0.614551,-55.875,46.0,51.125,0.0,0.0,0.0,0.0,0.0,0.0,2,0,41.09074702203674,-91.41703191267986,10000.000832798814,-40.08399569640404,-0.0036399108763508,-0.0021834453909827,,8987.758710775177,10858.05979093449,150,3,2025-09-09,2025-09-26 17:59:08.468,HH,C,3898876292,AMBUSH51,1,1,48,2,1,1,225,2,1,0,0,9,1,225,2,1,-149526.4067231988,-4790213.985083377,4198608.474056664,2.0552,2.72992,-0.411533,-96.5273,43.4939,47.3679,0.132913,-7.15765,6.98785,-0.126264,0.00205667,-0.0312141,4,0,41.41139385873172,-91.78790574258124,8985.557373445603,-58.321534146424256,0.5352030155971467,-18.108638929494244,188.048,8987.758710775177,10858.05979093449,150,False,25.522490917570043,False,17.240133181716324,178.87639066664048,False,163.71051130421404,False,False
3,1970-07-23 09:46:47.494227074,2025-09-09,2025-09-26 17:59:09.422,HH,C,1648250524,JASSM,3,105,76,2,2,1,225,9,2,0,1,26,0,0,0,0,-119153.66668092164,-4814756.164137182,4172073.2089524274,2.50557,2.45379,-0.614551,-55.875,46.0,51.125,0.0,0.0,0.0,0.0,0.0,0.0,2,0,41.0912970388945,-91.41764375499297,9999.999564504258,-40.08439783406623,-0.0029221693086922,-0.0021848019079116,,8987.758710775177,10858.05979093449,150,3,2025-09-09,2025-09-26 17:59:09.401,HH,C,3899989758,AMBUSH51,1,1,48,2,1,1,225,2,1,0,0,9,1,225,2,1,-149617.6957939024,-4790173.019493699,4198650.225371448,1.98388,2.75216,-0.387594,-98.723,43.1761,44.0286,-0.0362704,-7.16755,7.01409,-0.0493195,0.00388551,-0.0384317,4,0,41.41190247354711,-91.7890118777549,8982.42575073244,-60.12041883942072,0.3767289958174286,-21.713356457253266,189.147,8987.758710775177,10858.05979093449,150,False,25.535220257321598,False,18.984272744533083,178.84041613227873,False,162.03806589861014,False,False
3,1970-07-23 09:46:47.508344504,2025-09-09,2025-09-26 17:59:10.834,HH,C,1649442860,JASSM,3,105,76,2,2,1,225,9,2,0,1,26,0,0,0,0,-119209.61589967164,-4814710.192457494,4172124.31930399,2.50557,2.45379,-0.614455,-55.875,46.0,51.125,0.0,0.0,0.0,0.0,0.0,0.0,2,0,41.09190739637162,-91.4183226818235,9999.9998755104,-40.08810585557735,-0.0065435145734608,-0.0021860921936564,,8987.758710775177,10858.05979093449,150,3,2025-09-09,2025-09-26 17:59:10.801,HH,C,3901659956,AMBUSH51,1,1,48,2,1,1,225,2,1,0,0,9,1,225,2,1,-149757.31876514334,-4790114.414770458,4198708.892828662,1.96281,2.783,-0.35369,-101.708,41.1054,40.4106,0.0437576,-7.17833,7.0331,0.0138266,0.0109158,-0.03369,4,0,41.4126212287734,-91.79070218791624,8976.346931335678,-62.65951666821327,0.1663675196818492,-22.292234860180344,189.587,8987.758710775177,10858.05979093449,150,False,25.570111808300872,False,21.478113812182457,178.780967965995,False,159.61875148582146,False,False
3,1970-07-23 09:46:47.513325033,2025-09-09,2025-09-26 17:59:11.332,HH,C,1650577370,JASSM,3,105,76,2,2,1,225,9,2,0,1,26,0,0,0,0,-119262.85808717164,-4814666.449293432,4172172.950163365,2.50557,2.45379,-0.614455,-55.875,46.0,51.125,0.0,0.0,0.0,0.0,0.0,0.0,2,0,41.09248814901089,-91.41896877007125,10000.000196526422,-40.08853051153772,-0.005785643412091,-0.0021875538372813,,8987.758710775177,10858.05979093449,150,3,2025-09-09,2025-09-26 17:59:11.335,HH,C,3902296222,AMBUSH51,1,1,48,2,1,1,225,2,1,0,0,9,1,225,2,1,-149812.89264870243,-4790092.333749764,4198730.50268237,1.97187,2.79587,-0.337786,-102.84,40.4422,38.8642,-0.0748184,-7.01987,6.86302,0.0232517,0.0198083,-0.0285905,4,0,41.41288814223903,-91.7913745242988,8973.214446177451,-63.7958456785314,0.0206030256826256,-21.52529778040781,189.783,8987.758710775177,10858.05979093449,150,False,25.556627995289773,False,22.44704373243282,178.7543092749293,False,158.68401301289438,False,False
3,1970-07-23 09:46:47.523205159,2025-09-09,2025-09-26 17:59:12.320,HH,C,1651651112,JASSM,3,105,76,2,2,1,225,9,2,0,1,26,0,0,0,0,-119313.24480592164,-4814625.048414526,4172218.97555399,2.50557,2.45379,-0.614455,-55.875,46.0,51.125,0.0,0.0,0.0,0.0,0.0,0.0,2,0,41.09303779182199,-91.4195802190921,10000.000432895366,-40.08893240465218,-0.0050683868623437,-0.00218896239513,,8987.758710775177,10858.05979093449,150,3,2025-09-09,2025-09-26 17:59:12.267,HH,C,3903409688,AMBUSH51,1,1,48,2,1,1,225,2,1,0,0,9,1,225,2,1,-149908.68398312057,-4790055.727845222,4198765.439319672,1.98391,2.81451,-0.315615,-104.585,38.8888,36.9211,-0.137698,-7.2639,7.10215,0.00649666,0.0101169,-0.0245791,4,0,41.413323946105535,-91.7925328833675,8966.380227624619,-65.4121915852087,-0.1425011050096024,-20.49103153336612,190.406,8987.758710775177,10858.05979093449,150,False,25.56770309875673,False,23.91752191860533,178.7076242125997,False,157.26365523720068,False,False
3,1970-07-23 09:46:47.534228681,2025-09-09,2025-09-26 17:59:13.422,HH,C,1653022924,JASSM,3,105,76,2,2,1,225,9,2,0,1,26,0,0,0,0,-119377.61980592164,-4814572.153394994,4172277.776823521,2.50566,2.45379,-0.614455,-55.875,46.0,51.125,0.0,0.0,0.0,0.0,0.0,0.0,2,0,41.093740012755845,-91.42036143259924,10000.000795808684,-40.08944588699899,-0.0041520128691324,0.0033007153932379,,8987.758710775177,10858.05979093449,150,3,2025-09-09,2025-09-26 17:59:13.368,HH,C,3904721986,AMBUSH51,1,1,48,2,1,1,225,2,1,0,0,9,1,225,2,1,-150025.60474427036,-4790013.660744753,4198804.765741849,2.01425,2.83764,-0.291025,-106.466,37.098,34.4296,-0.0954326,-7.18389,6.99435,0.048429,-0.00017373,-0.0297868,4,0,41.41381792776168,-91.79394579448632,8957.275822728692,-67.30499428985857,-0.2091334140601279,-18.350904502628584,191.763,8987.758710775177,10858.05979093449,150,False,25.5770511612724,False,25.660916036079872,178.64704319809735,False,155.58676168994694,False,False
3,1970-07-23 09:46:47.545245994,2025-09-09,2025-09-26 17:59:14.524,HH,C,1654334348,JASSM,3,105,76,2,2,1,225,9,2,0,1,26,0,0,0,0,-119439.15886842164,-4814521.585523901,4172333.9882493024,2.50566,2.45379,-0.614455,-55.875,46.0,51.125,0.0,0.0,0.0,0.0,0.0,0.0,2,0,41.09441131526173,-91.42110824745296,9999.999779808446,-40.089936766292126,-0.0032759912363914,0.0032989866301307,,8987.758710775177,10858.05979093449,150,3,2025-09-09,2025-09-26 17:59:14.535,HH,C,3906113818,AMBUSH51,1,1,48,2,1,1,225,2,1,0,0,9,1,225,2,1,-150150.80317485752,-4789971.264720367,4198843.40997377,2.03843,2.85589,-0.26999,-108.33,35.5298,31.9017,-0.0254212,-7.10007,6.93299,0.0454163,-0.0120144,-0.0130276,4,0,41.41430770122051,-91.79545776852484,8946.52880313805,-68.871578281743,-0.3117414091391668,-16.669268651330196,192.19,8987.758710775177,10858.05979093449,150,False,25.5916316291774,False,27.342591707974275,178.5787964529312,False,153.98111959555496,False,False
3,1970-07-23 09:46:47.556287045,2025-09-09,2025-09-26 17:59:15.628,HH,C,1655647534,JASSM,3,105,76,2,2,1,225,9,2,0,1,26,0,0,0,0,-119500.78386842164,-4814470.949293432,4172390.274382115,2.50566,2.45379,-0.614455,-55.875,46.0,51.125,0.0,0.0,0.0,0.0,0.0,0.0,2,0,41.095083511233,-91.42185611978232,10000.001067505556,-40.09042834729675,-0.002398776572855,0.0032972802517977,,8987.758710775177,10858.05979093449,150,3,2025-09-09,2025-09-26 17:59:15.567,HH,C,3907346584,AMBUSH51,1,1,48,2,1,1,225,2,1,0,0,9,1,225,2,1,-150263.42684291213,-4789935.2554346,4198875.777156373,2.08449,2.87503,-0.256277,-109.738,33.7954,30.6709,-0.150405,-7.773,7.55503,0.0551118,0.0159446,-0.0301946,4,0,41.41471942983846,-91.79681710470662,8936.904767186094,-70.17086443088112,-0.0788900765333735,-13.7403877189808,193.73,8987.758710775177,10858.05979093449,150,False,25.59810250571366,False,28.5096389680552,178.5144559798055,False,152.87653813971863,False,False
3,1970-07-23 09:46:47.567309159,2025-09-09,2025-09-26 17:59:16.730,HH,C,1657018704,JASSM,3,105,76,2,2,1,225,9,2,0,1,26,0,0,0,0,-119565.12761842164,-4814418.075269994,4172449.044401646,2.50566,2.4537,-0.614455,-55.875,46.0,51.125,0.0,0.0,0.0,0.0,0.0,0.0,2,0,41.09578538494264,-91.42263700388476,9999.99960506018,-40.08733182524072,-0.0041479053205926,0.000129396646335,,8987.758710775177,10858.05979093449,150,3,2025-09-09,2025-09-26 17:59:16.735,HH,C,3908738416,AMBUSH51,1,1,48,2,1,1,225,2,1,0,0,9,1,225,2,1,-150392.30679904885,-4789896.991184488,4198910.542325533,2.06977,2.89623,-0.244585,-111.285,31.6929,29.1218,-0.0855302,-7.81865,7.64814,-0.0378013,0.0151415,-0.00205667,4,0,41.41515770958174,-91.79837156822788,8928.202530881596,-71.46442617721327,0.325480338892478,-14.285192910618605,193.73,8987.758710775177,10858.05979093449,150,False,25.609327332196795,False,29.90847317678796,178.43841365074618,False,151.55208686560664,False,False
3,1970-07-23 09:46:47.578346226,2025-09-09,2025-09-26 17:59:17.834,HH,C,1658271402,JASSM,3,105,76,2,2,1,225,9,2,0,1,26,0,0,0,0,-119623.91277467164,-4814369.769117651,4172502.7362961774,2.50566,2.4537,-0.614455,-55.875,46.0,51.125,0.0,0.0,0.0,0.0,0.0,0.0,2,0,41.09642661190664,-91.42335044266324,10000.001034185108,-40.087800785590346,-0.0033111015860343,0.0001278112543724,,8987.758710775177,10858.05979093449,150,3,2025-09-09,2025-09-26 17:59:17.635,HH,C,3909812114,AMBUSH51,1,1,48,2,1,1,225,2,1,0,0,9,1,225,2,1,-150492.69059027918,-4789869.4465053575,4198936.295870109,2.06589,2.91016,-0.2387,-112.292,29.9171,27.9694,0.0543889,-7.66372,7.32035,0.0409575,0.00617833,-0.0208257,4,0,41.41547668323725,-91.79958149730582,8924.111547314797,-72.2389703753803,0.666058973835711,-14.32364693226687,194.524,8987.758710775177,10858.05979093449,150,False,25.609659793902033,False,30.980362417903773,178.37700335657735,False,150.53944885291293,False,False
3,1970-07-23 09:46:47.590026316,2025-09-09,2025-09-26 17:59:19.002,HH,C,1659525098,JASSM,3,105,76,2,2,1,225,9,2,0,1,26,0,0,0,0,-119682.74480592164,-4814321.422926244,4172556.469694615,2.50566,2.4537,-0.614359,-55.875,46.0,51.125,0.0,0.0,0.0,0.0,0.0,0.0,2,0,41.0970683457934,-91.42406446467592,10000.000350460485,-40.09153370544847,-0.0068943651139325,0.0001264916160235,,8987.758710775177,10858.05979093449,150,3,2025-09-09,2025-09-26 17:59:18.934,HH,C,3911363012,AMBUSH51,1,1,48,2,1,1,225,2,1,0,0,9,1,225,2,1,-150638.79287667797,-4789832.115624035,4198971.521389697,2.053,2.93334,-0.216524,-113.639,27.5675,26.4684,-0.0676923,-7.50876,7.15536,-0.0343725,0.00522958,-0.0102334,4,0,41.41590925594255,-91.80134145809416,8920.053197890937,-74.05123516053416,0.7614125214917637,-14.785093385078738,194.83,8987.758710775177,10858.05979093449,150,False,25.631621011795147,False,32.3905379821467,178.28624380276312,False,149.21787208516494,False,False
3,1970-07-23 09:46:47.599271530,2025-09-09,2025-09-26 17:59:19.927,HH,C,1660837432,JASSM,3,105,76,2,2,1,225,9,2,0,1,26,0,0,0,0,-119744.32683717164,-4814270.815504369,4172612.714323521,2.50566,2.4537,-0.614359,-55.875,46.0,51.125,0.0,0.0,0.0,0.0,0.0,0.0,2,0,41.09774007670156,-91.424811877688,10000.00007446755,-40.09202501055056,-0.0060177438763086,0.0001247780580503,,8987.758710775177,10858.05979093449,150,3,2025-09-09,2025-09-26 17:59:20.034,HH,C,3912675312,AMBUSH51,1,1,48,2,1,1,225,2,1,0,0,9,1,225,2,1,-150765.05691698514,-4789802.635876523,4198999.510480754,1.99365,2.95023,-0.207201,-114.801,25.6408,24.2674,0.0169299,-7.53194,7.17299,-0.0682508,0.0158947,-0.0183623,4,0,41.41624995532427,-91.80286141848576,8918.073024777423,-75.08448260221593,1.1027752171919556,-17.998622724741903,195.624,8987.758710775177,10858.05979093449,150,False,25.6399586708098,False,33.88948317621873,178.20428465748333,False,147.80533048367656,False,False
3,1970-07-23 09:46:47.609563720,2025-09-09,2025-09-26 17:59:20.956,HH,C,1662029498,JASSM,3,105,76,2,2,1,225,9,2,0,1,26,0,0,0,0,-119800.26824342164,-4814224.843336401,4172663.805632115,2.50566,2.4537,-0.614359,-55.875,46.0,51.125,0.0,0.0,0.0,0.0,0.0,0.0,2,0,41.09835026612736,-91.42549084442066,10000.000302057984,-40.09247132886463,-0.005221424604301,0.0001232278244289,,8987.758710775177,10858.05979093449,150,3,2025-09-09,2025-09-26 17:59:20.801,HH,C,3913589944,AMBUSH51,1,1,48,2,1,1,225,2,1,0,0,9,1,225,2,1,-150853.49783198623,-4789783.58428533,4199017.623572426,1.92461,2.9693,-0.188138,-115.683,23.9125,22.6916,-0.180597,-7.77495,7.40113,-0.10591,0.0176965,-0.0389914,4,0,41.41646901068341,-91.80392547437351,8917.38192785864,-76.61400795101177,1.1651362482719352,-21.77008280911885,195.966,8987.758710775177,10858.05979093449,150,False,25.63398497107244,False,35.06826026524821,178.14433984277946,False,146.6871470890138,False,False
3,1970-07-23 09:46:47.621559481,2025-09-09,2025-09-26 17:59:22.155,HH,C,1663103240,JASSM,3,105,76,2,2,1,225,9,2,0,1,26,0,0,0,0,-119850.65496217164,-4814183.434644994,4172709.823698521,2.50566,2.4537,-0.614359,-55.875,46.0,51.125,0.0,0.0,0.0,0.0,0.0,0.0,2,0,41.09889987029061,-91.42610240447416,10000.000398111322,-40.0928733421271,-0.0045041703151884,0.0001218273743325,,8987.758710775177,10858.05979093449,150,3,2025-09-09,2025-09-26 17:59:21.967,HH,C,3914981776,AMBUSH51,1,1,48,2,1,1,225,2,1,0,0,9,1,225,2,1,-150988.21646966517,-4789757.7724111695,4199041.964564211,1.73379,3.003,-0.162395,-117.077,20.4775,18.8398,0.0494824,-8.08212,7.67899,-0.165271,0.0250348,-0.0300178,4,0,41.41676164047016,-91.80554511483508,8917.174499199624,-78.98325516733493,1.596553166837915,-32.42346923146956,196.614,8987.758710775177,10858.05979093449,150,False,25.652871696842357,False,37.61337507700773,178.0514571299576,False,144.23915245154154,False,False
3,1970-07-23 09:46:47.628226061,2025-09-09,2025-09-26 17:59:22.822,HH,C,1664177288,JASSM,3,105,76,2,2,1,225,9,2,0,1,26,0,0,0,0,-119901.05730592164,-4814142.013258276,4172755.85446024,2.50566,2.4537,-0.614359,-55.875,46.0,51.125,0.0,0.0,0.0,0.0,0.0,0.0,2,0,41.09944963004387,-91.4267141643306,10000.000737069362,-40.09327549117232,-0.0037867025243416,0.0001204339184471,,8987.758710775177,10858.05979093449,150,3,2025-09-09,2025-09-26 17:59:22.734,HH,C,3915896408,AMBUSH51,1,1,48,2,1,1,225,2,1,0,0,9,1,225,2,1,-151078.1731422486,-4789743.210086996,4199055.564450282,1.63606,3.04801,-0.127332,-118.046,16.9787,15.6153,0.00911999,-9.2401,8.98431,-0.128035,0.0521303,-0.0655356,4,0,41.41692320999954,-91.80662560981732,8917.856230306857,-82.18247827031165,2.1709236081473637,-37.75574266052272,197.359,8987.758710775177,10858.05979093449,150,False,25.64965253861692,False,39.91023029003545,177.98541561828316,False,142.00725674862227,False,False
3,1970-07-23 09:46:47.637248433,2025-09-09,2025-09-26 17:59:23.724,HH,C,1665370064,JASSM,3,105,76,2,2,1,225,9,2,0,1,26,0,0,0,0,-119957.02996217164,-4814096.011793432,4172806.973112584,2.50566,2.4537,-0.614359,-55.875,46.0,51.125,0.0,0.0,0.0,0.0,0.0,0.0,2,0,41.10006016220332,-91.42739354665196,10000.00077522059,-40.09372209801053,-0.0029899279792932,0.0001188749575513,,8987.758710775177,10858.05979093449,150,3,2025-09-09,2025-09-26 17:59:23.700,HH,C,3917049640,AMBUSH51,1,1,48,2,1,1,225,2,1,0,0,9,1,225,2,1,-151193.6908334307,-4789729.43473883,4199067.983317562,1.51348,3.09481,-0.0705894,-119.226,11.5591,9.50186,0.00655997,-9.6368,9.19949,-0.0950489,0.0529439,-0.044041,4,0,41.417067313829286,-91.8080112753805,8919.8983304153,-86.38914330584049,2.0211101528026054,-44.66804542174994,197.359,8987.758710775177,10858.05979093449,150,False,25.650183077362275,False,43.84434958795724,177.89566293702393,False,138.16682806332463,False,False
3,1970-07-23 09:46:47.650365120,2025-09-09,2025-09-26 17:59:25.036,HH,C,1666444902,JASSM,3,105,76,2,2,1,225,9,2,0,1,26,0,0,0,0,-120007.47136842164,-4814054.558180151,4172853.036100865,2.50566,2.4537,-0.614359,-55.875,46.0,51.125,0.0,0.0,0.0,0.0,0.0,0.0,2,0,41.10061031840622,-91.42800580222006,10000.000300264392,-40.09412458230126,-0.002271921594304,0.000117495070341,,8987.758710775177,10858.05979093449,150,3,2025-09-09,2025-09-26 17:59:25.000,HH,C,3918600538,AMBUSH51,1,1,48,2,1,1,225,2,1,0,0,9,1,225,2,1,-151349.1585256516,-4789719.76863412,4199074.508630257,1.4323,-3.12218,0.0144791,-119.894,3.68096,-0.2165,-0.00182217,-9.70128,9.38654,-0.0442074,0.066888,-0.0681426,4,0,41.41713965825805,-91.80987281044877,8922.36512795564,-92.55599984538064,1.6415480252432424,-49.40990617654007,197.848,8987.758710775177,10858.05979093449,150,False,25.666796331560132,False,49.82222056205588,177.76577537264103,False,132.32796624182274,False,False
3,1970-07-23 09:46:47.656202359,2025-09-09,2025-09-26 17:59:25.620,HH,C,1667577166,JASSM,3,105,76,2,2,1,225,9,2,0,1,26,0,0,0,0,-120060.60418092164,-4814010.889234838,4172901.559538365,2.50566,2.4536,-0.614359,-55.875,46.0,51.125,0.0,0.0,0.0,0.0,0.0,0.0,2,0,41.101189864452905,-91.42865073804394,10000.000474261,-40.090938353617226,-0.0041806198464664,-0.0030496395396875,,8987.758710775177,10858.05979093449,150,3,2025-09-09,2025-09-26 17:59:25.568,HH,C,3919276572,AMBUSH51,1,1,48,2,1,1,225,2,1,0,0,9,1,225,2,1,-151416.57587085172,-4789718.812394041,4199073.297997936,1.41294,-3.09053,0.0609507,-119.583,0.125643,-4.51365,-0.0462859,-9.84023,9.46127,-0.0417378,0.0541506,-0.0718003,4,0,41.4171244977008,-91.81067882940056,8922.625906779223,-95.75228279364532,1.2327059681846468,-50.66794615618312,197.812,8987.758710775177,10858.05979093449,150,False,25.64520705775026,False,52.489686860226584,177.7029125048879,False,129.72665258813157,False,False
3,1970-07-23 09:46:47.672781358,2025-09-09,2025-09-26 17:59:27.278,HH,C,1668710558,JASSM,3,105,76,2,2,1,225,9,2,0,1,26,0,0,0,0,-120113.78777467164,-4813967.175367651,4172950.1308274274,2.50566,2.4536,-0.614359,-55.875,46.0,51.125,0.0,0.0,0.0,0.0,0.0,0.0,2,0,41.101769989572816,-91.42929630256036,9999.99960855264,-40.09136274421899,-0.0034235272933719,-0.0030510890773522,,8987.758710775177,10858.05979093449,150,3,2025-09-09,2025-09-26 17:59:27.302,HH,C,3921344436,AMBUSH51,1,1,48,2,1,1,225,2,1,0,0,9,1,225,2,1,-151622.16085421693,-4789728.05801526,4199052.168808927,1.40264,-3.00413,0.182766,-117.472,-10.3132,-19.5301,-0.156492,-9.81181,9.42796,-0.0173033,0.052095,-0.0578769,4,0,41.41688816772583,-91.81313213074132,8915.496405400574,-104.22797827686492,0.2219778580178719,-51.96922507102111,198.789,8987.758710775177,10858.05979093449,150,False,25.66411276511126,False,61.272063712084474,177.5015751117072,False,121.16343983338989,False,False
3,1970-07-23 09:46:47.675252754,2025-09-09,2025-09-26 17:59:27.525,HH,C,1669784300,JASSM,3,105,76,2,2,1,225,9,2,0,1,26,0,0,0,0,-120164.17839967164,-4813925.761793432,4172996.144987584,2.50566,2.4536,-0.614263,-55.875,46.0,51.125,0.0,0.0,0.0,0.0,0.0,0.0,2,0,41.10231957502014,-91.42990797397042,9999.999850983737,-40.09502615490259,-0.0071244168710774,-0.00305213797741,,8987.758710775177,10858.05979093449,150,3,2025-09-09,2025-09-26 17:59:27.634,HH,C,3921742102,AMBUSH51,1,1,48,2,1,1,225,2,1,0,0,9,1,225,2,1,-151660.42443614098,-4789731.878703114,4199045.375834734,1.40227,-2.98696,0.205328,-116.845,-12.3329,-22.0207,-0.0794813,-9.87411,9.45472,0.00259346,0.0622878,-0.058755,4,0,41.41681237400664,-91.81358794408575,8913.127615243127,-105.83366593305507,0.0626056536105126,-52.183858617504406,198.973,8987.758710775177,10858.05979093449,150,False,25.631613911963623,False,62.83768022575168,177.45782929215696,False,119.64306139366612,False,False
3,1970-07-23 09:46:47.686350791,2025-09-09,2025-09-26 17:59:28.635,HH,C,1670918660,JASSM,3,105,76,2,2,1,225,9,2,0,1,26,0,0,0,0,-120217.40886842164,-4813882.009352026,4173044.7563157086,2.50566,2.4536,-0.614263,-55.875,46.0,51.125,0.0,0.0,0.0,0.0,0.0,0.0,2,0,41.102900185763815,-91.43055412963872,10000.000016470718,-40.095450943648615,-0.0063666714256066,-0.0030536199462292,,8987.758710775177,10858.05979093449,150,3,2025-09-09,2025-09-26 17:59:28.569,HH,C,3922855568,AMBUSH51,1,1,48,2,1,1,225,2,1,0,0,9,1,225,2,1,-151768.97950358863,-4789746.350936104,4199020.613812158,1.46597,-2.93326,0.272747,-114.399,-18.1287,-29.8347,-0.260729,-10.1185,9.73118,0.0739329,0.0663262,-0.0565038,4,0,41.41653866138092,-91.8148797210622,8903.429502309822,-110.69884327511548,-0.374145237132759,-49.2502355721081,199.791,8987.758710775177,10858.05979093449,150,False,25.613590236061174,False,67.63462825750732,177.3353963313209,False,114.97491654567011,False,False
3,1970-07-23 09:46:47.699921826,2025-09-09,2025-09-26 17:59:29.992,HH,C,1672110742,JASSM,3,105,76,2,2,1,225,9,2,0,1,26,0,0,0,0,-120273.35027467164,-4813836.029859838,4173095.840300084,2.50576,2.4536,-0.614263,-55.875,46.0,51.125,0.0,0.0,0.0,0.0,0.0,0.0,2,0,41.1035103344477,-91.43123320483262,10000.000517838833,-40.09589737933719,-0.0055703566655715,0.0024363123072686,,8987.758710775177,10858.05979093449,150,3,2025-09-09,2025-09-26 17:59:29.967,HH,C,3924525766,AMBUSH51,1,1,48,2,1,1,225,2,1,0,0,9,1,225,2,1,-151924.8468394694,-4789778.16624599,4198971.537141741,1.58435,-2.84234,0.351891,-109.535,-27.2923,-39.9376,-0.0987447,-10.6784,10.1366,0.0477798,0.062681,-0.0435729,4,0,41.41598868949822,-91.81673030189545,8887.305536230393,-117.4045647596099,0.0429150785278195,-44.0514506401402,200.745,8987.758710775177,10858.05979093449,150,False,25.59841608895727,False,74.56976474808377,177.1468996290616,False,108.23060963682073,False,False
3,1970-07-23 09:46:47.703284581,2025-09-09,2025-09-26 17:59:30.328,HH,C,1673244136,JASSM,3,105,76,2,2,1,225,9,2,0,1,26,0,0,0,0,-120326.53386842164,-4813792.312574682,4173144.4086594586,2.50576,2.4536,-0.614263,-55.875,46.0,51.125,0.0,0.0,0.0,0.0,0.0,0.0,2,0,41.10409044521164,-91.4318788158134,9999.999496387543,-40.09632182014802,-0.0048132637428419,0.0024348201226989,,8987.758710775177,10858.05979093449,150,3,2025-09-09,2025-09-26 17:59:30.267,HH,C,3924883666,AMBUSH51,1,1,48,2,1,1,225,2,1,0,0,9,1,225,2,1,-151956.99295791096,-4789786.687814467,4198959.387297452,1.6067,-2.8196,0.368401,-108.145,-29.3318,-41.7187,-0.137563,-10.6131,10.162,0.0531186,0.05496,-0.049696,4,0,41.415849906312616,-91.81711121956104,8884.399757910483,-118.93617438554108,0.2350502923423402,-43.23362027464968,201.074,8987.758710775177,10858.05979093449,150,False,25.558579846133544,False,76.01476002260553,177.1017918776839,False,106.82976724368605,False,False
3,1970-07-23 09:46:47.713221475,2025-09-09,2025-09-26 17:59:31.322,HH,C,1674317878,JASSM,3,105,76,2,2,1,225,9,2,0,1,26,0,0,0,0,-120376.92058717164,-4813750.896070776,4173190.4203782086,2.50576,2.4536,-0.614263,-55.875,46.0,51.125,0.0,0.0,0.0,0.0,0.0,0.0,2,0,41.104640018076,-91.43249048468952,10000.00083327242,-40.096723951133335,-0.004096006620086,0.0024334235437953,,8987.758710775177,10858.05979093449,150,3,2025-09-09,2025-09-26 17:59:31.267,HH,C,3926076664,AMBUSH51,1,1,48,2,1,1,225,2,1,0,0,9,1,225,2,1,-152063.49625888112,-4789819.858699096,4198914.712313609,1.6712,-2.75106,0.414073,-103.783,-36.2027,-46.9952,-0.188135,-10.7379,10.1671,-0.000677234,0.0561563,-0.0513917,4,0,41.41533086741299,-91.81837135360084,8877.32510641607,-123.36628858269148,0.8719592708590514,-41.07924688860656,201.404,8987.758710775177,10858.05979093449,150,False,25.531616484357514,False,80.59518413454747,176.95880412812218,False,102.38696211242511,False,False
3,1970-07-23 09:46:47.722284760,2025-09-09,2025-09-26 17:59:32.228,HH,C,1675510924,JASSM,3,105,76,2,2,1,225,9,2,0,1,26,0,0,0,0,-120432.90496217164,-4813704.877027807,4173241.542448521,2.50576,2.4536,-0.614263,-55.875,46.0,51.125,0.0,0.0,0.0,0.0,0.0,0.0,2,0,41.10525064104078,-91.43317011861993,9999.999920026274,-40.097170769758215,-0.0032990666569467,0.0024318722167389,,8987.758710775177,10858.05979093449,150,3,2025-09-09,2025-09-26 17:59:32.168,HH,C,3927150362,AMBUSH51,1,1,48,2,1,1,225,2,1,0,0,9,1,225,2,1,-152154.09948704453,-4789854.828424653,4198870.460965902,1.6939,-2.68779,0.449888,-99.1935,-42.0517,-51.7283,-0.10163,-10.7459,10.2731,-0.00417471,0.0610186,-0.0460072,4,0,41.41480697511408,-91.81944078213658,8874.358829355335,-127.1825419141189,1.576167962098648,-41.37834615635158,201.771,8987.758710775177,10858.05979093449,150,False,25.493915448988144,False,84.780236997643,176.82830962718552,False,98.32870869749581,False,False
3,1970-07-23 09:46:47.733321298,2025-09-09,2025-09-26 17:59:33.332,HH,C,1676763622,JASSM,3,105,76,2,2,1,225,9,2,0,1,26,0,0,0,0,-120491.69402467164,-4813656.554762182,4173295.22164774,2.50576,2.4536,-0.614263,-55.875,46.0,51.125,0.0,0.0,0.0,0.0,0.0,0.0,2,0,41.105891810344005,-91.43388381352676,10000.000255782128,-40.09763998733522,-0.0024622329137845,0.0024302686259545,,8987.758710775177,10858.05979093449,150,3,2025-09-09,2025-09-26 17:59:33.433,HH,C,3928661494,AMBUSH51,1,1,48,2,1,1,225,2,1,0,0,9,1,225,2,1,-152274.52792017846,-4789913.203659449,4198801.621707421,1.7241,-2.58784,0.506317,-91.6743,-50.109,-57.2702,-0.211906,-10.8244,10.3339,-0.0535368,0.0694326,-0.0593958,4,0,41.413972195102765,-91.82085770574407,8877.926867139848,-133.15665551052322,2.387559731092487,-42.49258728379083,201.881,8987.758710775177,10858.05979093449,150,False,25.451196951117392,False,90.60053245630955,176.64390612049644,False,92.68420423704794,False,False
3,1970-07-23 09:46:47.744201958,2025-09-09,2025-09-26 17:59:34.420,HH,C,1678016434,JASSM,3,105,76,2,2,1,225,9,2,0,1,26,0,0,0,0,-120550.48308717164,-4813608.228102026,4173348.903776646,2.50576,2.4536,-0.614263,-55.875,46.0,51.125,0.0,0.0,0.0,0.0,0.0,0.0,2,0,41.10653302101769,-91.43459752362676,10000.000513234165,-40.09810922094157,-0.0016253635462156,0.0024286362757187,,8987.758710775177,10858.05979093449,150,3,2025-09-09,2025-09-26 17:59:34.400,HH,C,3929814726,AMBUSH51,1,1,48,2,1,1,225,2,1,0,0,9,1,225,2,1,-152360.3286463195,-4789964.594845325,4198743.530099739,1.7092,-2.51059,0.546573,-84.7754,-55.5882,-62.0547,-0.203904,-10.6772,10.1989,-0.0396072,0.0657645,-0.061079,4,0,41.41325805485546,-91.82186346274244,8884.946808573692,-137.60104482673074,2.8901270196058744,-45.77617506758582,201.881,8987.758710775177,10858.05979093449,150,False,25.401177179357312,False,95.40879179462824,176.49954596639918,False,88.01835652481223,False,False
3,1970-07-23 09:46:47.756737419,2025-09-09,2025-09-26 17:59:35.673,HH,C,1679328674,JASSM,3,105,76,2,2,1,225,9,2,0,1,26,0,0,0,0,-120612.06121217164,-4813557.607496557,4173405.13180399,2.50576,2.45351,-0.614263,-55.875,46.0,51.125,0.0,0.0,0.0,0.0,0.0,0.0,2,0,41.10720464844949,-91.43534510872028,10000.000605620877,-40.094990139253554,-0.0034138155810591,-0.0007382525395749,,8987.758710775177,10858.05979093449,150,3,2025-09-09,2025-09-26 17:59:35.600,HH,C,3931246326,AMBUSH51,1,1,48,2,1,1,225,2,1,0,0,9,1,225,2,1,-152456.3625267602,-4790034.888002519,4198665.24794499,1.71827,-2.40963,0.605026,-75.2706,-61.4624,-67.9613,-0.0588825,-10.3589,10.0086,0.0138058,0.0614202,-0.0522801,4,0,41.41229321205213,-91.82298428819688,8895.442446284998,-143.50307699460342,2.889271713490722,-48.7075671670642,201.661,8987.758710775177,10858.05979093449,150,False,25.3416710134675,False,101.50638057059378,176.32272760322172,False,82.09882927986821,False,False
3,1970-07-23 09:46:47.809261917,2025-09-09,2025-09-26 17:59:40.926,HH,C,1685830776,JASSM,3,105,76,2,2,1,225,9,2,0,1,26,0,0,0,0,-120917.18230592164,-4813306.768141088,4173683.724089146,2.50576,2.45351,-0.614168,-55.875,46.0,51.125,0.0,0.0,0.0,0.0,0.0,0.0,2,0,41.11053245446705,-91.43904963954976,10000.000221545022,-40.10068891702954,-0.0034915102569325,-0.0007463452960212,,8987.758710775177,10858.05979093449,150,3,2025-09-09,2025-09-26 17:59:40.866,HH,C,3937529452,AMBUSH51,1,1,48,2,1,1,225,2,1,0,0,9,1,225,2,1,-152726.54554187175,-4790407.166755102,4198261.737554845,2.21755,-1.85729,0.760248,-26.3847,-78.6627,-82.243,-0.196183,-10.5591,10.1266,0.0853221,0.0638025,-0.0558005,4,0,41.40730319758939,-91.82607096837016,8956.533213171117,-169.4566379240461,4.026493034747378,-42.02715203287897,199.742,8987.758710775177,10858.05979093449,150,False,24.963350334854614,False,127.82948436779408,175.59023327784917,False,56.4950861115458,False,False
3,1970-07-23 09:46:47.809721259,2025-09-09,2025-09-26 17:59:40.972,HH,C,1680642154,JASSM,3,105,76,2,2,1,225,9,2,0,1,26,0,0,0,0,-120673.69793092164,-4813506.938062963,4173461.411589146,2.50576,2.45351,-0.614168,-55.875,46.0,51.125,0.0,0.0,0.0,0.0,0.0,0.0,2,0,41.10787690209672,-91.43609342062103,10000.000203991058,-40.098745214636885,-0.0069575111700745,-0.0007396337018464,,8987.758710775177,10858.05979093449,150,3,2025-09-09,2025-09-26 17:59:41.034,HH,C,3937728286,AMBUSH51,1,1,48,2,1,1,225,2,1,0,0,9,1,225,2,1,-152731.03334660069,-4790421.07726016,4198247.175534589,2.2448,-1.83788,0.760982,-24.8815,-79.1913,-82.136,-0.14342,-10.524,10.0595,0.0714362,0.0542359,-0.0464566,4,0,41.40712128388749,-91.82611929121964,8959.498488088399,-170.25854181494554,4.132245084295652,-41.28963725786198,199.669,8987.758710775177,10858.05979093449,150,False,25.164911891916084,False,128.57245863607923,175.6056003928853,False,55.73327101276608,False,False
3,1970-07-23 09:46:47.819320165,2025-09-09,2025-09-26 17:59:41.932,HH,C,1687084514,JASSM,3,105,76,2,2,1,225,9,2,0,1,26,0,0,0,0,-120976.01433717164,-4813258.398023901,4173737.4394211774,2.50576,2.45351,-0.614168,-55.875,46.0,51.125,0.0,0.0,0.0,0.0,0.0,0.0,2,0,41.11117410846739,-91.43976397431376,9999.999686877847,-40.10115860489178,-0.0026540231947955,-0.0007479768163131,,8987.758710775177,10858.05979093449,150,3,2025-09-09,2025-09-26 17:59:42.033,HH,C,3938921284,AMBUSH51,1,1,48,2,1,1,225,2,1,0,0,9,1,225,2,1,-152751.2475533273,-4790499.813581162,4198165.58215961,2.32114,-1.74378,0.76068,-16.0218,-80.9216,-82.0879,-0.117238,-10.0212,9.62524,-0.00287434,0.0554073,-0.0429445,4,0,41.40609820687284,-91.8263308198669,8977.682288091699,-174.13311551905343,4.699641180876315,-40.93270358160047,198.887,8987.758710775177,10858.05979093449,150,False,24.86987824744042,False,132.93214760888372,175.44754630140403,False,51.51723747912385,False,False
3,1970-07-23 09:46:47.828900821,2025-09-09,2025-09-26 17:59:42.890,HH,C,1681954226,JASSM,3,105,76,2,2,1,225,9,2,0,1,26,0,0,0,0,-120735.26824342164,-4813456.321852026,4173517.630339146,2.50576,2.45351,-0.614168,-55.875,46.0,51.125,0.0,0.0,0.0,0.0,0.0,0.0,2,0,41.108548431914826,-91.43684094195228,10000.00045711342,-40.09923669719996,-0.0060810511097685,-0.0007413365451663,,8987.758710775177,10858.05979093449,150,3,2025-09-09,2025-09-26 17:59:42.774,HH,C,3939796150,AMBUSH51,1,1,48,2,1,1,225,2,1,0,0,9,1,225,2,1,-152760.6497910591,-4790559.700058131,4198104.441380946,2.37183,-1.67103,0.760949,-9.53481,-81.7497,-81.9607,-0.193701,-9.9026,9.5034,-0.0103499,0.045564,-0.055012,4,0,41.40532739534595,-91.8264203423714,8993.042536605331,-177.15405599361307,4.922513694272868,-41.15672123993625,198.777,8987.758710775177,10858.05979093449,150,False,25.045260054805,False,136.11457928560372,175.40486152046614,False,48.3690976955843,False,False
3,1970-07-23 09:46:47.828980529,2025-09-09,2025-09-26 17:59:42.898,HH,C,1683266174,JASSM,3,105,76,2,2,1,225,9,2,0,1,26,0,0,0,0,-120796.83464967164,-4813405.709059057,4173573.84274149,2.50576,2.45351,-0.614168,-55.875,46.0,51.125,0.0,0.0,0.0,0.0,0.0,0.0,2,0,41.10921989411955,-91.43758843102692,10000.000116783453,-40.099728165182896,-0.0052046621482864,-0.000743026352661,,8987.758710775177,10858.05979093449,150,3,2025-09-09,2025-09-26 17:59:42.774,HH,C,3939796150,AMBUSH51,1,1,48,2,1,1,225,2,1,0,0,9,1,225,2,1,-152760.6497910591,-4790559.700058131,4198104.441380946,2.37183,-1.67103,0.760949,-9.53481,-81.7497,-81.9607,-0.193701,-9.9026,9.5034,-0.0103499,0.045564,-0.055012,4,0,41.40532739534595,-91.8264203423714,8993.042536605331,-177.15405599361307,4.922513694272868,-41.15672123993625,198.777,8987.758710775177,10858.05979093449,150,False,24.992726959287634,False,136.11457928560372,175.39530724640727,False,48.378440310853335,False,False
3,1970-07-23 09:46:47.842382724,2025-09-09,2025-09-26 17:59:44.238,HH,C,1689827480,JASSM,3,105,76,2,2,1,225,9,2,0,1,26,0,0,0,0,-121104.73308717164,-4813152.568922338,4173854.9569993024,2.50576,2.45351,-0.614072,-55.875,46.0,51.125,0.0,0.0,0.0,0.0,0.0,0.0,2,0,41.11257792623884,-91.4413269176599,10000.000442963306,-40.10544733976788,-0.0052400660742201,-0.0007513461637452,,8987.758710775177,10858.05979093449,150,3,2025-09-09,2025-09-26 17:59:44.268,HH,C,3941585648,AMBUSH51,1,1,48,2,1,1,225,2,1,0,0,9,1,225,2,1,-152764.83753134208,-4790681.661655621,4197981.925687537,2.45579,-1.51699,0.754296,3.9054,-82.1926,-81.1767,-0.10215,-9.78444,9.51332,-0.000747974,0.0524778,-0.0579082,4,0,41.403773946779545,-91.8264239105148,9027.503148759764,176.4093790283981,5.262886343341612,-42.989509431046514,197.286,8987.758710775177,10858.05979093449,150,False,24.664014478059144,False,142.7164627370321,175.19674778756354,False,41.95610501590362,False,False
3,1970-07-23 09:46:47.865282876,2025-09-09,2025-09-26 17:59:46.528,HH,C,1692452184,JASSM,3,105,76,2,2,1,225,9,2,0,1,26,0,0,0,0,-121227.89714967164,-4813051.298414526,4173967.403288365,2.50585,2.45341,-0.614072,-55.875,46.0,51.125,0.0,0.0,0.0,0.0,0.0,0.0,2,0,41.11392119334851,-91.44282247908352,10000.000691352669,-40.10281951580472,-0.0061519765796568,0.0015857767908746,,8987.758710775177,10858.05979093449,150,3,2025-09-09,2025-09-26 17:59:46.503,HH,C,3944250012,AMBUSH51,1,1,48,2,1,1,225,2,1,0,0,9,1,225,2,1,-152733.6019682994,-4790864.1202299725,4197802.352008668,2.6171,-1.29931,0.727732,23.9512,-80.5259,-78.267,-0.0742546,-9.43348,9.15603,0.0247684,0.0441096,-0.0470474,4,0,41.40148213014874,-91.82598122012634,9084.203049121536,167.05240671332632,5.428702056080353,-43.058830169160615,195.05,8987.758710775177,10858.05979093449,150,False,24.44758918405739,False,152.734502016272,174.9853325185463,False,32.10894912215847,False,False
3,1970-07-23 09:46:47.875321924,2025-09-09,2025-09-26 17:59:47.532,HH,C,1693704884,JASSM,3,105,76,2,2,1,225,9,2,0,1,26,0,0,0,0,-121286.68230592164,-4813002.962965307,4174021.069792271,2.50585,2.45341,-0.614072,-55.875,46.0,51.125,0.0,0.0,0.0,0.0,0.0,0.0,2,0,41.11456229436909,-91.44353631925644,10000.001166455526,-40.10328891019721,-0.0053151704712693,0.0015841640766827,,8987.758710775177,10858.05979093449,150,3,2025-09-09,2025-09-26 17:59:47.534,HH,C,3945482776,AMBUSH51,1,1,48,2,1,1,225,2,1,0,0,9,1,225,2,1,-152704.7742329061,-4790946.891228179,4197722.588854358,2.71778,-1.20378,0.708441,32.2028,-79.6002,-75.8833,-0.0738103,-9.48205,9.11322,0.0271736,0.0408077,-0.0484539,4,0,41.400456717859946,-91.825605288821,9112.473119460148,162.7670362975447,5.428909118407341,-41.299038058635816,193.987,8987.758710775177,10858.05979093449,150,False,24.342027820222818,False,156.90752393930447,174.90206392241225,False,27.969297204196952,True,False
3,1970-07-23 09:46:47.886301409,2025-09-09,2025-09-26 17:59:48.630,HH,C,1695018004,JASSM,3,105,76,2,2,1,225,9,2,0,1,26,0,0,0,0,-121348.30339967164,-4812952.294996557,4174077.32321024,2.50585,2.45341,-0.614072,-55.875,46.0,51.125,0.0,0.0,0.0,0.0,0.0,0.0,2,0,41.115234308816106,-91.44428461191956,10000.00021929616,-40.10378096573471,-0.0044380024725203,0.0015824801560332,,8987.758710775177,10858.05979093449,150,3,2025-09-09,2025-09-26 17:59:48.599,HH,C,3946755308,AMBUSH51,1,1,48,2,1,1,225,2,1,0,0,9,1,225,2,1,-152665.63901644916,-4791030.170771401,4197642.709315464,2.81164,-1.11413,0.679415,40.0541,-78.531,-72.8001,-0.052055,-9.41003,9.10441,0.0472846,0.0488846,-0.0384962,4,0,41.39942944991432,-91.82510603493982,9140.940848055609,158.47318182031933,5.725625030840042,-39.62556485010367,193.033,8987.758710775177,10858.05979093449,150,False,24.2300640781506,False,160.8873843822491,174.82649078639815,False,23.968900903052152,True,False
3,1970-07-23 09:46:47.886920746,2025-09-09,2025-09-26 17:59:48.692,HH,C,1684519324,JASSM,3,105,76,2,2,1,225,9,2,0,1,26,0,0,0,0,-120855.63933717164,-4813357.363844213,4173627.534636021,2.50576,2.45351,-0.614168,-55.875,46.0,51.125,0.0,0.0,0.0,0.0,0.0,0.0,2,0,41.10986125513683,-91.4383024046194,9999.99972214772,-40.10019760319502,-0.0043675675194148,-0.0007446550346983,,8987.758710775177,10858.05979093449,150,3,2025-09-09,2025-09-26 17:59:48.599,HH,C,3946755308,AMBUSH51,1,1,48,2,1,1,225,2,1,0,0,9,1,225,2,1,-152665.63901644916,-4791030.170771401,4197642.709315464,2.81164,-1.11413,0.679415,40.0541,-78.531,-72.8001,-0.052055,-9.41003,9.10441,0.0472846,0.0488846,-0.0384962,4,0,41.39942944991432,-91.82510603493982,9140.940848055609,158.47318182031933,5.725625030840042,-39.62556485010367,193.033,8987.758710775177,10858.05979093449,150,False,24.650102552643837,False,160.8873843822491,174.91385603358,False,23.885768434469103,True,False
3,1970-07-23 09:46:47.899318690,2025-09-09,2025-09-26 17:59:49.931,HH,C,1691139834,JASSM,3,105,76,2,2,1,225,9,2,0,1,26,0,0,0,0,-121166.31511842164,-4813101.934156713,4173911.180632115,2.50576,2.45341,-0.614072,-55.875,46.0,51.125,0.0,0.0,0.0,0.0,0.0,0.0,2,0,41.11324956268182,-91.44207469060429,10000.00037853766,-40.10232780476651,-0.0070286136316651,-0.0039176517667312,,8987.758710775177,10858.05979093449,150,3,2025-09-09,2025-09-26 17:59:49.866,HH,C,3948266440,AMBUSH51,1,1,48,2,1,1,225,2,1,0,0,9,1,225,2,1,-152608.20236160816,-4791126.79237025,4197551.816869244,2.93584,-1.02038,0.644875,49.6091,-75.4553,-69.5551,-0.0900382,-9.23306,8.89751,0.0526151,0.040117,-0.0437414,4,0,41.39825193287626,-91.82438308044928,9176.90763882901,153.77903105468806,5.923746687337793,-36.29068465370411,191.481,8987.758710775177,10858.05979093449,150,False,24.312277635070046,False,165.96893085988285,174.79641704322745,False,18.79395845056008,True,False
3,1970-07-23 09:46:47.901341838,2025-09-09,2025-09-26 17:59:50.134,HH,C,1688455478,JASSM,3,105,76,2,2,1,225,9,2,0,1,26,0,0,0,0,-121040.35027467164,-4813205.504469213,4173796.176237584,2.50576,2.45351,-0.614168,-55.875,46.0,51.125,0.0,0.0,0.0,0.0,0.0,0.0,2,0,41.1118757503244,-91.44054515256173,10000.000416853884,-40.10167225046589,-0.0017382143705638,-0.000749738322553,,8987.758710775177,10858.05979093449,150,3,2025-09-09,2025-09-26 17:59:50.168,HH,C,3948624340,AMBUSH51,1,1,48,2,1,1,225,2,1,0,0,9,1,225,2,1,-152593.3374644071,-4791148.775403776,4197531.508698223,2.9604,-1.0016,0.63548,51.6322,-74.7804,-68.6655,0.0309267,-9.25684,8.99583,0.0515977,0.0383485,-0.0408202,4,0,41.39798687568882,-91.82419713107636,9185.757135069283,152.7644641145219,6.04944229346789,-35.63195044501175,190.822,8987.758710775177,10858.05979093449,150,False,24.40250075836655,False,167.03632289397993,174.80674851763135,False,17.66548396725144,True,False
3,1970-07-23 09:46:47.904921653,2025-09-09,2025-09-26 17:59:50.492,HH,C,1696329586,JASSM,3,105,76,2,2,1,225,9,2,0,1,26,0,0,0,0,-121409.85027467164,-4812901.685133276,4174133.510221959,2.50585,2.45341,-0.614072,-55.875,46.0,51.125,0.0,0.0,0.0,0.0,0.0,0.0,2,0,41.11590553535199,-91.44503201942256,9999.999857103943,-40.10427244584173,-0.0035618704383033,0.0015807817795254,,8987.758710775177,10858.05979093449,150,3,2025-09-09,2025-09-26 17:59:50.566,HH,C,3949101540,AMBUSH51,1,1,48,2,1,1,225,2,1,0,0,9,1,225,2,1,-152571.9047414813,-4791178.987251593,4197503.923672088,3.00584,-0.977929,0.62273,54.0001,-74.2693,-67.198,-0.141149,-9.0014,8.8042,0.0859608,0.0360265,-0.0304152,4,0,41.39762498500373,-91.82392959034888,9198.546688432263,151.45194902771024,6.2320229260257465,-33.96702038471351,190.284,8987.758710775177,10858.05979093449,150,False,24.063660980749617,False,168.1862797579441,174.72330295499725,False,16.474106366723827,True,False
3,1970-07-23 09:46:47.908377725,2025-09-09,2025-09-26 17:59:50.837,HH,C,1697583070,JASSM,3,105,76,2,2,1,225,9,2,0,1,26,0,0,0,0,-121468.67058717164,-4812853.316480932,4174187.207487584,2.50585,2.45341,-0.614072,-55.875,46.0,51.125,0.0,0.0,0.0,0.0,0.0,0.0,2,0,41.116547022236695,-91.44574633081768,10000.000661271068,-40.10474216880444,-0.0027245510179923,0.0015791583749831,,8987.758710775177,10858.05979093449,150,3,2025-09-09,2025-09-26 17:59:50.833,HH,C,3949419672,AMBUSH51,1,1,48,2,1,1,225,2,1,0,0,9,1,225,2,1,-152557.83457297075,-4791197.938281106,4197486.751563953,3.0371,-0.96261,0.613613,55.3773,-74.018,-66.2428,-0.18822,-9.15814,8.90361,0.0850162,0.0433835,-0.0496669,4,0,41.39739898549412,-91.82375429250212,9206.805358000023,150.5736118761376,6.3807252419042015,-32.7808183201876,190.162,8987.758710775177,10858.05979093449,150,False,23.998361098978172,False,168.81161225010356,174.7028846269116,False,15.770517842428491,True,False
3,1970-07-23 09:46:47.919619024,2025-09-09,2025-09-26 17:59:51.961,HH,C,1698895380,JASSM,3,105,76,2,2,1,225,9,2,0,1,26,0,0,0,0,-121530.25261842164,-4812802.676344213,4174243.4237961774,2.50585,2.45341,-0.614072,-55.875,46.0,51.125,0.0,0.0,0.0,0.0,0.0,0.0,2,0,41.11721861164448,-91.44649419545894,10000.00046424806,-40.10523396247799,-0.0018479268638738,0.0015774663405483,,8987.758710775177,10858.05979093449,150,3,2025-09-09,2025-09-26 17:59:51.799,HH,C,3950572904,AMBUSH51,1,1,48,2,1,1,225,2,1,0,0,9,1,225,2,1,-152501.4356641866,-4791268.498435389,4197423.653702198,3.13308,-0.911606,0.586707,60.3628,-72.4482,-63.0756,-0.164788,-8.48986,8.2926,0.0522947,0.0328994,-0.0316302,4,0,41.39656394617916,-91.82305369613148,9239.06440640471,147.703616745571,6.621274343524213,-29.25745124772812,188.512,8987.758710775177,10858.05979093449,150,False,23.88815126594929,False,171.03815775299563,174.66010415591543,False,13.127084868812705,True,False
3,1970-07-23 09:46:47.933117752,2025-09-09,2025-09-26 17:59:53.311,HH,C,1700148222,JASSM,3,105,76,2,2,1,225,9,2,0,1,26,0,0,0,0,-121589.04558717164,-4812754.330152807,4174297.091276646,2.50585,2.45341,-0.613976,-55.875,46.0,51.125,0.0,0.0,0.0,0.0,0.0,0.0,2,0,41.11785975855589,-91.44720820325304,9999.999942560737,-40.108966331594814,-0.0054323002461775,0.0015760481873688,,8987.758710775177,10858.05979093449,150,3,2025-09-09,2025-09-26 17:59:53.233,HH,C,3952282870,AMBUSH51,1,1,48,2,1,1,225,2,1,0,0,9,1,225,2,1,-152409.8703351769,-4791369.899363206,4197334.589605633,3.09258,-0.855634,0.572759,66.3792,-69.064,-59.9775,0.150757,-6.66651,6.54038,-0.104792,0.00938868,-0.0358809,4,0,41.395376799712544,-91.82192129862636,9288.110505166707,144.96260534725425,5.982615715484585,-33.6363269905836,186.129,8987.758710775177,10858.05979093449,150,False,23.75160465255765,False,173.5991212609858,174.61450193294544,False,9.680951019121938,True,False
3,1970-07-23 09:46:47.951319086,2025-09-09,2025-09-26 17:59:55.131,HH,C,1702772856,JASSM,3,105,76,2,2,1,225,9,2,0,1,26,0,0,0,0,-121712.20964967164,-4812653.044508276,4174409.5194993024,2.50585,2.45331,-0.613976,-55.875,46.0,51.125,0.0,0.0,0.0,0.0,0.0,0.0,2,0,41.11920291513426,-91.4487040089973,10000.000837125432,-40.10633838020301,-0.0063442152321769,-0.0015915080707286,,8987.758710775177,10858.05979093449,150,3,2025-09-09,2025-09-26 17:59:55.171,HH,C,3954589334,AMBUSH51,1,1,48,2,1,1,225,2,1,0,0,9,1,225,2,1,-152273.68399540012,-4791494.360152439,4197220.53446102,2.92327,-0.733891,0.555628,75.186,-60.5755,-58.3213,0.296346,-6.37774,6.27425,-0.0557631,0.0227336,-0.0532872,4,0,41.39389219126266,-91.8202471596068,9336.19237902888,139.46532390906376,3.6021934882564803,-47.53032687550108,184.565,8987.758710775177,10858.05979093449,150,False,23.530244920033077,False,175.8650980370287,174.56614126869937,False,3.576983261470746,True,False
3,1970-07-23 09:46:47.953100949,2025-09-09,2025-09-26 17:59:55.310,HH,C,1701460134,JASSM,3,105,76,2,2,1,225,9,2,0,1,26,0,0,0,0,-121650.60808717164,-4812703.703687963,4174353.288542271,2.50585,2.45331,-0.613976,-55.875,46.0,51.125,0.0,0.0,0.0,0.0,0.0,0.0,2,0,41.118531131231535,-91.44795586120946,10000.000792679832,-40.10584638094612,-0.00722111455549,-0.0015898239679191,,8987.758710775177,10858.05979093449,150,3,2025-09-09,2025-09-26 17:59:55.171,HH,C,3954589334,AMBUSH51,1,1,48,2,1,1,225,2,1,0,0,9,1,225,2,1,-152273.68399540012,-4791494.360152439,4197220.53446102,2.92327,-0.733891,0.555628,75.186,-60.5755,-58.3213,0.296346,-6.37774,6.27425,-0.0557631,0.0227336,-0.0532872,4,0,41.39389219126266,-91.8202471596068,9336.19237902888,139.46532390906376,3.6021934882564803,-47.53032687550108,184.565,8987.758710775177,10858.05979093449,150,False,23.582736347788764,False,175.8650980370287,174.57813599146343,False,3.5691804526012914,True,False
3,1970-07-23 09:46:47.963980027,2025-09-09,2025-09-26 17:59:56.398,HH,C,1704084512,JASSM,3,105,76,2,2,1,225,9,2,0,1,26,0,0,0,0,-121773.76043092164,-4812602.425367651,4174465.7035813336,2.50585,2.45331,-0.613976,-55.875,46.0,51.125,0.0,0.0,0.0,0.0,0.0,0.0,2,0,41.11987414697636,-91.44945155580538,10000.000397112168,-40.10682999086734,-0.0054680335415235,-0.0015931947452266,,8987.758710775177,10858.05979093449,150,3,2025-09-09,2025-09-26 17:59:56.400,HH,C,3956060700,AMBUSH51,1,1,48,2,1,1,225,2,1,0,0,9,1,225,2,1,-152177.82407898226,-4791565.6133722775,4197149.018624776,-2.99497,-0.633632,0.572883,79.9917,-55.1378,-58.2542,-0.0778488,-4.46373,4.57615,0.329045,-0.024188,-0.0740182,4,0,41.39300363794255,-91.81907500786404,9348.83878487482,136.15816315759943,-0.0847604792537936,-29.795868075677152,184.76,8987.758710775177,10858.05979093449,150,False,23.402641828463523,False,174.07253146960826,174.55162376083868,False,0.5891508706420504,True,False
3,1970-07-23 09:46:47.973219862,2025-09-09,2025-09-26 17:59:57.321,HH,C,1705337962,JASSM,3,105,76,2,2,1,225,9,2,0,1,26,0,0,0,0,-121832.57683717164,-4812554.051344213,4174519.39352274,2.50585,2.45331,-0.613976,-55.875,46.0,51.125,0.0,0.0,0.0,0.0,0.0,0.0,2,0,41.12051558871885,-91.45016590839396,9999.999523746674,-40.10729977813923,-0.004630749690271,-0.0015948275952865,,8987.758710775177,10858.05979093449,150,3,2025-09-09,2025-09-26 17:59:57.232,HH,C,3957054864,AMBUSH51,1,1,48,2,1,1,225,2,1,0,0,9,1,225,2,1,-152110.20084249187,-4791609.601877203,4197099.532985462,-2.71991,-0.598358,0.567987,82.0231,-52.1344,-59.2532,-0.175454,-5.33598,5.28322,0.305258,-0.00343402,0.00233547,4,0,41.39242065352448,-91.81825052744068,9344.418244395656,134.6562700013141,-0.9295524926844844,-15.114355628725765,185.005,8987.758710775177,10858.05979093449,150,False,23.301426283927448,False,172.97338882440036,174.54218017187839,False,1.9112300691998187,True,False
3,1970-07-23 09:46:47.984219397,2025-09-09,2025-09-26 17:59:58.421,HH,C,1706650098,JASSM,3,105,76,2,2,1,225,9,2,0,1,26,0,0,0,0,-121894.15105592164,-4812503.411695776,4174575.59664774,2.50585,2.45331,-0.613976,-55.875,46.0,51.125,0.0,0.0,0.0,0.0,0.0,0.0,2,0,41.12118705786598,-91.4509137700292,10000.000536239177,-40.107791608803495,-0.0037542409964662,-0.0015965090724534,,8987.758710775177,10858.05979093449,150,3,2025-09-09,2025-09-26 17:59:58.566,HH,C,3958645530,AMBUSH51,1,1,48,2,1,1,225,2,1,0,0,9,1,225,2,1,-151999.91084455262,-4791677.547886907,4197018.597621833,-2.33871,-0.589968,0.579286,82.994,-50.309,-61.0236,-0.541728,-5.76738,5.69368,0.179848,-0.0100045,0.011178,4,0,41.39149087476432,-91.81690731218042,9327.385518997156,134.75619023746034,-1.6847342597656814,6.463990770298396,186.923,8987.758710775177,10858.05979093449,150,True,23.166554732848446,False,172.4891188318406,174.53521918644958,False,3.0022998785498975,True,False
3,1970-07-23 09:46:47.995220155,2025-09-09,2025-09-26 17:59:59.522,HH,C,1708021628,JASSM,3,105,76,2,2,1,225,9,2,0,1,26,0,0,0,0,-121958.51043092164,-4812450.478590307,4174634.34274149,2.50585,2.45331,-0.613976,-55.875,46.0,51.125,0.0,0.0,0.0,0.0,0.0,0.0,2,0,41.12188891628149,-91.4516954764891,10000.001306282247,-40.10830570457637,-0.002838068240566,-0.0015982804447991,,8987.758710775177,10858.05979093449,150,3,2025-09-09,2025-09-26 17:59:59.699,HH,C,3959997596,AMBUSH51,1,1,48,2,1,1,225,2,1,0,0,9,1,225,2,1,-151906.29829651694,-4791733.65333641,4196948.093276639,-2.32389,-0.605436,0.596923,82.696,-50.6445,-62.8143,-0.192283,-6.84757,6.62141,-0.029637,-0.00909948,0.0400837,4,0,41.39069878864579,-91.81576783197204,9305.163805489015,135.9682783968257,-1.9982690207493183,7.765987813539733,188.94,8987.758710775177,10858.05979093449,150,True,23.04166988637384,False,173.00394917768176,174.52616329571035,False,3.0565789254192994,True,False
3,1970-07-23 09:46:48.007814516,2025-09-09,2025-09-26 18:00:00.781,HH,C,1709333792,JASSM,3,105,76,2,2,1,225,9,2,0,1,26,0,0,0,0,-122020.08464967164,-4812399.835035619,4174690.544401646,2.50585,2.45331,-0.613976,-55.875,46.0,51.125,0.0,0.0,0.0,0.0,0.0,0.0,2,0,41.12256038852104,-91.45244337048187,9999.999519866162,-40.10879757007705,-0.0019615491027039,-0.001599969676796,,8987.758710775177,10858.05979093449,150,3,2025-09-09,2025-09-26 18:00:00.699,HH,C,3961190594,AMBUSH51,1,1,48,2,1,1,225,2,1,0,0,9,1,225,2,1,-151823.5300209667,-4791784.198482356,4196884.233850193,-2.37474,-0.616769,0.609178,82.4067,-51.3628,-64.0969,-0.0154427,-7.13645,6.84105,-0.0397841,-0.000435885,-0.000953953,4,0,41.38998258360592,-91.81476001714358,9284.531208003573,136.82669492296796,-2.2075422102787727,5.189365789782849,190.785,8987.758710775177,10858.05979093449,150,True,22.926596846266577,False,173.52704199355733,174.5154117306464,False,3.018956766568469,True,False
3,1970-07-23 09:46:48.016298005,2025-09-09,2025-09-26 18:00:01.629,HH,C,1710586564,JASSM,3,105,76,2,2,1,225,9,2,0,1,26,0,0,0,0,-122078.87371217164,-4812351.482984838,4174744.20211649,2.50585,2.45331,-0.61388,-55.875,46.0,51.125,0.0,0.0,0.0,0.0,0.0,0.0,2,0,41.12320146700748,-91.45315744934992,10000.000391615284,-40.11252776317601,-0.0055434016138305,-0.0016013820667372,,8987.758710775177,10858.05979093449,150,3,2025-09-09,2025-09-26 18:00:01.766,HH,C,3962463126,AMBUSH51,1,1,48,2,1,1,225,2,1,0,0,9,1,225,2,1,-151734.80908838316,-4791839.40184937,4196814.569863569,-2.43086,-0.613842,0.612406,82.5339,-52.0644,-65.1566,-0.0603708,-6.99873,6.8068,-0.0385753,-0.0073601,0.00826308,4,0,41.38920059098366,-91.81367935613564,9262.31057500993,136.8362423108648,-2.436661472274863,1.877244988486372,191.982,8987.758710775177,10858.05979093449,150,True,22.80878472399458,False,173.86365299825383,174.50371488150918,False,3.0477771031434213,True,False
3,1970-07-23 09:46:48.028338895,2025-09-09,2025-09-26 18:00:02.833,HH,C,1711899452,JASSM,3,105,76,2,2,1,225,9,2,0,1,26,0,0,0,0,-122140.48308717164,-4812300.809644994,4174800.433073521,2.50595,2.45331,-0.61388,-55.875,46.0,51.125,0.0,0.0,0.0,0.0,0.0,0.0,2,0,41.12387329919661,-91.45390580044496,10000.00000780832,-40.11301994213048,-0.0046663927311379,0.0038883590073091,,8987.758710775177,10858.05979093449,150,3,2025-09-09,2025-09-26 18:00:03.032,HH,C,3963974258,AMBUSH51,1,1,48,2,1,1,225,2,1,0,0,9,1,225,2,1,-151630.43435582335,-4791905.469668223,4196731.966560594,-2.48412,-0.627844,0.607806,83.0355,-53.3764,-65.3447,-0.0530659,-8.0479,7.65631,-0.022692,0.0178629,0.00111832,4,0,41.38826954701195,-91.81240762999404,9237.540696508531,137.18648994796516,-1.819035196007614,-0.7275848874564351,194.598,8987.758710775177,10858.05979093449,150,True,22.676144272732092,False,174.18224816289452,174.4902217473393,False,2.62092432601071,True,False
3,1970-07-23 09:46:48.039196851,2025-09-09,2025-09-26 18:00:03.919,HH,C,1713211380,JASSM,3,105,76,2,2,1,225,9,2,0,1,26,0,0,0,0,-122202.04558717164,-4812250.172437963,4174856.622038365,2.50595,2.45322,-0.61388,-55.875,46.0,51.125,0.0,0.0,0.0,0.0,0.0,0.0,2,0,41.12454463498364,-91.4546535981415,10000.000243327828,-40.10989975068456,-0.0064551804421904,0.0007229681123996,,8987.758710775177,10858.05979093449,150,3,2025-09-09,2025-09-26 18:00:04.099,HH,C,3965246790,AMBUSH51,1,1,48,2,1,1,225,2,1,0,0,9,1,225,2,1,-151541.9360812038,-4791963.154827543,4196662.248804776,-2.51057,-0.632755,0.600911,83.4996,-54.8364,-64.8187,-0.0505071,-7.79949,7.41626,-0.0124929,0.0139119,0.00270581,4,0,41.38747236334222,-91.8113287427323,9221.34421715002,137.1239395632622,-1.3643931417154522,-2.0811726426685806,195.734,8987.758710775177,10858.05979093449,150,True,22.55539163023262,False,174.4158280720646,174.47611721023452,False,1.9266570677667796,True,False
3,1970-07-23 09:46:48.049261967,2025-09-09,2025-09-26 18:00:04.926,HH,C,1714464100,JASSM,3,105,76,2,2,1,225,9,2,0,1,26,0,0,0,0,-122260.82683717164,-4812201.819898901,4174910.2738938336,2.50595,2.45322,-0.61388,-55.875,46.0,51.125,0.0,0.0,0.0,0.0,0.0,0.0,2,0,41.12518566388774,-91.45536762721662,10000.000587898858,-40.11036936901693,-0.0056183940964467,0.0007213407104056,,8987.758710775177,10858.05979093449,150,3,2025-09-09,2025-09-26 18:00:04.832,HH,C,3966121656,AMBUSH51,1,1,48,2,1,1,225,2,1,0,0,9,1,225,2,1,-151480.68957324498,-4792003.449090699,4196614.583072396,-2.52179,-0.639165,0.598283,83.875,-55.4125,-64.5788,-0.016189,-7.71197,7.18673,-0.00672968,0.00655907,0.00232298,4,0,41.386922378950985,-91.81058195707298,9212.321820269352,137.26996874817925,-1.0579430409428072,-2.51962697287122,196.418,8987.758710775177,10858.05979093449,150,True,22.45811066238167,False,174.4147281450957,174.46318177581887,False,1.6452759889158957,True,False
3,1970-07-23 09:46:48.059277974,2025-09-09,2025-09-26 18:00:05.927,HH,C,1715720128,JASSM,3,105,76,2,2,1,225,9,2,0,1,26,0,0,0,0,-122319.76824342164,-4812153.337477026,4174964.067839146,2.50595,2.45322,-0.61388,-55.875,46.0,51.125,0.0,0.0,0.0,0.0,0.0,0.0,2,0,41.12582839609738,-91.45608361513727,10000.001179627874,-40.11084028175411,-0.0047793578222575,0.0007197335329708,,8987.758710775177,10858.05979093449,150,3,2025-09-09,2025-09-26 18:00:05.766,HH,C,3967235120,AMBUSH51,1,1,48,2,1,1,225,2,1,0,0,9,1,225,2,1,-151401.82371766935,-4792055.686290639,4196553.993681961,-2.51636,-0.641613,0.589168,84.2549,-56.0662,-64.1311,-0.112577,-7.69557,7.14008,0.0188346,0.00776582,-0.00766179,4,0,41.38621740563304,-91.80962022178646,9203.284419906806,137.040714719686,-0.5737573484675647,-2.127034470836211,196.492,8987.758710775177,10858.05979093449,150,True,22.34724907270462,False,174.37321694320212,174.45035282661044,False,1.275829086105711,True,False
3,1970-07-23 09:46:48.071297322,2025-09-09,2025-09-26 18:00:07.129,HH,C,1717088594,JASSM,3,105,76,2,2,1,225,9,2,0,1,26,0,0,0,0,-122383.98699342164,-4812100.514234838,4175022.675261021,2.50595,2.45322,-0.61388,-55.875,46.0,51.125,0.0,0.0,0.0,0.0,0.0,0.0,2,0,41.12652864977228,-91.456863725222,10000.000667467664,-40.11135337522335,-0.0038652140200704,0.0007179958021168,,8987.758710775177,10858.05979093449,150,3,2025-09-09,2025-09-26 18:00:07.266,HH,C,3969024618,AMBUSH51,1,1,48,2,1,1,225,2,1,0,0,9,1,225,2,1,-151275.59217800794,-4792140.246120909,4196457.643520997,-2.50561,-0.648705,0.588567,84.5763,-56.8274,-63.8119,-0.0506731,-7.50161,6.84455,0.000862407,-0.00134094,0.00309072,4,0,41.38508761216124,-91.80808056571392,9192.532308930096,137.28748614757427,-0.3376580173719168,-1.2873572691956183,196.907,8987.758710775177,10858.05979093449,150,True,22.195399151605454,False,174.38163416687863,174.43596921447843,False,0.9109383254478379,True,False
3,1970-07-23 09:46:48.083539857,2025-09-09,2025-09-26 18:00:08.353,HH,C,1718401836,JASSM,3,105,76,2,2,1,225,9,2,0,1,26,0,0,0,0,-122445.61199342164,-4812049.821363744,4175078.916471959,2.50595,2.45322,-0.61388,-55.875,46.0,51.125,0.0,0.0,0.0,0.0,0.0,0.0,2,0,41.12720064023711,-91.45761234375156,9999.999414313212,-40.11184576286651,-0.0029879726818228,0.0007163129889279,,8987.758710775177,10858.05979093449,150,3,2025-09-09,2025-09-26 18:00:08.299,HH,C,3970257384,AMBUSH51,1,1,48,2,1,1,225,2,1,0,0,9,1,225,2,1,-151189.0200041969,-4792198.736215912,4196391.594982184,-2.50978,-0.651977,0.585284,84.663,-57.3014,-63.7312,-0.0676629,-7.38736,6.84189,-0.00973198,0.0042725,-0.0049799,4,0,41.38431001200248,-91.80702448059328,9186.457165797923,137.29678353763586,-0.0922883865868523,-1.422094334435261,197.653,8987.758710775177,10858.05979093449,150,True,22.076160010254,False,174.44215895327173,174.42200049613638,False,0.7174203013037094,True,False
3,1970-07-23 09:46:48.093217496,2025-09-09,2025-09-26 18:00:09.321,HH,C,1719714088,JASSM,3,105,76,2,2,1,225,9,2,0,1,26,0,0,0,0,-122507.19011842164,-4811999.166090307,4175135.114714146,2.50595,2.45322,-0.61388,-55.875,46.0,51.125,0.0,0.0,0.0,0.0,0.0,0.0,2,0,41.12787211902648,-91.45836040839416,10000.000276523,-40.11233779283437,-0.0021113952039967,0.000714628810466,,8987.758710775177,10858.05979093449,150,3,2025-09-09,2025-09-26 18:00:09.333,HH,C,3971490150,AMBUSH51,1,1,48,2,1,1,225,2,1,0,0,9,1,225,2,1,-151101.21885266353,-4792258.269096031,4196324.653030627,-2.50652,-0.645141,0.593536,84.6918,-57.1807,-64.0208,-0.000222698,-6.73311,5.64644,0.00858974,-0.00638431,0.00315522,4,0,41.38352039762904,-91.80595334836283,9180.92243417517,137.32930519671834,-0.664335375962221,-1.4531186644819258,197.469,8987.758710775177,10858.05979093449,150,True,21.955972518324785,False,174.47536408489955,174.4078010401823,False,0.8565093888045799,True,False
3,1970-07-23 09:46:48.104237401,2025-09-09,2025-09-26 18:00:10.423,HH,C,1721025736,JASSM,3,105,76,2,2,1,225,9,2,0,1,26,0,0,0,0,-122568.74089967164,-4811948.532789526,4175191.286100865,2.50595,2.45322,-0.613784,-55.875,46.0,51.125,0.0,0.0,0.0,0.0,0.0,0.0,2,0,41.1285432849101,-91.459108156259,10000.00064336572,-40.116091964134064,-0.0056568547978165,0.0007131480281133,,8987.758710775177,10858.05979093449,150,3,2025-09-09,2025-09-26 18:00:10.399,HH,C,3972762682,AMBUSH51,1,1,48,2,1,1,225,2,1,0,0,9,1,225,2,1,-151011.48864495498,-4792318.174986249,4196255.968103315,-2.50126,-0.638673,0.60326,84.797,-56.3806,-64.7856,0.127373,-6.38808,5.50957,0.0042829,-0.0166292,0.00448056,4,0,41.38271714594728,-91.80485906064835,9172.38362759267,137.43115836835406,-1.2908343418545112,-1.362588971518323,197.665,8987.758710775177,10858.05979093449,150,True,21.834490430047694,False,174.4122467517165,174.39368870149,False,1.3871340185719316,True,False
3,1970-07-23 09:46:48.115261742,2025-09-09,2025-09-26 18:00:11.526,HH,C,1722338230,JASSM,3,105,76,2,2,1,225,9,2,0,1,26,0,0,0,0,-122630.32683717164,-4811897.865797338,4175247.4926438336,2.50595,2.45322,-0.613784,-55.875,46.0,51.125,0.0,0.0,0.0,0.0,0.0,0.0,2,0,41.12921487827435,-91.4598563479176,10000.000751014755,-40.11658409076681,-0.0047801356114088,0.0007113894066389,,8987.758710775177,10858.05979093449,150,3,2025-09-09,2025-09-26 18:00:11.603,HH,C,3974194280,AMBUSH51,1,1,48,2,1,1,225,2,1,0,0,9,1,225,2,1,-150908.8469342247,-4792385.394598319,4196176.659349769,-2.49666,-0.63125,0.611479,84.975,-55.3035,-65.8329,-0.0541243,-6.53254,5.76295,-0.0168164,0.000893615,-0.000404676,4,0,41.381801065752654,-91.80360783637468,9157.806165524047,137.4484969132073,-1.8755928553445036,-1.3422264912741864,197.738,8987.758710775177,10858.05979093449,150,True,21.70317422004843,False,174.2437405935684,174.37932897626652,False,2.1062599906881845,True,False
