Subject_cm,Timestamp,SampleDate_cm,SampleTime_cm,Configuration_cm,Scenario_cm,DisTime_cm,MarkingTxt_cm,Application_cm,EntId_cm,Site_cm,ExerciseId_cm,ForceId_cm,Category_cm,Country_cm,Domain_cm,Kind_cm,Extra_cm,Specific_cm,Subcategory_cm,AltCategory_cm,AltCountry_cm,AltDomain_cm,AltKind_cm,ECEF_X_cm,ECEF_Y_cm,ECEF_Z_cm,OriPhi_cm,OriPsi_cm,OriTheta_cm,LinVelX_cm,LinVelY_cm,LinVelZ_cm,LinAccX_cm,LinAccY_cm,LinAccZ_cm,AngVelX_cm,AngVelY_cm,AngVelZ_cm,DrAlg_cm,Appearance_cm,Latitude_cm,Longitude_cm,Altitude_cm,Heading_cm,Pitch_cm,Roll_cm,CalibratedAirspeed_cm,CM_Altitude_Lead_cm,CM_Altitude_Wing_cm,CM_Airspeed_cm,Subject_ac,SampleDate_ac,SampleTime_ac,Configuration_ac,Scenario_ac,DisTime_ac,MarkingTxt_ac,Application_ac,EntId_ac,Site_ac,ExerciseId_ac,ForceId_ac,Category_ac,Country_ac,Domain_ac,Kind_ac,Extra_ac,Specific_ac,Subcategory_ac,AltCategory_ac,AltCountry_ac,AltDomain_ac,AltKind_ac,ECEF_X_ac,ECEF_Y_ac,ECEF_Z_ac,OriPhi_ac,OriPsi_ac,OriTheta_ac,LinVelX_ac,LinVelY_ac,LinVelZ_ac,LinAccX_ac,LinAccY_ac,LinAccZ_ac,AngVelX_ac,AngVelY_ac,AngVelZ_ac,DrAlg_ac,Appearance_ac,Latitude_ac,Longitude_ac,Altitude_ac,Heading_ac,Pitch_ac,Roll_ac,CalibratedAirspeed_ac,CM_Altitude_Lead_ac,CM_Altitude_Wing_ac,CM_Airspeed_ac,Bank_Angle_Condition,distance_nm,Distance_Condition,angle_between_vel,angle_between_pos,Cone_Condition,angle_between_pos_nose,Nose_Cone_Condition,Intercept_Criteria
3,1970-07-23 09:46:54.448340599,2025-09-09,2025-09-26 18:10:44.834,HH,D,2477834714,JASSM,3,116,76,2,2,1,225,9,2,0,1,26,0,0,0,0,-121280.59636842164,-4791462.800855932,4198565.327604771,2.29618,-3.09845,0.0772743,-81.5,-3.375,-6.25,0.0,0.0,0.0,0.0,0.0,0.0,2,0,41.40842189646438,-91.44995028656426,9999.997983376365,-95.91211437415876,0.0048649670120487,0.0009493095968382,,8985.541639556859,11104.004603147412,150,3,2025-09-09,2025-09-26 18:10:45.022,HH,D,4056153210,HAWK11,1,1,73,2,1,1,225,2,1,0,0,12,1,225,2,1,-141762.05310233062,-4794964.871064986,4194467.916471958,2.41976,2.63643,-0.583776,-77.25,50.25,60.0,-0.203125,-7.15625,7.09375,-0.00585938,0.00195312,0.0136719,4,0,41.35658481160248,-91.69344349224647,11113.635448668698,-48.07479795332463,4.440274985292242,0.6562281929393452,175.253,8985.541639556859,11104.004603147412,150,True,11.39026084303498,False,50.26048645268892,170.07085001710468,False,119.88324578364224,False,False
3,1970-07-23 09:46:54.458377800,2025-09-09,2025-09-26 18:10:45.837,HH,D,2479088108,JASSM,3,116,76,2,2,1,225,9,2,0,1,26,0,0,0,0,-121366.40105592164,-4791466.497144994,4198558.675261021,2.29618,-3.09845,0.0772743,-81.5,-3.375,-6.25,0.0,0.0,0.0,0.0,0.0,0.0,2,0,41.40834206975621,-91.45097455321172,9999.99918468169,-95.91279184621312,0.0056373179543221,0.0009495788469974,,8985.541639556859,11104.004603147412,150,3,2025-09-09,2025-09-26 18:10:45.707,HH,D,4057028076,HAWK11,1,1,73,2,1,1,225,2,1,0,0,12,1,225,2,1,-141818.89685233062,-4794927.855439986,4194512.094206333,2.42091,2.63672,-0.582625,-77.125,50.25,60.125,-0.015625,-7.07812,6.95312,-0.00390625,0.0,0.00585938,4,0,41.35709324677443,-91.6941352041877,11122.425887615984,-48.12976671720264,4.401239095320324,0.7269997295407324,175.436,8985.541639556859,11104.004603147412,150,True,11.366278666525831,False,50.34286689512457,170.2200517201259,False,119.95263406185823,False,False
3,1970-07-23 09:46:54.469916124,2025-09-09,2025-09-26 18:10:46.991,HH,D,2480459378,JASSM,3,116,76,2,2,1,225,9,2,0,1,26,0,0,0,0,-121460.27605592164,-4791470.539137182,4198551.397917271,2.29618,-3.09845,0.0772743,-81.5,-3.375,-6.25,0.0,0.0,0.0,0.0,0.0,0.0,2,0,41.408254740751865,-91.4520951544107,10000.001548997509,-95.91353303478944,0.0064823107208018,0.0009498572950285,,8985.541639556859,11104.004603147412,150,3,2025-09-09,2025-09-26 18:10:47.021,HH,D,4058578974,HAWK11,1,1,73,2,1,1,225,2,1,0,0,12,1,225,2,1,-141919.77771170562,-4794862.054658736,4194590.902800083,2.42522,2.62972,-0.590487,-76.75,50.0,60.5,-0.09375,-7.20312,7.09375,0.0195312,0.00976562,0.0136719,4,0,41.35799894894451,-91.69536285207909,11138.64685767903,-47.57945836820243,4.514475381263446,0.7950133634748541,175.131,8985.541639556859,11104.004603147412,150,True,11.354963223928769,False,50.53439777972796,170.51321811788443,False,120.0628810236503,False,False
3,1970-07-23 09:46:54.480744549,2025-09-09,2025-09-26 18:10:48.074,HH,D,2481712248,JASSM,3,116,76,2,2,1,225,9,2,0,1,26,0,0,0,0,-121546.04558717164,-4791474.231519994,4198544.745573521,2.29618,-3.09845,0.0773702,-81.5,-3.375,-6.25,0.0,0.0,0.0,0.0,0.0,0.0,2,0,41.40817492349977,-91.45311899686712,9999.998925268012,-95.91832053698477,0.0036101247373723,0.0009497408937447,,8985.541639556859,11104.004603147412,150,3,2025-09-09,2025-09-26 18:10:48.207,HH,D,4060010572,HAWK11,1,1,73,2,1,1,225,2,1,0,0,12,1,225,2,1,-142011.42419608062,-4794802.286104049,4194663.197721958,2.42973,2.63509,-0.590679,-76.375,50.0,60.75,-0.265625,-7.0,6.875,0.0,0.0078125,-0.00390625,4,0,41.3588264094127,-91.6964781489128,11154.932457161429,-47.76357802288179,4.694526513379875,1.2097210365965745,174.788,8985.541639556859,11104.004603147412,150,True,11.344614653712522,False,50.74670616419808,170.78091970854175,False,120.12328646259455,False,False
3,1970-07-23 09:46:54.491291321,2025-09-09,2025-09-26 18:10:49.129,HH,D,2482965234,JASSM,3,116,76,2,2,1,225,9,2,0,1,26,0,0,0,0,-121631.82293092164,-4791477.922926244,4198538.093229771,2.29618,-3.09845,0.0773702,-81.5,-3.375,-6.25,0.0,0.0,0.0,0.0,0.0,0.0,2,0,41.40809510176732,-91.45414293047412,9999.998193724496,-95.91899778545904,0.0043822296413303,0.0009499469926699,,8985.541639556859,11104.004603147412,150,3,2025-09-09,2025-09-26 18:10:49.070,HH,D,4060487772,HAWK11,1,1,73,2,1,1,225,2,1,0,0,12,1,225,2,1,-142042.83239920562,-4794782.069307174,4194687.711393833,2.41775,2.63547,-0.59087,-76.375,49.75,60.875,-0.078125,-7.15625,7.01562,-0.0292969,0.00976562,0.0078125,4,0,41.35910662837016,-91.69686028457456,11160.602552173676,-47.77005768553189,4.715298809231754,0.5347917986254153,174.055,8985.541639556859,11104.004603147412,150,True,11.311116771643189,False,50.72722427653125,170.8475542901719,False,120.21455385531915,False,False
3,1970-07-23 09:46:54.502319272,2025-09-09,2025-09-26 18:10:50.231,HH,D,2484277128,JASSM,3,116,76,2,2,1,225,9,2,0,1,26,0,0,0,0,-121721.63152467164,-4791481.788160619,4198531.128386021,2.29618,-3.09855,0.0773702,-81.5,-3.375,-6.25,0.0,0.0,0.0,0.0,0.0,0.0,2,0,41.40801151779625,-91.455214982766,10000.002654157832,-95.91607468447782,0.0010938647257052,0.0013748154344939,,8985.541639556859,11104.004603147412,150,3,2025-09-09,2025-09-26 18:10:50.207,HH,D,4062317036,HAWK11,1,1,73,2,1,1,225,2,1,0,0,12,1,225,2,1,-142159.96130545562,-4794705.716768111,4194780.875456333,2.38937,2.62474,-0.593651,-76.125,49.625,60.75,-0.109375,-6.73438,6.6875,-0.0273438,0.0,-0.00585938,4,0,41.36016911941904,-91.69828572895815,11183.182373764434,-47.28294065966436,4.494850885631415,-1.3955159153410075,174.092,8985.541639556859,11104.004603147412,150,True,11.308837889453878,False,50.75716462458988,171.20064007432836,False,120.54205265826079,False,False
3,1970-07-23 09:46:54.512357537,2025-09-09,2025-09-26 18:10:51.235,HH,D,2485529978,JASSM,3,116,76,2,2,1,225,9,2,0,1,26,0,0,0,0,-121807.40105592164,-4791485.477613744,4198524.474089146,2.29618,-3.09855,0.0773702,-81.5,-3.375,-6.25,0.0,0.0,0.0,0.0,0.0,0.0,2,0,41.40793167703019,-91.4562388184741,10000.000184744336,-95.91675186601742,0.0018659004693044,0.0013750781001395,,8985.541639556859,11104.004603147412,150,3,2025-09-09,2025-09-26 18:10:51.207,HH,D,4063589568,HAWK11,1,1,73,2,1,1,225,2,1,0,0,12,1,225,2,1,-142240.57849295562,-4794653.018525924,4194844.875456333,2.38198,2.63519,-0.591254,-76.0,49.5,60.375,-0.0625,-6.92188,6.82812,0.0078125,-0.00195312,-0.00976562,4,0,41.36090043828243,-91.69926690726412,11198.105293865849,-47.74670365346006,4.725015529881364,-1.52139655167363,174.312,8985.541639556859,11104.004603147412,150,True,11.294736335167443,False,50.66751125827996,171.4339612183152,False,120.86602322309734,False,False
3,1970-07-23 09:46:54.523918502,2025-09-09,2025-09-26 18:10:52.391,HH,D,2486783060,JASSM,3,116,76,2,2,1,225,9,2,0,1,26,0,0,0,0,-121893.18230592164,-4791489.167066869,4198517.819792271,2.29618,-3.09855,0.0773702,-81.5,-3.375,-6.25,0.0,0.0,0.0,0.0,0.0,0.0,2,0,41.40785182537886,-91.45726279171544,10000.002255256595,-95.91742913745024,0.0026380408798599,0.0013753317365231,,8985.541639556859,11104.004603147412,150,3,2025-09-09,2025-09-26 18:10:52.411,HH,D,4064941634,HAWK11,1,1,73,2,1,1,225,2,1,0,0,12,1,225,2,1,-142327.39489920562,-4794596.389619674,4194913.723112583,2.39761,2.63289,-0.586748,-76.0,49.5,60.25,-0.3125,-6.70312,6.70312,0.00976562,-0.00390625,-0.0078125,4,0,41.36168676135291,-91.70032351510636,11214.323006658642,-47.83880920788816,4.460851514009453,-0.7066217394463796,173.493,8985.541639556859,11104.004603147412,150,True,11.283300954670995,False,50.6311604088027,171.68787755402886,False,121.15859695922798,False,False
3,1970-07-23 09:46:54.533238541,2025-09-09,2025-09-26 18:10:53.323,HH,D,2488035782,JASSM,3,116,76,2,2,1,225,9,2,0,1,26,0,0,0,0,-121978.94402467164,-4791492.854566869,4198511.165495396,2.29618,-3.09855,0.0773702,-81.5,-3.375,-6.25,0.0,0.0,0.0,0.0,0.0,0.0,2,0,41.4077719791948,-91.45828652964316,10000.002105783597,-95.91810625216942,0.0034100061189158,0.001375588907656,,8985.541639556859,11104.004603147412,150,3,2025-09-09,2025-09-26 18:10:53.207,HH,D,4065896032,HAWK11,1,1,73,2,1,1,225,2,1,0,0,12,1,225,2,1,-142388.21716483062,-4794556.687471236,4194961.732878208,2.41429,2.62867,-0.588378,-75.875,49.5,60.0,-0.0625,-7.03125,6.89062,0.015625,0.00390625,0.00585938,4,0,41.36223629995109,-91.701063783022,11225.133419175938,-47.6265221670975,4.396934001778821,0.1315929363229449,173.016,8985.541639556859,11104.004603147412,150,True,11.26172723953139,False,50.60552469159187,171.85575115856398,False,121.35238484010573,False,False
3,1970-07-23 09:46:54.544294979,2025-09-09,2025-09-26 18:10:54.429,HH,D,2489288776,JASSM,3,116,76,2,2,1,225,9,2,0,1,26,0,0,0,0,-122064.72136842164,-4791496.542066869,4198504.509245396,2.29618,-3.09855,0.0773702,-81.5,-3.375,-6.25,0.0,0.0,0.0,0.0,0.0,0.0,2,0,41.40769210834905,-91.45931045178332,10000.002503105128,-95.9187834876554,0.0041821122695347,0.001375847141475,,8985.541639556859,11104.004603147412,150,3,2025-09-09,2025-09-26 18:10:54.350,HH,D,4066850432,HAWK11,1,1,73,2,1,1,225,2,1,0,0,12,1,225,2,1,-142448.82458670562,-4794516.951143111,4195009.599089146,2.43193,2.62752,-0.588378,-75.625,49.75,59.875,-0.046875,-6.73438,6.57812,0.0175781,-0.00585938,0.00195312,4,0,41.36278510467452,-91.70180150957758,11235.536651758148,-47.58601066911342,4.36117840329591,1.1088549629915734,172.796,8985.541639556859,11104.004603147412,150,True,11.240144530231122,False,50.720103269580434,172.02383462212111,False,121.4045841653969,False,False
3,1970-07-23 09:46:54.555296303,2025-09-09,2025-09-26 18:10:55.529,HH,D,2490660782,JASSM,3,116,76,2,2,1,225,9,2,0,1,26,0,0,0,0,-122158.64324342164,-4791500.578199682,4198497.220182896,2.29618,-3.09855,0.0773702,-81.5,-3.375,-6.25,0.0,0.0,0.0,0.0,0.0,0.0,2,0,41.40760464680634,-91.46043159258028,10000.001885398078,-95.9195250236,0.0050275296455471,0.0013761264515257,,8985.541639556859,11104.004603147412,150,3,2025-09-09,2025-09-26 18:10:55.412,HH,D,4068520630,HAWK11,1,1,73,2,1,1,225,2,1,0,0,12,1,225,2,1,-142554.51989920562,-4794446.605439986,4195093.454557896,2.46463,2.62205,-0.587419,-75.125,50.25,60.0,0.0625,-6.71875,6.73438,0.0253906,0.0,0.00976562,4,0,41.36375096816309,-91.7030884556486,11251.93241633727,-47.42839746232932,4.148241469189496,2.820062609961849,172.528,8985.541639556859,11104.004603147412,150,True,11.232430417934298,False,51.05905782489647,172.34122711775885,False,121.38309627432253,False,False
3,1970-07-23 09:46:54.566338854,2025-09-09,2025-09-26 18:10:56.633,HH,D,2491913590,JASSM,3,116,76,2,2,1,225,9,2,0,1,26,0,0,0,0,-122244.40886842164,-4791504.263746557,4198490.561979771,2.29618,-3.09855,0.0773702,-81.5,-3.375,-6.25,0.0,0.0,0.0,0.0,0.0,0.0,2,0,41.40752475708751,-91.4614553700216,10000.000480552317,-95.9202021611293,0.0057995317674323,0.0013763953286222,,8985.541639556859,11104.004603147412,150,3,2025-09-09,2025-09-26 18:10:56.613,HH,D,4070031762,HAWK11,1,1,73,2,1,1,225,2,1,0,0,12,1,225,2,1,-142648.91443045562,-4794382.789033736,4195169.300261021,2.72675,2.59521,-0.605155,-73.75,51.25,60.75,-0.015625,-6.78125,6.76562,0.273438,0.0078125,0.0390625,4,0,41.364625902542485,-91.70423818628338,11266.21636914464,-45.798101596122144,4.074791142490891,17.091465063395106,172.662,8985.541639556859,11104.004603147412,150,False,11.224678524719438,False,52.025238155021874,172.62775110111738,False,120.70358964413794,False,False
3,1970-07-23 09:46:54.577356037,2025-09-09,2025-09-26 18:10:57.735,HH,D,2493284628,JASSM,3,116,76,2,2,1,225,9,2,0,1,26,0,0,0,0,-122338.26824342164,-4791508.294996557,4198483.276823521,2.29618,-3.09855,0.0773702,-81.5,-3.375,-6.25,0.0,0.0,0.0,0.0,0.0,0.0,2,0,41.40743733956099,-91.46257575967992,10000.00113540533,-95.92094319780054,0.0066443863964777,0.0013766678162724,,8985.541639556859,11104.004603147412,150,3,2025-09-09,2025-09-26 18:10:57.411,HH,D,4070986160,HAWK11,1,1,73,2,1,1,225,2,1,0,0,12,1,225,2,1,-142707.29333670562,-4794341.336885299,4195218.340300083,2.92933,2.56501,-0.627494,-71.5,52.875,62.125,-0.15625,-7.23438,7.09375,0.173828,0.0351562,0.0507812,4,0,41.36519320656531,-91.70494996453452,11274.79514425559,-43.888901360878485,4.134101624163829,27.834877871426432,172.711,8985.541639556859,11104.004603147412,150,False,11.197838317098283,False,53.64630903007733,172.7988345387204,False,119.25155849717048,False,False
3,1970-07-23 09:46:54.588398140,2025-09-09,2025-09-26 18:10:58.839,HH,D,2494538222,JASSM,3,116,76,2,2,1,225,9,2,0,1,26,0,0,0,0,-122424.08464967164,-4791511.980543432,4198476.612761021,2.29618,-3.09855,0.0773702,-81.5,-3.375,-6.25,0.0,0.0,0.0,0.0,0.0,0.0,2,0,41.40735738349063,-91.46360013870166,9999.99817921994,-95.92162073097012,0.0074168461302913,0.001376936828983,,8985.541639556859,11104.004603147412,150,3,2025-09-09,2025-09-26 18:10:59.021,HH,D,4072815426,HAWK11,1,1,73,2,1,1,225,2,1,0,0,12,1,225,2,1,-142812.07653983062,-4794257.551729049,4195316.652800083,3.12108,2.44411,-0.691729,-64.25,57.125,66.125,-0.046875,-8.17188,8.09375,0.0214844,0.0390625,0.0527344,4,0,41.36633672656785,-91.70623088901876,11289.422352640018,-37.2995492803378,3.6502828801538314,35.01873486633533,172.711,8985.541639556859,11104.004603147412,150,False,11.192725973308573,False,58.54456120976944,173.17179065745773,False,114.72309604797131,False,False
3,1970-07-23 09:46:54.599426576,2025-09-09,2025-09-26 18:10:59.942,HH,D,2495849676,JASSM,3,116,76,2,2,1,225,9,2,0,1,26,0,0,0,0,-122513.86589967164,-4791515.836012182,4198469.642057896,2.29618,-3.09855,0.077466,-81.5,-3.375,-6.25,0.0,0.0,0.0,0.0,0.0,0.0,2,0,41.4072737341166,-91.46467184295582,10000.001000079388,-95.92643990443575,0.0045808028091898,0.0013767484713352,,8985.541639556859,11104.004603147412,150,3,2025-09-09,2025-09-26 18:10:59.708,HH,D,4073690292,HAWK11,1,1,73,2,1,1,225,2,1,0,0,12,1,225,2,1,-142858.11364920562,-4794215.012666549,4195366.260221958,-3.13287,2.40662,-0.715794,-60.625,58.75,68.625,-0.40625,-8.71875,8.45312,0.00390625,0.0390625,0.0390625,4,0,41.36691649651917,-91.70679572212504,11295.662407033506,-35.16148128058226,3.81986103302182,35.44342512182031,173.016,8985.541639556859,11104.004603147412,150,False,11.16178619865599,False,61.0091995090555,173.3420501810522,False,112.43614809295649,False,False
3,1970-07-23 09:46:54.609276981,2025-09-09,2025-09-26 18:11:00.927,HH,D,2497102376,JASSM,3,116,76,2,2,1,225,9,2,0,1,26,0,0,0,0,-122599.62371217164,-4791519.516676244,4198462.981901646,2.29618,-3.09864,0.077466,-81.5,-3.375,-6.25,0.0,0.0,0.0,0.0,0.0,0.0,2,0,41.407193823726615,-91.46569551813953,9999.998618628211,-95.92347581748524,0.0012457908996012,0.0018031962959696,,8985.541639556859,11104.004603147412,150,3,2025-09-09,2025-09-26 18:11:00.911,HH,D,4075082124,HAWK11,1,1,73,2,1,1,225,2,1,0,0,12,1,225,2,1,-142925.18786795562,-4794144.299775924,4195449.144987583,-3.11254,2.3305,-0.758649,-53.625,61.75,72.125,-0.203125,-8.5,8.625,-0.0195312,0.0332031,0.0664062,4,0,41.36788477019325,-91.70762178814452,11306.264153528262,-31.10485688805723,4.077065489988692,33.95402484809442,173.053,8985.541639556859,11104.004603147412,150,False,11.139633482185834,False,65.41636238741506,173.64176389351118,False,108.33336668286078,False,False
3,1970-07-23 09:46:54.620315874,2025-09-09,2025-09-26 18:11:02.031,HH,D,2498414746,JASSM,3,116,76,2,2,1,225,9,2,0,1,26,0,0,0,0,-122689.46355592164,-4791523.372144994,4198456.005339146,2.29618,-3.09864,0.077466,-81.5,-3.375,-6.25,0.0,0.0,0.0,0.0,0.0,0.0,2,0,41.407110106355205,-91.46676791720672,10000.000570638224,-95.9241851081116,0.0020544657957377,0.0018034547482964,,8985.541639556859,11104.004603147412,150,3,2025-09-09,2025-09-26 18:11:01.911,HH,D,4076354656,HAWK11,1,1,73,2,1,1,225,2,1,0,0,12,1,225,2,1,-142979.04138358062,-4794077.964814986,4195527.558073521,-3.05387,2.24508,-0.792397,-47.5,63.75,75.125,-0.03125,-8.53125,8.60938,0.0390625,0.0390625,0.0546875,4,0,41.36879915437885,-91.7082884535717,11316.98228953248,-27.104302607809075,3.954207608448459,34.16804811875211,173.016,8985.541639556859,11104.004603147412,150,False,11.109257503730056,False,69.13861798446777,173.9172239708338,False,104.89677254518065,False,False
3,1970-07-23 09:46:54.633519511,2025-09-09,2025-09-26 18:11:03.351,HH,D,2499727078,JASSM,3,116,76,2,2,1,225,9,2,0,1,26,0,0,0,0,-122779.30339967164,-4791527.226637182,4198449.026823521,2.29618,-3.09864,0.077466,-81.5,-3.375,-6.25,0.0,0.0,0.0,0.0,0.0,0.0,2,0,41.40702637161508,-91.46784031381924,10000.000058639956,-95.92489439593508,0.0028631416874843,0.0018037205486715,,8985.541639556859,11104.004603147412,150,3,2025-09-09,2025-09-26 18:11:03.519,HH,D,4078183920,HAWK11,1,1,73,2,1,1,225,2,1,0,0,12,1,225,2,1,-143043.59021170562,-4793978.696260299,4195646.622526646,-2.82847,2.07634,-0.86459,-35.875,66.125,79.5,-0.171875,-9.98438,10.1875,0.0664062,0.0644531,0.0683594,4,0,41.37018196795864,-91.70909458271764,11335.589007197346,-19.405023189257832,4.817472791456316,40.53539652997663,173.493,8985.541639556859,11104.004603147412,150,False,11.079656564324416,False,75.75219343421759,174.3381481109267,False,98.72515407408825,False,False
3,1970-07-23 09:46:54.642379701,2025-09-09,2025-09-26 18:11:04.237,HH,D,2501039936,JASSM,3,116,76,2,2,1,225,9,2,0,1,26,0,0,0,0,-122869.17839967164,-4791531.082105932,4198442.044401646,2.29618,-3.09864,0.077466,-81.5,-3.375,-6.25,0.0,0.0,0.0,0.0,0.0,0.0,2,0,41.40694258933617,-91.4689131274908,9999.999866628,-95.92560395842294,0.003672134657061,0.0018039912226115,,8985.541639556859,11104.004603147412,150,3,2025-09-09,2025-09-26 18:11:04.207,HH,D,4079098552,HAWK11,1,1,73,2,1,1,225,2,1,0,0,12,1,225,2,1,-143068.61169608062,-4793928.201143111,4195708.859831333,-2.69894,1.97232,-0.886066,-29.125,66.875,81.625,-0.140625,-9.625,9.71875,0.0644531,0.0605469,0.0683594,4,0,41.37089804477847,-91.70941135836372,11348.112281949823,-15.38488045184255,4.634270044198732,43.71020158879683,172.662,8985.541639556859,11104.004603147412,150,False,11.036829143237531,False,79.46206435143489,174.53992001262677,False,95.23276996054938,False,False
3,1970-07-23 09:46:54.653376376,2025-09-09,2025-09-26 18:11:05.337,HH,D,2502351780,JASSM,3,116,76,2,2,1,225,9,2,0,1,26,0,0,0,0,-122958.98699342164,-4791534.932691869,4198435.067839146,2.29618,-3.09864,0.077466,-81.5,-3.375,-6.25,0.0,0.0,0.0,0.0,0.0,0.0,2,0,41.40685887579961,-91.469985146359,10000.00036563114,-95.92631299404736,0.004480528622473,0.0018042449455587,,8985.541639556859,11104.004603147412,150,3,2025-09-09,2025-09-26 18:11:05.413,HH,D,4080410850,HAWK11,1,1,73,2,1,1,225,2,1,0,0,12,1,225,2,1,-143094.83825858062,-4793852.375947799,4195800.738737583,-2.5233,1.84864,-0.872931,-19.375,69.5,82.875,0.0,-7.35938,7.35938,0.078125,0.00976562,0.0800781,4,0,41.37196467870674,-91.70975155937828,11362.667461177922,-11.234284356402563,2.685589773250682,48.576522517739726,170.12,8985.541639556859,11104.004603147412,150,False,10.991193955594804,False,84.72440962768687,174.84805685750607,False,90.27424292139955,False,False
3,1970-07-23 09:46:54.665275915,2025-09-09,2025-09-26 18:11:06.527,HH,D,2503723772,JASSM,3,116,76,2,2,1,225,9,2,0,1,26,0,0,0,0,-123052.90886842164,-4791538.960035619,4198427.769011021,2.29618,-3.09864,0.077466,-81.5,-3.375,-6.25,0.0,0.0,0.0,0.0,0.0,0.0,2,0,41.40677129661528,-91.4711062611934,10000.000397891325,-95.92705450058868,0.0053259495332867,0.0018045310654804,,8985.541639556859,11104.004603147412,150,3,2025-09-09,2025-09-26 18:11:06.613,HH,D,4081961750,HAWK11,1,1,73,2,1,1,225,2,1,0,0,12,1,225,2,1,-143113.08630545562,-4793757.764619674,4195905.971159458,-2.28975,1.67789,-0.849346,-8.75,74.375,81.375,0.0,-8.0625,7.9375,0.0703125,0.0664062,0.078125,4,0,41.373234596083215,-91.71000319308182,11359.370190340262,-5.172914356975213,0.303010642885883,54.68647632745343,171.0,8985.541639556859,11104.004603147412,150,False,10.937521716669323,False,90.29438512771881,175.2168445279338,False,85.03411197124312,False,False
3,1970-07-23 09:46:54.675318913,2025-09-09,2025-09-26 18:11:07.531,HH,D,2504976496,JASSM,3,116,76,2,2,1,225,9,2,0,1,26,0,0,0,0,-123138.66668092164,-4791542.634840307,4198421.104948521,2.29618,-3.09864,0.077466,-81.5,-3.375,-6.25,0.0,0.0,0.0,0.0,0.0,0.0,2,0,41.40669133747249,-91.47212992239984,9999.999046825778,-95.92773155007248,0.0060978819356452,0.0018047755297594,,8985.541639556859,11104.004603147412,150,3,2025-09-09,2025-09-26 18:11:07.519,HH,D,4083035448,HAWK11,1,1,73,2,1,1,225,2,1,0,0,12,1,225,2,1,-143116.99841483062,-4793689.318330611,4195978.690886021,-2.14575,1.54779,-0.826049,0.0,77.125,80.25,-0.21875,-8.34375,8.3125,0.0351562,0.0664062,0.0800781,4,0,41.374131932462575,-91.71007431192294,11348.913281612238,-0.2655696341891569,-1.2960842372886927,57.35152158349156,171.489,8985.541639556859,11104.004603147412,150,False,10.88472603434669,False,94.79952595137809,175.47151991890357,False,80.76472138160938,False,False
3,1970-07-23 09:46:54.685335185,2025-09-09,2025-09-26 18:11:08.533,HH,D,2506169544,JASSM,3,116,76,2,2,1,225,9,2,0,1,26,0,0,0,0,-123220.34246217164,-4791546.134840307,4198414.757292271,2.29618,-3.09864,0.077466,-81.5,-3.375,-6.25,0.0,0.0,0.0,0.0,0.0,0.0,2,0,41.406615169799046,-91.47310485544888,9999.999843439657,-95.92837636975476,0.0068330713330632,0.0018050144398475,,8985.541639556859,11104.004603147412,150,3,2025-09-09,2025-09-26 18:11:08.411,HH,D,4083910314,HAWK11,1,1,73,2,1,1,225,2,1,0,0,12,1,225,2,1,-143114.14489920562,-4793631.052705611,4196037.674284458,-2.06033,1.44194,-0.801793,7.625,79.375,78.625,-0.3125,-8.875,8.73438,-0.00976562,0.0742188,0.0644531,4,0,41.37487717882576,-91.71006100897654,11333.229128901956,3.945487758758009,-2.5392105250300427,57.69392024267239,172.76,8985.541639556859,11104.004603147412,150,False,10.832218055950683,False,98.66829986329752,175.68061989902236,False,77.08743637760513,False,False
3,1970-07-23 09:46:54.695396165,2025-09-09,2025-09-26 18:11:09.539,HH,D,2507363250,JASSM,3,116,76,2,2,1,225,9,2,0,1,26,0,0,0,0,-123302.05730592164,-4791549.635816869,4198408.405729771,2.29618,-3.09864,0.077466,-81.5,-3.375,-6.25,0.0,0.0,0.0,0.0,0.0,0.0,2,0,41.40653895570416,-91.47408025270754,10000.000490641643,-95.92902149548868,0.0075686126921585,0.001805255195437,,8985.541639556859,11104.004603147412,150,3,2025-09-09,2025-09-26 18:11:09.911,HH,D,4085858878,HAWK11,1,1,73,2,1,1,225,2,1,0,0,12,1,225,2,1,-143087.16638358062,-4793498.719697799,4196164.261198521,-1.95793,1.23332,-0.743214,25.0,81.625,75.875,-0.015625,-9.0625,9.14062,-0.0253906,0.0644531,0.078125,4,0,41.37652361514136,-91.70978600826092,11280.11799347147,12.924021732765697,-4.547881754291307,54.642957994635054,175.045,8985.541639556859,11104.004603147412,150,False,10.7590579959517,False,107.35545429995894,176.16108529532698,False,68.86304643944696,False,False
3,1970-07-23 09:46:54.705273072,2025-09-09,2025-09-26 18:11:10.527,HH,D,2508555622,JASSM,3,116,76,2,2,1,225,9,2,0,1,26,0,0,0,0,-123383.68621217164,-4791553.131910619,4198402.060026646,2.29618,-3.09874,0.0775619,-81.5,-3.375,-6.25,0.0,0.0,0.0,0.0,0.0,0.0,2,0,41.40646281511346,-91.475054622258,9999.999852517609,-95.93014424822672,0.0005624710319202,0.0022306967661886,,8985.541639556859,11104.004603147412,150,3,2025-09-09,2025-09-26 18:11:10.817,HH,D,4086773510,HAWK11,1,1,73,2,1,1,225,2,1,0,0,12,1,225,2,1,-143064.50427420562,-4793435.533174361,4196221.487761021,-1.90798,1.14483,-0.705439,33.375,82.375,73.5,-0.1875,-9.17188,9.1875,0.0,0.0722656,0.0664062,4,0,41.377289776852535,-91.7095378947465,11247.071118614276,17.169115814334244,-5.650434253891628,53.765940886785735,177.098,8985.541639556859,11104.004603147412,150,False,10.696449739394652,False,111.49611250270142,176.3757424686044,False,64.92615904945828,False,False
3,1970-07-23 09:46:54.715318631,2025-09-09,2025-09-26 18:11:11.531,HH,D,2509748668,JASSM,3,116,76,2,2,1,225,9,2,0,1,26,0,0,0,0,-123465.35808717164,-4791556.629957494,4198395.710417271,2.29618,-3.09874,0.0775619,-81.5,-3.375,-6.25,0.0,0.0,0.0,0.0,0.0,0.0,2,0,41.40638662169305,-91.4760295023964,10000.001714200327,-95.93078903002056,0.0012976261846279,0.0022309341617696,,8985.541639556859,11104.004603147412,150,3,2025-09-09,2025-09-26 18:11:11.411,HH,D,4087688144,HAWK11,1,1,73,2,1,1,225,2,1,0,0,12,1,225,2,1,-143035.93591483062,-4793372.895479049,4196276.231901646,-1.8612,1.06094,-0.675239,41.25,82.25,71.5,-0.296875,-9.53125,9.35938,-0.0195312,0.0644531,0.0703125,4,0,41.37803696195432,-91.70921904370698,11209.561352525248,21.25486361728063,-6.102800579047761,52.9659440844815,178.418,8985.541639556859,11104.004603147412,150,False,10.631013951557714,False,115.38187826471568,176.585142059272,False,61.24410227278664,False,False
3,1970-07-23 09:46:54.725336409,2025-09-09,2025-09-26 18:11:12.533,HH,D,2510941716,JASSM,3,116,76,2,2,1,225,9,2,0,1,26,0,0,0,0,-123547.03386842164,-4791560.126051244,4198389.358854771,2.29618,-3.09874,0.0775619,-81.5,-3.375,-6.25,0.0,0.0,0.0,0.0,0.0,0.0,2,0,41.40631041785064,-91.47700442753684,9999.998232523492,-95.93143384060306,0.0020328168423711,0.0022311700738524,,8985.541639556859,11104.004603147412,150,3,2025-09-09,2025-09-26 18:11:12.613,HH,D,4089119742,HAWK11,1,1,73,2,1,1,225,2,1,0,0,12,1,225,2,1,-142978.09021170562,-4793273.934541549,4196359.208464146,-1.83713,0.929497,-0.624138,54.0,81.125,67.75,-0.34375,-10.6719,10.5781,-0.183594,0.115234,0.0566406,4,0,41.37919596899952,-91.7085634747604,11141.755144808798,27.957030084965425,-6.444710689543779,49.05005248533887,181.339,8985.541639556859,11104.004603147412,150,False,10.546916140866005,False,121.67193797705092,176.9177793719666,False,55.278360441206964,False,False
3,1970-07-23 09:46:54.735317648,2025-09-09,2025-09-26 18:11:13.531,HH,D,2512135012,JASSM,3,116,76,2,2,1,225,9,2,0,1,26,0,0,0,0,-123628.72136842164,-4791563.623121557,4198383.007292271,2.29618,-3.09874,0.0775619,-81.5,-3.375,-6.25,0.0,0.0,0.0,0.0,0.0,0.0,2,0,41.40623419813664,-91.47797949013338,10000.00134883037,-95.93207874112272,0.0027681125414396,0.0022314027549359,,8985.541639556859,11104.004603147412,150,3,2025-09-09,2025-09-26 18:11:13.519,HH,D,4089875308,HAWK11,1,1,73,2,1,1,225,2,1,0,0,12,1,225,2,1,-142940.85974295562,-4793222.413057174,4196402.300261021,-1.92361,0.841005,-0.604772,61.125,78.625,66.25,-0.234375,-11.8906,11.9375,-0.177734,0.0800781,0.0644531,4,0,41.3797999113268,-91.70813719007234,11105.701621803724,32.16862749504046,-5.5237258870852735,40.731536247463566,184.785,8985.541639556859,11104.004603147412,150,False,10.478368813897415,False,125.34696169550655,177.08429777596783,False,51.773021596254935,False,False
3,1970-07-23 09:46:54.745914688,2025-09-09,2025-09-26 18:11:14.591,HH,D,2513328302,JASSM,3,116,76,2,2,1,225,9,2,0,1,26,0,0,0,0,-123710.41277467164,-4791567.118238744,4198376.653776646,2.29618,-3.09874,0.0775619,-81.5,-3.375,-6.25,0.0,0.0,0.0,0.0,0.0,0.0,2,0,41.40615796799671,-91.47895459773132,9999.999123430727,-95.9327236704301,0.0035034437460768,0.0022316339525216,,8985.541639556859,11104.004603147412,150,3,2025-09-09,2025-09-26 18:11:14.707,HH,D,4091465972,HAWK11,1,1,73,2,1,1,225,2,1,0,0,12,1,225,2,1,-142851.06286795562,-4793123.575166549,4196490.024870396,-1.94595,0.710041,-0.592979,73.25,71.0,65.375,-0.34375,-11.625,11.3906,0.00195312,0.0566406,0.0292969,4,0,41.38099591566402,-91.70709993650844,11046.168104781009,37.82541423600726,-2.869677691287124,34.80319729617014,186.361,8985.541639556859,11104.004603147412,150,False,10.377492606715489,False,131.88755204633324,177.41949515051104,False,45.59687807677486,False,False
3,1970-07-23 09:46:54.755275561,2025-09-09,2025-09-26 18:11:15.527,HH,D,2514521350,JASSM,3,116,76,2,2,1,225,9,2,0,1,26,0,0,0,0,-123792.08464967164,-4791570.613355932,4198370.300261021,2.29618,-3.09874,0.0775619,-81.5,-3.375,-6.25,0.0,0.0,0.0,0.0,0.0,0.0,2,0,41.40608173259468,-91.47992946965832,9999.999109980328,-95.93336844288952,0.0042386005347986,0.0022318802906308,,8985.541639556859,11104.004603147412,150,3,2025-09-09,2025-09-26 18:11:15.613,HH,D,4092658972,HAWK11,1,1,73,2,1,1,225,2,1,0,0,12,1,225,2,1,-142773.16443045562,-4793054.826143111,4196553.933073521,-1.87673,0.629412,-0.569682,81.0,65.75,63.5,-0.328125,-10.6875,10.4531,0.0625,0.0585938,0.0585938,4,0,41.38185006723944,-91.70619404225572,11009.900723999595,41.75576499788136,-1.7430852587333143,36.073057908524895,187.045,8985.541639556859,11104.004603147412,150,False,10.28573424749616,False,136.2729589014499,177.65106487141122,False,41.46466040384994,False,False
3,1970-07-23 09:46:54.765317439,2025-09-09,2025-09-26 18:11:16.531,HH,D,2515714210,JASSM,3,116,76,2,2,1,225,9,2,0,1,26,0,0,0,0,-123873.74480592164,-4791574.105543432,4198363.948698521,2.29618,-3.09874,0.0775619,-81.5,-3.375,-6.25,0.0,0.0,0.0,0.0,0.0,0.0,2,0,41.40600552135124,-91.48090420017648,9999.99883412184,-95.93401312084823,0.0049736501877334,0.0022321052029796,,8985.541639556859,11104.004603147412,150,3,2025-09-09,2025-09-26 18:11:16.519,HH,D,4093533838,HAWK11,1,1,73,2,1,1,225,2,1,0,0,12,1,225,2,1,-142710.94568045562,-4793007.297822799,4196599.585417271,-1.78718,0.564505,-0.534592,86.375,61.75,61.375,-0.453125,-10.7188,10.3125,0.0820312,0.0664062,0.0605469,4,0,41.38245197738156,-91.7054678451142,10987.40918959176,45.49349080468051,-1.4139080151805996,39.149337164074645,188.121,8985.541639556859,11104.004603147412,150,False,10.204259958732393,False,139.5208112791389,177.8089719409348,False,38.3908446882465,False,False
3,1970-07-23 09:46:54.775354868,2025-09-09,2025-09-26 18:11:17.535,HH,D,2516907082,JASSM,3,116,76,2,2,1,225,9,2,0,1,26,0,0,0,0,-123955.40886842164,-4791577.597730932,4198357.595182896,2.29608,-3.09874,0.0775619,-81.5,-3.375,-6.25,0.0,0.0,0.0,0.0,0.0,0.0,2,0,41.40592928806444,-91.48187897509456,9999.99801931845,-95.9346578271962,0.0057087360986009,-0.0032591318545997,,8985.541639556859,11104.004603147412,150,3,2025-09-09,2025-09-26 18:11:17.411,HH,D,4094806370,HAWK11,1,1,73,2,1,1,225,2,1,0,0,12,1,225,2,1,-142613.42224295562,-4792943.326143111,4196660.653776646,-1.66226,0.487231,-0.487135,94.0,56.25,56.625,-0.375,-10.0781,9.51562,0.046875,0.0527344,0.0605469,4,0,41.38326200868183,-91.70432581239616,10955.313518965224,50.203653006579856,-1.0456590905833034,44.03966049016733,188.475,8985.541639556859,11104.004603147412,150,False,10.10264058938099,False,144.41958465362964,178.02159835266514,False,33.7177432766206,False,False
3,1970-07-23 09:46:54.785934549,2025-09-09,2025-09-26 18:11:18.593,HH,D,2518100098,JASSM,3,116,76,2,2,1,225,9,2,0,1,26,0,0,0,0,-124037.07683717164,-4791581.089918432,4198351.241667271,2.29608,-3.09874,0.0775619,-81.5,-3.375,-6.25,0.0,0.0,0.0,0.0,0.0,0.0,2,0,41.40585304591702,-91.48285379441182,10000.000904191049,-95.93530256193375,0.0064438569042996,-0.0032588998099771,,8985.541639556859,11104.004603147412,150,3,2025-09-09,2025-09-26 18:11:18.613,HH,D,4096158434,HAWK11,1,1,73,2,1,1,225,2,1,0,0,12,1,225,2,1,-142502.24255545562,-4792880.441377486,4196719.519011021,-1.59841,0.425776,-0.416668,101.125,51.5,50.125,-0.359375,-9.29688,8.73438,0.0410156,0.0488281,0.0683594,4,0,41.38405310618344,-91.70302025440412,10920.123470518129,55.25434620041891,-1.963610685801812,46.02651990455528,188.158,8985.541639556859,11104.004603147412,150,False,9.994029001384845,False,149.32114529615978,178.22600868710825,False,29.016631725397332,True,False
3,1970-07-23 09:46:54.795317809,2025-09-09,2025-09-26 18:11:19.531,HH,D,2519233492,JASSM,3,116,76,2,2,1,225,9,2,0,1,26,0,0,0,0,-124114.66668092164,-4791584.406324682,4198345.204557896,2.29608,-3.09874,0.0775619,-81.5,-3.375,-6.25,0.0,0.0,0.0,0.0,0.0,0.0,2,0,41.40578060581712,-91.48377993402976,10000.001540057056,-95.93591509955168,0.0071422692090769,-0.003258681858133,,8985.541639556859,11104.004603147412,150,3,2025-09-09,2025-09-26 18:11:19.519,HH,D,4097271900,HAWK11,1,1,73,2,1,1,225,2,1,0,0,12,1,225,2,1,-142405.67028983062,-4792832.507783736,4196761.341276646,-1.54271,0.376784,-0.359143,106.25,47.75,44.5,-0.4375,-9.15625,8.42188,0.0351562,0.0488281,0.0625,4,0,41.38463762097865,-91.70188382502953,10885.832283267186,59.40636868433661,-2.6000615127090523,47.99034984642173,188.915,8985.541639556859,11104.004603147412,150,False,9.896895054698112,False,153.11397992938035,178.37472720947713,False,25.361837404452004,True,False
3,1970-07-23 09:46:54.809208150,2025-09-09,2025-09-26 18:11:20.920,HH,D,2520367122,JASSM,3,116,76,2,2,1,225,9,2,0,1,26,0,0,0,0,-124192.27214967164,-4791587.722730932,4198339.163542271,2.29608,-3.09883,0.0775619,-81.5,-3.375,-6.25,0.0,0.0,0.0,0.0,0.0,0.0,2,0,41.40570812948427,-91.48470625830188,9999.997811148902,-95.93289572934448,0.003744047171662,-0.0028325804264112,,8985.541639556859,11104.004603147412,150,3,2025-09-09,2025-09-26 18:11:21.019,HH,D,4099061398,HAWK11,1,1,73,2,1,1,225,2,1,0,0,12,1,225,2,1,-142240.17028983062,-4792762.631807174,4196816.995573521,-1.49649,0.305742,-0.259051,113.5,41.875,33.875,-0.375,-8.85938,8.23438,0.015625,0.0488281,0.0664062,4,0,41.38545818146169,-91.69993187227014,10822.527059713462,66.20172043428815,-3.9774850030681,49.0076178814027,190.418,8985.541639556859,11104.004603147412,150,False,9.761644382904745,False,159.12730726661118,178.58435042555396,False,19.517192779432126,True,False
3,1970-07-23 09:46:54.814412818,2025-09-09,2025-09-26 18:11:21.441,HH,D,2521500370,JASSM,3,116,76,2,2,1,225,9,2,0,1,26,0,0,0,0,-124269.85418092164,-4791591.038160619,4198333.126432896,2.29608,-3.09883,0.0775619,-81.5,-3.375,-6.25,0.0,0.0,0.0,0.0,0.0,0.0,2,0,41.40563568148865,-91.48563230075088,10000.0017772846,-95.93350820094632,0.004442389333129,-0.0028323179089369,,8985.541639556859,11104.004603147412,150,3,2025-09-09,2025-09-26 18:11:21.613,HH,D,4099816964,HAWK11,1,1,73,2,1,1,225,2,1,0,0,12,1,225,2,1,-142166.94177420562,-4792735.742158736,4196835.390104771,-1.50992,0.281869,-0.218209,116.375,39.625,28.875,0.0625,-8.64062,8.07812,-0.0507812,0.0449219,0.0683594,4,0,41.38575521803328,-91.69906674826824,10790.918813005926,68.81039860972594,-4.66856398535947,47.71857326950331,191.274,8985.541639556859,11104.004603147412,150,False,9.678922570838598,False,161.529151121,178.65712889060626,False,17.16267062394177,True,False
3,1970-07-23 09:46:54.825983040,2025-09-09,2025-09-26 18:11:22.598,HH,D,2522634266,JASSM,3,116,76,2,2,1,225,9,2,0,1,26,0,0,0,0,-124347.47527467164,-4791594.353590307,4198327.083464146,2.29608,-3.09883,0.0776578,-81.5,-3.375,-6.25,0.0,0.0,0.0,0.0,0.0,0.0,2,0,41.40556318045553,-91.48655880791992,9999.998637437997,-95.93823140069176,0.0014969856074715,-0.0028322843281579,,8985.541639556859,11104.004603147412,150,3,2025-09-09,2025-09-26 18:11:22.522,HH,D,4100771362,HAWK11,1,1,73,2,1,1,225,2,1,0,0,12,1,225,2,1,-142072.37146170562,-4792703.751924361,4196854.337370396,-1.54223,0.255983,-0.174299,119.375,36.75,23.0,-0.203125,-8.34375,7.75,-0.0664062,0.03125,0.0546875,4,0,41.38609007772233,-91.69794850729755,10746.406341318938,71.6426864027029,-5.367005852024484,45.330400843941206,192.911,8985.541639556859,11104.004603147412,150,False,9.584611783783501,False,164.18699657719813,178.74141300749932,False,14.563753938220382,True,False
3,1970-07-23 09:46:54.833907579,2025-09-09,2025-09-26 18:11:23.390,HH,D,2523827050,JASSM,3,116,76,2,2,1,225,9,2,0,1,26,0,0,0,0,-124429.13152467164,-4791597.840894994,4198320.727995396,2.29608,-3.09883,0.0776578,-81.5,-3.375,-6.25,0.0,0.0,0.0,0.0,0.0,0.0,2,0,41.405486916336784,-91.48753347777225,10000.001092728877,-95.93887603192096,0.0022320012929726,-0.002832065106975,,8985.541639556859,11104.004603147412,150,3,2025-09-09,2025-09-26 18:11:23.411,HH,D,4101765528,HAWK11,1,1,73,2,1,1,225,2,1,0,0,12,1,225,2,1,-141971.69177420562,-4792672.997041549,4196869.948698521,-1.61653,0.22607,-0.133648,122.125,33.875,17.375,-0.234375,-8.48438,7.9375,-0.107422,0.0410156,0.0566406,4,0,41.38639613321707,-91.69675684024484,10697.25738884377,74.51264202584974,-5.736865018370612,40.5326639672636,194.83,8985.541639556859,11104.004603147412,150,False,9.48506848867403,False,166.50317180794738,178.81855190437554,False,12.315712357613428,True,False
3,1970-07-23 09:46:54.842351505,2025-09-09,2025-09-26 18:11:24.235,HH,D,2524901014,JASSM,3,116,76,2,2,1,225,9,2,0,1,26,0,0,0,0,-124502.65105592164,-4791600.980543432,4198315.003386021,2.29608,-3.09883,0.0776578,-81.5,-3.375,-6.25,0.0,0.0,0.0,0.0,0.0,0.0,2,0,41.40541822906752,-91.4884110237711,10000.00057128294,-95.93945642613348,0.0028937772541679,-0.0028318522895311,,8985.541639556859,11104.004603147412,150,3,2025-09-09,2025-09-26 18:11:24.019,HH,D,4102560860,HAWK11,1,1,73,2,1,1,225,2,1,0,0,12,1,225,2,1,-141888.91638358062,-4792650.332002486,4196879.985807896,-1.6752,0.199897,-0.100188,123.875,31.125,14.125,-0.1875,-8.59375,8.03125,-0.0683594,0.0273438,0.0546875,4,0,41.38661327625162,-91.6957761531622,10657.23171387239,76.94396320202365,-5.9517373984989295,36.74836261179864,196.052,8985.541639556859,11104.004603147412,150,False,9.399995984309145,False,168.1606413515888,178.87199159754363,False,10.720812308954377,True,False
3,1970-07-23 09:46:54.852355325,2025-09-09,2025-09-26 18:11:25.235,HH,D,2526033754,JASSM,3,116,76,2,2,1,225,9,2,0,1,26,0,0,0,0,-124580.19793092164,-4791604.290113744,4198308.966276646,2.29608,-3.09883,0.0776578,-81.5,-3.375,-6.25,0.0,0.0,0.0,0.0,0.0,0.0,2,0,41.40534579155562,-91.48933663970796,10000.00033534788,-95.9400686121406,0.0035918032509615,-0.0028316473779757,,8985.541639556859,11104.004603147412,150,3,2025-09-09,2025-09-26 18:11:25.207,HH,D,4104111760,HAWK11,1,1,73,2,1,1,225,2,1,0,0,12,1,225,2,1,-141725.43005545562,-4792612.028291549,4196892.444792271,-1.75641,0.156562,-0.0553192,127.0,25.75,7.75,-0.09375,-8.60938,7.82812,-0.0625,0.0175781,0.0351562,4,0,41.38695397086532,-91.69383692538004,10578.1113888072,80.53179450484438,-5.858384181313458,31.533656739781016,198.508,8985.541639556859,11104.004603147412,150,False,9.26904115488607,False,170.88031157826123,178.95601346569617,False,8.180007951988593,True,False
3,1970-07-23 09:46:54.861441899,2025-09-09,2025-09-26 18:11:26.144,HH,D,2527167146,JASSM,3,116,76,2,2,1,225,9,2,0,1,26,0,0,0,0,-124657.78386842164,-4791607.602613744,4198302.923307896,2.29608,-3.09883,0.0776578,-81.5,-3.375,-6.25,0.0,0.0,0.0,0.0,0.0,0.0,2,0,41.40527328356565,-91.4902627194528,10000.00020382606,-95.9406811040192,0.0042901833251397,-0.0028314159101767,,8985.541639556859,11104.004603147412,150,3,2025-09-09,2025-09-26 18:11:26.207,HH,D,4105264992,HAWK11,1,1,73,2,1,1,225,2,1,0,0,12,1,225,2,1,-141601.93396170562,-4792588.366182174,4196896.700651646,-1.95659,0.11687,-0.0421845,129.0,21.5,4.5,-0.3125,-10.5156,9.82812,-0.382812,0.0683594,0.015625,4,0,41.38714514302724,-91.69237016648589,10520.14280615631,82.62100307202283,-4.673215083474715,19.761434753633285,200.525,8985.541639556859,11104.004603147412,150,False,9.160249211614461,False,172.5212141108086,178.99677024509614,False,6.7327066371728685,True,False
3,1970-07-23 09:46:54.870352494,2025-09-09,2025-09-26 18:11:27.035,HH,D,2528240888,JASSM,3,116,76,2,2,1,225,9,2,0,1,26,0,0,0,0,-124731.29168092164,-4791610.738355932,4198297.198698521,2.29608,-3.09883,0.0776578,-81.5,-3.375,-6.25,0.0,0.0,0.0,0.0,0.0,0.0,2,0,41.405204600537154,-91.49114012088474,9999.998021432868,-95.94126140015732,0.0049518531560476,-0.0028312171598713,,8985.541639556859,11104.004603147412,150,3,2025-09-09,2025-09-26 18:11:27.113,HH,D,4106418224,HAWK11,1,1,73,2,1,1,225,2,1,0,0,12,1,225,2,1,-141475.45153983062,-4792570.873018111,4196902.257292271,-2.29464,0.0323095,-0.0723847,130.5,14.25,7.5,-0.3125,-14.0938,13.4531,-0.251953,0.0820312,0.0078125,4,0,41.38730891547115,-91.69086554480178,10479.964921452844,84.54871746447829,0.0907897925459973,0.0378829638170271,204.203,8985.541639556859,11104.004603147412,150,True,9.052162780233942,False,175.99102946739654,179.0187430486972,False,3.295915579770919,True,False
3,1970-07-23 09:46:54.880391977,2025-09-09,2025-09-26 18:11:28.039,HH,D,2529374284,JASSM,3,116,76,2,2,1,225,9,2,0,1,26,0,0,0,0,-124808.88152467164,-4791614.048902807,4198291.155729771,2.29608,-3.09883,0.0776578,-81.5,-3.375,-6.25,0.0,0.0,0.0,0.0,0.0,0.0,2,0,41.40513208904635,-91.49206624390467,9999.999401645024,-95.94187391894133,0.0056502673826997,-0.0028310002653019,,8985.541639556859,11104.004603147412,150,3,2025-09-09,2025-09-26 18:11:28.317,HH,D,4107849822,HAWK11,1,1,73,2,1,1,225,2,1,0,0,12,1,225,2,1,-141318.76989920562,-4792559.719697799,4196917.319792271,-2.41276,0.0170655,-0.164519,130.0,7.25,15.75,-0.359375,-12.1875,11.4531,-0.0410156,0.0273438,-0.0449219,4,0,41.387504442760346,-91.68899795378648,10473.822056516115,81.1620073960636,4.234902784735173,-6.960976009774639,203.079,8985.541639556859,11104.004603147412,150,True,8.92542695912794,False,177.3549684527605,179.0240902028501,False,2.149992949372073,True,False
3,1970-07-23 09:46:54.889274184,2025-09-09,2025-09-26 18:11:28.927,HH,D,2530448346,JASSM,3,116,76,2,2,1,225,9,2,0,1,26,0,0,0,0,-124882.40886842164,-4791617.185621557,4198285.429167271,2.29608,-3.09883,0.0776578,-81.5,-3.375,-6.25,0.0,0.0,0.0,0.0,0.0,0.0,2,0,41.40506337024007,-91.49294387461995,10000.00238308429,-95.94245436509549,0.0063121133944578,-0.0028307976569393,,8985.541639556859,11104.004603147412,150,3,2025-09-09,2025-09-26 18:11:29.019,HH,D,4108684922,HAWK11,1,1,73,2,1,1,225,2,1,0,0,12,1,225,2,1,-141228.08044608062,-4792555.338838424,4196929.477995396,-2.41055,0.0168738,-0.172573,129.25,5.5,18.625,-0.21875,-9.26562,8.46875,0.0371094,0.0,0.015625,4,0,41.38762848826085,-91.68791623090584,10482.838648241155,80.82203291216221,4.548201469727675,-6.862566129842526,200.085,8985.541639556859,11104.004603147412,150,True,8.83650996573496,False,176.18837590308968,179.0233905421445,False,3.559443164322304,True,False
3,1970-07-23 09:46:54.898330823,2025-09-09,2025-09-26 18:11:29.833,HH,D,2531522384,JASSM,3,116,76,2,2,1,225,9,2,0,1,26,0,0,0,0,-124955.93230592164,-4791620.320387182,4198279.700651646,2.29608,-3.09893,0.0776578,-81.5,-3.375,-6.25,0.0,0.0,0.0,0.0,0.0,0.0,2,0,41.40499464378247,-91.4938214574169,9999.998868789771,-95.9394028073891,0.0028771519337551,-0.0024042512349865,,8985.541639556859,11104.004603147412,150,3,2025-09-09,2025-09-26 18:11:29.909,HH,D,4109559786,HAWK11,1,1,73,2,1,1,225,2,1,0,0,12,1,225,2,1,-141133.36169608062,-4792550.677705611,4196943.030729771,-2.35399,0.00958738,-0.150618,128.625,5.625,19.5,-0.046875,-7.1875,6.4375,0.113281,-0.0078125,0.0078125,4,0,41.38776431184782,-91.68678647422718,10493.902939300417,82.04351026259917,4.029125921032711,-3.59747403202547,198.887,8985.541639556859,11104.004603147412,150,True,8.745364930526955,False,175.76698230547828,179.02384059256812,False,3.9745455994466616,True,False
3,1970-07-23 09:46:54.907915810,2025-09-09,2025-09-26 18:11:30.791,HH,D,2532596126,JASSM,3,116,76,2,2,1,225,9,2,0,1,26,0,0,0,0,-125029.44011842164,-4791623.455152807,4198273.974089146,2.29608,-3.09893,0.0776578,-81.5,-3.375,-6.25,0.0,0.0,0.0,0.0,0.0,0.0,2,0,41.40492592624082,-91.49469885165588,10000.001386813545,-95.93998309557148,0.0035388227724972,-0.0024040031283461,,8985.541639556859,11104.004603147412,150,3,2025-09-09,2025-09-26 18:11:30.519,HH,D,4110196052,HAWK11,1,1,73,2,1,1,225,2,1,0,0,12,1,225,2,1,-141064.79919608062,-4792547.231416549,4196953.093229771,-2.29867,0.0140934,-0.152727,128.375,5.625,19.625,0.09375,-6.73438,6.10938,0.0800781,-0.0175781,-0.0253906,4,0,41.3878647548266,-91.68596871911984,10502.284171885403,81.78422168234772,3.917713775883781,-0.4069074981955662,198.252,8985.541639556859,11104.004603147412,150,True,8.668421967876176,False,175.69590385912758,179.02332896083553,False,4.058393384751954,True,False
3,1970-07-23 09:46:54.916391259,2025-09-09,2025-09-26 18:11:31.639,HH,D,2533730022,JASSM,3,116,76,2,2,1,225,9,2,0,1,26,0,0,0,0,-125107.06121217164,-4791626.763746557,4198267.925261021,2.29608,-3.09893,0.0776578,-81.5,-3.375,-6.25,0.0,0.0,0.0,0.0,0.0,0.0,2,0,41.40485335331752,-91.49562534078594,9999.99922602288,-95.94059585311504,0.0042375194434454,-0.0024037382780687,,8985.541639556859,11104.004603147412,150,3,2025-09-09,2025-09-26 18:11:31.709,HH,D,4111866252,HAWK11,1,1,73,2,1,1,225,2,1,0,0,12,1,225,2,1,-140885.87146170562,-4792536.943330611,4196977.513151646,-2.26128,0.0179284,-0.14314,128.0,6.625,18.0,-0.234375,-7.625,7.04688,0.00195312,0.0292969,0.0117188,4,0,41.3881221263709,-91.68383506719972,10516.992170153017,82.05522449098169,3.393410975219349,1.785027872520618,197.689,8985.541639556859,11104.004603147412,150,True,8.529341557169554,False,176.33981996055283,179.02972011729912,False,3.3435369236722887,True,False
3,1970-07-23 09:46:54.926270661,2025-09-09,2025-09-26 18:11:32.627,HH,D,2534922220,JASSM,3,116,76,2,2,1,225,9,2,0,1,26,0,0,0,0,-125188.67839967164,-4791630.242262182,4198261.565886021,2.29608,-3.09893,0.0776578,-81.5,-3.375,-6.25,0.0,0.0,0.0,0.0,0.0,0.0,2,0,41.40477704439141,-91.496599525389,10000.001169165773,-95.9412401543408,0.0049721857095004,-0.0024034679756122,,8985.541639556859,11104.004603147412,150,3,2025-09-09,2025-09-26 18:11:32.707,HH,D,4113099016,HAWK11,1,1,73,2,1,1,225,2,1,0,0,12,1,225,2,1,-140753.18005545562,-4792530.284150924,4196996.716276646,-2.26914,0.00901214,-0.159342,127.5,5.375,18.75,-0.203125,-8.10938,7.28125,-0.0078125,-0.00976562,-0.00976562,4,0,41.38831457705624,-91.68225241829188,10532.669834982207,81.69126439018811,4.386713323228558,1.2328769105479394,197.078,8985.541639556859,11104.004603147412,150,True,8.413187539873213,False,176.02273159905454,179.03011004507383,False,3.825237349304691,True,False
3,1970-07-23 09:46:54.937890558,2025-09-09,2025-09-26 18:11:33.789,HH,D,2536056420,JASSM,3,116,76,2,2,1,225,9,2,0,1,26,0,0,0,0,-125266.32293092164,-4791633.549879369,4198255.515104771,2.29608,-3.09893,0.0777537,-81.5,-3.375,-6.25,0.0,0.0,0.0,0.0,0.0,0.0,2,0,41.40470444514292,-91.4975262906556,10000.00027127056,-95.945963541645,0.0020270246261471,-0.0024034900111452,,8985.541639556859,11104.004603147412,150,3,2025-09-09,2025-09-26 18:11:33.749,HH,D,4113775050,HAWK11,1,1,73,2,1,1,225,2,1,0,0,12,1,225,2,1,-140681.91833670562,-4792527.332002486,4197007.177214146,-2.27528,0.00738228,-0.161835,127.125,4.875,18.875,-0.328125,-7.76562,6.92188,-0.0078125,0.00195312,0.00195312,4,0,41.38841520990483,-91.68140223736631,10542.949846782263,81.64504461891565,4.550823308296853,0.8627434702595828,195.795,8985.541639556859,11104.004603147412,150,True,8.332560986514855,False,175.93856135048648,179.02587500727918,False,3.976718677943501,True,False
3,1970-07-23 09:46:54.946329381,2025-09-09,2025-09-26 18:11:34.632,HH,D,2537248390,JASSM,3,116,76,2,2,1,225,9,2,0,1,26,0,0,0,0,-125347.92058717164,-4791637.026441869,4198249.155729771,2.29608,-3.09893,0.0777537,-81.5,-3.375,-6.25,0.0,0.0,0.0,0.0,0.0,0.0,2,0,41.40462813478202,-91.4985002380358,10000.002879086907,-95.94660768409142,0.002761515755067,-0.002403268847515,,8985.541639556859,11104.004603147412,150,3,2025-09-09,2025-09-26 18:11:34.613,HH,D,4115325948,HAWK11,1,1,73,2,1,1,225,2,1,0,0,12,1,225,2,1,-140517.19958670562,-4792521.207002486,4197032.028776646,-2.25553,-0.00316384,-0.156562,126.375,4.0,19.25,0.0625,-7.4375,6.8125,0.0292969,-0.00390625,0.0,4,0,41.38864817229333,-91.67943682494834,10569.897752357048,82.26873543916857,4.802166980732107,1.949319395625504,195.025,8985.541639556859,11104.004603147412,150,True,8.199026356084726,False,175.68899196725152,179.01821778704843,False,4.348565574271268,True,False
3,1970-07-23 09:46:54.955416240,2025-09-09,2025-09-26 18:11:35.541,HH,D,2538381850,JASSM,3,116,76,2,2,1,225,9,2,0,1,26,0,0,0,0,-125425.51433717164,-4791640.331129369,4198243.106901646,2.29608,-3.09893,0.0777537,-81.5,-3.375,-6.25,0.0,0.0,0.0,0.0,0.0,0.0,2,0,41.40455555874797,-91.49942639318829,10000.002140329309,-95.94722021714615,0.0034599667874488,-0.0024030560619437,,8985.541639556859,11104.004603147412,150,3,2025-09-09,2025-09-26 18:11:35.519,HH,D,4116399646,HAWK11,1,1,73,2,1,1,225,2,1,0,0,12,1,225,2,1,-140404.06677420562,-4792517.384736861,4197049.520964146,-2.24968,-0.00488956,-0.160589,125.625,3.625,19.25,-0.296875,-7.42188,6.84375,0.00195312,-0.00195312,0.0,4,0,41.38880872925163,-91.67808679250378,10590.279278984572,82.15982402664312,5.028564813109792,2.2593942752710703,193.681,8985.541639556859,11104.004603147412,150,True,8.095666248390119,False,175.61475418988286,179.00909175184884,False,4.4888650243372075,True,False
3,1970-07-23 09:46:54.967517529,2025-09-09,2025-09-26 18:11:36.751,HH,D,2539575254,JASSM,3,116,76,2,2,1,225,9,2,0,1,26,0,0,0,0,-125507.21325858062,-4791643.809541549,4198236.737761021,2.29608,-3.09893,0.0777537,-81.5,-3.375,-6.25,0.0,0.0,0.0,0.0,0.0,0.0,2,0,41.4044791395931,-91.5004015455838,10000.00135494141,-95.94786515465036,0.0041953698268205,-0.002402836631442,,8985.541639556859,11104.004603147412,150,3,2025-09-09,2025-09-26 18:11:36.749,HH,D,4117473346,HAWK11,1,1,73,2,1,1,225,2,1,0,0,12,1,225,2,1,-140291.33044608062,-4792513.963838424,4197066.606901646,-2.25102,-0.00786165,-0.152535,125.125,3.5,18.875,-0.40625,-6.95312,6.25,0.00390625,0.0,0.0117188,4,0,41.38896407096174,-91.67674135171526,10610.802353173123,82.62051693793558,4.852504633462238,2.195567496358425,192.374,8985.541639556859,11104.004603147412,150,True,7.990331628351715,False,175.73746449655235,178.99666285039123,False,4.420407094591532,True,False
3,1970-07-23 09:46:54.975313501,2025-09-09,2025-09-26 18:11:37.531,HH,D,2540767878,JASSM,3,116,76,2,2,1,225,9,2,0,1,26,0,0,0,0,-125588.85388358062,-4791647.285127486,4198230.372526646,2.29608,-3.09893,0.0777537,-81.5,-3.375,-6.25,0.0,0.0,0.0,0.0,0.0,0.0,2,0,41.40440276444912,-91.50137599998264,10000.001788208088,-95.94850962954226,0.0049302484425961,-0.0024026150850277,,8985.541639556859,11104.004603147412,150,3,2025-09-09,2025-09-26 18:11:37.614,HH,D,4118745878,HAWK11,1,1,73,2,1,1,225,2,1,0,0,12,1,225,2,1,-140156.99060233062,-4792509.998018111,4197086.642057896,-2.24306,-0.0076699,-0.146975,124.5,3.375,18.375,-0.125,-6.84375,6.21875,0.00390625,0.0,0.00390625,4,0,41.38914630784667,-91.67513804229525,10634.834249552803,82.85502140531993,4.635767001711601,2.6724713859787927,191.31,8985.541639556859,11104.004603147412,150,True,7.8733146640616845,False,175.90725707387347,178.9804305180731,False,4.315949585475463,True,False
3,1970-07-23 09:46:54.985392486,2025-09-09,2025-09-26 18:11:38.539,HH,D,2541961150,JASSM,3,116,76,2,2,1,225,9,2,0,1,26,0,0,0,0,-125670.54528983062,-4791650.761689986,4198224.001432896,2.29608,-3.09893,0.0777537,-81.5,-3.375,-6.25,0.0,0.0,0.0,0.0,0.0,0.0,2,0,41.404326327763904,-91.50235105858836,9999.99863515552,-95.94915450305982,0.0056655850451101,-0.0024023876554293,,8985.541639556859,11104.004603147412,150,3,2025-09-09,2025-09-26 18:11:38.613,HH,D,4120058176,HAWK11,1,1,73,2,1,1,225,2,1,0,0,12,1,225,2,1,-140020.47302420562,-4792506.166963424,4197106.323698521,-2.24412,-0.00709466,-0.14314,124.0,3.25,17.625,-0.109375,-6.875,6.10938,0.0,-0.00390625,0.0117188,4,0,41.38932571203219,-91.6735086673336,10658.283779577228,83.00040352389613,4.467735649123347,2.628295153541635,190.223,8985.541639556859,11104.004603147412,150,True,7.755125071644508,False,176.1950491443037,178.96103085695523,False,4.106281873437944,True,False
3,1970-07-23 09:46:54.997912425,2025-09-09,2025-09-26 18:11:39.791,HH,D,2543154120,JASSM,3,116,76,2,2,1,225,9,2,0,1,26,0,0,0,0,-125752.20935233062,-4791654.237275924,4198217.632292271,2.29608,-3.09893,0.0777537,-81.5,-3.375,-6.25,0.0,0.0,0.0,0.0,0.0,0.0,2,0,41.40424990607963,-91.50332578847966,9999.999005713751,-95.9497991581974,0.0064006757228004,-0.0024021579541732,,8985.541639556859,11104.004603147412,150,3,2025-09-09,2025-09-26 18:11:39.911,HH,D,4121529542,HAWK11,1,1,73,2,1,1,225,2,1,0,0,12,1,225,2,1,-139868.01989920562,-4792501.910127486,4197127.466276646,-2.25188,-0.00843689,-0.137771,123.375,3.375,16.75,-0.109375,-7.07812,6.67188,0.0,0.00195312,0.0,4,0,41.38952025514565,-91.67168908347928,10682.720257462202,83.28402153054776,4.323723811664912,2.194258878957684,189.551,8985.541639556859,11104.004603147412,150,True,7.628342649464172,False,176.55867533522118,178.9375589823266,False,3.805258159079873,True,False
3,1970-07-23 09:46:55.005289782,2025-09-09,2025-09-26 18:11:40.528,HH,D,2544347616,JASSM,3,116,76,2,2,1,225,9,2,0,1,26,0,0,0,0,-125833.91638358062,-4791657.712861861,4198211.261198521,2.29608,-3.09902,0.0777537,-81.5,-3.375,-6.25,0.0,0.0,0.0,0.0,0.0,0.0,2,0,41.40417345623895,-91.50430102952708,10000.001365143791,-95.9468122368244,0.0030393816937486,-0.0019750739158045,,8985.541639556859,11104.004603147412,150,3,2025-09-09,2025-09-26 18:11:40.612,HH,D,4122483940,HAWK11,1,1,73,2,1,1,225,2,1,0,0,12,1,225,2,1,-139769.46521170562,-4792499.482393111,4197140.718229771,-2.26885,-0.0122718,-0.140263,123.0,3.125,16.5,-0.203125,-7.4375,7.03125,-0.0351562,0.0117188,0.0,4,0,41.38964126816881,-91.67051268077198,10698.41930292231,83.32080031614777,4.58241835079393,1.194332708339289,188.842,8985.541639556859,11104.004603147412,150,True,7.530798865703339,False,176.61858265225706,178.91777097315,False,3.813480792661566,True,False
3,1970-07-23 09:46:55.015331128,2025-09-09,2025-09-26 18:11:41.533,HH,D,2545481010,JASSM,3,116,76,2,2,1,225,9,2,0,1,26,0,0,0,0,-125911.50232108062,-4791661.012666549,4198205.208464146,2.29608,-3.09902,0.0777537,-81.5,-3.375,-6.25,0.0,0.0,0.0,0.0,0.0,0.0,2,0,41.40410083741479,-91.50522707994423,9999.999147404342,-95.94742469509396,0.0037377638599472,-0.0019748134277191,,8985.541639556859,11104.004603147412,150,3,2025-09-09,2025-09-26 18:11:41.519,HH,D,4123358806,HAWK11,1,1,73,2,1,1,225,2,1,0,0,12,1,225,2,1,-139680.20349295562,-4792497.575166549,4197152.942839146,-2.29838,-0.0122718,-0.135278,122.75,1.625,17.75,-0.09375,-7.26562,6.78125,-0.0390625,-0.00195312,0.0078125,4,0,41.38975062606274,-91.66944710026604,10713.841866662233,83.537095462587,4.39507942364655,-0.4806834654209763,188.28,8985.541639556859,11104.004603147412,150,True,7.440514798205359,False,175.83350902757195,178.89745406124098,False,4.715644339673686,True,False
3,1970-07-23 09:46:55.028736845,2025-09-09,2025-09-26 18:11:42.873,HH,D,2546853156,JASSM,3,116,76,2,2,1,225,9,2,0,1,26,0,0,0,0,-126005.43591483062,-4791665.006807174,4198197.880339146,2.29608,-3.09902,0.0777537,-81.5,-3.375,-6.25,0.0,0.0,0.0,0.0,0.0,0.0,2,0,41.404012912796674,-91.50634825029326,9999.99818283462,-95.94816619787233,0.0045832975317093,-0.0019745032582931,,8985.541639556859,11104.004603147412,150,3,2025-09-09,2025-09-26 18:11:43.018,HH,D,4125108538,HAWK11,1,1,73,2,1,1,225,2,1,0,0,12,1,225,2,1,-139500.35778983062,-4792493.270479049,4197178.054167271,-2.3399,-0.0128471,-0.138921,121.875,3.0,17.0,-0.15625,-7.23438,6.79688,-0.00976562,-0.0078125,0.0078125,4,0,41.38997692673447,-91.66730030897912,10744.834899272362,83.40254861669315,4.558764928706864,-2.8742910755324926,187.327,8985.541639556859,11104.004603147412,150,True,7.292260274795348,False,176.3169928597577,178.86040293736798,False,4.184049556223526,True,False
3,1970-07-23 09:46:55.037370225,2025-09-09,2025-09-26 18:11:43.737,HH,D,2548106208,JASSM,3,116,76,2,2,1,225,9,2,0,1,26,0,0,0,0,-126091.21716483062,-4791668.654268111,4198191.188932896,2.29608,-3.09902,0.0777537,-81.5,-3.375,-6.25,0.0,0.0,0.0,0.0,0.0,0.0,2,0,41.403932614553575,-91.50737211346218,10000.002773356737,-95.94884334396086,0.0053554482043292,-0.0019742250303261,,8985.541639556859,11104.004603147412,150,3,2025-09-09,2025-09-26 18:11:43.613,HH,D,4125943636,HAWK11,1,1,73,2,1,1,225,2,1,0,0,12,1,225,2,1,-139415.38903983062,-4792490.852510299,4197190.653776646,-2.35763,-0.00958738,-0.141606,121.375,3.25,17.5,-0.25,-7.26562,6.79688,-0.00195312,-0.00976562,-0.0078125,4,0,41.3900910812079,-91.6662861802424,10760.134121537078,83.16493514926348,4.521680279491995,-3.883254738636246,186.972,8985.541639556859,11104.004603147412,150,True,7.199817846633942,False,176.09036691324923,178.83963353319993,False,4.389731262210289,True,False
3,1970-07-23 09:46:55.047410681,2025-09-09,2025-09-26 18:11:44.741,HH,D,2549417602,JASSM,3,116,76,2,2,1,225,9,2,0,1,26,0,0,0,0,-126180.99060233062,-4791672.469697799,4198184.183073521,2.29608,-3.09902,0.0778495,-81.5,-3.375,-6.25,0.0,0.0,0.0,0.0,0.0,0.0,2,0,41.40384855961136,-91.5084436242251,10000.00067609951,-95.95366247753516,0.0025194983029064,-0.0019742354514696,,8985.541639556859,11104.004603147412,150,3,2025-09-09,2025-09-26 18:11:44.613,HH,D,4127255936,HAWK11,1,1,73,2,1,1,225,2,1,0,0,12,1,225,2,1,-139282.38708670562,-4792486.983369674,4197210.685026646,-2.36588,-0.00613592,-0.146495,120.75,3.75,18.125,-0.1875,-7.21875,6.78125,-0.00390625,0.00390625,-0.00390625,4,0,41.39027233711965,-91.66469878523856,10784.552638168969,82.8252184968767,4.560164217763784,-4.354227739355912,185.958,8985.541639556859,11104.004603147412,150,True,7.079128465509273,False,175.8074837235799,178.8089085745636,False,4.640780520764263,True,False
3,1970-07-23 09:46:55.059251558,2025-09-09,2025-09-26 18:11:45.925,HH,D,2550729986,JASSM,3,116,76,2,2,1,225,9,2,0,1,26,0,0,0,0,-126270.83435233062,-4791676.287080611,4198177.171354771,2.29608,-3.09902,0.0778495,-81.5,-3.375,-6.25,0.0,0.0,0.0,0.0,0.0,0.0,2,0,41.403764432491045,-91.50951597177938,9999.999398213677,-95.95437168712245,0.0033282184869404,-0.0019739958037285,,8985.541639556859,11104.004603147412,150,3,2025-09-09,2025-09-26 18:11:46.113,HH,D,4129005666,HAWK11,1,1,73,2,1,1,225,2,1,0,0,12,1,225,2,1,-139106.43786795562,-4792480.994111861,4197238.177214146,-2.37125,-0.000671117,-0.155411,119.875,4.375,19.0,-0.09375,-7.03125,6.84375,-0.00390625,0.0,-0.0078125,4,0,41.39052396877344,-91.66259910327102,10816.881425718311,82.23642041225848,4.665353924104208,-4.662178641089766,185.445,8985.541639556859,11104.004603147412,150,True,6.935014365345385,False,175.37261816930217,178.7700295455324,False,5.048520571681939,True,False
3,1970-07-23 09:46:55.070308522,2025-09-09,2025-09-26 18:11:47.030,HH,D,2552042166,JASSM,3,116,76,2,2,1,225,9,2,0,1,26,0,0,0,0,-126360.66247733062,-4791680.102510299,4198170.161589146,2.29608,-3.09902,0.0778495,-81.5,-3.375,-6.25,0.0,0.0,0.0,0.0,0.0,0.0,2,0,41.40368032263279,-91.510588130479,10000.000716857096,-95.95508077062529,0.0041367970291569,-0.0019737687468634,,8985.541639556859,11104.004603147412,150,3,2025-09-09,2025-09-26 18:11:47.018,HH,D,4129880532,HAWK11,1,1,73,2,1,1,225,2,1,0,0,12,1,225,2,1,-139019.12146170562,-4792477.339814986,4197252.501432896,-2.37652,0.0022051,-0.161931,119.375,5.0,19.25,0.0,-6.9375,6.71875,0.0,0.00195312,-0.00195312,4,0,41.39065748313593,-91.66155734965994,10832.73000004278,81.84754190774412,4.789734462886821,-4.970349863654367,184.992,8985.541639556859,11104.004603147412,150,True,6.839019273395577,False,175.2288767074644,178.7471045751075,False,5.155259299846822,True,False
