Subject_cm,Timestamp,SampleDate_cm,SampleTime_cm,Configuration_cm,Scenario_cm,DisTime_cm,MarkingTxt_cm,Application_cm,EntId_cm,Site_cm,ExerciseId_cm,ForceId_cm,Category_cm,Country_cm,Domain_cm,Kind_cm,Extra_cm,Specific_cm,Subcategory_cm,AltCategory_cm,AltCountry_cm,AltDomain_cm,AltKind_cm,ECEF_X_cm,ECEF_Y_cm,ECEF_Z_cm,OriPhi_cm,OriPsi_cm,OriTheta_cm,LinVelX_cm,LinVelY_cm,LinVelZ_cm,LinAccX_cm,LinAccY_cm,LinAccZ_cm,AngVelX_cm,AngVelY_cm,AngVelZ_cm,DrAlg_cm,Appearance_cm,Latitude_cm,Longitude_cm,Altitude_cm,Heading_cm,Pitch_cm,Roll_cm,CalibratedAirspeed_cm,CM_Altitude_Lead_cm,CM_Altitude_Wing_cm,CM_Airspeed_cm,Subject_ac,SampleDate_ac,SampleTime_ac,Configuration_ac,Scenario_ac,DisTime_ac,MarkingTxt_ac,Application_ac,EntId_ac,Site_ac,ExerciseId_ac,ForceId_ac,Category_ac,Country_ac,Domain_ac,Kind_ac,Extra_ac,Specific_ac,Subcategory_ac,AltCategory_ac,AltCountry_ac,AltDomain_ac,AltKind_ac,ECEF_X_ac,ECEF_Y_ac,ECEF_Z_ac,OriPhi_ac,OriPsi_ac,OriTheta_ac,LinVelX_ac,LinVelY_ac,LinVelZ_ac,LinAccX_ac,LinAccY_ac,LinAccZ_ac,AngVelX_ac,AngVelY_ac,AngVelZ_ac,DrAlg_ac,Appearance_ac,Latitude_ac,Longitude_ac,Altitude_ac,Heading_ac,Pitch_ac,Roll_ac,CalibratedAirspeed_ac,CM_Altitude_Lead_ac,CM_Altitude_Wing_ac,CM_Airspeed_ac,Bank_Angle_Condition,distance_nm,Distance_Condition,angle_between_vel,angle_between_pos,Cone_Condition,angle_between_pos_nose,Nose_Cone_Condition,Intercept_Criteria
3,1970-07-23 10:29:39.496296890,2025-09-12,2025-09-26 17:25:49.629,AA,C,2331031772,JASSM,3,116,76,2,2,1,225,9,2,0,1,26,0,0,0,0,-163219.89636404935,-4785340.071260299,4204087.642057896,-2.36559,-0.397301,0.382249,74.625,-31.125,-32.375,0.0,0.0,0.0,0.0,0.0,0.0,2,0,41.47471320276187,-91.95350529382536,10002.627981969668,119.85372276700912,-0.00360792141222,0.0050451305734155,,9351.585978208032,10940.833293995036,150,3,2025-09-12,2025-09-26 17:25:49.707,AA,C,1519900810,AMBUSH51,1,1,48,2,1,1,225,2,1,0,0,9,1,225,2,1,-143938.3524837993,-4792154.116884596,4196771.582627458,2.26531,3.01021,-0.125176,-108.866,16.9771,14.9668,-0.0855905,-7.2177,6.76986,-0.012907,0.00965292,-0.00949271,4,0,41.38846908416633,-91.72043326376829,9351.585978208032,-80.79032842199484,0.4140593607350976,-1.926783463811584,189.037,9351.585978208032,10940.833293995036,150,True,11.685877052127333,False,160.64233957940326,176.34078500451128,False,15.759220463572515,True,False
3,1970-07-23 10:29:39.505358717,2025-09-12,2025-09-26 17:25:50.535,AA,C,2332165176,JASSM,3,116,76,2,2,1,225,9,2,0,1,26,0,0,0,0,-163149.00329764312,-4785369.825166549,4204056.731901646,-2.36559,-0.397301,0.382249,74.625,-31.125,-32.375,0.0,0.0,0.0,0.0,0.0,0.0,2,0,41.47434193893065,-91.95264533208014,10002.623084884135,119.85429230857618,-0.0028642871313963,0.0050438751143071,,9351.585978208032,10940.833293995036,150,3,2025-09-12,2025-09-26 17:25:50.474,AA,C,1520815442,AMBUSH51,1,1,48,2,1,1,225,2,1,0,0,9,1,225,2,1,-144021.91098850963,-4792141.17869805,4196782.762489704,2.26463,3.01339,-0.12285,-109.064,16.7141,14.933,-0.241241,-7.28187,6.82616,0.00439318,0.0108971,-0.00782408,4,0,41.38860659405683,-91.72143604677152,9350.181569005,-81.01085623414556,0.4611562944358202,-1.94457865746472,189.318,9351.585978208032,10940.833293995036,150,True,11.597334980641673,False,160.52162332579687,176.3871435304375,False,15.924337345862483,True,False
3,1970-07-23 10:29:39.515376574,2025-09-12,2025-09-26 17:25:51.537,AA,C,2333358214,JASSM,3,116,76,2,2,1,225,9,2,0,1,26,0,0,0,0,-163074.38025076812,-4785401.145479049,4204024.196745396,-2.36559,-0.397301,0.382249,74.625,-31.125,-32.375,0.0,0.0,0.0,0.0,0.0,0.0,2,0,41.473951137703295,-91.95174013437725,10002.626875926297,119.8548918048062,-0.0020815284964759,0.0050425565878108,,9351.585978208032,10940.833293995036,150,3,2025-09-12,2025-09-26 17:25:51.507,AA,C,1522048208,AMBUSH51,1,1,48,2,1,1,225,2,1,0,0,9,1,225,2,1,-144134.84849391802,-4792123.85852184,4196797.857727794,2.26143,3.01405,-0.121912,-109.343,16.5311,14.7554,-0.11387,-7.28947,6.77063,-0.00686908,-0.00291803,0.000625219,4,0,41.388791340440186,-91.72279135315326,9348.66680916183,-81.0769312189509,0.4545693490491517,-2.124195886001158,189.587,9351.585978208032,10940.833293995036,150,True,11.491004324070543,False,160.36505215707905,176.45547876923126,False,16.150823251260046,True,False
3,1970-07-23 10:29:39.525256573,2025-09-12,2025-09-26 17:25:52.525,AA,C,2334551260,JASSM,3,116,76,2,2,1,225,9,2,0,1,26,0,0,0,0,-162999.75671561187,-4785432.463838424,4203991.659636021,-2.36559,-0.397301,0.382249,74.625,-31.125,-32.375,0.0,0.0,0.0,0.0,0.0,0.0,2,0,41.47356032788972,-91.95083494250484,10002.625493492778,119.85549129253071,-0.0012987658158728,0.0050412386655701,,9351.585978208032,10940.833293995036,150,3,2025-09-12,2025-09-26 17:25:52.643,AA,C,1523400274,AMBUSH51,1,1,48,2,1,1,225,2,1,0,0,9,1,225,2,1,-144259.46477701253,-4792105.032377422,4196814.413582093,2.26041,3.01674,-0.123603,-109.522,16.2655,14.626,-0.207485,-7.33305,6.95057,-0.00247903,-0.00129309,-0.00248943,4,0,41.388992799379125,-91.72428671730052,9347.487026061086,-81.1074113980869,0.6345335035445976,-2.1639756986176337,189.978,9351.585978208032,10940.833293995036,150,True,11.378607176714434,False,160.20970881894252,176.53448634352026,False,16.385313328689186,True,False
3,1970-07-23 10:29:39.535305466,2025-09-12,2025-09-26 17:25:53.530,AA,C,2335684664,JASSM,3,116,76,2,2,1,225,9,2,0,1,26,0,0,0,0,-162928.86364920562,-4785462.215791549,4203960.749479771,-2.36559,-0.397205,0.382249,74.625,-31.125,-32.375,0.0,0.0,0.0,0.0,0.0,0.0,2,0,41.47318905565513,-91.9499750120296,10002.626754808523,119.85242291865856,-0.0041247930565507,0.0029911417738247,,9351.585978208032,10940.833293995036,150,3,2025-09-12,2025-09-26 17:25:53.441,AA,C,1524354672,AMBUSH51,1,1,48,2,1,1,225,2,1,0,0,9,1,225,2,1,-144347.09636022913,-4792091.871897784,4196826.240637032,2.26269,3.02216,-0.125264,-109.647,15.9415,14.8093,-0.00748679,-7.5806,6.98267,1.14433e-05,0.0104768,0.00101845,4,0,41.38913523810235,-91.72533825178672,9347.255791531315,-81.24180525666182,0.9287978462027752,-1.9967691988327672,190.211,9351.585978208032,10940.833293995036,150,True,11.288004997941377,False,160.15727097848327,176.5871517676739,False,16.485501612386063,True,False
3,1970-07-23 10:29:39.551737221,2025-09-12,2025-09-26 17:25:55.173,AA,C,2336877712,JASSM,3,116,76,2,2,1,225,9,2,0,1,26,0,0,0,0,-162854.23962576812,-4785493.532197799,4203928.210417271,-2.36559,-0.397205,0.382249,74.625,-31.125,-32.375,0.0,0.0,0.0,0.0,0.0,0.0,2,0,41.47279823046293,-91.94906983631684,10002.62391312265,119.85302238671018,-0.0033420263640456,0.0029897747261489,,9351.585978208032,10940.833293995036,150,3,2025-09-12,2025-09-26 17:25:55.041,AA,C,1526263470,AMBUSH51,1,1,48,2,1,1,225,2,1,0,0,9,1,225,2,1,-144522.93191220224,-4792066.890014394,4196850.001536393,2.25647,3.02913,-0.128596,-109.918,14.9172,15.15,0.0713279,-7.62199,6.9564,-0.000729248,0.00614296,0.000102989,4,0,41.38941274047356,-91.7274476896216,9350.374249366974,-81.36339799739207,1.3530948302689425,-2.30511048175935,190.211,9351.585978208032,10940.833293995036,150,True,11.14892377469794,False,159.90642196993633,176.71112098208002,False,16.84705519603801,True,False
3,1970-07-23 10:29:39.555355913,2025-09-12,2025-09-26 17:25:55.535,AA,C,2338070748,JASSM,3,116,76,2,2,1,225,9,2,0,1,26,0,0,0,0,-162779.61657889312,-4785524.848604049,4203895.671354771,-2.36559,-0.397205,0.382345,74.625,-31.125,-32.375,0.0,0.0,0.0,0.0,0.0,0.0,2,0,41.47240739792346,-91.9481646831563,10002.625062685796,119.8574692293586,-0.0064800553844705,0.0029880996260922,,9351.585978208032,10940.833293995036,150,3,2025-09-12,2025-09-26 17:25:55.407,AA,C,1526700904,AMBUSH51,1,1,48,2,1,1,225,2,1,0,0,9,1,225,2,1,-144562.43274405255,-4792061.420331833,4196855.530122687,2.25798,3.03156,-0.128847,-109.932,14.6963,15.3066,-0.208961,-7.7179,7.17107,0.00323012,0.00411646,-0.00451385,4,0,41.38947551623075,-91.72792151839708,9351.84128337856,-81.44463444691125,1.466357318746648,-2.202568044692438,190.333,9351.585978208032,10940.833293995036,150,True,11.081363061123897,False,159.8852626982179,176.72819427476088,False,16.882091325673166,True,False
3,1970-07-23 10:29:39.564256255,2025-09-12,2025-09-26 17:25:56.425,AA,C,2339204142,JASSM,3,116,76,2,2,1,225,9,2,0,1,26,0,0,0,0,-162708.72400076812,-4785554.596650924,4203864.759245396,-2.36559,-0.397205,0.382345,74.625,-31.125,-32.375,0.0,0.0,0.0,0.0,0.0,0.0,2,0,41.47203611565184,-91.94730479058305,10002.62348082152,119.85803869924624,-0.0057364369141915,0.0029868624064452,,9351.585978208032,10940.833293995036,150,3,2025-09-12,2025-09-26 17:25:56.374,AA,C,1527854136,AMBUSH51,1,1,48,2,1,1,225,2,1,0,0,9,1,225,2,1,-144668.71762174592,-4792047.6052966425,4196870.510249772,2.2607,3.03962,-0.131733,-109.967,12.4344,17.0936,-0.055975,-7.77841,7.19302,-0.0017529,0.0102771,0.00171961,4,0,41.38963975546841,-91.72919612818085,9358.238891037856,-81.6253698269392,1.919524314750953,-1.992190252521251,190.064,9351.585978208032,10940.833293995036,150,True,10.981253167870673,False,159.69006545157308,176.8018268429782,False,17.121708528648586,True,False
3,1970-07-23 10:29:39.574277195,2025-09-12,2025-09-26 17:25:57.427,AA,C,2340397188,JASSM,3,116,76,2,2,1,225,9,2,0,1,26,0,0,0,0,-162634.09997733062,-4785585.911104049,4203832.218229771,-2.36559,-0.397205,0.382345,74.625,-31.125,-32.375,0.0,0.0,0.0,0.0,0.0,0.0,2,0,41.471645267833296,-91.94639964774144,10002.623130319724,119.85863813191482,-0.0049536697255359,0.0029855462010923,,9351.585978208032,10940.833293995036,150,3,2025-09-12,2025-09-26 17:25:57.341,AA,C,1529007368,AMBUSH51,1,1,48,2,1,1,225,2,1,0,0,9,1,225,2,1,-144775.44171979802,-4792033.881864682,4196885.607008203,2.25759,3.04949,-0.133137,-109.824,13.2178,16.0027,-0.0523021,-7.8572,7.23632,-0.000356822,0.0148856,-0.00293052,4,0,41.38980414421162,-91.73047595727598,9365.153523504312,-81.93786886914403,2.394071822826966,-2.1071423399521305,190.211,9351.585978208032,10940.833293995036,150,True,10.878605411086209,False,159.6174798379882,176.8766314822191,False,17.281784130984956,True,False
3,1970-07-23 10:29:39.584316589,2025-09-12,2025-09-26 17:25:58.431,AA,C,2341530582,JASSM,3,116,76,2,2,1,225,9,2,0,1,26,0,0,0,0,-162563.20739920562,-4785615.659150924,4203801.304167271,-2.36559,-0.397205,0.382345,74.625,-31.125,-32.375,0.0,0.0,0.0,0.0,0.0,0.0,2,0,41.47127395914803,-91.94553977531092,10002.624547341731,119.85920757986054,-0.0042100445994597,0.0029842975018711,,9351.585978208032,10940.833293995036,150,3,2025-09-12,2025-09-26 17:25:58.441,AA,C,1530319666,AMBUSH51,1,1,48,2,1,1,225,2,1,0,0,9,1,225,2,1,-144895.47377326112,-4792019.7933660615,4196903.054907194,2.25684,3.05752,-0.13655,-109.683,12.3399,16.2816,-0.0750323,-7.82183,7.19996,-0.00375235,0.00285146,-0.0103541,4,0,41.38998417168588,-91.73191489504876,9377.266155417989,-82.09383475439752,2.8660992368648626,-2.095674212819174,190.027,9351.585978208032,10940.833293995036,150,True,10.771516111090571,False,159.40535227461956,176.96687128070553,False,17.57736379761926,True,False
3,1970-07-23 10:29:39.593354117,2025-09-12,2025-09-26 17:25:59.335,AA,C,2342663976,JASSM,3,116,76,2,2,1,225,9,2,0,1,26,0,0,0,0,-162492.31433279935,-4785645.407197799,4203770.388151646,-2.36559,-0.397205,0.382345,74.625,-31.125,-32.375,0.0,0.0,0.0,0.0,0.0,0.0,2,0,41.47090263093948,-91.94467990685462,10002.625208501338,119.85977702098326,-0.0034664091228852,0.0029830396165267,,9351.585978208032,10940.833293995036,150,3,2025-09-12,2025-09-26 17:25:59.207,AA,C,1531234298,AMBUSH51,1,1,48,2,1,1,225,2,1,0,0,9,1,225,2,1,-144979.5060361483,-4792010.51420404,4196915.5743463,2.25594,3.06237,-0.138573,-109.524,11.5502,16.6623,-0.167407,-7.76606,7.35531,0.00311985,0.00101429,0.00876659,4,0,41.39010877746032,-91.73292206197148,9387.847667835287,-82.18987487309886,3.1502996385401807,-2.114207290207873,189.673,9351.585978208032,10940.833293995036,150,True,10.683258307411503,False,159.2537411571546,177.02794663740016,False,17.784288030896818,True,False
3,1970-07-23 10:29:39.604536512,2025-09-12,2025-09-26 17:26:00.453,AA,C,2343857022,JASSM,3,116,76,2,2,1,225,9,2,0,1,26,0,0,0,0,-162417.69030936187,-4785676.717744674,4203737.845182896,-2.36559,-0.397205,0.382345,74.625,-31.125,-32.375,0.0,0.0,0.0,0.0,0.0,0.0,2,0,41.47051177248686,-91.9437747971324,10002.622355170875,119.86037641824922,-0.0026836478375602,0.0029817314859223,,9351.585978208032,10940.833293995036,150,3,2025-09-12,2025-09-26 17:26:00.443,AA,C,1532705664,AMBUSH51,1,1,48,2,1,1,225,2,1,0,0,9,1,225,2,1,-145114.59351924277,-4791996.481159045,4196936.276665144,2.25076,3.07428,-0.142378,-109.019,10.5303,17.0357,-0.0572015,-7.91162,7.12238,-0.00666935,0.0141595,0.00535025,4,0,41.39030770629508,-91.73454083637306,9408.290962387351,-82.47382257489076,3.802700006783831,-2.332449835029008,189.123,9351.585978208032,10940.833293995036,150,True,10.566156630004812,False,159.03287873505488,177.13627819298924,False,18.10843571751701,True,False
3,1970-07-23 10:29:39.613277241,2025-09-12,2025-09-26 17:26:01.327,AA,C,2344990416,JASSM,3,116,76,2,2,1,225,9,2,0,1,26,0,0,0,0,-162346.79773123687,-4785706.463838424,4203706.929167271,-2.36559,-0.397205,0.382345,74.625,-31.125,-32.375,0.0,0.0,0.0,0.0,0.0,0.0,2,0,41.47014044257092,-91.94291495545104,10002.625501030749,119.86094583303608,-0.0019400223149428,0.0029804810725353,,9351.585978208032,10940.833293995036,150,3,2025-09-12,2025-09-26 17:26:01.374,AA,C,1533819128,AMBUSH51,1,1,48,2,1,1,225,2,1,0,0,9,1,225,2,1,-145216.18798289428,-4791986.9292374365,4196952.209596289,2.25131,3.07913,-0.146037,-108.773,8.51837,18.5274,-0.158893,-7.5836,7.17258,0.00149075,0.0075536,-0.00958426,4,0,41.39045379353632,-91.73575790045317,9426.925162086733,-82.49862207118046,4.148720987890142,-2.262503135088645,188.536,9351.585978208032,10940.833293995036,150,True,10.46894856274528,False,158.72897972093625,177.21830237267477,False,18.48934758453332,True,False
3,1970-07-23 10:29:39.622316041,2025-09-12,2025-09-26 17:26:02.231,AA,C,2346123812,JASSM,3,116,76,2,2,1,225,9,2,0,1,26,0,0,0,0,-162275.90466483062,-4785736.207979049,4203676.013151646,-2.36559,-0.397205,0.382345,74.625,-31.125,-32.375,0.0,0.0,0.0,0.0,0.0,0.0,2,0,41.46976911793608,-91.94205511853598,10002.627335931831,119.8615152404745,-0.0011963993062748,0.0029792426885379,,9351.585978208032,10940.833293995036,150,3,2025-09-12,2025-09-26 17:26:02.274,AA,C,1534892828,AMBUSH51,1,1,48,2,1,1,225,2,1,0,0,9,1,225,2,1,-145313.23743076075,-4791978.311955882,4196967.214040533,2.24731,3.08246,-0.14526,-108.402,8.8926,17.4898,-0.115515,-7.62825,7.08377,-0.00217318,0.00113913,-0.0162026,4,0,41.39058885915964,-91.73692033622224,9445.51103413313,-82.65779763397543,4.262255591484649,-2.4756729930311385,187.864,9351.585978208032,10940.833293995036,150,True,10.374247534678789,False,158.5866098278914,177.29895612189753,False,18.713163129881227,True,False
3,1970-07-23 10:29:39.632357344,2025-09-12,2025-09-26 17:26:03.235,AA,C,2347257206,JASSM,3,116,76,2,2,1,225,9,2,0,1,26,0,0,0,0,-162205.01208670562,-4785765.952119674,4203645.095182896,-2.36559,-0.397109,0.382345,74.625,-31.125,-32.375,0.0,0.0,0.0,0.0,0.0,0.0,2,0,41.46939777358092,-91.94119529727286,10002.62849646124,119.8584470203562,-0.0040224221268,0.0009286443066944,,9351.585978208032,10940.833293995036,150,3,2025-09-12,2025-09-26 17:26:03.043,AA,C,1535807460,AMBUSH51,1,1,48,2,1,1,225,2,1,0,0,9,1,225,2,1,-145396.06435996803,-4791971.477119045,4196980.404879431,2.2458,3.08567,-0.148141,-108.049,8.51504,17.3617,-0.18082,-7.68197,7.18826,-0.000799989,0.0109158,-0.00650914,4,0,41.39070363246864,-91.73791223181348,9463.491175873423,-82.65415541256326,4.508579910193138,-2.53513570027928,187.107,9351.585978208032,10940.833293995036,150,True,10.286936648250782,False,158.4230154314812,177.3677270392495,False,18.945305057628577,True,False
3,1970-07-23 10:29:39.641397625,2025-09-12,2025-09-26 17:26:04.139,AA,C,2348390598,JASSM,3,116,76,2,2,1,225,9,2,0,1,26,0,0,0,0,-162134.11902029935,-4785795.694307174,4203614.175261021,-2.36559,-0.397109,0.382345,74.625,-31.125,-32.375,0.0,0.0,0.0,0.0,0.0,0.0,2,0,41.46902642133595,-91.9403354807751,10002.624102604635,119.85901640597142,-0.0032787922938575,0.0009273456040701,,9351.585978208032,10940.833293995036,150,3,2025-09-12,2025-09-26 17:26:04.241,AA,C,1537239058,AMBUSH51,1,1,48,2,1,1,225,2,1,0,0,9,1,225,2,1,-145525.69750965646,-4791961.383603269,4197001.531560575,2.24871,3.09413,-0.151459,-107.378,7.60219,17.6638,-0.256964,-7.66424,7.08509,0.00626363,0.00959258,-0.0090329,4,0,41.39088290816325,-91.73946444082355,9494.169345761078,-82.82796687661651,4.995316552236845,-2.310212420076344,186.312,9351.585978208032,10940.833293995036,150,True,10.175495520536357,False,158.19977762541947,177.48490339959056,False,19.28512603350619,True,False
3,1970-07-23 10:29:39.650276466,2025-09-12,2025-09-26 17:26:05.027,AA,C,2349464342,JASSM,3,116,76,2,2,1,225,9,2,0,1,26,0,0,0,0,-162066.95739920562,-4785823.870088424,4203584.884245396,-2.36559,-0.397109,0.382345,74.625,-31.125,-32.375,0.0,0.0,0.0,0.0,0.0,0.0,2,0,41.46867462446976,-91.93952093001089,10002.624038392874,119.8595558119534,-0.0025743110985972,0.0009261283285202,,9351.585978208032,10940.833293995036,150,3,2025-09-12,2025-09-26 17:26:05.007,AA,C,1538153692,AMBUSH51,1,1,48,2,1,1,225,2,1,0,0,9,1,225,2,1,-145607.82629823373,-4791955.363732853,4197015.1829529,2.25143,3.09766,-0.151337,-107.012,7.09632,17.9057,-0.164094,-7.47127,7.12601,0.00214405,0.00543347,-0.0048946,4,0,41.390996047414845,-91.740447705327,9515.110628791552,-82.9660694682129,5.142126561120975,-2.136397400087111,185.591,9351.585978208032,10940.833293995036,150,True,10.090956529287872,False,158.09366410881225,177.55731611317822,False,19.463902871937158,True,False
3,1970-07-23 10:29:39.660315744,2025-09-12,2025-09-26 17:26:06.031,AA,C,2350597736,JASSM,3,116,76,2,2,1,225,9,2,0,1,26,0,0,0,0,-161996.06433279935,-4785853.612275924,4203553.964323521,-2.36559,-0.397109,0.382441,74.625,-31.125,-32.375,0.0,0.0,0.0,0.0,0.0,0.0,2,0,41.46830325966299,-91.93866113262196,10002.626515714055,119.86397271213112,-0.0057513308780914,0.000924574997131,,9351.585978208032,10940.833293995036,150,3,2025-09-12,2025-09-26 17:26:06.007,AA,C,1539346690,AMBUSH51,1,1,48,2,1,1,225,2,1,0,0,9,1,225,2,1,-145713.35879679228,-4791948.107997955,4197032.782384083,2.25195,3.10483,-0.154929,-106.303,6.7028,17.8586,-0.010246,-7.41329,6.86909,-0.00294508,0.00493621,0.00347147,4,0,41.391138952906594,-91.74171099227776,9543.3300712784,-83.07951248503129,5.584613868355805,-2.054241587341685,184.54,9351.585978208032,10940.833293995036,150,True,9.992103069700114,False,157.9692635513818,177.6555470621632,False,19.686835812040897,True,False
3,1970-07-23 10:29:39.670338465,2025-09-12,2025-09-26 17:26:07.033,AA,C,2351790782,JASSM,3,116,76,2,2,1,225,9,2,0,1,26,0,0,0,0,-161921.44030936187,-4785884.916963424,4203521.415495396,-2.36559,-0.397109,0.382441,74.625,-31.125,-32.375,0.0,0.0,0.0,0.0,0.0,0.0,2,0,41.46791234906503,-91.93775609757796,10002.62253472242,119.86457202922836,-0.0049685684790412,0.0009232646420263,,9351.585978208032,10940.833293995036,150,3,2025-09-12,2025-09-26 17:26:07.207,AA,C,1540778288,AMBUSH51,1,1,48,2,1,1,225,2,1,0,0,9,1,225,2,1,-145841.08650831704,-4791940.018012768,4197054.08412937,2.25039,3.11023,-0.153869,-105.579,6.06934,17.9126,-0.0460465,-7.41719,6.8807,-0.00446808,0.00062938,0.000895696,4,0,41.39130778603771,-91.74323972052338,9579.19608047337,-83.32818322884054,5.776073715098467,-2.1205152021424984,183.294,9351.585978208032,10940.833293995036,150,True,9.879644904212187,False,157.77143836638248,177.7803047007885,False,20.01027754705399,True,False
3,1970-07-23 10:29:39.680377234,2025-09-12,2025-09-26 17:26:08.037,AA,C,2353043480,JASSM,3,116,76,2,2,1,225,9,2,0,1,26,0,0,0,0,-161843.08484061187,-4785917.788057174,4203487.239714146,-2.36559,-0.397109,0.382441,74.625,-31.125,-32.375,0.0,0.0,0.0,0.0,0.0,0.0,2,0,41.4675018816073,-91.93680581908974,10002.626482246944,119.86520130168002,-0.0041466638859088,0.0009218868472502,,9351.585978208032,10940.833293995036,150,3,2025-09-12,2025-09-26 17:26:08.240,AA,C,1542011054,AMBUSH51,1,1,48,2,1,1,225,2,1,0,0,9,1,225,2,1,-145949.7603044028,-4791933.478944375,4197072.350117218,2.25099,3.11158,-0.154442,-104.928,5.85379,17.7256,-0.163673,-7.22446,6.92437,-0.00911821,-0.0093658,-0.00328422,4,0,41.391450328691406,-91.7445402760484,9610.872943415718,-83.35465941081056,5.856378415056072,-2.077216519371896,182.353,9351.585978208032,10940.833293995036,150,True,9.774694458132783,False,157.67060445454877,177.88710395968857,False,20.21806168003758,True,False
3,1970-07-23 10:29:39.690254545,2025-09-12,2025-09-26 17:26:09.025,AA,C,2354236526,JASSM,3,116,76,2,2,1,225,9,2,0,1,26,0,0,0,0,-161768.46032889312,-4785949.092744674,4203454.688932896,-2.36549,-0.397109,0.382441,74.625,-31.125,-32.375,0.0,0.0,0.0,0.0,0.0,0.0,2,0,41.46711094328516,-91.93590080049567,10002.626232152605,119.86580059836264,-0.0033638910734483,0.0064120393631457,,9351.585978208032,10940.833293995036,150,3,2025-09-12,2025-09-26 17:26:09.040,AA,C,1542965452,AMBUSH51,1,1,48,2,1,1,225,2,1,0,0,9,1,225,2,1,-146033.39445005305,-4791928.761794882,4197086.3109957725,2.24764,3.11541,-0.152116,-104.423,5.60586,17.5628,-0.211988,-7.21469,6.91669,-0.0106766,0.00201298,-0.00612631,4,0,41.39155749153812,-91.74554105555616,9635.821720272024,-83.59946025764607,5.933032605772925,-2.260309302465508,181.62,9351.585978208032,10940.833293995036,150,True,9.685023004471088,False,157.55075743496107,177.96972251751885,False,20.420740529349587,True,False
3,1970-07-23 10:29:39.700295081,2025-09-12,2025-09-26 17:26:10.029,AA,C,2355369920,JASSM,3,116,76,2,2,1,225,9,2,0,1,26,0,0,0,0,-161697.56726248687,-4785978.829072799,4203423.767057896,-2.36549,-0.397109,0.382441,74.625,-31.125,-32.375,0.0,0.0,0.0,0.0,0.0,0.0,2,0,41.46673957304776,-91.93504104679236,10002.62492608876,119.86636991666258,-0.0026202732180606,0.0064108083825391,,9351.585978208032,10940.833293995036,150,3,2025-09-12,2025-09-26 17:26:09.840,AA,C,1543919852,AMBUSH51,1,1,48,2,1,1,225,2,1,0,0,9,1,225,2,1,-146116.64170861858,-4791924.240495976,4197100.118109502,2.24303,3.11849,-0.151047,-103.912,5.3761,17.3413,-0.128705,-7.09302,6.78818,-0.000213261,-0.00150323,-0.0152393,4,0,41.39166251249616,-91.74653714301998,9660.893410460963,-83.76188899749391,6.025409144982154,-2.5149009539096085,180.666,9351.585978208032,10940.833293995036,150,True,9.597962372478486,False,157.4198174927234,178.0545049543005,False,20.636565016959672,True,False
3,1970-07-23 10:29:39.709338950,2025-09-12,2025-09-26 17:26:10.933,AA,C,2356443662,JASSM,3,116,76,2,2,1,225,9,2,0,1,26,0,0,0,0,-161630.40564139312,-4786007.000947799,4203394.470182896,-2.36549,-0.397109,0.382441,74.625,-31.125,-32.375,0.0,0.0,0.0,0.0,0.0,0.0,2,0,41.466387722305214,-91.93422655485143,10002.62311830542,119.8669092593156,-0.0019157845976805,0.0064096235715913,,9351.585978208032,10940.833293995036,150,3,2025-09-12,2025-09-26 17:26:10.907,AA,C,1545192384,AMBUSH51,1,1,48,2,1,1,225,2,1,0,0,9,1,225,2,1,-146226.69070535465,-4791918.293730279,4197118.382063707,2.24421,3.11982,-0.146234,-103.365,5.22389,17.0671,0.106221,-6.93073,6.552,-0.0103437,0.00688573,-0.00492997,4,0,41.391801230445765,-91.74785391449458,9694.141996634153,-84.02150871124945,5.902014473549011,-2.463123941532338,179.64,9351.585978208032,10940.833293995036,150,True,9.499593711524017,False,157.3078623724613,178.17247013127263,False,20.866445579744894,True,False
3,1970-07-23 10:29:39.717395481,2025-09-12,2025-09-26 17:26:11.739,AA,C,2357517404,JASSM,3,116,76,2,2,1,225,9,2,0,1,26,0,0,0,0,-161563.24353201812,-4786035.172822799,4203365.173307896,-2.36549,-0.397109,0.382441,74.625,-31.125,-32.375,0.0,0.0,0.0,0.0,0.0,0.0,2,0,41.46603586587232,-91.9334120658784,10002.624436814396,119.86744859624068,-0.0012112921888036,0.0064084409994932,,9351.585978208032,10940.833293995036,150,3,2025-09-12,2025-09-26 17:26:11.707,AA,C,1546146782,AMBUSH51,1,1,48,2,1,1,225,2,1,0,0,9,1,225,2,1,-146310.14015874028,-4791913.954380292,4197131.973317663,2.24172,3.1209,-0.144797,-102.886,5.11142,16.759,-0.123813,-6.95409,6.69044,-0.00511306,0.00534609,-0.00978816,4,0,41.39190365442243,-91.74885235284484,9719.216674022016,-84.12499028482817,5.894829344736585,-2.606926960721342,179.102,9351.585978208032,10940.833293995036,150,True,9.414904852537274,False,157.19642088449228,178.2623496779822,False,21.067590579697377,True,False
3,1970-07-23 10:29:39.727276572,2025-09-12,2025-09-26 17:26:12.727,AA,C,2358650798,JASSM,3,116,76,2,2,1,225,9,2,0,1,26,0,0,0,0,-161492.35046561187,-4786064.909150924,4203334.247526646,-2.36549,-0.397013,0.382441,74.625,-31.125,-32.375,0.0,0.0,0.0,0.0,0.0,0.0,2,0,41.465664450622114,-91.93255234057872,10002.624858259263,119.8643805393564,-0.0040373030623704,0.0043573531286255,,9351.585978208032,10940.833293995036,150,3,2025-09-12,2025-09-26 17:26:12.706,AA,C,1547339782,AMBUSH51,1,1,48,2,1,1,225,2,1,0,0,9,1,225,2,1,-146412.76815372898,-4791908.553444346,4197148.573590511,2.24332,3.12156,-0.142173,-102.352,5.07497,16.3992,-0.15867,-6.95735,6.65729,-0.00450761,-0.00112664,-0.0124492,4,0,41.39202921455345,-91.7500802790426,9749.65236751246,-84.26459647365844,5.825375896888846,-2.524172639445097,178.393,9351.585978208032,10940.833293995036,150,True,9.318149084364737,False,157.1047953146834,178.37655342542084,False,21.273137437203903,True,False
3,1970-07-23 10:29:39.737321105,2025-09-12,2025-09-26 17:26:13.732,AA,C,2359784192,JASSM,3,116,76,2,2,1,225,9,2,0,1,26,0,0,0,0,-161421.45739920562,-4786094.643525924,4203303.321745396,-2.36549,-0.397013,0.382441,74.625,-31.125,-32.375,0.0,0.0,0.0,0.0,0.0,0.0,2,0,41.46529304055522,-91.93169262587924,10002.624009102656,119.86494981558243,-0.0032936782865421,0.0043560617801617,,9351.585978208032,10940.833293995036,150,3,2025-09-12,2025-09-26 17:26:13.607,AA,C,1548413480,AMBUSH51,1,1,48,2,1,1,225,2,1,0,0,9,1,225,2,1,-146504.74387141742,-4791903.761207383,4197163.166370518,2.24428,3.12177,-0.138606,-101.915,5.08709,16.0369,-0.108894,-6.88783,6.51124,-0.00435364,-0.00572892,0.000448368,4,0,41.39213952394336,-91.75118073600152,9776.434931428385,-84.42782623308374,5.700682602181964,-2.484297304834336,177.428,9351.585978208032,10940.833293995036,150,True,9.22690489646273,False,157.02519334296392,178.4807025386704,False,21.4565714973154,True,False
3,1970-07-23 10:29:39.746355597,2025-09-12,2025-09-26 17:26:14.635,AA,C,2360917588,JASSM,3,116,76,2,2,1,225,9,2,0,1,26,0,0,0,0,-161350.56384451812,-4786124.377900924,4203272.395964146,-2.36549,-0.397013,0.382441,74.625,-31.125,-32.375,0.0,0.0,0.0,0.0,0.0,0.0,2,0,41.46492162413729,-91.9308329151531,10002.626647923367,119.86551908498446,-0.002550049717212,0.0043547726674572,,9351.585978208032,10940.833293995036,150,3,2025-09-12,2025-09-26 17:26:14.773,AA,C,1549805312,AMBUSH51,1,1,48,2,1,1,225,2,1,0,0,9,1,225,2,1,-146622.42547219846,-4791897.588052411,4197181.331664229,2.24541,3.12183,-0.132978,-101.281,5.14951,15.49,-0.0461097,-6.92411,6.34454,0.00429539,0.00921808,0.000783344,4,0,41.39227747858623,-91.75258877128203,9809.509472558802,-84.67528413001452,5.492472438375697,-2.4431081027304624,176.536,9351.585978208032,10940.833293995036,150,True,9.12274656346479,False,156.91973689670826,178.61985526587895,False,21.700734886715164,True,False
3,1970-07-23 10:29:39.758536164,2025-09-12,2025-09-26 17:26:15.853,AA,C,2362050980,JASSM,3,116,76,2,2,1,225,9,2,0,1,26,0,0,0,0,-161279.67077811187,-4786154.110322799,4203241.468229771,-2.36549,-0.397013,0.382536,74.625,-31.125,-32.375,0.0,0.0,0.0,0.0,0.0,0.0,2,0,41.46455019963298,-91.92997322086492,10002.623813466857,119.86993601584275,-0.0057269357711025,0.0043532266842947,,9351.585978208032,10940.833293995036,150,3,2025-09-12,2025-09-26 17:26:15.973,AA,C,1551236910,AMBUSH51,1,1,48,2,1,1,225,2,1,0,0,9,1,225,2,1,-146744.06696176424,-4791891.139527871,4197199.487092779,2.24494,3.1209,-0.126762,-100.683,5.15275,14.9509,-0.100281,-6.72161,6.48378,0.00198385,-0.00857933,-0.00283273,4,0,41.39241626557224,-91.75404421212222,9842.19073982144,-84.91110176889964,5.2198579897197925,-2.4988226642629794,175.742,9351.585978208032,10940.833293995036,150,True,9.016746060372478,False,156.78440050115393,178.7682278550699,False,21.98414897720363,True,False
3,1970-07-23 10:29:39.765274806,2025-09-12,2025-09-26 17:26:16.527,AA,C,2363184374,JASSM,3,116,76,2,2,1,225,9,2,0,1,26,0,0,0,0,-161208.77771170562,-4786183.842744674,4203210.540495396,-2.36549,-0.397013,0.382536,74.625,-31.125,-32.375,0.0,0.0,0.0,0.0,0.0,0.0,2,0,41.46417876867985,-91.92911353638848,10002.624507430526,119.87050525956126,-0.0049833105107413,0.0043519835609578,,9351.585978208032,10940.833293995036,150,3,2025-09-12,2025-09-26 17:26:16.440,AA,C,1551793644,AMBUSH51,1,1,48,2,1,1,225,2,1,0,0,9,1,225,2,1,-146790.1362487615,-4791888.812151369,4197206.225618511,2.24421,3.12102,-0.127248,-100.522,4.16004,15.7146,-0.137648,-6.72994,6.51757,-0.00073549,0.00017373,0.00478641,4,0,41.39246721197299,-91.75459538969518,9854.554499431822,-84.89463134269718,5.243402522725271,-2.538258315158854,175.399,9351.585978208032,10940.833293995036,150,True,8.94897517265811,False,156.60429020523344,178.8217895556135,False,22.21927647373166,True,False
3,1970-07-23 10:29:39.774316341,2025-09-12,2025-09-26 17:26:17.431,AA,C,2364258116,JASSM,3,116,76,2,2,1,225,9,2,0,1,26,0,0,0,0,-161141.61560233062,-4786212.008760299,4203181.239714146,-2.36549,-0.397013,0.382536,74.625,-31.125,-32.375,0.0,0.0,0.0,0.0,0.0,0.0,2,0,41.46382688446462,-91.92829910506218,10002.622823004654,119.8710445348471,-0.0042788236214115,0.0043508099532552,,9351.585978208032,10940.833293995036,150,3,2025-09-12,2025-09-26 17:26:17.573,AA,C,1553145708,AMBUSH51,1,1,48,2,1,1,225,2,1,0,0,9,1,225,2,1,-146904.24380616657,-4791882.264758486,4197222.25826696,2.24942,3.11951,-0.122642,-99.9674,5.46231,13.9985,-0.198501,-6.57346,6.44832,9.25865e-05,-0.00187774,-0.0174468,4,0,41.39259360273178,-91.75596087153868,9881.829950133812,-85.0385772675076,5.006343212188475,-2.263208068676034,174.593,9351.585978208032,10940.833293995036,150,True,8.849300689556584,False,156.6459449262529,178.96641155707627,False,22.320467548775266,True,False
3,1970-07-23 10:29:39.784942788,2025-09-12,2025-09-26 17:26:18.494,AA,C,2365331858,JASSM,3,116,76,2,2,1,225,9,2,0,1,26,0,0,0,0,-161074.45300467435,-4786240.174775924,4203151.938932896,-2.36549,-0.397013,0.382536,74.625,-31.125,-32.375,0.0,0.0,0.0,0.0,0.0,0.0,2,0,41.46347499455966,-91.92748467670329,10002.624264990263,119.8715838044052,-0.0035743329435811,0.0043496385844323,,9351.585978208032,10940.833293995036,150,3,2025-09-12,2025-09-26 17:26:18.374,AA,C,1554100108,AMBUSH51,1,1,48,2,1,1,225,2,1,0,0,9,1,225,2,1,-146984.14438597177,-4791877.518416243,4197233.181912925,2.25078,3.11642,-0.117955,-99.731,5.69387,13.5402,-0.178101,-6.64362,6.38991,0.00415807,0.00701056,0.00320516,4,0,41.392681012201095,-91.75691707174926,9899.878227050853,-85.12604298633241,4.69801607357982,-2.213615709887507,173.811,9351.585978208032,10940.833293995036,150,True,8.766909560930902,False,156.6031930018029,179.06824735201357,False,22.465126011997302,True,False
3,1970-07-23 10:29:39.798567245,2025-09-12,2025-09-26 17:26:19.856,AA,C,2366584558,JASSM,3,116,76,2,2,1,225,9,2,0,1,26,0,0,0,0,-160996.09753592435,-4786273.034150924,4203117.753386021,-2.36549,-0.397013,0.382536,74.625,-31.125,-32.375,0.0,0.0,0.0,0.0,0.0,0.0,2,0,41.4630644458778,-91.9265345325115,10002.624795566097,119.8722129327503,-0.0027524327430212,0.0043482650869945,,9351.585978208032,10940.833293995036,150,3,2025-09-12,2025-09-26 17:26:20.006,AA,C,1556048672,AMBUSH51,1,1,48,2,1,1,225,2,1,0,0,9,1,225,2,1,-147146.4989856252,-4791867.380043486,4197254.164327251,2.25315,3.10987,-0.110616,-99.2426,6.33044,12.4079,-0.115277,-6.64607,6.34789,-0.00305535,-0.0155743,-0.00157397,4,0,41.392853341754176,-91.75886021417554,9932.712996133463,-85.19850254730049,4.142120718626845,-2.12612602511202,173.261,9351.585978208032,10940.833293995036,150,True,8.636266650099628,False,156.50404339499025,179.2857829717629,False,22.782806269813946,True,False
3,1970-07-23 10:29:39.804276385,2025-09-12,2025-09-26 17:26:20.427,AA,C,2367837256,JASSM,3,116,76,2,2,1,225,9,2,0,1,26,0,0,0,0,-160917.74157889312,-4786305.893525924,4203083.565886021,-2.36549,-0.397013,0.382536,74.625,-31.125,-32.375,0.0,0.0,0.0,0.0,0.0,0.0,2,0,41.46265387624449,-91.92558439446722,10002.625353256615,119.8728420519035,-0.0019305221777702,0.0043468823972826,,9351.585978208032,10940.833293995036,150,3,2025-09-12,2025-09-26 17:26:20.440,AA,C,1556565638,AMBUSH51,1,1,48,2,1,1,225,2,1,0,0,9,1,225,2,1,-147188.88341203175,-4791864.515846422,4197259.502888888,2.2548,3.10703,-0.107959,-99.2085,6.40779,12.2956,-0.223198,-6.47441,6.44895,0.00925345,-0.00745165,0.000762538,4,0,41.39289867893202,-91.75936757302968,9940.450335849211,-85.20659889606799,3.9204047138525215,-2.050414439037299,173.261,9351.585978208032,10940.833293995036,150,True,8.565760442236892,False,156.49807417843382,179.33996127268944,False,22.84320572739406,True,False
3,1970-07-23 10:29:39.815297691,2025-09-12,2025-09-26 17:26:21.529,AA,C,2369089956,JASSM,3,116,76,2,2,1,225,9,2,0,1,26,0,0,0,0,-160839.38562186187,-4786338.750947799,4203049.378386021,-2.36549,-0.396918,0.382536,74.625,-31.125,-32.375,0.0,0.0,0.0,0.0,0.0,0.0,2,0,41.46224331036616,-91.9246342691942,10002.62542206999,119.86983408198358,-0.0046782530547296,0.0022952275813449,,9351.585978208032,10940.833293995036,150,3,2025-09-12,2025-09-26 17:26:21.440,AA,C,1557758638,AMBUSH51,1,1,48,2,1,1,225,2,1,0,0,9,1,225,2,1,-147288.03176594316,-4791857.340894054,4197271.2317856895,2.25665,3.08005,-0.0897314,-99.1437,6.64883,12.0154,-0.057943,-5.25695,5.10783,0.000777102,-0.0354377,0.0062137,4,0,41.393002422871405,-91.76055459486494,9955.738100982024,-84.97600410235582,2.0764250631932213,-2.0844047074349823,173.041,9351.585978208032,10940.833293995036,150,True,8.466905573479872,False,156.50109252665376,179.47547626227396,False,22.976793167583622,True,False
3,1970-07-23 10:29:39.826535178,2025-09-12,2025-09-26 17:26:22.653,AA,C,2370342654,JASSM,3,116,76,2,2,1,225,9,2,0,1,26,0,0,0,0,-160761.02966483062,-4786371.606416549,4203015.190886021,-2.36549,-0.396918,0.382536,74.625,-31.125,-32.375,0.0,0.0,0.0,0.0,0.0,0.0,2,0,41.46183274824296,-91.92368415669144,10002.62500190233,119.87046317406974,-0.0038563550674641,0.0022938122367497,,9351.585978208032,10940.833293995036,150,3,2025-09-12,2025-09-26 17:26:22.473,AA,C,1558991402,AMBUSH51,1,1,48,2,1,1,225,2,1,0,0,9,1,225,2,1,-147391.27795859042,-4791847.779998375,4197281.367083546,2.26266,3.0582,-0.0706625,-99.2989,9.78168,9.05795,0.00951099,-4.86836,4.72513,0.00694398,-0.0389206,-0.000109231,4,0,41.393108837102176,-91.76179144664344,9962.01434211697,-84.97013387088037,0.4187482176930894,-1.8407028348076584,173.212,9351.585978208032,10940.833293995036,150,True,8.366070118990773,False,156.58998242684933,179.61715113443333,False,23.041659360849568,True,False
3,1970-07-23 10:29:39.835254207,2025-09-12,2025-09-26 17:26:23.525,AA,C,2371535702,JASSM,3,116,76,2,2,1,225,9,2,0,1,26,0,0,0,0,-160686.40466483062,-4786402.897432174,4202982.628386021,-2.36549,-0.396918,0.382536,74.625,-31.125,-32.375,0.0,0.0,0.0,0.0,0.0,0.0,2,0,41.46144170880377,-91.92277929541056,10002.62234940511,119.8710622994842,-0.0030735825876247,0.0022924476792087,,9351.585978208032,10940.833293995036,150,3,2025-09-12,2025-09-26 17:26:23.740,AA,C,1560502534,AMBUSH51,1,1,48,2,1,1,225,2,1,0,0,9,1,225,2,1,-147516.48703435244,-4791833.244128406,4197290.68372128,2.2572,3.03362,-0.0454742,-99.664,12.687,6.33483,0.072228,-4.9232,4.7194,0.00541267,-0.0220096,0.00262675,4,0,41.39323528067536,-91.76329249177536,9955.94452189376,-85.11950739498062,-1.5895004333172666,-2.2338414688591395,174.153,9351.585978208032,10940.833293995036,150,True,8.256720001945443,False,156.44746124775605,179.7801317975521,False,23.378711972443277,True,False
3,1970-07-23 10:29:39.846274270,2025-09-12,2025-09-26 17:26:24.627,AA,C,2372788400,JASSM,3,116,76,2,2,1,225,9,2,0,1,26,0,0,0,0,-160608.04870779935,-4786435.752900924,4202948.438932896,-2.36549,-0.396918,0.382536,74.625,-31.125,-32.375,0.0,0.0,0.0,0.0,0.0,0.0,2,0,41.461031118130336,-91.92182920630827,10002.62610192327,119.87169136607586,-0.0022516779251054,0.0022910208453214,,9351.585978208032,10940.833293995036,150,3,2025-09-12,2025-09-26 17:26:24.573,AA,C,1561496700,AMBUSH51,1,1,48,2,1,1,225,2,1,0,0,9,1,225,2,1,-147599.68419393004,-4791821.741977025,4197295.278321668,2.25705,3.02295,-0.0357258,-100.097,14.3495,4.78946,0.00684704,-5.52395,5.22673,-0.012418,-0.0206801,-0.00756608,4,0,41.39331947757341,-91.7642905671052,9943.918267976116,-85.13259764182735,-2.4164355537712527,-2.266565092430225,175.351,9351.585978208032,10940.833293995036,150,True,8.165982982390677,False,156.2667191816954,179.85128065018262,False,23.69135160365963,True,False
3,1970-07-23 10:29:39.857297424,2025-09-12,2025-09-26 17:26:25.729,AA,C,2374100750,JASSM,3,116,76,2,2,1,225,9,2,0,1,26,0,0,0,0,-160525.96130545562,-4786470.170869674,4202912.620573521,-2.36549,-0.396918,0.382632,74.625,-31.125,-32.375,0.0,0.0,0.0,0.0,0.0,0.0,2,0,41.46060097365447,-91.92083388604192,10002.627792732124,119.876198193082,-0.0053110096437529,0.0022893073337179,,9351.585978208032,10940.833293995036,150,3,2025-09-12,2025-09-26 17:26:25.873,AA,C,1563047598,AMBUSH51,1,1,48,2,1,1,225,2,1,0,0,9,1,225,2,1,-147730.6483115738,-4791801.737197606,4197300.536764083,2.25122,3.00902,-0.0198196,-101.115,16.0403,3.15321,-0.049768,-5.99731,5.6585,-0.0144508,-0.0151062,-0.00130349,4,0,41.39344996381885,-91.76586238591636,9916.040900141315,-85.28602959814157,-3.616640610900308,-2.614822814552749,177.342,9351.585978208032,10940.833293995036,150,True,8.049207030903391,False,155.9559246382113,179.77937548383338,False,24.213323320578752,True,False
3,1970-07-23 10:29:39.870533435,2025-09-12,2025-09-26 17:26:27.053,AA,C,2375293798,JASSM,3,116,76,2,2,1,225,9,2,0,1,26,0,0,0,0,-160451.33679373687,-4786501.457979049,4202880.056120396,-2.36549,-0.396918,0.382632,74.625,-31.125,-32.375,0.0,0.0,0.0,0.0,0.0,0.0,2,0,41.460209921704994,-91.91992906641056,10002.6236543048,119.87679727637148,-0.0045282466955995,0.0022880011477771,,9351.585978208032,10940.833293995036,150,3,2025-09-12,2025-09-26 17:26:27.106,AA,C,1564518964,AMBUSH51,1,1,48,2,1,1,225,2,1,0,0,9,1,225,2,1,-147856.71750917466,-4791781.117946963,4197303.72439179,2.24682,3.00571,-0.0132681,-102.243,16.9245,2.05767,-0.21634,-6.7826,6.25408,-0.000956033,-0.00301582,-0.00899753,4,0,41.393571001180206,-91.7673759683486,9881.796918788505,-85.44221221559363,-4.006498437446464,-2.859556643717025,179.31,9351.585978208032,10940.833293995036,150,True,7.9397727454464375,False,155.62548598296812,179.5982291777197,False,24.752509352696524,True,False
3,1970-07-23 10:29:39.878360651,2025-09-12,2025-09-26 17:26:27.836,AA,C,2376606148,JASSM,3,116,76,2,2,1,225,9,2,0,1,26,0,0,0,0,-160369.24939139312,-4786535.873994674,4202844.235807896,-2.36549,-0.396918,0.382632,74.625,-31.125,-32.375,0.0,0.0,0.0,0.0,0.0,0.0,2,0,41.459779759186254,-91.91893377203913,10002.625334171837,119.87745625784116,-0.0036672053584176,0.0022865687923283,,9351.585978208032,10940.833293995036,150,3,2025-09-12,2025-09-26 17:26:27.941,AA,C,1565513130,AMBUSH51,1,1,48,2,1,1,225,2,1,0,0,9,1,225,2,1,-147942.48954370874,-4791766.763645016,4197305.363859115,2.23944,3.0015,-0.00819881,-102.89,17.1325,1.62067,-0.156196,-6.78052,6.01953,-0.0165584,-0.00254561,-0.000408837,4,0,41.39365170355338,-91.76840587064903,9856.553768398684,-85.50019794104088,-4.378869425843432,-3.280845387460353,180.593,9351.585978208032,10940.833293995036,150,True,7.845726167874194,False,155.44112924570499,179.45929935054585,False,25.082576028414145,True,False
3,1970-07-23 10:29:39.889352676,2025-09-12,2025-09-26 17:26:28.935,AA,C,2377918498,JASSM,3,116,76,2,2,1,225,9,2,0,1,26,0,0,0,0,-160287.16198904935,-4786570.290010299,4202808.413542271,-2.36549,-0.396918,0.382632,74.625,-31.125,-32.375,0.0,0.0,0.0,0.0,0.0,0.0,2,0,41.45934957485135,-91.91793849082173,10002.627502094085,119.8781152249807,-0.0028061573948105,0.0022851249772844,,9351.585978208032,10940.833293995036,150,3,2025-09-12,2025-09-26 17:26:28.773,AA,C,1566507294,AMBUSH51,1,1,48,2,1,1,225,2,1,0,0,9,1,225,2,1,-148027.57272733803,-4791752.446995443,4197306.366370187,2.23263,2.99987,-0.00249809,-103.548,17.4961,0.88865,-0.130747,-6.90053,6.04164,-0.00175914,0.00314274,-0.00247487,4,0,41.39372799911776,-91.76942753523024,9829.972942580387,-85.68350807073188,-4.66503331558499,-3.657241917546551,181.461,9351.585978208032,10940.833293995036,150,True,7.752180667566766,False,155.16003625066003,179.3135937937813,False,25.514298787212486,True,False
3,1970-07-23 10:29:39.900586411,2025-09-12,2025-09-26 17:26:30.058,AA,C,2379171198,JASSM,3,116,76,2,2,1,225,9,2,0,1,26,0,0,0,0,-160208.80554373687,-4786603.137666549,4202774.218229771,-2.36549,-0.396918,0.382632,74.625,-31.125,-32.375,0.0,0.0,0.0,0.0,0.0,0.0,2,0,41.45893895115418,-91.91698846007968,10002.621250808044,119.87874422692454,-0.0019842541184445,0.0022837603370884,,9351.585978208032,10940.833293995036,150,3,2025-09-12,2025-09-26 17:26:30.006,AA,C,1567978660,AMBUSH51,1,1,48,2,1,1,225,2,1,0,0,9,1,225,2,1,-148156.52611535788,-4791730.44396909,4197307.2500183545,2.23431,2.99946,0.00248119,-104.457,17.7216,0.175361,-0.274496,-7.17809,6.48462,0.00582254,0.0101627,-0.0155514,4,0,41.39384113565982,-91.77097610781628,9787.565548839111,-85.88319551687398,-4.870600231536904,-3.5445194922945085,183.294,9351.585978208032,10940.833293995036,150,True,7.639533033567477,False,154.8402301234979,179.08499006921446,False,26.066537398897296,True,False
3,1970-07-23 10:29:39.910254294,2025-09-12,2025-09-26 17:26:31.025,AA,C,2380483548,JASSM,3,116,76,2,2,1,225,9,2,0,1,26,0,0,0,0,-160126.71814139312,-4786637.551729049,4202738.395964146,-2.36549,-0.396822,0.382632,74.625,-31.125,-32.375,0.0,0.0,0.0,0.0,0.0,0.0,2,0,41.45850876155741,-91.91599320535386,10002.62786546573,119.87576635891304,-0.0046928407879526,0.0002315566912314,,9351.585978208032,10940.833293995036,150,3,2025-09-12,2025-09-26 17:26:30.806,AA,C,1568933058,AMBUSH51,1,1,48,2,1,1,225,2,1,0,0,9,1,225,2,1,-148240.19054615026,-4791716.265331624,4197307.441715883,2.23497,3.00601,0.00440574,-105.003,17.6179,-0.100345,-0.216081,-7.47968,6.55806,0.00497574,0.00885397,-0.00205875,4,0,41.39391137485638,-91.77198078581252,9759.466817146667,-86.21627914107341,-4.66229513816919,-3.4805041291497014,183.941,9351.585978208032,10940.833293995036,150,True,7.5469591432846554,False,154.65941088672088,178.92855556149092,False,26.404775184999266,True,False
3,1970-07-23 10:29:39.920274568,2025-09-12,2025-09-26 17:26:32.027,AA,C,2381676596,JASSM,3,116,76,2,2,1,225,9,2,0,1,26,0,0,0,0,-160052.09314139312,-4786668.834932174,4202705.827604771,-2.36549,-0.396822,0.382632,74.625,-31.125,-32.375,0.0,0.0,0.0,0.0,0.0,0.0,2,0,41.45811766840626,-91.91508843960654,10002.626519075133,119.8763653817554,-0.00391007337342,0.0002301996603431,,9351.585978208032,10940.833293995036,150,3,2025-09-12,2025-09-26 17:26:32.140,AA,C,1570523724,AMBUSH51,1,1,48,2,1,1,225,2,1,0,0,9,1,225,2,1,-148380.04591964913,-4791693.402119972,4197306.84732889,2.23652,3.01282,0.00874682,-105.915,17.0116,-0.456528,-0.045232,-7.49819,6.4225,0.0148648,-0.00612215,0.00275159,4,0,41.39401760737521,-91.77365992930562,9712.581682848788,-86.66378399243557,-4.53364662308875,-3.358671778366969,185.518,9351.585978208032,10940.833293995036,150,True,7.43204991451059,False,154.29611432914845,178.66004134245435,False,27.03669591435939,True,False
3,1970-07-23 10:29:39.940542974,2025-09-12,2025-09-26 17:26:34.054,AA,C,2382929294,JASSM,3,116,76,2,2,1,225,9,2,0,1,26,0,0,0,0,-159973.73669608062,-4786701.680635299,4202671.630339146,-2.3654,-0.396822,0.382632,74.625,-31.125,-32.375,0.0,0.0,0.0,0.0,0.0,0.0,2,0,41.457707019542255,-91.91413844559956,10002.624156736234,119.8769943440992,-0.0030881697479051,0.0057202532117892,,9351.585978208032,10940.833293995036,150,3,2025-09-12,2025-09-26 17:26:34.075,AA,C,1572830188,AMBUSH51,1,1,48,2,1,1,225,2,1,0,0,9,1,225,2,1,-148586.18271463778,-4791661.328513629,4197305.666226571,2.22937,3.0259,0.0116028,-107.237,16.0218,-0.828768,-0.112328,-7.7686,6.57559,-0.00157397,0.00667975,0.0051089,4,0,41.394162416814105,-91.7761342880983,9646.831123283597,-87.28601130104632,-4.078904136057314,-3.728993120306929,186.911,9351.585978208032,10940.833293995036,150,True,7.283256693795113,False,153.81074411303385,178.24927382903707,False,27.93198534061484,True,False
3,1970-07-23 10:29:39.941731829,2025-09-12,2025-09-26 17:26:34.173,AA,C,2384181994,JASSM,3,116,76,2,2,1,225,9,2,0,1,26,0,0,0,0,-159895.38025076812,-4786734.526338424,4202637.433073521,-2.3654,-0.396822,0.382632,74.625,-31.125,-32.375,0.0,0.0,0.0,0.0,0.0,0.0,2,0,41.4572963628038,-91.91318846357711,10002.62610474657,119.87762329338524,-0.0022662660635207,0.0057188346363364,,9351.585978208032,10940.833293995036,150,3,2025-09-12,2025-09-26 17:26:34.075,AA,C,1572830188,AMBUSH51,1,1,48,2,1,1,225,2,1,0,0,9,1,225,2,1,-148586.18271463778,-4791661.328513629,4197305.666226571,2.22937,3.0259,0.0116028,-107.237,16.0218,-0.828768,-0.112328,-7.7686,6.57559,-0.00157397,0.00667975,0.0051089,4,0,41.394162416814105,-91.7761342880983,9646.831123283597,-87.28601130104632,-4.078904136057314,-3.728993120306929,186.911,9351.585978208032,10940.833293995036,150,True,7.233994877565206,False,153.81074411303385,178.23826982157274,False,27.9429197010426,True,False
3,1970-07-23 10:29:39.952354263,2025-09-12,2025-09-26 17:26:35.235,AA,C,2385434692,JASSM,3,116,76,2,2,1,225,9,2,0,1,26,0,0,0,0,-159817.02380545562,-4786767.372041549,4202603.233854771,-2.3654,-0.396822,0.382728,74.625,-31.125,-32.375,0.0,0.0,0.0,0.0,0.0,0.0,2,0,41.45688568501785,-91.91223849353952,10002.628120742234,119.8821001885658,-0.0053645897457907,0.0057171759613262,,9351.585978208032,10940.833293995036,150,3,2025-09-12,2025-09-26 17:26:35.106,AA,C,1574062954,AMBUSH51,1,1,48,2,1,1,225,2,1,0,0,9,1,225,2,1,-148698.66091378985,-4791644.923412726,4197304.859260332,2.23146,3.03484,0.0110752,-108.095,15.2179,-0.785915,-0.172717,-8.46135,7.3061,0.0128175,0.0143343,-0.0053336,4,0,41.39423379460169,-91.77748402279536,9613.306968129158,-87.60406204287585,-3.6739876757275,-3.593693450688784,187.986,9351.585978208032,10940.833293995036,150,True,7.130843553322924,False,153.58064107086236,177.9971052005484,False,28.41212338874349,True,False
3,1970-07-23 10:29:39.962393807,2025-09-12,2025-09-26 17:26:36.239,AA,C,2386687390,JASSM,3,116,76,2,2,1,225,9,2,0,1,26,0,0,0,0,-159738.66736014312,-4786800.215791549,4202569.032682896,-2.3654,-0.396822,0.382728,74.625,-31.125,-32.375,0.0,0.0,0.0,0.0,0.0,0.0,2,0,41.45647499781517,-91.91128853626635,10002.625405026298,119.882729111313,-0.004542679025408,0.0057157994653854,,9351.585978208032,10940.833293995036,150,3,2025-09-12,2025-09-26 17:26:36.342,AA,C,1575534318,AMBUSH51,1,1,48,2,1,1,225,2,1,0,0,9,1,225,2,1,-148832.81879335124,-4791626.686901917,4197304.144737291,2.23631,3.03742,0.0130897,-108.773,14.2539,-0.648675,-0.181124,-7.64794,6.59378,-0.00352349,0.00675465,0.00352349,4,0,41.39431266931774,-91.77909342872616,9577.141070858645,-87.7898898351754,-3.63833108605476,-3.3058077685941223,188.341,9351.585978208032,10940.833293995036,150,True,7.017684282574965,False,153.3501557083765,177.70187019748076,False,28.934984335085925,True,False
3,1970-07-23 10:29:39.973253201,2025-09-12,2025-09-26 17:26:37.325,AA,C,2387999742,JASSM,3,116,76,2,2,1,225,9,2,0,1,26,0,0,0,0,-159656.57995779935,-4786834.622041549,4202533.204557896,-2.3654,-0.396822,0.382728,74.625,-31.125,-32.375,0.0,0.0,0.0,0.0,0.0,0.0,2,0,41.45604476572685,-91.91029335999426,10002.6271872441,119.8833879659711,-0.0036816423812256,0.005714373235704,,9351.585978208032,10940.833293995036,150,3,2025-09-12,2025-09-26 17:26:37.240,AA,C,1576608018,AMBUSH51,1,1,48,2,1,1,225,2,1,0,0,9,1,225,2,1,-148929.85475704324,-4791614.160222864,4197303.462603715,2.24013,3.04414,0.0115427,-109.234,13.6675,-0.661394,-0.169671,-7.97911,6.72373,-0.00364624,0.00815905,-0.000756296,4,0,41.39436464111306,-91.78025726631388,9552.262359785176,-87.97942780853255,-3.2900451243723445,-3.0803120703307907,188.769,9351.585978208032,10940.833293995036,150,True,6.92015477788659,False,153.1634100264096,177.4750880588504,False,29.34678920793347,True,False
3,1970-07-23 10:29:39.984270061,2025-09-12,2025-09-26 17:26:38.427,AA,C,2389252440,JASSM,3,116,76,2,2,1,225,9,2,0,1,26,0,0,0,0,-159578.22302420562,-4786867.463838424,4202499.003386021,-2.3654,-0.396822,0.382728,74.625,-31.125,-32.5,0.0,0.0,0.0,0.0,0.0,0.0,2,0,41.45563407412941,-91.90934342220164,10002.628457735576,119.88401686533098,-0.0028597340960179,0.005713008727102,,9351.585978208032,10940.833293995036,150,3,2025-09-12,2025-09-26 17:26:38.373,AA,C,1577960082,AMBUSH51,1,1,48,2,1,1,225,2,1,0,0,9,1,225,2,1,-149054.87374119015,-4791598.885291046,4197302.494795809,2.2415,3.04958,0.0125903,-109.796,12.8781,-0.63021,-0.212018,-7.9331,6.86523,-0.00658612,0.00702721,-0.00649458,4,0,41.39442584238994,-91.78175641452914,9522.149241969464,-88.23195220424999,-3.095019880226071,-2.9919636502019635,189.245,9351.585978208032,10940.833293995036,150,True,6.812074925739656,False,152.87170130424707,177.24377373925165,False,29.871681841433976,True,False
3,1970-07-23 10:29:39.994311542,2025-09-12,2025-09-26 17:26:39.431,AA,C,2390505140,JASSM,3,116,76,2,2,1,225,9,2,0,1,26,0,0,0,0,-159499.86657889312,-4786900.303682174,4202464.800261021,-2.3654,-0.396822,0.382728,74.625,-31.125,-32.5,0.0,0.0,0.0,0.0,0.0,0.0,2,0,41.45522337301837,-91.90839350300952,10002.62503649082,119.88464574725396,-0.002037829234113,0.005711640291543,,9351.585978208032,10940.833293995036,150,3,2025-09-12,2025-09-26 17:26:39.273,AA,C,1579033782,AMBUSH51,1,1,48,2,1,1,225,2,1,0,0,9,1,225,2,1,-149154.06562806247,-4791587.343020266,4197301.946004601,2.24265,3.05573,0.0142231,-110.263,12.2729,-0.511345,-0.21984,-7.79533,6.72863,0.00245198,0.0126968,-0.00457211,4,0,41.39447243312031,-91.78294565107608,9500.157730475768,-88.53642007702987,-2.891738265505304,-2.914475497146464,189.551,9351.585978208032,10940.833293995036,150,True,6.7163569881665985,False,152.73257068964216,176.9964847227853,False,30.25563192270964,False,False
3,1970-07-23 10:29:40.005330979,2025-09-12,2025-09-26 17:26:40.533,AA,C,2391817490,JASSM,3,116,76,2,2,1,225,9,2,0,1,26,0,0,0,0,-159417.77868826812,-4786934.706025924,4202428.968229771,-2.3654,-0.396726,0.382728,74.625,-31.125,-32.5,0.0,0.0,0.0,0.0,0.0,0.0,2,0,41.45479311280284,-91.90739836071828,10002.622456278044,119.881668025362,-0.0047464098248265,0.0036589582358919,,9351.585978208032,10940.833293995036,150,3,2025-09-12,2025-09-26 17:26:40.406,AA,C,1580385846,AMBUSH51,1,1,48,2,1,1,225,2,1,0,0,9,1,225,2,1,-149279.0719183124,-4791573.870891668,4197301.350995265,2.25097,3.06937,0.00738311,-110.586,11.2937,-0.275315,-0.143181,-8.17202,7.31534,0.0106662,0.00284729,-0.00368993,4,0,41.39452539549532,-91.78444398927913,9475.301835455568,-88.76080266520364,-2.045026853440129,-2.436935140503856,189.868,9351.585978208032,10940.833293995036,150,True,6.606575256871047,False,152.53354759314485,176.6781856738684,False,30.768208224877412,False,False
3,1970-07-23 10:29:40.016351959,2025-09-12,2025-09-26 17:26:41.635,AA,C,2393129832,JASSM,3,116,76,2,2,1,225,9,2,0,1,26,0,0,0,0,-159335.69177420562,-4786969.108369674,4202393.136198521,-2.3654,-0.396726,0.382728,74.625,-31.125,-32.5,0.0,0.0,0.0,0.0,0.0,0.0,2,0,41.45436284375316,-91.906403243255,10002.624686581796,119.88232681920232,-0.0038853762398135,0.0036574716885722,,9351.585978208032,10940.833293995036,150,3,2025-09-12,2025-09-26 17:26:41.573,AA,C,1581777678,AMBUSH51,1,1,48,2,1,1,225,2,1,0,0,9,1,225,2,1,-149407.30926694602,-4791561.3185952855,4197301.797806217,2.26225,3.08547,-6.59097e-05,-110.777,9.93038,0.652655,-0.240352,-8.54499,7.34989,0.00758273,0.0172076,0.00258306,4,0,41.39457930170254,-91.78598058915756,9455.224809364336,-89.05186460691289,-1.069768218939033,-1.786349920274908,189.905,9351.585978208032,10940.833293995036,150,True,6.495535399658962,False,152.49790485375917,176.3426382465135,False,31.1283170750822,False,False
3,1970-07-23 10:29:40.035331590,2025-09-12,2025-09-26 17:26:43.533,AA,C,2394382540,JASSM,3,116,76,2,2,1,225,9,2,0,1,26,0,0,0,0,-159257.33435233062,-4787001.946260299,4202358.931120396,-2.3654,-0.396726,0.382728,74.625,-31.125,-32.5,0.0,0.0,0.0,0.0,0.0,0.0,2,0,41.453952116923446,-91.90545335025786,10002.625484928154,119.88295566801504,-0.0030634635295078,0.00365605388006,,9351.585978208032,10940.833293995036,150,3,2025-09-12,2025-09-26 17:26:43.573,AA,C,1584163676,AMBUSH51,1,1,48,2,1,1,225,2,1,0,0,9,1,225,2,1,-149628.96586647446,-4791543.307101017,4197304.861471717,2.26434,3.09634,-0.00166358,-110.815,8.22921,1.87372,-0.0568171,-7.38439,6.31096,-0.00489252,-0.00623242,0.00298461,4,0,41.394665980669295,-91.78863522043176,9434.577983854464,-89.3968715269812,-0.5400610337480831,-1.6609196307324454,189.282,9351.585978208032,10940.833293995036,150,True,6.344276370116997,False,152.45067711283056,175.762184096578,False,31.739651653685662,False,False
3,1970-07-23 10:29:40.037250977,2025-09-12,2025-09-26 17:26:43.725,AA,C,2395635240,JASSM,3,116,76,2,2,1,225,9,2,0,1,26,0,0,0,0,-159178.97790701812,-4787034.784150924,4202324.724089146,-2.3654,-0.396726,0.382728,74.625,-31.125,-32.5,0.0,0.0,0.0,0.0,0.0,0.0,2,0,41.453541368853706,-91.90450348092052,10002.626431415309,119.88358449604137,-0.0022415516875928,0.0036546200872575,,9351.585978208032,10940.833293995036,150,3,2025-09-12,2025-09-26 17:26:43.773,AA,C,1584402276,AMBUSH51,1,1,48,2,1,1,225,2,1,0,0,9,1,225,2,1,-149651.1210026418,-4791541.649325999,4197305.220144362,2.26417,3.09595,-0.00190577,-110.805,8.17326,1.87554,-0.215904,-7.46137,6.57759,0.00729144,0.0121143,-0.00476352,4,0,41.39467414748124,-91.78890050502356,9432.980063349867,-89.3718219317535,-0.5474909261925428,-1.6711771157141058,189.208,9351.585978208032,10940.833293995036,150,True,6.284971251974614,False,152.433520540067,175.67273587488117,False,31.84590303876645,False,False
3,1970-07-23 10:29:40.047271367,2025-09-12,2025-09-26 17:26:44.727,AA,C,2396828286,JASSM,3,116,76,2,2,1,225,9,2,0,1,26,0,0,0,0,-159104.35193045562,-4787066.055635299,4202292.145964146,-2.3654,-0.396726,0.382728,74.625,-31.125,-32.5,0.0,0.0,0.0,0.0,0.0,0.0,2,0,41.45315018911393,-91.90359884621851,10002.624647064751,119.88418337328278,-0.0014587810848109,0.0036532717283894,,9351.585978208032,10940.833293995036,150,3,2025-09-12,2025-09-26 17:26:44.840,AA,C,1585674808,AMBUSH51,1,1,48,2,1,1,225,2,1,0,0,9,1,225,2,1,-149770.28057951306,-4791533.035746183,4197307.243194152,2.27557,3.1024,-0.00503228,-110.7,7.52851,2.21749,-0.147864,-7.95597,6.51751,0.0303736,0.000968517,-0.00314066,4,0,41.39471689580084,-91.79032720520335,9425.33842134001,-89.48283084634188,-0.1506742364604721,-1.0159076719308782,188.854,9351.585978208032,10940.833293995036,150,True,6.183760289964438,False,152.36106942454148,175.32850432574247,False,32.25642627654284,False,False
3,1970-07-23 10:29:40.058292992,2025-09-12,2025-09-26 17:26:45.829,AA,C,2398080984,JASSM,3,116,76,2,2,1,225,9,2,0,1,26,0,0,0,0,-159025.99548514312,-4787098.889619674,4202257.938932896,-2.3654,-0.396726,0.382824,74.625,-31.125,-32.5,0.0,0.0,0.0,0.0,0.0,0.0,2,0,41.45273944893462,-91.90264900183053,10002.624409006105,119.88866027505952,-0.0045569769916756,0.003651683041253,,9351.585978208032,10940.833293995036,150,3,2025-09-12,2025-09-26 17:26:45.672,AA,C,1586668974,AMBUSH51,1,1,48,2,1,1,225,2,1,0,0,9,1,225,2,1,-149862.19761068333,-4791526.7883780245,4197308.961390725,2.31862,3.10407,-0.00657258,-110.5,7.4196,2.38479,-0.172308,-7.48368,6.31104,0.0841549,-0.00240621,-0.00364624,4,0,41.39474856210053,-91.7914275834698,9420.767375553012,-89.48033298684727,-0.0200465948008604,1.4509289554702005,188.61,9351.585978208032,10940.833293995036,150,True,6.092865057420974,False,152.39720376349436,175.0442969790582,False,32.50401256880299,False,False
3,1970-07-23 10:29:40.068331103,2025-09-12,2025-09-26 17:26:46.833,AA,C,2399333680,JASSM,3,116,76,2,2,1,225,9,2,0,1,26,0,0,0,0,-158947.63903983062,-4787131.723604049,4202223.729948521,-2.3654,-0.396726,0.382824,74.625,-31.125,-32.5,0.0,0.0,0.0,0.0,0.0,0.0,2,0,41.452328687709205,-91.90169916942592,10002.624239256673,119.88928906360115,-0.0037350709159134,0.0036503125133155,,9351.585978208032,10940.833293995036,150,3,2025-09-12,2025-09-26 17:26:47.006,AA,C,1588259638,AMBUSH51,1,1,48,2,1,1,225,2,1,0,0,9,1,225,2,1,-150008.88785752832,-4791516.472781014,4197312.466081569,2.41683,3.09817,-0.0103924,-110.396,7.83791,3.4005,-0.213626,-7.5205,6.61366,0.0471265,0.0017321,0.013475,4,0,41.39480628010615,-91.79318380782648,9414.286183126069,-89.09380817763451,-0.127550052446207,7.0745997940760335,188.145,9351.585978208032,10940.833293995036,150,True,5.977121601037458,False,152.94045995158098,174.60205448254925,False,32.40160202972186,False,False
3,1970-07-23 10:29:40.079352449,2025-09-12,2025-09-26 17:26:47.935,AA,C,2400586382,JASSM,3,116,76,2,2,1,225,9,2,0,1,26,0,0,0,0,-158869.28161795562,-4787164.555635299,4202189.520964146,-2.3654,-0.396726,0.382824,74.625,-31.125,-32.5,0.0,0.0,0.0,0.0,0.0,0.0,2,0,41.4519179304349,-91.90074933810472,10002.623500089632,119.88991784630142,-0.0029131635898836,0.0036489562725887,,9351.585978208032,10940.833293995036,150,3,2025-09-12,2025-09-26 17:26:47.740,AA,C,1589134504,AMBUSH51,1,1,48,2,1,1,225,2,1,0,0,9,1,225,2,1,-150089.85125178506,-4791510.170573899,4197315.039691348,2.43552,3.08715,-0.0192236,-110.357,8.7125,4.01723,-0.153287,-7.24829,6.56943,-0.0106807,0.00430163,0.0151394,4,0,41.39484606164565,-91.7941533580344,9410.603231669813,-88.29733306282999,-0.2657498899344853,8.13347744674746,187.828,9351.585978208032,10940.833293995036,150,True,5.891130999527689,False,153.47636588116342,174.3330853983101,False,32.13986222707701,False,False
3,1970-07-23 10:29:40.090369454,2025-09-12,2025-09-26 17:26:49.036,AA,C,2401898734,JASSM,3,116,76,2,2,1,225,9,2,0,1,26,0,0,0,0,-158787.19372733062,-4787198.952119674,4202153.681120396,-2.3654,-0.39663,0.382824,74.625,-31.125,-32.5,0.0,0.0,0.0,0.0,0.0,0.0,2,0,41.45148758604353,-91.89975429917514,10002.625891569023,119.88694028187106,-0.0056217294513327,0.0015958277978396,,9351.585978208032,10940.833293995036,150,3,2025-09-12,2025-09-26 17:26:48.939,AA,C,1590566102,AMBUSH51,1,1,48,2,1,1,225,2,1,0,0,9,1,225,2,1,-150223.07752820555,-4791498.731378138,4197320.464181419,2.4402,3.07444,-0.0299966,-110.53,9.8522,5.38297,-0.0949159,-7.25359,6.72208,0.010739,-0.00225641,0.0218452,4,0,41.39492589409321,-91.79574916863815,9404.501682626844,-87.3542055509386,-0.4016976304210079,8.378202216445525,188.182,9351.585978208032,10940.833293995036,150,True,5.778714170834505,False,154.3839311071002,173.91021302292125,False,31.657235873534024,False,False
3,1970-07-23 10:29:40.100420999,2025-09-12,2025-09-26 17:26:50.042,AA,C,2403151432,JASSM,3,116,76,2,2,1,225,9,2,0,1,26,0,0,0,0,-158708.83630545562,-4787231.782197799,4202119.470182896,-2.3654,-0.39663,0.382824,74.625,-31.125,-32.5,0.0,0.0,0.0,0.0,0.0,0.0,2,0,41.45107681110667,-91.8988044931659,10002.62493634003,119.8875690374138,-0.0047998218261597,0.0015944176960899,,9351.585978208032,10940.833293995036,150,3,2025-09-12,2025-09-26 17:26:50.106,AA,C,1591957934,AMBUSH51,1,1,48,2,1,1,225,2,1,0,0,9,1,225,2,1,-150351.25679076437,-4791486.190469684,4197327.254536067,2.44178,3.06103,-0.0440603,-110.794,11.1,6.76025,-0.156929,-7.22864,6.86528,-0.0328828,-0.0152622,0.021841,4,0,41.3950224213993,-91.79728510510068,9398.272720181689,-86.24276090582474,-0.442814611233581,8.432220093043334,188.5,9351.585978208032,10940.833293995036,150,True,5.670531844090776,False,155.3208449590455,173.49693427737873,False,31.136315579063446,False,False
