Subject_cm,Timestamp,SampleDate_cm,SampleTime_cm,Configuration_cm,Scenario_cm,DisTime_cm,MarkingTxt_cm,Application_cm,EntId_cm,Site_cm,ExerciseId_cm,ForceId_cm,Category_cm,Country_cm,Domain_cm,Kind_cm,Extra_cm,Specific_cm,Subcategory_cm,AltCategory_cm,AltCountry_cm,AltDomain_cm,AltKind_cm,ECEF_X_cm,ECEF_Y_cm,ECEF_Z_cm,OriPhi_cm,OriPsi_cm,OriTheta_cm,LinVelX_cm,LinVelY_cm,LinVelZ_cm,LinAccX_cm,LinAccY_cm,LinAccZ_cm,AngVelX_cm,AngVelY_cm,AngVelZ_cm,DrAlg_cm,Appearance_cm,Latitude_cm,Longitude_cm,Altitude_cm,Heading_cm,Pitch_cm,Roll_cm,CalibratedAirspeed_cm,CM_Altitude_Lead_cm,CM_Altitude_Wing_cm,CM_Airspeed_cm,Subject_ac,SampleDate_ac,SampleTime_ac,Configuration_ac,Scenario_ac,DisTime_ac,MarkingTxt_ac,Application_ac,EntId_ac,Site_ac,ExerciseId_ac,ForceId_ac,Category_ac,Country_ac,Domain_ac,Kind_ac,Extra_ac,Specific_ac,Subcategory_ac,AltCategory_ac,AltCountry_ac,AltDomain_ac,AltKind_ac,ECEF_X_ac,ECEF_Y_ac,ECEF_Z_ac,OriPhi_ac,OriPsi_ac,OriTheta_ac,LinVelX_ac,LinVelY_ac,LinVelZ_ac,LinAccX_ac,LinAccY_ac,LinAccZ_ac,AngVelX_ac,AngVelY_ac,AngVelZ_ac,DrAlg_ac,Appearance_ac,Latitude_ac,Longitude_ac,Altitude_ac,Heading_ac,Pitch_ac,Roll_ac,CalibratedAirspeed_ac,CM_Altitude_Lead_ac,CM_Altitude_Wing_ac,CM_Airspeed_ac,Bank_Angle_Condition,distance_nm,Distance_Condition,angle_between_vel,angle_between_pos,Cone_Condition,angle_between_pos_nose,Nose_Cone_Condition,Intercept_Criteria
3,1970-07-23 10:29:46.356452078,2025-09-12,2025-09-26 17:37:15.645,AA,D,3149521304,JASSM,3,126,76,2,2,1,225,9,2,0,1,26,0,0,0,0,-121372.35418092164,-4791467.352613744,4198558.745573521,2.29618,-3.09845,0.0772743,-86.75,-3.625,-6.625,0.0,0.0,0.0,0.0,0.0,0.0,2,0,41.40833655641597,-91.45104543535884,10002.62706053778,-95.91283872915557,0.005690765735239,0.0009495863027823,,9140.793540731764,11002.764919195506,150,3,2025-09-12,2025-09-26 17:37:15.533,AA,D,1658441284,HAWK11,1,1,73,2,1,1,225,2,1,0,0,12,1,225,2,1,-142467.69372733062,-4792454.147432174,4197242.126432896,2.37968,2.62215,-0.522033,-88.75,37.5,36.375,-0.078125,-7.70312,6.70312,0.0488281,-0.00585938,0.00390625,4,0,41.39012301924559,-91.70275896986392,11002.334048836392,-49.91956951337846,1.3639701808634843,-2.1837840371420008,196.101,9140.793540731764,11002.764919195506,150,True,11.379925997300893,False,35.2643991941059,179.15472534894727,False,145.10535621020884,False,False
3,1970-07-23 10:29:46.368158590,2025-09-12,2025-09-26 17:37:16.815,AA,D,3150774002,JASSM,3,126,76,2,2,1,225,9,2,0,1,26,0,0,0,0,-121463.58464967164,-4791471.280348119,4198551.671354771,2.29618,-3.09845,0.0772743,-86.75,-3.625,-6.625,0.0,0.0,0.0,0.0,0.0,0.0,2,0,41.4082516766448,-91.45213446819557,10002.624525430598,-95.91355903770828,0.0065119554586972,0.0009498672256411,,9140.793540731764,11002.764919195506,150,3,2025-09-12,2025-09-26 17:37:16.737,AA,D,1660151250,HAWK11,1,1,73,2,1,1,225,2,1,0,0,12,1,225,2,1,-142594.64294608062,-4792400.317354049,4197294.813932896,2.42973,2.61898,-0.534113,-88.0,37.125,36.25,0.03125,-7.78125,6.73438,0.0136719,0.00585938,0.0195312,4,0,41.39077643940697,-91.7042944910126,10993.478838165003,-49.3449538391684,1.780576331679698,0.6083413936433915,196.37,9140.793540731764,11002.764919195506,150,True,11.395779278178486,False,35.30995747660518,179.02927925196767,False,145.29347491722473,False,False
3,1970-07-23 10:29:46.377256900,2025-09-12,2025-09-26 17:37:17.725,AA,D,3152026702,JASSM,3,126,76,2,2,1,225,9,2,0,1,26,0,0,0,0,-121554.81121217164,-4791475.208082494,4198544.597136021,2.29618,-3.09845,0.0773702,-86.75,-3.625,-6.625,0.0,0.0,0.0,0.0,0.0,0.0,2,0,41.4081667871547,-91.45322345151708,10002.626053279386,-95.91838962525624,0.0036888888433896,0.000949755857797,,9140.793540731764,11002.764919195506,150,3,2025-09-12,2025-09-26 17:37:17.941,AA,D,1661543082,HAWK11,1,1,73,2,1,1,225,2,1,0,0,12,1,225,2,1,-142696.63318045562,-4792357.258760299,4197337.671354771,2.43347,2.61946,-0.550316,-87.25,36.5,36.875,-0.15625,-7.96875,6.82812,-0.0449219,0.0136719,0.00390625,4,0,41.39130382836271,-91.70552807570392,10987.98234505035,-48.74890008520101,2.493403878279547,0.8592118483828998,196.565,9140.793540731764,11002.764919195506,150,True,11.398954177427587,False,35.544453614554506,178.90112043640025,False,145.25719526149672,False,False
3,1970-07-23 10:29:46.388252002,2025-09-12,2025-09-26 17:37:18.825,AA,D,3153279400,JASSM,3,126,76,2,2,1,225,9,2,0,1,26,0,0,0,0,-121646.04168092164,-4791479.133863744,4198537.520964146,2.29618,-3.09845,0.0773702,-86.75,-3.625,-6.625,0.0,0.0,0.0,0.0,0.0,0.0,2,0,41.40808188520567,-91.45431247927588,10002.62308866687,-95.91910992804392,0.0045100792119771,0.0009499794549368,,9140.793540731764,11002.764919195506,150,3,2025-09-12,2025-09-26 17:37:18.831,AA,D,1662656546,HAWK11,1,1,73,2,1,1,225,2,1,0,0,12,1,225,2,1,-142777.86950858062,-4792323.411104049,4197372.505339146,2.43539,2.61735,-0.559136,-86.625,36.0,37.125,-0.0625,-7.89062,6.875,0.0234375,0.0,0.0078125,4,0,41.39172592928505,-91.7065104942374,10986.227367126734,-48.33779079631099,2.8053246090944675,0.9246386905984596,196.602,9140.793540731764,11002.764919195506,150,True,11.391529427620672,False,35.65432788904369,178.7851980983961,False,145.30439579706396,False,False
3,1970-07-23 10:29:46.398390726,2025-09-12,2025-09-26 17:37:19.839,AA,D,3154532100,JASSM,3,126,76,2,2,1,225,9,2,0,1,26,0,0,0,0,-121737.26824342164,-4791483.059644994,4198530.444792271,2.29618,-3.09855,0.0773702,-86.75,-3.625,-6.625,0.0,0.0,0.0,0.0,0.0,0.0,2,0,41.407996973538665,-91.45540145751896,10002.624186646724,-95.91619802198318,0.0012344784726756,0.0013748665294133,,9140.793540731764,11002.764919195506,150,3,2025-09-12,2025-09-26 17:37:19.831,AA,D,1663770012,HAWK11,1,1,73,2,1,1,225,2,1,0,0,12,1,225,2,1,-142858.13708670562,-4792289.802705611,4197407.686979771,2.44823,2.61505,-0.558561,-86.125,35.625,37.625,0.046875,-7.60938,6.625,0.00195312,-0.00195312,0.0,4,0,41.392149117697045,-91.70748126852514,10985.748745199387,-48.27622240618316,2.707555748903929,1.5939734680285471,196.822,9140.793540731764,11002.764919195506,150,True,11.383657669775472,False,35.86355605309028,178.66156337133202,False,145.25352369204884,False,False
3,1970-07-23 10:29:46.408446217,2025-09-12,2025-09-26 17:37:20.844,AA,D,3155725146,JASSM,3,126,76,2,2,1,225,9,2,0,1,26,0,0,0,0,-121824.15105592164,-4791486.796949682,4198523.704557896,2.29618,-3.09855,0.0773702,-86.75,-3.625,-6.625,0.0,0.0,0.0,0.0,0.0,0.0,2,0,41.40791609787127,-91.45643858193046,10002.62326426457,-95.91688399268156,0.0020165347622187,0.0013751294711182,,9140.793540731764,11002.764919195506,150,3,2025-09-12,2025-09-26 17:37:20.939,AA,D,1664923244,HAWK11,1,1,73,2,1,1,225,2,1,0,0,12,1,225,2,1,-142941.75427420562,-4792254.782197799,4197444.782682896,2.45101,2.61141,-0.56508,-85.5,34.875,38.5,0.0,-7.79688,6.73438,0.0,0.0,0.00195312,4,0,41.392593024909125,-91.7084925706106,10986.19865381529,-47.89725773171813,2.872614848522335,1.660732005638743,196.528,9140.793540731764,11002.764919195506,150,True,11.37992666821659,False,36.136418107279354,178.52663308035517,False,145.15235846171552,False,False
3,1970-07-23 10:29:46.419749320,2025-09-12,2025-09-26 17:37:21.974,AA,D,3157037496,JASSM,3,126,76,2,2,1,225,9,2,0,1,26,0,0,0,0,-121919.72527467164,-4791490.907301244,4198516.290495396,2.29618,-3.09855,0.0773702,-86.75,-3.625,-6.625,0.0,0.0,0.0,0.0,0.0,0.0,2,0,41.40782712875162,-91.45757945336366,10002.625698958189,-95.9176385820499,0.0028768242014223,0.0013754109574444,,9140.793540731764,11002.764919195506,150,3,2025-09-12,2025-09-26 17:37:21.831,AA,D,1666156010,HAWK11,1,1,73,2,1,1,225,2,1,0,0,12,1,225,2,1,-143029.09802420562,-4792218.005830611,4197484.216276646,2.4467,2.59828,-0.568532,-84.75,35.375,38.25,0.046875,-7.32812,6.375,-0.0566406,-0.00976562,0.0,4,0,41.39306248879076,-91.70954902754411,10987.67914402075,-47.28855671091229,2.6058105827565083,1.0387585030584738,196.455,9140.793540731764,11002.764919195506,150,True,11.373496999850476,False,36.42513696039043,178.37891144343152,False,145.02355809801665,False,False
3,1970-07-23 10:29:46.432957632,2025-09-12,2025-09-26 17:37:23.295,AA,D,3158290194,JASSM,3,126,76,2,2,1,225,9,2,0,1,26,0,0,0,0,-122010.95183717164,-4791494.829176244,4198509.212370396,2.29618,-3.09855,0.0773702,-86.75,-3.625,-6.625,0.0,0.0,0.0,0.0,0.0,0.0,2,0,41.40774219622263,-91.45866842428538,10002.625868961231,-95.91835884240302,0.0036979795656092,0.0013756796911758,,9140.793540731764,11002.764919195506,150,3,2025-09-12,2025-09-26 17:37:23.334,AA,D,1668025042,HAWK11,1,1,73,2,1,1,225,2,1,0,0,12,1,225,2,1,-143162.34607108062,-4792161.314424361,4197544.548307896,2.49118,2.58955,-0.561341,-84.125,36.125,38.375,-0.09375,-6.90625,6.76562,0.0234375,0.0,0.0,4,0,41.39378332858591,-91.71116095339823,10988.88127454044,-47.23834575282885,2.0195107932993888,3.3223373444382363,195.844,9140.793540731764,11002.764919195506,150,True,11.393318113885094,False,36.90066451796537,178.15105583620914,False,144.79341718902245,False,False
3,1970-07-23 10:29:46.440252700,2025-09-12,2025-09-26 17:37:24.025,AA,D,3159483242,JASSM,3,126,76,2,2,1,225,9,2,0,1,26,0,0,0,0,-122097.83464967164,-4791498.564527807,4198502.468229771,2.29618,-3.09855,0.0773702,-86.75,-3.625,-6.625,0.0,0.0,0.0,0.0,0.0,0.0,2,0,41.40766127635993,-91.45970554118652,10002.623969692557,-95.9190448046624,0.0044800378532228,0.001375957364902,,9140.793540731764,11002.764919195506,150,3,2025-09-12,2025-09-26 17:37:24.127,AA,D,1668979440,HAWK11,1,1,73,2,1,1,225,2,1,0,0,12,1,225,2,1,-143229.67224295562,-4792132.092744674,4197575.224089146,2.50537,2.5814,-0.570929,-83.875,36.625,38.75,-0.171875,-6.85938,7.1875,0.00976562,0.0078125,0.0214844,4,0,41.3941522668836,-91.7119756299112,10988.489594236518,-46.58209904953439,2.182268557698284,3.909096144756671,195.551,9140.793540731764,11002.764919195506,150,True,11.381395143118965,False,37.27557646457405,178.0290420659614,False,144.54881643863106,False,False
3,1970-07-23 10:29:46.449392246,2025-09-12,2025-09-26 17:37:24.939,AA,D,3160556988,JASSM,3,126,76,2,2,1,225,9,2,0,1,26,0,0,0,0,-122176.03386842164,-4791501.924879369,4198496.399870396,2.29618,-3.09855,0.0773702,-86.75,-3.625,-6.625,0.0,0.0,0.0,0.0,0.0,0.0,2,0,41.40758845772383,-91.46063900065904,10002.625257438553,-95.9196622056444,0.005183930666172,0.0013761857921024,,9140.793540731764,11002.764919195506,150,3,2025-09-12,2025-09-26 17:37:24.939,AA,D,1670013372,HAWK11,1,1,73,2,1,1,225,2,1,0,0,12,1,225,2,1,-143302.13513358062,-4792099.938447799,4197609.188932896,2.46961,2.5674,-0.57553,-83.875,37.125,39.5,0.0625,-6.78125,7.21875,-0.105469,0.00195312,0.00585938,4,0,41.39455993359871,-91.7128527244931,10988.39988395721,-45.89721946162819,1.9500151651247293,1.4500527628752642,195.013,9140.793540731764,11002.764919195506,150,True,11.376860561340683,False,37.708709643248035,177.8946146973165,False,144.2612499665757,False,False
3,1970-07-23 10:29:46.459433820,2025-09-12,2025-09-26 17:37:25.943,AA,D,3161750030,JASSM,3,126,76,2,2,1,225,9,2,0,1,26,0,0,0,0,-122262.91668092164,-4791505.657301244,4198489.655729771,2.29618,-3.09855,0.0773702,-86.75,-3.625,-6.625,0.0,0.0,0.0,0.0,0.0,0.0,2,0,41.40750753753047,-91.461676113563,10002.6235731074,-95.92034816316728,0.0059659878427886,0.0013764461238875,,9140.793540731764,11002.764919195506,150,3,2025-09-12,2025-09-26 17:37:26.127,AA,D,1671365438,HAWK11,1,1,73,2,1,1,225,2,1,0,0,12,1,225,2,1,-143398.64880545562,-4792057.115205611,4197654.337370396,2.3747,2.56204,-0.574668,-84.625,37.5,39.875,-0.125,-6.70312,7.09375,-0.03125,0.00390625,-0.0117188,4,0,41.39510227305969,-91.7140209468577,10988.10008892532,-45.73147413195955,1.7476001620095434,-4.149910054899263,194.598,9140.793540731764,11002.764919195506,150,True,11.38025385364265,False,37.73001896248493,177.71577425548114,False,144.42955785222534,False,False
3,1970-07-23 10:29:46.468472086,2025-09-12,2025-09-26 17:37:26.847,AA,D,3162823772,JASSM,3,126,76,2,2,1,225,9,2,0,1,26,0,0,0,0,-122341.11199342164,-4791509.016676244,4198483.585417271,2.29618,-3.09855,0.0773702,-86.75,-3.625,-6.625,0.0,0.0,0.0,0.0,0.0,0.0,2,0,41.40743469612698,-91.4626095222523,10002.624654932715,-95.92096552867493,0.0066698467716516,0.001376684943163,,9140.793540731764,11002.764919195506,150,3,2025-09-12,2025-09-26 17:37:26.938,AA,D,1672319836,HAWK11,1,1,73,2,1,1,225,2,1,0,0,12,1,225,2,1,-143467.06872733062,-4792026.898408736,4197686.073698521,2.36933,2.5651,-0.563546,-85.375,37.625,39.75,0.03125,-6.375,6.82812,0.0488281,-0.0175781,-0.015625,4,0,41.395484075052806,-91.71484907767515,10987.6532023596,-46.2540639636292,1.3538137319617882,-4.376771907707045,194.255,9140.793540731764,11002.764919195506,150,True,11.373786740837845,False,37.49399679525502,177.58688706894594,False,144.79909548668633,False,False
3,1970-07-23 10:29:46.478251205,2025-09-12,2025-09-26 17:37:27.825,AA,D,3164016818,JASSM,3,126,76,2,2,1,225,9,2,0,1,26,0,0,0,0,-122427.99871217164,-4791512.748121557,4198476.839323521,2.29618,-3.09855,0.0773702,-86.75,-3.625,-6.625,0.0,0.0,0.0,0.0,0.0,0.0,2,0,41.407353750203846,-91.46364667724316,10002.623997152516,-95.9216515119395,0.0074519398373618,0.0013769496312195,,9140.793540731764,11002.764919195506,150,3,2025-09-12,2025-09-26 17:37:27.736,AA,D,1673234468,HAWK11,1,1,73,2,1,1,225,2,1,0,0,12,1,225,2,1,-143532.84997733062,-4791997.583955611,4197716.030729771,2.47805,2.55964,-0.552904,-85.875,38.375,39.5,-0.03125,-5.85938,6.26562,0.212891,-0.0078125,0.0,4,0,41.39584896206193,-91.71564537420336,10985.37493537821,-46.44072245001347,0.7159993092081262,1.6834189683666116,194.182,9140.793540731764,11002.764919195506,150,True,11.361326791174491,False,37.48761055138296,177.46176997065302,False,144.9276591089692,False,False
3,1970-07-23 10:29:46.487410268,2025-09-12,2025-09-26 17:37:28.741,AA,D,3165090560,JASSM,3,126,76,2,2,1,225,9,2,0,1,26,0,0,0,0,-122506.19402467164,-4791516.105543432,4198470.769011021,2.29618,-3.09855,0.077466,-86.75,-3.625,-6.625,0.0,0.0,0.0,0.0,0.0,0.0,2,0,41.40728090443501,-91.46458008212636,10002.626954055952,-95.9263792131706,0.0045116071973421,0.0013767225316392,,9140.793540731764,11002.764919195506,150,3,2025-09-12,2025-09-26 17:37:28.830,AA,D,1674546768,HAWK11,1,1,73,2,1,1,225,2,1,0,0,12,1,225,2,1,-143626.64880545562,-4791954.079072799,4197758.962370396,2.70997,2.54382,-0.566518,-85.375,40.25,40.125,-0.171875,-6.59375,7.01562,0.183594,0.0078125,0.0273438,4,0,41.39638084648765,-91.71678145579664,10978.404937332069,-45.35262658164833,0.8309119506711878,14.505038552805445,194.097,9140.793540731764,11002.764919195506,150,False,11.36829836496978,False,38.446918821115226,177.28542012117197,False,144.14143683266644,False,False
3,1970-07-23 10:29:46.496451265,2025-09-12,2025-09-26 17:37:29.645,AA,D,3166223956,JASSM,3,126,76,2,2,1,225,9,2,0,1,26,0,0,0,0,-122588.73308717164,-4791519.648512182,4198464.358854771,2.29618,-3.09864,0.077466,-86.75,-3.625,-6.625,0.0,0.0,0.0,0.0,0.0,0.0,2,0,41.40720399176243,-91.46556533568574,10002.625427191042,-95.923389714016,0.0011476224154509,0.001803158983778,,9140.793540731764,11002.764919195506,150,3,2025-09-12,2025-09-26 17:37:29.439,AA,D,1675381866,HAWK11,1,1,73,2,1,1,225,2,1,0,0,12,1,225,2,1,-143686.35583670562,-4791925.009736861,4197786.976042271,2.80929,2.5164,-0.579174,-84.375,41.75,41.125,-0.09375,-6.4375,6.82812,0.101562,0.0078125,0.0507812,4,0,41.3967322264886,-91.71750512425,10972.073054047012,-43.86984327132424,0.5688286581781702,19.362618226096576,194.023,9140.793540731764,11002.764919195506,150,False,11.355108631900507,False,39.569059671277365,177.16477042944075,False,143.14018921170367,False,False
3,1970-07-23 10:29:46.506233836,2025-09-12,2025-09-26 17:37:30.623,AA,D,3167357350,JASSM,3,126,76,2,2,1,225,9,2,0,1,26,0,0,0,0,-122671.27214967164,-4791523.190504369,4198457.948698521,2.29618,-3.09864,0.077466,-86.75,-3.625,-6.625,0.0,0.0,0.0,0.0,0.0,0.0,2,0,41.40712707646336,-91.46655058721991,10002.625023321529,-95.9240413649614,0.0018905810470612,0.0018033990768091,,9140.793540731764,11002.764919195506,150,3,2025-09-12,2025-09-26 17:37:30.831,AA,D,1676892998,HAWK11,1,1,73,2,1,1,225,2,1,0,0,12,1,225,2,1,-143792.78747733062,-4791869.509736861,4197840.429167271,2.96758,2.46089,-0.602759,-81.875,44.25,44.375,-0.09375,-7.29688,7.75,0.0996094,0.0175781,0.0449219,4,0,41.39740421720839,-91.71879645035176,10959.365108487236,-40.95319058838224,0.0326367243855157,26.67489051450164,193.901,9140.793540731764,11002.764919195506,150,False,11.366480070984084,False,42.22697889129982,176.9444265056108,False,140.7177026171414,False,False
3,1970-07-23 10:29:46.515369319,2025-09-12,2025-09-26 17:37:31.536,AA,D,3168490742,JASSM,3,126,76,2,2,1,225,9,2,0,1,26,0,0,0,0,-122753.81121217164,-4791526.732496557,4198451.536589146,2.29618,-3.09864,0.077466,-86.75,-3.625,-6.625,0.0,0.0,0.0,0.0,0.0,0.0,2,0,41.4070501395432,-91.46753583643,10002.623906492172,-95.9246930133738,0.0026335410493716,0.0018036523150741,,9140.793540731764,11002.764919195506,150,3,2025-09-12,2025-09-26 17:37:31.438,AA,D,1677569032,HAWK11,1,1,73,2,1,1,225,2,1,0,0,12,1,225,2,1,-143840.03161795562,-4791842.628877486,4197866.222136021,3.01034,2.45197,-0.599691,-80.375,46.625,46.0,-0.28125,-7.48438,7.89062,0.0546875,0.03125,0.0371094,4,0,41.39772980131554,-91.71937047354282,10952.686059640724,-40.71947599221904,-0.3587296204884964,28.835307971042944,193.864,9140.793540731764,11002.764919195506,150,False,11.34679610246886,False,43.96130789718977,176.83136156593687,False,139.09323606493348,False,False
3,1970-07-23 10:29:46.524432789,2025-09-12,2025-09-26 17:37:32.443,AA,D,3169564486,JASSM,3,126,76,2,2,1,225,9,2,0,1,26,0,0,0,0,-122832.01043092164,-4791530.086988744,4198445.462370396,2.29618,-3.09864,0.077466,-86.75,-3.625,-6.625,0.0,0.0,0.0,0.0,0.0,0.0,2,0,41.40697725269124,-91.46846928019748,10002.62460964685,-95.92531039650768,0.0033374357573408,0.0018038797403063,,9140.793540731764,11002.764919195506,150,3,2025-09-12,2025-09-26 17:37:32.330,AA,D,1678762030,HAWK11,1,1,73,2,1,1,225,2,1,0,0,12,1,225,2,1,-143919.87146170562,-4791793.294893111,4197913.983854771,3.08244,2.40739,-0.613305,-77.25,49.875,49.625,-0.21875,-7.89062,8.34375,0.0585938,0.0390625,0.0546875,4,0,41.398331424583546,-91.72034195493332,10940.846216801996,-38.559687224585744,-0.9460342228283884,31.48560895317465,193.681,9140.793540731764,11002.764919195506,150,False,11.346596214937446,False,47.11491966377734,176.6337366104739,False,136.14598662987794,False,False
3,1970-07-23 10:29:46.534452178,2025-09-12,2025-09-26 17:37:33.445,AA,D,3170757530,JASSM,3,126,76,2,2,1,225,9,2,0,1,26,0,0,0,0,-122918.89324342164,-4791533.812574682,4198438.712370396,2.29618,-3.09864,0.077466,-86.75,-3.625,-6.625,0.0,0.0,0.0,0.0,0.0,0.0,2,0,41.40689626303837,-91.46950637575192,10002.622886027815,-95.92599633426607,0.0041194944623054,0.0018041326536764,,9140.793540731764,11002.764919195506,150,3,2025-09-12,2025-09-26 17:37:33.374,AA,D,1679597128,HAWK11,1,1,73,2,1,1,225,2,1,0,0,12,1,225,2,1,-143973.32458670562,-4791757.345674361,4197949.247526646,-3.13843,2.36195,-0.643505,-74.0,52.125,52.125,0.03125,-8.28125,8.82812,0.0507812,0.0507812,0.0410156,4,0,41.39877376799173,-91.72099342467638,10932.871292592412,-35.84578818567399,-0.6932344484675702,33.48646039528884,193.718,9140.793540731764,11002.764919195506,150,False,11.327880285058466,False,49.6801259014296,176.4833301093078,False,133.73628539202545,False,False
3,1970-07-23 10:29:46.543256908,2025-09-12,2025-09-26 17:37:34.325,AA,D,3171831272,JASSM,3,126,76,2,2,1,225,9,2,0,1,26,0,0,0,0,-122997.08855592164,-4791537.166090307,4198432.638151646,2.29618,-3.09864,0.077466,-86.75,-3.625,-6.625,0.0,0.0,0.0,0.0,0.0,0.0,2,0,41.40682336660623,-91.4704397687346,10002.627620196055,-95.92661368192482,0.0048233539270227,0.0018043573580234,,9140.793540731764,11002.764919195506,150,3,2025-09-12,2025-09-26 17:37:34.330,AA,D,1681108260,HAWK11,1,1,73,2,1,1,225,2,1,0,0,12,1,225,2,1,-144065.58435233062,-4791687.393525924,4198019.411589146,-3.07544,2.32139,-0.663063,-68.25,56.625,58.125,-0.15625,-9.1875,9.53125,0.0195312,0.0546875,0.0566406,4,0,41.39964703424198,-91.72212071837212,10919.845944460809,-33.68825355401901,-0.7417044262455481,35.656153676185546,193.828,9140.793540731764,11002.764919195506,150,False,11.334312238297512,False,54.73874006358758,176.20220650789702,False,128.9743054170646,False,False
3,1970-07-23 10:29:46.560188868,2025-09-12,2025-09-26 17:37:36.018,AA,D,3173083972,JASSM,3,126,76,2,2,1,225,9,2,0,1,26,0,0,0,0,-123088.31511842164,-4791541.076246557,4198425.548307896,2.29618,-3.09864,0.077466,-86.75,-3.625,-6.625,0.0,0.0,0.0,0.0,0.0,0.0,2,0,41.40673830298295,-91.47152870971624,10002.624391082423,-95.9273339081565,0.0056445130755772,0.0018046288713573,,9140.793540731764,11002.764919195506,150,3,2025-09-12,2025-09-26 17:37:35.736,AA,D,1682778458,HAWK11,1,1,73,2,1,1,225,2,1,0,0,12,1,225,2,1,-144156.38513358062,-4791603.948213424,4198106.009245396,-2.95282,2.21909,-0.709945,-59.75,60.625,65.0,-0.234375,-9.5,9.70312,0.0273438,0.0664062,0.0566406,4,0,41.400711752257074,-91.7232354633092,10909.186493801084,-28.421193215810344,-0.6806389967866036,38.89864650691467,194.671,9140.793540731764,11002.764919195506,150,False,11.333076639088251,False,60.91885056037502,175.86048237723912,False,123.15659849391318,False,False
3,1970-07-23 10:29:46.564957752,2025-09-12,2025-09-26 17:37:36.495,AA,D,3174336672,JASSM,3,126,76,2,2,1,225,9,2,0,1,26,0,0,0,0,-123179.54558717164,-4791544.986402807,4198418.458464146,2.29618,-3.09864,0.077466,-86.75,-3.625,-6.625,0.0,0.0,0.0,0.0,0.0,0.0,2,0,41.40665322845526,-91.47261769453615,10002.625715399943,-95.92805416216656,0.0064657071216264,0.0018048974022908,,9140.793540731764,11002.764919195506,150,3,2025-09-12,2025-09-26 17:37:36.375,AA,D,1683136358,HAWK11,1,1,73,2,1,1,225,2,1,0,0,12,1,225,2,1,-144173.58630545562,-4791585.865205611,4198125.136198521,-2.93086,2.1911,-0.723272,-57.625,61.625,66.125,-0.078125,-9.17188,9.48438,0.0078125,0.0644531,0.0625,4,0,41.40094535936198,-91.72344746111548,10907.47769681046,-26.99579822333589,-0.5627955311076017,39.08751826451144,195.392,9140.793540731764,11002.764919195506,150,False,11.293049377021582,False,62.310379281593896,175.7708212617949,False,121.85561276764113,False,False
3,1970-07-23 10:29:46.576387510,2025-09-12,2025-09-26 17:37:37.638,AA,D,3175708662,JASSM,3,126,76,2,2,1,225,9,2,0,1,26,0,0,0,0,-123279.45964967164,-4791549.266676244,4198410.692839146,2.29618,-3.09864,0.077466,-86.75,-3.625,-6.625,0.0,0.0,0.0,0.0,0.0,0.0,2,0,41.406560050325695,-91.47381032962072,10002.624973317936,-95.92884296901418,0.007365064796846,0.0018051856433345,,9140.793540731764,11002.764919195506,150,3,2025-09-12,2025-09-26 17:37:37.626,AA,D,1685084924,HAWK11,1,1,73,2,1,1,225,2,1,0,0,12,1,225,2,1,-144258.27575858062,-4791477.102510299,4198240.890104771,-2.77708,2.0423,-0.77303,-44.625,66.75,73.75,-0.25,-10.4531,10.7656,0.0078125,0.0742188,0.0410156,4,0,41.40235858308811,-91.72449834584836,10897.365972261165,-20.132583087461597,-0.5126204792615513,42.02698480009181,196.113,9140.793540731764,11002.764919195506,150,False,11.284308548372241,False,70.6813720813688,175.32025585659198,False,113.94956692875094,False,False
3,1970-07-23 10:29:46.586434109,2025-09-12,2025-09-26 17:37:38.643,AA,D,3176961372,JASSM,3,126,76,2,2,1,225,9,2,0,1,26,0,0,0,0,-123370.69011842164,-4791553.174879369,4198403.601042271,2.29618,-3.09874,0.0775619,-86.75,-3.625,-6.625,0.0,0.0,0.0,0.0,0.0,0.0,2,0,41.40647495263978,-91.47489930908766,10002.626278391792,-95.93004152463185,0.0004453498894395,0.0022306594061255,,9140.793540731764,11002.764919195506,150,3,2025-09-12,2025-09-26 17:37:38.626,AA,D,1686317688,HAWK11,1,1,73,2,1,1,225,2,1,0,0,12,1,225,2,1,-144298.99646170562,-4791406.213838424,4198319.091276646,-2.69827,1.93109,-0.807449,-35.125,68.625,78.25,-0.234375,-9.9375,10.3281,0.00585938,0.0605469,0.0703125,4,0,41.40330087672233,-91.72501034259848,10895.69141569442,-15.253941259703126,-0.0970526021006702,41.98599283411696,196.858,9140.793540731764,11002.764919195506,150,False,11.257152759653549,False,76.2104894553461,175.01299775079835,False,108.73942853020866,False,False
3,1970-07-23 10:29:46.597448353,2025-09-12,2025-09-26 17:37:39.744,AA,D,3178273724,JASSM,3,126,76,2,2,1,225,9,2,0,1,26,0,0,0,0,-123466.26043092164,-4791557.267652807,4198396.169401646,2.29618,-3.09874,0.0775619,-86.75,-3.625,-6.625,0.0,0.0,0.0,0.0,0.0,0.0,2,0,41.406385787004176,-91.47604008879676,10002.62356512638,-95.93079603181756,0.0013056101258971,0.0022309439454586,,9140.793540731764,11002.764919195506,150,3,2025-09-12,2025-09-26 17:37:39.831,AA,D,1687470920,HAWK11,1,1,73,2,1,1,225,2,1,0,0,12,1,225,2,1,-144328.51599295562,-4791337.644502486,4198396.520964146,-2.58687,1.80109,-0.830459,-25.75,70.25,81.25,-0.234375,-10.5625,10.9375,0.03125,0.0722656,0.0566406,4,0,41.40422616983796,-91.7253876950296,10897.224398236274,-10.001434045256728,-0.0366252213670852,42.918266613131,198.472,9140.793540731764,11002.764919195506,150,False,11.221949336346409,False,81.38403898231991,174.70796686717628,False,103.87634349787704,False,False
3,1970-07-23 10:29:46.613752921,2025-09-12,2025-09-26 17:37:41.375,AA,D,3179586076,JASSM,3,126,76,2,2,1,225,9,2,0,1,26,0,0,0,0,-123561.83464967164,-4791561.359449682,4198388.739714146,2.29618,-3.09874,0.0775619,-86.75,-3.625,-6.625,0.0,0.0,0.0,0.0,0.0,0.0,2,0,41.40629662845241,-91.47718091236592,10002.627661796963,-95.931550566677,0.0021659035224991,0.0022312065895454,,9140.793540731764,11002.764919195506,150,3,2025-09-12,2025-09-26 17:37:41.330,AA,D,1689499018,HAWK11,1,1,73,2,1,1,225,2,1,0,0,12,1,225,2,1,-144356.51403983062,-4791214.165986861,4198537.759245396,-2.44411,1.59256,-0.851263,-8.625,71.75,85.375,-0.265625,-9.95312,10.2656,-0.0214844,0.0644531,0.0742188,4,0,41.40590910681274,-91.72576664590795,10902.050198210149,-1.9586357739629583,0.2178240398586596,42.19200503036336,199.021,9140.793540731764,11002.764919195506,150,False,11.186954749648907,False,90.4558064590067,174.1700630049768,False,95.35197135408546,False,False
3,1970-07-23 10:29:46.619251012,2025-09-12,2025-09-26 17:37:41.925,AA,D,3180898426,JASSM,3,126,76,2,2,1,225,9,2,0,1,26,0,0,0,0,-123657.40496217164,-4791565.449293432,4198381.306120396,2.29618,-3.09874,0.0775619,-86.75,-3.625,-6.625,0.0,0.0,0.0,0.0,0.0,0.0,2,0,41.40620744444233,-91.47832168673906,10002.622956295618,-95.93230506766206,0.0030261640201811,0.0022314869186047,,9140.793540731764,11002.764919195506,150,3,2025-09-12,2025-09-26 17:37:41.938,AA,D,1690294352,HAWK11,1,1,73,2,1,1,225,2,1,0,0,12,1,225,2,1,-144359.92614920562,-4791165.840791549,4198594.284636021,-2.37997,1.49812,-0.852318,-2.125,71.875,86.0,-0.34375,-10.0,10.1562,0.00195312,0.0585938,0.0546875,4,0,41.40657753652802,-91.72582480914748,10906.09634375432,1.6045266616228984,0.2664124522707266,41.80933266600832,199.217,9140.793540731764,11002.764919195506,150,False,11.138248014898727,False,93.79423741414394,173.93797442439225,False,92.24743891842314,False,False
3,1970-07-23 10:29:46.630957719,2025-09-12,2025-09-26 17:37:43.095,AA,D,3182210776,JASSM,3,126,76,2,2,1,225,9,2,0,1,26,0,0,0,0,-123752.97527467164,-4791569.539137182,4198373.874479771,2.29618,-3.09874,0.0775619,-86.75,-3.625,-6.625,0.0,0.0,0.0,0.0,0.0,0.0,2,0,41.40611826230468,-91.47946245799244,10002.62721520211,-95.9330595652485,0.0038864231686565,0.0022317541773855,,9140.793540731764,11002.764919195506,150,3,2025-09-12,2025-09-26 17:37:42.830,AA,D,1691328284,HAWK11,1,1,73,2,1,1,225,2,1,0,0,12,1,225,2,1,-144356.41052420562,-4791099.256807174,4198669.977995396,-2.2957,1.4011,-0.848771,6.5,72.375,87.0,-0.125,-9.9375,10.2344,0.00390625,0.0625,0.0546875,4,0,41.40748521672152,-91.72580677466917,10906.316637504571,5.275716008813424,0.3146701956083531,42.47662839724154,199.73,9140.793540731764,11002.764919195506,150,False,11.086395484169577,False,98.1692404114304,173.63052355009913,False,88.18189365114091,False,False
3,1970-07-23 10:29:46.642174791,2025-09-12,2025-09-26 17:37:44.217,AA,D,3183463476,JASSM,3,126,76,2,2,1,225,9,2,0,1,26,0,0,0,0,-123844.20574342164,-4791573.441480932,4198366.776823521,2.29618,-3.09874,0.0775619,-86.75,-3.625,-6.625,0.0,0.0,0.0,0.0,0.0,0.0,2,0,41.40603310643371,-91.48055142451123,10002.623745756524,-95.93377979832307,0.0047076197461722,0.0022320221659409,,9140.793540731764,11002.764919195506,150,3,2025-09-12,2025-09-26 17:37:44.331,AA,D,1693078014,HAWK11,1,1,73,2,1,1,225,2,1,0,0,12,1,225,2,1,-144334.17419608062,-4790990.501924361,4198795.179167271,-2.15572,1.22881,-0.824994,21.0,72.125,86.5,-0.203125,-9.60938,9.75,0.0136719,0.0546875,0.0546875,4,0,41.40898131137856,-91.7255802419908,10908.867052601352,12.01723463536235,0.0843344720427586,43.18159675726751,200.243,9140.793540731764,11002.764919195506,150,False,11.028324644209215,False,105.44193147434208,173.13884676180928,False,81.40139686705463,False,False
3,1970-07-23 10:29:46.652408429,2025-09-12,2025-09-26 17:37:45.240,AA,D,3184775828,JASSM,3,126,76,2,2,1,225,9,2,0,1,26,0,0,0,0,-123939.77996217164,-4791577.529371557,4198359.341276646,2.29608,-3.09874,0.0775619,-86.75,-3.625,-6.625,0.0,0.0,0.0,0.0,0.0,0.0,2,0,41.40594388683997,-91.4816922369465,10002.62421034534,-95.93453432053415,0.0055679157799847,-0.0032591709856549,,9140.793540731764,11002.764919195506,150,3,2025-09-12,2025-09-26 17:37:45.236,AA,D,1693992648,HAWK11,1,1,73,2,1,1,225,2,1,0,0,12,1,225,2,1,-144314.83239920562,-4790934.153291549,4198861.089323521,-2.07931,1.13371,-0.809367,28.5,71.25,85.625,-0.203125,-9.82812,10.0625,-0.00195312,0.0605469,0.0585938,4,0,41.409764898118496,-91.72536942229894,10911.87225070927,15.849401094103245,0.2052438003215898,43.59416541583151,200.366,9140.793540731764,11002.764919195506,150,False,10.968490381898494,False,109.23165798738444,172.86163603717492,False,77.889668215076,False,False
3,1970-07-23 10:29:46.663430022,2025-09-12,2025-09-26 17:37:46.343,AA,D,3186088178,JASSM,3,126,76,2,2,1,225,9,2,0,1,26,0,0,0,0,-124035.35027467164,-4791581.615309057,4198351.905729771,2.29608,-3.09874,0.0775619,-86.75,-3.625,-6.625,0.0,0.0,0.0,0.0,0.0,0.0,2,0,41.405854668157495,-91.48283300018625,10002.624348277635,-95.93528880887216,0.0064281761908051,-0.0032589005860436,,9140.793540731764,11002.764919195506,150,3,2025-09-12,2025-09-26 17:37:46.438,AA,D,1695662846,HAWK11,1,1,73,2,1,1,225,2,1,0,0,12,1,225,2,1,-144263.32458670562,-4790832.534150924,4198978.263151646,-1.97299,0.972736,-0.762484,42.375,69.25,83.5,-0.515625,-10.2031,10.3125,0.015625,0.0683594,0.0605469,4,0,41.41116959935598,-91.724790549808,10912.406228704464,22.89077650436317,-0.01727709548381,43.16377755216951,201.062,9140.793540731764,11002.764919195506,150,False,10.893389827586278,False,116.21764824351371,172.38488936233574,False,71.38185315185294,False,False
3,1970-07-23 10:29:46.673455249,2025-09-12,2025-09-26 17:37:47.345,AA,D,3187340878,JASSM,3,126,76,2,2,1,225,9,2,0,1,26,0,0,0,0,-124126.57683717164,-4791585.514723119,4198344.808073521,2.29608,-3.09874,0.0775619,-86.75,-3.625,-6.625,0.0,0.0,0.0,0.0,0.0,0.0,2,0,41.4057694984184,-91.48392191213044,10002.62675333882,-95.93600900208386,0.0072493367941699,-0.0032586468639318,,9140.793540731764,11002.764919195506,150,3,2025-09-12,2025-09-26 17:37:47.330,AA,D,1696657012,HAWK11,1,1,73,2,1,1,225,2,1,0,0,12,1,225,2,1,-144223.97888358062,-4790775.130830611,4199045.739714146,-1.89399,0.884532,-0.736982,50.5,66.875,81.875,-0.15625,-10.2656,10.4531,0.00585938,0.0703125,0.0546875,4,0,41.41197361477632,-91.72434107096664,10914.747190872216,26.85752654363703,0.2587865491136092,44.253244248877344,201.466,9140.793540731764,11002.764919195506,150,False,10.825905408414146,False,120.42089764631152,172.09335336164054,False,67.47371280094934,False,False
3,1970-07-23 10:29:46.688148861,2025-09-12,2025-09-26 17:37:48.814,AA,D,3188653228,JASSM,3,126,76,2,2,1,225,9,2,0,1,26,0,0,0,0,-124222.15105592164,-4791589.598707494,4198337.368620396,2.29608,-3.09883,0.0775619,-86.75,-3.625,-6.625,0.0,0.0,0.0,0.0,0.0,0.0,2,0,41.40568024227903,-91.48506271655154,10002.623097368993,-95.93313148597956,0.0040128574678175,-0.0028324784294726,,9140.793540731764,11002.764919195506,150,3,2025-09-12,2025-09-26 17:37:49.014,AA,D,1698247676,HAWK11,1,1,73,2,1,1,225,2,1,0,0,12,1,225,2,1,-144146.34802420562,-4790686.890596236,4199151.040495396,-1.80339,0.73957,-0.680608,63.5,62.375,77.875,-0.375,-10.2031,10.4062,0.0078125,0.0703125,0.0722656,4,0,41.413223248052994,-91.72344520135586,10920.506310071118,33.92960788699456,0.6100144940238998,44.08409253058743,202.089,9140.793540731764,11002.764919195506,150,False,10.737405004445154,False,127.36881087387536,171.65032892762915,False,60.97264309225603,False,False
3,1970-07-23 10:29:46.696189089,2025-09-12,2025-09-26 17:37:49.618,AA,D,3189905928,JASSM,3,126,76,2,2,1,225,9,2,0,1,26,0,0,0,0,-124313.37761842164,-4791593.496168432,4198330.269011021,2.29608,-3.09883,0.0776578,-86.75,-3.625,-6.625,0.0,0.0,0.0,0.0,0.0,0.0,2,0,41.405595049874016,-91.48615162327609,10002.625277831095,-95.93796209491782,0.0011899198453637,-0.0028323871459909,,9140.793540731764,11002.764919195506,150,3,2025-09-12,2025-09-26 17:37:49.736,AA,D,1699440674,HAWK11,1,1,73,2,1,1,225,2,1,0,0,12,1,225,2,1,-144076.67419608062,-4790624.550752486,4199225.618620396,-1.73091,0.64849,-0.634685,72.75,58.75,73.875,-0.3125,-9.70312,9.8125,-0.00585938,0.0644531,0.0585938,4,0,41.41410998746997,-91.72263507054066,10923.88813923549,38.824137768582304,0.7543639552598413,45.10319838429622,202.162,9140.793540731764,11002.764919195506,150,False,10.654670641442484,False,132.52060700387582,171.3191586586183,False,56.153122714499254,False,False
3,1970-07-23 10:29:46.712549704,2025-09-12,2025-09-26 17:37:51.254,AA,D,3191218278,JASSM,3,126,76,2,2,1,225,9,2,0,1,26,0,0,0,0,-124408.95183717164,-4791597.578199682,4198322.829557896,2.29608,-3.09883,0.0776578,-86.75,-3.625,-6.625,0.0,0.0,0.0,0.0,0.0,0.0,2,0,41.40550578324701,-91.48729242219972,10002.626055616858,-95.93871660166778,0.0020502164213015,-0.0028321237694577,,9140.793540731764,11002.764919195506,150,3,2025-09-12,2025-09-26 17:37:51.236,AA,D,1701190406,HAWK11,1,1,73,2,1,1,225,2,1,0,0,12,1,225,2,1,-143959.54724295562,-4790540.646455611,4199326.772917271,-1.65085,0.526922,-0.553096,84.625,52.625,67.0,-0.34375,-9.95312,10.0781,0.00195312,0.0644531,0.0644531,4,0,41.41531288454098,-91.72126562782998,10928.414612891242,46.247816594425736,0.5838710346027686,45.872582152492285,202.089,9140.793540731764,11002.764919195506,150,False,10.545890249406856,False,139.70833100426725,170.87116419736898,False,49.41500921125022,False,False
3,1970-07-23 10:29:46.717386290,2025-09-12,2025-09-26 17:37:51.738,AA,D,3192530630,JASSM,3,126,76,2,2,1,225,9,2,0,1,26,0,0,0,0,-124504.52214967164,-4791601.659254369,4198315.388151646,2.29608,-3.09883,0.0776578,-86.75,-3.625,-6.625,0.0,0.0,0.0,0.0,0.0,0.0,2,0,41.405416498538905,-91.48843317162574,10002.624670030042,-95.9394710743432,0.002910479114511,-0.00283185001776,,9140.793540731764,11002.764919195506,150,3,2025-09-12,2025-09-26 17:37:51.532,AA,D,1701588072,HAWK11,1,1,73,2,1,1,225,2,1,0,0,12,1,225,2,1,-143928.78357108062,-4790521.940400924,4199348.376432896,-1.6358,0.506981,-0.537852,87.625,51.375,65.125,-0.109375,-9.84375,10.0312,-0.0136719,0.0625,0.046875,4,0,41.41557549352959,-91.72090473607668,10927.024083505536,47.557639223618494,0.5391866381468521,46.15502375214378,201.795,9140.793540731764,11002.764919195506,150,False,10.479639280133307,False,141.46870858578944,170.7356685008408,False,47.78930849094445,False,False
3,1970-07-23 10:29:46.728407321,2025-09-12,2025-09-26 17:37:52.840,AA,D,3193902624,JASSM,3,126,76,2,2,1,225,9,2,0,1,26,0,0,0,0,-124604.43621217164,-4791605.924879369,4198307.608854771,2.29608,-3.09883,0.0776578,-86.75,-3.625,-6.625,0.0,0.0,0.0,0.0,0.0,0.0,2,0,41.40532315133995,-91.489625766005,10002.626729631038,-95.94025983497778,0.0038098408942492,-0.002831571425728,,9140.793540731764,11002.764919195506,150,3,2025-09-12,2025-09-26 17:37:52.736,AA,D,1702940138,HAWK11,1,1,73,2,1,1,225,2,1,0,0,12,1,225,2,1,-143823.05114920562,-4790464.786104049,4199416.298307896,-1.61835,0.429515,-0.464604,96.125,46.375,58.375,-0.375,-9.57812,9.71875,0.0078125,0.0585938,0.0644531,4,0,41.41639287846828,-91.71966179530804,10926.070037955666,53.2503398786227,-0.0540206492462628,45.04398060759485,201.429,9140.793540731764,11002.764919195506,150,False,10.37359074525484,False,147.09681854742993,170.40081476948217,False,42.49407103149706,False,False
3,1970-07-23 10:29:46.739430371,2025-09-12,2025-09-26 17:37:53.943,AA,D,3195155332,JASSM,3,126,76,2,2,1,225,9,2,0,1,26,0,0,0,0,-124695.66668092164,-4791609.817457494,4198300.503386021,2.29608,-3.09883,0.0776578,-86.75,-3.625,-6.625,0.0,0.0,0.0,0.0,0.0,0.0,2,0,41.4052379046444,-91.49071470899864,10002.622480572489,-95.94098004115928,0.0046310392905471,-0.0028313155069232,,9140.793540731764,11002.764919195506,150,3,2025-09-12,2025-09-26 17:37:53.938,AA,D,1704411502,HAWK11,1,1,73,2,1,1,225,2,1,0,0,12,1,225,2,1,-143698.60193045562,-4790410.180635299,4199481.677214146,-1.57971,0.348693,-0.395863,104.25,40.0,51.125,-0.234375,-9.96875,10.125,0.0,0.0761719,0.0605469,4,0,41.41718126226863,-91.71819424821936,10924.493883496154,59.01436407804413,-0.040517577133088,45.319595890467376,200.622,9140.793540731764,11002.764919195506,150,False,10.262320174691524,False,152.9889206462511,170.06932929919458,False,36.935097405217874,False,False
3,1970-07-23 10:29:46.750448715,2025-09-12,2025-09-26 17:37:55.044,AA,D,3196467684,JASSM,3,126,76,2,2,1,225,9,2,0,1,26,0,0,0,0,-124791.23699342164,-4791613.895582494,4198293.060026646,2.29608,-3.09883,0.0776578,-86.75,-3.625,-6.625,0.0,0.0,0.0,0.0,0.0,0.0,2,0,41.40514859025173,-91.49185544996418,10002.623829126396,-95.94173450422656,0.0054913022635115,-0.0028310459225491,,9140.793540731764,11002.764919195506,150,3,2025-09-12,2025-09-26 17:37:55.014,AA,D,1705604502,HAWK11,1,1,73,2,1,1,225,2,1,0,0,12,1,225,2,1,-143590.09411795562,-4790371.897432174,4199527.683073521,-1.587,0.284553,-0.336805,110.125,34.25,44.75,-0.296875,-9.95312,10.0469,-0.0410156,0.0644531,0.0742188,4,0,41.41773891326476,-91.7169113173387,10922.196656739014,63.83356474742588,-0.0191231243191435,43.58232668691858,199.877,9140.793540731764,11002.764919195506,150,False,10.156344018468161,False,157.80599376936686,169.80912320958498,False,32.38049568194776,False,False
3,1970-07-23 10:29:46.761465716,2025-09-12,2025-09-26 17:37:56.146,AA,D,3197780034,JASSM,3,126,76,2,2,1,225,9,2,0,1,26,0,0,0,0,-124886.81121217164,-4791617.971754369,4198285.616667271,2.29608,-3.09883,0.0776578,-86.75,-3.625,-6.625,0.0,0.0,0.0,0.0,0.0,0.0,2,0,41.40505927556408,-91.49299623509052,10002.625349831378,-95.94248899516457,0.0063515993851884,-0.0028307909235739,,9140.793540731764,11002.764919195506,150,3,2025-09-12,2025-09-26 17:37:56.329,AA,D,1707433766,HAWK11,1,1,73,2,1,1,225,2,1,0,0,12,1,225,2,1,-143411.72888358062,-4790323.993135299,4199585.940886021,-1.81,0.19587,-0.258284,117.625,25.125,36.125,-0.171875,-10.1406,10.25,-0.265625,0.0546875,0.0410156,4,0,41.41844893474328,-91.71479701060984,10917.695029920917,70.44285440958583,0.3811991913714331,29.334461098398027,197.799,9140.793540731764,11002.764919195506,150,False,10.014013657344643,False,164.42741978029545,169.47495706001575,False,26.097239581581206,True,False
3,1970-07-23 10:29:46.772227658,2025-09-12,2025-09-26 17:37:57.222,AA,D,3199092386,JASSM,3,126,76,2,2,1,225,9,2,0,1,26,0,0,0,0,-124982.38152467164,-4791622.047926244,4198278.171354771,2.29608,-3.09893,0.0776578,-86.75,-3.625,-6.625,0.0,0.0,0.0,0.0,0.0,0.0,2,0,41.40496993698711,-91.49413697041476,10002.627108549172,-95.93961148045317,0.003115089784156,-0.002404165404411,,9140.793540731764,11002.764919195506,150,3,2025-09-12,2025-09-26 17:37:57.236,AA,D,1708348398,HAWK11,1,1,73,2,1,1,225,2,1,0,0,12,1,225,2,1,-143321.49060233062,-4790306.067354049,4199611.946745396,-1.95918,0.157041,-0.247738,119.5,20.625,34.375,-0.109375,-9.57812,9.79688,-0.181641,0.0351562,0.0195312,4,0,41.418747180906166,-91.7137250697092,10923.415243774954,72.35009322619725,1.5527979099170732,20.262331871813156,196.48,9140.793540731764,11002.764919195506,150,False,9.916685372782476,False,166.42526084084642,169.29498560079662,False,24.25125867980808,True,False
3,1970-07-23 10:29:46.783247255,2025-09-12,2025-09-26 17:37:58.324,AA,D,3200404736,JASSM,3,126,76,2,2,1,225,9,2,0,1,26,0,0,0,0,-125077.95183717164,-4791626.122144994,4198270.724089146,2.29608,-3.09893,0.0776578,-86.75,-3.625,-6.625,0.0,0.0,0.0,0.0,0.0,0.0,2,0,41.404880585536894,-91.4952777032226,10002.62455092586,-95.94036593412682,0.0039753540094115,-0.0024038381452315,,9140.793540731764,11002.764919195506,150,3,2025-09-12,2025-09-26 17:37:58.438,AA,D,1709819764,HAWK11,1,1,73,2,1,1,225,2,1,0,0,12,1,225,2,1,-143170.12732108062,-4790283.220674361,4199647.839323521,-2.01249,0.11687,-0.252052,121.75,15.0,31.625,-0.390625,-8.89062,8.9375,0.0625,0.0195312,0.0273438,4,0,41.41915229483822,-91.71192442471846,10934.00415420286,73.66924337582276,3.371052829898574,16.695480804367037,194.634,9140.793540731764,11002.764919195506,150,False,9.787345208272693,False,168.92387151303743,169.05744641183094,False,21.867035292625808,True,False
3,1970-07-23 10:29:46.794551118,2025-09-12,2025-09-26 17:37:59.455,AA,D,3201657436,JASSM,3,126,76,2,2,1,225,9,2,0,1,26,0,0,0,0,-125169.18230592164,-4791630.009840307,4198263.614714146,2.29608,-3.09893,0.0776578,-86.75,-3.625,-6.625,0.0,0.0,0.0,0.0,0.0,0.0,2,0,41.40479528803159,-91.49636663295956,10002.622168008033,-95.94108612522687,0.0047965533085548,-0.0024035327567797,,9140.793540731764,11002.764919195506,150,3,2025-09-12,2025-09-26 17:37:59.328,AA,D,1711012762,HAWK11,1,1,73,2,1,1,225,2,1,0,0,12,1,225,2,1,-143047.39099295562,-4790269.264619674,4199675.915495396,-1.90108,0.0858071,-0.239013,123.0,11.375,29.0,-0.03125,-7.9375,8.1875,0.0664062,0.0273438,0.0351562,4,0,41.41944663727537,-91.7104626853166,10951.605772859608,75.38206284160287,4.16007856457515,22.75830530493,193.559,9140.793540731764,11002.764919195506,150,False,9.67505776738845,False,170.70242528885746,168.8629470740799,False,20.13506665637432,True,False
3,1970-07-23 10:29:46.804408584,2025-09-12,2025-09-26 17:38:00.440,AA,D,3202969786,JASSM,3,126,76,2,2,1,225,9,2,0,1,26,0,0,0,0,-125264.75261842164,-4791634.082105932,4198256.167448521,2.29608,-3.09893,0.0777537,-86.75,-3.625,-6.625,0.0,0.0,0.0,0.0,0.0,0.0,2,0,41.40470592609541,-91.49750736026787,10002.624043779757,-95.94595102158898,0.0020127487376879,-0.0024034921306108,,9140.793540731764,11002.764919195506,150,3,2025-09-12,2025-09-26 17:38:00.532,AA,D,1712444362,HAWK11,1,1,73,2,1,1,225,2,1,0,0,12,1,225,2,1,-142899.96325858062,-4790257.205049361,4199706.149870396,-1.85305,0.0506214,-0.202102,124.125,7.375,24.625,0.0625,-7.39062,7.59375,-0.0195312,0.0195312,0.046875,4,0,41.41974862280869,-91.70870519020016,10976.752238751018,78.27838933057491,4.230225793621639,25.2810460835056,191.518,9140.793540731764,11002.764919195506,150,False,9.547379087288762,False,173.08908602200378,168.65031025719827,False,17.711065198732822,True,False
3,1970-07-23 10:29:46.815466426,2025-09-12,2025-09-26 17:38:01.546,AA,D,3204222484,JASSM,3,126,76,2,2,1,225,9,2,0,1,26,0,0,0,0,-125355.97918092164,-4791637.968824682,4198249.056120396,2.29608,-3.09893,0.0777537,-86.75,-3.625,-6.625,0.0,0.0,0.0,0.0,0.0,0.0,2,0,41.40462060072138,-91.49859623780054,10002.623587670012,-95.94667117568508,0.002833914188064,-0.0024032352431438,,9140.793540731764,11002.764919195506,150,3,2025-09-12,2025-09-26 17:38:01.438,AA,D,1713398760,HAWK11,1,1,73,2,1,1,225,2,1,0,0,12,1,225,2,1,-142799.38122733062,-4790251.685518111,4199723.776823521,-1.86925,0.0306796,-0.177462,124.75,5.0,21.875,-0.21875,-7.29688,7.48438,0.0429688,0.0136719,0.0410156,4,0,41.41991827242149,-91.70750517394596,10994.062276748187,80.08495998803792,4.138909624460158,24.268910912459816,190.663,9140.793540731764,11002.764919195506,150,False,9.446323918798436,False,174.42458245689002,168.49783036781923,False,16.252340499346527,True,False
3,1970-07-23 10:29:46.826226971,2025-09-12,2025-09-26 17:38:02.622,AA,D,3205534836,JASSM,3,126,76,2,2,1,225,9,2,0,1,26,0,0,0,0,-125451.55339967164,-4791642.039137182,4198241.606901646,2.29608,-3.09893,0.0777537,-86.75,-3.625,-6.625,0.0,0.0,0.0,0.0,0.0,0.0,2,0,41.40453121450726,-91.49973700628524,10002.62591021381,-95.94742564774324,0.0036942132400689,-0.0024029826538472,,9140.793540731764,11002.764919195506,150,3,2025-09-12,2025-09-26 17:38:02.328,AA,D,1714591758,HAWK11,1,1,73,2,1,1,225,2,1,0,0,12,1,225,2,1,-142674.03161795562,-4790247.064424361,4199742.704557896,-1.87893,0.012176,-0.156754,125.5,2.625,18.25,0.0,-6.95312,7.17188,-0.0664062,0.0117188,0.0253906,4,0,41.42009573107432,-91.70600885308926,11014.596200597583,81.6714417816499,4.141300982597999,23.652215963456083,189.881,9140.793540731764,11002.764919195506,150,False,9.32981615261873,False,175.91498664382846,168.32785769794387,False,14.457496342953137,True,False
3,1970-07-23 10:29:46.837247093,2025-09-12,2025-09-26 17:38:03.724,AA,D,3206847206,JASSM,3,126,76,2,2,1,225,9,2,0,1,26,0,0,0,0,-125547.12341483062,-4791646.108369674,4198234.155729771,2.29608,-3.09893,0.0777537,-86.75,-3.625,-6.625,0.0,0.0,0.0,0.0,0.0,0.0,2,0,41.40444181087928,-91.500877721751,10002.62579374043,-95.94818008339672,0.0045544757173642,-0.0024027200738085,,9140.793540731764,11002.764919195506,150,3,2025-09-12,2025-09-26 17:38:03.832,AA,D,1716102890,HAWK11,1,1,73,2,1,1,225,2,1,0,0,12,1,225,2,1,-142515.21130545562,-4790244.311494674,4199761.987761021,-2.02524,-0.00268447,-0.112556,126.25,0.5,14.375,0.078125,-6.46875,6.6875,-0.160156,0.00195312,0.0234375,4,0,41.42027037789407,-91.7041118760291,11038.05491828144,84.13641804921777,3.103970319974037,15.3110041998457,189.807,9140.793540731764,11002.764919195506,150,False,9.195441320413325,False,176.9675551360806,168.14280320893351,False,12.629993007671073,True,False
3,1970-07-23 10:29:46.848267728,2025-09-12,2025-09-26 17:38:04.826,AA,D,3208159538,JASSM,3,126,76,2,2,1,225,9,2,0,1,26,0,0,0,0,-125642.69372733062,-4791650.175752486,4198226.704557896,2.29608,-3.09893,0.0777537,-86.75,-3.625,-6.625,0.0,0.0,0.0,0.0,0.0,0.0,2,0,41.404352406900514,-91.50201843822174,10002.6258725698,-95.9489345183768,0.0054147401549879,-0.0024024686723863,,9140.793540731764,11002.764919195506,150,3,2025-09-12,2025-09-26 17:38:04.736,AA,D,1717454956,HAWK11,1,1,73,2,1,1,225,2,1,0,0,12,1,225,2,1,-142371.84997733062,-4790243.788057174,4199775.694792271,-2.13358,-0.0018216,-0.100476,126.75,-0.125,11.625,-0.0625,-6.125,6.28125,-0.0585938,-0.0175781,0.0,4,0,41.42039136147041,-91.70239884195227,11056.035911879422,84.62514365068307,2.610974596425361,9.133286677961726,190.394,9140.793540731764,11002.764919195506,150,True,9.069051951141029,False,177.40654724023634,167.97830917784006,False,11.532044901704955,True,False
3,1970-07-23 10:29:46.859385042,2025-09-12,2025-09-26 17:38:05.938,AA,D,3209471888,JASSM,3,126,76,2,2,1,225,9,2,0,1,26,0,0,0,0,-125738.26794608062,-4791654.243135299,4198219.251432896,2.29608,-3.09893,0.0777537,-86.75,-3.625,-6.625,0.0,0.0,0.0,0.0,0.0,0.0,2,0,41.404262977817496,-91.5031591982414,10002.626691919806,-95.9496889808187,0.0062750408573341,-0.0024022071372146,,9140.793540731764,11002.764919195506,150,3,2025-09-12,2025-09-26 17:38:06.032,AA,D,1718926320,HAWK11,1,1,73,2,1,1,225,2,1,0,0,12,1,225,2,1,-142215.50818045562,-4790243.681611861,4199788.026823521,-2.1539,0.00076699,-0.0791918,127.25,0.125,9.0,-0.125,-5.5625,5.84375,0.0566406,-0.0136719,0.015625,4,0,41.4205028523862,-91.70053053473134,11071.12076249344,85.44400266262043,1.6950976363092092,8.012754378439599,191.982,9140.793540731764,11002.764919195506,150,True,8.93572772329993,False,177.64820124931586,167.8080978035324,False,10.67773238174965,True,False
3,1970-07-23 10:29:46.869427641,2025-09-12,2025-09-26 17:38:06.942,AA,D,3210724588,JASSM,3,126,76,2,2,1,225,9,2,0,1,26,0,0,0,0,-125829.49450858062,-4791658.123994674,4198212.136198521,2.29608,-3.09902,0.0777537,-86.75,-3.625,-6.625,0.0,0.0,0.0,0.0,0.0,0.0,2,0,41.40417760744796,-91.50424806281823,10002.625698784024,-95.9467772064167,0.0029994370432217,-0.00197508673234,,9140.793540731764,11002.764919195506,150,3,2025-09-12,2025-09-26 17:38:07.032,AA,D,1720198852,HAWK11,1,1,73,2,1,1,225,2,1,0,0,12,1,225,2,1,-142078.67810233062,-4790243.192354049,4199796.220182896,-2.16732,0.00556068,-0.0629891,127.75,0.375,7.0,0.109375,-5.45312,5.70312,-0.0820312,-0.0175781,0.00976562,4,0,41.42058521835895,-91.69889553274832,11077.716722489364,85.95985239502298,0.8765517489401916,7.274767875145905,193.449,9140.793540731764,11002.764919195506,150,True,8.815014466558074,False,177.46363963270542,167.65558671082744,False,10.090056800410437,True,False
3,1970-07-23 10:29:46.880446513,2025-09-12,2025-09-26 17:38:08.044,AA,D,3211977288,JASSM,3,126,76,2,2,1,225,9,2,0,1,26,0,0,0,0,-125920.72107108062,-4791662.003877486,4198205.020964146,2.29608,-3.09902,0.0777537,-86.75,-3.625,-6.625,0.0,0.0,0.0,0.0,0.0,0.0,2,0,41.40409223258375,-91.50533692485112,10002.62660979353,-95.94749734272378,0.0038206026666923,-0.0019747919453246,,9140.793540731764,11002.764919195506,150,3,2025-09-12,2025-09-26 17:38:07.938,AA,D,1721272552,HAWK11,1,1,73,2,1,1,225,2,1,0,0,12,1,225,2,1,-141963.05700858062,-4790242.250947799,4199801.454557896,-2.23079,0.00843689,-0.0444854,128.375,1.25,5.125,0.0,-5.60938,5.79688,-0.0175781,-0.015625,0.0253906,4,0,41.420646543583935,-91.69751414449748,11078.333388044492,86.64634032982946,0.0523085562425808,3.652696659030184,194.475,9140.793540731764,11002.764919195506,150,True,8.705559356060807,False,177.2304406265185,167.51614450707265,False,9.726800865146958,True,False
3,1970-07-23 10:29:46.893347801,2025-09-12,2025-09-26 17:38:09.334,AA,D,3213289638,JASSM,3,126,76,2,2,1,225,9,2,0,1,26,0,0,0,0,-126016.29138358062,-4791666.067354049,4198197.563932896,2.29608,-3.09902,0.0777537,-86.75,-3.625,-6.625,0.0,0.0,0.0,0.0,0.0,0.0,2,0,41.40400276808204,-91.5064776303192,10002.62284132861,-95.9482517652043,0.0046808697432218,-0.0019744697175611,,9140.793540731764,11002.764919195506,150,3,2025-09-12,2025-09-26 17:38:09.438,AA,D,1723101816,HAWK11,1,1,73,2,1,1,225,2,1,0,0,12,1,225,2,1,-141765.98669608062,-4790239.371064986,4199807.544401646,-2.25869,0.0157233,-0.0360486,129.25,2.625,2.875,-0.078125,-5.98438,6.14062,0.00390625,0.0,0.0,4,0,41.4207395103269,-91.69516008325716,11070.11743090524,86.73379989548312,-0.5786175462749941,2.070589216189287,196.15,9140.793540731764,11002.764919195506,150,True,8.550617556507593,False,176.67565402534942,167.32378822933003,False,9.502694631166849,True,False
3,1970-07-23 10:29:46.900248053,2025-09-12,2025-09-26 17:38:10.024,AA,D,3214423032,JASSM,3,126,76,2,2,1,225,9,2,0,1,26,0,0,0,0,-126098.83044608062,-4791669.577119674,4198191.124479771,2.29608,-3.09902,0.0777537,-86.75,-3.625,-6.625,0.0,0.0,0.0,0.0,0.0,0.0,2,0,41.40392549643385,-91.50746279512764,10002.625983097138,-95.94890331748375,0.0054238368537082,-0.0019741946135355,,9140.793540731764,11002.764919195506,150,3,2025-09-12,2025-09-26 17:38:10.032,AA,D,1723459716,HAWK11,1,1,73,2,1,1,225,2,1,0,0,12,1,225,2,1,-141727.15857108062,-4790238.665986861,4199808.436979771,-2.2609,0.0171614,-0.0347063,129.5,2.75,2.5,0.0,-6.1875,6.40625,-0.015625,-0.00585938,-0.00195312,4,0,41.42075656721924,-91.69469631786552,11067.495511275809,86.7371693188726,-0.6909003808549976,1.947122078372362,196.712,9140.793540731764,11002.764919195506,150,True,8.486546340630616,False,176.53700757063694,167.23413802617964,False,9.502881793725582,True,False
3,1970-07-23 10:29:46.910384600,2025-09-12,2025-09-26 17:38:11.038,AA,D,3215556426,JASSM,3,126,76,2,2,1,225,9,2,0,1,26,0,0,0,0,-126181.36950858062,-4791673.084932174,4198184.685026646,2.29608,-3.09902,0.0778495,-86.75,-3.625,-6.625,0.0,0.0,0.0,0.0,0.0,0.0,2,0,41.4038482279709,-91.50844795821592,10002.62784551624,-95.95366534387338,0.002522765949625,-0.001974242784431,,9140.793540731764,11002.764919195506,150,3,2025-09-12,2025-09-26 17:38:10.974,AA,D,1724453882,HAWK11,1,1,73,2,1,1,225,2,1,0,0,12,1,225,2,1,-141619.17028983062,-4790236.443330611,4199810.540495396,-2.27566,0.0127512,-0.032693,130.125,2.625,2.25,0.09375,-6.60938,6.79688,-0.00585938,0.0117188,0.0117188,4,0,41.42080299626036,-91.69340659010577,11058.741527326336,86.99173752663971,-0.5771435682101279,1.0898479707515665,197.958,9140.793540731764,11002.764919195506,150,True,8.385810493595288,False,176.40786024062604,167.10123953833158,False,9.509687804067543,True,False
3,1970-07-23 10:29:46.919425427,2025-09-12,2025-09-26 17:38:11.942,AA,D,3216630168,JASSM,3,126,76,2,2,1,225,9,2,0,1,26,0,0,0,0,-126259.56482108062,-4791676.407197799,4198178.581511021,2.29608,-3.09902,0.0778495,-86.75,-3.625,-6.625,0.0,0.0,0.0,0.0,0.0,0.0,2,0,41.40377500380446,-91.5093812736664,10002.624144123043,-95.9542826030165,0.0032266342613041,-0.0019740293921514,,9140.793540731764,11002.764919195506,150,3,2025-09-12,2025-09-26 17:38:11.938,AA,D,1726084314,HAWK11,1,1,73,2,1,1,225,2,1,0,0,12,1,225,2,1,-141441.64685233062,-4790233.436494674,4199813.186979771,-2.26348,0.00977913,-0.0312549,131.125,2.25,1.75,-0.09375,-6.9375,6.95312,0.0429688,0.00585938,-0.00195312,4,0,41.42086996346523,-91.69128615406213,11044.193414319056,87.16760331486512,-0.502592090650693,1.780381661243147,198.887,9140.793540731764,11002.764919195506,150,True,8.250461939232531,False,176.1354992964773,166.92883141602437,False,9.399239554826494,True,False
3,1970-07-23 10:29:46.928474082,2025-09-12,2025-09-26 17:38:12.847,AA,D,3217703910,JASSM,3,126,76,2,2,1,225,9,2,0,1,26,0,0,0,0,-126337.76013358062,-4791679.729463424,4198172.479948521,2.29608,-3.09902,0.0778495,-86.75,-3.625,-6.625,0.0,0.0,0.0,0.0,0.0,0.0,2,0,41.403701785251066,-91.51031458702153,10002.627844706523,-95.95489985987736,0.0039305012142931,-0.00197382908431,,9140.793540731764,11002.764919195506,150,3,2025-09-12,2025-09-26 17:38:12.736,AA,D,1726959180,HAWK11,1,1,73,2,1,1,225,2,1,0,0,12,1,225,2,1,-141345.32849295562,-4790231.816377486,4199814.526823521,-2.24613,0.00699879,-0.0331723,131.625,2.0,1.5,-0.078125,-7.07812,7.1875,0.00585938,0.00195312,0.0,4,0,41.42090556596328,-91.69013566839794,11036.12614333776,87.19146962357543,-0.3096691259220483,2.769337169603338,199.437,9140.793540731764,11002.764919195506,150,True,8.158250993264168,False,175.99001826547413,166.80208117826092,False,9.367517558411615,True,False
3,1970-07-23 10:29:46.937246128,2025-09-12,2025-09-26 17:38:13.724,AA,D,3218837304,JASSM,3,126,76,2,2,1,225,9,2,0,1,26,0,0,0,0,-126420.29919608062,-4791683.234346236,4198166.036589146,2.29608,-3.09902,0.0778495,-86.75,-3.625,-6.625,0.0,0.0,0.0,0.0,0.0,0.0,2,0,41.40362448343152,-91.51129974427428,10002.624229164288,-95.95555140328564,0.0046734692497095,-0.0019736099461628,,9140.793540731764,11002.764919195506,150,3,2025-09-12,2025-09-26 17:38:13.532,AA,D,1727913578,HAWK11,1,1,73,2,1,1,225,2,1,0,0,12,1,225,2,1,-141239.51013358062,-4790230.535127486,4199815.772917271,-2.23635,0.00076699,-0.0271323,132.375,1.375,1.25,0.015625,-7.21875,7.32812,0.0,0.0136719,0.015625,4,0,41.420940174698856,-91.68887153071888,11028.004621161715,87.68795824160564,-0.2703584398818502,3.316363784942803,200.182,9140.793540731764,11002.764919195506,150,True,8.058719543790824,False,175.77685388634413,166.6642944809615,False,9.237046167425628,True,False
3,1970-07-23 10:29:46.947391874,2025-09-12,2025-09-26 17:38:14.739,AA,D,3219970698,JASSM,3,126,76,2,2,1,225,9,2,0,1,26,0,0,0,0,-126502.83825858062,-4791686.739229049,4198159.593229771,2.29608,-3.09902,0.0778495,-86.75,-3.625,-6.625,0.0,0.0,0.0,0.0,0.0,0.0,2,0,41.40354717317623,-91.51228489919204,10002.624138953104,-95.95620294414982,0.0054164372952721,-0.0019733907759913,,9140.793540731764,11002.764919195506,150,3,2025-09-12,2025-09-26 17:38:15.054,AA,D,1729027044,HAWK11,1,1,73,2,1,1,225,2,1,0,0,12,1,225,2,1,-141114.75427420562,-4790229.476533736,4199817.368620396,-2.33127,-0.00115049,-0.0221468,133.0,1.0,1.375,0.015625,-7.10938,7.17188,-0.173828,0.0078125,-0.0078125,4,0,41.420979124004745,-91.68738099792594,11019.823248390994,87.97575698289783,-0.3759946021482366,-2.1262016566946733,200.586,9140.793540731764,11002.764919195506,150,True,7.9491701832366815,False,175.75009618231618,166.51157657969762,False,9.319465678297119,True,False
3,1970-07-23 10:29:46.956447669,2025-09-12,2025-09-26 17:38:15.644,AA,D,3221104092,JASSM,3,126,76,2,2,1,225,9,2,0,1,26,0,0,0,0,-126585.37732108062,-4791690.243135299,4198153.149870396,2.29608,-3.09912,0.0778495,-86.75,-3.5,-6.625,0.0,0.0,0.0,0.0,0.0,0.0,2,0,41.40346986029576,-91.51327005208252,10002.625171731208,-95.95322262690252,0.0020626385872796,-0.0015458399600062,,9140.793540731764,11002.764919195506,150,3,2025-09-12,2025-09-26 17:38:15.532,AA,D,1730140510,HAWK11,1,1,73,2,1,1,225,2,1,0,0,12,1,225,2,1,-140991.38122733062,-4790228.614229049,4199819.102995396,-2.44814,-0.00105461,-0.0275158,133.5,1.125,2.25,-0.15625,-7.23438,7.32812,-0.0507812,0.0,-0.0195312,4,0,41.42101757945199,-91.68590691860923,11012.533648568358,87.74251180865664,-0.1753876358089616,-8.82110832847637,200.842,9140.793540731764,11002.764919195506,150,True,7.840409020557338,False,176.1427097769292,166.40435226348671,False,9.793922531880963,True,False
3,1970-07-23 10:29:46.966467275,2025-09-12,2025-09-26 17:38:16.646,AA,D,3222237486,JASSM,3,126,76,2,2,1,225,9,2,0,1,26,0,0,0,0,-126667.91638358062,-4791693.747041549,4198146.704557896,2.29608,-3.09912,0.0778495,-86.75,-3.5,-6.625,0.0,0.0,0.0,0.0,0.0,0.0,2,0,41.40339252579525,-91.51425520263722,10002.62549193752,-95.95387416289456,0.0028056076320855,-0.0015455663204963,,9140.793540731764,11002.764919195506,150,3,2025-09-12,2025-09-26 17:38:16.734,AA,D,1731572108,HAWK11,1,1,73,2,1,1,225,2,1,0,0,12,1,225,2,1,-140830.06482108062,-4790227.347627486,4199822.583464146,-2.44756,0.0147646,-0.0475534,134.125,2.0,3.5,-0.140625,-7.17188,7.14062,0.0449219,0.0,-0.015625,4,0,41.42107684469495,-91.68397953115368,11005.304081159144,86.28372995519962,-0.092461304007083,-8.750734273673626,200.952,9140.793540731764,11002.764919195506,150,True,7.711672143177319,False,176.78360337178276,166.21394312855674,False,10.628770975990184,True,False
3,1970-07-23 10:29:46.975244248,2025-09-12,2025-09-26 17:38:17.524,AA,D,3223370880,JASSM,3,126,76,2,2,1,225,9,2,0,1,26,0,0,0,0,-126750.45544608062,-4791697.248994674,4198140.259245396,2.29608,-3.09912,0.0778495,-86.75,-3.5,-6.625,0.0,0.0,0.0,0.0,0.0,0.0,2,0,41.40331519448007,-91.51524035147295,10002.624532785234,-95.9545256967494,0.003548575941762,-0.0015453042552305,,9140.793540731764,11002.764919195506,150,3,2025-09-12,2025-09-26 17:38:17.032,AA,D,1732089074,HAWK11,1,1,73,2,1,1,225,2,1,0,0,12,1,225,2,1,-140772.77380545562,-4790226.548799361,4199824.290495396,-2.42915,0.0153398,-0.0511007,134.375,2.125,4.125,-0.171875,-7.34375,7.20312,0.03125,0.00195312,0.00195312,4,0,41.42110313987049,-91.68329514695046,11002.903740193498,86.11011839414276,0.0180280787060069,-7.694327065469231,201.026,9140.793540731764,11002.764919195506,150,True,7.638132779690337,False,177.04109409708434,166.09026870914752,False,10.989584641347413,True,False
3,1970-07-23 10:29:46.985385250,2025-09-12,2025-09-26 17:38:18.538,AA,D,3224504276,JASSM,3,126,76,2,2,1,225,9,2,0,1,26,0,0,0,0,-126832.99450858062,-4791700.750947799,4198133.813932896,2.29608,-3.09912,0.0778495,-86.75,-3.5,-6.625,0.0,0.0,0.0,0.0,0.0,0.0,2,0,41.403237854729305,-91.51622549797258,10002.62709896706,-95.9551772280585,0.0042915442614008,-0.0015450421579318,,9140.793540731764,11002.764919195506,150,3,2025-09-12,2025-09-26 17:38:18.438,AA,D,1733639972,HAWK11,1,1,73,2,1,1,225,2,1,0,0,12,1,225,2,1,-140598.10193045562,-4790223.784150924,4199830.782682896,-2.38314,0.0155316,-0.0609757,134.625,2.5,5.375,0.03125,-7.375,6.70312,0.0292969,0.00585938,0.00390625,4,0,41.42119393337597,-91.681208671314,10997.581508837446,85.68037958351495,0.3861803297827844,-5.058527666748892,201.502,9140.793540731764,11002.764919195506,150,True,7.502728088279419,False,177.5782254562524,165.8671194475509,False,11.725219287075356,True,False
