Subject_cm,Timestamp,SampleDate_cm,SampleTime_cm,Configuration_cm,Scenario_cm,DisTime_cm,MarkingTxt_cm,Application_cm,EntId_cm,Site_cm,ExerciseId_cm,ForceId_cm,Category_cm,Country_cm,Domain_cm,Kind_cm,Extra_cm,Specific_cm,Subcategory_cm,AltCategory_cm,AltCountry_cm,AltDomain_cm,AltKind_cm,ECEF_X_cm,ECEF_Y_cm,ECEF_Z_cm,OriPhi_cm,OriPsi_cm,OriTheta_cm,LinVelX_cm,LinVelY_cm,LinVelZ_cm,LinAccX_cm,LinAccY_cm,LinAccZ_cm,AngVelX_cm,AngVelY_cm,AngVelZ_cm,DrAlg_cm,Appearance_cm,Latitude_cm,Longitude_cm,Altitude_cm,Heading_cm,Pitch_cm,Roll_cm,CalibratedAirspeed_cm,CM_Altitude_Lead_cm,CM_Altitude_Wing_cm,CM_Airspeed_cm,Subject_ac,SampleDate_ac,SampleTime_ac,Configuration_ac,Scenario_ac,DisTime_ac,MarkingTxt_ac,Application_ac,EntId_ac,Site_ac,ExerciseId_ac,ForceId_ac,Category_ac,Country_ac,Domain_ac,Kind_ac,Extra_ac,Specific_ac,Subcategory_ac,AltCategory_ac,AltCountry_ac,AltDomain_ac,AltKind_ac,ECEF_X_ac,ECEF_Y_ac,ECEF_Z_ac,OriPhi_ac,OriPsi_ac,OriTheta_ac,LinVelX_ac,LinVelY_ac,LinVelZ_ac,LinAccX_ac,LinAccY_ac,LinAccZ_ac,AngVelX_ac,AngVelY_ac,AngVelZ_ac,DrAlg_ac,Appearance_ac,Latitude_ac,Longitude_ac,Altitude_ac,Heading_ac,Pitch_ac,Roll_ac,CalibratedAirspeed_ac,CM_Altitude_Lead_ac,CM_Altitude_Wing_ac,CM_Airspeed_ac,Bank_Angle_Condition,distance_nm,Distance_Condition,angle_between_vel,angle_between_pos,Cone_Condition,angle_between_pos_nose,Nose_Cone_Condition,Intercept_Criteria
3,1970-07-23 10:16:58.171221067,2025-09-11,2025-09-26 20:16:57.122,HH,C,1800124888,JASSM,3,103,76,2,2,1,225,9,2,0,1,26,0,0,0,0,-172929.99548514312,-4769857.700166549,4221144.151823521,-2.51458,-0.703426,0.607456,58.75,-49.625,-53.375,0.0,0.0,0.0,0.0,0.0,0.0,2,0,41.6799087041396,-92.0763347290718,10002.631554007405,139.83210273471195,-0.0045936774885127,0.0009595963405363,,8988.574530004647,11016.82538521552,150,3,2025-09-11,2025-09-26 20:16:56.732,HH,C,203871188,HAWK11,1,1,73,2,1,1,225,2,1,0,0,12,1,225,2,1,-148507.03943045562,-4791244.425752486,4198412.354948521,2.43596,2.52906,-0.595664,-88.75,37.25,39.625,-0.046875,-7.01562,6.51562,-0.00390625,0.00585938,0.00585938,4,0,41.40412796601351,-91.77534321582472,11016.37530549659,-43.78946668040183,1.7191134791541365,-1.597349641601596,194.695,8988.574530004647,11016.82538521552,150,True,21.347771861848788,False,160.37120999735237,179.12929822072678,False,20.45704053536418,True,False
3,1970-07-23 10:16:58.180285035,2025-09-11,2025-09-26 20:16:58.028,HH,C,1801317934,JASSM,3,103,76,2,2,1,225,9,2,0,1,26,0,0,0,0,-172871.26745779935,-4769907.516572799,4221090.620573521,-2.51458,-0.703426,0.607456,58.75,-49.625,-53.375,0.0,0.0,0.0,0.0,0.0,0.0,2,0,41.67926371920336,-92.075608551953,10002.621527680963,139.83258561668237,-0.0037509667465934,0.0009580167721922,,8988.574530004647,11016.82538521552,150,3,2025-09-11,2025-09-26 20:16:57.933,HH,C,205382320,HAWK11,1,1,73,2,1,1,225,2,1,0,0,12,1,225,2,1,-148618.96521170562,-4791197.356416549,4198461.784636021,2.43472,2.52915,-0.59739,-88.875,37.25,39.25,-0.28125,-6.9375,6.51562,0.0,-0.00585938,0.00390625,4,0,41.40472098364084,-91.77669783040672,11016.392640514665,-43.73186006346239,1.800114363156899,-1.6635475778912985,195.416,8988.574530004647,11016.82538521552,150,True,21.23138168266246,False,160.20470254295893,179.06358433355527,False,20.69033671134698,True,False
3,1970-07-23 10:16:58.189140622,2025-09-11,2025-09-26 20:16:58.914,HH,C,1802452128,JASSM,3,103,76,2,2,1,225,9,2,0,1,26,0,0,0,0,-172815.43689139312,-4769954.875947799,4221039.733854771,-2.51458,-0.703426,0.607456,58.75,-49.625,-53.375,0.0,0.0,0.0,0.0,0.0,0.0,2,0,41.67865057027417,-92.07491821530456,10002.6256032929,139.83304466033084,-0.0029498468504465,0.0009565273909294,,8988.574530004647,11016.82538521552,150,3,2025-09-11,2025-09-26 20:16:58.825,HH,C,206416252,HAWK11,1,1,73,2,1,1,225,2,1,0,0,12,1,225,2,1,-148696.01989920562,-4791164.926729049,4198495.530729771,2.43922,2.52877,-0.598444,-89.0,37.25,39.125,-0.09375,-6.89062,6.5,0.0078125,0.0117188,0.00195312,4,0,41.40512746953853,-91.77763043096036,11015.732897750791,-43.68040209863575,1.8365719348797152,-1.415862144201543,195.832,8988.574530004647,11016.82538521552,150,True,21.138118920375973,False,160.1251644224119,179.0170506758316,False,20.817682541279034,True,False
3,1970-07-23 10:16:58.199159569,2025-09-11,2025-09-26 20:16:59.915,HH,C,1803644398,JASSM,3,103,76,2,2,1,225,9,2,0,1,26,0,0,0,0,-172756.74792654935,-4770004.661104049,4220986.237761021,-2.51458,-0.703426,0.607456,58.75,-49.625,-53.375,0.0,0.0,0.0,0.0,0.0,0.0,2,0,41.67800599096597,-92.0741925486408,10002.62803948678,139.83352719092255,-0.002107685127539,0.0009549400681061,,8988.574530004647,11016.82538521552,150,3,2025-09-11,2025-09-26 20:16:59.933,HH,C,207688784,HAWK11,1,1,73,2,1,1,225,2,1,0,0,12,1,225,2,1,-148791.42419608062,-4791124.604463424,4198537.065886021,2.44152,2.52627,-0.598348,-89.0,37.5,38.75,-0.09375,-6.75,6.375,0.0,-0.0136719,-0.00390625,4,0,41.40563008675818,-91.77878519787072,11013.96777527043,-43.592576459550486,1.7593278919542634,-1.3614328489467435,196.052,8988.574530004647,11016.82538521552,150,True,21.031663303401814,False,160.07052487313277,178.959072052645,False,20.929149985316442,True,False
3,1970-07-23 10:16:58.209201513,2025-09-11,2025-09-26 20:17:00.920,HH,C,1804837444,JASSM,3,103,76,2,2,1,225,9,2,0,1,26,0,0,0,0,-172698.01989920562,-4770054.477510299,4220932.702604771,-2.51448,-0.70333,0.607456,58.75,-49.625,-53.375,0.0,0.0,0.0,0.0,0.0,0.0,2,0,41.67736096602506,-92.07346641429967,10002.622842410265,139.83035869435574,-0.0039105939922197,0.0033105539791054,,8988.574530004647,11016.82538521552,150,3,2025-09-11,2025-09-26 20:17:01.138,HH,C,209160148,HAWK11,1,1,73,2,1,1,225,2,1,0,0,12,1,225,2,1,-148900.43982108062,-4791077.958955611,4198584.474089146,2.45667,2.52177,-0.599307,-89.0,37.625,38.625,-0.1875,-6.78125,6.40625,0.0234375,0.0,0.00390625,4,0,41.40620743581792,-91.78010494918378,11010.441042049808,-43.39254058925063,1.6700309484222018,-0.6327051167455221,196.541,8988.574530004647,11016.82538521552,150,True,20.917061046414773,False,160.06448937441283,178.89260552639328,False,21.00272672071359,True,False
3,1970-07-23 10:16:58.221617507,2025-09-11,2025-09-26 20:17:02.161,HH,C,1806030812,JASSM,3,103,76,2,2,1,225,9,2,0,1,26,0,0,0,0,-172639.27673514312,-4770104.305635299,4220879.155729771,-2.51448,-0.70333,0.607456,58.75,-49.625,-53.375,0.0,0.0,0.0,0.0,0.0,0.0,2,0,41.67671579085346,-92.07274010779548,10002.623962912356,139.83084163822488,-0.0030676617448128,0.0033089163018052,,8988.574530004647,11016.82538521552,150,3,2025-09-11,2025-09-26 20:17:02.325,HH,C,210551980,HAWK11,1,1,73,2,1,1,225,2,1,0,0,12,1,225,2,1,-149004.45349295562,-4791032.889619674,4198629.872526646,2.5767,2.51717,-0.604293,-88.5,38.25,38.625,-0.171875,-7.01562,6.54688,0.148438,0.0,0.0078125,4,0,41.406762752977336,-91.78136437826213,11006.055645560782,-43.04522705802865,1.75907687906406,6.106187061106247,196.883,8988.574530004647,11016.82538521552,150,True,20.80520169997512,False,160.39784384026078,178.828657032213,False,20.73151455378676,True,False
3,1970-07-23 10:16:58.229260636,2025-09-11,2025-09-26 20:17:02.926,HH,C,1807224048,JASSM,3,103,76,2,2,1,225,9,2,0,1,26,0,0,0,0,-172580.53943045562,-4770154.125947799,4220825.612761021,-2.51448,-0.70333,0.607456,58.75,-49.625,-53.375,0.0,0.0,0.0,0.0,0.0,0.0,2,0,41.67607068272643,-92.0720138894758,10002.619520017704,139.83132451732553,-0.0022248196943451,0.0033072827996479,,8988.574530004647,11016.82538521552,150,3,2025-09-11,2025-09-26 20:17:02.933,HH,C,211148480,HAWK11,1,1,73,2,1,1,225,2,1,0,0,12,1,225,2,1,-149048.24255545562,-4791013.023408736,4198649.767057896,2.64899,2.50988,-0.609182,-87.875,38.75,39.125,-0.265625,-7.14062,6.70312,0.115234,0.0,0.015625,4,0,41.40700712127356,-91.7818949277432,11003.714123068652,-42.602578944232846,1.7663590945893035,10.023752203280502,196.92,8988.574530004647,11016.82538521552,150,False,20.72838900411606,False,160.90991679751846,178.80099895533914,False,20.247363069658757,True,False
3,1970-07-23 10:16:58.239625576,2025-09-11,2025-09-26 20:17:03.962,HH,C,1808416584,JASSM,3,103,76,2,2,1,225,9,2,0,1,26,0,0,0,0,-172521.83679373687,-4770203.918916549,4220772.101042271,-2.51448,-0.70333,0.607456,58.75,-49.625,-53.375,0.0,0.0,0.0,0.0,0.0,0.0,2,0,41.675425936005496,-92.07128811338148,10002.623882460504,139.83180709625492,-0.0013824633532319,0.0033056412678267,,8988.574530004647,11016.82538521552,150,3,2025-09-11,2025-09-26 20:17:03.823,HH,C,212261946,HAWK11,1,1,73,2,1,1,225,2,1,0,0,12,1,225,2,1,-149129.26403983062,-4790975.912080611,4198686.767057896,2.75781,2.48332,-0.624234,-86.5,39.75,40.25,-0.21875,-7.40625,6.89062,0.0917969,0.0175781,0.0371094,4,0,41.4074626459335,-91.78287672853568,10998.927702500569,-41.09320489381506,1.6869846517391889,15.42414959707767,197.445,8988.574530004647,11016.82538521552,150,False,20.629063426312456,False,162.0209682190336,178.75194604875088,False,19.186432334047396,True,False
3,1970-07-23 10:16:58.250038988,2025-09-11,2025-09-26 20:17:05.003,HH,C,1809609630,JASSM,3,103,76,2,2,1,225,9,2,0,1,26,0,0,0,0,-172463.10876639312,-4770253.731416549,4220718.565886021,-2.51448,-0.70333,0.607456,58.75,-49.625,-53.375,0.0,0.0,0.0,0.0,0.0,0.0,2,0,41.67478091578442,-92.0705620387334,10002.627222633137,139.8322898675687,-0.0005397506573491,0.0033040049723083,,8988.574530004647,11016.82538521552,150,3,2025-09-11,2025-09-26 20:17:05.137,HH,C,213971910,HAWK11,1,1,73,2,1,1,225,2,1,0,0,12,1,225,2,1,-149252.67224295562,-4790916.268525924,4198746.122526646,2.83211,2.43941,-0.637177,-83.5,42.0,42.25,-0.34375,-7.40625,6.85938,-0.0117188,0.00585938,0.03125,4,0,41.40819525082095,-91.78437334989606,10990.486860108123,-39.02140445320503,1.0685363763821183,18.24774980628325,198.044,8988.574530004647,11016.82538521552,150,False,20.50232691284062,False,164.325606278674,178.6816029112032,False,16.94899594189889,True,False
3,1970-07-23 10:16:58.259220131,2025-09-11,2025-09-26 20:17:05.922,HH,C,1810743024,JASSM,3,103,76,2,2,1,225,9,2,0,1,26,0,0,0,0,-172407.31823904935,-4770301.047822799,4220667.706511021,-2.51448,-0.70333,0.607552,58.75,-49.625,-53.375,0.0,0.0,0.0,0.0,0.0,0.0,2,0,41.6741681681585,-92.06987229679608,10002.619161852665,139.83597265949166,-0.0041887425636389,0.0033023477793086,,8988.574530004647,11016.82538521552,150,3,2025-09-11,2025-09-26 20:17:05.733,HH,C,214647942,HAWK11,1,1,73,2,1,1,225,2,1,0,0,12,1,225,2,1,-149299.90466483062,-4790891.481416549,4198770.749479771,2.82617,2.43481,-0.625097,-82.625,43.125,43.5,-0.296875,-7.3125,6.875,-0.0078125,0.00585938,0.0234375,4,0,41.4085001854268,-91.7849468954542,10986.583826264185,-39.255213408399264,0.3835601529498196,17.748765881554707,198.007,8988.574530004647,11016.82538521552,150,False,20.424031517781415,False,165.36995181984068,178.65514965024715,False,15.930880465030569,True,False
3,1970-07-23 10:16:58.269259197,2025-09-11,2025-09-26 20:17:06.925,HH,C,1811936070,JASSM,3,103,76,2,2,1,225,9,2,0,1,26,0,0,0,0,-172348.58972342435,-4770350.860322799,4220614.171354771,-2.51448,-0.70333,0.607552,58.75,-49.625,-53.375,0.0,0.0,0.0,0.0,0.0,0.0,2,0,41.67352313895805,-92.06914624456162,10002.631283899404,139.8364554040743,-0.0033460268515837,0.0033007622645119,,8988.574530004647,11016.82538521552,150,3,2025-09-11,2025-09-26 20:17:06.731,HH,C,215840942,HAWK11,1,1,73,2,1,1,225,2,1,0,0,12,1,225,2,1,-149382.08630545562,-4790846.319307174,4198815.532682896,2.8254,2.42072,-0.620304,-80.625,45.125,45.25,-0.171875,-7.3125,6.8125,-0.0136719,0.0136719,0.0234375,4,0,41.40905590025101,-91.78594560208812,10978.990812433014,-38.88227405994532,-0.2206013654769465,17.234622181552737,198.19,8988.574530004647,11016.82538521552,150,False,20.319561977565808,False,167.1970123822564,178.6132480529426,False,14.139964700226912,True,False
3,1970-07-23 10:16:58.278139535,2025-09-11,2025-09-26 20:17:07.813,HH,C,1813009812,JASSM,3,103,76,2,2,1,225,9,2,0,1,26,0,0,0,0,-172295.73425467435,-4770395.688447799,4220565.983854771,-2.51448,-0.70333,0.607552,58.75,-49.625,-53.375,0.0,0.0,0.0,0.0,0.0,0.0,2,0,41.67294258795192,-92.06849281364308,10002.625645954078,139.83688985825972,-0.0025875685594205,0.0032993197895841,,8988.574530004647,11016.82538521552,150,3,2025-09-11,2025-09-26 20:17:07.731,HH,C,217033940,HAWK11,1,1,73,2,1,1,225,2,1,0,0,12,1,225,2,1,-149462.38318045562,-4790799.356416549,4198862.022917271,2.82128,2.40643,-0.616085,-78.875,46.875,47.0,-0.140625,-7.32812,6.89062,-0.0136719,0.0,0.0273438,4,0,41.40963419196918,-91.78692247869184,10970.534208972971,-38.47629587998906,-0.8010561056722513,16.520632209726376,198.337,8988.574530004647,11016.82538521552,150,False,20.21970118141185,False,168.86443485042176,178.57571577106938,False,12.50533139886896,True,False
3,1970-07-23 10:16:58.287177041,2025-09-11,2025-09-26 20:17:08.717,HH,C,1814143204,JASSM,3,103,76,2,2,1,225,9,2,0,1,26,0,0,0,0,-172239.94275076812,-4770443.004854049,4220515.124479771,-2.51448,-0.70333,0.607552,58.75,-49.625,-53.375,0.0,0.0,0.0,0.0,0.0,0.0,2,0,41.6723298279231,-92.06780309924112,10002.6297518615,139.83734843127846,-0.001787012869067,0.003297824913578,,8988.574530004647,11016.82538521552,150,3,2025-09-11,2025-09-26 20:17:08.823,HH,C,218386006,HAWK11,1,1,73,2,1,1,225,2,1,0,0,12,1,225,2,1,-149550.84802420562,-4790744.329072799,4198916.311979771,2.82157,2.3792,-0.626344,-76.75,48.875,48.75,-0.34375,-7.46875,6.90625,-0.0175781,0.0117188,0.0175781,4,0,41.410311576655126,-91.78799997231332,10959.800686599616,-37.09809658564996,-1.0320067615833814,15.60724828458632,198.606,8988.574530004647,11016.82538521552,150,False,20.109867832915054,False,170.71004177989116,178.53819690113937,False,10.68466782891121,True,False
3,1970-07-23 10:16:58.296216209,2025-09-11,2025-09-26 20:17:09.621,HH,C,1815216948,JASSM,3,103,76,2,2,1,225,9,2,0,1,26,0,0,0,0,-172187.08728201812,-4770487.829072799,4220466.936979771,-2.51448,-0.70333,0.607552,58.75,-49.625,-53.375,0.0,0.0,0.0,0.0,0.0,0.0,2,0,41.67174929251725,-92.0671496941504,10002.622082722348,139.83778285808688,-0.0010285730835423,0.0032963964927724,,8988.574530004647,11016.82538521552,150,3,2025-09-11,2025-09-26 20:17:09.527,HH,C,219101804,HAWK11,1,1,73,2,1,1,225,2,1,0,0,12,1,225,2,1,-149597.23669608062,-4790713.569307174,4198946.606901646,2.82502,2.36693,-0.625193,-75.625,49.875,50.0,-0.171875,-7.375,6.76562,-0.0136719,0.0078125,0.0273438,4,0,41.41069044113397,-91.78856570213284,10953.455479091668,-36.66103765232656,-1.4027439454838209,15.383975167239006,198.679,8988.574530004647,11016.82538521552,150,False,20.03086641508198,False,171.7811906795176,178.51940250351433,False,9.629323065173907,True,False
3,1970-07-23 10:16:58.305277080,2025-09-11,2025-09-26 20:17:10.527,HH,C,1816291400,JASSM,3,103,76,2,2,1,225,9,2,0,1,26,0,0,0,0,-172134.19714529935,-4770532.684541549,4220418.718229771,-2.51448,-0.703234,0.607552,58.75,-49.625,-53.375,0.0,0.0,0.0,0.0,0.0,0.0,2,0,41.67116836389472,-92.06649587144238,10002.623385272344,139.8345643440239,-0.0029169384214765,0.0001582550970687,,8988.574530004647,11016.82538521552,150,3,2025-09-11,2025-09-26 20:17:10.433,HH,C,220294804,HAWK11,1,1,73,2,1,1,225,2,1,0,0,12,1,225,2,1,-149672.08044608062,-4790661.950166549,4198997.515104771,2.83048,2.34201,-0.629507,-73.875,51.5,51.5,-0.234375,-7.28125,6.76562,-0.0117188,0.0078125,0.0253906,4,0,41.41132724713503,-91.78947921174075,10942.731279920632,-35.55751866705094,-1.8259725384319123,14.827758423542704,198.606,8988.574530004647,11016.82538521552,150,False,19.930019885990355,False,173.28579575747037,178.49334905865965,False,8.13187965470428,True,False
3,1970-07-23 10:16:58.315137426,2025-09-11,2025-09-26 20:17:11.513,HH,C,1817424350,JASSM,3,103,76,2,2,1,225,9,2,0,1,26,0,0,0,0,-172078.42761404935,-4770579.981416549,4220367.874479771,-2.51448,-0.703234,0.607552,58.75,-49.625,-53.375,0.0,0.0,0.0,0.0,0.0,0.0,2,0,41.67055580877308,-92.06580646692215,10002.627505522378,139.8350226950765,-0.0021166795211947,0.0001566938514117,,8988.574530004647,11016.82538521552,150,3,2025-09-11,2025-09-26 20:17:11.527,HH,C,221607102,HAWK11,1,1,73,2,1,1,225,2,1,0,0,12,1,225,2,1,-149752.28943045562,-4790603.573213424,4199055.165495396,2.83537,2.31545,-0.64245,-71.875,53.0,53.25,-0.203125,-7.45312,6.95312,-0.00390625,0.00976562,0.0117188,4,0,41.41204876093464,-91.79045936982278,10930.43709175878,-34.12645168206646,-1.849244556373449,14.15835135190422,198.716,8988.574530004647,11016.82538521552,150,False,19.82086589530126,False,174.9257576984304,178.4692288978707,False,6.493188244515757,True,False
3,1970-07-23 10:16:58.324200205,2025-09-11,2025-09-26 20:17:12.420,HH,C,1818498202,JASSM,3,103,76,2,2,1,225,9,2,0,1,26,0,0,0,0,-172025.56677420562,-4770624.809541549,4220319.679167271,-2.51448,-0.703234,0.607552,58.75,-49.625,-53.375,0.0,0.0,0.0,0.0,0.0,0.0,2,0,41.669975187120826,-92.0651530315961,10002.623090289351,139.83545712688425,-0.0013581506424282,0.0001552065550408,,8988.574530004647,11016.82538521552,150,3,2025-09-11,2025-09-26 20:17:12.323,HH,C,222521734,HAWK11,1,1,73,2,1,1,225,2,1,0,0,12,1,225,2,1,-149807.12536795562,-4790562.082979049,4199096.436979771,2.83863,2.2957,-0.651846,-70.5,53.875,54.375,-0.203125,-7.53125,7.03125,-0.00976562,0.0136719,0.0234375,4,0,41.412563970357496,-91.79113007143634,10922.182333843735,-33.07529320352871,-1.8584252843235003,13.628965552140832,198.716,8988.574530004647,11016.82538521552,150,False,19.732534641706522,False,175.98321980230602,178.45389208583003,False,5.428398808231944,True,False
3,1970-07-23 10:16:58.334215852,2025-09-11,2025-09-26 20:17:13.421,HH,C,1819690872,JASSM,3,103,76,2,2,1,225,9,2,0,1,26,0,0,0,0,-171966.85681326812,-4770674.594697799,4220266.155729771,-2.51448,-0.703234,0.607648,58.75,-49.625,-53.375,0.0,0.0,0.0,0.0,0.0,0.0,2,0,41.66933036591567,-92.06442730796913,10002.624860685346,139.8391620378932,-0.0049623287020671,0.000153432971298,,8988.574530004647,11016.82538521552,150,3,2025-09-11,2025-09-26 20:17:13.529,HH,C,223953332,HAWK11,1,1,73,2,1,1,225,2,1,0,0,12,1,225,2,1,-149889.94958670562,-4790494.963838424,4199163.345182896,2.84199,2.27163,-0.669295,-68.125,55.375,56.75,-0.03125,-8.0625,7.57812,-0.0234375,0.0234375,0.0214844,4,0,41.4133994821558,-91.79214478500556,10908.692933419445,-31.62961818439747,-1.549592045687078,12.93237216969635,199.009,8988.574530004647,11016.82538521552,150,False,19.614541904361037,False,177.91345501020928,178.43783699626368,False,3.4472491603867637,True,False
3,1970-07-23 10:16:58.343258685,2025-09-11,2025-09-26 20:17:14.325,HH,C,1820765304,JASSM,3,103,76,2,2,1,225,9,2,0,1,26,0,0,0,0,-171913.96765311187,-4770719.446260299,4220217.933073521,-2.51448,-0.703234,0.607648,58.75,-49.625,-53.375,0.0,0.0,0.0,0.0,0.0,0.0,2,0,41.6687494184493,-92.06377354761464,10002.623446474416,139.83959667541842,-0.00420338813793,0.0001519830039605,,8988.574530004647,11016.82538521552,150,3,2025-09-11,2025-09-26 20:17:14.433,HH,C,224987266,HAWK11,1,1,73,2,1,1,225,2,1,0,0,12,1,225,2,1,-149947.54919608062,-4790446.766572799,4199212.854948521,2.84199,2.24977,-0.687799,-66.5,55.75,58.5,-0.453125,-8.125,7.4375,-0.0136719,0.0078125,0.0273438,4,0,41.41400967554728,-91.7928510459803,10902.044259638284,-30.257624993928317,-1.1107396439584765,12.114490068669186,198.936,8988.574530004647,11016.82538521552,150,False,19.52073415983354,False,179.2033749567856,178.42860108426177,False,2.1585094298873337,True,False
3,1970-07-23 10:16:58.353138261,2025-09-11,2025-09-26 20:17:15.313,HH,C,1821957660,JASSM,3,103,76,2,2,1,225,9,2,0,1,26,0,0,0,0,-171855.27331717435,-4770769.219697799,4220164.421354771,-2.51448,-0.703234,0.607648,58.75,-49.625,-53.375,0.0,0.0,0.0,0.0,0.0,0.0,2,0,41.66810473387737,-92.06304804399232,10002.632050984736,139.84007900398362,-0.0033611705668674,0.0001503947383104,,8988.574530004647,11016.82538521552,150,3,2025-09-11,2025-09-26 20:17:15.138,HH,C,225941664,HAWK11,1,1,73,2,1,1,225,2,1,0,0,12,1,225,2,1,-150000.19568045562,-4790401.863252486,4199260.077604771,2.84055,2.23204,-0.699879,-65.125,56.0,59.875,-0.265625,-7.84375,7.35938,-0.015625,0.00976562,0.0273438,4,0,41.41458575276263,-91.79349690414804,10898.155232333263,-29.23924453258313,-0.8824829336635666,11.364606282967042,199.009,8988.574530004647,11016.82538521552,150,False,19.42522585089618,False,179.5692792884847,178.42115819809476,False,1.1564298948703131,True,False
3,1970-07-23 10:16:58.363238931,2025-09-11,2025-09-26 20:17:16.323,HH,C,1823091056,JASSM,3,103,76,2,2,1,225,9,2,0,1,26,0,0,0,0,-171799.48132498687,-4770816.528291549,4220113.550261021,-2.51439,-0.703234,0.607648,58.75,-49.625,-53.375,0.0,0.0,0.0,0.0,0.0,0.0,2,0,41.66749190870148,-92.0623584303831,10002.623663972465,139.84053746651333,-0.0025605885936355,0.0056403465471657,,8988.574530004647,11016.82538521552,150,3,2025-09-11,2025-09-26 20:17:16.324,HH,C,227333496,HAWK11,1,1,73,2,1,1,225,2,1,0,0,12,1,225,2,1,-150074.59021170562,-4790335.507783736,4199330.940886021,2.83499,2.21258,-0.721354,-62.75,56.5,61.5,-0.140625,-7.82812,7.32812,-0.0351562,0.0175781,0.0234375,4,0,41.41544496535832,-91.79441067018064,10894.497551707836,-27.91295149278841,-0.1974057064517006,10.306248054582005,198.826,8988.574530004647,11016.82538521552,150,False,19.311439644378797,False,178.02896413660204,178.4169426128984,False,0.6338068566438664,True,False
3,1970-07-23 10:16:58.371239083,2025-09-11,2025-09-26 20:17:17.123,HH,C,1824165372,JASSM,3,103,76,2,2,1,225,9,2,0,1,26,0,0,0,0,-171746.59753592435,-4770861.372041549,4220065.331511021,-2.51439,-0.703234,0.607648,58.75,-49.625,-53.375,0.0,0.0,0.0,0.0,0.0,0.0,2,0,41.66691102109616,-92.0617047750212,10002.623724548155,139.84097201850807,-0.0018017353317406,0.0056389041199336,,8988.574530004647,11016.82538521552,150,3,2025-09-11,2025-09-26 20:17:17.433,HH,C,228486728,HAWK11,1,1,73,2,1,1,225,2,1,0,0,12,1,225,2,1,-150133.97497733062,-4790280.310518111,4199390.897917271,2.83873,2.19024,-0.73238,-61.125,57.125,62.625,-0.1875,-7.53125,7.07812,-0.00390625,0.00585938,0.0175781,4,0,41.41616697138749,-91.79514092820472,10893.460145961892,-26.773508688045123,-0.0767678152889259,9.667337964679536,198.569,8988.574530004647,11016.82538521552,150,True,19.21171379403538,False,176.89253278537083,178.41668146584067,False,1.6531317370955192,True,False
3,1970-07-23 10:16:58.380815777,2025-09-11,2025-09-26 20:17:18.081,HH,C,1825239116,JASSM,3,103,76,2,2,1,225,9,2,0,1,26,0,0,0,0,-171693.74182303375,-4770906.188447799,4220017.140104771,-2.51439,-0.703234,0.607648,58.75,-49.625,-53.375,0.0,0.0,0.0,0.0,0.0,0.0,2,0,41.666330470980405,-92.06105147995504,10002.622595521165,139.84140632601125,-0.0010433107254306,0.0056374827618268,,8988.574530004647,11016.82538521552,150,3,2025-09-11,2025-09-26 20:17:18.137,HH,C,229480894,HAWK11,1,1,73,2,1,1,225,2,1,0,0,12,1,225,2,1,-150184.70349295562,-4790232.373994674,4199443.636198521,2.8323,2.17662,-0.740625,-60.0,57.25,63.625,-0.21875,-7.48438,7.03125,-0.015625,0.0117188,0.00976562,4,0,41.41679866613993,-91.79576504680134,10893.94835329798,-26.045246706490595,0.085652387728225,8.775521953843866,198.264,8988.574530004647,11016.82538521552,150,True,19.119215060284407,False,176.08636697487356,178.4174236898287,False,2.4829412232314665,True,False
3,1970-07-23 10:16:58.389157909,2025-09-11,2025-09-26 20:17:18.915,HH,C,1826312858,JASSM,3,103,76,2,2,1,225,9,2,0,1,26,0,0,0,0,-171640.88635428375,-4770951.008760299,4219968.944792271,-2.51439,-0.703138,0.607648,58.75,-49.625,-53.375,0.0,0.0,0.0,0.0,0.0,0.0,2,0,41.66574986742502,-92.06039819786902,10002.626201634064,139.83819006559034,-0.002930537403612,0.0025008400161191,,8988.574530004647,11016.82538521552,150,3,2025-09-11,2025-09-26 20:17:18.729,HH,C,230077394,HAWK11,1,1,73,2,1,1,225,2,1,0,0,12,1,225,2,1,-150214.06872733062,-4790203.346650924,4199475.612761021,2.83087,2.16819,-0.746953,-59.125,57.375,64.125,-0.046875,-7.51562,7.01562,-0.0253906,0.00585938,0.015625,4,0,41.41718171206701,-91.79612681507416,10894.231813270551,-25.56583879653419,0.253233640136173,8.367328634442181,198.007,8988.574530004647,11016.82538521552,150,True,19.045709500132947,False,175.53433021264362,178.41823484431947,False,3.0314059295679248,True,False
3,1970-07-23 10:16:58.400180073,2025-09-11,2025-09-26 20:17:20.018,HH,C,1827564980,JASSM,3,103,76,2,2,1,225,9,2,0,1,26,0,0,0,0,-171579.24987967435,-4771003.270479049,4219912.745573521,-2.51439,-0.703138,0.607648,58.75,-49.625,-53.375,0.0,0.0,0.0,0.0,0.0,0.0,2,0,41.665072849616735,-92.05963640131502,10002.629843270446,139.83869649239642,-0.0020461075866903,0.0024991174632337,,8988.574530004647,11016.82538521552,150,3,2025-09-11,2025-09-26 20:17:20.433,HH,C,232105492,HAWK11,1,1,73,2,1,1,225,2,1,0,0,12,1,225,2,1,-150311.54138358062,-4790104.451143111,4199586.048307896,2.77919,2.14575,-0.768333,-56.75,57.75,65.625,-0.28125,-7.53125,7.09375,-0.0585938,0.0,0.0175781,4,0,41.41849728237976,-91.79732862479672,10898.248034689172,-24.19350188208575,0.952761375881375,4.537814669492174,196.724,8988.574530004647,11016.82538521552,150,True,18.897428790646952,False,173.98327709858032,178.43309020989497,False,4.595259382830021,True,False
3,1970-07-23 10:16:58.411616297,2025-09-11,2025-09-26 20:17:21.161,HH,C,1828817678,JASSM,3,103,76,2,2,1,225,9,2,0,1,26,0,0,0,0,-171517.58484061187,-4771055.551729049,4219856.519011021,-2.51439,-0.703138,0.607648,58.75,-49.625,-53.375,0.0,0.0,0.0,0.0,0.0,0.0,2,0,41.66439553222053,-92.05887426971188,10002.62415745428,139.83920313518044,-0.001161283512403,0.0024974053739047,,8988.574530004647,11016.82538521552,150,3,2025-09-11,2025-09-26 20:17:21.162,HH,C,232622458,HAWK11,1,1,73,2,1,1,225,2,1,0,0,12,1,225,2,1,-150335.71130545562,-4790079.769502486,4199614.024870396,2.75474,2.14307,-0.772359,-56.375,57.5,66.0,0.015625,-7.6875,7.20312,-0.0585938,0.00390625,0.00390625,4,0,41.41882843982288,-91.79762669998486,10900.141211742111,-23.995416767980387,1.1147398349018325,3.033592712221288,196.321,8988.574530004647,11016.82538521552,150,True,18.820568126882204,False,173.72804530066114,178.4341614715065,False,4.8746054440430795,True,False
3,1970-07-23 10:16:58.420181146,2025-09-11,2025-09-26 20:17:22.018,HH,C,1830010806,JASSM,3,103,76,2,2,1,225,9,2,0,1,26,0,0,0,0,-171458.85241873687,-4771105.352510299,4219802.964323521,-2.51439,-0.703138,0.607744,58.75,-49.625,-53.375,0.0,0.0,0.0,0.0,0.0,0.0,2,0,41.66375037207209,-92.05814839527852,10002.633200080389,139.8429103421915,-0.0047676875313014,0.0024956012005235,,8988.574530004647,11016.82538521552,150,3,2025-09-11,2025-09-26 20:17:22.027,HH,C,234093822,HAWK11,1,1,73,2,1,1,225,2,1,0,0,12,1,225,2,1,-150404.44177420562,-4790008.647432174,4199695.522917271,2.69444,2.14911,-0.780892,-55.75,57.25,66.375,-0.03125,-7.46875,6.96875,-0.0351562,0.00976562,0.0,4,0,41.41978881044091,-91.79847468505984,10907.444519570165,-24.01002883135541,1.6633694005431907,-0.1792027954159594,196.089,8988.574530004647,11016.82538521552,150,True,18.701333794557584,False,173.35445194164942,178.44693643519696,False,5.280432354383099,True,False
3,1970-07-23 10:16:58.431156571,2025-09-11,2025-09-26 20:17:23.115,HH,C,1831323076,JASSM,3,103,76,2,2,1,225,9,2,0,1,26,0,0,0,0,-171394.2550066275,-4771160.118135299,4219744.058073521,-2.51439,-0.703138,0.607744,58.75,-49.625,-53.375,0.0,0.0,0.0,0.0,0.0,0.0,2,0,41.66304080609834,-92.057350055672,10002.62030495033,139.84344104114473,-0.0038407648485853,0.0024938404671166,,8988.574530004647,11016.82538521552,150,3,2025-09-11,2025-09-26 20:17:23.323,HH,C,235644720,HAWK11,1,1,73,2,1,1,225,2,1,0,0,12,1,225,2,1,-150476.07849295562,-4789934.196260299,4199781.399870396,2.64928,2.16243,-0.785302,-55.5,57.0,66.25,0.0,-7.04688,6.59375,-0.0234375,0.00585938,-0.00195312,4,0,41.42079799175481,-91.79935867370352,10916.299177534584,-24.388818953767537,2.126949822739346,-2.2401245304295303,195.148,8988.574530004647,11016.82538521552,150,True,18.57376416015838,False,173.30048883193322,178.4609183044029,False,5.357496314705078,True,False
3,1970-07-23 10:16:58.441178073,2025-09-11,2025-09-26 20:17:24.117,HH,C,1832516798,JASSM,3,103,76,2,2,1,225,9,2,0,1,26,0,0,0,0,-171335.49304373687,-4771209.938447799,4219690.476042271,-2.51439,-0.703138,0.607744,58.75,-49.625,-53.375,0.0,0.0,0.0,0.0,0.0,0.0,2,0,41.6623953419148,-92.05662384896632,10002.624460784951,139.84392378306782,-0.002997581611708,0.0024922441363796,,8988.574530004647,11016.82538521552,150,3,2025-09-11,2025-09-26 20:17:24.229,HH,C,236718420,HAWK11,1,1,73,2,1,1,225,2,1,0,0,12,1,225,2,1,-150526.65466483062,-4789882.118135299,4199841.423307896,2.62675,2.16512,-0.784056,-55.875,56.75,66.125,-0.1875,-7.01562,6.60938,-0.0078125,0.0078125,-0.00585938,4,0,41.42150349895447,-91.79998261155484,10922.432634786916,-24.51844431256528,2.1113527369404523,-3.426984446015385,194.805,8988.574530004647,11016.82538521552,150,True,18.472725825826195,False,173.52723988993856,178.46922951341534,False,5.16010328783558,True,False
3,1970-07-23 10:16:58.452196884,2025-09-11,2025-09-26 20:17:25.219,HH,C,1833828474,JASSM,3,103,76,2,2,1,225,9,2,0,1,26,0,0,0,0,-171270.92468436187,-4771264.680635299,4219631.597136021,-2.51439,-0.703138,0.607744,58.75,-49.625,-53.375,0.0,0.0,0.0,0.0,0.0,0.0,2,0,41.66168608290254,-92.05582590135369,10002.62679999967,139.8444542072909,-0.0020710742640003,0.0024904835135797,,8988.574530004647,11016.82538521552,150,3,2025-09-11,2025-09-26 20:17:25.137,HH,C,237633052,HAWK11,1,1,73,2,1,1,225,2,1,0,0,12,1,225,2,1,-150568.52575858062,-4789838.903291549,4199891.040495396,2.60796,2.17835,-0.785398,-55.875,56.625,65.625,0.0,-6.90625,6.67188,-0.015625,0.00195312,-0.00976562,4,0,41.4220876625913,-91.80049920598977,10927.10414087049,-24.96575529176909,2.4188824347566227,-3.985529227980077,194.647,8988.574530004647,11016.82538521552,150,True,18.375389700736758,False,173.6947544519326,178.47514195467178,False,4.990684309974415,True,False
3,1970-07-23 10:16:58.467216489,2025-09-11,2025-09-26 20:17:26.721,HH,C,1835081480,JASSM,3,103,76,2,2,1,225,9,2,0,1,26,0,0,0,0,-171209.24426444,-4771316.973604049,4219575.351042271,-2.51439,-0.703138,0.607744,58.75,-49.625,-53.375,0.0,0.0,0.0,0.0,0.0,0.0,2,0,41.66100854177158,-92.05506366011328,10002.630820193635,139.84496088929728,-0.0011860068899721,0.0024888015552764,,8988.574530004647,11016.82538521552,150,3,2025-09-11,2025-09-26 20:17:26.561,HH,C,239024884,HAWK11,1,1,73,2,1,1,225,2,1,0,0,12,1,225,2,1,-150633.42028983062,-4789772.514619674,4199966.880339146,2.58457,2.18947,-0.783097,-56.25,56.375,65.125,-0.125,-6.84375,6.46875,-0.0214844,-0.00390625,-0.00390625,4,0,41.42298237632344,-91.80129965415412,10933.496501886617,-25.428781654478986,2.5057006259450603,-4.895516216814934,194.158,8988.574530004647,11016.82538521552,150,True,18.258033183710754,False,174.04197823143085,178.48584129162012,False,4.663180915584739,True,False
3,1970-07-23 10:16:58.474234009,2025-09-11,2025-09-26 20:17:27.423,HH,C,1836393524,JASSM,3,103,76,2,2,1,225,9,2,0,1,26,0,0,0,0,-171144.65783865875,-4771371.727510299,4219516.452604771,-2.51439,-0.703138,0.607744,58.75,-49.625,-53.375,0.0,0.0,0.0,0.0,0.0,0.0,2,0,41.66029907426038,-92.05426552503332,10002.628379853417,139.84549142364742,-0.0002592415585361,0.0024870401110671,,8988.574530004647,11016.82538521552,150,3,2025-09-11,2025-09-26 20:17:27.323,HH,C,240416716,HAWK11,1,1,73,2,1,1,225,2,1,0,0,12,1,225,2,1,-150698.31286795562,-4789706.414033736,4200041.681120396,2.56683,2.20462,-0.781467,-56.5,56.5,64.0,-0.1875,-6.8125,6.54688,-0.00390625,0.0,-0.00195312,4,0,41.42386835815999,-91.80209999214468,10938.348997287956,-26.019744529586745,2.7062593277880524,-5.326645022936604,193.461,8988.574530004647,11016.82538521552,150,True,18.13859214880348,False,174.49408068329754,178.49562288148496,False,4.174257016059593,True,False
3,1970-07-23 10:16:58.486422846,2025-09-11,2025-09-26 20:17:28.642,HH,C,1837646222,JASSM,3,103,76,2,2,1,225,9,2,0,1,26,0,0,0,0,-171082.99255545562,-4771424.004854049,4219460.214323521,-2.51439,-0.703043,0.607744,58.75,-49.625,-53.375,0.0,0.0,0.0,0.0,0.0,0.0,2,0,41.65962166530781,-92.05350350475436,10002.622711896767,139.8423455096316,-0.0020217321290526,-0.0006522863912259,,8988.574530004647,11016.82538521552,150,3,2025-09-11,2025-09-26 20:17:28.637,HH,C,241927848,HAWK11,1,1,73,2,1,1,225,2,1,0,0,12,1,225,2,1,-150770.30896170562,-4789635.156221236,4200121.819792271,2.54737,2.21794,-0.778783,-57.375,56.0,63.375,-0.0625,-6.98438,6.5625,-0.00585938,-0.00390625,-0.00976562,4,0,41.42481971463979,-91.8029871828578,10942.664887692144,-26.572688299920525,2.825067676879433,-5.931163907834805,193.547,8988.574530004647,11016.82538521552,150,True,18.016166596797397,False,175.13920154328304,178.50380869458434,False,3.5688604911195445,True,False
3,1970-07-23 10:16:58.495135474,2025-09-11,2025-09-26 20:17:29.513,HH,C,1838898918,JASSM,3,103,76,2,2,1,225,9,2,0,1,26,0,0,0,0,-171021.32751639312,-4771476.278291549,4219403.979948521,-2.51439,-0.703043,0.60784,58.75,-49.625,-53.375,0.0,0.0,0.0,0.0,0.0,0.0,2,0,41.658944300785926,-92.05274150505336,10002.621005113651,139.84607492407133,-0.0055831493686653,-0.000654200001109,,8988.574530004647,11016.82538521552,150,3,2025-09-11,2025-09-26 20:17:29.361,HH,C,242405046,HAWK11,1,1,73,2,1,1,225,2,1,0,0,12,1,225,2,1,-150793.74255545562,-4789612.299775924,4200147.436979771,2.55638,2.22072,-0.776098,-57.625,56.125,62.875,-0.265625,-7.0,6.625,0.0566406,0.00390625,-0.00390625,4,0,41.42512421076028,-91.80327582822022,10943.886692658512,-26.74577087336807,2.743434422198936,-5.311405225919003,193.962,8988.574530004647,11016.82538521552,150,True,17.940816682922414,False,175.3933485911985,178.50314630852716,False,3.2856566311896476,True,False
3,1970-07-23 10:16:58.505155292,2025-09-11,2025-09-26 20:17:30.515,HH,C,1840092602,JASSM,3,103,76,2,2,1,225,9,2,0,1,26,0,0,0,0,-170962.56726248687,-4771526.090791549,4219350.394011021,-2.51439,-0.703043,0.60784,58.75,-49.625,-53.375,0.0,0.0,0.0,0.0,0.0,0.0,2,0,41.65829882710248,-92.05201541424572,10002.62640936056,139.84655755021657,-0.0047399923790907,-0.0006558035001876,,8988.574530004647,11016.82538521552,150,3,2025-09-11,2025-09-26 20:17:30.527,HH,C,244274078,HAWK11,1,1,73,2,1,1,225,2,1,0,0,12,1,225,2,1,-150882.67028983062,-4789525.508760299,4200244.450651646,2.67143,2.22772,-0.784727,-57.5,55.75,62.25,-0.125,-7.15625,6.6875,0.0722656,0.00585938,0.0078125,4,0,41.42627869583399,-91.80437124781903,10947.964525314588,-26.762433123030004,3.3152421013293343,1.561904034554663,195.148,8988.574530004647,11016.82538521552,150,True,17.805540162146638,False,175.57495205917317,178.51234724189737,False,3.1116430144317353,True,False
3,1970-07-23 10:16:58.516196818,2025-09-11,2025-09-26 20:17:31.619,HH,C,1841404318,JASSM,3,103,76,2,2,1,225,9,2,0,1,26,0,0,0,0,-170897.99670584625,-4771580.829072799,4219291.503386021,-2.51439,-0.703043,0.60784,58.75,-49.625,-53.375,0.0,0.0,0.0,0.0,0.0,0.0,2,0,41.65758948062584,-92.05121754309802,10002.625027693975,139.84708788104675,-0.0038134304850115,-0.0006575926136776,,8988.574530004647,11016.82538521552,150,3,2025-09-11,2025-09-26 20:17:31.637,HH,C,245268244,HAWK11,1,1,73,2,1,1,225,2,1,0,0,12,1,225,2,1,-150929.96911795562,-4789478.997041549,4200296.479948521,2.73873,2.21363,-0.791438,-56.75,55.5,62.625,-0.21875,-7.21875,6.8125,0.0566406,0.00195312,0.00585938,4,0,41.42689771700913,-91.80495402612569,10950.212495687225,-26.078043359635966,3.3853623669777053,4.885705075775895,196.394,8988.574530004647,11016.82538521552,150,True,17.70471411431973,False,175.14606216534705,178.51560226983227,False,3.5684673242706753,True,False
3,1970-07-23 10:16:58.525214550,2025-09-11,2025-09-26 20:17:32.521,HH,C,1842478060,JASSM,3,103,76,2,2,1,225,9,2,0,1,26,0,0,0,0,-170845.14148123687,-4771625.629854049,4219243.300261021,-2.51429,-0.703043,0.60784,58.75,-49.625,-53.375,0.0,0.0,0.0,0.0,0.0,0.0,2,0,41.65700888448603,-92.05056444901392,10002.618964750212,139.84752197560888,-0.0030550218230994,0.0048324486269519,,8988.574530004647,11016.82538521552,150,3,2025-09-11,2025-09-26 20:17:32.529,HH,C,246660076,HAWK11,1,1,73,2,1,1,225,2,1,0,0,12,1,225,2,1,-150996.10388358062,-4789413.377900924,4200369.653776646,2.80939,2.19388,-0.801121,-55.375,55.875,62.75,-0.09375,-7.26562,6.875,0.0429688,-0.00390625,0.0195312,4,0,41.427769594795976,-91.8057691245262,10952.84572207112,-25.118483863945794,3.511545184167531,8.183269720288955,197.702,8988.574530004647,11016.82538521552,150,True,17.595605287582934,False,174.42505525053534,178.523493956465,False,4.251177110282188,True,False
3,1970-07-23 10:16:58.535255882,2025-09-11,2025-09-26 20:17:33.525,HH,C,1843671536,JASSM,3,103,76,2,2,1,225,9,2,0,1,26,0,0,0,0,-170786.39026053375,-4771675.430635299,4219189.718229771,-2.51429,-0.703043,0.60784,58.75,-49.625,-53.375,0.0,0.0,0.0,0.0,0.0,0.0,2,0,41.65636349121687,-92.04983851504032,10002.618556175195,139.84800447911698,-0.0022119913028867,0.0048308411722664,,8988.574530004647,11016.82538521552,150,3,2025-09-11,2025-09-26 20:17:33.635,HH,C,247972374,HAWK11,1,1,73,2,1,1,225,2,1,0,0,12,1,225,2,1,-151056.35974295562,-4789351.002900924,4200439.159636021,2.85944,2.16579,-0.802943,-53.75,56.375,63.25,-0.046875,-7.17188,6.70312,0.0214844,0.0195312,0.0332031,4,0,41.428598512384845,-91.80651276121532,10955.043850872102,-24.070437314075672,3.1035401533425144,9.954448864481936,199.571,8988.574530004647,11016.82538521552,150,True,17.48544050155487,False,173.44444122203117,178.5340376699917,False,5.216712817904353,True,False
3,1970-07-23 10:16:58.546440038,2025-09-11,2025-09-26 20:17:34.644,HH,C,1844983458,JASSM,3,103,76,2,2,1,225,9,2,0,1,26,0,0,0,0,-170721.80944998687,-4771730.172822799,4219130.819792271,-2.51429,-0.703043,0.60784,58.75,-49.625,-53.375,0.0,0.0,0.0,0.0,0.0,0.0,2,0,41.65565405570408,-92.04904056702412,10002.623736299687,139.84853484082248,-0.0012853127260874,0.0048290756360996,,8988.574530004647,11016.82538521552,150,3,2025-09-11,2025-09-26 20:17:34.729,HH,C,249244906,HAWK11,1,1,73,2,1,1,225,2,1,0,0,12,1,225,2,1,-151112.57068045562,-4789290.341768111,4200506.602995396,2.89692,2.13837,-0.804669,-52.0,57.0,63.75,-0.15625,-7.14062,6.70312,0.00976562,0.00390625,0.015625,4,0,41.429404067427065,-91.80720742782208,10956.670829253062,-23.043506634061792,2.722896222763776,11.023469489174696,201.747,8988.574530004647,11016.82538521552,150,False,17.372730547943373,False,172.3751342118433,178.54709885334725,False,6.277520223236299,True,False
3,1970-07-23 10:16:58.556156884,2025-09-11,2025-09-26 20:17:35.615,HH,C,1846176748,JASSM,3,103,76,2,2,1,225,9,2,0,1,26,0,0,0,0,-170663.06848319,-4771779.961885299,4219077.245573521,-2.51429,-0.703043,0.60784,58.75,-49.625,-53.375,0.0,0.0,0.0,0.0,0.0,0.0,2,0,41.65500877304645,-92.04831479146657,10002.622061727869,139.84901722616522,-0.0004424356869626,0.0048274726577335,,8988.574530004647,11016.82538521552,150,3,2025-09-11,2025-09-26 20:17:35.433,HH,C,250119772,HAWK11,1,1,73,2,1,1,225,2,1,0,0,12,1,225,2,1,-151150.44958670562,-4789247.276338424,4200554.247526646,2.91619,2.12351,-0.801026,-50.625,57.75,64.25,-0.15625,-6.875,6.39062,0.00390625,0.0,0.0234375,4,0,41.42997474557689,-91.80767637812517,10957.16014969077,-22.593610805281287,2.286408355085112,11.534897043000992,203.201,8988.574530004647,11016.82538521552,150,False,17.28236713329275,False,171.46102121208486,178.55827011080035,False,7.1861884323806455,True,False
3,1970-07-23 10:16:58.566194207,2025-09-11,2025-09-26 20:17:36.619,HH,C,1847429874,JASSM,3,103,76,2,2,1,225,9,2,0,1,26,0,0,0,0,-170601.38171561187,-4771832.250947799,4219020.983854771,-2.51429,-0.703043,0.60784,58.75,-49.625,-53.375,0.0,0.0,0.0,0.0,0.0,0.0,2,0,41.65433110097551,-92.0475526332448,10002.631081963122,139.84952378657673,0.0004427299791169,0.00482577447506,,8988.574530004647,11016.82538521552,150,3,2025-09-11,2025-09-26 20:17:36.635,HH,C,251591138,HAWK11,1,1,73,2,1,1,225,2,1,0,0,12,1,225,2,1,-151211.44568045562,-4789175.193330611,4200633.561979771,2.95119,2.0889,-0.804094,-48.25,58.75,64.75,0.0,-7.04688,6.54688,0.0175781,0.00585938,0.0292969,4,0,41.430927473529614,-91.80843257429812,10956.85865358653,-21.261287271171483,1.8931635644756424,12.162528633723127,205.229,8988.574530004647,11016.82538521552,150,False,17.16352542365233,False,170.00330017583576,178.5827416133748,False,8.649597993813686,True,False
3,1970-07-23 10:16:58.577215420,2025-09-11,2025-09-26 20:17:37.721,HH,C,1848741554,JASSM,3,103,76,2,2,1,225,9,2,0,1,26,0,0,0,0,-170536.812623815,-4771886.977510299,4218962.089323521,-2.51429,-0.702947,0.607936,58.75,-49.625,-53.375,0.0,0.0,0.0,0.0,0.0,0.0,2,0,41.65362176650378,-92.04675488262116,10002.623205179973,139.84962938182557,-0.00572532182585,0.0016876447988411,,8988.574530004647,11016.82538521552,150,3,2025-09-11,2025-09-26 20:17:37.731,HH,C,252823902,HAWK11,1,1,73,2,1,1,225,2,1,0,0,12,1,225,2,1,-151260.18982108062,-4789113.736299361,4200700.690886021,2.97544,2.06167,-0.805532,-46.25,59.5,65.5,-0.1875,-7.125,6.67188,-0.00976562,-0.00195312,0.03125,4,0,41.43173703571518,-91.80903834781763,10955.283080134215,-20.23067620321561,1.5558678004304267,12.45909325700694,206.806,8988.574530004647,11016.82538521552,150,False,17.05312983814759,False,168.70774831359472,178.60733769872812,False,9.966097067520511,True,False
3,1970-07-23 10:16:58.589622624,2025-09-11,2025-09-26 20:17:38.962,HH,C,1849994252,JASSM,3,103,76,2,2,1,225,9,2,0,1,26,0,0,0,0,-170475.14685233062,-4771939.243135299,4218905.847136021,-2.51429,-0.702947,0.607936,58.75,-49.625,-53.375,0.0,0.0,0.0,0.0,0.0,0.0,2,0,41.652944350866846,-92.04599301891632,10002.629452719946,139.85013573286574,-0.0048404861341841,0.0016859625881409,,8988.574530004647,11016.82538521552,150,3,2025-09-11,2025-09-26 20:17:38.933,HH,C,254255502,HAWK11,1,1,73,2,1,1,225,2,1,0,0,12,1,225,2,1,-151314.88318045562,-4789040.552705611,4200780.347136021,2.98474,2.02322,-0.806299,-43.875,60.5,66.125,-0.015625,-7.07812,6.70312,-0.0078125,0.00585938,0.0214844,4,0,41.432699796885935,-91.80971966976908,10952.542599253677,-18.792838776887372,1.0463010367015917,11.435440169415845,207.014,8988.574530004647,11016.82538521552,150,False,16.935943513672456,False,167.20474419457392,178.64250071057597,False,11.496693086137412,True,False
3,1970-07-23 10:16:58.598273728,2025-09-11,2025-09-26 20:17:39.827,HH,C,1851187300,JASSM,3,103,76,2,2,1,225,9,2,0,1,26,0,0,0,0,-170416.41760428375,-4771989.016572799,4218852.276823521,-2.51429,-0.702947,0.607936,58.75,-49.625,-53.375,0.0,0.0,0.0,0.0,0.0,0.0,2,0,41.652299165822825,-92.04526745140912,10002.618053752927,139.85061795439046,-0.0039977691873539,0.0016843447138657,,8988.574530004647,11016.82538521552,150,3,2025-09-11,2025-09-26 20:17:39.823,HH,C,255209900,HAWK11,1,1,73,2,1,1,225,2,1,0,0,12,1,225,2,1,-151349.42810233062,-4788991.121064986,4200833.761198521,2.99097,2.00578,-0.801601,-42.375,61.25,66.75,-0.015625,-7.125,6.71875,-0.0117188,0.00390625,0.0078125,4,0,41.433347911795245,-91.81015122239522,10949.663873585174,-18.23383890968168,0.5561882977056529,11.080485308916678,206.476,8988.574530004647,11016.82538521552,150,False,16.843019277601435,False,166.1913571352995,178.66857190059557,False,12.534030530968206,True,False
3,1970-07-23 10:16:58.609216550,2025-09-11,2025-09-26 20:17:40.921,HH,C,1852440000,JASSM,3,103,76,2,2,1,225,9,2,0,1,26,0,0,0,0,-170354.75183279935,-4772041.282197799,4218796.030729771,-2.51429,-0.702947,0.607936,58.75,-49.625,-53.375,0.0,0.0,0.0,0.0,0.0,0.0,2,0,41.65162171390513,-92.0445056188732,10002.62552539241,139.85112427152526,-0.0031129132148618,0.0016826455093668,,8988.574530004647,11016.82538521552,150,3,2025-09-11,2025-09-26 20:17:40.823,HH,C,256561966,HAWK11,1,1,73,2,1,1,225,2,1,0,0,12,1,225,2,1,-151396.02966483062,-4788921.231416549,4200909.075651646,2.99002,1.97644,-0.801793,-40.5,62.25,67.25,-0.15625,-7.0625,6.76562,-0.0136719,0.00585938,0.015625,4,0,41.43426328902292,-91.81073461775838,10944.97850752988,-17.125993370007198,0.1848396773190261,9.825019608186386,205.584,8988.574530004647,11016.82538521552,150,True,16.73080949038506,False,164.96995680959765,178.7102073861572,False,13.792092066346799,True,False
3,1970-07-23 10:16:58.618179858,2025-09-11,2025-09-26 20:17:41.817,HH,C,1853633254,JASSM,3,103,76,2,2,1,225,9,2,0,1,26,0,0,0,0,-170296.01208670562,-4772091.063447799,4218742.452604771,-2.51429,-0.702947,0.607936,58.75,-49.625,-53.375,0.0,0.0,0.0,0.0,0.0,0.0,2,0,41.65097642233283,-92.0437799518223,10002.624591888163,139.85160654664148,-0.002270059677316,0.001681038851326,,8988.574530004647,11016.82538521552,150,3,2025-09-11,2025-09-26 20:17:41.729,HH,C,257595898,HAWK11,1,1,73,2,1,1,225,2,1,0,0,12,1,225,2,1,-151430.63903983062,-4788866.483369674,4200967.880339146,2.98887,1.95698,-0.806203,-39.125,62.875,67.875,-0.140625,-7.28125,7.01562,-0.0214844,0.0136719,0.0117188,4,0,41.43497940332148,-91.81116897084571,10940.746641035785,-16.312366405779706,0.1852873949045957,8.958798298575894,204.472,8988.574530004647,11016.82538521552,150,True,16.63462891633977,False,164.04908433288787,178.7450765501233,False,14.748811757796844,True,False
3,1970-07-23 10:16:58.629194073,2025-09-11,2025-09-26 20:17:42.919,HH,C,1854885744,JASSM,3,103,76,2,2,1,225,9,2,0,1,26,0,0,0,0,-170234.3565691275,-4772143.317354049,4218686.214323521,-2.51429,-0.702947,0.607936,58.75,-49.625,-53.375,0.0,0.0,0.0,0.0,0.0,0.0,2,0,41.650299080792415,-92.04301827842464,10002.63102637404,139.85211274482256,-0.0013853571786419,0.0016793441229229,,8988.574530004647,11016.82538521552,150,3,2025-09-11,2025-09-26 20:17:43.142,HH,C,259345630,HAWK11,1,1,73,2,1,1,225,2,1,0,0,12,1,225,2,1,-151486.61853201812,-4788773.184541549,4201068.640104771,2.9717,1.92467,-0.811092,-37.125,63.125,69.0,-0.140625,-7.01562,6.73438,-0.00195312,-0.00585938,0.0136719,4,0,41.43620402631752,-91.8118733372235,10934.500108053042,-15.008673471189672,0.0798365702566216,6.639587243711192,202.223,8988.574530004647,11016.82538521552,150,True,16.504597368293975,False,162.7746354347483,178.81187446673536,False,16.100853845232642,True,False
3,1970-07-23 10:16:58.639236824,2025-09-11,2025-09-26 20:17:43.923,HH,C,1856139274,JASSM,3,103,76,2,2,1,225,9,2,0,1,26,0,0,0,0,-170172.64978201812,-4772195.610322799,4218629.925261021,-2.51429,-0.702947,0.607936,58.75,-49.625,-53.375,0.0,0.0,0.0,0.0,0.0,0.0,2,0,41.649621170102215,-92.0422559895133,10002.622949973747,139.85261934530337,-0.0004999192151947,0.0016776463841669,,8988.574530004647,11016.82538521552,150,3,2025-09-11,2025-09-26 20:17:43.933,HH,C,260180728,HAWK11,1,1,73,2,1,1,225,2,1,0,0,12,1,225,2,1,-151511.90759451812,-4788728.332979049,4201116.907682896,2.98139,1.90703,-0.812051,-36.125,63.625,69.375,-0.078125,-7.125,6.59375,-0.0253906,0.00195312,0.015625,4,0,41.43679189213842,-91.81219256998172,10931.00449045202,-14.324966868571956,-0.0585906639058907,6.461431060568522,200.94,8988.574530004647,11016.82538521552,150,True,16.415114085523452,False,162.1190479080168,178.84464529961647,False,16.789420348699956,True,False
3,1970-07-23 10:16:58.650258054,2025-09-11,2025-09-26 20:17:45.025,HH,C,1857391140,JASSM,3,103,76,2,2,1,225,9,2,0,1,26,0,0,0,0,-170111.0245378775,-4772247.836885299,4218573.710417271,-2.51429,-0.702947,0.607936,58.75,-49.625,-53.375,0.0,0.0,0.0,0.0,0.0,0.0,2,0,41.6489441328905,-92.04149472273352,10002.626118056416,139.85312525974575,0.0003843625071048,0.001675940410675,,8988.574530004647,11016.82538521552,150,3,2025-09-11,2025-09-26 20:17:45.027,HH,C,261493026,HAWK11,1,1,73,2,1,1,225,2,1,0,0,12,1,225,2,1,-151550.76892264312,-4788657.991182174,4201192.587370396,2.8858,1.89638,-0.812243,-35.375,64.125,69.625,-0.203125,-7.17188,6.6875,-0.103516,-0.0078125,-0.0078125,4,0,41.43771387388057,-91.81268367848304,10925.422738431778,-13.918000327330684,-0.15854207961802,0.5415796855954127,199.058,8988.574530004647,11016.82538521552,150,True,16.305274189876286,False,161.61757289682325,178.89950138747324,False,17.34662775826546,True,False
3,1970-07-23 10:16:58.660135366,2025-09-11,2025-09-26 20:17:46.013,HH,C,1858584188,JASSM,3,103,76,2,2,1,225,9,2,0,1,26,0,0,0,0,-170052.29504569,-4772297.606416549,4218520.140104771,-2.51429,-0.702947,0.608032,58.75,-49.625,-53.375,0.0,0.0,0.0,0.0,0.0,0.0,2,0,41.64829894240354,-92.04076924373696,10002.633187305257,139.85683054340168,-0.0032190042794625,0.0016742821471196,,8988.574530004647,11016.82538521552,150,3,2025-09-11,2025-09-26 20:17:46.137,HH,C,262924626,HAWK11,1,1,73,2,1,1,225,2,1,0,0,12,1,225,2,1,-151592.95153983062,-4788580.610322799,4201275.780729771,2.76893,1.89667,-0.809367,-35.625,64.5,69.625,-0.109375,-7.125,6.64062,-0.0878906,0.00195312,-0.00976562,4,0,41.43872782097705,-91.81321716440128,10919.1162012289,-13.972528472134387,-0.3135116714788115,-6.142274239055073,197.714,8988.574530004647,11016.82538521552,150,True,16.19246030457239,False,161.70083569203723,178.96147901646052,False,17.32655513425146,True,False
3,1970-07-23 10:16:58.670155949,2025-09-11,2025-09-26 20:17:47.015,HH,C,1859836886,JASSM,3,103,76,2,2,1,225,9,2,0,1,26,0,0,0,0,-169990.629030065,-4772349.860322799,4218463.886198521,-2.51429,-0.702851,0.608032,58.75,-49.625,-53.375,0.0,0.0,0.0,0.0,0.0,0.0,2,0,41.64762147776216,-92.04000750753782,10002.62435575144,139.85368534348666,-0.0049813925538784,-0.0014660949056587,,8988.574530004647,11016.82538521552,150,3,2025-09-11,2025-09-26 20:17:47.027,HH,C,263958558,HAWK11,1,1,73,2,1,1,225,2,1,0,0,12,1,225,2,1,-151624.02282889312,-4788524.659150924,4201335.700651646,2.67526,1.91939,-0.804285,-36.625,64.5,69.625,0.046875,-6.98438,6.54688,-0.0898438,0.0,-0.0195312,4,0,41.43945927995803,-91.81360973936174,10914.097108960936,-14.918594954428006,-0.3495702303778084,-10.563428673650478,196.785,8988.574530004647,11016.82538521552,150,False,16.094279845394407,False,162.2281225294674,179.00464811132858,False,16.84613456128414,True,False
3,1970-07-23 10:16:58.681214662,2025-09-11,2025-09-26 20:17:48.121,HH,C,1861090264,JASSM,3,103,76,2,2,1,225,9,2,0,1,26,0,0,0,0,-169928.92956717435,-4772402.145479049,4218407.601042271,-2.51419,-0.702851,0.608032,58.75,-49.625,-53.375,0.0,0.0,0.0,0.0,0.0,0.0,2,0,41.64694361819252,-92.03924537290852,10002.626027811622,139.85419181492867,-0.0040960526874151,0.0040373270582505,,8988.574530004647,11016.82538521552,150,3,2025-09-11,2025-09-26 20:17:48.527,HH,C,265668522,HAWK11,1,1,73,2,1,1,225,2,1,0,0,12,1,225,2,1,-151677.68689139312,-4788432.704072799,4201433.335417271,2.52263,1.98468,-0.797862,-39.375,64.5,68.375,-0.1875,-6.95312,6.625,-0.0566406,-0.00585938,-0.0292969,4,0,41.44065524518683,-91.8142860154772,10904.228954639302,-17.512328479228046,0.0838061037427313,-16.61558325147365,196.321,8988.574530004647,11016.82538521552,150,False,15.966437583348615,False,163.85193712964107,179.07385799226114,False,15.286877564789673,True,False
3,1970-07-23 10:16:58.691233418,2025-09-11,2025-09-26 20:17:49.123,HH,C,1862342638,JASSM,3,103,76,2,2,1,225,9,2,0,1,26,0,0,0,0,-169867.27942069,-4772454.383760299,4218351.362761021,-2.51419,-0.702851,0.608032,58.75,-49.625,-53.375,0.0,0.0,0.0,0.0,0.0,0.0,2,0,41.64626633837568,-92.03848386558148,10002.624345219065,139.8546978627438,-0.0032114543347191,0.0040356444154998,,8988.574530004647,11016.82538521552,150,3,2025-09-11,2025-09-26 20:17:48.963,HH,C,265390156,HAWK11,1,1,73,2,1,1,225,2,1,0,0,12,1,225,2,1,-151668.97302420562,-4788447.235322799,4201417.968229771,2.55159,1.96052,-0.795273,-39.0,64.625,68.875,-0.078125,-7.0,6.46875,-0.0585938,-0.00976562,-0.0332031,4,0,41.44046671195045,-91.81417635286633,10905.903227626255,-16.640347136513252,-0.3618993614280905,-15.94850948585521,196.443,8988.574530004647,11016.82538521552,150,False,15.925310068857542,False,163.56289676704128,179.05997609777168,False,15.564616355495724,True,False
3,1970-07-23 10:16:58.701254598,2025-09-11,2025-09-26 20:17:50.125,HH,C,1863535776,JASSM,3,103,76,2,2,1,225,9,2,0,1,26,0,0,0,0,-169808.5451677603,-4772504.153291549,4218297.780729771,-2.51419,-0.702851,0.608032,58.75,-49.625,-53.375,0.0,0.0,0.0,0.0,0.0,0.0,2,0,41.64562105079286,-92.03775838958347,10002.624233102852,139.85517996022128,-0.0023686667326138,0.0040340182207416,,8988.574530004647,11016.82538521552,150,3,2025-09-11,2025-09-26 20:17:50.135,HH,C,267656854,HAWK11,1,1,73,2,1,1,225,2,1,0,0,12,1,225,2,1,-151746.89294608062,-4788325.870088424,4201544.989714146,2.36914,2.06876,-0.771592,-44.125,64.0,66.625,-0.25,-7.17188,6.78125,-0.0371094,0.0,-0.0332031,4,0,41.44203143008862,-91.81515373757571,10889.450168062178,-21.23233772213369,-0.1265239975004428,-22.003090358071454,196.59,8988.574530004647,11016.82538521552,150,False,15.774363231046502,False,166.6342203963186,179.14232346255167,False,12.566607864915929,True,False
3,1970-07-23 10:16:58.712271967,2025-09-11,2025-09-26 20:17:51.227,HH,C,1864788210,JASSM,3,103,76,2,2,1,225,9,2,0,1,26,0,0,0,0,-169746.89196951812,-4772556.395479049,4218241.534636021,-2.51419,-0.702851,0.608032,58.75,-49.625,-53.375,0.0,0.0,0.0,0.0,0.0,0.0,2,0,41.64494368573401,-92.03699687514536,10002.624560868522,139.8556859995761,-0.0014839922331301,0.0040323088685227,,8988.574530004647,11016.82538521552,150,3,2025-09-11,2025-09-26 20:17:51.135,HH,C,268849852,HAWK11,1,1,73,2,1,1,225,2,1,0,0,12,1,225,2,1,-151792.07751639312,-4788262.623994674,4201609.847136021,2.3189,2.13588,-0.752226,-47.25,63.5,65.0,-0.15625,-7.375,6.90625,0.0195312,0.0117188,-0.0449219,4,0,41.44283695807797,-91.8157178276584,10878.33874322118,-24.22598349386216,-0.0289995282383694,-22.222351466545287,196.736,8988.574530004647,11016.82538521552,150,False,15.667927489747607,False,168.53950818675136,179.17732177525167,False,10.685430296620533,True,False
3,1970-07-23 10:16:58.722132900,2025-09-11,2025-09-26 20:17:52.213,HH,C,1866040728,JASSM,3,103,76,2,2,1,225,9,2,0,1,26,0,0,0,0,-169685.234498815,-4772608.639619674,4218185.284636021,-2.51419,-0.702851,0.608032,58.75,-49.625,-53.5,0.0,0.0,0.0,0.0,0.0,0.0,2,0,41.64426627851616,-92.03623532459947,10002.625773463997,139.85619205617056,-0.0005992642380215,0.0040306053490775,,8988.574530004647,11016.82538521552,150,3,2025-09-11,2025-09-26 20:17:52.231,HH,C,270162152,HAWK11,1,1,73,2,1,1,225,2,1,0,0,12,1,225,2,1,-151845.74939139312,-4788193.663057174,4201679.505339146,2.30807,2.19848,-0.734873,-50.75,62.75,63.375,0.0,-7.4375,7.125,0.0292969,0.0292969,-0.0273438,4,0,41.44370729042508,-91.81638555613218,10864.27155589054,-27.034461624686504,0.2423230981010402,-20.419638136517037,197.445,8988.574530004647,11016.82538521552,150,False,15.555542296476208,False,170.67589147884163,179.2157774824051,False,8.594302808381485,True,False
3,1970-07-23 10:16:58.733154565,2025-09-11,2025-09-26 20:17:53.315,HH,C,1867293428,JASSM,3,103,76,2,2,1,225,9,2,0,1,26,0,0,0,0,-169623.56811697906,-4772660.889619674,4218129.026823521,-2.51419,-0.702851,0.608032,58.75,-49.625,-53.5,0.0,0.0,0.0,0.0,0.0,0.0,2,0,41.64358878050901,-92.03547368066651,10002.628522940378,139.85669816806544,0.0002855820239553,0.0040289090333958,,8988.574530004647,11016.82538521552,150,3,2025-09-11,2025-09-26 20:17:53.323,HH,C,271434684,HAWK11,1,1,73,2,1,1,225,2,1,0,0,12,1,225,2,1,-151901.27966483062,-4788128.055635299,4201745.505339146,2.30759,2.27489,-0.727011,-53.75,61.25,61.75,-0.140625,-7.96875,7.625,0.0566406,0.0175781,-0.0195312,4,0,41.44453262597907,-91.8170742472096,10850.654833659391,-30.108683625320456,1.418065129043831,-17.568124803121258,197.897,8988.574530004647,11016.82538521552,150,False,15.444646645799045,False,172.7084056971706,179.23952499035445,False,6.574454123614263,True,False
3,1970-07-23 10:16:58.743194490,2025-09-11,2025-09-26 20:17:54.319,HH,C,1868546126,JASSM,3,103,76,2,2,1,225,9,2,0,1,26,0,0,0,0,-169561.90185721344,-4772713.137666549,4218072.765104771,-2.51419,-0.702851,0.608128,58.75,-49.625,-53.5,0.0,0.0,0.0,0.0,0.0,0.0,2,0,41.64291126275161,-92.0347120549859,10002.622971133223,139.86042966923677,-0.0032782160974206,0.0040271426211459,,8988.574530004647,11016.82538521552,150,3,2025-09-11,2025-09-26 20:17:54.229,HH,C,272508382,HAWK11,1,1,73,2,1,1,225,2,1,0,0,12,1,225,2,1,-151951.00134451812,-4788073.989229049,4201801.192839146,2.32015,2.31142,-0.723847,-56.25,59.625,61.375,-0.078125,-8.17188,7.71875,0.0292969,0.0117188,-0.0195312,4,0,41.44522077916048,-91.81768914035575,10842.564664079946,-31.546585468171127,2.0672892689560776,-15.503553174802942,198.154,8988.574530004647,11016.82538521552,150,False,15.342214899035438,False,174.3793289070729,179.25357091882032,False,4.92893014364308,True,False
3,1970-07-23 10:16:58.756013966,2025-09-11,2025-09-26 20:17:55.601,HH,C,1869798858,JASSM,3,103,76,2,2,1,225,9,2,0,1,26,0,0,0,0,-169500.23376639312,-4772765.387666549,4218016.503386021,-2.51419,-0.702755,0.608128,58.75,-49.625,-53.5,0.0,0.0,0.0,0.0,0.0,0.0,2,0,41.64223372858434,-92.03395042247588,10002.627035357238,139.85728700537234,-0.0050389492238334,0.0008882756621575,,8988.574530004647,11016.82538521552,150,3,2025-09-11,2025-09-26 20:17:55.635,HH,C,274218346,HAWK11,1,1,73,2,1,1,225,2,1,0,0,12,1,225,2,1,-152033.37536795562,-4787991.413057174,4201887.606901646,2.33903,2.3514,-0.718574,-59.25,57.125,60.5,-0.40625,-7.59375,6.92188,0.0390625,-0.00195312,-0.0253906,4,0,41.44627976819893,-91.81870520936984,10833.676758344653,-33.16431999081053,2.7320821200325365,-12.976416016299224,197.861,8988.574530004647,11016.82538521552,150,False,15.21117147467474,False,176.59179904316485,179.26781440422164,False,2.7663489732705235,True,False
3,1970-07-23 10:16:58.764271258,2025-09-11,2025-09-26 20:17:56.427,HH,C,1871051524,JASSM,3,103,76,2,2,1,225,9,2,0,1,26,0,0,0,0,-169438.56884940094,-4772817.631807174,4217960.241667271,-2.51419,-0.702755,0.608128,58.75,-49.625,-53.5,0.0,0.0,0.0,0.0,0.0,0.0,2,0,41.641556223633394,-92.03318884646912,10002.622008473203,139.8577930520732,-0.0041541187726126,0.0008865666991318,,8988.574530004647,11016.82538521552,150,3,2025-09-11,2025-09-26 20:17:56.729,HH,C,275490878,HAWK11,1,1,73,2,1,1,225,2,1,0,0,12,1,225,2,1,-152098.02771170562,-4787930.360322799,4201951.399870396,2.3724,2.37872,-0.718862,-60.875,56.125,59.625,-0.109375,-7.96875,7.59375,0.0449219,0.0332031,-0.0078125,4,0,41.44706136146305,-91.81950128109376,10827.19385305716,-34.13974474904115,3.3970993968991468,-10.08602996447318,198.08,8988.574530004647,11016.82538521552,150,False,15.099254099228698,False,177.76534129274188,179.272767948944,False,1.5994008769998318,True,False
3,1970-07-23 10:16:58.775272244,2025-09-11,2025-09-26 20:17:57.527,HH,C,1872304222,JASSM,3,103,76,2,2,1,225,9,2,0,1,26,0,0,0,0,-169376.9023454947,-4772869.877900924,4217903.979948521,-2.51419,-0.702755,0.608128,58.75,-49.625,-53.5,0.0,0.0,0.0,0.0,0.0,0.0,2,0,41.64087870222151,-92.03242726655904,10002.626618779816,139.858299094611,-0.0032692699845224,0.0008848617432445,,8988.574530004647,11016.82538521552,150,3,2025-09-11,2025-09-26 20:17:57.635,HH,C,276564578,HAWK11,1,1,73,2,1,1,225,2,1,0,0,12,1,225,2,1,-152153.32068045562,-4787880.665010299,4202005.124479771,2.39991,2.39847,-0.722888,-62.0,54.5,59.625,-0.03125,-7.8125,7.45312,0.0371094,0.00976562,-0.00390625,4,0,41.447709183113965,-91.82018116826424,10826.036365847069,-34.71317493772046,4.06796007442412,-7.799814922775109,198.154,8988.574530004647,11016.82538521552,150,True,14.996844155200709,False,178.6289473868499,179.272812564329,False,1.0264165019607667,True,False
3,1970-07-23 10:16:58.785133745,2025-09-11,2025-09-26 20:17:58.513,HH,C,1873497340,JASSM,3,103,76,2,2,1,225,9,2,0,1,26,0,0,0,0,-169318.16870291656,-4772919.635713424,4217850.394011021,-2.51419,-0.702755,0.608128,58.75,-49.625,-53.5,0.0,0.0,0.0,0.0,0.0,0.0,2,0,41.64023341944532,-92.03170192372306,10002.627121580968,139.85878105263015,-0.0024265208885016,0.0008832501958047,,8988.574530004647,11016.82538521552,150,3,2025-09-11,2025-09-26 20:17:58.433,HH,C,277518976,HAWK11,1,1,73,2,1,1,225,2,1,0,0,12,1,225,2,1,-152203.36755545562,-4787837.307588424,4202052.501432896,2.42695,2.40816,-0.720396,-62.625,53.625,59.375,-0.25,-7.54688,7.17188,0.046875,0.0136719,-0.015625,4,0,41.44827744023442,-91.82079594397024,10826.265917307615,-35.13806662753854,4.189583841956182,-5.91473700818078,198.007,8988.574530004647,11016.82538521552,150,True,14.902498635216482,False,179.01381565905578,179.270186247349,False,1.0151928219296735,True,False
