Subject_cm,Timestamp,SampleDate_cm,SampleTime_cm,Configuration_cm,Scenario_cm,DisTime_cm,MarkingTxt_cm,Application_cm,EntId_cm,Site_cm,ExerciseId_cm,ForceId_cm,Category_cm,Country_cm,Domain_cm,Kind_cm,Extra_cm,Specific_cm,Subcategory_cm,AltCategory_cm,AltCountry_cm,AltDomain_cm,AltKind_cm,ECEF_X_cm,ECEF_Y_cm,ECEF_Z_cm,OriPhi_cm,OriPsi_cm,OriTheta_cm,LinVelX_cm,LinVelY_cm,LinVelZ_cm,LinAccX_cm,LinAccY_cm,LinAccZ_cm,AngVelX_cm,AngVelY_cm,AngVelZ_cm,DrAlg_cm,Appearance_cm,Latitude_cm,Longitude_cm,Altitude_cm,Heading_cm,Pitch_cm,Roll_cm,CalibratedAirspeed_cm,CM_Altitude_Lead_cm,CM_Altitude_Wing_cm,CM_Airspeed_cm,Subject_ac,SampleDate_ac,SampleTime_ac,Configuration_ac,Scenario_ac,DisTime_ac,MarkingTxt_ac,Application_ac,EntId_ac,Site_ac,ExerciseId_ac,ForceId_ac,Category_ac,Country_ac,Domain_ac,Kind_ac,Extra_ac,Specific_ac,Subcategory_ac,AltCategory_ac,AltCountry_ac,AltDomain_ac,AltKind_ac,ECEF_X_ac,ECEF_Y_ac,ECEF_Z_ac,OriPhi_ac,OriPsi_ac,OriTheta_ac,LinVelX_ac,LinVelY_ac,LinVelZ_ac,LinAccX_ac,LinAccY_ac,LinAccZ_ac,AngVelX_ac,AngVelY_ac,AngVelZ_ac,DrAlg_ac,Appearance_ac,Latitude_ac,Longitude_ac,Altitude_ac,Heading_ac,Pitch_ac,Roll_ac,CalibratedAirspeed_ac,CM_Altitude_Lead_ac,CM_Altitude_Wing_ac,CM_Airspeed_ac,Bank_Angle_Condition,distance_nm,Distance_Condition,angle_between_vel,angle_between_pos,Cone_Condition,angle_between_pos_nose,Nose_Cone_Condition,Intercept_Criteria
3,1970-07-23 10:17:04.326292210,2025-09-11,2025-09-26 20:27:12.629,HA,C,2534624460,JASSM,3,113,76,2,2,1,225,9,2,0,1,26,0,0,0,0,-163193.64782889312,-4785351.086885299,4204076.196745396,-2.36559,-0.397301,0.382249,73.25,-30.625,-31.75,0.0,0.0,0.0,0.0,0.0,0.0,2,0,41.47457574209993,-91.9531868876421,10002.622064416726,119.85393364380424,-0.0033325876059923,0.0050446664599189,,8905.102926237949,10943.217344713625,150,3,2025-09-11,2025-09-26 20:27:12.737,HA,C,1617287414,AMBUSH51,1,1,48,2,1,1,225,2,1,0,0,9,1,225,2,1,-144243.76351990676,-4792523.566254889,4196136.997728628,2.29525,2.90582,-0.243079,-110.422,18.8494,22.634,-0.0521706,-7.49294,6.46191,-0.00147826,0.00329046,-0.00404156,4,0,41.3819320891372,-91.72394868280492,8906.759708570842,-71.84055171384233,0.5944322300927499,-1.2234607875635668,195.099,8905.102926237949,10943.217344713625,150,True,11.708949423542622,False,163.80565632514026,178.13631174053958,False,14.537194653671857,True,False
3,1970-07-23 10:17:04.337309970,2025-09-11,2025-09-26 20:27:13.730,HA,C,2535877426,JASSM,3,113,76,2,2,1,225,9,2,0,1,26,0,0,0,0,-163116.72107108062,-4785383.373994674,4204042.657682896,-2.36559,-0.397301,0.382249,73.25,-30.625,-31.75,0.0,0.0,0.0,0.0,0.0,0.0,2,0,41.4741728845801,-91.95225373881183,10002.62445160006,119.85455165435556,-0.0025256662178035,0.005043310663053,,8905.102926237949,10943.217344713625,150,3,2025-09-11,2025-09-26 20:27:13.802,HA,C,1618559946,AMBUSH51,1,1,48,2,1,1,225,2,1,0,0,9,1,225,2,1,-144360.57953215786,-4792501.341879098,4196159.176764516,2.29379,2.90704,-0.244942,-110.261,20.4826,21.0823,-0.259466,-7.49316,6.63742,-0.00132222,0.00275367,-0.00443063,4,0,41.382193117627466,-91.72535197767152,8908.833749161051,-71.80930351556343,0.7180425844675387,-1.2894726928530644,194.72,8905.102926237949,10943.217344713625,150,True,11.597660260450015,False,163.86945829742666,178.1938639834727,False,14.614718987226068,True,False
3,1970-07-23 10:17:04.348289705,2025-09-11,2025-09-26 20:27:14.828,HA,C,2537189022,JASSM,3,113,76,2,2,1,225,9,2,0,1,26,0,0,0,0,-163036.19470389312,-4785417.170869674,4204007.548307896,-2.36559,-0.397301,0.382249,73.25,-30.625,-31.75,0.0,0.0,0.0,0.0,0.0,0.0,2,0,41.47375116803132,-91.95127693824554,10002.626838664226,119.85519856951365,-0.0016809869743153,0.0050418911409082,,8905.102926237949,10943.217344713625,150,3,2025-09-11,2025-09-26 20:27:14.970,HA,C,1619951778,AMBUSH51,1,1,48,2,1,1,225,2,1,0,0,9,1,225,2,1,-144489.70743732812,-4792477.237378647,4196183.991489951,2.30287,2.90751,-0.248879,-110.065,20.3944,21.0569,0.0358254,-7.58793,6.42712,0.01092,0.00661525,0.0150874,4,0,41.38248090161629,-91.72690301991253,8912.919042132851,-71.66217191574731,0.8912812375509755,-0.7608220499321755,194.573,8905.102926237949,10943.217344713625,150,True,11.477523865049218,False,163.85626479883587,178.25880183691018,False,14.709462253960455,True,False
3,1970-07-23 10:17:04.359289814,2025-09-11,2025-09-26 20:27:15.928,HA,C,2538501634,JASSM,3,113,76,2,2,1,225,9,2,0,1,26,0,0,0,0,-162955.60583670562,-4785450.993135299,4203972.409636021,-2.36559,-0.397301,0.382249,73.25,-30.625,-31.75,0.0,0.0,0.0,0.0,0.0,0.0,2,0,41.47332910703928,-91.95029939256158,10002.627272618394,119.85584597273412,-0.0008356479206646,0.0050404627248308,,8905.102926237949,10943.217344713625,150,3,2025-09-11,2025-09-26 20:27:16.037,HA,C,1621224310,AMBUSH51,1,1,48,2,1,1,225,2,1,0,0,9,1,225,2,1,-144606.02021325464,-4792455.83167622,4196206.248105667,2.31276,2.90907,-0.255125,-109.786,20.1659,21.1442,-0.228727,-7.6085,6.80414,0.00583503,0.00811744,0.00643008,4,0,41.38273763931089,-91.7283000316999,8917.154170929642,-71.45893182691918,1.1989010779076863,-0.1675520250472775,194.341,8905.102926237949,10943.217344713625,150,True,11.364343429480543,False,163.8456097068294,178.31705516747522,False,14.789061300723969,True,False
3,1970-07-23 10:17:04.370249139,2025-09-11,2025-09-26 20:27:17.024,HA,C,2539813720,JASSM,3,113,76,2,2,1,225,9,2,0,1,26,0,0,0,0,-162875.05066092435,-4785484.799775924,4203937.284636021,-2.36559,-0.397205,0.382249,73.25,-30.625,-31.75,0.0,0.0,0.0,0.0,0.0,0.0,2,0,41.472907216142445,-91.94932226883417,10002.626401908146,119.85285520943836,-0.0035603190141783,0.0029901493814359,,8905.102926237949,10943.217344713625,150,3,2025-09-11,2025-09-26 20:27:16.902,HA,C,1622258242,AMBUSH51,1,1,48,2,1,1,225,2,1,0,0,9,1,225,2,1,-144700.9005437958,-4792438.456846107,4196224.7527893735,2.32172,2.9086,-0.257686,-109.526,19.8308,21.5171,0.0576862,-7.64029,6.44108,0.0209485,-0.00736427,0.0102709,4,0,41.38294889987096,-91.72943959875904,8921.58472737092,-71.33380021896264,1.2797260178876668,0.3415720395582534,193.84,8905.102926237949,10943.217344713625,150,True,11.262669083765685,False,163.89366180768897,178.36300184535418,False,14.786560448095274,True,False
3,1970-07-23 10:17:04.379272016,2025-09-11,2025-09-26 20:27:17.927,HA,C,2540947116,JASSM,3,113,76,2,2,1,225,9,2,0,1,26,0,0,0,0,-162805.46374686187,-4785514.000947799,4203906.942839146,-2.36559,-0.397205,0.382249,73.25,-30.625,-31.75,0.0,0.0,0.0,0.0,0.0,0.0,2,0,41.4725427811992,-91.94847819986612,10002.624783738176,119.85341420552828,-0.0028303963426131,0.002988886690986,,8905.102926237949,10943.217344713625,150,3,2025-09-11,2025-09-26 20:27:18.036,HA,C,1623610308,AMBUSH51,1,1,48,2,1,1,225,2,1,0,0,9,1,225,2,1,-144825.49382128072,-4792415.671675546,4196249.550650736,2.33966,2.90683,-0.262138,-109.189,19.7398,21.9611,-0.115802,-7.4024,6.73052,0.017994,-0.00410813,-0.000766699,4,0,41.38322948314456,-91.73093603466464,8928.566659485137,-71.08075398142402,1.3817945133772764,1.3492908251027365,193.461,8905.102926237949,10943.217344713625,150,True,11.151832345435162,False,164.058147599367,178.42627384586052,False,14.694552298229983,True,False
3,1970-07-23 10:17:04.390289733,2025-09-11,2025-09-26 20:27:19.028,HA,C,2542199814,JASSM,3,113,76,2,2,1,225,9,2,0,1,26,0,0,0,0,-162728.55310233062,-4785546.276338424,4203873.405729771,-2.36559,-0.397205,0.382345,73.25,-30.625,-31.75,0.0,0.0,0.0,0.0,0.0,0.0,2,0,41.47213996505197,-91.9475453068105,10002.624934656438,119.85787941611,-0.0059444309723742,0.0029872074492482,,8905.102926237949,10943.217344713625,150,3,2025-09-11,2025-09-26 20:27:19.103,HA,C,1624882840,AMBUSH51,1,1,48,2,1,1,225,2,1,0,0,9,1,225,2,1,-144941.77948692103,-4792394.418030489,4196273.315471494,2.3547,2.90596,-0.267466,-108.7,19.7433,22.4576,-0.162019,-7.5828,6.58785,-0.0010559,-0.000858245,0.00816946,4,0,41.383495456734806,-91.73233269771964,8936.466606642629,-70.82493549867269,1.5548651921098255,2.2047391266103937,192.887,8905.102926237949,10943.217344713625,150,True,11.040768441387339,False,164.29269138322002,178.48342022520413,False,14.52711537040136,True,False
3,1970-07-23 10:17:04.399310352,2025-09-11,2025-09-26 20:27:19.931,HA,C,2543333210,JASSM,3,113,76,2,2,1,225,9,2,0,1,26,0,0,0,0,-162658.96765311187,-4785575.477510299,4203843.061979771,-2.36559,-0.397205,0.382345,73.25,-30.625,-31.75,0.0,0.0,0.0,0.0,0.0,0.0,2,0,41.47177550355445,-91.94670127526548,10002.626352194831,119.8584383789968,-0.005214512799,0.0029859755020135,,8905.102926237949,10943.217344713625,150,3,2025-09-11,2025-09-26 20:27:20.002,HA,C,1625956538,AMBUSH51,1,1,48,2,1,1,225,2,1,0,0,9,1,225,2,1,-145039.30175140078,-4792376.42147738,4196293.743196487,2.37093,2.90008,-0.27471,-108.28,19.8573,22.9624,-0.242704,-7.36068,6.69204,0.0193755,0.0023001,0.00511514,4,0,41.38372288497647,-91.73350407092974,8943.752692662689,-70.30035606250013,1.5991109870462867,3.0591580781962007,192.386,8905.102926237949,10943.217344713625,150,True,10.94431521917015,False,164.55976622594892,178.52976275978034,False,14.316255980745474,True,False
3,1970-07-23 10:17:04.409706066,2025-09-11,2025-09-26 20:27:20.970,HA,C,2544526256,JASSM,3,113,76,2,2,1,225,9,2,0,1,26,0,0,0,0,-162585.71960623687,-4785606.213838424,4203811.120573521,-2.36559,-0.397205,0.382345,73.25,-30.625,-31.75,0.0,0.0,0.0,0.0,0.0,0.0,2,0,41.471391859449184,-91.94581282947364,10002.625866272372,119.8590267510127,-0.0044461798259335,0.002984684795097,,8905.102926237949,10943.217344713625,150,3,2025-09-11,2025-09-26 20:27:21.003,HA,C,1627149536,AMBUSH51,1,1,48,2,1,1,225,2,1,0,0,9,1,225,2,1,-145147.22735579422,-4792356.073756881,4196317.176625784,2.3862,2.89742,-0.275987,-107.768,20.2003,23.6191,-0.0655736,-7.44828,6.65656,-0.00105382,-0.00232506,0.00991507,4,0,41.383982707285405,-91.73480056682548,8952.553576396038,-70.14773102120034,1.5421369317907754,3.8967073948052464,192.044,8905.102926237949,10943.217344713625,150,True,10.839710387403505,False,164.97298990578935,178.57943598310908,False,13.96696807381587,True,False
3,1970-07-23 10:17:04.419351577,2025-09-11,2025-09-26 20:27:21.935,HA,C,2545660416,JASSM,3,113,76,2,2,1,225,9,2,0,1,26,0,0,0,0,-162516.08679373687,-4785635.430635299,4203780.755339146,-2.36559,-0.397205,0.382345,73.25,-30.625,-31.75,0.0,0.0,0.0,0.0,0.0,0.0,2,0,41.47102715682773,-91.94496824458976,10002.622019711407,119.85958607205252,-0.003715775677565,0.0029834684088338,,8905.102926237949,10943.217344713625,150,3,2025-09-11,2025-09-26 20:27:21.902,HA,C,1628223236,AMBUSH51,1,1,48,2,1,1,225,2,1,0,0,9,1,225,2,1,-145242.8360644942,-4792337.7580089,4196338.371751879,2.39239,2.89031,-0.281881,-107.294,20.5551,24.1205,-0.277992,-7.41524,6.53091,0.00227929,-0.01216,0.0131899,4,0,41.3842175353945,-91.7359492142599,8960.587176621613,-69.63443069253907,1.485807840075578,4.15264091877805,191.457,8905.102926237949,10943.217344713625,150,True,10.743935521619935,False,165.33502336108575,178.62146326512288,False,13.663954009938651,True,False
3,1970-07-23 10:17:04.429306904,2025-09-11,2025-09-26 20:27:22.930,HA,C,2546852942,JASSM,3,113,76,2,2,1,225,9,2,0,1,26,0,0,0,0,-162442.87048514312,-4785666.153291549,4203748.827604771,-2.36559,-0.397205,0.382345,73.25,-30.625,-31.75,0.0,0.0,0.0,0.0,0.0,0.0,2,0,41.47064366650038,-91.944080204328,10002.627642571631,119.860174166783,-0.0029477760999035,0.0029821789930695,,8905.102926237949,10943.217344713625,150,3,2025-09-11,2025-09-26 20:27:23.036,HA,C,1629575300,AMBUSH51,1,1,48,2,1,1,225,2,1,0,0,9,1,225,2,1,-145365.11666070542,-4792313.703576751,4196366.20016652,2.38629,2.88125,-0.28806,-106.705,21.244,24.5551,-0.0688234,-7.2468,6.43719,-0.00864591,-0.0104477,0.00268501,4,0,41.384526463483446,-91.73741853769744,8970.88408797921,-69.03639893685221,1.363695186497905,3.67225196116658,190.956,8905.102926237949,10943.217344713625,150,True,10.631159325318787,False,165.81560995528054,178.6735594727118,False,13.26999066167232,True,False
3,1970-07-23 10:17:04.439307054,2025-09-11,2025-09-26 20:27:23.930,HA,C,2548105396,JASSM,3,113,76,2,2,1,225,9,2,0,1,26,0,0,0,0,-162365.97497733062,-4785698.416963424,4203715.292448521,-2.36559,-0.397205,0.382345,73.25,-30.625,-31.75,0.0,0.0,0.0,0.0,0.0,0.0,2,0,41.47024089446791,-91.94314755149466,10002.624085533442,119.86079180087653,-0.0021411826612538,0.002980821295065,,8905.102926237949,10943.217344713625,150,3,2025-09-11,2025-09-26 20:27:23.769,HA,C,1630450166,AMBUSH51,1,1,48,2,1,1,225,2,1,0,0,9,1,225,2,1,-145442.35547449492,-4792297.968033342,4196384.309072263,2.37833,2.8751,-0.288869,-106.34,21.6067,24.8832,-0.292572,-7.12133,6.453,-0.0182936,-0.00589537,-0.005163,4,0,41.38472839517598,-91.73834684188115,8977.211916295422,-68.77244916312723,1.149619703747183,3.121827788864082,190.296,8905.102926237949,10943.217344713625,150,True,10.54046101095718,False,166.11088812218347,178.7017179412992,False,13.023619884579665,True,False
3,1970-07-23 10:17:04.449332867,2025-09-11,2025-09-26 20:27:24.933,HA,C,2549239206,JASSM,3,113,76,2,2,1,225,9,2,0,1,26,0,0,0,0,-162296.36364920562,-4785727.623994674,4203684.935026646,-2.36559,-0.397205,0.382345,73.25,-30.625,-31.75,0.0,0.0,0.0,0.0,0.0,0.0,2,0,41.46987627871553,-91.94230325736775,10002.625751974523,119.86135091660782,-0.0014110009242245,0.0029795998636041,,8905.102926237949,10943.217344713625,150,3,2025-09-11,2025-09-26 20:27:24.903,HA,C,1631802232,AMBUSH51,1,1,48,2,1,1,225,2,1,0,0,9,1,225,2,1,-145563.2300702015,-4792272.649591591,4196412.739958063,2.36306,2.86894,-0.289302,-105.914,22.3551,24.9842,-0.164351,-7.08142,6.12288,-0.00555623,-0.00324053,0.00205875,4,0,41.38504913198744,-91.73979984997216,8985.614187439713,-68.52366269484617,0.9210872730847524,2.1508054203518223,189.746,8905.102926237949,10943.217344713625,150,True,10.43027897431862,False,166.4802559837368,178.74627261287404,False,12.750338510470128,True,False
3,1970-07-23 10:17:04.459347449,2025-09-11,2025-09-26 20:27:25.934,HA,C,2550431836,JASSM,3,113,76,2,2,1,225,9,2,0,1,26,0,0,0,0,-162223.14099295562,-4785758.344697799,4203653.001432896,-2.36559,-0.397109,0.382345,73.25,-30.625,-31.75,0.0,0.0,0.0,0.0,0.0,0.0,2,0,41.46949274114142,-91.9414151734026,10002.62461150155,119.85830141384037,-0.0042125878075694,0.0009289811066851,,8905.102926237949,10943.217344713625,150,3,2025-09-11,2025-09-26 20:27:26.135,HA,C,1633273596,AMBUSH51,1,1,48,2,1,1,225,2,1,0,0,9,1,225,2,1,-145693.10559751693,-4792244.708223337,4196443.338413961,2.34971,2.85986,-0.289807,-105.715,22.8365,25.1015,-0.266675,-7.28004,6.41844,-0.00949479,0.000612735,0.000723007,4,0,41.3853984592405,-91.74136133883728,8992.946009646497,-68.16158436259515,0.579342927470575,1.2425860540642517,189.27,8905.102926237949,10943.217344713625,150,True,10.312753002934413,False,166.72277272566762,178.78925841402173,False,12.603539068403908,True,False
3,1970-07-23 10:17:04.469333434,2025-09-11,2025-09-26 20:27:26.933,HA,C,2551625050,JASSM,3,113,76,2,2,1,225,9,2,0,1,26,0,0,0,0,-162149.88220389312,-4785789.081025924,4203621.050261021,-2.36559,-0.397109,0.382345,73.25,-30.625,-31.75,0.0,0.0,0.0,0.0,0.0,0.0,2,0,41.469108992372654,-91.94052666148669,10002.624426654793,119.85888980310246,-0.0034441394292568,0.0009276341315756,,8905.102926237949,10943.217344713625,150,3,2025-09-11,2025-09-26 20:27:26.935,HA,C,1634227996,AMBUSH51,1,1,48,2,1,1,225,2,1,0,0,9,1,225,2,1,-145777.5370433749,-4792225.965399699,4196463.470931205,2.35121,2.85586,-0.290911,-105.585,23.1393,25.2597,-0.246538,-7.19711,6.41972,-0.000795827,0.000970597,0.0142906,4,0,41.385630607700406,-91.74237667362172,8996.816611436558,-67.9653620037358,0.464089892037185,1.2649008653916958,189.16,8905.102926237949,10943.217344713625,150,True,10.2200736648946,False,166.90444030896379,178.81184782857684,False,12.480267023933882,True,False
3,1970-07-23 10:17:04.478368614,2025-09-11,2025-09-26 20:27:27.836,HA,C,2552758642,JASSM,3,113,76,2,2,1,225,9,2,0,1,26,0,0,0,0,-162080.28405936187,-4785818.280244674,4203590.696745396,-2.36559,-0.397109,0.382345,73.25,-30.625,-31.75,0.0,0.0,0.0,0.0,0.0,0.0,2,0,41.46874442752839,-91.93968255754804,10002.627042473545,119.85944878042092,-0.0027140970926882,0.00092636715736,,8905.102926237949,10943.217344713625,150,3,2025-09-11,2025-09-26 20:27:27.802,HA,C,1635261928,AMBUSH51,1,1,48,2,1,1,225,2,1,0,0,9,1,225,2,1,-145868.79774307087,-4792205.468254506,4196485.359294054,2.35417,2.85194,-0.293084,-105.423,23.3462,25.5078,-0.204078,-7.09822,6.37975,-0.00746413,0.00301166,0.00234795,4,0,41.385883801099176,-91.74347422830256,9000.69490612855,-67.72762289512944,0.3944128120508687,1.3712129226141272,188.964,8905.102926237949,10943.217344713625,150,True,10.125864571084144,False,167.08798671483487,178.83447823139275,False,12.354951152372253,True,False
3,1970-07-23 10:17:04.489313144,2025-09-11,2025-09-26 20:27:28.931,HA,C,2554010976,JASSM,3,113,76,2,2,1,225,9,2,0,1,26,0,0,0,0,-162003.39587576812,-4785850.536104049,4203557.161589146,-2.36559,-0.397109,0.382441,73.25,-30.625,-31.75,0.0,0.0,0.0,0.0,0.0,0.0,2,0,41.4683416647654,-91.93875004990164,10002.624473810636,119.86391383057392,-0.0058282345953897,0.0009247035752607,,8905.102926237949,10943.217344713625,150,3,2025-09-11,2025-09-26 20:27:29.135,HA,C,1636852594,AMBUSH51,1,1,48,2,1,1,225,2,1,0,0,9,1,225,2,1,-146008.8095119822,-4792173.547524861,4196519.1140494,2.36838,2.84681,-0.297029,-105.103,23.9751,25.6218,-0.178952,-7.20837,6.47346,-0.00219191,-0.000949791,0.00610342,4,0,41.38627622154885,-91.745158280233,9005.864541195582,-67.37138876064081,0.3479839941711626,2.1025380411843955,188.879,8905.102926237949,10943.217344713625,150,True,10.000016909709025,False,167.3997561167084,178.86569638538307,False,12.152370612524402,True,False
3,1970-07-23 10:17:04.499333806,2025-09-11,2025-09-26 20:27:29.933,HA,C,2555204022,JASSM,3,113,76,2,2,1,225,9,2,0,1,26,0,0,0,0,-161930.14734061187,-4785881.264619674,4203525.214323521,-2.36559,-0.397109,0.382441,73.25,-30.625,-31.875,0.0,0.0,0.0,0.0,0.0,0.0,2,0,41.46795796614323,-91.93786169519691,10002.625734701664,119.86450210238668,-0.0050599029673463,0.0009234225871781,,8905.102926237949,10943.217344713625,150,3,2025-09-11,2025-09-26 20:27:29.968,HA,C,1637846758,AMBUSH51,1,1,48,2,1,1,225,2,1,0,0,9,1,225,2,1,-146096.06155784143,-4792153.094817829,4196540.436522682,2.37272,2.8449,-0.298492,-104.872,24.5522,25.6976,-0.0687025,-6.94521,6.20615,-0.0121226,0.00326549,0.0122932,4,0,41.38652602954578,-91.74620795576166,9008.336040967864,-67.2392578056382,0.3308848790043406,2.3203704263258325,188.842,8905.102926237949,10943.217344713625,150,True,9.905512304864228,False,167.61233482383759,178.91188239313468,False,11.96208636554687,True,False
3,1970-07-23 10:17:04.508345690,2025-09-11,2025-09-26 20:27:30.834,HA,C,2556337416,JASSM,3,113,76,2,2,1,225,9,2,0,1,26,0,0,0,0,-161860.56237967435,-4785910.456025924,4203494.862761021,-2.36559,-0.397109,0.382441,73.25,-30.625,-31.875,0.0,0.0,0.0,0.0,0.0,0.0,2,0,41.46759343871897,-91.93701778192828,10002.62523046442,119.86506094077,-0.004329993306845,0.0009221940193147,,8905.102926237949,10943.217344713625,150,3,2025-09-11,2025-09-26 20:27:30.802,HA,C,1638840924,AMBUSH51,1,1,48,2,1,1,225,2,1,0,0,9,1,225,2,1,-146183.61857058475,-4792132.26193001,4196561.952378131,2.36395,2.84436,-0.302336,-104.576,24.8924,25.8417,-0.0836375,-7.12731,6.20855,-0.0116212,-0.000643944,-0.00124524,4,0,41.3867793395317,-91.74726142047018,9010.318872717138,-67.06006113925424,0.4622415284031805,1.809898533983869,188.732,8905.102926237949,10943.217344713625,150,True,9.813068036998157,False,167.82833722721665,178.92576214481954,False,11.810642703345666,True,False
3,1970-07-23 10:17:04.518309659,2025-09-11,2025-09-26 20:27:31.830,HA,C,2557530464,JASSM,3,113,76,2,2,1,225,9,2,0,1,26,0,0,0,0,-161787.31286795562,-4785941.182588424,4203462.913542271,-2.36549,-0.397109,0.382441,73.25,-30.625,-31.875,0.0,0.0,0.0,0.0,0.0,0.0,2,0,41.46720972532782,-91.93612943676264,10002.62471325649,119.86564919753928,-0.0035616538355303,0.0064123879649296,,8905.102926237949,10943.217344713625,150,3,2025-09-11,2025-09-26 20:27:31.668,HA,C,1639874856,AMBUSH51,1,1,48,2,1,1,225,2,1,0,0,9,1,225,2,1,-146273.10536343002,-4792110.738063931,4196584.053901019,2.36331,2.84302,-0.304927,-104.331,25.1967,25.9609,-0.25273,-7.23143,6.71265,0.00184445,0.00849819,-0.00343402,4,0,41.38704035383552,-91.74833819659004,9012.021356492436,-66.90255072247794,0.512231394597603,1.7513235436224424,188.732,8905.102926237949,10943.217344713625,150,True,9.717190026602173,False,168.01490030830232,178.93643874621424,False,11.690220560757899,True,False
3,1970-07-23 10:17:04.528311625,2025-09-11,2025-09-26 20:27:32.831,HA,C,2558724000,JASSM,3,113,76,2,2,1,225,9,2,0,1,26,0,0,0,0,-161714.03405936187,-4785971.922822799,4203430.948698521,-2.36549,-0.397109,0.382441,73.25,-30.625,-31.875,0.0,0.0,0.0,0.0,0.0,0.0,2,0,41.46682582414602,-91.93524074621752,10002.625177490863,119.86623767854006,-0.0027929929849765,0.0064110856975148,,8905.102926237949,10943.217344713625,150,3,2025-09-11,2025-09-26 20:27:32.836,HA,C,1641266688,AMBUSH51,1,1,48,2,1,1,225,2,1,0,0,9,1,225,2,1,-146395.0711772393,-4792080.733023424,4196614.676984826,2.36693,2.84432,-0.304867,-104.07,24.6756,27.0683,-0.217212,-7.26719,6.61532,0.00526703,0.00166135,-0.0097091,4,0,41.38740344144324,-91.7498060438368,9013.787132887765,-66.95508077963028,0.5624749747312353,1.9808438891094693,188.769,8905.102926237949,10943.217344713625,150,True,9.602997718399608,False,168.26391896056808,178.94676066961705,False,11.470535215248443,True,False
3,1970-07-23 10:17:04.539286853,2025-09-11,2025-09-26 20:27:33.928,HA,C,2560035988,JASSM,3,113,76,2,2,1,225,9,2,0,1,26,0,0,0,0,-161633.48327811187,-4786005.709932174,4203395.811979771,-2.36549,-0.397109,0.382441,73.25,-30.625,-31.875,0.0,0.0,0.0,0.0,0.0,0.0,2,0,41.46640384129669,-91.9342638782351,10002.621440079196,119.86688454449076,-0.0019480651154648,0.0064096739872805,,8905.102926237949,10943.217344713625,150,3,2025-09-11,2025-09-26 20:27:33.936,HA,C,1642578988,AMBUSH51,1,1,48,2,1,1,225,2,1,0,0,9,1,225,2,1,-146508.58135729414,-4792052.334401263,4196643.227466745,2.36292,2.84076,-0.306713,-103.83,25.8183,26.6669,-0.219759,-7.43042,6.82042,-0.00989635,-0.00310321,-0.0111988,4,0,41.38774449840881,-91.75117231578888,9014.381981984774,-66.7453156389542,0.4960076236864237,1.6920577500380911,189.086,8905.102926237949,10943.217344713625,150,True,9.488871400100733,False,168.56170030052752,178.94879217346423,False,11.30101073332726,True,False
3,1970-07-23 10:17:04.550245449,2025-09-11,2025-09-26 20:27:35.024,HA,C,2561288560,JASSM,3,113,76,2,2,1,225,9,2,0,1,26,0,0,0,0,-161556.57995779935,-4786037.967744674,4203362.267057896,-2.36549,-0.397013,0.382441,73.25,-30.625,-31.875,0.0,0.0,0.0,0.0,0.0,0.0,2,0,41.46600095999906,-91.93333125587316,10002.62531763536,119.86386476235177,-0.0047110391915011,0.0043585361976713,,8905.102926237949,10943.217344713625,150,3,2025-09-11,2025-09-26 20:27:35.102,HA,C,1643970818,AMBUSH51,1,1,48,2,1,1,225,2,1,0,0,9,1,225,2,1,-146630.09127115566,-4792021.809540512,4196674.550399497,2.35864,2.84628,-0.31085,-103.519,25.7816,27.2138,-0.0393107,-7.99545,7.0711,-0.004208,0.00730185,0.00704177,4,0,41.38811545004966,-91.75263493836816,9016.369184173149,-66.78276127941432,0.8788658214219963,1.5424273840079614,189.037,8905.102926237949,10943.217344713625,150,True,9.3724050720401,False,168.7963888118008,178.9465383993202,False,11.129121981932306,True,False
3,1970-07-23 10:17:04.561715080,2025-09-11,2025-09-26 20:27:36.171,HA,C,2562541258,JASSM,3,113,76,2,2,1,225,9,2,0,1,26,0,0,0,0,-161479.66882498687,-4786070.227510299,4203328.716276646,-2.36549,-0.397013,0.382441,73.25,-30.625,-31.875,0.0,0.0,0.0,0.0,0.0,0.0,2,0,41.4655980215348,-91.93239855085008,10002.624769264175,119.86448237441938,-0.0039042854777776,0.0043571305175774,,8905.102926237949,10943.217344713625,150,3,2025-09-11,2025-09-26 20:27:36.068,HA,C,1645124052,AMBUSH51,1,1,48,2,1,1,225,2,1,0,0,9,1,225,2,1,-146729.01987964817,-4791997.201929874,4196700.73891884,2.37087,2.84276,-0.31337,-103.101,25.5762,27.7303,-0.0497639,-7.52626,6.35359,0.0295705,-0.00688989,0.0134438,4,0,41.38842063234356,-91.75382567096754,9020.084414360324,-66.5463622245979,0.840285872187203,2.184509623952773,188.683,8905.102926237949,10943.217344713625,150,True,9.2685125163662,False,168.9772076467532,178.9409215935258,False,10.990071581919889,True,False
3,1970-07-23 10:17:04.571384135,2025-09-11,2025-09-26 20:27:37.138,HA,C,2563794426,JASSM,3,113,76,2,2,1,225,9,2,0,1,26,0,0,0,0,-161402.72937186187,-4786102.498994674,4203295.153776646,-2.36549,-0.397013,0.382441,73.25,-30.625,-31.875,0.0,0.0,0.0,0.0,0.0,0.0,2,0,41.46519493234287,-91.93146551400496,10002.629363104588,119.86510020127255,-0.0030972372936544,0.0043557288049013,,8905.102926237949,10943.217344713625,150,3,2025-09-11,2025-09-26 20:27:37.268,HA,C,1646555650,AMBUSH51,1,1,48,2,1,1,225,2,1,0,0,9,1,225,2,1,-146852.96495511025,-4791965.830139568,4196734.366350671,2.39631,2.8353,-0.319067,-102.693,25.8222,28.4127,-0.114954,-7.41339,6.83178,0.0190447,-0.000336016,0.0148586,4,0,41.3888117041287,-91.75531772218072,9025.185961342291,-66.03080935067473,0.7735977230259885,3.516729741049635,188.255,8905.102926237949,10943.217344713625,150,True,9.150306888100545,False,169.36846376138837,178.92970563358043,False,10.6663811871258,True,False
3,1970-07-23 10:17:04.581384820,2025-09-11,2025-09-26 20:27:38.138,HA,C,2565046654,JASSM,3,113,76,2,2,1,225,9,2,0,1,26,0,0,0,0,-161325.84704764312,-4786134.743135299,4203261.612761021,-2.36549,-0.397013,0.382441,73.25,-30.625,-31.875,0.0,0.0,0.0,0.0,0.0,0.0,2,0,41.4647921318298,-91.93053318286395,10002.622330466997,119.86571755589831,-0.0022907876755139,0.0043543249598222,,8905.102926237949,10943.217344713625,150,3,2025-09-11,2025-09-26 20:27:37.968,HA,C,1647390748,AMBUSH51,1,1,48,2,1,1,225,2,1,0,0,9,1,225,2,1,-146924.71094156872,-4791947.658959118,4196754.011200331,2.40195,2.8302,-0.323732,-102.528,26.0098,28.7718,-0.144695,-7.22616,6.76601,0.00753279,-0.00485507,0.0150437,4,0,41.389039348908106,-91.756181412654,9028.504144060436,-65.64648794710408,0.7593303078879451,3.752901804864144,188.292,8905.102926237949,10943.217344713625,150,True,9.061513404786977,False,169.58546811579646,178.91813546870807,False,10.491725932641547,True,False
3,1970-07-23 10:17:04.595645912,2025-09-11,2025-09-26 20:27:39.564,HA,C,2566239702,JASSM,3,113,76,2,2,1,225,9,2,0,1,26,0,0,0,0,-161252.59802420562,-4786165.463838424,4203229.657682896,-2.36549,-0.397013,0.382536,73.25,-30.625,-31.875,0.0,0.0,0.0,0.0,0.0,0.0,2,0,41.46440836346191,-91.92964492236985,10002.622225075986,119.87015340057658,-0.0054429620436345,0.0043527567877742,,8905.102926237949,10943.217344713625,150,3,2025-09-11,2025-09-26 20:27:39.402,HA,C,1649100714,AMBUSH51,1,1,48,2,1,1,225,2,1,0,0,9,1,225,2,1,-147071.32233539305,-4791909.120303572,4196795.858911028,2.41561,2.81557,-0.331583,-102.18,26.904,29.7317,-0.144305,-7.21373,6.72045,-0.00130141,0.00764515,0.0119582,4,0,41.389524384746885,-91.75794687917367,9035.530544445704,-64.77268474772526,0.5022073191546406,4.275356211614016,187.974,8905.102926237949,10943.217344713625,150,True,8.932196928009269,False,170.28825789784545,178.89521757727846,False,9.882020194842768,True,False
3,1970-07-23 10:17:04.602345611,2025-09-11,2025-09-26 20:27:40.234,HA,C,2567492870,JASSM,3,113,76,2,2,1,225,9,2,0,1,26,0,0,0,0,-161175.65808279935,-4786197.731416549,4203196.091276646,-2.36549,-0.397013,0.382536,73.25,-30.625,-31.875,0.0,0.0,0.0,0.0,0.0,0.0,2,0,41.46400524887156,-91.92871191536854,10002.620959650563,119.870771193184,-0.0046359093443025,0.004351408181382,,8905.102926237949,10943.217344713625,150,3,2025-09-11,2025-09-26 20:27:40.168,HA,C,1650015346,AMBUSH51,1,1,48,2,1,1,225,2,1,0,0,9,1,225,2,1,-147149.59556677702,-4791888.145132219,4196818.686580904,2.42021,2.80787,-0.338363,-102.024,27.1531,30.3704,-0.0918264,-7.22871,6.80983,0.00645505,0.00345691,0.0158781,4,0,41.38978898608918,-91.75888958755296,9039.35682921908,-64.20458612250734,0.4753432746581565,4.3989503742480895,188.023,8905.102926237949,10943.217344713625,150,True,8.83919941411925,False,170.61467133752495,178.87703929004422,False,9.589742355734316,True,False
3,1970-07-23 10:17:04.612366224,2025-09-11,2025-09-26 20:27:41.236,HA,C,2568745260,JASSM,3,113,76,2,2,1,225,9,2,0,1,26,0,0,0,0,-161098.76599295562,-4786229.979463424,4203162.546354771,-2.36549,-0.397013,0.382536,73.25,-30.625,-31.875,0.0,0.0,0.0,0.0,0.0,0.0,2,0,41.46360237830731,-91.927779499966,10002.62648821132,119.87138858912944,-0.003829358831561,0.0043500612452396,,8905.102926237949,10943.217344713625,150,3,2025-09-11,2025-09-26 20:27:41.269,HA,C,1651327644,AMBUSH51,1,1,48,2,1,1,225,2,1,0,0,9,1,225,2,1,-147260.8471988042,-4791857.788408751,4196851.979138148,2.41488,2.79826,-0.345014,-101.751,27.8781,31.0061,-0.0840736,-7.10995,6.76836,-0.0173865,-0.000352661,0.000527431,4,0,41.3901740130869,-91.76022969405784,9045.300052395698,-63.57014280641509,0.3718199883894114,3.913816527650844,188.341,8905.102926237949,10943.217344713625,150,True,8.72716614421461,False,171.1341524511459,178.85110389451108,False,9.143995851148762,True,False
3,1970-07-23 10:17:04.623328815,2025-09-11,2025-09-26 20:27:42.332,HA,C,2569997798,JASSM,3,113,76,2,2,1,225,9,2,0,1,26,0,0,0,0,-161021.86462576812,-4786262.229463424,4203128.995573521,-2.36549,-0.397013,0.382536,73.25,-30.625,-31.875,0.0,0.0,0.0,0.0,0.0,0.0,2,0,41.46319945086784,-91.9268469843884,10002.627471172218,119.87200604647268,-0.0030227111168401,0.0043487132327998,,8905.102926237949,10943.217344713625,150,3,2025-09-11,2025-09-26 20:27:42.436,HA,C,1652719476,AMBUSH51,1,1,48,2,1,1,225,2,1,0,0,9,1,225,2,1,-147379.86250472668,-4791824.564470437,4196888.3655975,2.39009,2.79037,-0.352258,-101.536,28.5445,31.4547,-0.120672,-7.26588,6.66222,-0.0304318,0.00487795,0.0090225,4,0,41.39059554832605,-91.76166361141075,9051.495682257904,-62.97733778794057,0.3611813726295404,2.342860303485804,188.341,8905.102926237949,10943.217344713625,150,True,8.610392833488934,False,171.56044610449283,178.81991094037664,False,8.801603884165402,True,False
3,1970-07-23 10:17:04.633304036,2025-09-11,2025-09-26 20:27:43.330,HA,C,2571250836,JASSM,3,113,76,2,2,1,225,9,2,0,1,26,0,0,0,0,-160944.93249686187,-4786294.491182174,4203095.429167271,-2.36549,-0.397013,0.382536,73.25,-30.625,-31.875,0.0,0.0,0.0,0.0,0.0,0.0,2,0,41.46279634683193,-91.92591410781785,10002.624916793866,119.87262373790836,-0.0022157370844392,0.0043473576834356,,8905.102926237949,10943.217344713625,150,3,2025-09-11,2025-09-26 20:27:43.268,HA,C,1653713642,AMBUSH51,1,1,48,2,1,1,225,2,1,0,0,9,1,225,2,1,-147464.46287364664,-4791800.522327101,4196914.584180128,2.36949,2.78434,-0.355695,-101.529,28.6438,31.8752,-0.20274,-7.08001,6.64574,-0.0121039,-0.00317811,0.00248943,4,0,41.39090009854025,-91.76268305866964,9055.625889524234,-62.6101433153405,0.2699106477042806,1.0453484558424988,188.536,8905.102926237949,10943.217344713625,150,True,8.513235705554292,False,171.73044262447078,178.79332515800513,False,8.668470715587413,True,False
3,1970-07-23 10:17:04.643286097,2025-09-11,2025-09-26 20:27:44.328,HA,C,2572443882,JASSM,3,113,76,2,2,1,225,9,2,0,1,26,0,0,0,0,-160871.68493826812,-4786325.206025924,4203063.472136021,-2.36549,-0.397013,0.382536,73.25,-30.625,-31.875,0.0,0.0,0.0,0.0,0.0,0.0,2,0,41.46241256409623,-91.92502592166744,10002.62588014749,119.87321183360596,-0.0014474235370384,0.0043460859991429,,8905.102926237949,10943.217344713625,150,3,2025-09-11,2025-09-26 20:27:44.335,HA,C,1654986174,AMBUSH51,1,1,48,2,1,1,225,2,1,0,0,9,1,225,2,1,-147571.7496580989,-4791769.653408633,4196948.146485781,2.3557,2.78447,-0.35938,-101.471,28.9529,32.0697,0.00375417,-7.14094,6.5888,-0.00992756,0.0028785,0.00035058,4,0,41.39129067485602,-91.76397603344556,9060.61478636394,-62.46579276377374,0.4243861044541414,0.2584657696258298,188.585,8905.102926237949,10943.217344713625,150,True,8.405186291557529,False,171.9151554532748,178.75882800518463,False,8.555304980595745,True,False
3,1970-07-23 10:17:04.653285566,2025-09-11,2025-09-26 20:27:45.328,HA,C,2573577390,JASSM,3,113,76,2,2,1,225,9,2,0,1,26,0,0,0,0,-160802.09021170562,-4786354.389619674,4203033.106901646,-2.36549,-0.396918,0.382536,73.25,-30.625,-31.875,0.0,0.0,0.0,0.0,0.0,0.0,2,0,41.462047898444254,-91.92418203857947,10002.627381813523,119.87013351526828,-0.0042870528010393,0.002294557481283,,8905.102926237949,10943.217344713625,150,3,2025-09-11,2025-09-26 20:27:45.235,HA,C,1656059872,AMBUSH51,1,1,48,2,1,1,225,2,1,0,0,9,1,225,2,1,-147663.1013182764,-4791743.233458841,4196976.824992071,2.35626,2.78887,-0.358048,-101.541,29.0827,32.2597,-0.122783,-7.25967,6.78975,0.0148315,0.00694398,-0.000213261,4,0,41.39162471947177,-91.76507702662656,9064.75319290831,-62.6865358324,0.5392805920602964,0.3771511639053989,188.744,8905.102926237949,10943.217344713625,150,True,8.30860128456835,False,172.00727026505135,178.7261543369596,False,8.51739555141127,True,False
3,1970-07-23 10:17:04.663285611,2025-09-11,2025-09-26 20:27:46.328,HA,C,2574770048,JASSM,3,113,76,2,2,1,225,9,2,0,1,26,0,0,0,0,-160728.86511404935,-4786385.094697799,4203001.155729771,-2.36549,-0.396918,0.382536,73.25,-30.625,-31.875,0.0,0.0,0.0,0.0,0.0,0.0,2,0,41.461664195469865,-91.92329414534318,10002.626275498214,119.87072140837772,-0.0035189627206878,0.0022932160696591,,8905.102926237949,10943.217344713625,150,3,2025-09-11,2025-09-26 20:27:46.301,HA,C,1657332404,AMBUSH51,1,1,48,2,1,1,225,2,1,0,0,9,1,225,2,1,-147772.10101818538,-4791711.317929325,4197011.359133724,2.36628,2.78491,-0.358651,-101.601,29.4932,32.4479,-0.208474,-7.20922,6.69428,0.00277863,-0.00524622,0.0139493,4,0,41.39202774139903,-91.76639087685264,9069.418394270906,-62.5136399120446,0.4136627483105811,0.8734168059651127,188.903,8905.102926237949,10943.217344713625,150,True,8.199396786442053,False,172.20176241956062,178.68533107759362,False,8.402866421721287,True,False
3,1970-07-23 10:17:04.672286687,2025-09-11,2025-09-26 20:27:47.228,HA,C,2575903378,JASSM,3,113,76,2,2,1,225,9,2,0,1,26,0,0,0,0,-160659.28259451812,-4786414.270479049,4202970.794401646,-2.36549,-0.396918,0.382536,73.25,-30.625,-31.875,0.0,0.0,0.0,0.0,0.0,0.0,2,0,41.46129958749825,-91.922450430755,10002.625050066496,119.87128004571274,-0.0027890886971209,0.0022919533004701,,8905.102926237949,10943.217344713625,150,3,2025-09-11,2025-09-26 20:27:47.369,HA,C,1658604936,AMBUSH51,1,1,48,2,1,1,225,2,1,0,0,9,1,225,2,1,-147879.65805955388,-4791679.743115649,4197045.658476016,2.36784,2.78721,-0.364811,-101.565,29.5892,32.8308,-0.218838,-7.27032,6.89063,-0.0138412,-0.00363792,0.00103718,4,0,41.39242740098263,-91.76768738315356,9074.310141950058,-62.35020415773595,0.7504771552756788,1.0112844328663004,188.659,8905.102926237949,10943.217344713625,150,True,8.093267788675938,False,172.36240688677347,178.64264484888147,False,8.29494460952962,True,False
3,1970-07-23 10:17:04.681331257,2025-09-11,2025-09-26 20:27:48.133,HA,C,2576977968,JASSM,3,113,76,2,2,1,225,9,2,0,1,26,0,0,0,0,-160593.30652029935,-4786441.934541549,4202942.005339146,-2.36549,-0.396918,0.382536,73.25,-30.625,-31.875,0.0,0.0,0.0,0.0,0.0,0.0,2,0,41.46095385948728,-91.92165045423876,10002.625202793628,119.87180971961877,-0.0020970378075609,0.0022907457509128,,8905.102926237949,10943.217344713625,150,3,2025-09-11,2025-09-26 20:27:48.135,HA,C,1659519570,AMBUSH51,1,1,48,2,1,1,225,2,1,0,0,9,1,225,2,1,-147957.52162768028,-4791656.722691467,4197070.662416718,2.36361,2.78181,-0.360614,-101.567,29.853,32.9108,-0.00193745,-6.65979,6.18637,-0.00146162,-0.00200673,0.00288058,4,0,41.39271885596868,-91.76862603002334,9077.83276049697,-62.31820770727418,0.3765454216729181,0.6591803409038706,188.426,8905.102926237949,10943.217344713625,150,True,8.006564601805113,False,172.48188223529777,178.60847150973666,False,8.236195986486873,True,False
3,1970-07-23 10:17:04.691364276,2025-09-11,2025-09-26 20:27:49.136,HA,C,2578110874,JASSM,3,113,76,2,2,1,225,9,2,0,1,26,0,0,0,0,-160523.74987967435,-4786471.098604049,4202911.655729771,-2.36549,-0.396918,0.382632,73.25,-30.625,-31.875,0.0,0.0,0.0,0.0,0.0,0.0,2,0,41.46058938307181,-91.92080707219532,10002.629391664535,119.87621594666236,-0.0052878119531745,0.0022892667730709,,8905.102926237949,10943.217344713625,150,3,2025-09-11,2025-09-26 20:27:49.134,HA,C,1660712568,AMBUSH51,1,1,48,2,1,1,225,2,1,0,0,9,1,225,2,1,-148059.942272392,-4791625.8709975,4197103.562797584,2.36166,2.77925,-0.364668,-101.554,30.343,32.8828,0.00502403,-6.92639,6.36292,0.00324885,-0.00427458,-0.00149075,4,0,41.39310568729876,-91.76986093598566,9081.090305582553,-62.05741880761338,0.4437202294769287,0.4978252674006433,188.426,8905.102926237949,10943.217344713625,150,True,7.903244059915142,False,172.649683104387,178.5621401941112,False,8.163741759145918,True,False
3,1970-07-23 10:17:04.702848201,2025-09-11,2025-09-26 20:27:50.284,HA,C,2579243990,JASSM,3,113,76,2,2,1,225,9,2,0,1,26,0,0,0,0,-160454.18005545562,-4786500.266572799,4202881.296354771,-2.36549,-0.396918,0.382632,73.25,-30.625,-31.875,0.0,0.0,0.0,0.0,0.0,0.0,2,0,41.46022481395564,-91.91996354039672,10002.624276720408,119.8767744511466,-0.0045580668603054,0.0022880446713548,,8905.102926237949,10943.217344713625,150,3,2025-09-11,2025-09-26 20:27:50.468,HA,C,1662303234,AMBUSH51,1,1,48,2,1,1,225,2,1,0,0,9,1,225,2,1,-148194.64792099094,-4791584.730124673,4197146.771297441,2.35964,2.77842,-0.366985,-101.512,30.8061,32.8776,-0.127779,-6.92348,6.47363,0.000294404,0.00455338,0.000252792,4,0,41.393617367077695,-91.77148533875544,9083.86064194332,-61.93312400738672,0.5072399376281778,0.3658802089240954,188.622,8905.102926237949,10943.217344713625,150,True,7.781049583451641,False,172.8169358800691,178.4987651391023,False,8.110889125012786,True,False
3,1970-07-23 10:17:04.710286882,2025-09-11,2025-09-26 20:27:51.028,HA,C,2580377302,JASSM,3,113,76,2,2,1,225,9,2,0,1,26,0,0,0,0,-160384.59851248687,-4786529.438447799,4202850.933073521,-2.36549,-0.396918,0.382632,73.25,-30.625,-31.875,0.0,0.0,0.0,0.0,0.0,0.0,2,0,41.45986019136095,-91.91911987636244,10002.62270853875,119.87733303914472,-0.0038282061050813,0.0022868344484932,,8905.102926237949,10943.217344713625,150,3,2025-09-11,2025-09-26 20:27:51.201,HA,C,1663178098,AMBUSH51,1,1,48,2,1,1,225,2,1,0,0,9,1,225,2,1,-148269.10189212314,-4791561.75053237,4197170.61470185,2.3568,2.77569,-0.368413,-101.568,31.1577,32.7782,-0.204544,-6.97456,6.59156,-0.00247903,-0.00352349,0.00163223,4,0,41.39390133979276,-91.77238327180709,9084.721512681572,-61.772794359819336,0.4622050614153423,0.1487215120362643,188.817,8905.102926237949,10943.217344713625,150,True,7.693904426274876,False,172.8909896217001,178.45766810629496,False,8.11457499470506,True,False
3,1970-07-23 10:17:04.719330681,2025-09-11,2025-09-26 20:27:51.933,HA,C,2581511356,JASSM,3,113,76,2,2,1,225,9,2,0,1,26,0,0,0,0,-160314.97155936187,-4786558.629854049,4202820.548307896,-2.36549,-0.396918,0.382632,73.25,-30.625,-31.875,0.0,0.0,0.0,0.0,0.0,0.0,2,0,41.45949531039871,-91.91827567100069,10002.62212864682,119.87789198151212,-0.0030978617852239,0.002285611176964,,8905.102926237949,10943.217344713625,150,3,2025-09-11,2025-09-26 20:27:51.768,HA,C,1663854132,AMBUSH51,1,1,48,2,1,1,225,2,1,0,0,9,1,225,2,1,-148325.83604652484,-4791544.041020181,4197188.87639147,2.3309,2.77402,-0.370605,-101.603,31.3096,32.7669,-0.179823,-7.06615,6.62895,-0.0787786,-0.00511098,0.00477184,4,0,41.39411953433344,-91.77306757833256,9085.091889372025,-61.62134940047615,0.4882657252397507,-1.3688476144519195,189.098,8905.102926237949,10943.217344713625,150,True,7.617002298204127,False,172.9301341603434,178.42335389344703,False,8.126065891106114,True,False
3,1970-07-23 10:17:04.729344974,2025-09-11,2025-09-26 20:27:52.934,HA,C,2582644610,JASSM,3,113,76,2,2,1,225,9,2,0,1,26,0,0,0,0,-160245.39343436187,-4786587.799775924,4202790.185026646,-2.36549,-0.396918,0.382632,73.25,-30.625,-31.875,0.0,0.0,0.0,0.0,0.0,0.0,2,0,41.45913068632912,-91.9174320675242,10002.622842346098,119.878450521335,-0.0023680334565483,0.0022843948452955,,8905.102926237949,10943.217344713625,150,3,2025-09-11,2025-09-26 20:27:52.901,HA,C,1665206196,AMBUSH51,1,1,48,2,1,1,225,2,1,0,0,9,1,225,2,1,-148441.81226982287,-4791508.103543257,4197225.886883775,2.22096,2.77558,-0.371851,-101.882,30.5835,32.8978,0.0433403,-7.09908,6.58228,-0.106815,0.00931378,0.000462932,4,0,41.394561821762366,-91.7744663572407,9085.811083166293,-61.63025582610707,0.5985702174948568,-7.635155713055496,189.526,8905.102926237949,10943.217344713625,150,True,7.505676357922834,False,172.67007223069504,178.35869040188422,False,8.415541208957631,True,False
3,1970-07-23 10:17:04.740045141,2025-09-11,2025-09-26 20:27:54.004,HA,C,2583777486,JASSM,3,113,76,2,2,1,225,9,2,0,1,26,0,0,0,0,-160175.83874686187,-4786616.959932174,4202759.831511021,-2.36549,-0.396918,0.382632,73.25,-30.625,-31.875,0.0,0.0,0.0,0.0,0.0,0.0,2,0,41.458766175400285,-91.91658875763818,10002.626096805272,119.87900886273832,-0.0016384491775864,0.0022831758904646,,8905.102926237949,10943.217344713625,150,3,2025-09-11,2025-09-26 20:27:54.034,HA,C,1666558262,AMBUSH51,1,1,48,2,1,1,225,2,1,0,0,9,1,225,2,1,-148556.772468346,-4791473.246166987,4197261.4595473055,2.10614,2.79259,-0.359111,-102.807,30.2711,31.073,-0.0969976,-7.23948,6.73769,-0.109288,0.00215029,-0.017037,4,0,41.39498814697338,-91.77585261713676,9085.99882151131,-62.79038105170353,0.7328457131316144,-13.878901920450874,189.685,8905.102926237949,10943.217344713625,150,False,7.39535636687468,False,171.7668629569781,178.28739118476463,False,9.475770976698207,True,False
3,1970-07-23 10:17:04.748268944,2025-09-11,2025-09-26 20:27:54.826,HA,C,2584910878,JASSM,3,113,76,2,2,1,225,9,2,0,1,26,0,0,0,0,-160106.25183279935,-4786646.131807174,4202729.462370396,-2.36549,-0.396822,0.382632,73.25,-30.625,-31.875,0.0,0.0,0.0,0.0,0.0,0.0,2,0,41.45840148951449,-91.91574506719137,10002.624956423966,119.87593064546684,-0.00447815583273,0.0002311730200639,,8905.102926237949,10943.217344713625,150,3,2025-09-11,2025-09-26 20:27:54.901,HA,C,1667592194,AMBUSH51,1,1,48,2,1,1,225,2,1,0,0,9,1,225,2,1,-148646.1345291944,-4791447.508550677,4197287.615765365,2.01218,2.80942,-0.345259,-103.854,28.9499,29.6564,-0.207815,-7.51336,6.89821,-0.0959248,-0.00189022,-0.0208985,4,0,41.395301355539296,-91.7769297083094,9086.246780789244,-63.99178635789247,0.8255595667396731,-18.945912594891517,189.991,8905.102926237949,10943.217344713625,150,False,7.300438648302829,False,170.64375736570514,178.22212640244692,False,10.667564737700127,True,False
3,1970-07-23 10:17:04.757332082,2025-09-11,2025-09-26 20:27:55.733,HA,C,2585984620,JASSM,3,113,76,2,2,1,225,9,2,0,1,26,0,0,0,0,-160040.32751639312,-4786673.766572799,4202700.692839146,-2.36549,-0.396822,0.382632,73.25,-30.625,-31.875,0.0,0.0,0.0,0.0,0.0,0.0,2,0,41.45805601059461,-91.91494579245916,10002.625407553212,119.87645982445068,-0.0037866617451888,0.0002299889854085,,8905.102926237949,10943.217344713625,150,3,2025-09-11,2025-09-26 20:27:55.605,HA,C,1668427294,AMBUSH51,1,1,48,2,1,1,225,2,1,0,0,9,1,225,2,1,-148719.07416880107,-4791427.6175794825,4197307.615284407,1.93713,2.82712,-0.328797,-104.901,27.6984,27.9747,-0.124489,-7.36643,6.9726,-0.0995741,0.00557287,-0.0329431,4,0,41.39554124044178,-91.77780845171128,9086.271391542112,-65.33569298800599,0.8574815126682745,-22.930421144284576,190.504,8905.102926237949,10943.217344713625,150,False,7.2177437394383475,False,169.45466180297367,178.16061725626395,False,11.934016818219305,True,False
3,1970-07-23 10:17:04.768363522,2025-09-11,2025-09-26 20:27:56.836,HA,C,2587296972,JASSM,3,113,76,2,2,1,225,9,2,0,1,26,0,0,0,0,-159959.75329764312,-4786707.541963424,4202665.526823521,-2.3654,-0.396822,0.382632,73.25,-30.625,-31.875,0.0,0.0,0.0,0.0,0.0,0.0,2,0,41.45763373165183,-91.91396891216505,10002.621960525978,119.877106586528,-0.0029414922956344,0.0057199972821949,,8905.102926237949,10943.217344713625,150,3,2025-09-11,2025-09-26 20:27:56.668,HA,C,1669699826,AMBUSH51,1,1,48,2,1,1,225,2,1,0,0,9,1,225,2,1,-148832.4781977308,-4791398.937983025,4197335.73632618,1.82687,2.86263,-0.293213,-106.791,25.4245,24.454,-0.0320254,-7.76233,7.17984,-0.0860149,0.0195066,-0.0449148,4,0,41.395880754584006,-91.77917387085093,9085.390461871886,-68.1491385507714,0.8541392722637622,-28.666959161265524,191.042,8905.102926237949,10943.217344713625,150,False,7.104055878590452,False,167.13830542031292,178.05313287853588,False,14.397150028908047,True,False
3,1970-07-23 10:17:04.779362182,2025-09-11,2025-09-26 20:27:57.936,HA,C,2588609322,JASSM,3,113,76,2,2,1,225,9,2,0,1,26,0,0,0,0,-159879.17907889312,-4786741.317354049,4202630.360807896,-2.3654,-0.396822,0.382632,73.25,-30.625,-31.875,0.0,0.0,0.0,0.0,0.0,0.0,2,0,41.45721144438252,-91.91299204454351,10002.623071345126,119.87775333479772,-0.0020963227837531,0.0057185334501277,,8905.102926237949,10943.217344713625,150,3,2025-09-11,2025-09-26 20:27:57.901,HA,C,1671171190,AMBUSH51,1,1,48,2,1,1,225,2,1,0,0,9,1,225,2,1,-148964.6895492601,-4791369.820163569,4197362.911850628,1.76529,2.90602,-0.239089,-108.967,21.7277,20.3985,-0.019045,-7.83365,7.22539,-0.0221302,0.0234202,-0.0494172,4,0,41.39621299765707,-91.7807641501455,9082.825963145408,-72.05368566132485,0.4924860773600746,-31.587010729746464,191.738,8905.102926237949,10943.217344713625,150,False,6.982018329709674,False,164.14928957522096,177.9010827269079,False,17.547808004475357,True,False
3,1970-07-23 10:17:04.789406738,2025-09-11,2025-09-26 20:27:58.940,HA,C,2589862022,JASSM,3,113,76,2,2,1,225,9,2,0,1,26,0,0,0,0,-159802.26745779935,-4786773.557588424,4202596.792448521,-2.3654,-0.396822,0.382728,73.25,-30.625,-31.875,0.0,0.0,0.0,0.0,0.0,0.0,2,0,41.45680833827779,-91.91205959337444,10002.62687702934,119.88221863047768,-0.0052098020300748,0.0057169121393378,,8905.102926237949,10943.217344713625,150,3,2025-09-11,2025-09-26 20:27:58.767,HA,C,1672205122,AMBUSH51,1,1,48,2,1,1,225,2,1,0,0,9,1,225,2,1,-149060.49189402946,-4791351.663956361,4197378.268041953,1.73946,2.93591,-0.200133,-110.679,19.5203,15.8424,-0.177792,-7.76768,7.38187,-0.0125762,0.0164585,-0.0475093,4,0,41.39640695403711,-91.78191540712916,9078.80730444514,-74.82899292890174,0.2153261821866808,-32.71075238224657,192.239,8905.102926237949,10943.217344713625,150,False,6.883502492058795,False,161.5295798380496,177.7639274597703,False,20.359646465312267,True,False
3,1970-07-23 10:17:04.800266986,2025-09-11,2025-09-26 20:28:00.026,HA,C,2591174370,JASSM,3,113,76,2,2,1,225,9,2,0,1,26,0,0,0,0,-159721.69323904935,-4786807.329072799,4202561.624479771,-2.3654,-0.396822,0.382728,73.25,-30.625,-31.875,0.0,0.0,0.0,0.0,0.0,0.0,2,0,41.45638604482283,-91.91108275208148,10002.623054445045,119.88286535082229,-0.0043646383396271,0.0057155131624004,,8905.102926237949,10943.217344713625,150,3,2025-09-11,2025-09-26 20:27:59.868,HA,C,1673517422,AMBUSH51,1,1,48,2,1,1,225,2,1,0,0,9,1,225,2,1,-149182.86899189255,-4791332.117966192,4197392.816153049,1.72273,2.9771,-0.149372,-112.449,16.0767,10.8673,0.0112137,-7.83359,7.44127,-0.00682747,0.0253926,-0.0457824,4,0,41.3965987889098,-91.78338466714992,9071.656980141372,-78.54562583318135,-0.0132921674784209,-33.265384576682585,193.51,8905.102926237949,10943.217344713625,150,False,6.7706710552045495,False,158.37696521697757,177.5621257976245,False,23.74538683816987,True,False
3,1970-07-23 10:17:04.811329716,2025-09-11,2025-09-26 20:28:01.132,HA,C,2592486724,JASSM,3,113,76,2,2,1,225,9,2,0,1,26,0,0,0,0,-159641.11853201812,-4786841.102510299,4202526.456511021,-2.3654,-0.396822,0.382728,73.25,-30.625,-31.875,0.0,0.0,0.0,0.0,0.0,0.0,2,0,41.45596373150849,-91.9101059168438,10002.628549440908,119.8835120617419,-0.0035194645407122,0.0057141066200109,,8905.102926237949,10943.217344713625,150,3,2025-09-11,2025-09-26 20:28:01.001,HA,C,1674869486,AMBUSH51,1,1,48,2,1,1,225,2,1,0,0,9,1,225,2,1,-149310.42408694106,-4791316.05918744,4197401.997174097,1.7517,3.01387,-0.100358,-114.102,12.264,5.99537,-0.107993,-8.01044,7.64831,0.0476571,0.0305338,-0.0520159,4,0,41.39673266578318,-91.78491449834176,9061.845841334582,-82.03325784305481,-0.3273858601863794,-31.332453394549407,194.842,8905.102926237949,10943.217344713625,150,False,6.6574974165189955,False,155.1980304163954,177.31500361389305,False,27.192988413273586,True,False
3,1970-07-23 10:17:04.822303724,2025-09-11,2025-09-26 20:28:02.230,HA,C,2593799086,JASSM,3,113,76,2,2,1,225,9,2,0,1,26,0,0,0,0,-159560.54333670562,-4786874.872041549,4202491.286589146,-2.3654,-0.396822,0.382728,73.25,-30.625,-31.875,0.0,0.0,0.0,0.0,0.0,0.0,2,0,41.4555414200529,-91.90912908999807,10002.62472034835,119.8841587616882,-0.0026742929724118,0.0057127104700959,,8905.102926237949,10943.217344713625,150,3,2025-09-11,2025-09-26 20:28:02.401,HA,C,1676539684,AMBUSH51,1,1,48,2,1,1,225,2,1,0,0,9,1,225,2,1,-149471.2459015332,-4791301.884072159,4197405.786656762,1.81944,3.05725,-0.0503735,-115.675,7.53949,0.472065,-0.0221641,-8.08881,7.69933,0.0587237,0.0225859,-0.0354897,4,0,41.39681274396133,-91.78684106177036,9047.532441084224,-85.82142374019354,-0.3731260603465464,-27.240947700159623,196.284,8905.102926237949,10943.217344713625,150,False,6.531184977693283,False,151.54173457736943,176.95543389122392,False,31.229405712066946,False,False
3,1970-07-23 10:17:04.833692079,2025-09-11,2025-09-26 20:28:03.369,HA,C,2595051820,JASSM,3,113,76,2,2,1,225,9,2,0,1,26,0,0,0,0,-159483.62927420562,-4786907.108369674,4202457.712370396,-2.3654,-0.396822,0.382728,73.25,-30.625,-31.875,0.0,0.0,0.0,0.0,0.0,0.0,2,0,41.45513826674535,-91.90819665903418,10002.623204608592,119.88477606466418,-0.0018675121069216,0.0057113580921808,,8905.102926237949,10943.217344713625,150,3,2025-09-11,2025-09-26 20:28:03.334,HA,C,1677653150,AMBUSH51,1,1,48,2,1,1,225,2,1,0,0,9,1,225,2,1,-149580.5111192253,-4791296.016657175,4197404.235954487,1.85759,3.08078,-0.0222104,-116.531,4.43888,-2.73017,-0.109989,-8.0524,7.57314,0.0343517,0.0196481,-0.0328911,4,0,41.3968168931677,-91.78814860400142,9038.122940485526,-87.92361308540997,-0.4306183020224596,-24.99129439966201,196.92,8905.102926237949,10943.217344713625,150,False,6.433307157706101,False,149.34266808720307,176.672451704904,False,33.7198652025672,False,False
3,1970-07-23 10:17:04.843364039,2025-09-11,2025-09-26 20:28:04.336,HA,C,2596304686,JASSM,3,113,76,2,2,1,225,9,2,0,1,26,0,0,0,0,-159406.70739920562,-4786939.346650924,4202424.136198521,-2.3654,-0.396726,0.382728,73.25,-30.625,-31.875,0.0,0.0,0.0,0.0,0.0,0.0,2,0,41.45473508259695,-91.90726414543424,10002.625760429148,119.88175687972546,-0.0046302801025262,0.0036587585965103,,8905.102926237949,10943.217344713625,150,3,2025-09-11,2025-09-26 20:28:04.301,HA,C,1678806382,AMBUSH51,1,1,48,2,1,1,225,2,1,0,0,9,1,225,2,1,-149692.5641626083,-4791292.772518569,4197399.716940183,1.89699,3.10582,0.00366658,-117.097,1.5803,-5.6366,-0.0369731,-7.90606,7.57631,0.0368068,0.0154848,-0.0298139,4,0,41.39678486423617,-91.7894884736493,9028.94706027078,-89.98569769291127,-0.333916714924876,-22.70707843805948,198.3,8905.102926237949,10943.217344713625,150,False,6.335582213960859,False,147.35517498559744,176.35615321994578,False,36.03284399583412,False,False
3,1970-07-23 10:17:04.857247610,2025-09-11,2025-09-26 20:28:05.724,HA,C,2597616824,JASSM,3,113,76,2,2,1,225,9,2,0,1,26,0,0,0,0,-159326.14587576812,-4786973.110322799,4202388.968229771,-2.3654,-0.396726,0.382728,73.25,-30.625,-31.875,0.0,0.0,0.0,0.0,0.0,0.0,2,0,41.45431279227639,-91.90628752124582,10002.626151853528,119.88240342984106,-0.0037852387781219,0.0036572861159168,,8905.102926237949,10943.217344713625,150,3,2025-09-11,2025-09-26 20:28:05.867,HA,C,1680675414,AMBUSH51,1,1,48,2,1,1,225,2,1,0,0,9,1,225,2,1,-149877.3448409695,-4791292.898200218,4197386.143172342,1.95197,3.13945,0.0393198,-117.766,-2.32555,-10.1898,-0.149958,-8.06541,7.64028,0.0484082,0.0328183,-0.0174614,4,0,41.39665811157397,-91.79169593449016,9014.017645266687,-92.79345042427587,-0.2383576480871974,-19.583781564771787,199.938,8905.102926237949,10943.217344713625,150,False,6.206511209293385,False,144.45718385080812,175.79460727085456,False,39.51641833124464,False,False
3,1970-07-23 10:17:04.865401253,2025-09-11,2025-09-26 20:28:06.540,HA,C,2598869522,JASSM,3,113,76,2,2,1,225,9,2,0,1,26,0,0,0,0,-159249.23376639312,-4787005.340791549,4202355.394011021,-2.3654,-0.396726,0.382728,73.25,-30.5,-31.875,0.0,0.0,0.0,0.0,0.0,0.0,2,0,41.45390965035503,-91.90535515115454,10002.623052761452,119.88302067756068,-0.0029784917077281,0.0036559027575182,,8905.102926237949,10943.217344713625,150,3,2025-09-11,2025-09-26 20:28:06.568,HA,C,1681510512,AMBUSH51,1,1,48,2,1,1,225,2,1,0,0,9,1,225,2,1,-149959.72328671312,-4791294.957539713,4197378.355879327,1.98209,-3.12468,0.0513075,-117.883,-4.42885,-11.5627,-0.0956032,-8.45918,7.49421,0.0333551,0.0186931,-0.0300636,4,0,41.39657795283642,-91.79267930818472,9008.52951272794,-94.03052759540518,0.124892885883736,-17.90641083883749,200.378,8905.102926237949,10943.217344713625,150,False,6.124292402061012,False,143.34602556274731,175.48416868577948,False,40.95734243349223,False,False
3,1970-07-23 10:17:04.875284454,2025-09-11,2025-09-26 20:28:07.528,HA,C,2600122222,JASSM,3,113,76,2,2,1,225,9,2,0,1,26,0,0,0,0,-159172.32165701812,-4787037.573213424,4202321.817839146,-2.3654,-0.396726,0.382728,73.25,-30.5,-31.875,0.0,0.0,0.0,0.0,0.0,0.0,2,0,41.45350647604462,-91.90442279183242,10002.62466443844,119.88363791321537,-0.0021717317175844,0.0036544981499562,,8905.102926237949,10943.217344713625,150,3,2025-09-11,2025-09-26 20:28:07.604,HA,C,1682743278,AMBUSH51,1,1,48,2,1,1,225,2,1,0,0,9,1,225,2,1,-150080.64374309746,-4791300.609502456,4197365.367809653,2.00568,-3.10119,0.0642217,-117.699,-7.44327,-13.1419,-0.150252,-8.62114,7.37395,-0.00560408,0.0220533,-0.0178421,4,0,41.39643412122434,-91.79412178095096,9003.568768255027,-95.4761907926402,0.6417592885853474,-16.642000045427885,200.341,8905.102926237949,10943.217344713625,150,False,6.027404947002389,False,141.81408604959546,175.05089063024823,False,42.91284332544261,False,False
3,1970-07-23 10:17:04.886329897,2025-09-11,2025-09-26 20:28:08.632,HA,C,2601375250,JASSM,3,113,76,2,2,1,225,9,2,0,1,26,0,0,0,0,-159095.38903983062,-4787069.811494674,4202288.233854771,-2.3654,-0.396726,0.382824,73.25,-30.5,-31.875,0.0,0.0,0.0,0.0,0.0,0.0,2,0,41.45310321062151,-91.90349019654438,10002.626185947023,119.88810340033356,-0.0052848645580392,0.0036528902166289,,8905.102926237949,10943.217344713625,150,3,2025-09-11,2025-09-26 20:28:08.635,HA,C,1683976044,AMBUSH51,1,1,48,2,1,1,225,2,1,0,0,9,1,225,2,1,-150202.49290143186,-4791309.359325711,4197350.288453302,1.98901,-3.0786,0.0721008,-117.124,-10.3382,-14.9052,-0.207327,-8.35382,7.47436,-0.00434948,0.0158094,-0.021762,4,0,41.39625755124885,-91.79557418262904,9001.770718631766,-96.67230088144696,1.3084515883354766,-17.70591895731601,200.011,8905.102926237949,10943.217344713625,150,False,5.931648437541319,False,140.22368127258545,174.58524093179366,False,44.96325986863545,False,False
3,1970-07-23 10:17:04.897341382,2025-09-11,2025-09-26 20:28:09.734,HA,C,2602687272,JASSM,3,113,76,2,2,1,225,9,2,0,1,26,0,0,0,0,-159014.83532889312,-4787103.567354049,4202253.065886021,-2.3654,-0.396726,0.382824,73.25,-30.5,-31.875,0.0,0.0,0.0,0.0,0.0,0.0,2,0,41.452680933118046,-91.90251371781702,10002.625622423517,119.8887498333175,-0.0044399080201661,0.0036514772993685,,8905.102926237949,10943.217344713625,150,3,2025-09-11,2025-09-26 20:28:09.634,HA,C,1685169042,AMBUSH51,1,1,48,2,1,1,225,2,1,0,0,9,1,225,2,1,-150318.54603894503,-4791320.519482629,4197334.196812652,1.99745,-3.05905,0.0908033,-116.494,-12.8191,-16.8723,-0.331108,-8.16757,7.25504,0.0295829,0.00300958,-0.0292147,4,0,41.39606087226846,-91.79695643119491,9003.266246275105,-98.2165802594946,1.4295498733461902,-17.35033457032157,199.156,8905.102926237949,10943.217344713625,150,False,5.837321395874041,False,138.683102403602,174.109369472016,False,46.981950617713196,False,False
3,1970-07-23 10:17:04.908883829,2025-09-11,2025-09-26 20:28:10.888,HA,C,2603880392,JASSM,3,113,76,2,2,1,225,9,2,0,1,26,0,0,0,0,-158941.58044608062,-4787134.262666549,4202221.085417271,-2.3654,-0.396726,0.382824,73.25,-30.5,-31.875,0.0,0.0,0.0,0.0,0.0,0.0,2,0,41.45229692874309,-91.9016257278715,10002.62633446059,119.88933768165728,-0.0036715211855247,0.0036502081515069,,8905.102926237949,10943.217344713625,150,3,2025-09-11,2025-09-26 20:28:11.001,HA,C,1686799474,AMBUSH51,1,1,48,2,1,1,225,2,1,0,0,9,1,225,2,1,-150477.19410383992,-4791339.703256789,4197308.982197346,2.02586,-3.03751,0.109526,-115.538,-16.0264,-19.1838,0.00632417,-7.95005,6.86009,0.0179337,0.00629484,-0.0131005,4,0,41.39574689801488,-91.79884451842165,9008.004711208976,-99.8369743917694,1.6293735526927915,-15.888707272471516,198.08,8905.102926237949,10943.217344713625,150,False,5.733795332408847,False,136.75319627696368,173.43658540322204,False,49.585591734793844,False,False
3,1970-07-23 10:17:04.920084620,2025-09-11,2025-09-26 20:28:12.008,HA,C,2605193028,JASSM,3,113,76,2,2,1,225,9,2,0,1,26,0,0,0,0,-158860.98864920562,-4787168.030244674,4202185.899870396,-2.3654,-0.396726,0.382824,73.25,-30.5,-31.875,0.0,0.0,0.0,0.0,0.0,0.0,2,0,41.45187445453253,-91.90064881334342,10002.621986216793,119.8899843927974,-0.002826175514669,0.0036488102032156,,8905.102926237949,10943.217344713625,150,3,2025-09-11,2025-09-26 20:28:12.034,HA,C,1688032240,AMBUSH51,1,1,48,2,1,1,225,2,1,0,0,9,1,225,2,1,-150596.87214121208,-4791356.96295719,4197287.698833786,2.0413,-3.02595,0.129589,-114.734,-17.7516,-21.0665,-0.0137898,-7.18073,6.12956,0.00226265,0.0056665,-0.0217828,4,0,41.39547816717126,-91.80026775975529,9013.538696248945,-101.13254713151112,1.349595349232186,-15.116855031580684,197.482,8905.102926237949,10943.217344713625,150,False,5.641633262935462,False,135.45865305278687,172.87666822370116,False,51.45162991934037,False,False
3,1970-07-23 10:17:04.930102144,2025-09-11,2025-09-26 20:28:13.010,HA,C,2606386144,JASSM,3,113,76,2,2,1,225,9,2,0,1,26,0,0,0,0,-158787.73474295562,-4787198.725557174,4202153.917448521,-2.3654,-0.39663,0.382824,73.25,-30.5,-31.875,0.0,0.0,0.0,0.0,0.0,0.0,2,0,41.45149042234157,-91.89976085706948,10002.626447866229,119.88693594063793,-0.0056274043231539,0.0015958376773132,,8905.102926237949,10943.217344713625,150,3,2025-09-11,2025-09-26 20:28:12.967,HA,C,1689145704,AMBUSH51,1,1,48,2,1,1,225,2,1,0,0,9,1,225,2,1,-150703.49397678024,-4791373.741303368,4197267.2274319045,2.05163,-3.01199,0.146237,-114.127,-19.9777,-21.3011,0.00670718,-7.43176,6.31656,0.0170702,-0.000681395,-0.0278644,4,0,41.39522020702604,-91.80153519630171,9018.647576394207,-102.37242395107972,1.2978045044154694,-14.66338260431752,197.152,8905.102926237949,10943.217344713625,150,False,5.559801878984551,False,134.58787982662437,172.35072693690435,False,52.82754388482966,False,False
3,1970-07-23 10:17:04.938303589,2025-09-11,2025-09-26 20:28:13.830,HA,C,2607638414,JASSM,3,113,76,2,2,1,225,9,2,0,1,26,0,0,0,0,-158710.84802420562,-4787230.938447799,4202120.349089146,-2.3654,-0.39663,0.382824,73.25,-30.5,-31.875,0.0,0.0,0.0,0.0,0.0,0.0,2,0,41.45108736650656,-91.89882887832547,10002.624012949556,119.88755289491328,-0.0048209279941976,0.001594461763227,,8905.102926237949,10943.217344713625,150,3,2025-09-11,2025-09-26 20:28:13.809,HA,C,1690139870,AMBUSH51,1,1,48,2,1,1,225,2,1,0,0,9,1,225,2,1,-150797.5674252797,-4791389.173450753,4197247.20001028,2.06843,-3.00357,0.158686,-113.475,-19.7838,-24.3345,-0.161114,-7.33078,6.53865,0.0194796,0.00305951,-0.0116066,4,0,41.394975587568574,-91.80265322236764,9020.442681980829,-103.22186079696596,1.1718550925948623,-13.792500968537048,197.152,8905.102926237949,10943.217344713625,150,False,5.481018140390396,False,133.52638344804626,171.8521904715724,False,54.43783755634419,False,False
