Subject_cm,Timestamp,SampleDate_cm,SampleTime_cm,Configuration_cm,Scenario_cm,DisTime_cm,MarkingTxt_cm,Application_cm,EntId_cm,Site_cm,ExerciseId_cm,ForceId_cm,Category_cm,Country_cm,Domain_cm,Kind_cm,Extra_cm,Specific_cm,Subcategory_cm,AltCategory_cm,AltCountry_cm,AltDomain_cm,AltKind_cm,ECEF_X_cm,ECEF_Y_cm,ECEF_Z_cm,OriPhi_cm,OriPsi_cm,OriTheta_cm,LinVelX_cm,LinVelY_cm,LinVelZ_cm,LinAccX_cm,LinAccY_cm,LinAccZ_cm,AngVelX_cm,AngVelY_cm,AngVelZ_cm,DrAlg_cm,Appearance_cm,Latitude_cm,Longitude_cm,Altitude_cm,Heading_cm,Pitch_cm,Roll_cm,CalibratedAirspeed_cm,CM_Altitude_Lead_cm,CM_Altitude_Wing_cm,CM_Airspeed_cm,Subject_ac,SampleDate_ac,SampleTime_ac,Configuration_ac,Scenario_ac,DisTime_ac,MarkingTxt_ac,Application_ac,EntId_ac,Site_ac,ExerciseId_ac,ForceId_ac,Category_ac,Country_ac,Domain_ac,Kind_ac,Extra_ac,Specific_ac,Subcategory_ac,AltCategory_ac,AltCountry_ac,AltDomain_ac,AltKind_ac,ECEF_X_ac,ECEF_Y_ac,ECEF_Z_ac,OriPhi_ac,OriPsi_ac,OriTheta_ac,LinVelX_ac,LinVelY_ac,LinVelZ_ac,LinAccX_ac,LinAccY_ac,LinAccZ_ac,AngVelX_ac,AngVelY_ac,AngVelZ_ac,DrAlg_ac,Appearance_ac,Latitude_ac,Longitude_ac,Altitude_ac,Heading_ac,Pitch_ac,Roll_ac,CalibratedAirspeed_ac,CM_Altitude_Lead_ac,CM_Altitude_Wing_ac,CM_Airspeed_ac,Bank_Angle_Condition,distance_nm,Distance_Condition,angle_between_vel,angle_between_pos,Cone_Condition,angle_between_pos_nose,Nose_Cone_Condition,Intercept_Criteria
3,1970-07-23 09:47:03.688343324,2025-09-09,2025-09-26 18:26:08.834,AA,C,3580149962,JASSM,3,136,76,2,2,1,225,9,2,0,1,26,0,0,0,0,-111397.66668092164,-4806729.312635717,4181469.182951451,2.36166,2.75493,-0.3857,-73.5,30.0,32.25,0.0,0.0,0.0,0.0,0.0,0.0,2,0,41.20359790377691,-91.327612479601,10000.00025262272,-59.996820959996654,-0.0012897580706992,-0.0013492071888626,,8857.920509312844,10895.330121764337,150,3,2025-09-09,2025-09-26 18:26:08.835,AA,C,1537044170,AMBUSH51,1,1,48,2,1,1,225,2,1,0,0,9,1,225,2,1,-145488.58246525042,-4792587.698785538,4195998.844383833,2.24312,2.80763,-0.320691,-101.386,38.8229,40.1426,-0.106015,-7.50249,6.33593,0.0354273,0.00885605,-0.0133813,4,0,41.38039395591102,-91.73879395526946,8857.515148212917,-64.90695324525241,-0.2586892515258925,-5.751236068535856,186.532,8857.920509312844,10895.330121764337,150,True,21.37901380849442,False,2.1586147855688194,179.30947960035425,False,178.1024491054129,False,False
3,1970-07-23 09:47:03.698442807,2025-09-09,2025-09-26 18:26:09.844,AA,C,3581403418,JASSM,3,136,76,2,2,1,225,9,2,0,1,26,0,0,0,0,-111475.11199342164,-4806697.7772963615,4181503.1409592633,2.36166,2.75493,-0.3857,-73.5,30.0,32.25,0.0,0.0,0.0,0.0,0.0,0.0,2,0,41.204004115404246,-91.32854383784728,10000.000426066275,-59.99743448232337,-0.0004798046905161,-0.0013505926086881,,8857.920509312844,10895.330121764337,150,3,2025-09-09,2025-09-26 18:26:09.768,AA,C,1538157636,AMBUSH51,1,1,48,2,1,1,225,2,1,0,0,9,1,225,2,1,-145582.6090499959,-4792551.264553457,4196034.839722881,2.30345,2.81508,-0.315691,-101.43,39.2732,38.7053,0.0222312,-7.6279,6.43643,0.0888487,0.00811536,-0.00120987,4,0,41.38083673035423,-91.73993023436483,8852.958638715681,-65.39584443069141,-0.1666936368379465,-2.1591506396951194,186.056,8857.920509312844,10895.330121764337,150,True,21.388033970446653,False,2.700623755065241,179.30490064614722,False,177.7174988840989,False,False
3,1970-07-23 09:47:03.709301088,2025-09-09,2025-09-26 18:26:10.930,AA,C,3582715012,JASSM,3,136,76,2,2,1,225,9,2,0,1,26,0,0,0,0,-111556.14910279664,-4806664.778333959,4181538.672941685,2.36166,2.75484,-0.385604,-73.5,30.0,32.25,0.0,0.0,0.0,0.0,0.0,0.0,2,0,41.20442915830169,-91.32951840371116,10000.000423627973,-59.99832167410605,-0.0071158741694502,-0.0034177199486355,,8857.920509312844,10895.330121764337,150,3,2025-09-09,2025-09-26 18:26:11.134,AA,C,1539788066,AMBUSH51,1,1,48,2,1,1,225,2,1,0,0,9,1,225,2,1,-145720.95461910017,-4792497.676408405,4196088.305443868,2.4168,2.8136,-0.321644,-100.924,39.083,39.2765,-0.0990964,-7.70328,6.30026,0.0480857,0.00417679,0.0035006,4,0,41.38149147476791,-91.74160211517004,8847.405796418785,-65.09601948364157,0.0143656897066131,4.30790839264063,185.249,8857.920509312844,10895.330121764337,150,True,21.422098285575753,False,2.3684343138244026,179.2994210938528,False,178.01600773226937,False,False
3,1970-07-23 09:47:03.719341684,2025-09-09,2025-09-26 18:26:11.934,AA,C,3583908594,JASSM,3,136,76,2,2,1,225,9,2,0,1,26,0,0,0,0,-111629.89519654664,-4806634.747511205,4181571.007170201,2.36166,2.75484,-0.385604,-73.5,30.0,32.25,0.0,0.0,0.0,0.0,0.0,0.0,2,0,41.20481595114005,-91.33040529778668,10000.000446269378,-59.9989059155667,-0.0063446091113841,-0.0034190411171428,,8857.920509312844,10895.330121764337,150,3,2025-09-09,2025-09-26 18:26:11.868,AA,C,1540662932,AMBUSH51,1,1,48,2,1,1,225,2,1,0,0,9,1,225,2,1,-145795.3365957469,-4792468.609032802,4196117.41633688,2.45166,2.80522,-0.328977,-100.387,39.4553,39.5863,-0.222528,-7.50453,6.2493,0.0414611,0.00224184,0.019284,4,0,41.38184747399677,-91.74250111478062,8844.588189379803,-64.47839345197808,-0.0174822453400323,6.151941986540332,184.846,8857.920509312844,10895.330121764337,150,True,21.421561133911005,False,2.0758245406804354,179.29607644165208,False,178.35040281984186,False,False
3,1970-07-23 09:47:03.729410225,2025-09-09,2025-09-26 18:26:12.941,AA,C,3585161022,JASSM,3,136,76,2,2,1,225,9,2,0,1,26,0,0,0,0,-111707.27605592164,-4806603.235243139,4181604.934660435,2.36176,2.75484,-0.385604,-73.5,30.0,32.25,0.0,0.0,0.0,0.0,0.0,0.0,2,0,41.20522180558358,-91.3313359163036,10000.00045068766,-59.99951896536439,-0.0055353276466685,0.0020710406155025,,8857.920509312844,10895.330121764337,150,3,2025-09-09,2025-09-26 18:26:12.968,AA,C,1541975232,AMBUSH51,1,1,48,2,1,1,225,2,1,0,0,9,1,225,2,1,-145905.57053308008,-4792424.569911547,4196161.60073891,2.48372,2.79954,-0.339255,-99.4324,40.2547,40.4387,-0.162935,-7.71288,6.5172,0.00839416,0.000184133,0.0138412,4,0,41.38238780591526,-91.74383379842966,8840.314207160607,-63.8431671697058,0.1755346342539598,7.882618100526833,184.406,8857.920509312844,10895.330121764337,150,True,21.441223247293554,False,1.4616930795818803,179.29233327833526,False,179.07535567601695,False,False
3,1970-07-23 09:47:03.739442678,2025-09-09,2025-09-26 18:26:13.944,AA,C,3586354884,JASSM,3,136,76,2,2,1,225,9,2,0,1,26,0,0,0,0,-111781.03777467164,-4806573.195570287,4181637.2749924655,2.36176,2.75484,-0.385604,-73.5,30.0,32.25,0.0,0.0,0.0,0.0,0.0,0.0,2,0,41.20560867600224,-91.3322230203892,10000.00050039181,-60.00010335443864,-0.0047638939929212,0.0020697111024648,,8857.920509312844,10895.330121764337,150,3,2025-09-09,2025-09-26 18:26:13.934,AA,C,1543128464,AMBUSH51,1,1,48,2,1,1,225,2,1,0,0,9,1,225,2,1,-146001.51380936857,-4792385.513649186,4196201.118449934,2.43937,2.79143,-0.349292,-98.7121,40.5386,41.3882,-0.165716,-7.71455,6.61668,-0.0923337,0.0100607,0.0155743,4,0,41.38286956404559,-91.74499399648744,8837.115816561061,-63.12727784275624,0.2677514432137921,5.187942480833971,183.917,8857.920509312844,10895.330121764337,150,True,21.454656290324746,False,0.9173465898458545,179.28970127613698,False,179.68197152933706,False,False
3,1970-07-23 09:47:03.750440546,2025-09-09,2025-09-26 18:26:15.044,AA,C,3587606502,JASSM,3,136,76,2,2,1,225,9,2,0,1,26,0,0,0,0,-111858.36980592164,-4806541.701734838,4181671.1789231305,2.36176,2.75484,-0.385604,-73.5,30.0,32.25,0.0,0.0,0.0,0.0,0.0,0.0,2,0,41.20601425365573,-91.33315307452274,10000.000428782636,-60.00071604216409,-0.0039551260220999,0.0020683269958468,,8857.920509312844,10895.330121764337,150,3,2025-09-09,2025-09-26 18:26:15.035,AA,C,1544440762,AMBUSH51,1,1,48,2,1,1,225,2,1,0,0,9,1,225,2,1,-146109.69799370327,-4792340.788759857,4196247.173957953,2.36014,2.789,-0.358467,-98.065,40.5524,42.071,-0.163149,-7.84928,6.6002,-0.056691,-0.00308864,-0.00749326,4,0,41.383426952865534,-91.7463024888898,8835.074538424258,-62.66214083720744,0.544995386590847,0.6029649793176488,183.795,8857.920509312844,10895.330121764337,150,True,21.473907613750125,False,0.541125923573973,179.28818610056553,False,179.82725531845787,False,False
3,1970-07-23 09:47:03.760348640,2025-09-09,2025-09-26 18:26:16.034,AA,C,3588800542,JASSM,3,136,76,2,2,1,225,9,2,0,1,26,0,0,0,0,-111932.14324342164,-4806511.655836401,4181703.52242899,2.36176,2.75484,-0.385604,-73.5,30.0,32.25,0.0,0.0,0.0,0.0,0.0,0.0,2,0,41.20640116679703,-91.33404034135724,10000.00042711432,-60.00130054772062,-0.0031835719957822,0.0020670015436276,,8857.920509312844,10895.330121764337,150,3,2025-09-09,2025-09-26 18:26:16.068,AA,C,1545673528,AMBUSH51,1,1,48,2,1,1,225,2,1,0,0,9,1,225,2,1,-146210.0235528702,-4792299.278570039,4196290.505249177,2.31255,2.79472,-0.354163,-97.6846,40.5187,41.9099,-0.262131,-7.60622,6.52092,-0.0292459,-0.00720822,0.00711667,4,0,41.383948237872175,-91.74751596352992,8834.452338182058,-63.05427022535884,0.5918998240908665,-2.0132792008357603,182.903,8857.920509312844,10895.330121764337,150,True,21.490597051414944,False,0.5759655390829419,179.28747375107946,False,179.84153949899567,False,False
3,1970-07-23 09:47:03.771380815,2025-09-09,2025-09-26 18:26:17.138,AA,C,3590111900,JASSM,3,136,76,2,2,1,225,9,2,0,1,26,0,0,0,0,-112013.16472779664,-4806478.656935033,4181739.042814732,2.36176,2.75484,-0.385604,-73.5,30.0,32.25,0.0,0.0,0.0,0.0,0.0,0.0,2,0,41.20682608627518,-91.33501479217414,10000.000459799225,-60.001942492760655,-0.0023362141541306,0.0020655451140604,,8857.920509312844,10895.330121764337,150,3,2025-09-09,2025-09-26 18:26:17.134,AA,C,1546946060,AMBUSH51,1,1,48,2,1,1,225,2,1,0,0,9,1,225,2,1,-146314.04275605705,-4792256.504922363,4196335.162574089,2.32948,2.79665,-0.354302,-97.4755,40.1413,41.7423,-0.330251,-7.49393,6.51588,0.0369586,0.00670888,-0.00176955,4,0,41.38448530802585,-91.7487740381262,8833.88212450819,-63.12199124193644,0.6724523954637744,-1.0057040571823397,182.499,8857.920509312844,10895.330121764337,150,True,21.50494655522164,False,0.5332228267478308,179.28650771171485,False,179.80761911383217,False,False
3,1970-07-23 09:47:03.781400722,2025-09-09,2025-09-26 18:26:18.140,AA,C,3591364598,JASSM,3,136,76,2,2,1,225,9,2,0,1,26,0,0,0,0,-112090.56121217164,-4806447.133009252,4181772.973600865,2.36176,2.75484,-0.385604,-73.5,30.0,32.25,0.0,0.0,0.0,0.0,0.0,0.0,2,0,41.20723199258296,-91.33594565704652,10000.000418366366,-60.00255572951379,-0.0015267649471529,0.0020641488563352,,8857.920509312844,10895.330121764337,150,3,2025-09-09,2025-09-26 18:26:18.101,AA,C,1548099292,AMBUSH51,1,1,48,2,1,1,225,2,1,0,0,9,1,225,2,1,-146408.23051436633,-4792217.810793178,4196375.497830872,2.36098,2.80107,-0.353586,-97.3558,39.9359,41.917,-0.199733,-7.57958,6.8136,0.0273546,0.00994628,-0.00319683,4,0,41.384970702529536,-91.74991320946916,8833.243074000107,-63.318275507675125,0.8142639217322466,0.8843770248082155,182.084,8857.920509312844,10895.330121764337,150,True,21.515376473543057,False,0.4003608354759457,179.2854541569312,False,179.6696550940026,False,False
3,1970-07-23 09:47:03.791399709,2025-09-09,2025-09-26 18:26:19.139,AA,C,3592557644,JASSM,3,136,76,2,2,1,225,9,2,0,1,26,0,0,0,0,-112164.27214967164,-4806417.109937963,4181805.287321568,2.36176,2.75484,-0.385604,-73.5,30.0,32.25,0.0,0.0,0.0,0.0,0.0,0.0,2,0,41.20761855579018,-91.33683220579584,10000.000723356186,-60.00313977624656,-0.0007558645452673,0.0020628253890213,,8857.920509312844,10895.330121764337,150,3,2025-09-09,2025-09-26 18:26:19.101,AA,C,1549292290,AMBUSH51,1,1,48,2,1,1,225,2,1,0,0,9,1,225,2,1,-146505.75465325898,-4792177.895297501,4196417.361671462,2.41564,2.7983,-0.358089,-97.3187,40.0369,42.3632,-0.200264,-7.25468,6.73494,0.0266847,0.00415183,0.00913693,4,0,41.38547306517841,-91.75109269669916,8833.171649613756,-63.03082350060304,0.8897824815982728,3.965180246779753,182.292,8857.920509312844,10895.330121764337,150,True,21.53020893986941,False,0.23314715068459396,179.28473154252512,False,179.50652925556906,False,False
3,1970-07-23 09:47:03.801466204,2025-09-09,2025-09-26 18:26:20.146,AA,C,3593751232,JASSM,3,136,76,2,2,1,225,9,2,0,1,26,0,0,0,0,-112238.02019654664,-4806387.071241674,4181837.615934849,2.36176,2.75474,-0.385509,-73.5,30.0,32.25,0.0,0.0,0.0,0.0,0.0,0.0,2,0,41.20800530046374,-91.33771921145848,10000.00059146465,-60.003968917897446,-0.0074683146210599,-3.681816033649159e-06,,8857.920509312844,10895.330121764337,150,3,2025-09-09,2025-09-26 18:26:20.100,AA,C,1550485290,AMBUSH51,1,1,48,2,1,1,225,2,1,0,0,9,1,225,2,1,-146603.13913182495,-4792137.253839,4196460.080997323,2.4472,2.78702,-0.364629,-97.1467,40.6486,43.1279,0.0121318,-7.10045,6.68414,0.00446184,0.00188398,0.0258212,4,0,41.3859855355549,-91.75227079913394,8833.165775583648,-62.34014953187902,0.7225870324356264,5.554576322746625,182.781,8857.920509312844,10895.330121764337,150,True,21.54526421832417,False,0.49244200283787165,179.28455312366057,False,179.16861520958008,False,False
3,1970-07-23 09:47:03.812464508,2025-09-09,2025-09-26 18:26:21.246,AA,C,3595063042,JASSM,3,136,76,2,2,1,225,9,2,0,1,26,0,0,0,0,-112319.06902467164,-4806354.056837377,4181873.144987584,2.36176,2.75474,-0.385509,-73.5,30.0,32.25,0.0,0.0,0.0,0.0,0.0,0.0,2,0,41.20843033548313,-91.33869403997151,9999.99997519675,-60.00461113217886,-0.0066206685609501,-5.144706456542725e-06,,8857.920509312844,10895.330121764337,150,3,2025-09-09,2025-09-26 18:26:21.434,AA,C,1552075954,AMBUSH51,1,1,48,2,1,1,225,2,1,0,0,9,1,225,2,1,-146733.42960000338,-4792081.88350931,4196518.074020667,2.43036,2.77545,-0.368223,-96.9625,41.6322,43.9257,-0.0514675,-6.90104,6.54009,-0.0207154,0.000292324,0.00507769,4,0,41.38668273960111,-91.7538473729609,8832.537021088341,-61.759147687323946,0.4297038258983114,4.357853528081671,183.599,8857.920509312844,10895.330121764337,150,True,21.576843690489934,False,1.0747732364880722,179.28497133333516,False,178.68130129695882,False,False
3,1970-07-23 09:47:03.823919834,2025-09-09,2025-09-26 18:26:22.391,AA,C,3596315742,JASSM,3,136,76,2,2,1,225,9,2,0,1,26,0,0,0,0,-112396.46746217164,-4806322.529249487,4181907.072477818,2.36176,2.75474,-0.385509,-73.5,30.0,32.25,0.0,0.0,0.0,0.0,0.0,0.0,2,0,41.20883621105755,-91.33962497460708,10000.000409630637,-60.00522443439664,-0.0058112042003512,-6.534394673052549e-06,,8857.920509312844,10895.330121764337,150,3,2025-09-09,2025-09-26 18:26:22.467,AA,C,1553308720,AMBUSH51,1,1,48,2,1,1,225,2,1,0,0,9,1,225,2,1,-146833.43702083605,-4792038.095400879,4196563.638221736,2.41058,2.77015,-0.373199,-96.8113,42.4683,44.3923,-0.227129,-7.07914,6.81261,-0.0459614,0.00777414,-0.00188606,4,0,41.38723262886288,-91.75505800226696,8831.173559014429,-61.358237705175085,0.431884060472585,3.117459806138568,184.039,8857.920509312844,10895.330121764337,150,True,21.591990794923596,False,1.5247490952442095,179.28528687993497,False,178.3017368408123,False,False
3,1970-07-23 09:47:03.833379491,2025-09-09,2025-09-26 18:26:23.337,AA,C,3597568440,JASSM,3,136,76,2,2,1,225,9,2,0,1,26,0,0,0,0,-112473.86394654664,-4806291.000562963,4181940.99899149,2.36176,2.75474,-0.385509,-73.5,30.0,32.25,0.0,0.0,0.0,0.0,0.0,0.0,2,0,41.209242079248966,-91.34055589778428,10000.000090334868,-60.00583773404554,-0.0050017547740189,-7.93283456479015e-06,,8857.920509312844,10895.330121764337,150,3,2025-09-09,2025-09-26 18:26:23.434,AA,C,1554461952,AMBUSH51,1,1,48,2,1,1,225,2,1,0,0,9,1,225,2,1,-146927.03123089098,-4791996.677989589,4196606.680055174,2.37793,2.7672,-0.373949,-96.8497,42.7289,44.9113,0.015237,-7.06163,6.65595,-0.0188637,0.00234379,0.00121611,4,0,41.387752542601554,-91.7561911759169,8829.694776062634,-61.21712221199725,0.3519039441835123,1.1862308234253631,184.528,8857.920509312844,10895.330121764337,150,True,21.603210539355835,False,1.722691169446294,179.28561066083964,False,178.0714926446496,False,False
3,1970-07-23 09:47:03.846756626,2025-09-09,2025-09-26 18:26:24.675,AA,C,3598821140,JASSM,3,136,76,2,2,1,225,9,2,0,1,26,0,0,0,0,-112551.26238404664,-4806259.471021947,4181974.92477274,2.36176,2.75474,-0.385509,-73.5,30.0,32.25,0.0,0.0,0.0,0.0,0.0,0.0,2,0,41.20964793972143,-91.34148685597609,10000.000372918556,-60.00645106174401,-0.00419229017006,-9.32225725451828e-06,,8857.920509312844,10895.330121764337,150,3,2025-09-09,2025-09-26 18:26:24.667,AA,C,1555933316,AMBUSH51,1,1,48,2,1,1,225,2,1,0,0,9,1,225,2,1,-147046.4749104149,-4791943.427918093,4196661.867001107,2.36821,2.76773,-0.375818,-96.9794,43.1902,45.0683,-0.213959,-7.24832,6.86684,-0.0105351,-0.000182052,-0.00346523,4,0,41.38842011414835,-91.7576374877566,8827.406735348557,-61.16241606555107,0.4489602614691955,0.6408577981683639,185.212,8857.920509312844,10895.330121764337,150,True,21.63109664203052,False,1.8892246013895577,179.2864351697801,False,177.95050493097963,False,False
3,1970-07-23 09:47:03.854462245,2025-09-09,2025-09-26 18:26:25.446,AA,C,3600015306,JASSM,3,136,76,2,2,1,225,9,2,0,1,26,0,0,0,0,-112625.04363404664,-4806229.413770971,4182007.26461649,2.36176,2.75474,-0.385509,-73.5,30.0,32.25,0.0,0.0,0.0,0.0,0.0,0.0,2,0,41.2100348298187,-91.3423743172351,10000.000569510736,-60.00703573771866,-0.0034206532274588,-1.0650394636887852e-05,,8857.920509312844,10895.330121764337,150,3,2025-09-09,2025-09-26 18:26:25.368,AA,C,1556768416,AMBUSH51,1,1,48,2,1,1,225,2,1,0,0,9,1,225,2,1,-147114.51294977454,-4791913.038966346,4196693.342557277,2.36129,2.76791,-0.376176,-97.1277,43.2543,45.2703,-0.173375,-7.17808,6.91958,-0.0075536,0.00566858,0.00402075,4,0,41.38880097485808,-91.75846137638769,8826.055424562717,-61.1552361099053,0.4709641267796021,0.248250963418989,185.408,8857.920509312844,10895.330121764337,150,True,21.628328933516503,False,1.9176811703395387,179.28626488344068,False,177.9087678867095,False,False
3,1970-07-23 09:47:03.865483571,2025-09-09,2025-09-26 18:26:26.548,AA,C,3601326536,JASSM,3,136,76,2,2,1,225,9,2,0,1,26,0,0,0,0,-112706.05730592164,-4806196.408888158,4182042.7738938336,2.36176,2.75474,-0.385509,-73.5,30.0,32.25,0.0,0.0,0.0,0.0,0.0,0.0,2,0,41.21045963983406,-91.34334878445917,10000.00056007529,-60.00767774005373,-0.0025733748256537,-1.2111020437763711e-05,,8857.920509312844,10895.330121764337,150,3,2025-09-09,2025-09-26 18:26:26.634,AA,C,1558279548,AMBUSH51,1,1,48,2,1,1,225,2,1,0,0,9,1,225,2,1,-147236.86327744587,-4791858.440660407,4196750.066750965,2.36881,2.76461,-0.377189,-97.3428,43.2472,45.6104,-0.156349,-7.11351,6.64425,0.0133876,-0.0010455,0.00175706,4,0,41.38948638583614,-91.75994295176191,8824.02100178833,-60.99094870941615,0.3893952716069092,0.6106214692113433,185.811,8857.920509312844,10895.330121764337,150,True,21.655854072269157,False,1.9389711821081421,179.28716380819367,False,177.85373936482,False,False
3,1970-07-23 09:47:03.875359697,2025-09-09,2025-09-26 18:26:27.535,AA,C,3602579236,JASSM,3,136,76,2,2,1,225,9,2,0,1,26,0,0,0,0,-112783.45379029664,-4806164.876417455,4182076.6969895368,2.36176,2.75474,-0.385509,-73.5,30.0,32.25,0.0,0.0,0.0,0.0,0.0,0.0,2,0,41.21086547709778,-91.34427975471668,10000.000237995944,-60.00829109064282,-0.0017639252950873,-1.3508315403717709e-05,,8857.920509312844,10895.330121764337,150,3,2025-09-09,2025-09-26 18:26:27.634,AA,C,1559472546,AMBUSH51,1,1,48,2,1,1,225,2,1,0,0,9,1,225,2,1,-147334.25605410893,-4791814.795514483,4196795.41032422,2.37649,2.76324,-0.378651,-97.4155,43.4016,45.8388,-0.261353,-7.25374,6.86273,0.00763266,0.00345691,-0.00389799,4,0,41.39003434921842,-91.76112239900756,8822.369216499259,-60.88076913327762,0.3981583841747071,1.0225417320021553,186.129,8857.920509312844,10895.330121764337,150,True,21.669721335950975,False,2.028382533230504,179.2876448233886,False,177.7633749867022,False,False
3,1970-07-23 09:47:03.886383836,2025-09-09,2025-09-26 18:26:28.638,AA,C,3603831934,JASSM,3,136,76,2,2,1,225,9,2,0,1,26,0,0,0,0,-112860.85222779664,-4806133.34297019,4182110.619352818,2.36176,2.75474,-0.385509,-73.5,30.0,32.25,0.0,0.0,0.0,0.0,0.0,0.0,2,0,41.21127130736488,-91.34521076002454,10000.0002169098,-60.008904469305,-0.0009544602023744,-1.489720705943276e-05,,8857.920509312844,10895.330121764337,150,3,2025-09-09,2025-09-26 18:26:28.734,AA,C,1560784844,AMBUSH51,1,1,48,2,1,1,225,2,1,0,0,9,1,225,2,1,-147441.8605041625,-4791766.422253856,4196845.640900238,2.37386,2.75831,-0.380314,-97.4982,43.7795,45.902,0.00645967,-7.02495,6.44787,-0.0149813,-0.00222728,0.00350476,4,0,41.39064155237401,-91.76242559087235,8820.46644953985,-60.62840160193929,0.2821145136279262,0.768485462729908,186.569,8857.920509312844,10895.330121764337,150,True,21.6902005132041,False,2.1486297234431624,179.2883249017635,False,177.68561022549676,False,False
3,1970-07-23 09:47:03.896420597,2025-09-09,2025-09-26 18:26:29.642,AA,C,3605084868,JASSM,3,136,76,2,2,1,225,9,2,0,1,26,0,0,0,0,-112938.26433717164,-4806101.8026869865,4182144.5473313336,2.36176,2.75465,-0.385509,-73.5,30.0,32.25,0.0,0.0,0.0,0.0,0.0,0.0,2,0,41.211677206713205,-91.3461419416516,10000.000439758063,-60.00589988260234,-0.0037227893127503,-0.0020813731813519,,8857.920509312844,10895.330121764337,150,3,2025-09-09,2025-09-26 18:26:29.500,AA,C,1561699478,AMBUSH51,1,1,48,2,1,1,225,2,1,0,0,9,1,225,2,1,-147516.7422606225,-4791732.599206186,4196880.619061973,2.34477,2.7576,-0.379095,-97.6389,43.882,45.997,-0.168014,-7.06028,6.47218,-0.0397342,-0.00606181,-0.00179035,4,0,41.39106520196152,-91.76333255326396,8818.802675754721,-60.6514539167771,0.2067580524719394,-0.9136134791518724,186.764,8857.920509312844,10895.330121764337,150,True,21.689678441474147,False,2.1688275118732867,179.28817500512,False,177.67109243642463,False,False
3,1970-07-23 09:47:03.906921595,2025-09-09,2025-09-26 18:26:30.692,AA,C,3606278522,JASSM,3,136,76,2,2,1,225,9,2,0,1,26,0,0,0,0,-113012.01238404664,-4806071.753736791,4182176.869108677,2.36176,2.75465,-0.385413,-73.5,30.0,32.25,0.0,0.0,0.0,0.0,0.0,0.0,2,0,41.21206389390145,-91.34702905981428,10000.000066993747,-60.01034681986302,-0.0068574390729541,-0.0020823269149782,,8857.920509312844,10895.330121764337,150,3,2025-09-09,2025-09-26 18:26:30.535,AA,C,1562932242,AMBUSH51,1,1,48,2,1,1,225,2,1,0,0,9,1,225,2,1,-147618.53321281163,-4791686.520819902,4196928.138722871,2.30967,2.75971,-0.377605,-97.9693,43.8971,45.9613,-0.280813,-7.12611,6.69979,-0.0169641,-0.00278696,-0.00639679,4,0,41.39164149105903,-91.76456549410068,8816.238560312717,-60.7919965368875,0.226193454768545,-2.8807015318431404,187.168,8857.920509312844,10895.330121764337,150,True,21.70877892512219,False,2.078697168095072,179.28845450109927,False,177.77369978494934,False,False
3,1970-07-23 09:47:03.917379556,2025-09-09,2025-09-26 18:26:31.737,AA,C,3607590030,JASSM,3,136,76,2,2,1,225,9,2,0,1,26,0,0,0,0,-113093.04363404664,-4806038.737013158,4182212.381559849,2.36176,2.75465,-0.385413,-73.5,30.0,32.25,0.0,0.0,0.0,0.0,0.0,0.0,2,0,41.21248875360583,-91.34800380001668,10000.000601746477,-60.01098902792377,-0.006009977751723,-0.0020837882629831,,8857.920509312844,10895.330121764337,150,3,2025-09-09,2025-09-26 18:26:31.611,AA,C,1564204774,AMBUSH51,1,1,48,2,1,1,225,2,1,0,0,9,1,225,2,1,-147722.5113531541,-4791639.712401349,4196976.2409197865,2.29257,2.76251,-0.373244,-98.339,43.7663,45.5951,-0.207596,-7.24582,6.52728,-0.00478017,0.00919311,-0.00709587,4,0,41.39222564160168,-91.76582485422824,8813.315647144924,-61.07492198068806,0.1553569388571799,-3.802271396044985,187.204,8857.920509312844,10895.330121764337,150,True,21.72456904764582,False,1.8568081361640127,179.28826461338497,False,178.03205319449518,False,False
3,1970-07-23 09:47:03.927440547,2025-09-09,2025-09-26 18:26:32.744,AA,C,3608783076,JASSM,3,136,76,2,2,1,225,9,2,0,1,26,0,0,0,0,-113166.75457154664,-4806008.701978979,4182244.6847825055,2.36176,2.75465,-0.385413,-73.5,30.0,32.25,0.0,0.0,0.0,0.0,0.0,0.0,2,0,41.212875223458816,-91.3488904940392,10000.00026747866,-60.011573231457305,-0.0052390759734737,-0.0020851165038243,,8857.920509312844,10895.330121764337,150,3,2025-09-09,2025-09-26 18:26:32.667,AA,C,1565477306,AMBUSH51,1,1,48,2,1,1,225,2,1,0,0,9,1,225,2,1,-147828.19790439642,-4791592.557379803,4197024.395941492,2.29525,2.76974,-0.369497,-98.6889,43.6152,45.0092,-0.123401,-7.34534,6.52244,0.0130401,-0.00219191,0.00464285,4,0,41.392811883308696,-91.76710477400512,8809.792188177138,-61.50061463228348,0.2769767608582384,-3.500472097437348,187.522,8857.920509312844,10895.330121764337,150,True,21.74582990111163,False,1.6073959377304032,179.2876953022548,False,178.35878409361206,False,False
3,1970-07-23 09:47:03.938440450,2025-09-09,2025-09-26 18:26:33.844,AA,C,3610036604,JASSM,3,136,76,2,2,1,225,9,2,0,1,26,0,0,0,0,-113244.20379029664,-4805977.142408666,4182278.625944615,2.36176,2.75465,-0.385413,-73.5,30.0,32.25,0.0,0.0,0.0,0.0,0.0,0.0,2,0,41.21328129134845,-91.34982216873064,10000.00008415966,-60.01218707563338,-0.0044290746872128,-0.0020865166483779,,8857.920509312844,10895.330121764337,150,3,2025-09-09,2025-09-26 18:26:33.900,AA,C,1566948672,AMBUSH51,1,1,48,2,1,1,225,2,1,0,0,9,1,225,2,1,-147949.4029258821,-4791539.031619902,4197079.123086903,2.31804,2.7705,-0.366944,-98.9177,42.4961,45.4037,-0.137572,-7.27912,6.3344,0.00985682,0.00119114,0.00193599,4,0,41.3934775301514,-91.76857245538578,8806.040471456121,-61.63366649784387,0.203440258586195,-2.179642317736944,187.485,8857.920509312844,10895.330121764337,150,True,21.774461515180874,False,1.2277127788841686,179.28702856376586,False,178.49529783946338,False,False
3,1970-07-23 09:47:03.949339027,2025-09-09,2025-09-26 18:26:34.933,AA,C,3611348132,JASSM,3,136,76,2,2,1,225,9,2,0,1,26,0,0,0,0,-113325.23504029664,-4805944.122144994,4182314.136198521,2.36176,2.75465,-0.385413,-73.5,30.0,32.25,0.0,0.0,0.0,0.0,0.0,0.0,2,0,41.21370613343013,-91.3507969460674,10000.00026554146,-60.01282932380231,-0.0035816098449686,-0.0020879828103414,,8857.920509312844,10895.330121764337,150,3,2025-09-09,2025-09-26 18:26:34.834,AA,C,1568062138,AMBUSH51,1,1,48,2,1,1,225,2,1,0,0,9,1,225,2,1,-148042.2021596852,-4791498.179348517,4197120.653321923,2.32684,2.7761,-0.368678,-98.8313,42.8923,44.5963,-0.115173,-7.67106,6.64217,0.0012057,0.0170786,-0.00889142,4,0,41.39398388970881,-91.76969614173102,8802.687978907954,-61.775737960153954,0.4867450418810679,-1.5606645918614577,187.327,8857.920509312844,10895.330121764337,150,True,21.782617571223977,False,1.222828915115222,179.28573323593815,False,178.72121960669523,False,False
3,1970-07-23 09:47:03.961521087,2025-09-09,2025-09-26 18:26:36.152,AA,C,3612660476,JASSM,3,136,76,2,2,1,225,9,2,0,1,26,0,0,0,0,-113406.31902467164,-4805911.080274877,4182349.6676926618,2.36176,2.75465,-0.385413,-73.5,30.0,32.25,0.0,0.0,0.0,0.0,0.0,0.0,2,0,41.21413123174188,-91.35177237043813,10000.000703681691,-60.01347200374502,-0.0027335995008664,-0.0020894395165713,,8857.920509312844,10895.330121764337,150,3,2025-09-09,2025-09-26 18:26:36.300,AA,C,1569811868,AMBUSH51,1,1,48,2,1,1,225,2,1,0,0,9,1,225,2,1,-148187.39869556515,-4791435.128550801,4197185.831595706,2.41744,2.7772,-0.370021,-98.465,42.5295,44.8177,-0.19435,-7.46855,6.31456,0.0474989,-0.00669431,0.00299918,4,0,41.39477231301055,-91.77145401098748,8800.021310828475,-61.7639456145084,0.5843060226506067,3.65312400709301,186.691,8857.920509312844,10895.330121764337,150,True,21.823989921267497,False,1.211767856149298,179.2855653182477,False,178.62187386634517,False,False
3,1970-07-23 09:47:03.970441258,2025-09-09,2025-09-26 18:26:37.044,AA,C,3613913642,JASSM,3,136,76,2,2,1,225,9,2,0,1,26,0,0,0,0,-113483.74480592164,-4805879.5272963615,4182383.595915318,2.36185,2.75465,-0.385413,-73.5,30.0,32.25,0.0,0.0,0.0,0.0,0.0,0.0,2,0,41.214537152826686,-91.3527037996482,10000.000396904392,-60.01408570160314,-0.0019238432333176,0.0034142941036863,,8857.920509312844,10895.330121764337,150,3,2025-09-09,2025-09-26 18:26:37.034,AA,C,1570686734,AMBUSH51,1,1,48,2,1,1,225,2,1,0,0,9,1,225,2,1,-148258.3006318095,-4791403.969250773,4197218.010556179,2.42623,2.77321,-0.376786,-97.9984,42.8586,44.9545,-0.252254,-7.62346,6.50608,-0.0122495,0.00702721,0.0119665,4,0,41.395161879731226,-91.77231256098916,8798.575246883644,-61.339471427670425,0.7076560028281501,4.078158719468188,186.214,8857.920509312844,10895.330121764337,150,True,21.820545522111754,False,1.4801050581382278,179.28478252346804,False,178.3918358307085,False,False
3,1970-07-23 09:47:03.982488283,2025-09-09,2025-09-26 18:26:38.248,AA,C,3615285180,JASSM,3,136,76,2,2,1,225,9,2,0,1,26,0,0,0,0,-113568.48308717164,-4805844.992872533,4182420.727995396,2.36185,2.75465,-0.385413,-73.5,30.0,32.25,0.0,0.0,0.0,0.0,0.0,0.0,2,0,41.21498140755973,-91.35372321155256,10000.000276562723,-60.01475737500114,-0.0010376066197805,0.0034127590097865,,8857.920509312844,10895.330121764337,150,3,2025-09-09,2025-09-26 18:26:38.167,AA,C,1572038800,AMBUSH51,1,1,48,2,1,1,225,2,1,0,0,9,1,225,2,1,-148369.73207441127,-4791354.948770847,4197269.472274257,2.39842,2.76609,-0.388239,-97.3586,42.7926,45.6635,-0.197066,-7.81921,6.6079,-0.0400462,0.000275679,-0.00479057,4,0,41.39578041404437,-91.77366192122985,8798.115016066096,-60.60883927564564,0.9054874763771008,2.343020901592388,186.092,8857.920509312844,10895.330121764337,150,True,21.838552928248284,False,1.8029466903154776,179.2852409486624,False,177.9754727597216,False,False
3,1970-07-23 09:47:03.992339948,2025-09-09,2025-09-26 18:26:39.233,AA,C,3616537888,JASSM,3,136,76,2,2,1,225,9,2,0,1,26,0,0,0,0,-113645.88152467164,-4805813.449415502,4182454.6423020368,2.36185,2.75455,-0.385413,-73.5,30.0,32.25,0.0,0.0,0.0,0.0,0.0,0.0,2,0,41.2153871659786,-91.35465433638342,10000.000546799054,-60.01175252576032,-0.0038060857359993,0.0013467637813768,,8857.920509312844,10895.330121764337,150,3,2025-09-09,2025-09-26 18:26:39.134,AA,C,1573192032,AMBUSH51,1,1,48,2,1,1,225,2,1,0,0,9,1,225,2,1,-148462.96339139578,-4791313.776466855,4197313.310156961,2.3536,2.76682,-0.387759,-96.9632,42.6923,45.8614,-0.142934,-7.43174,6.39663,-0.0446672,-0.00186941,0.00300958,4,0,41.396304128578855,-91.7747909684434,8799.042606037681,-60.656305821880856,0.9142464166723112,-0.2101552330599267,185.212,8857.920509312844,10895.330121764337,150,True,21.849719577357003,False,1.937443912952764,179.28619951454445,False,177.81768748754916,False,False
3,1970-07-23 09:47:04.003915128,2025-09-09,2025-09-26 18:26:40.391,AA,C,3617850410,JASSM,3,136,76,2,2,1,225,9,2,0,1,26,0,0,0,0,-113726.97527467164,-4805780.398878393,4182490.17477274,2.36185,2.75455,-0.385317,-73.5,30.0,32.25,0.0,0.0,0.0,0.0,0.0,0.0,2,0,41.21581228811402,-91.3556299295023,10000.000427355708,-60.01625766048835,-0.0068640536731451,0.0013456874506998,,8857.920509312844,10895.330121764337,150,3,2025-09-09,2025-09-26 18:26:40.500,AA,C,1574822464,AMBUSH51,1,1,48,2,1,1,225,2,1,0,0,9,1,225,2,1,-148595.96598614738,-4791255.111266572,4197376.364740718,2.30287,2.7757,-0.396592,-96.7335,41.8027,46.2192,-0.0660565,-7.87296,7.2403,-0.0700859,0.00169881,0.000186213,4,0,41.39705429712926,-91.77640165765304,8801.67023939851,-60.63154279619831,1.6059425014517588,-2.9216948508532274,184.968,8857.920509312844,10895.330121764337,150,True,21.884178636234914,False,1.905831268308811,179.2887301275815,False,177.7174662791417,False,False
3,1970-07-23 09:47:04.014398421,2025-09-09,2025-09-26 18:26:41.439,AA,C,3619162870,JASSM,3,136,76,2,2,1,225,9,2,0,1,26,0,0,0,0,-113808.06511842164,-4805747.348829565,4182525.7048020368,2.36185,2.75455,-0.385317,-73.5,30.0,32.25,0.0,0.0,0.0,0.0,0.0,0.0,2,0,41.21623738307812,-91.35660548857052,10000.000596209871,-60.01690045607109,-0.0060159777905046,0.0013442217317186,,8857.920509312844,10895.330121764337,150,3,2025-09-09,2025-09-26 18:26:41.434,AA,C,1575935930,AMBUSH51,1,1,48,2,1,1,225,2,1,0,0,9,1,225,2,1,-148685.2668710513,-4791216.527734751,4197418.838398827,2.19709,2.78015,-0.394571,-97.0849,41.2767,45.8113,0.00545831,-7.51101,7.08505,-0.133269,0.0132149,0.000544076,4,0,41.39755409958581,-91.77748283191345,8805.721513713042,-60.880350261949,1.6921342935686825,-8.89177836842514,184.846,8857.920509312844,10895.330121764337,150,True,21.890435611076416,False,1.5638581891964545,179.29069534461493,False,178.0029829345252,False,False
3,1970-07-23 09:47:04.024418652,2025-09-09,2025-09-26 18:26:42.441,AA,C,3620355916,JASSM,3,136,76,2,2,1,225,9,2,0,1,26,0,0,0,0,-113881.77605592164,-4805717.304884252,4182558.001188756,2.36185,2.75455,-0.385317,-73.5,30.0,32.25,0.0,0.0,0.0,0.0,0.0,0.0,2,0,41.216623792991385,-91.3574922863445,10000.000281249891,-60.01748477160574,-0.0052450716153993,0.0013428857718524,,8857.920509312844,10895.330121764337,150,3,2025-09-09,2025-09-26 18:26:42.440,AA,C,1577128928,AMBUSH51,1,1,48,2,1,1,225,2,1,0,0,9,1,225,2,1,-148782.67564126896,-4791175.9798337575,4197464.32040685,2.03662,2.80275,-0.386762,-98.1641,39.4984,44.8814,-0.0411275,-7.80875,7.35028,-0.16204,0.0113049,-0.0232454,4,0,41.398084390092485,-91.7786616166502,8812.09263154778,-62.0404849910484,2.232500667681102,-17.632469835436083,185.335,8857.920509312844,10895.330121764337,150,False,21.906064288306823,False,0.914465904583741,179.29352112542335,False,178.3955220848742,False,False
3,1970-07-23 09:47:04.035944905,2025-09-09,2025-09-26 18:26:43.594,AA,C,3621668488,JASSM,3,136,76,2,2,1,225,9,2,0,1,26,0,0,0,0,-113962.87175904664,-4805684.250074682,4182593.532438756,2.36185,2.75455,-0.385317,-73.5,30.0,32.25,0.0,0.0,0.0,0.0,0.0,0.0,2,0,41.21704890778271,-91.3584679406908,10000.000446697151,-60.01812764040313,-0.00439693166276,0.0013414159811003,,8857.920509312844,10895.330121764337,150,3,2025-09-09,2025-09-26 18:26:43.534,AA,C,1578441226,AMBUSH51,1,1,48,2,1,1,225,2,1,0,0,9,1,225,2,1,-148891.6747572502,-4791133.888135019,4197512.558230287,1.87232,2.83339,-0.357338,-100.158,36.995,42.2623,-0.0102116,-7.80874,7.41714,-0.110273,0.0220928,-0.0438725,4,0,41.398640314758985,-91.77997946482604,8821.537998437183,-64.39210468331552,2.237368923157545,-26.499447363343734,185.005,8857.920509312844,10895.330121764337,150,False,21.923259617299678,False,1.8645334427205107,179.29665065506802,False,177.81984608970015,False,False
3,1970-07-23 09:47:04.046479948,2025-09-09,2025-09-26 18:26:44.647,AA,C,3622981016,JASSM,3,136,76,2,2,1,225,9,2,0,1,26,0,0,0,0,-114043.96550904664,-4805651.195265112,4182629.06149149,2.36185,2.75455,-0.385317,-73.5,30.0,32.25,0.0,0.0,0.0,0.0,0.0,0.0,2,0,41.21747399967587,-91.35944358439762,10000.000337535632,-60.01877050765723,-0.0035488142330834,0.0013399501252589,,8857.920509312844,10895.330121764337,150,3,2025-09-09,2025-09-26 18:26:44.633,AA,C,1579753526,AMBUSH51,1,1,48,2,1,1,225,2,1,0,0,9,1,225,2,1,-149002.99205953925,-4791094.709335524,4197557.046904547,1.78744,2.8612,-0.313743,-102.475,34.3141,38.2985,-0.123076,-7.32897,6.99837,-0.0719438,0.0212418,-0.0487182,4,0,41.39915315474521,-91.78132394793111,8830.19992993183,-67.24102438413779,1.6071685465931624,-30.933950018404968,185.09,8857.920509312844,10895.330121764337,150,False,21.940214596143456,False,4.31607003038807,179.2978815003693,False,175.67632090409782,False,False
3,1970-07-23 09:47:04.058381522,2025-09-09,2025-09-26 18:26:45.838,AA,C,3624352764,JASSM,3,136,76,2,2,1,225,9,2,0,1,26,0,0,0,0,-114128.71746217164,-4805616.64790183,4182666.1925950055,2.36185,2.75455,-0.385317,-73.5,30.0,32.25,0.0,0.0,0.0,0.0,0.0,0.0,2,0,41.21791826269136,-91.36046325406694,10000.000114339036,-60.01944239016465,-0.0026624354824855,0.0013384150782695,,8857.920509312844,10895.330121764337,150,3,2025-09-09,2025-09-26 18:26:46.003,AA,C,1581383956,AMBUSH51,1,1,48,2,1,1,225,2,1,0,0,9,1,225,2,1,-149146.0466234144,-4791049.74916664,4197605.736492474,1.6787,2.91114,-0.257876,-105.534,30.4087,32.3651,-0.088791,-8.19582,7.89282,-0.0539529,0.033715,-0.0560502,4,0,41.3997228562487,-91.78304977681329,8836.193426880402,-71.4570133398002,1.4344067637150724,-36.46872220347312,185.371,8857.920509312844,10895.330121764337,150,False,21.971502470729266,False,8.11223004842896,179.29461787265754,False,172.01801560846022,False,False
3,1970-07-23 09:47:04.069397451,2025-09-09,2025-09-26 18:26:46.939,AA,C,3625664796,JASSM,3,136,76,2,2,1,225,9,2,0,1,26,0,0,0,0,-114209.77996217164,-4805583.603346166,4182701.706511021,2.36185,2.75455,-0.385317,-73.5,30.0,32.25,0.0,0.0,0.0,0.0,0.0,0.0,2,0,41.218343178752974,-91.36143854833038,10000.0001338577,-60.020085038339374,-0.0018146420814783,0.001336945845405,,8857.920509312844,10895.330121764337,150,3,2025-09-09,2025-09-26 18:26:46.933,AA,C,1582497422,AMBUSH51,1,1,48,2,1,1,225,2,1,0,0,9,1,225,2,1,-149245.7505037326,-4791023.019030299,4197633.500072356,1.62342,2.94816,-0.209236,-107.804,27.0131,27.2327,-0.0985847,-8.27714,7.95828,-0.0462714,0.0335673,-0.0602613,4,0,41.40005084047976,-91.78425092060073,8838.317128684066,-74.90762318681007,1.077517415779596,-39.22052335660839,185.652,8857.920509312844,10895.330121764337,150,False,21.97735789883576,False,11.372530275847783,179.2880475973549,False,168.82015952992626,False,False
3,1970-07-23 09:47:04.080436896,2025-09-09,2025-09-26 18:26:48.043,AA,C,3626977022,JASSM,3,136,76,2,2,1,225,9,2,0,1,26,0,0,0,0,-114290.85613404664,-4805550.552931127,4182737.2245774274,2.36185,2.75445,-0.385317,-73.5,30.0,32.25,0.0,0.0,0.0,0.0,0.0,0.0,2,0,41.21876814743116,-91.36241401979348,10000.00005828857,-60.01710918140833,-0.0045446669889851,-0.0007286731555624,,8857.920509312844,10895.330121764337,150,3,2025-09-09,2025-09-26 18:26:47.900,AA,C,1583650654,AMBUSH51,1,1,48,2,1,1,225,2,1,0,0,9,1,225,2,1,-149350.258356234,-4790998.888557248,4197657.020787614,1.57364,2.98678,-0.157466,-109.832,23.2773,21.6252,-0.0464218,-8.48217,8.03365,-0.0416608,0.0545022,-0.05331,4,0,41.40033381151954,-91.78550850319304,8838.0040415703,-78.56840923267538,0.7067724306917361,-41.72619247863685,186.214,8857.920509312844,10895.330121764337,150,False,21.98408309584202,False,14.883585549236884,179.27667616519602,False,165.3656376171548,False,False
3,1970-07-23 09:47:04.090481069,2025-09-09,2025-09-26 18:26:49.048,AA,C,3628230572,JASSM,3,136,76,2,2,1,225,9,2,0,1,26,0,0,0,0,-114368.30535279664,-4805518.979444799,4182771.153776646,2.36185,2.75445,-0.385317,-73.5,30.0,32.25,0.0,0.0,0.0,0.0,0.0,0.0,2,0,41.21917410699457,-91.36334586565629,10000.000440207226,-60.01772321047707,-0.0037346631404477,-0.0007300249432689,,8857.920509312844,10895.330121764337,150,3,2025-09-09,2025-09-26 18:26:48.942,AA,C,1584883420,AMBUSH51,1,1,48,2,1,1,225,2,1,0,0,9,1,225,2,1,-149465.37080661647,-4790977.3163287975,4197676.148808055,1.5436,3.04357,-0.0933534,-111.568,18.0019,15.8087,-0.189688,-9.3497,8.95771,-0.0139244,0.063403,-0.0520991,4,0,41.40056992595692,-91.78689184141886,8835.272844139761,-83.45939692892401,0.6741873743923751,-43.099080656410734,186.935,8857.920509312844,10895.330121764337,150,False,21.996637224522484,False,18.91060486225787,179.25791082053135,False,161.38116900104748,False,False
3,1970-07-23 09:47:04.101369795,2025-09-09,2025-09-26 18:26:50.136,AA,C,3629542494,JASSM,3,136,76,2,2,1,225,9,2,0,1,26,0,0,0,0,-114449.36004029664,-4805485.934644994,4182806.661833287,2.36185,2.75445,-0.385317,-73.5,30.0,32.25,0.0,0.0,0.0,0.0,0.0,0.0,2,0,41.2195989614332,-91.36432110420368,10000.000285487897,-60.01836583799294,-0.0028869489922825,-0.0007314433430796,,8857.920509312844,10895.330121764337,150,3,2025-09-09,2025-09-26 18:26:50.199,AA,C,1586394552,AMBUSH51,1,1,48,2,1,1,225,2,1,0,0,9,1,225,2,1,-149607.92716065125,-4790959.174314396,4197689.756110415,1.52297,3.11776,-0.0130008,-113.135,10.3599,6.76676,-0.1952,-10.1322,9.71869,-0.0165189,0.0594416,-0.0563664,4,0,41.40074324836866,-91.7886017964589,8831.11595992881,-89.721040124057,0.8099862547763254,-44.136290223918586,187.681,8857.920509312844,10895.330121764337,150,False,22.017897028292893,False,24.915147188137873,179.22382647666223,False,155.4533206187338,False,False
3,1970-07-23 09:47:04.115546660,2025-09-09,2025-09-26 18:26:51.554,AA,C,3630854438,JASSM,3,136,76,2,2,1,225,9,2,0,1,26,0,0,0,0,-114530.41863404664,-4805452.888258276,4182842.1696457863,2.36185,2.75445,-0.385221,-73.5,30.0,32.25,0.0,0.0,0.0,0.0,0.0,0.0,2,0,41.22002381478506,-91.36529640237164,10000.000502775116,-60.02287069064012,-0.0059454246067689,-0.0007325811679271,,8857.920509312844,10895.330121764337,150,3,2025-09-09,2025-09-26 18:26:51.633,AA,C,1588104516,AMBUSH51,1,1,48,2,1,1,225,2,1,0,0,9,1,225,2,1,-149770.77330967717,-4790951.215764987,4197691.930967951,1.51204,-3.08413,0.0733003,-113.399,0.968043,-3.5368,-0.221232,-10.0321,9.55661,-0.0191571,0.0605776,-0.0570301,4,0,41.40077500830316,-91.79055037047212,8828.773827359264,-96.51067712882852,1.0227873884384564,-45.01214781136299,188.634,8857.920509312844,10895.330121764337,150,False,22.044386971344583,False,31.942792480337953,179.16692607744037,False,148.52942125746034,False,False
3,1970-07-23 09:47:04.123396695,2025-09-09,2025-09-26 18:26:52.339,AA,C,3632166788,JASSM,3,136,76,2,2,1,225,9,2,0,1,26,0,0,0,0,-114611.50066529664,-4805419.830396947,4182877.687712193,2.36185,2.75445,-0.385221,-73.5,30.0,32.25,0.0,0.0,0.0,0.0,0.0,0.0,2,0,41.22044879397793,-91.36627199571362,10000.000544232416,-60.023513562769296,-0.005097425341801,-0.0007340552148274,,8857.920509312844,10895.330121764337,150,3,2025-09-09,2025-09-26 18:26:52.233,AA,C,1588820316,AMBUSH51,1,1,48,2,1,1,225,2,1,0,0,9,1,225,2,1,-149838.68715537403,-4790951.8293905845,4197688.416347708,1.50364,-3.04941,0.111905,-112.946,-2.89167,-7.85745,-0.100247,-9.97888,9.5813,-0.023312,0.0612184,-0.0532663,4,0,41.40073499707078,-91.79136154080976,8827.880987979572,-99.48046737780658,1.027534836399259,-45.730234834610606,188.756,8857.920509312844,10895.330121764337,150,False,22.02410203141264,False,34.87792516113499,179.13491026779587,False,145.64656979365242,False,False
3,1970-07-23 09:47:04.134437095,2025-09-09,2025-09-26 18:26:53.443,AA,C,3633480198,JASSM,3,136,76,2,2,1,225,9,2,0,1,26,0,0,0,0,-114692.64714967164,-4805386.744947729,4182913.233122349,2.36185,2.75445,-0.385221,-73.5,30.0,32.25,0.0,0.0,0.0,0.0,0.0,0.0,2,0,41.22087410442617,-91.36724837758504,10000.000024011742,-60.02415695997513,-0.004248750942151,-0.0007355317649424,,8857.920509312844,10895.330121764337,150,3,2025-09-09,2025-09-26 18:26:53.534,AA,C,1590371214,AMBUSH51,1,1,48,2,1,1,225,2,1,0,0,9,1,225,2,1,-149985.11146735935,-4790961.046581226,4197672.021288611,1.51319,-2.96932,0.191776,-111.123,-11.6145,-17.277,-0.109713,-10.5241,10.025,0.0013139,0.0702336,-0.0700505,4,0,41.40054222157543,-91.7931074928916,8826.250917968116,-105.91943194771366,1.3072358632179573,-46.00961509511679,189.343,8857.920509312844,10895.330121764337,150,False,22.036087421561874,False,41.442606534348094,179.05196000838464,False,139.20598751505787,False,False
3,1970-07-23 09:47:04.148338252,2025-09-09,2025-09-26 18:26:54.833,AA,C,3634851342,JASSM,3,136,76,2,2,1,225,9,2,0,1,26,0,0,0,0,-114777.36199342164,-4805352.203932104,4182950.340300084,2.36185,2.75445,-0.385221,-73.5,30.0,32.25,0.0,0.0,0.0,0.0,0.0,0.0,2,0,41.22131810371727,-91.3682677088446,9999.99991615493,-60.02482866497655,-0.0033627591370752,-0.0007370687897165,,8857.920509312844,10895.330121764337,150,3,2025-09-09,2025-09-26 18:26:54.767,AA,C,1591842580,AMBUSH51,1,1,48,2,1,1,225,2,1,0,0,9,1,225,2,1,-150120.23709011896,-4790980.684986563,4197645.138668163,1.54076,-2.88732,0.270872,-107.645,-20.111,-26.2656,-0.157315,-10.4208,10.0666,0.00874994,0.0568158,-0.0559253,4,0,41.40021872660343,-91.79471454383923,8826.640467520194,-112.35613845904692,1.5284956447357885,-45.66812695934504,189.661,8857.920509312844,10895.330121764337,150,False,22.036643346256152,False,47.96235328557465,178.9530968115522,False,132.82026945603926,False,False
3,1970-07-23 09:47:04.158333310,2025-09-09,2025-09-26 18:26:55.833,AA,C,3636223144,JASSM,3,136,76,2,2,1,225,9,2,0,1,26,0,0,0,0,-114862.11785279664,-4805317.645338354,4182987.464323521,2.36185,2.75445,-0.385221,-73.5,30.0,32.25,0.0,0.0,0.0,0.0,0.0,0.0,2,0,41.22176230639644,-91.36928754766583,10000.00029017812,-60.0255007104137,-0.0024763395360328,-0.0007386042487431,,8857.920509312844,10895.330121764337,150,3,2025-09-09,2025-09-26 18:26:55.766,AA,C,1593035578,AMBUSH51,1,1,48,2,1,1,225,2,1,0,0,9,1,225,2,1,-150225.45291571884,-4791003.918455556,4197616.0204961,1.5701,-2.81726,0.334298,-104.05,-26.8119,-32.2845,-0.21978,-10.5645,10.1954,5.20149e-06,0.0745384,-0.0645036,4,0,41.39986430935446,-91.79596289086574,8828.72556329777,-117.636324907732,1.705792146267317,-45.33310782144992,189.575,8857.920509312844,10895.330121764337,150,False,22.022244913947407,False,52.87664603685237,178.85949109173552,False,128.01951566714993,False,False
3,1970-07-23 09:47:04.168360908,2025-09-09,2025-09-26 18:26:56.836,AA,C,3637476574,JASSM,3,136,76,2,2,1,225,9,2,0,1,26,0,0,0,0,-114939.55925904664,-4805286.067701635,4183021.384001256,2.36185,2.75445,-0.385221,-73.5,30.0,32.25,0.0,0.0,0.0,0.0,0.0,0.0,2,0,41.2221681713837,-91.37021938660833,10000.000264698136,-60.02611477159671,-0.0016664154509145,-0.0007400113752564,,8857.920509312844,10895.330121764337,150,3,2025-09-09,2025-09-26 18:26:56.700,AA,C,1594149044,AMBUSH51,1,1,48,2,1,1,225,2,1,0,0,9,1,225,2,1,-150320.7930526415,-4791031.746706773,4197582.462265263,1.59718,-2.74798,0.385727,-99.6974,-33.088,-38.5722,-0.126453,-10.605,10.1717,0.00652787,0.0549995,-0.0582078,4,0,41.39945441209623,-91.79709151475932,8831.723801406979,-122.35895194925656,2.16310857256808,-45.34066941875764,189.807,8857.920509312844,10895.330121764337,150,False,22.006205401826183,False,57.929772744770524,178.7607250594008,False,123.08533667023403,False,False
3,1970-07-23 09:47:04.179397452,2025-09-09,2025-09-26 18:26:57.939,AA,C,3638788196,JASSM,3,136,76,2,2,1,225,9,2,0,1,26,0,0,0,0,-115020.59636842164,-4805253.023023901,4183056.8774094586,2.36185,2.75436,-0.385221,-73.5,30.0,32.25,0.0,0.0,0.0,0.0,0.0,0.0,2,0,41.22259286999502,-91.3711945045995,10000.000018126811,-60.02313846033492,-0.0043968508704513,-0.0028051427078862,,8857.920509312844,10895.330121764337,150,3,2025-09-09,2025-09-26 18:26:57.899,AA,C,1595580642,AMBUSH51,1,1,48,2,1,1,225,2,1,0,0,9,1,225,2,1,-150437.14426601634,-4791075.804751605,4197530.805603748,1.62431,-2.66856,0.454587,-93.3197,-40.2426,-45.7394,-0.0498289,-10.0329,9.63177,0.000460852,0.0645952,-0.0545272,4,0,41.39882184306499,-91.7984650576239,8837.006240290611,-128.09069611031754,2.0258861221990863,-45.85418957850396,189.734,8857.920509312844,10895.330121764337,150,False,21.991266823704986,False,64.06399648504876,178.6202984487876,False,117.11470116977407,False,False
3,1970-07-23 09:47:04.190726334,2025-09-09,2025-09-26 18:26:59.072,AA,C,3640041840,JASSM,3,136,76,2,2,1,225,9,2,0,1,26,0,0,0,0,-115098.05144654664,-4805221.438062963,4183090.801237584,2.36185,2.75436,-0.385221,-73.5,30.0,32.25,0.0,0.0,0.0,0.0,0.0,0.0,2,0,41.22299878907252,-91.37212653213685,10000.00027052807,-60.02375265591682,-0.0035867845365207,-0.0028064968694972,,8857.920509312844,10895.330121764337,150,3,2025-09-09,2025-09-26 18:26:59.033,AA,C,1596932708,AMBUSH51,1,1,48,2,1,1,225,2,1,0,0,9,1,225,2,1,-150538.90046872248,-4791124.335260239,4197474.176984434,1.65521,-2.59087,0.516203,-86.3791,-46.0202,-52.664,-0.0491226,-9.98498,9.40758,-0.000462932,0.0584429,-0.0550036,4,0,41.39813181291108,-91.79966252844709,8841.384442572238,-133.37858278917508,1.8503916865051664,-46.341207578838166,189.697,8857.920509312844,10895.330121764337,150,False,21.97013991000977,False,69.91925553046515,178.47610241650221,False,111.42733483910224,False,False
3,1970-07-23 09:47:04.205523801,2025-09-09,2025-09-26 18:27:00.552,AA,C,3641353784,JASSM,3,136,76,2,2,1,225,9,2,0,1,26,0,0,0,0,-115179.11004029664,-4805188.383131322,4183126.301725865,2.36185,2.75436,-0.385221,-73.5,30.0,32.25,0.0,0.0,0.0,0.0,0.0,0.0,2,0,41.223423577144224,-91.37310193375993,10000.00026979169,-60.02439543986888,-0.0027390346121766,-0.002807907139037,,8857.920509312844,10895.330121764337,150,3,2025-09-09,2025-09-26 18:27:00.437,AA,C,1598602906,AMBUSH51,1,1,48,2,1,1,225,2,1,0,0,9,1,225,2,1,-150652.54423805844,-4791192.541736034,4197394.305144127,1.71215,-2.4861,0.587161,-76.7859,-52.3793,-60.5636,-0.179328,-9.81627,9.41094,-0.000937308,0.0576772,-0.0546104,4,0,41.39716557602015,-91.80099460054196,8844.663644226668,-139.91028382546222,1.7015271900460782,-46.43168988528599,189.697,8857.920509312844,10895.330121764337,150,False,21.9443964015364,False,77.11876132782295,178.2859129072444,False,104.44318865139935,False,False
3,1970-07-23 09:47:04.211904110,2025-09-09,2025-09-26 18:27:01.190,AA,C,3642665596,JASSM,3,136,76,2,2,1,225,9,2,0,1,26,0,0,0,0,-115260.15886842164,-4805155.330641088,4183161.797575474,2.36185,2.75436,-0.385125,-73.5,30.0,32.25,0.0,0.0,0.0,0.0,0.0,0.0,2,0,41.22384831243513,-91.3740772309322,10000.000270393626,-60.02890019926068,-0.0057977471450052,-0.0028090636863061,,8857.920509312844,10895.330121764337,150,3,2025-09-09,2025-09-26 18:27:01.034,AA,C,1599318704,AMBUSH51,1,1,48,2,1,1,225,2,1,0,0,9,1,225,2,1,-150697.28944773992,-4791224.559977157,4197356.913733067,1.74124,-2.43472,0.616217,-72.3479,-54.9363,-63.5164,-0.168387,-9.97945,9.6195,-0.000146682,0.0690809,-0.057646,4,0,41.39671429354637,-91.80151712917132,8845.764910164713,-142.85466688481122,1.7097592578366907,-46.519551695642775,189.807,8857.920509312844,10895.330121764337,150,False,21.901367638687983,False,80.17287451011249,178.19820912360518,False,101.48499815547659,False,False
3,1970-07-23 09:47:04.224745447,2025-09-09,2025-09-26 18:27:02.474,AA,C,3643977948,JASSM,3,136,76,2,2,1,225,9,2,0,1,26,0,0,0,0,-115341.24089967164,-4805122.263258276,4183197.3073410993,2.36195,2.75436,-0.385125,-73.5,30.0,32.25,0.0,0.0,0.0,0.0,0.0,0.0,2,0,41.22427321721215,-91.3750529406681,10000.000170597275,-60.02954319707852,-0.0049497465516797,0.0026809318804762,,8857.920509312844,10895.330121764337,150,3,2025-09-09,2025-09-26 18:27:02.366,AA,C,1600909370,AMBUSH51,1,1,48,2,1,1,225,2,1,0,0,9,1,225,2,1,-150787.01480440062,-4791301.157446239,4197268.163487656,1.81914,-2.31018,0.676726,-62.0805,-60.4718,-68.8768,-0.0804909,-10.1414,9.71476,0.00432868,0.0654378,-0.0603986,4,0,41.39564265625005,-91.80256024872725,8848.589739509662,-149.52332657125066,1.731205567240066,-46.56038491530353,190.039,8857.920509312844,10895.330121764337,150,False,21.86156108420814,False,86.81222732053202,178.0024364752527,False,95.05352317214786,False,False
3,1970-07-23 09:47:04.276396076,2025-09-09,2025-09-26 18:27:07.639,AA,C,3650361536,JASSM,3,136,76,2,2,1,225,9,2,0,1,26,0,0,0,0,-115735.64324342164,-4804961.40168601,4183370.0214524274,2.36195,2.75426,-0.385125,-73.5,30.0,32.25,0.0,0.0,0.0,0.0,0.0,0.0,2,0,41.226339925846574,-91.37979920974902,10000.000786089076,-60.029051923129536,-0.0044028450574629,0.0006105872722462,,8857.920509312844,10895.330121764337,150,3,2025-09-09,2025-09-26 18:27:07.499,AA,C,1607033430,AMBUSH51,1,1,48,2,1,1,225,2,1,0,0,9,1,225,2,1,-150983.20116321906,-4791650.051387325,4196873.147325969,2.24083,-1.72343,0.812189,-13.6203,-73.7532,-81.2622,-0.241939,-9.99488,9.64674,0.00104134,0.0580413,-0.0683194,4,0,41.39086352864961,-91.80477264485708,8865.141792998598,-175.2291446513499,1.857302803231947,-46.40598954597655,190.321,8857.920509312844,10895.330121764337,150,False,21.56913096742411,False,113.85548650456657,177.22128088788668,False,68.82183220361807,False,False
3,1970-07-23 09:47:04.276937719,2025-09-09,2025-09-26 18:27:07.693,AA,C,3646542998,JASSM,3,136,76,2,2,1,225,9,2,0,1,26,0,0,0,0,-115499.71941529664,-4805057.628980932,4183266.709684849,2.36195,2.75436,-0.385125,-73.5,30.0,32.25,0.0,0.0,0.0,0.0,0.0,0.0,2,0,41.22510368318278,-91.3769600469066,10000.000154317464,-60.03080000583946,-0.0032922934291287,0.0026780513218721,,8857.920509312844,10895.330121764337,150,3,2025-09-09,2025-09-26 18:27:07.807,AA,C,1607391330,AMBUSH51,1,1,48,2,1,1,225,2,1,0,0,9,1,225,2,1,-150986.86716168845,-4791672.595011051,4196848.072952703,2.27039,-1.68407,0.815239,-10.7689,-74.1669,-81.3329,-0.247258,-10.0966,9.5859,-0.00418928,0.0673312,-0.0636173,4,0,41.39055944945928,-91.80480795167028,8866.493289553966,-176.7876806407746,1.801152989323875,-46.40129083375364,190.284,8857.920509312844,10895.330121764337,150,False,21.710388020648505,False,115.3435083475275,177.19677188737478,False,67.35887789541782,False,False
3,1970-07-23 09:47:04.281533588,2025-09-09,2025-09-26 18:27:08.153,AA,C,3645230748,JASSM,3,136,76,2,2,1,225,9,2,0,1,26,0,0,0,0,-115418.64324342164,-4805090.695631322,4183231.2048020368,2.36195,2.75436,-0.385125,-73.5,30.0,32.25,0.0,0.0,0.0,0.0,0.0,0.0,2,0,41.22467883118716,-91.3759843825181,10000.000383670931,-60.03015702722599,-0.0041402300027981,0.002679522418778,,8857.920509312844,10895.330121764337,150,3,2025-09-09,2025-09-26 18:27:08.066,AA,C,1607709462,AMBUSH51,1,1,48,2,1,1,225,2,1,0,0,9,1,225,2,1,-150989.24346716268,-4791691.740804149,4196826.749436135,2.29532,-1.65061,0.816039,-8.18244,-74.3628,-81.4795,-0.267093,-10.2427,9.75817,0.00483426,0.0645765,-0.0475218,4,0,41.39030114814041,-91.80482913116204,8867.522768207617,-178.10300312482192,1.819741737624892,-46.41077909050821,190.247,8857.920509312844,10895.330121764337,150,False,21.75507917318071,False,116.6892191576163,177.16702335376485,False,66.04426063097934,False,False
3,1970-07-23 09:47:04.281962786,2025-09-09,2025-09-26 18:27:08.196,AA,C,3647855336,JASSM,3,136,76,2,2,1,225,9,2,0,1,26,0,0,0,0,-115580.79949342164,-4805024.558912572,4183302.216276646,2.36195,2.75436,-0.385125,-73.5,30.0,32.25,0.0,0.0,0.0,0.0,0.0,0.0,2,0,41.22552855815823,-91.3779357714563,10000.000007747209,-60.03144302956328,-0.0024443103245382,0.0026765710230177,,8857.920509312844,10895.330121764337,150,3,2025-09-09,2025-09-26 18:27:08.066,AA,C,1607709462,AMBUSH51,1,1,48,2,1,1,225,2,1,0,0,9,1,225,2,1,-150989.24346716268,-4791691.740804149,4196826.749436135,2.29532,-1.65061,0.816039,-8.18244,-74.3628,-81.4795,-0.267093,-10.2427,9.75817,0.00483426,0.0645765,-0.0475218,4,0,41.39030114814041,-91.80482913116204,8867.522768207617,-178.10300312482192,1.819741737624892,-46.41077909050821,190.247,8857.920509312844,10895.330121764337,150,False,21.653230561813285,False,116.6892191576163,177.15388649035629,False,66.05695534658399,False,False
3,1970-07-23 09:47:04.281995837,2025-09-09,2025-09-26 18:27:08.199,AA,C,3649108048,JASSM,3,136,76,2,2,1,225,9,2,0,1,26,0,0,0,0,-115658.19793092164,-4804992.990553197,4183336.108854771,2.36195,2.75426,-0.385125,-73.5,30.0,32.25,0.0,0.0,0.0,0.0,0.0,0.0,2,0,41.22593412057393,-91.37886720259068,10000.000565657723,-60.02843770011827,-0.0052128101037988,0.0006119433203743,,8857.920509312844,10895.330121764337,150,3,2025-09-09,2025-09-26 18:27:08.066,AA,C,1607709462,AMBUSH51,1,1,48,2,1,1,225,2,1,0,0,9,1,225,2,1,-150989.24346716268,-4791691.740804149,4196826.749436135,2.29532,-1.65061,0.816039,-8.18244,-74.3628,-81.4795,-0.267093,-10.2427,9.75817,0.00483426,0.0645765,-0.0475218,4,0,41.39030114814041,-91.80482913116204,8867.522768207617,-178.10300312482192,1.819741737624892,-46.41077909050821,190.247,8857.920509312844,10895.330121764337,150,False,21.604618354858516,False,116.6892191576163,177.14757415052233,False,66.0630558305938,False,False
3,1970-07-23 09:47:04.299613935,2025-09-09,2025-09-26 18:27:09.961,AA,C,3651673092,JASSM,3,136,76,2,2,1,225,9,2,0,1,26,0,0,0,0,-115816.67449342164,-4804928.348219213,4183405.504118443,2.36195,2.75426,-0.385125,-73.5,30.0,32.25,0.0,0.0,0.0,0.0,0.0,0.0,2,0,41.22676452325821,-91.38077438437648,10000.00030716987,-60.02969460024097,-0.0035553708801332,0.0006091597486877,,8857.920509312844,10895.330121764337,150,3,2025-09-09,2025-09-26 18:27:09.899,AA,C,1609896626,AMBUSH51,1,1,48,2,1,1,225,2,1,0,0,9,1,225,2,1,-150986.8209290519,-4791827.746832553,4196676.862340933,2.48138,-1.41574,0.804382,10.3811,-74.7083,-81.0686,-0.0753174,-10.093,9.6137,0.00511306,0.0790054,-0.0531602,4,0,41.388480598658845,-91.80474900122827,8876.798124288338,172.60443752570646,2.006096403589848,-45.83115049361927,190.198,8857.920509312844,10895.330121764337,150,False,21.45223875266538,False,126.31192219544646,176.88711640418725,False,56.705626315704855,False,False
3,1970-07-23 09:47:04.336633109,2025-09-09,2025-09-26 18:27:13.663,AA,C,3654238332,JASSM,3,136,76,2,2,1,225,9,2,0,1,26,0,0,0,0,-115975.16472779664,-4804863.696852026,4183474.90133524,2.36195,2.75426,-0.385029,-73.5,30.0,32.25,0.0,0.0,0.0,0.0,0.0,0.0,2,0,41.22759495906211,-91.38268177995278,10000.000330935707,-60.03481355941922,-0.0058042954660884,0.0006066419175943,,8857.920509312844,10895.330121764337,150,3,2025-09-09,2025-09-26 18:27:13.565,AA,C,1614270956,AMBUSH51,1,1,48,2,1,1,225,2,1,0,0,9,1,225,2,1,-150882.09139864802,-4792092.813024223,4196388.665317506,2.78666,-0.996499,0.7104,45.5285,-69.9085,-73.7545,-0.140101,-10.3688,9.88745,0.021273,0.0659871,-0.0586343,4,0,41.38497769818957,-91.80339830225644,8895.69376938529,154.40874829028795,2.088576821118457,-45.64459562458972,190.162,8857.920509312844,10895.330121764337,150,False,21.20394112135579,False,145.06417258181185,176.4509775278816,False,38.38742566307566,False,False
3,1970-07-23 09:47:04.337537472,2025-09-09,2025-09-26 18:27:13.753,AA,C,3656863250,JASSM,3,136,76,2,2,1,225,9,2,0,1,26,0,0,0,0,-116137.34246217164,-4804797.537428197,4183545.90914774,2.36195,2.75426,-0.385029,-73.5,30.0,32.25,0.0,0.0,0.0,0.0,0.0,0.0,2,0,41.22844467886565,-91.3846336048629,10000.00029193199,-60.036099923699126,-0.0041081522549137,0.0006036899733437,,8857.920509312844,10895.330121764337,150,3,2025-09-09,2025-09-26 18:27:13.767,AA,C,1614509556,AMBUSH51,1,1,48,2,1,1,225,2,1,0,0,9,1,225,2,1,-150872.2601456457,-4792107.314837208,4196373.169643506,2.80943,-0.976229,0.701874,47.4466,-69.434,-73.0562,-0.23417,-10.2548,9.86669,0.0400733,0.0655065,-0.0576377,4,0,41.38478865583096,-91.80327541962468,8897.00145532147,153.4000520644747,2.1456744066696145,-45.13087039218342,190.125,8857.920509312844,10895.330121764337,150,False,21.092143416124415,False,146.13906982274065,176.41360078129364,False,37.348324305129225,False,False
3,1970-07-23 09:47:04.338314417,2025-09-09,2025-09-26 18:27:13.831,AA,C,3655610150,JASSM,3,136,76,2,2,1,225,9,2,0,1,26,0,0,0,0,-116059.92058717164,-4804829.121656713,4183512.0114426618,2.36195,2.75426,-0.385029,-73.5,30.0,32.25,0.0,0.0,0.0,0.0,0.0,0.0,2,0,41.228039037825496,-91.3837018185856,10000.00051513164,-60.03548582050804,-0.0049178716340981,0.0006050976175094,,8857.920509312844,10895.330121764337,150,3,2025-09-09,2025-09-26 18:27:13.799,AA,C,1614549322,AMBUSH51,1,1,48,2,1,1,225,2,1,0,0,9,1,225,2,1,-150871.13890012208,-4792108.91995213,4196371.458277416,2.81152,-0.973931,0.700898,47.8139,-69.1683,-73.0864,-0.203026,-10.1511,9.79844,0.0336838,0.0677931,-0.0560023,4,0,41.38476776344684,-91.80326142337034,8897.151789859327,153.2850551723336,2.1515442266000537,-45.10075563795756,189.966,8857.920509312844,10895.330121764337,150,False,21.139609750053545,False,146.34619793659246,176.41951856432246,False,37.138288920892855,False,False
3,1970-07-23 09:47:04.341233608,2025-09-09,2025-09-26 18:27:14.123,AA,C,3652985442,JASSM,3,136,76,2,2,1,225,9,2,0,1,26,0,0,0,0,-115897.75652467164,-4804895.273756322,4183441.007292271,2.36195,2.75426,-0.385125,-73.5,30.0,32.25,0.0,0.0,0.0,0.0,0.0,0.0,2,0,41.22718936843213,-91.38175018284294,9999.999981579733,-60.03033769394786,-0.0027073706219792,0.0006077400861234,,8857.920509312844,10895.330121764337,150,3,2025-09-09,2025-09-26 18:27:14.099,AA,C,1614907222,AMBUSH51,1,1,48,2,1,1,225,2,1,0,0,9,1,225,2,1,-150856.3445690002,-4792129.447447795,4196349.609424056,2.82773,-0.945029,0.690097,50.5006,-68.4274,-72.0723,-0.233921,-10.0918,9.64051,-0.0222863,0.0599242,-0.0518911,4,0,41.38450091295054,-91.80307699482393,8899.120725184524,151.87041620861746,2.132336748321348,-45.285710379913965,189.844,8857.920509312844,10895.330121764337,150,False,21.226808623015145,False,147.8676110238258,176.4083813598455,False,35.62714234463766,False,False
