Subject_cm,Timestamp,SampleDate_cm,SampleTime_cm,Configuration_cm,Scenario_cm,DisTime_cm,MarkingTxt_cm,Application_cm,EntId_cm,Site_cm,ExerciseId_cm,ForceId_cm,Category_cm,Country_cm,Domain_cm,Kind_cm,Extra_cm,Specific_cm,Subcategory_cm,AltCategory_cm,AltCountry_cm,AltDomain_cm,AltKind_cm,ECEF_X_cm,ECEF_Y_cm,ECEF_Z_cm,OriPhi_cm,OriPsi_cm,OriTheta_cm,LinVelX_cm,LinVelY_cm,LinVelZ_cm,LinAccX_cm,LinAccY_cm,LinAccZ_cm,AngVelX_cm,AngVelY_cm,AngVelZ_cm,DrAlg_cm,Appearance_cm,Latitude_cm,Longitude_cm,Altitude_cm,Heading_cm,Pitch_cm,Roll_cm,CalibratedAirspeed_cm,CM_Altitude_Lead_cm,CM_Altitude_Wing_cm,CM_Airspeed_cm,Subject_ac,SampleDate_ac,SampleTime_ac,Configuration_ac,Scenario_ac,DisTime_ac,MarkingTxt_ac,Application_ac,EntId_ac,Site_ac,ExerciseId_ac,ForceId_ac,Category_ac,Country_ac,Domain_ac,Kind_ac,Extra_ac,Specific_ac,Subcategory_ac,AltCategory_ac,AltCountry_ac,AltDomain_ac,AltKind_ac,ECEF_X_ac,ECEF_Y_ac,ECEF_Z_ac,OriPhi_ac,OriPsi_ac,OriTheta_ac,LinVelX_ac,LinVelY_ac,LinVelZ_ac,LinAccX_ac,LinAccY_ac,LinAccZ_ac,AngVelX_ac,AngVelY_ac,AngVelZ_ac,DrAlg_ac,Appearance_ac,Latitude_ac,Longitude_ac,Altitude_ac,Heading_ac,Pitch_ac,Roll_ac,CalibratedAirspeed_ac,CM_Altitude_Lead_ac,CM_Altitude_Wing_ac,CM_Airspeed_ac,Bank_Angle_Condition,distance_nm,Distance_Condition,angle_between_vel,angle_between_pos,Cone_Condition,angle_between_pos_nose,Nose_Cone_Condition,Intercept_Criteria
3,1970-07-23 09:47:03.690383916,2025-09-09,2025-09-26 18:26:09.038,AA,C,3580448222,JASSM,3,135,76,2,2,1,225,9,2,0,1,26,0,0,0,0,-103823.58855592164,-4798529.143629369,4191007.210417271,2.29972,3.00238,-0.132498,-81.75,11.5,11.0,0.0,0.0,0.0,0.0,0.0,0.0,2,0,41.31779179830169,-91.2394892795558,10000.00062815534,-79.8635778511582,-0.0061216672423913,-0.0012664799303237,,8857.920509312844,10895.330121764337,150,3,2025-09-09,2025-09-26 18:26:08.928,AA,C,863397458,HAWK11,1,1,73,2,1,1,225,2,1,0,0,12,1,225,2,1,-144969.46911795562,-4790408.025361861,4199428.085417271,2.36319,2.78619,-0.433829,-82.125,35.75,40.5,0.03125,-6.90625,6.54688,0.0175781,-0.00195312,0.0136719,4,0,41.41660455736943,-91.73338146904932,10897.045397411435,-59.47503156671223,3.480104893536213,0.793848026326871,159.012,8857.920509312844,10895.330121764337,150,True,23.032663888082165,False,22.377387128310612,175.11513750711615,False,162.50728536931368,False,False
3,1970-07-23 09:47:03.701103166,2025-09-09,2025-09-26 18:26:10.110,AA,C,3581701614,JASSM,3,135,76,2,2,1,225,9,2,0,1,26,0,0,0,0,-103909.68230592164,-4798517.084059057,4191018.807096959,2.29972,3.00238,-0.132498,-81.75,11.5,11.0,0.0,0.0,0.0,0.0,0.0,0.0,2,0,41.31793075550684,-91.24051989826276,10000.002358964011,-79.86425830250276,-0.0053352388632864,-0.0012670450354097,,8857.920509312844,10895.330121764337,150,3,2025-09-09,2025-09-26 18:26:10.132,AA,C,864908590,HAWK11,1,1,73,2,1,1,225,2,1,0,0,12,1,225,2,1,-145073.81091483062,-4790362.262666549,4199479.395964146,2.39311,2.78015,-0.441499,-81.5,36.0,40.5,-0.203125,-7.1875,6.78125,0.0175781,-0.00195312,0.00195312,4,0,41.4172043558637,-91.73464486959809,10903.636311979371,-58.9419627705968,3.567197689190454,2.39382889161713,158.242,8857.920509312844,10895.330121764337,150,True,23.0498844604,False,22.654798602512685,175.0547418053629,False,162.28991974944344,False,False
3,1970-07-23 09:47:03.712324912,2025-09-09,2025-09-26 18:26:11.232,AA,C,3583013498,JASSM,3,135,76,2,2,1,225,9,2,0,1,26,0,0,0,0,-103999.79363404664,-4798504.460035619,4191030.942839146,2.29972,3.00238,-0.132498,-81.75,11.5,11.0,0.0,0.0,0.0,0.0,0.0,0.0,2,0,41.31807618314864,-91.24159861607671,9999.99968867144,-79.864970512618,-0.0045121121074919,-0.0012676323444805,,8857.920509312844,10895.330121764337,150,3,2025-09-09,2025-09-26 18:26:11.320,AA,C,866260656,HAWK11,1,1,73,2,1,1,225,2,1,0,0,12,1,225,2,1,-145165.30896170562,-4790321.634736861,4199524.821745396,2.39857,2.77583,-0.447827,-80.75,36.0,40.625,-0.21875,-7.17188,6.71875,-0.00390625,0.00195312,0.00585938,4,0,41.41773618684781,-91.7357529532443,10909.13300458284,-58.52730402431414,3.6650199735441698,2.626780678741405,157.949,8857.920509312844,10895.330121764337,150,True,23.057116525025442,False,22.946897395394974,174.99927908737644,False,162.0534228664213,False,False
3,1970-07-23 09:47:03.725903792,2025-09-09,2025-09-26 18:26:12.590,AA,C,3584325624,JASSM,3,135,76,2,2,1,225,9,2,0,1,26,0,0,0,0,-104089.92058717164,-4798491.833082494,4191043.0805344586,2.29972,3.00238,-0.132498,-81.75,11.5,11.0,0.0,0.0,0.0,0.0,0.0,0.0,2,0,41.31822162927018,-91.24267752592525,9999.999193502978,-79.86568285158677,-0.0036888419088529,-0.0012682230169935,,8857.920509312844,10895.330121764337,150,3,2025-09-09,2025-09-26 18:26:12.522,AA,C,867732020,HAWK11,1,1,73,2,1,1,225,2,1,0,0,12,1,225,2,1,-145265.54724295562,-4790276.758760299,4199575.206511021,2.38438,2.77238,-0.456551,-80.125,36.125,40.875,0.0,-7.28125,6.9375,0.00390625,-0.00585938,0.00195312,4,0,41.4183251746727,-91.73696703828897,10915.6042115051,-58.04714247680248,3.892361663917336,1.759067846477153,157.228,8857.920509312844,10895.330121764337,150,True,23.06986583038759,False,23.28691994676877,174.93867663679038,False,161.7740977509342,False,False
3,1970-07-23 09:47:03.733923175,2025-09-09,2025-09-26 18:26:13.392,AA,C,3585579174,JASSM,3,135,76,2,2,1,225,9,2,0,1,26,0,0,0,0,-104176.02605592164,-4798479.769605932,4191054.675261021,2.29972,3.00238,-0.132498,-81.75,11.5,11.0,0.0,0.0,0.0,0.0,0.0,0.0,2,0,41.31836056641081,-91.24370829904532,9999.999915085498,-79.86636341071265,-0.0029023079431631,-0.0012687777568014,,8857.920509312844,10895.330121764337,150,3,2025-09-09,2025-09-26 18:26:13.320,AA,C,868686420,HAWK11,1,1,73,2,1,1,225,2,1,0,0,12,1,225,2,1,-145329.77966483062,-4790247.982393111,4199607.706511021,2.38314,2.7696,-0.45866,-79.75,36.125,41.0,0.015625,-7.03125,6.6875,0.0,0.0078125,0.00585938,4,0,41.41870414964956,-91.7377450391059,10920.169359526704,-57.86074915171291,3.877078679393719,1.6299203601074888,156.947,8857.920509312844,10895.330121764337,150,True,23.06257787542345,False,23.459762555500784,174.89620103802358,False,161.64383844311342,False,False
3,1970-07-23 09:47:03.744738091,2025-09-09,2025-09-26 18:26:14.473,AA,C,3586951318,JASSM,3,135,76,2,2,1,225,9,2,0,1,26,0,0,0,0,-104270.27605592164,-4798466.563551244,4191067.366667271,2.29972,3.00238,-0.132498,-81.75,11.5,11.0,0.0,0.0,0.0,0.0,0.0,0.0,2,0,41.31851264348601,-91.24483657619216,10000.00140174587,-79.86710834819763,-0.0020413756103876,-0.0012693934932684,,8857.920509312844,10895.330121764337,150,3,2025-09-09,2025-09-26 18:26:14.428,AA,C,869760118,HAWK11,1,1,73,2,1,1,225,2,1,0,0,12,1,225,2,1,-145401.48474295562,-4790215.398408736,4199644.583464146,2.42254,2.76768,-0.462975,-79.375,35.875,41.5,-0.09375,-7.03125,7.125,0.0917969,-0.00195312,0.00585938,4,0,41.41913396563544,-91.73861372787842,10925.432000673409,-57.61625153029199,3.9827722331812847,3.855541487171633,156.702,8857.920509312844,10895.330121764337,150,True,23.055593797398824,False,23.702609126429603,174.84801523797734,False,161.44928761270666,False,False
3,1970-07-23 09:47:03.755403582,2025-09-09,2025-09-26 18:26:15.540,AA,C,3588262678,JASSM,3,135,76,2,2,1,225,9,2,0,1,26,0,0,0,0,-104360.35222779664,-4798453.940504369,4191079.494596959,2.29972,3.00238,-0.132498,-81.75,11.5,11.0,0.0,0.0,0.0,0.0,0.0,0.0,2,0,41.31865797659264,-91.24591489335542,9999.999644427506,-79.86782030204616,-0.001218568851326,-0.0012699828942798,,8857.920509312844,10895.330121764337,150,3,2025-09-09,2025-09-26 18:26:15.522,AA,C,871231484,HAWK11,1,1,73,2,1,1,225,2,1,0,0,12,1,225,2,1,-145498.90075858062,-4790170.409150924,4199695.395964146,2.50672,2.75455,-0.476109,-78.75,37.0,42.375,-0.109375,-6.54688,7.40625,0.03125,0.0,0.0253906,4,0,41.41972699302794,-91.73979417776351,10932.359940202958,-56.607952420480686,4.04283664371928,8.408612606098414,156.947,8857.920509312844,10895.330121764337,150,True,23.06703490412496,False,24.586204588667105,174.78592786826542,False,160.6278333063908,False,False
3,1970-07-23 09:47:03.766457305,2025-09-09,2025-09-26 18:26:16.645,AA,C,3589516294,JASSM,3,135,76,2,2,1,225,9,2,0,1,26,0,0,0,0,-104446.46160279664,-4798441.873121557,4191091.087370396,2.29972,3.00238,-0.132402,-81.75,11.5,11.0,0.0,0.0,0.0,0.0,0.0,0.0,2,0,41.31879689423095,-91.24694572785836,9999.999129266773,-79.87259812618616,-0.0040909354171959,-0.0012703788627428,,8857.920509312844,10895.330121764337,150,3,2025-09-09,2025-09-26 18:26:16.632,AA,C,872424482,HAWK11,1,1,73,2,1,1,225,2,1,0,0,12,1,225,2,1,-145578.51013358062,-4790132.446260299,4199738.300261021,2.51851,2.73154,-0.49538,-78.5,38.125,43.375,-0.25,-6.71875,7.73438,-0.078125,0.0,0.0234375,4,0,41.42022804766145,-91.74075930378235,10938.077750810791,-54.99921674965904,4.013093301333902,8.581766170771877,158.046,8857.920509312844,10895.330121764337,150,True,23.069854711605508,False,25.381129921510393,174.73132292955998,False,159.887283071249,False,False
3,1970-07-23 09:47:03.777461540,2025-09-09,2025-09-26 18:26:17.746,AA,C,3590887380,JASSM,3,135,76,2,2,1,225,9,2,0,1,26,0,0,0,0,-104540.63933717164,-4798428.673902807,4191103.7660813336,2.29972,3.00238,-0.132402,-81.75,11.5,11.0,0.0,0.0,0.0,0.0,0.0,0.0,2,0,41.318948822492345,-91.24807315579494,9999.999658705952,-79.87334250941629,-0.0032306627661758,-0.0012710549250247,,8857.920509312844,10895.330121764337,150,3,2025-09-09,2025-09-26 18:26:17.634,AA,C,873856080,HAWK11,1,1,73,2,1,1,225,2,1,0,0,12,1,225,2,1,-145672.81482108062,-4790085.864229049,4199791.122526646,2.40212,2.72167,-0.502379,-78.375,38.875,44.75,-0.0625,-6.53125,7.5,-0.0429688,0.00195312,0.00390625,4,0,41.42084465637611,-91.74190318921588,10945.231800912195,-54.36265086077584,3.955596778265242,1.686641607757622,158.437,8857.920509312844,10895.330121764337,150,True,23.077890496800027,False,26.149640026742343,174.66435479364117,False,159.18599163403772,False,False
3,1970-07-23 09:47:03.788721176,2025-09-09,2025-09-26 18:26:18.872,AA,C,3592140898,JASSM,3,135,76,2,2,1,225,9,2,0,1,26,0,0,0,0,-104626.74089967164,-4798416.605543432,4191115.356901646,2.29972,3.00229,-0.132402,-81.75,11.5,11.0,0.0,0.0,0.0,0.0,0.0,0.0,2,0,41.319087714406976,-91.24910390647524,10000.00035942538,-79.87039725197924,-0.0065042348708272,-0.0019969158095256,,8857.920509312844,10895.330121764337,150,3,2025-09-09,2025-09-26 18:26:18.820,AA,C,875168380,HAWK11,1,1,73,2,1,1,225,2,1,0,0,12,1,225,2,1,-145759.05114920562,-4790043.077119674,4199839.837370396,2.35859,2.73298,-0.494229,-78.75,38.875,45.375,-0.125,-6.59375,7.51562,-0.0136719,0.00195312,-0.00195312,4,0,41.421412412707824,-91.74294929557294,10952.205612544129,-55.09884669968051,4.018583836801878,-0.5486145485021011,159.77,8857.920509312844,10895.330121764337,150,True,23.0853419993844,False,26.247041419367683,174.60259388397202,False,159.15018509545612,False,False
3,1970-07-23 09:47:03.799484507,2025-09-09,2025-09-26 18:26:19.948,AA,C,3593453138,JASSM,3,135,76,2,2,1,225,9,2,0,1,26,0,0,0,0,-104716.87761842164,-4798403.970777807,4191127.489714146,2.29972,3.00229,-0.132402,-81.75,11.5,11.0,0.0,0.0,0.0,0.0,0.0,0.0,2,0,41.31923310229478,-91.2501829682669,10000.00067461147,-79.8711097055534,-0.005680875015903,-0.0019975092745976,,8857.920509312844,10895.330121764337,150,3,2025-09-09,2025-09-26 18:26:20.022,AA,C,876560210,HAWK11,1,1,73,2,1,1,225,2,1,0,0,12,1,225,2,1,-145851.98083670562,-4789996.598604049,4199892.821745396,2.35744,2.73029,-0.497297,-79.25,39.125,45.75,-0.078125,-6.60938,7.48438,0.00585938,-0.00195312,0.00976562,4,0,41.422029725762215,-91.74407675142274,10959.876774568633,-54.87946525508293,4.051007461386392,-0.6722220280837425,160.527,8857.920509312844,10895.330121764337,150,True,23.094942267407145,False,26.27957805938408,174.53564142420242,False,159.1845281606908,False,False
3,1970-07-23 09:47:03.810343864,2025-09-09,2025-09-26 18:26:21.034,AA,C,3594764782,JASSM,3,135,76,2,2,1,225,9,2,0,1,26,0,0,0,0,-104806.96941529664,-4798391.340894994,4191139.6156907086,2.29972,3.00229,-0.132402,-81.75,11.5,11.0,0.0,0.0,0.0,0.0,0.0,0.0,2,0,41.31937841067886,-91.25126149744192,10000.000122475887,-79.87182180952904,-0.004857924712219,-0.0019981053743188,,8857.920509312844,10895.330121764337,150,3,2025-09-09,2025-09-26 18:26:21.131,AA,C,877912276,HAWK11,1,1,73,2,1,1,225,2,1,0,0,12,1,225,2,1,-145941.57263358062,-4789951.947236861,4199943.921354771,2.33932,2.73231,-0.497297,-79.75,39.25,46.125,0.0625,-6.51562,7.46875,-0.0664062,0.00976562,-0.00390625,4,0,41.42262404019142,-91.74516367281365,10967.706665106794,-54.95294835988717,4.122795323572969,-1.6606146568563338,161.224,8857.920509312844,10895.330121764337,150,True,23.10246814192852,False,26.277203992282534,174.47083441505316,False,159.25146013114,False,False
3,1970-07-23 09:47:03.822722051,2025-09-09,2025-09-26 18:26:22.272,AA,C,3596077132,JASSM,3,135,76,2,2,1,225,9,2,0,1,26,0,0,0,0,-104897.11394654664,-4798378.703199682,4191151.747526646,2.29972,3.00229,-0.132402,-81.75,11.5,11.0,0.0,0.0,0.0,0.0,0.0,0.0,2,0,41.319523788122034,-91.2523406628282,10000.000181994368,-79.87253433563116,-0.004034493675915,-0.0019986959836639,,8857.920509312844,10895.330121764337,150,3,2025-09-09,2025-09-26 18:26:22.132,AA,C,879184808,HAWK11,1,1,73,2,1,1,225,2,1,0,0,12,1,225,2,1,-146027.40075858062,-4789909.396455611,4199992.468229771,2.29733,2.73921,-0.496818,-80.375,39.125,46.0,-0.1875,-6.625,7.59375,0.00390625,0.00585938,-0.0117188,4,0,41.42318929964722,-91.74620486951856,10974.885075796448,-55.22200970140778,4.347328412021231,-3.897857107060984,162.446,8857.920509312844,10895.330121764337,150,True,23.107540534723196,False,25.982453209641353,174.4088639158057,False,159.6080905247185,False,False
3,1970-07-23 09:47:03.831400501,2025-09-09,2025-09-26 18:26:23.140,AA,C,3597329832,JASSM,3,135,76,2,2,1,225,9,2,0,1,26,0,0,0,0,-104983.16082154664,-4798366.638746557,4191163.327604771,2.29972,3.00229,-0.132402,-81.75,11.5,11.0,0.0,0.0,0.0,0.0,0.0,0.0,2,0,41.319662553100855,-91.25337077790996,10000.000642843224,-79.87321447787046,-0.0032484917913896,-0.0019992649136981,,8857.920509312844,10895.330121764337,150,3,2025-09-09,2025-09-26 18:26:23.226,AA,C,880457340,HAWK11,1,1,73,2,1,1,225,2,1,0,0,12,1,225,2,1,-146113.04333670562,-4789867.509736861,4200040.632292271,2.29043,2.74669,-0.485217,-81.125,39.0,45.875,0.0,-6.625,7.46875,-0.00195312,0.0,-0.0078125,4,0,41.42374804766137,-91.74724362405786,10982.857429323423,-55.96027299558303,4.139671909746977,-4.145926350190799,162.959,8857.920509312844,10895.330121764337,150,True,23.114665379028153,False,25.647770239306706,174.34831352509175,False,160.0032214233353,False,False
3,1970-07-23 09:47:03.842422171,2025-09-09,2025-09-26 18:26:24.242,AA,C,3598642182,JASSM,3,135,76,2,2,1,225,9,2,0,1,26,0,0,0,0,-105073.30339967164,-4798353.999098119,4191175.457487584,2.29972,3.00229,-0.132402,-81.75,11.5,11.0,0.0,0.0,0.0,0.0,0.0,0.0,2,0,41.319807909417,-91.2544499298693,10000.00001771126,-79.87392699914312,-0.0024250778896742,-0.0019998571341917,,8857.920509312844,10895.330121764337,150,3,2025-09-09,2025-09-26 18:26:24.319,AA,C,881729872,HAWK11,1,1,73,2,1,1,225,2,1,0,0,12,1,225,2,1,-146200.02380545562,-4789825.683564986,4200089.560026646,2.29445,2.74966,-0.48282,-81.625,37.125,47.75,-0.03125,-6.59375,7.46875,0.0136719,-0.00585938,0.00195312,4,0,41.42431133562509,-91.74829836244948,10992.742642569374,-56.16524736123712,4.14889096450291,-3.850761673174474,163.704,8857.920509312844,10895.330121764337,150,True,23.120346324313527,False,25.68487511815925,174.28704056969954,False,160.0083015815279,False,False
3,1970-07-23 09:47:03.853463463,2025-09-09,2025-09-26 18:26:25.346,AA,C,3599954518,JASSM,3,135,76,2,2,1,225,9,2,0,1,26,0,0,0,0,-105163.44597779664,-4798341.358473119,4191187.5863938336,2.29972,3.00229,-0.132402,-81.75,11.5,11.0,0.0,0.0,0.0,0.0,0.0,0.0,2,0,41.319953254812894,-91.25552908687928,9999.999201169278,-79.87463952581514,-0.0016016639605614,-0.0020004484953109,,8857.920509312844,10895.330121764337,150,3,2025-09-09,2025-09-26 18:26:25.226,AA,C,882724038,HAWK11,1,1,73,2,1,1,225,2,1,0,0,12,1,225,2,1,-146268.36560233062,-4789793.187471236,4200126.491667271,2.33376,2.75608,-0.478314,-82.375,38.5,45.625,0.15625,-6.57812,7.45312,0.138672,0.00585938,0.0,4,0,41.42474152579611,-91.74912696350624,10998.135822032544,-56.58042149386242,4.196097587222106,-1.4586052504056328,164.572,8857.920509312844,10895.330121764337,150,True,23.114074338012013,False,25.002286272981582,174.23807746030582,False,160.75812671671667,False,False
3,1970-07-23 09:47:03.864321193,2025-09-09,2025-09-26 18:26:26.432,AA,C,3601207232,JASSM,3,135,76,2,2,1,225,9,2,0,1,26,0,0,0,0,-105249.49285279664,-4798329.291090307,4191199.163542271,2.29972,3.00229,-0.132402,-81.75,11.5,11.0,0.0,0.0,0.0,0.0,0.0,0.0,2,0,41.32009198884949,-91.25655921625132,9999.99830983427,-79.8753196833128,-0.000815661990198,-0.002001014854228,,8857.920509312844,10895.330121764337,150,3,2025-09-09,2025-09-26 18:26:26.522,AA,C,884155636,HAWK11,1,1,73,2,1,1,225,2,1,0,0,12,1,225,2,1,-146367.21911795562,-4789746.225557174,4200181.095182896,2.44804,2.75158,-0.480328,-82.5,39.125,46.25,0.0,-6.51562,7.25,0.0332031,-0.00195312,0.0234375,4,0,41.42537150058671,-91.7503255029989,11008.616303990111,-56.336703100532425,4.117727904883059,4.98787960620098,164.572,8857.920509312844,10895.330121764337,150,True,23.129363875058427,False,25.35807496256291,174.1721996002879,False,160.46855125200287,False,False
3,1970-07-23 09:47:03.875185750,2025-09-09,2025-09-26 18:26:27.518,AA,C,3602460768,JASSM,3,135,76,2,2,1,225,9,2,0,1,26,0,0,0,0,-105335.59636842164,-4798317.215894994,4191210.7485032086,2.29972,3.00229,-0.132306,-81.75,11.5,11.0,0.0,0.0,0.0,0.0,0.0,0.0,2,0,41.320230805495456,-91.25759002804816,10000.002104964717,-79.88009746515375,-0.0036881322224339,-0.002001449156171,,8857.920509312844,10895.330121764337,150,3,2025-09-09,2025-09-26 18:26:27.522,AA,C,885587234,HAWK11,1,1,73,2,1,1,225,2,1,0,0,12,1,225,2,1,-146465.61755545562,-4789698.508760299,4200236.040495396,2.44402,2.73691,-0.498256,-81.875,39.75,47.0,-0.015625,-6.79688,7.20312,-0.046875,0.00976562,0.0117188,4,0,41.42600834409717,-91.75151890164749,11017.956065166103,-55.08471976380363,4.3299027599132085,4.454385448319878,164.755,8857.920509312844,10895.330121764337,150,True,23.144542545291426,False,26.004636785480837,174.1052828315981,False,159.88903230537335,False,False
3,1970-07-23 09:47:03.886383327,2025-09-09,2025-09-26 18:26:28.638,AA,C,3603831934,JASSM,3,135,76,2,2,1,225,9,2,0,1,26,0,0,0,0,-105429.77996217164,-4798304.004957494,4191223.418425084,2.29972,3.00219,-0.132306,-81.75,11.5,11.0,0.0,0.0,0.0,0.0,0.0,0.0,2,0,41.32038263890563,-91.2587175783988,9999.999662904236,-79.87721604080512,-0.0068878827220722,-0.0027268749995926,,8857.920509312844,10895.330121764337,150,3,2025-09-09,2025-09-26 18:26:28.726,AA,C,886979066,HAWK11,1,1,73,2,1,1,225,2,1,0,0,12,1,225,2,1,-146561.07068045562,-4789651.195283736,4200290.458464146,2.37431,2.72809,-0.496243,-81.625,40.125,47.25,-0.078125,-6.92188,6.59375,-0.0332031,-0.00390625,-0.00195312,4,0,41.42663975224288,-91.7526769749752,11026.928854720472,-54.84762305108302,3.9381607145925344,0.236919181895016,164.67,8857.920509312844,10895.330121764337,150,True,23.153721963594936,False,26.278732506797564,174.0370175062095,False,159.68355889983326,False,False
3,1970-07-23 09:47:03.896420311,2025-09-09,2025-09-26 18:26:29.642,AA,C,3605084868,JASSM,3,135,76,2,2,1,225,9,2,0,1,26,0,0,0,0,-105515.84246217164,-4798291.932691869,4191234.995573521,2.29972,3.00219,-0.132306,-81.75,11.5,11.0,0.0,0.0,0.0,0.0,0.0,0.0,2,0,41.320521371363306,-91.25974790905936,9999.999800974034,-79.87789633695228,-0.0061017372530384,-0.0027274494773673,,8857.920509312844,10895.330121764337,150,3,2025-09-09,2025-09-26 18:26:29.631,AA,C,887933466,HAWK11,1,1,73,2,1,1,225,2,1,0,0,12,1,225,2,1,-146626.49060233062,-4789618.600557174,4200327.933073521,2.35476,2.73279,-0.493462,-81.375,40.25,46.875,0.0,-7.0625,6.5625,-0.0175781,-0.00585938,0.0,4,0,41.42707469253638,-91.75347074795934,11033.057664459118,-55.12965224992857,3.9900939225433167,-0.7753450987934407,164.254,8857.920509312844,10895.330121764337,150,True,23.14833115394016,False,26.26418275891834,173.98688458750047,False,159.7487915489882,False,False
3,1970-07-23 09:47:03.908318692,2025-09-09,2025-09-26 18:26:30.831,AA,C,3606396984,JASSM,3,135,76,2,2,1,225,9,2,0,1,26,0,0,0,0,-105605.96941529664,-4798279.290113744,4191247.118620396,2.29972,3.00219,-0.132306,-81.75,11.5,11.0,0.0,0.0,0.0,0.0,0.0,0.0,2,0,41.320666641112034,-91.2608269036308,10000.00188916859,-79.878608766424,-0.0052784654922379,-0.0027280464112021,,8857.920509312844,10895.330121764337,150,3,2025-09-09,2025-09-26 18:26:30.521,AA,C,888967398,HAWK11,1,1,73,2,1,1,225,2,1,0,0,12,1,225,2,1,-146696.90661795562,-4789583.483369674,4200367.991667271,2.34805,2.73068,-0.488477,-81.125,40.25,46.625,-0.0625,-6.70312,6.25,0.00195312,-0.00585938,0.00195312,4,0,41.42754116490041,-91.75432516455328,11038.97337795182,-55.25359469315652,3.711961323212989,-1.225141337344318,163.656,8857.920509312844,10895.330121764337,150,True,23.14388976211179,False,26.260519993198674,173.93350719049658,False,159.8059480516302,False,False
3,1970-07-23 09:47:03.918380979,2025-09-09,2025-09-26 18:26:31.838,AA,C,3607649684,JASSM,3,135,76,2,2,1,225,9,2,0,1,26,0,0,0,0,-105692.01433717164,-4798267.217848119,4191258.691862584,2.29972,3.00219,-0.132306,-81.75,11.5,11.0,0.0,0.0,0.0,0.0,0.0,0.0,2,0,41.32080533057934,-91.261857033439,10000.000691212112,-79.87928893380473,-0.0044924794092258,-0.0027286247763676,,8857.920509312844,10895.330121764337,150,3,2025-09-09,2025-09-26 18:26:31.928,AA,C,890796662,HAWK11,1,1,73,2,1,1,225,2,1,0,0,12,1,225,2,1,-146820.95153983062,-4789521.010713424,4200438.102995396,2.36463,2.72943,-0.487231,-80.625,40.5,45.75,-0.203125,-6.96875,6.4375,0.0175781,-0.00585938,-0.00195312,4,0,41.428363442248255,-91.75583055778968,11046.914181293923,-55.25920271370098,3.618183165374603,-0.3086320819852956,163.008,8857.920509312844,10895.330121764337,150,True,23.175810200764722,False,26.1922420543848,173.85000698220972,False,159.9569616285823,False,False
3,1970-07-23 09:47:03.928420508,2025-09-09,2025-09-26 18:26:32.842,AA,C,3608902554,JASSM,3,135,76,2,2,1,225,9,2,0,1,26,0,0,0,0,-105778.07293092164,-4798255.143629369,4191270.265104771,2.29972,3.00219,-0.132306,-81.75,11.5,11.0,0.0,0.0,0.0,0.0,0.0,0.0,2,0,41.32094402063697,-91.26288733130475,9999.999369470395,-79.8799692140312,-0.0037063705988332,-0.0027291911651924,,8857.920509312844,10895.330121764337,150,3,2025-09-09,2025-09-26 18:26:32.726,AA,C,891830594,HAWK11,1,1,73,2,1,1,225,2,1,0,0,12,1,225,2,1,-146891.01794608062,-4789485.732393111,4200477.394011021,2.3769,2.72646,-0.484546,-80.375,40.5,45.625,-0.171875,-7.15625,6.5625,0.00976562,0.0078125,-0.00390625,4,0,41.42882574000827,-91.75668088761655,11050.752079000182,-55.25893120762838,3.40373233011082,0.3150111648483923,162.629,8857.920509312844,10895.330121764337,150,True,23.173391955053184,False,26.23394993001038,173.79776028899914,False,159.9672864313322,False,False
3,1970-07-23 09:47:03.939462515,2025-09-09,2025-09-26 18:26:33.946,AA,C,3610155808,JASSM,3,135,76,2,2,1,225,9,2,0,1,26,0,0,0,0,-105864.15496217164,-4798243.064527807,4191281.8422532086,2.29982,3.00219,-0.132306,-81.75,11.5,11.0,0.0,0.0,0.0,0.0,0.0,0.0,2,0,41.321082753808106,-91.26391791455548,9999.999701611569,-79.88064968457111,-0.0029200448452406,0.0027617001305826,,8857.920509312844,10895.330121764337,150,3,2025-09-09,2025-09-26 18:26:34.021,AA,C,893341726,HAWK11,1,1,73,2,1,1,225,2,1,0,0,12,1,225,2,1,-146993.51208670562,-4789433.589814986,4200535.095182896,2.46156,2.71716,-0.480615,-80.0,41.125,45.375,-0.109375,-6.4375,6.39062,0.128906,-0.0117188,0.00585938,4,0,41.42950670292324,-91.75792498037124,11055.543140460635,-55.07649226267522,2.914977901824632,4.928270450679741,162.495,8857.920509312844,10895.330121764337,150,True,23.191689619137744,False,26.455683041775213,173.72657898092888,False,159.81411697574345,False,False
3,1970-07-23 09:47:03.950338341,2025-09-09,2025-09-26 18:26:35.033,AA,C,3611527082,JASSM,3,135,76,2,2,1,225,9,2,0,1,26,0,0,0,0,-105958.34636842164,-4798229.847730932,4191294.5082688336,2.29982,3.00219,-0.132306,-81.75,11.5,11.0,0.0,0.0,0.0,0.0,0.0,0.0,2,0,41.321234532590566,-91.26504558905792,10000.001314642152,-79.88139426439979,-0.002059645500001,0.0027610776462431,,8857.920509312844,10895.330121764337,150,3,2025-09-09,2025-09-26 18:26:34.927,AA,C,894375658,HAWK11,1,1,73,2,1,1,225,2,1,0,0,12,1,225,2,1,-147062.70739920562,-4789397.219697799,4200574.561979771,2.60527,2.70508,-0.487039,-79.375,42.25,45.875,-0.25,-6.32812,6.78125,0.146484,-0.00195312,0.0292969,4,0,41.42997682833249,-91.75876532880152,11057.0222413271,-54.37909276934933,2.757957149709044,12.875077432807066,162.629,8857.920509312844,10895.330121764337,150,False,23.184580746466676,False,27.171423747395888,173.67175065456317,False,159.14994188541928,False,False
3,1970-07-23 09:47:03.961340734,2025-09-09,2025-09-26 18:26:36.134,AA,C,3612839436,JASSM,3,135,76,2,2,1,225,9,2,0,1,26,0,0,0,0,-106048.48894654664,-4798217.197340307,4191306.629362584,2.29982,3.00219,-0.132306,-81.75,11.5,11.0,0.0,0.0,0.0,0.0,0.0,0.0,2,0,41.32137978382086,-91.26612479569906,10000.002028182544,-79.88210684402533,-0.0012362289689385,0.0027604751031669,,8857.920509312844,10895.330121764337,150,3,2025-09-09,2025-09-26 18:26:36.226,AA,C,895926558,HAWK11,1,1,73,2,1,1,225,2,1,0,0,12,1,225,2,1,-147165.84021170562,-4789340.119111861,4200634.665495396,2.81313,2.65101,-0.512062,-78.0,45.5,47.5,-0.15625,-6.32812,7.0625,0.134766,0.0136719,0.0507812,4,0,41.43070337085148,-91.76001891865434,11054.901169202032,-51.40987511344811,1.9565148151191163,23.421936351232848,164.022,8857.920509312844,10895.330121764337,150,False,23.20190967733592,False,29.13855200781423,173.59402090894338,False,157.2486845503212,False,False
3,1970-07-23 09:47:03.972400607,2025-09-09,2025-09-26 18:26:37.240,AA,C,3614092134,JASSM,3,135,76,2,2,1,225,9,2,0,1,26,0,0,0,0,-106134.53582154664,-4798205.120191869,4191318.197721959,2.29982,3.00219,-0.132306,-81.75,11.5,11.0,0.0,0.0,0.0,0.0,0.0,0.0,2,0,41.32151842160587,-91.26715497256414,9999.998619969583,-79.88278705214687,-0.0004502255446321,0.0027599043506114,,8857.920509312844,10895.330121764337,150,3,2025-09-09,2025-09-26 18:26:37.427,AA,C,897397922,HAWK11,1,1,73,2,1,1,225,2,1,0,0,12,1,225,2,1,-147261.23083670562,-4789281.243135299,4200694.954557896,2.94544,2.60048,-0.537469,-75.375,49.625,50.5,-0.1875,-6.90625,7.64062,0.0664062,0.0195312,0.0507812,4,0,41.43144313608634,-91.76118065431032,11048.241559588245,-48.56927818538311,1.3845703691971545,29.634629144067382,165.855,8857.920509312844,10895.330121764337,150,False,23.21777064093764,False,32.19909691582477,173.51235672102243,False,154.25966534651704,False,False
3,1970-07-23 09:47:03.982487406,2025-09-09,2025-09-26 18:26:38.248,AA,C,3615345944,JASSM,3,135,76,2,2,1,225,9,2,0,1,26,0,0,0,0,-106220.65691529664,-4798193.032301244,4191329.776823521,2.29982,3.0021,-0.132306,-81.75,11.5,11.0,0.0,0.0,0.0,0.0,0.0,0.0,2,0,41.3216571768321,-91.26818604245462,10000.000013241031,-79.87984189048936,-0.0037235752352332,0.0020347829772887,,8857.920509312844,10895.330121764337,150,3,2025-09-09,2025-09-26 18:26:38.227,AA,C,898352322,HAWK11,1,1,73,2,1,1,225,2,1,0,0,12,1,225,2,1,-147320.62341483062,-4789240.350557174,4200736.323698521,3.02635,2.55369,-0.563354,-72.875,52.5,52.875,-0.1875,-7.15625,8.03125,0.0644531,0.0253906,0.0488281,4,0,41.431954786424114,-91.76190555054866,11042.005904404634,-45.86695165926246,1.0430724833509455,32.92571551816298,166.992,8857.920509312844,10895.330121764337,150,False,23.21086669969848,False,34.62517136007628,173.44938065681984,False,151.8922440815959,False,False
3,1970-07-23 09:47:03.993533886,2025-09-09,2025-09-26 18:26:39.353,AA,C,3616657184,JASSM,3,135,76,2,2,1,225,9,2,0,1,26,0,0,0,0,-106310.72136842164,-4798180.389723119,4191341.884245396,2.29982,3.0021,-0.13221,-81.75,11.5,11.0,0.0,0.0,0.0,0.0,0.0,0.0,2,0,41.321802270068616,-91.2692643285288,9999.998689748503,-79.8846509471769,-0.0065599659467159,0.0020345741446182,,8857.920509312844,10895.330121764337,150,3,2025-09-09,2025-09-26 18:26:39.427,AA,C,899744154,HAWK11,1,1,73,2,1,1,225,2,1,0,0,12,1,225,2,1,-147404.70544608062,-4789176.628877486,4200800.671354771,3.11283,2.49253,-0.595089,-69.0,56.75,57.125,-0.234375,-7.78125,8.51562,0.0410156,0.03125,0.0605469,4,0,41.43275283164487,-91.76293395059216,11031.402141028111,-42.44109191159053,0.6350684395432982,36.01174057235595,169.24,8857.920509312844,10895.330121764337,150,False,23.219866194601313,False,38.39518047313463,173.3548117041962,False,148.21713646337224,False,False
3,1970-07-23 09:47:04.002412426,2025-09-09,2025-09-26 18:26:40.241,AA,C,3617731210,JASSM,3,135,76,2,2,1,225,9,2,0,1,26,0,0,0,0,-106384.49675904664,-4798170.033277807,4191351.801237584,2.29982,3.0021,-0.13221,-81.75,11.5,11.0,0.0,0.0,0.0,0.0,0.0,0.0,2,0,41.32192111200834,-91.27014759938844,9999.99835476875,-79.88523416051207,-0.0058860574091258,0.0020340800144662,,8857.920509312844,10895.330121764337,150,3,2025-09-09,2025-09-26 18:26:40.132,AA,C,900619018,HAWK11,1,1,73,2,1,1,225,2,1,0,0,12,1,225,2,1,-147454.02771170562,-4789133.936494674,4200843.675261021,-3.11197,2.44095,-0.625193,-65.5,59.625,59.875,-0.3125,-8.0,8.8125,0.03125,0.0351562,0.0488281,4,0,41.433288060059,-91.76353917452836,11023.537263956883,-39.46896598590177,0.5641888450980879,37.69438059845159,170.12,8857.920509312844,10895.330121764337,150,False,23.215003192444573,False,41.20702554885457,173.28663858572435,False,145.47280624574339,False,False
3,1970-07-23 09:47:04.012419738,2025-09-09,2025-09-26 18:26:41.241,AA,C,3618924590,JASSM,3,135,76,2,2,1,225,9,2,0,1,26,0,0,0,0,-106466.46746217164,-4798158.525465307,4191362.819792271,2.29982,3.0021,-0.13221,-81.75,11.5,11.0,0.0,0.0,0.0,0.0,0.0,0.0,2,0,41.32205315258091,-91.27112899207972,9999.99896836307,-79.88588216415584,-0.0051372869309168,0.0020335260646592,,8857.920509312844,10895.330121764337,150,3,2025-09-09,2025-09-26 18:26:41.225,AA,C,901931318,HAWK11,1,1,73,2,1,1,225,2,1,0,0,12,1,225,2,1,-147523.49060233062,-4789065.768525924,4200912.409636021,-3.03882,2.36003,-0.663063,-59.75,63.875,64.25,-0.328125,-8.34375,9.14062,0.015625,0.0488281,0.0585938,4,0,41.43414483560984,-91.764394518854,11010.431839027216,-35.18677571629605,0.2435026676960836,39.1303246695286,172.027,8857.920509312844,10895.330121764337,150,False,23.22207706211008,False,45.583355834469586,173.1796558168109,False,141.20477359925985,False,False
3,1970-07-23 09:47:04.022441206,2025-09-09,2025-09-26 18:26:42.244,AA,C,3620117732,JASSM,3,135,76,2,2,1,225,9,2,0,1,26,0,0,0,0,-106548.42254029664,-4798147.019605932,4191373.835417271,2.29982,3.0021,-0.13221,-81.75,11.5,11.0,0.0,0.0,0.0,0.0,0.0,0.0,2,0,41.32218515543913,-91.27211020172513,10000.00077214368,-79.88653004864183,-0.0043886598847542,0.0020329763731782,,8857.920509312844,10895.330121764337,150,3,2025-09-09,2025-09-26 18:26:42.428,AA,C,903323150,HAWK11,1,1,73,2,1,1,225,2,1,0,0,12,1,225,2,1,-147590.15466483062,-4788988.706025924,4200990.804167271,-2.96912,2.26895,-0.704864,-53.125,67.875,69.25,-0.265625,-8.78125,9.46875,0.0175781,0.0546875,0.0527344,4,0,41.435120239512976,-91.765219709655,10996.228236117262,-30.488603410951125,0.1635642885457562,39.84104348921618,173.896,8857.920509312844,10895.330121764337,150,False,23.230015617857628,False,50.273896908781786,173.05501446276062,False,136.64486246490435,False,False
3,1970-07-23 09:47:04.032480372,2025-09-09,2025-09-26 18:26:43.248,AA,C,3621310066,JASSM,3,135,76,2,2,1,225,9,2,0,1,26,0,0,0,0,-106630.32097779664,-4798135.519605932,4191384.8422532086,2.29982,3.0021,-0.13221,-81.75,11.5,11.0,0.0,0.0,0.0,0.0,0.0,0.0,2,0,41.322317063192656,-91.2730907377494,9999.998447809345,-79.8871774900443,-0.0036405490480151,0.0020324227530183,,8857.920509312844,10895.330121764337,150,3,2025-09-09,2025-09-26 18:26:43.131,AA,C,904158248,HAWK11,1,1,73,2,1,1,225,2,1,0,0,12,1,225,2,1,-147625.60583670562,-4788940.344697799,4201040.235807896,-2.91581,2.20289,-0.732476,-48.375,70.0,71.875,-0.046875,-8.70312,9.375,0.0175781,0.0546875,0.0625,4,0,41.43573511426559,-91.76566126641887,10987.343991093963,-27.230831127849104,0.182359173531776,40.41247283197758,174.544,8857.920509312844,10895.330121764337,150,False,23.215221047513175,False,53.25047461122773,172.9689279734827,False,133.75680842172153,False,False
3,1970-07-23 09:47:04.041375983,2025-09-09,2025-09-26 18:26:44.137,AA,C,3622384172,JASSM,3,135,76,2,2,1,225,9,2,0,1,26,0,0,0,0,-106704.10027467164,-4798125.160230932,4191394.7582688336,2.29982,3.0021,-0.13221,-81.75,11.5,11.0,0.0,0.0,0.0,0.0,0.0,0.0,2,0,41.32243588604779,-91.27397406990949,10000.001558332124,-79.88776074984074,-0.002966603720561,0.0020319248569129,,8857.920509312844,10895.330121764337,150,3,2025-09-09,2025-09-26 18:26:44.390,AA,C,905072880,HAWK11,1,1,73,2,1,1,225,2,1,0,0,12,1,225,2,1,-147660.39099295562,-4788885.985322799,4201096.233854771,-2.85062,2.13089,-0.75654,-43.0,72.375,74.75,-0.15625,-9.0625,9.65625,0.0175781,0.0527344,0.0625,4,0,41.4364301160144,-91.76609708166455,10977.923601017936,-23.90051489825437,0.0870616560763661,41.35940398508992,176.511,8857.920509312844,10895.330121764337,150,False,23.206069357598125,False,56.53908478843849,172.87258990027553,False,130.56663843877118,False,False
3,1970-07-23 09:47:04.051454149,2025-09-09,2025-09-26 18:26:45.145,AA,C,3623576854,JASSM,3,135,76,2,2,1,225,9,2,0,1,26,0,0,0,0,-106786.02214967164,-4798113.655348119,4191405.767057896,2.29982,3.0021,-0.13221,-81.75,11.5,11.0,0.0,0.0,0.0,0.0,0.0,0.0,2,0,41.32256781702905,-91.27495489448296,9999.999515848152,-79.88840838500758,-0.0022182782713857,0.0020313698484932,,8857.920509312844,10895.330121764337,150,3,2025-09-09,2025-09-26 18:26:45.021,AA,C,906305646,HAWK11,1,1,73,2,1,1,225,2,1,0,0,12,1,225,2,1,-147700.67224295562,-4788809.120088424,4201175.505339146,-2.7558,2.0192,-0.783864,-34.875,75.5,78.125,-0.4375,-9.35938,9.96875,0.0195312,0.0644531,0.0683594,4,0,41.43741509689376,-91.76660689907924,10964.127642772435,-19.059474527502715,-0.2212172354281803,42.32778841883943,177.452,8857.920509312844,10895.330121764337,150,False,23.200896602478693,False,61.196905379581246,172.7362818839692,False,126.04593741635993,False,False
3,1970-07-23 09:47:04.060356399,2025-09-09,2025-09-26 18:26:46.035,AA,C,3624650594,JASSM,3,135,76,2,2,1,225,9,2,0,1,26,0,0,0,0,-106859.77605592164,-4798103.297926244,4191415.677214146,2.29982,3.0021,-0.13221,-81.75,11.5,11.0,0.0,0.0,0.0,0.0,0.0,0.0,2,0,41.32268657772601,-91.27583792984738,9999.99947231921,-79.88899145174588,-0.0015445658126915,0.0020308790881656,,8857.920509312844,10895.330121764337,150,3,2025-09-09,2025-09-26 18:26:45.927,AA,C,907538412,HAWK11,1,1,73,2,1,1,225,2,1,0,0,12,1,225,2,1,-147732.35388358062,-4788729.348604049,4201258.763151646,-2.65312,1.89821,-0.817132,-26.0,77.75,81.375,-0.328125,-9.59375,10.2656,0.00976562,0.0664062,0.0546875,4,0,41.43844585035726,-91.76701501031876,10951.19748319314,-13.883323972752107,0.1230670013243681,43.2275161176448,178.674,8857.920509312844,10895.330121764337,150,False,23.196749747215215,False,65.98822399172211,172.59150675920884,False,121.40288515442981,False,False
3,1970-07-23 09:47:04.070399812,2025-09-09,2025-09-26 18:26:47.039,AA,C,3625784044,JASSM,3,135,76,2,2,1,225,9,2,0,1,26,0,0,0,0,-106937.62957154664,-4798092.363355932,4191426.138151646,2.29982,3.0021,-0.13221,-81.75,11.5,11.0,0.0,0.0,0.0,0.0,0.0,0.0,2,0,41.32281194038135,-91.2767700525737,9999.99888359988,-79.88960693228256,-0.0008334033901185,0.0020303532518799,,8857.920509312844,10895.330121764337,150,3,2025-09-09,2025-09-26 18:26:47.131,AA,C,908810944,HAWK11,1,1,73,2,1,1,225,2,1,0,0,12,1,225,2,1,-147754.76989920562,-4788645.387666549,4201347.653776646,-2.55043,1.76264,-0.843018,-16.125,79.125,84.625,-0.234375,-9.82812,10.5625,0.00976562,0.0566406,0.0605469,4,0,41.43954124652279,-91.76731392321544,10939.503627791237,-8.448395847217586,0.4464712346956027,43.40110907961261,180.398,8857.920509312844,10895.330121764337,150,False,23.187001041382086,False,71.07840609002841,172.43317403828948,False,116.47651216023128,False,False
3,1970-07-23 09:47:04.079457358,2025-09-09,2025-09-26 18:26:47.945,AA,C,3626857788,JASSM,3,135,76,2,2,1,225,9,2,0,1,26,0,0,0,0,-107011.38347779664,-4798082.003980932,4191436.048307896,2.29982,3.002,-0.13221,-81.75,11.5,11.0,0.0,0.0,0.0,0.0,0.0,0.0,2,0,41.32293069875177,-91.27765309504836,9999.9999870705,-79.88656394731922,-0.0042197265373829,0.001305798489707,,8857.920509312844,10895.330121764337,150,3,2025-09-09,2025-09-26 18:26:48.027,AA,C,910003942,HAWK11,1,1,73,2,1,1,225,2,1,0,0,12,1,225,2,1,-147765.73669608062,-4788565.405244674,4201433.388151646,-2.43884,1.62813,-0.855098,-6.375,80.0,86.75,-0.375,-9.92188,10.5781,0.0117188,0.0664062,0.0664062,4,0,41.44059376849195,-91.76747451784016,10929.876019236272,-3.3127953219892894,0.5436283338377331,44.05039034377396,181.302,8857.920509312844,10895.330121764337,150,False,23.17293893495592,False,75.91418796117834,172.276830149071,False,111.79991125178886,False,False
3,1970-07-23 09:47:04.089118055,2025-09-09,2025-09-26 18:26:48.911,AA,C,3627931712,JASSM,3,135,76,2,2,1,225,9,2,0,1,26,0,0,0,0,-107085.14910279664,-4798071.642652807,4191445.958464146,2.29982,3.002,-0.13221,-81.75,11.5,11.0,0.0,0.0,0.0,0.0,0.0,0.0,2,0,41.3230494603952,-91.27853628111816,9999.999822209902,-79.88714711775444,-0.003545906111383,0.0013053477098843,,8857.920509312844,10895.330121764337,150,3,2025-09-09,2025-09-26 18:26:49.021,AA,C,911196942,HAWK11,1,1,73,2,1,1,225,2,1,0,0,12,1,225,2,1,-147766.50036795562,-4788484.846650924,4201520.909636021,-2.32676,1.48451,-0.867466,3.875,80.0,88.375,-0.40625,-10.4062,11.0,-0.0234375,0.0761719,0.0527344,4,0,41.44166365171006,-91.7675133627986,10921.945774571695,2.054156547996116,1.186497364860252,44.30535064536999,182.915,8857.920509312844,10895.330121764337,150,False,23.154143162240597,False,80.87479404349976,172.11369466162796,False,107.00556244913444,False,False
3,1970-07-23 09:47:04.097409480,2025-09-09,2025-09-26 18:26:49.740,AA,C,3629005454,JASSM,3,135,76,2,2,1,225,9,2,0,1,26,0,0,0,0,-107158.90300904664,-4798061.282301244,4191455.866667271,2.29982,3.002,-0.132114,-81.75,11.5,11.0,0.0,0.0,0.0,0.0,0.0,0.0,2,0,41.32316819781172,-91.27941933026536,10000.000086460468,-79.89182723151701,-0.0065313382395659,0.0013052318634387,,8857.920509312844,10895.330121764337,150,3,2025-09-09,2025-09-26 18:26:49.633,AA,C,911992274,HAWK11,1,1,73,2,1,1,225,2,1,0,0,12,1,225,2,1,-147761.34607108062,-4788431.715791549,4201579.727995396,-2.26339,1.3941,-0.864302,10.875,79.625,89.125,-0.390625,-10.3281,10.8906,-0.00390625,0.0800781,0.0625,4,0,41.44237770088741,-91.76747134725264,10918.668661191266,5.414903497389752,1.259329325272153,44.061475438953,183.282,8857.920509312844,10895.330121764337,150,False,23.125465745948294,False,84.2172773497946,171.99768175092882,False,103.7808416220973,False,False
3,1970-07-23 09:47:04.106458594,2025-09-09,2025-09-26 18:26:50.645,AA,C,3630138606,JASSM,3,135,76,2,2,1,225,9,2,0,1,26,0,0,0,0,-107236.73699342164,-4798050.347730932,4191466.322721959,2.29982,3.002,-0.132114,-81.75,11.5,11.0,0.0,0.0,0.0,0.0,0.0,0.0,2,0,41.32329350104516,-91.28035123360068,10000.00025359132,-79.89244257302595,-0.0058203535702006,0.0013046995056444,,8857.920509312844,10895.330121764337,150,3,2025-09-09,2025-09-26 18:26:50.521,AA,C,912986440,HAWK11,1,1,73,2,1,1,225,2,1,0,0,12,1,225,2,1,-147748.11950858062,-4788365.030244674,4201654.630339146,-2.1679,1.27253,-0.862768,19.625,78.625,89.5,-0.25,-10.2969,10.9844,-0.00390625,0.0761719,0.0449219,4,0,41.44328243323182,-91.76733783293405,10916.38911234575,9.900495188383434,1.8693549190016288,44.35778695217802,183.893,8857.920509312844,10895.330121764337,150,False,23.09431265225122,False,88.37960228429577,171.85050703343853,False,99.76744040013587,False,False
3,1970-07-23 09:47:04.116332836,2025-09-09,2025-09-26 18:26:51.633,AA,C,3631272004,JASSM,3,135,76,2,2,1,225,9,2,0,1,26,0,0,0,0,-107314.58660279664,-4798039.410230932,4191476.7797532086,2.29982,3.002,-0.132114,-81.75,11.5,11.0,0.0,0.0,0.0,0.0,0.0,0.0,2,0,41.32341881866087,-91.28128332778071,9999.999408629945,-79.89305804208867,-0.0051092266083415,0.0013041702680363,,8857.920509312844,10895.330121764337,150,3,2025-09-09,2025-09-26 18:26:51.130,AA,C,913702238,HAWK11,1,1,73,2,1,1,225,2,1,0,0,12,1,225,2,1,-147734.24841483062,-4788318.112275924,4201708.192839146,-2.11651,1.19325,-0.854427,25.875,77.5,89.375,-0.171875,-10.2188,10.8125,-0.00585938,0.0546875,0.0566406,4,0,41.44392563918561,-91.76718931900672,10916.317197239776,12.901685958287937,2.0776092549972267,43.96610455466017,184.1,8857.920509312844,10895.330121764337,150,False,23.05773714060302,False,91.36875761400438,171.7393419213218,False,96.89045461312568,False,False
3,1970-07-23 09:47:04.125376884,2025-09-09,2025-09-26 18:26:52.537,AA,C,3632405398,JASSM,3,135,76,2,2,1,225,9,2,0,1,26,0,0,0,0,-107392.43816529664,-4798028.471754369,4191487.2367844586,2.29982,3.002,-0.132114,-81.75,11.5,11.0,0.0,0.0,0.0,0.0,0.0,0.0,2,0,41.3235441342681,-91.28221544910453,9999.99949519589,-79.89367353061209,-0.0043980812614426,0.00130363870963,,8857.920509312844,10895.330121764337,150,3,2025-09-09,2025-09-26 18:26:52.631,AA,C,915611036,HAWK11,1,1,73,2,1,1,225,2,1,0,0,12,1,225,2,1,-147679.18200858062,-4788194.791963424,4201850.239714146,-1.96513,0.997375,-0.810325,41.75,74.625,87.625,-0.359375,-9.78125,10.3281,0.00585938,0.0585938,0.0585938,4,0,41.44562818545172,-91.76657650329612,10917.470733362608,20.863890811247188,2.1264843658308545,44.61889930998036,185.273,8857.920509312844,10895.330121764337,150,False,23.02154027146653,False,98.97644545435018,171.46170334802378,False,89.5612510753485,False,False
3,1970-07-23 09:47:04.134435805,2025-09-09,2025-09-26 18:26:53.443,AA,C,3633480198,JASSM,3,135,76,2,2,1,225,9,2,0,1,26,0,0,0,0,-107466.26433717164,-4798018.098707494,4191497.152800084,2.29982,3.002,-0.132114,-81.75,11.5,11.0,0.0,0.0,0.0,0.0,0.0,0.0,2,0,41.32366296206029,-91.28309937753076,10000.001475826964,-79.89425719833004,-0.0037237065825819,0.0013031359227869,,8857.920509312844,10895.330121764337,150,3,2025-09-09,2025-09-26 18:26:53.525,AA,C,916366602,HAWK11,1,1,73,2,1,1,225,2,1,0,0,12,1,225,2,1,-147650.68786795562,-4788147.799775924,4201904.860807896,-1.91815,0.932181,-0.788562,47.875,73.125,86.375,-0.375,-9.71875,10.2031,-0.00585938,0.0605469,0.0625,4,0,41.44628165780157,-91.76625318828776,10918.41681451534,23.751723535648456,2.0513159317728,44.73709839592442,184.87,8857.920509312844,10895.330121764337,150,False,22.980188277044775,False,101.97092483546193,171.34271640002714,False,86.68593261288333,False,False
3,1970-07-23 09:47:04.144462354,2025-09-09,2025-09-26 18:26:54.446,AA,C,3634672322,JASSM,3,135,76,2,2,1,225,9,2,0,1,26,0,0,0,0,-107548.14910279664,-4798006.591871557,4191508.149870396,2.29982,3.002,-0.132114,-81.75,11.5,11.0,0.0,0.0,0.0,0.0,0.0,0.0,2,0,41.3237947525941,-91.28407979649596,10000.000456123433,-79.89490458143555,-0.00297571938087,0.0013025784561954,,8857.920509312844,10895.330121764337,150,3,2025-09-09,2025-09-26 18:26:54.427,AA,C,917639134,HAWK11,1,1,73,2,1,1,225,2,1,0,0,12,1,225,2,1,-147594.05896170562,-4788070.207979049,4201994.882292271,-1.84624,0.822022,-0.743022,56.875,70.0,84.5,-0.078125,-9.5625,10.1406,0.00976562,0.0625,0.0605469,4,0,41.447361278055936,-91.76560479426684,10918.897363287431,28.99328886439195,1.837736346673532,44.65689522721324,185.518,8857.920509312844,10895.330121764337,150,False,22.928953660937616,False,106.45108169113678,171.14956077336197,False,82.39934874771656,False,False
3,1970-07-23 09:47:04.158320332,2025-09-09,2025-09-26 18:26:55.832,AA,C,3635806302,JASSM,3,135,76,2,2,1,225,9,2,0,1,26,0,0,0,0,-107626.03972779664,-4797995.645582494,4191518.6098313336,2.29982,3.002,-0.132114,-81.75,11.5,11.0,0.0,0.0,0.0,0.0,0.0,0.0,2,0,41.32392010655784,-91.28501239685892,9999.999492696475,-79.89552039088852,-0.002264217124892,0.0013020486250976,,8857.920509312844,10895.330121764337,150,3,2025-09-09,2025-09-26 18:26:55.927,AA,C,919508166,HAWK11,1,1,73,2,1,1,225,2,1,0,0,12,1,225,2,1,-147492.71130545562,-4787963.270479049,4202120.581511021,-1.74509,0.666802,-0.678211,71.25,64.75,78.625,-0.375,-9.90625,10.3438,-0.00195312,0.0644531,0.0488281,4,0,41.44886448725216,-91.76443256425296,10921.352054630011,36.674638919552194,2.3138087542182366,44.9199430421311,186.483,8857.920509312844,10895.330121764337,150,False,22.866157642941555,False,114.02708126206859,170.87717983821835,False,75.09572571416061,False,False
3,1970-07-23 09:47:04.163956533,2025-09-09,2025-09-26 18:26:56.395,AA,C,3636938998,JASSM,3,135,76,2,2,1,225,9,2,0,1,26,0,0,0,0,-107703.84246217164,-4797984.711012182,4191529.058073521,2.29982,3.002,-0.132114,-81.75,11.5,11.0,0.0,0.0,0.0,0.0,0.0,0.0,2,0,41.32404531585652,-91.28594394862728,10000.000380954576,-79.89613550947554,-0.0015535168483145,0.0013015151817404,,8857.920509312844,10895.330121764337,150,3,2025-09-09,2025-09-26 18:26:56.521,AA,C,920223966,HAWK11,1,1,73,2,1,1,225,2,1,0,0,12,1,225,2,1,-147447.74450858062,-4787924.391572799,4202166.427214146,-1.70559,0.612825,-0.646669,76.375,62.375,76.25,-0.484375,-9.89062,10.4531,0.0,0.0683594,0.0625,4,0,41.449413472346826,-91.76390928740264,10921.95096021446,39.71220239890044,2.285275143772845,45.402414297641975,186.728,8857.920509312844,10895.330121764337,150,False,22.812569638884963,False,116.84213367197013,170.7629010156726,False,72.39496529986486,False,False
3,1970-07-23 09:47:04.172478318,2025-09-09,2025-09-26 18:26:57.247,AA,C,3638013572,JASSM,3,135,76,2,2,1,225,9,2,0,1,26,0,0,0,0,-107777.65105592164,-4797974.336988744,4191538.968229771,2.29982,3.0019,-0.132114,-81.75,11.5,11.0,0.0,0.0,0.0,0.0,0.0,0.0,2,0,41.32416408355129,-91.28682768105249,9999.998539866065,-79.8930928965213,-0.0049393463051982,0.0005774395168026,,8857.920509312844,10895.330121764337,150,3,2025-09-09,2025-09-26 18:26:57.131,AA,C,920979530,HAWK11,1,1,73,2,1,1,225,2,1,0,0,12,1,225,2,1,-147396.70544608062,-4787884.823213424,4202214.005339146,-1.66331,0.55185,-0.613401,81.75,59.5,73.125,-0.3125,-10.0625,10.5312,0.0117188,0.0644531,0.0683594,4,0,41.44997935890876,-91.7633136585921,10924.1611263326,43.11381226540386,2.5125600029082733,45.90827749754259,187.29,8857.920509312844,10895.330121764337,150,False,22.75849682855912,False,119.9887163404665,170.64386882746138,False,69.36741296160125,False,False
3,1970-07-23 09:47:04.182357880,2025-09-09,2025-09-26 18:26:58.235,AA,C,3639146110,JASSM,3,135,76,2,2,1,225,9,2,0,1,26,0,0,0,0,-107855.44402467164,-4797963.403394994,4191549.413542271,2.29982,3.0019,-0.132114,-81.75,11.5,11.0,0.0,0.0,0.0,0.0,0.0,0.0,2,0,41.32428925385449,-91.2877591229484,10000.001231412834,-79.89370794551552,-0.0042287366602564,0.0005769596361322,,8857.920509312844,10895.330121764337,150,3,2025-09-09,2025-09-26 18:26:58.021,AA,C,921933930,HAWK11,1,1,73,2,1,1,225,2,1,0,0,12,1,225,2,1,-147327.78357108062,-4787838.104463424,4202270.017057896,-1.62171,0.4833,-0.5716,88.25,55.5,69.0,-0.375,-10.2188,10.6875,-0.0078125,0.0644531,0.0566406,4,0,41.450647981399655,-91.76250685031413,10925.763283594224,47.15422930116614,2.759584884372303,46.28383998353146,188.048,8857.920509312844,10895.330121764337,150,False,22.69545486931785,False,123.96595304885017,170.50078374007177,False,65.53321581374263,False,False
3,1970-07-23 09:47:04.191416213,2025-09-09,2025-09-26 18:26:59.141,AA,C,3640220836,JASSM,3,135,76,2,2,1,225,9,2,0,1,26,0,0,0,0,-107929.26433717164,-4797953.026441869,4191559.324675084,2.29982,3.0019,-0.132114,-81.75,11.5,11.0,0.0,0.0,0.0,0.0,0.0,0.0,2,0,41.32440803004794,-91.28864300262244,10000.000901138585,-79.89429158967832,-0.0035544145522673,0.0005764994863612,,8857.920509312844,10895.330121764337,150,3,2025-09-09,2025-09-26 18:26:59.223,AA,C,923365528,HAWK11,1,1,73,2,1,1,225,2,1,0,0,12,1,225,2,1,-147216.08630545562,-4787774.481416549,4202348.269011021,-1.58556,0.394329,-0.497873,96.875,49.125,62.375,-0.171875,-9.89062,10.3438,0.00390625,0.0703125,0.0605469,4,0,41.45157510002819,-91.76119482799668,10930.891420297932,53.245888104788726,2.554681335732255,46.03660725486143,187.889,8857.920509312844,10895.330121764337,150,False,22.618496089824795,False,129.73569376289728,170.3016557145937,False,59.96238147992688,False,False
3,1970-07-23 09:47:04.205523100,2025-09-09,2025-09-26 18:27:00.552,AA,C,3641294578,JASSM,3,135,76,2,2,1,225,9,2,0,1,26,0,0,0,0,-108003.01629029664,-4797942.658277807,4191569.2270188336,2.29982,3.0019,-0.132114,-81.75,11.5,11.0,0.0,0.0,0.0,0.0,0.0,0.0,2,0,41.3245266969731,-91.28952606722856,10000.00229292505,-79.8948746970139,-0.0028807154175415,0.0005760324325233,,8857.920509312844,10895.330121764337,150,3,2025-09-09,2025-09-26 18:27:00.427,AA,C,924797126,HAWK11,1,1,73,2,1,1,225,2,1,0,0,12,1,225,2,1,-147094.68591483062,-4787718.354463424,4202418.087370396,-1.55421,0.314083,-0.426926,104.375,42.5,55.125,-0.109375,-9.84375,10.25,-0.0117188,0.0683594,0.0585938,4,0,41.45240245743267,-91.75976400513528,10935.405706674635,59.0350618734921,2.4942179119780463,46.0348966297984,188.292,8857.920509312844,10895.330121764337,150,False,22.534779218302717,False,135.38366622932244,170.1108875088812,False,54.50490957104009,False,False
3,1970-07-23 09:47:04.210376120,2025-09-09,2025-09-26 18:27:01.037,AA,C,3642547440,JASSM,3,135,76,2,2,1,225,9,2,0,1,26,0,0,0,0,-108089.07293092164,-4797930.559644994,4191580.778776646,2.29982,3.0019,-0.132018,-81.75,11.5,11.0,0.0,0.0,0.0,0.0,0.0,0.0,2,0,41.32466513935899,-91.29055646550228,10000.000155038568,-79.89965207958318,-0.0057538175412966,0.0005757821155893,,8857.920509312844,10895.330121764337,150,3,2025-09-09,2025-09-26 18:27:01.021,AA,C,925552692,HAWK11,1,1,73,2,1,1,225,2,1,0,0,12,1,225,2,1,-147028.10388358062,-4787692.372041549,4202450.917448521,-1.54501,0.275829,-0.387234,107.75,39.0,51.5,-0.3125,-9.64062,10.0938,-0.00585938,0.0585938,0.0625,4,0,41.4527907894718,-91.7589774927726,10937.822508403708,62.07026638399404,2.325371839828673,45.82186986617173,188.414,8857.920509312844,10895.330121764337,150,False,22.462904538078718,False,138.14677592758798,170.00388610068862,False,51.848394053558955,False,False
3,1970-07-23 09:47:04.224721760,2025-09-09,2025-09-26 18:27:02.472,AA,C,3643858644,JASSM,3,135,76,2,2,1,225,9,2,0,1,26,0,0,0,0,-108179.13738404664,-4797917.896559057,4191592.868620396,2.29982,3.0019,-0.132018,-81.75,11.5,11.0,0.0,0.0,0.0,0.0,0.0,0.0,2,0,41.32481002597793,-91.29163485621612,9999.999901546487,-79.9003641689156,-0.0049311104374351,0.0005751612111167,,8857.920509312844,10895.330121764337,150,3,2025-09-09,2025-09-26 18:27:02.431,AA,C,926904758,HAWK11,1,1,73,2,1,1,225,2,1,0,0,12,1,225,2,1,-146901.55310233062,-4787650.748994674,4202503.860807896,-1.53283,0.207567,-0.320219,113.25,32.5,43.875,-0.0625,-9.54688,10.0469,-0.0878906,0.0585938,0.0585938,4,0,41.45341887279397,-91.7574797160716,10940.962242716758,67.38573498129799,2.321079156781764,45.37914904499258,188.927,8857.920509312844,10895.330121764337,150,False,22.36381333595075,False,143.35908001581865,169.83268532216815,False,46.8072048937859,False,False
3,1970-07-23 09:47:04.276395398,2025-09-09,2025-09-26 18:27:07.639,AA,C,3650361536,JASSM,3,135,76,2,2,1,225,9,2,0,1,26,0,0,0,0,-108625.80535279664,-4797855.080152807,4191652.8149094586,2.29982,3.00181,-0.132018,-81.75,11.5,11.0,0.0,0.0,0.0,0.0,0.0,0.0,2,0,41.32552843504867,-91.29698312947204,9999.99928274556,-79.90026052722996,-0.0049211010896782,-0.0001527725723778,,8857.920509312844,10895.330121764337,150,3,2025-09-09,2025-09-26 18:27:07.429,AA,C,933068584,HAWK11,1,1,73,2,1,1,225,2,1,0,0,12,1,225,2,1,-146284.17810233062,-4787555.268525924,4202671.339323521,-2.22504,0.00383495,-0.219647,121.5,7.0,29.875,-0.046875,-8.10938,8.51562,-0.132812,0.0117188,0.0,4,0,41.4552296156949,-91.75013313792137,11023.592754137631,79.23164088802162,6.840403423742815,3.541640648714239,189.758,8857.920509312844,10895.330121764337,150,True,21.850867104827277,False,155.8524118972332,169.15477373731198,False,34.80332038770137,False,False
3,1970-07-23 09:47:04.276937485,2025-09-09,2025-09-26 18:27:07.693,AA,C,3646542998,JASSM,3,135,76,2,2,1,225,9,2,0,1,26,0,0,0,0,-108363.52019654664,-4797891.969801244,4191617.616667271,2.29982,3.0019,-0.132018,-81.75,11.5,11.0,0.0,0.0,0.0,0.0,0.0,0.0,2,0,41.3251066076969,-91.29384258754848,10000.000967085878,-79.90182199753824,-0.003246838432041,0.0005738934836413,,8857.920509312844,10895.330121764337,150,3,2025-09-09,2025-09-26 18:27:07.429,AA,C,933068584,HAWK11,1,1,73,2,1,1,225,2,1,0,0,12,1,225,2,1,-146284.17810233062,-4787555.268525924,4202671.339323521,-2.22504,0.00383495,-0.219647,121.5,7.0,29.875,-0.046875,-8.10938,8.51562,-0.132812,0.0117188,0.0,4,0,41.4552296156949,-91.75013313792137,11023.592754137631,79.23164088802162,6.840403423742815,3.541640648714239,189.758,8857.920509312844,10895.330121764337,150,True,21.992250346774952,False,155.8524118972332,169.2254280235881,False,34.73354224073178,False,False
3,1970-07-23 09:47:04.281533023,2025-09-09,2025-09-26 18:27:08.153,AA,C,3645230748,JASSM,3,135,76,2,2,1,225,9,2,0,1,26,0,0,0,0,-108273.38347779664,-4797904.644605932,4191605.519011021,2.29982,3.0019,-0.132018,-81.75,11.5,11.0,0.0,0.0,0.0,0.0,0.0,0.0,2,0,41.32496162903174,-91.29276332135372,10000.00029525334,-79.9011093258898,-0.0040702053102198,0.0005745113023396,,8857.920509312844,10895.330121764337,150,3,2025-09-09,2025-09-26 18:27:07.429,AA,C,933068584,HAWK11,1,1,73,2,1,1,225,2,1,0,0,12,1,225,2,1,-146284.17810233062,-4787555.268525924,4202671.339323521,-2.22504,0.00383495,-0.219647,121.5,7.0,29.875,-0.046875,-8.10938,8.51562,-0.132812,0.0117188,0.0,4,0,41.4552296156949,-91.75013313792137,11023.592754137631,79.23164088802162,6.840403423742815,3.541640648714239,189.758,8857.920509312844,10895.330121764337,150,True,22.040845745650692,False,155.8524118972332,169.24950051056297,False,34.70976962874368,False,False
3,1970-07-23 09:47:04.281962446,2025-09-09,2025-09-26 18:27:08.196,AA,C,3647855336,JASSM,3,135,76,2,2,1,225,9,2,0,1,26,0,0,0,0,-108453.66082154664,-4797879.293043432,4191629.714323521,2.29982,3.0019,-0.132018,-81.75,11.5,11.0,0.0,0.0,0.0,0.0,0.0,0.0,2,0,41.32525158731818,-91.29492190567836,10000.00137472896,-79.9025347055406,-0.0024234347715586,0.0005732710039533,,8857.920509312844,10895.330121764337,150,3,2025-09-09,2025-09-26 18:27:07.429,AA,C,933068584,HAWK11,1,1,73,2,1,1,225,2,1,0,0,12,1,225,2,1,-146284.17810233062,-4787555.268525924,4202671.339323521,-2.22504,0.00383495,-0.219647,121.5,7.0,29.875,-0.046875,-8.10938,8.51562,-0.132812,0.0117188,0.0,4,0,41.4552296156949,-91.75013313792137,11023.592754137631,79.23164088802162,6.840403423742815,3.541640648714239,189.758,8857.920509312844,10895.330121764337,150,True,21.943656747413577,False,155.8524118972332,169.20124852838478,False,34.757421205320725,False,False
3,1970-07-23 09:47:04.281995486,2025-09-09,2025-09-26 18:27:08.199,AA,C,3649108048,JASSM,3,135,76,2,2,1,225,9,2,0,1,26,0,0,0,0,-108539.70769654664,-4797867.190504369,4191641.261198521,2.29982,3.0019,-0.132018,-81.75,11.5,11.0,0.0,0.0,0.0,0.0,0.0,0.0,2,0,41.325389972902585,-91.2959522112814,9999.999157029231,-79.90321505093821,-0.0016374258884698,0.0005726771993569,,8857.920509312844,10895.330121764337,150,3,2025-09-09,2025-09-26 18:27:07.429,AA,C,933068584,HAWK11,1,1,73,2,1,1,225,2,1,0,0,12,1,225,2,1,-146284.17810233062,-4787555.268525924,4202671.339323521,-2.22504,0.00383495,-0.219647,121.5,7.0,29.875,-0.046875,-8.10938,8.51562,-0.132812,0.0117188,0.0,4,0,41.4552296156949,-91.75013313792137,11023.592754137631,79.23164088802162,6.840403423742815,3.541640648714239,189.758,8857.920509312844,10895.330121764337,150,True,21.897273802451622,False,155.8524118972332,169.17806692421323,False,34.780315473528255,False,False
3,1970-07-23 09:47:04.299613238,2025-09-09,2025-09-26 18:27:09.961,AA,C,3651673092,JASSM,3,135,76,2,2,1,225,9,2,0,1,26,0,0,0,0,-108715.89324342164,-4797842.408277807,4191664.902800084,2.29982,3.00181,-0.132018,-81.75,11.5,11.0,0.0,0.0,0.0,0.0,0.0,0.0,2,0,41.32567329729729,-91.298061830771,10000.000215485928,-79.90097283386862,-0.0040981792031421,-0.0001533392037923,,8857.920509312844,10895.330121764337,150,3,2025-09-09,2025-09-26 18:27:10.325,AA,C,936568048,HAWK11,1,1,73,2,1,1,225,2,1,0,0,12,1,225,2,1,-145930.48474295562,-4787537.356416549,4202757.819792271,-2.06752,-0.00613592,-0.232206,120.125,4.375,29.125,-0.171875,-6.07812,6.48438,0.115234,-0.0078125,0.0117188,4,0,41.45598383589636,-91.74591072679978,11140.879834649946,79.05443900063773,7.735805499462581,12.41624684524841,187.094,8857.920509312844,10895.330121764337,150,False,21.640978093124573,False,156.54222685342975,168.83937609306668,False,34.35701182318923,False,False
3,1970-07-23 09:47:04.336632527,2025-09-09,2025-09-26 18:27:13.663,AA,C,3654238332,JASSM,3,135,76,2,2,1,225,9,2,0,1,26,0,0,0,0,-108892.09441529664,-4797817.620191869,4191688.542448521,2.29982,3.00181,-0.132018,-81.75,11.5,11.0,0.0,0.0,0.0,0.0,0.0,0.0,2,0,41.325956602517984,-91.30017165661982,10000.000024033132,-79.90236603639042,-0.0024886412924751,-0.0001544483843236,,8857.920509312844,10895.330121764337,150,3,2025-09-09,2025-09-26 18:27:14.429,AA,C,941578642,HAWK11,1,1,73,2,1,1,225,2,1,0,0,12,1,225,2,1,-145424.19763358062,-4787511.471650924,4202851.366667271,-2.14872,0.0321177,-0.0963532,121.75,5.875,18.625,-0.015625,-4.35938,4.82812,-0.0957031,-0.0253906,0.0195312,4,0,41.45686064678995,-91.73986664389176,11242.591154427178,83.49634885795153,0.9804395972750384,8.46102629335782,187.339,8857.920509312844,10895.330121764337,150,True,21.311826355135146,False,160.5025688555212,168.3939412940216,False,31.057079381694745,False,False
3,1970-07-23 09:47:04.337537066,2025-09-09,2025-09-26 18:27:13.753,AA,C,3656863250,JASSM,3,135,76,2,2,1,225,9,2,0,1,26,0,0,0,0,-109072.39324342164,-4797792.252027807,4191712.728971959,2.29982,3.00181,-0.131922,-81.75,11.5,11.0,0.0,0.0,0.0,0.0,0.0,0.0,2,0,41.32624645815222,-91.30233056754062,10000.001807467032,-79.90788859896328,-0.0045009219955527,-0.0001553940738722,,8857.920509312844,10895.330121764337,150,3,2025-09-09,2025-09-26 18:27:14.429,AA,C,941578642,HAWK11,1,1,73,2,1,1,225,2,1,0,0,12,1,225,2,1,-145424.19763358062,-4787511.471650924,4202851.366667271,-2.14872,0.0321177,-0.0963532,121.75,5.875,18.625,-0.015625,-4.35938,4.82812,-0.0957031,-0.0253906,0.0195312,4,0,41.45686064678995,-91.73986664389176,11242.591154427178,83.49634885795153,0.9804395972750384,8.46102629335782,187.339,8857.920509312844,10895.330121764337,150,True,21.214915642255953,False,160.5025688555212,168.34011037949952,False,31.11077578547321,False,False
3,1970-07-23 09:47:04.338313948,2025-09-09,2025-09-26 18:27:13.831,AA,C,3655610150,JASSM,3,135,76,2,2,1,225,9,2,0,1,26,0,0,0,0,-108986.32097779664,-4797804.362379369,4191701.183073521,2.29982,3.00181,-0.131922,-81.75,11.5,11.0,0.0,0.0,0.0,0.0,0.0,0.0,2,0,41.32610809329248,-91.30129992977686,9999.999539650657,-79.90720802268869,-0.0052871627633819,-0.0001547984899786,,8857.920509312844,10895.330121764337,150,3,2025-09-09,2025-09-26 18:27:14.429,AA,C,941578642,HAWK11,1,1,73,2,1,1,225,2,1,0,0,12,1,225,2,1,-145424.19763358062,-4787511.471650924,4202851.366667271,-2.14872,0.0321177,-0.0963532,121.75,5.875,18.625,-0.015625,-4.35938,4.82812,-0.0957031,-0.0253906,0.0195312,4,0,41.45686064678995,-91.73986664389176,11242.591154427178,83.49634885795153,0.9804395972750384,8.46102629335782,187.339,8857.920509312844,10895.330121764337,150,True,21.261177049564186,False,160.5025688555212,168.36587025681382,False,31.085080201313875,False,False
