Subject_cm,Timestamp,SampleDate_cm,SampleTime_cm,Configuration_cm,Scenario_cm,DisTime_cm,MarkingTxt_cm,Application_cm,EntId_cm,Site_cm,ExerciseId_cm,ForceId_cm,Category_cm,Country_cm,Domain_cm,Kind_cm,Extra_cm,Specific_cm,Subcategory_cm,AltCategory_cm,AltCountry_cm,AltDomain_cm,AltKind_cm,ECEF_X_cm,ECEF_Y_cm,ECEF_Z_cm,OriPhi_cm,OriPsi_cm,OriTheta_cm,LinVelX_cm,LinVelY_cm,LinVelZ_cm,LinAccX_cm,LinAccY_cm,LinAccZ_cm,AngVelX_cm,AngVelY_cm,AngVelZ_cm,DrAlg_cm,Appearance_cm,Latitude_cm,Longitude_cm,Altitude_cm,Heading_cm,Pitch_cm,Roll_cm,CalibratedAirspeed_cm,CM_Altitude_Lead_cm,CM_Altitude_Wing_cm,CM_Airspeed_cm,Subject_ac,SampleDate_ac,SampleTime_ac,Configuration_ac,Scenario_ac,DisTime_ac,MarkingTxt_ac,Application_ac,EntId_ac,Site_ac,ExerciseId_ac,ForceId_ac,Category_ac,Country_ac,Domain_ac,Kind_ac,Extra_ac,Specific_ac,Subcategory_ac,AltCategory_ac,AltCountry_ac,AltDomain_ac,AltKind_ac,ECEF_X_ac,ECEF_Y_ac,ECEF_Z_ac,OriPhi_ac,OriPsi_ac,OriTheta_ac,LinVelX_ac,LinVelY_ac,LinVelZ_ac,LinAccX_ac,LinAccY_ac,LinAccZ_ac,AngVelX_ac,AngVelY_ac,AngVelZ_ac,DrAlg_ac,Appearance_ac,Latitude_ac,Longitude_ac,Altitude_ac,Heading_ac,Pitch_ac,Roll_ac,CalibratedAirspeed_ac,CM_Altitude_Lead_ac,CM_Altitude_Wing_ac,CM_Airspeed_ac,Bank_Angle_Condition,distance_nm,Distance_Condition,angle_between_vel,angle_between_pos,Cone_Condition,angle_between_pos_nose,Nose_Cone_Condition,Intercept_Criteria
3,1970-07-23 10:29:32.269337795,2025-09-12,2025-09-26 17:13:46.933,AH,C,1468876740,JASSM,3,103,76,2,2,1,225,9,2,0,1,26,0,0,0,0,-173016.35339529935,-4769784.438447799,4221222.862761021,-2.51458,-0.703426,0.607361,57.125,-48.375,-52.0,0.0,0.0,0.0,0.0,0.0,0.0,2,0,41.68085714093543,-92.07740258193536,10002.623220827292,139.8281707036674,-0.0013859178510165,0.0009621283976332,,9006.830035856614,10864.345111209012,150,3,2025-09-12,2025-09-26 17:13:46.986,AH,C,657680848,AMBUSH51,1,1,48,2,1,1,225,2,1,0,0,9,1,225,2,1,-149824.2069052421,-4792034.128240135,4196543.438506899,2.55143,2.67419,-0.442166,-94.3275,45.4899,46.6023,-0.20101,-7.31807,6.47639,0.00815073,0.00580174,0.0368962,4,0,41.3865692386511,-91.79078425512954,9005.358610182284,-55.00675382493549,-0.2046967554011045,9.032482638563016,191.249,9006.830035856614,10864.345111209012,150,True,21.83445367532299,False,163.40624137050693,176.03770269375457,False,20.5250874274027,True,False
3,1970-07-23 10:29:32.278239123,2025-09-12,2025-09-26 17:13:47.823,AH,C,1469950484,JASSM,3,103,76,2,2,1,225,9,2,0,1,26,0,0,0,0,-172964.89489920562,-4769828.090791549,4221175.960417271,-2.51458,-0.703426,0.607361,57.125,-48.375,-52.0,0.0,0.0,0.0,0.0,0.0,0.0,2,0,41.68029200409885,-92.07676627269792,10002.619918158118,139.8285938348137,-0.0006475228886814,0.0009607058218277,,9006.830035856614,10864.345111209012,150,3,2025-09-12,2025-09-26 17:13:47.754,AH,C,658595480,AMBUSH51,1,1,48,2,1,1,225,2,1,0,0,9,1,225,2,1,-149896.07336950875,-4791998.7488399865,4196579.750998764,2.53912,2.66071,-0.450357,-93.693,46.5646,47.2786,-0.173107,-7.17866,6.79115,-0.0701337,0.0071999,0.013864,4,0,41.38701148827243,-91.79165590343462,9002.609496069535,-54.17715503523445,-0.3309659643795876,7.989919991238302,191.628,9006.830035856614,10864.345111209012,150,True,21.74589872048232,False,164.08088018543575,175.98739015131457,False,19.906421035127888,True,False
3,1970-07-23 10:29:32.287279107,2025-09-12,2025-09-26 17:13:48.727,AH,C,1471083858,JASSM,3,103,76,2,2,1,225,9,2,0,1,26,0,0,0,0,-172910.57898123687,-4769874.168916549,4221126.452604771,-2.51458,-0.703426,0.607456,57.125,-48.375,-52.0,0.0,0.0,0.0,0.0,0.0,0.0,2,0,41.679695464154335,-92.07609464133964,10002.622392066283,139.83226238519745,-0.0043150650792785,0.0009590755004887,,9006.830035856614,10864.345111209012,150,3,2025-09-12,2025-09-26 17:13:48.520,AH,C,659510112,AMBUSH51,1,1,48,2,1,1,225,2,1,0,0,9,1,225,2,1,-149967.5263381185,-4791963.009304179,4196616.467212346,2.48844,2.65295,-0.455824,-93.2537,47.0037,48.0593,-0.0695373,-7.23591,6.71696,-0.06632,-0.00080415,0.0119686,4,0,41.38745867634616,-91.79252275922744,8999.822211822064,-53.67145706199988,-0.3684039791458818,4.888755564470298,191.946,9006.830035856614,10864.345111209012,150,True,21.654795029960123,False,164.56670263000763,175.93711583992774,False,19.46913867033054,True,False
3,1970-07-23 10:29:32.296320672,2025-09-12,2025-09-26 17:13:49.632,AH,C,1472157618,JASSM,3,103,76,2,2,1,225,9,2,0,1,26,0,0,0,0,-172859.11999686187,-4769917.821260299,4221079.550261021,-2.51458,-0.703426,0.607456,57.125,-48.375,-52.0,0.0,0.0,0.0,0.0,0.0,0.0,2,0,41.67913032006812,-92.07545834913128,10002.626188366996,139.8326854954541,-0.003576667147533,0.0009576978161888,,9006.830035856614,10864.345111209012,150,3,2025-09-12,2025-09-26 17:13:49.420,AH,C,660583812,AMBUSH51,1,1,48,2,1,1,225,2,1,0,0,9,1,225,2,1,-150051.53172223072,-4791920.305503395,4196660.376318676,2.40119,2.64823,-0.455085,-93.2661,47.4361,48.6612,0.082336,-7.34691,6.68171,-0.066114,-0.000727168,0.00303247,4,0,41.38799350980211,-91.79354217087428,8996.474482014306,-53.520603725122136,-0.5623422746907166,-0.2307163121064404,192.215,9006.830035856614,10864.345111209012,150,True,21.557890495797956,False,164.86142932350387,175.8802854773231,False,19.23062553635801,True,False
3,1970-07-23 10:29:32.306216875,2025-09-12,2025-09-26 17:13:50.621,AH,C,1473291012,JASSM,3,103,76,2,2,1,225,9,2,0,1,26,0,0,0,0,-172804.80261404935,-4769963.899385299,4221030.038542271,-2.51458,-0.703426,0.607456,57.125,-48.375,-52.0,0.0,0.0,0.0,0.0,0.0,0.0,2,0,41.67853374642222,-92.0747867243584,10002.627549512705,139.83313209542655,-0.0027972274058034,0.0009562221950249,,9006.830035856614,10864.345111209012,150,3,2025-09-12,2025-09-26 17:13:50.653,AH,C,662055176,AMBUSH51,1,1,48,2,1,1,225,2,1,0,0,9,1,225,2,1,-150167.33855632486,-4791861.519680887,4196721.08138533,2.32392,2.64897,-0.450736,-93.7364,47.4485,48.807,-0.0811686,-7.20487,6.63702,-0.0899119,-0.00174874,-0.00163015,4,0,41.38873146902046,-91.79494749194345,8992.451904710017,-53.71717979851614,-0.7200034975538531,-4.637012064869088,192.948,9006.830035856614,10864.345111209012,150,True,21.43855209631973,False,164.7729794290073,175.80396550761847,False,19.394208142488683,True,False
3,1970-07-23 10:29:32.315259552,2025-09-12,2025-09-26 17:13:51.525,AH,C,1474424408,JASSM,3,103,76,2,2,1,225,9,2,0,1,26,0,0,0,0,-172750.48571951812,-4770009.973604049,4220980.526823521,-2.51448,-0.703426,0.607456,57.125,-48.375,-52.0,0.0,0.0,0.0,0.0,0.0,0.0,2,0,41.67793719204373,-92.07411511954528,10002.623259870732,139.83357867688332,-0.0020178089925992,0.0064462293308903,,9006.830035856614,10864.345111209012,150,3,2025-09-12,2025-09-26 17:13:51.554,AH,C,663128876,AMBUSH51,1,1,48,2,1,1,225,2,1,0,0,9,1,225,2,1,-150251.80323837965,-4791819.141683797,4196764.774483543,2.27296,2.65788,-0.446717,-94.3994,47.0906,48.416,-0.116809,-7.28966,6.81915,-0.027727,0.00238748,-0.00842329,4,0,41.38926279928744,-91.79597230848732,8989.485797676767,-54.21289916833383,-0.5796509002607423,-7.329676000456937,193.473,9006.830035856614,10864.345111209012,150,True,21.339274262313072,False,164.36938870570174,175.74463310290164,False,19.85666943189303,True,False
3,1970-07-23 10:29:32.324300519,2025-09-12,2025-09-26 17:13:52.430,AH,C,1475498150,JASSM,3,103,76,2,2,1,225,9,2,0,1,26,0,0,0,0,-172699.02722342435,-4770053.622041549,4220933.620573521,-2.51448,-0.70333,0.607456,57.125,-48.375,-52.0,0.0,0.0,0.0,0.0,0.0,0.0,2,0,41.67737203382411,-92.07347886952871,10002.619822113946,139.8303504124314,-0.0039250521293762,0.0033105846569325,,9006.830035856614,10864.345111209012,150,3,2025-09-12,2025-09-26 17:13:52.420,AH,C,664162808,AMBUSH51,1,1,48,2,1,1,225,2,1,0,0,9,1,225,2,1,-150333.2789814738,-4791778.984754273,4196806.200217211,2.26759,2.66828,-0.437993,-95.1875,46.6693,47.9215,-0.0453828,-7.16117,6.76426,0.00558328,0.00508601,-0.00748494,4,0,41.38976615822168,-91.7969606057188,8986.840357959401,-54.94844481606869,-0.5824806486900177,-7.374757408580507,193.901,9006.830035856614,10864.345111209012,150,True,21.24478701030295,False,163.88355858962765,175.68621427815958,False,20.40067463026934,True,False
3,1970-07-23 10:29:32.334313897,2025-09-12,2025-09-26 17:13:53.431,AH,C,1476691194,JASSM,3,103,76,2,2,1,225,9,2,0,1,26,0,0,0,0,-172641.85144217435,-4770102.122041549,4220881.503386021,-2.51448,-0.70333,0.607456,57.125,-48.375,-52.0,0.0,0.0,0.0,0.0,0.0,0.0,2,0,41.67674407143294,-92.07277194127344,10002.626251659043,139.83082047127996,-0.0031046092305944,0.0033089897971824,,9006.830035856614,10864.345111209012,150,3,2025-09-12,2025-09-26 17:13:53.220,AH,C,665117206,AMBUSH51,1,1,48,2,1,1,225,2,1,0,0,9,1,225,2,1,-150409.74650200657,-4791741.850475442,4196844.399766453,2.27911,2.6729,-0.43125,-95.9401,46.3003,47.5108,-0.0283469,-7.29569,6.70365,0.0134916,-0.0115525,-0.00358382,4,0,41.39023068198724,-91.79788795970248,8984.251099254549,-55.38783657596324,-0.7021056106433025,-6.598203579959918,194.17,9006.830035856614,10864.345111209012,150,True,21.148904970008946,False,163.4494720201827,175.62861760247665,False,20.891927317080256,True,False
3,1970-07-23 10:29:32.344355108,2025-09-12,2025-09-26 17:13:54.435,AH,C,1477824590,JASSM,3,103,76,2,2,1,225,9,2,0,1,26,0,0,0,0,-172587.53405936187,-4770148.192354049,4220831.991667271,-2.51448,-0.70333,0.607456,57.125,-48.375,-52.0,0.0,0.0,0.0,0.0,0.0,0.0,2,0,41.67614752856024,-92.07210036950984,10002.62396708314,139.83126701510227,-0.0023252065944562,0.003307492611949,,9006.830035856614,10864.345111209012,150,3,2025-09-12,2025-09-26 17:13:54.486,AH,C,666628338,AMBUSH51,1,1,48,2,1,1,225,2,1,0,0,9,1,225,2,1,-150532.08264533314,-4791683.330588472,4196904.62292981,2.32275,2.69146,-0.423488,-96.6643,45.5024,47.2525,-0.190981,-7.35908,6.90739,0.0989312,-0.00263299,-0.0161943,4,0,41.39096253309748,-91.79937127613222,8980.374444399218,-56.399524807674894,-0.3654331389495203,-3.647906480566727,194.695,9006.830035856614,10864.345111209012,150,True,21.027958403756514,False,162.95994147807946,175.54107035618736,False,21.46277747025781,True,False
3,1970-07-23 10:29:32.353239605,2025-09-12,2025-09-26 17:13:55.323,AH,C,1478898332,JASSM,3,103,76,2,2,1,225,9,2,0,1,26,0,0,0,0,-172536.07556326812,-4770191.840791549,4220785.081511021,-2.51448,-0.70333,0.607456,57.125,-48.375,-52.0,0.0,0.0,0.0,0.0,0.0,0.0,2,0,41.67558233275493,-92.071464154745,10002.62301097721,139.83169004439114,-0.0015867895774242,0.0033060445574636,,9006.830035856614,10864.345111209012,150,3,2025-09-12,2025-09-26 17:13:55.286,AH,C,667582738,AMBUSH51,1,1,48,2,1,1,225,2,1,0,0,9,1,225,2,1,-150608.44998885065,-4791646.994920955,4196942.141586811,2.38821,2.69512,-0.420507,-96.7908,45.6637,47.1918,-0.165546,-7.12356,6.58503,0.0411635,0.00386054,-0.00219607,4,0,41.39141770886378,-91.80029716832904,8978.276625410439,-56.65670777305118,-0.3574682841045101,0.1903766692150084,194.659,9006.830035856614,10864.345111209012,150,True,20.93752256512424,False,162.94905805409527,175.4825482763578,False,21.534700006587016,True,False
3,1970-07-23 10:29:32.362297137,2025-09-12,2025-09-26 17:13:56.229,AH,C,1479972074,JASSM,3,103,76,2,2,1,225,9,2,0,1,26,0,0,0,0,-172484.61706717435,-4770235.485322799,4220738.175261021,-2.51448,-0.70333,0.607456,57.125,-48.375,-52.0,0.0,0.0,0.0,0.0,0.0,0.0,2,0,41.67501718298771,-92.07082795280635,10002.624484779952,139.832113060445,-0.0008484112179189,0.0033046275187741,,9006.830035856614,10864.345111209012,150,3,2025-09-12,2025-09-26 17:13:56.220,AH,C,668696202,AMBUSH51,1,1,48,2,1,1,225,2,1,0,0,9,1,225,2,1,-150698.51631029998,-4791604.329192741,4196986.035654767,2.41972,2.69151,-0.428565,-96.8698,45.777,47.5121,-0.0851642,-7.50166,6.83135,0.0226837,-0.0055375,0.0183789,4,0,41.391951012473015,-91.8013890957731,8975.50082589233,-56.20329867632904,-0.1500472861344437,1.9085415892862063,194.854,9006.830035856614,10864.345111209012,150,True,20.83897801288022,False,163.0557150892731,175.41424833025633,False,21.494753579579324,True,False
3,1970-07-23 10:29:32.373324050,2025-09-12,2025-09-26 17:13:57.332,AH,C,1481284424,JASSM,3,103,76,2,2,1,225,9,2,0,1,26,0,0,0,0,-172421.72351248687,-4770288.832979049,4220680.839323521,-2.51448,-0.70333,0.607552,57.125,-48.375,-52.0,0.0,0.0,0.0,0.0,0.0,0.0,2,0,41.674326372692256,-92.07005038784544,10002.628393041045,139.83585424766886,-0.0043954394360969,0.0033027302561266,,9006.830035856614,10864.345111209012,150,3,2025-09-12,2025-09-26 17:13:57.354,AH,C,670048268,AMBUSH51,1,1,48,2,1,1,225,2,1,0,0,9,1,225,2,1,-150808.46870154713,-4791551.870096295,4197040.552343539,2.44205,2.68997,-0.435193,-96.476,46.1163,48.0664,-0.248505,-7.39975,6.7752,0.00351308,0.00228969,0.00733306,4,0,41.39261055773026,-91.80272227868248,8973.2225446386,-55.88555492309873,0.0727848927275587,3.1503734957229006,195.38,9006.830035856614,10864.345111209012,150,True,20.718228533252173,False,163.4231130172926,175.33082856917014,False,21.209700798649592,True,False
3,1970-07-23 10:29:32.384338798,2025-09-12,2025-09-26 17:13:58.433,AH,C,1482596774,JASSM,3,103,76,2,2,1,225,9,2,0,1,26,0,0,0,0,-172358.82946951812,-4770342.172822799,4220623.503386021,-2.51448,-0.70333,0.607552,57.125,-48.375,-52.0,0.0,0.0,0.0,0.0,0.0,0.0,2,0,41.67363560387477,-92.06927283704196,10002.61831611824,139.83637123449137,-0.0034929602442868,0.0033010375076153,,9006.830035856614,10864.345111209012,150,3,2025-09-12,2025-09-26 17:13:58.386,AH,C,671281034,AMBUSH51,1,1,48,2,1,1,225,2,1,0,0,9,1,225,2,1,-150907.02258797386,-4791504.511797983,4197089.892130897,2.43137,2.68286,-0.439747,-96.299,46.2436,48.7097,-0.255754,-7.15845,6.58933,-0.0251638,-0.00149699,0.0039292,4,0,41.39320692918539,-91.80391740380082,8971.38776800594,-55.438755814325866,0.0119750476273005,2.366217240098695,195.465,9006.830035856614,10864.345111209012,150,True,20.604190661086797,False,163.70024197353925,175.25442674206673,False,21.00408139920633,True,False
3,1970-07-23 10:29:32.395457260,2025-09-12,2025-09-26 17:13:59.545,AH,C,1483909126,JASSM,3,103,76,2,2,1,225,9,2,0,1,26,0,0,0,0,-172295.93591483062,-4770395.516572799,4220566.167448521,-2.51448,-0.70333,0.607552,57.125,-48.375,-52.0,0.0,0.0,0.0,0.0,0.0,0.0,2,0,41.6729448062505,-92.06849530702888,10002.623039381328,139.83688820046277,-0.0025904650187295,0.0032993272182797,,9006.830035856614,10864.345111209012,150,3,2025-09-12,2025-09-26 17:13:59.520,AH,C,672633098,AMBUSH51,1,1,48,2,1,1,225,2,1,0,0,9,1,225,2,1,-151017.0142242645,-4791451.144258422,4197145.5459230775,2.3788,2.67727,-0.44309,-96.2786,46.6752,48.9309,-0.256258,-7.21924,6.82532,-0.0857153,-0.00144705,-0.00303039,4,0,41.39387951898039,-91.8052514493264,8969.361967069726,-55.09743592843144,-0.0439619578941839,-0.7822367992751325,195.954,9006.830035856614,10864.345111209012,150,True,20.482863002235064,False,163.88621071015987,175.17026179387457,False,20.90556472221989,True,False
3,1970-07-23 10:29:32.405217641,2025-09-12,2025-09-26 17:14:00.521,AH,C,1485161826,JASSM,3,103,76,2,2,1,225,9,2,0,1,26,0,0,0,0,-172235.90075858062,-4770446.430635299,4220511.436979771,-2.51448,-0.70333,0.607552,57.125,-48.375,-52.0,0.0,0.0,0.0,0.0,0.0,0.0,2,0,41.67228542857381,-92.06775313216043,10002.618629773517,139.83738165286533,-0.0017290100667067,0.0032977122964715,,9006.830035856614,10864.345111209012,150,3,2025-09-12,2025-09-26 17:14:00.686,AH,C,674024930,AMBUSH51,1,1,48,2,1,1,225,2,1,0,0,9,1,225,2,1,-151129.40723801704,-4791396.472440444,4197202.554518987,2.30944,2.6747,-0.442342,-96.7108,46.5005,48.9659,-0.0957576,-7.26262,6.65528,-0.0370939,-0.00232298,0.00200049,4,0,41.39456854826392,-91.8066147013232,8967.262417113387,-55.02998135749638,-0.1647419421543969,-4.819764314282734,196.443,9006.830035856614,10864.345111209012,150,True,20.362469151268666,False,163.73016098488475,175.08424010210322,False,21.145217154587353,True,False
3,1970-07-23 10:29:32.416245429,2025-09-12,2025-09-26 17:14:01.624,AH,C,1486474176,JASSM,3,103,76,2,2,1,225,9,2,0,1,26,0,0,0,0,-172173.00671561187,-4770499.770479049,4220454.101042271,-2.51448,-0.703234,0.607552,57.125,-48.375,-52.0,0.0,0.0,0.0,0.0,0.0,0.0,2,0,41.67159464396961,-92.06697563047824,10002.623888400436,139.8342453726486,-0.0034738401549618,0.0001593480810201,,9006.830035856614,10864.345111209012,150,3,2025-09-12,2025-09-26 17:14:01.486,AH,C,674979330,AMBUSH51,1,1,48,2,1,1,225,2,1,0,0,9,1,225,2,1,-151206.7295274855,-4791359.127496916,4197241.470216091,2.2911,2.67926,-0.435545,-97.1721,46.3442,48.6636,-0.00805543,-7.07584,6.52818,-0.0104581,-0.00972782,-0.010067,4,0,41.39503892267393,-91.80755248503236,8965.821305803445,-55.46889388485362,-0.2881685405846826,-5.757583561040676,196.59,9006.830035856614,10864.345111209012,150,True,20.261356792064962,False,163.4708755744671,175.0195976605552,False,21.470495716832943,True,False
3,1970-07-23 10:29:32.427255128,2025-09-12,2025-09-26 17:14:02.725,AH,C,1487726876,JASSM,3,103,76,2,2,1,225,9,2,0,1,26,0,0,0,0,-172112.97155936187,-4770550.684541549,4220399.366667271,-2.51448,-0.703234,0.607552,57.125,-48.375,-52.0,0.0,0.0,0.0,0.0,0.0,0.0,2,0,41.67093523006643,-92.06623348662674,10002.620642029224,139.83473879139413,-0.0026123650383635,0.0001576612382239,,9006.830035856614,10864.345111209012,150,3,2025-09-12,2025-09-26 17:14:02.686,AH,C,676410928,AMBUSH51,1,1,48,2,1,1,225,2,1,0,0,9,1,225,2,1,-151323.3745117389,-4791303.236761914,4197299.473115584,2.31762,2.68538,-0.432639,-97.884,46.0305,48.2886,-0.200757,-7.27541,6.84123,0.0922213,-0.00024655,-0.000949792,4,0,41.39574108973521,-91.80896704151542,8963.227118113431,-55.815930353996166,-0.1914534858270798,-4.0893665673941255,196.968,9006.830035856614,10864.345111209012,150,True,20.139077836074552,False,163.0806311250297,174.92760888358998,False,21.952923065414158,True,False
3,1970-07-23 10:29:32.438295113,2025-09-12,2025-09-26 17:14:03.829,AH,C,1489039226,JASSM,3,103,76,2,2,1,225,9,2,0,1,26,0,0,0,0,-172050.07751639312,-4770604.024385299,4220342.026823521,-2.51448,-0.703234,0.607552,57.125,-48.375,-52.0,0.0,0.0,0.0,0.0,0.0,0.0,2,0,41.67024440876195,-92.06545601743848,10002.627525291597,139.83525568952933,-0.0017098653560699,0.0001558938594159,,9006.830035856614,10864.345111209012,150,3,2025-09-12,2025-09-26 17:14:03.853,AH,C,677802760,AMBUSH51,1,1,48,2,1,1,225,2,1,0,0,9,1,225,2,1,-151436.90167036292,-4791249.675588228,4197354.95968633,2.37714,2.69185,-0.428067,-98.2709,45.9045,48.2125,-0.382877,-7.20859,6.97446,0.0296058,0.00242909,-0.00240829,4,0,41.39641297931372,-91.81034350209158,8960.67214793857,-56.24179312791796,-0.1505498525301128,-0.5229842281775188,197.225,9006.830035856614,10864.345111209012,150,True,20.016868277663058,False,162.91947940641535,174.83491784903427,False,22.206189772109603,True,False
3,1970-07-23 10:29:32.450558960,2025-09-12,2025-09-26 17:14:05.055,AH,C,1490351578,JASSM,3,103,76,2,2,1,225,9,2,0,1,26,0,0,0,0,-171987.18347342435,-4770657.360322799,4220284.686979771,-2.51448,-0.703234,0.607552,57.125,-48.375,-52.0,0.0,0.0,0.0,0.0,0.0,0.0,2,0,41.66955360547192,-92.06467856656388,10002.63003219327,139.83577256845865,-0.0008073842282207,0.0001541405498033,,9006.830035856614,10864.345111209012,150,3,2025-09-12,2025-09-26 17:14:05.053,AH,C,679234358,AMBUSH51,1,1,48,2,1,1,225,2,1,0,0,9,1,225,2,1,-151554.74013878463,-4791194.384839632,4197412.3698481005,2.40459,2.6858,-0.434835,-98.356,45.9503,48.4605,-0.15989,-7.18481,6.80201,-0.0112404,-0.00765555,0.00318227,4,0,41.397107316775454,-91.81177215044764,8958.381078705772,-55.74790714226147,-0.0819730899396141,0.9041422485192848,197.787,9006.830035856614,10864.345111209012,150,True,19.892271754674223,False,162.98263735839626,174.73775985056503,False,22.238362466502355,True,False
3,1970-07-23 10:29:32.460338730,2025-09-12,2025-09-26 17:14:06.033,AH,C,1491723580,JASSM,3,103,76,2,2,1,225,9,2,0,1,26,0,0,0,0,-171921.43054373687,-4770713.118135299,4220224.737761021,-2.51448,-0.703234,0.607648,57.125,-48.375,-52.0,0.0,0.0,0.0,0.0,0.0,0.0,2,0,41.66883139090661,-92.06386579506254,10002.625524897416,139.83953534712705,-0.0043104763097152,0.0001521864749554,,9006.830035856614,10864.345111209012,150,3,2025-09-12,2025-09-26 17:14:06.154,AH,C,680546656,AMBUSH51,1,1,48,2,1,1,225,2,1,0,0,9,1,225,2,1,-151663.48865661956,-4791142.945557303,4197465.930598112,2.35874,2.68065,-0.43631,-98.4864,46.3723,48.4898,-0.136896,-7.27443,6.6436,-0.0560668,0.00014044,-0.00667767,4,0,41.39775444851728,-91.8130907778628,8956.515062854654,-55.49554936066579,-0.201869881485264,-1.8484828818503745,198.056,9006.830035856614,10864.345111209012,150,True,19.770417473446937,False,163.0673006573245,174.6458394214777,False,22.250662353596866,True,False
3,1970-07-23 10:29:32.471216135,2025-09-12,2025-09-26 17:14:07.121,AH,C,1493035932,JASSM,3,103,76,2,2,1,225,9,2,0,1,26,0,0,0,0,-171858.5362566275,-4770766.450166549,4220167.394011021,-2.51448,-0.703234,0.607648,57.125,-48.375,-52.0,0.0,0.0,0.0,0.0,0.0,0.0,2,0,41.66814057383893,-92.06308837694834,10002.620539782343,139.84005219003035,-0.0034079920857767,0.0001504827286716,,9006.830035856614,10864.345111209012,150,3,2025-09-12,2025-09-26 17:14:07.053,AH,C,681620356,AMBUSH51,1,1,48,2,1,1,225,2,1,0,0,9,1,225,2,1,-151751.2029576923,-4791101.53357777,4197509.212297033,2.32293,2.68301,-0.438426,-98.707,45.996,48.6872,-0.179389,-7.30658,6.77193,-0.0172117,0.00179451,-0.00382517,4,0,41.39827648218943,-91.81415434517224,8955.383139875616,-55.503095019784666,-0.0286218230249103,-3.842442537581649,198.349,9006.830035856614,10864.345111209012,150,True,19.663726723696254,False,162.9671986745967,174.56857057501225,False,22.421418111157433,True,False
3,1970-07-23 10:29:32.482237505,2025-09-12,2025-09-26 17:14:08.223,AH,C,1494288630,JASSM,3,103,76,2,2,1,225,9,2,0,1,26,0,0,0,0,-171798.50085623687,-4770817.360322799,4220112.655729771,-2.51439,-0.703234,0.607648,57.125,-48.375,-52.0,0.0,0.0,0.0,0.0,0.0,0.0,2,0,41.6674811315896,-92.06234631119489,10002.623957962413,139.8405455234305,-0.0025465135808137,0.0056403151517944,,9006.830035856614,10864.345111209012,150,3,2025-09-12,2025-09-26 17:14:08.286,AH,C,683091720,AMBUSH51,1,1,48,2,1,1,225,2,1,0,0,9,1,225,2,1,-151872.65351191608,-4791044.473302479,4197568.770261624,2.30098,2.6891,-0.431847,-99.2065,45.9264,48.1787,-0.142488,-7.19318,6.65983,-0.0179087,-0.0034361,0.00864591,4,0,41.39899511819767,-91.815626899116,8953.708740536782,-55.992434053664525,-0.0863074538105159,-4.9527970152207645,198.789,9006.830035856614,10864.345111209012,150,True,19.539415161830227,False,162.66363689743176,174.46630983464416,False,22.832076300901193,True,False
3,1970-07-23 10:29:32.493255626,2025-09-12,2025-09-26 17:14:09.325,AH,C,1495660634,JASSM,3,103,76,2,2,1,225,9,2,0,1,26,0,0,0,0,-171732.74768240875,-4770873.114229049,4220052.706511021,-2.51439,-0.703234,0.607648,57.125,-48.375,-52.0,0.0,0.0,0.0,0.0,0.0,0.0,2,0,41.66675892367938,-92.06153359058348,10002.62614112865,139.8410858216008,-0.001603023311343,0.0056385472365647,,9006.830035856614,10864.345111209012,150,3,2025-09-12,2025-09-26 17:14:09.419,AH,C,684443786,AMBUSH51,1,1,48,2,1,1,225,2,1,0,0,9,1,225,2,1,-151985.9462850535,-4790992.162475647,4197623.148728865,2.3384,2.69542,-0.429533,-99.8043,45.5389,47.8219,-0.291141,-7.29377,6.80341,0.12513,-0.00101221,-0.00459915,4,0,41.39965205353116,-91.81700022426584,8951.853710842715,-56.32387683221351,0.0441630893855116,-2.6573440500889225,199.131,9006.830035856614,10864.345111209012,150,True,19.415841186795134,False,162.29588276189307,174.3659988598637,False,23.299318151302664,True,False
3,1970-07-23 10:29:32.504273920,2025-09-12,2025-09-26 17:14:10.427,AH,C,1496972986,JASSM,3,103,76,2,2,1,225,9,2,0,1,26,0,0,0,0,-171669.85339529935,-4770926.446260299,4219995.358854771,-2.51439,-0.703234,0.607648,57.125,-48.375,-52.0,0.0,0.0,0.0,0.0,0.0,0.0,2,0,41.666068064327945,-92.06075622233232,10002.628207806232,139.84160261026886,-0.0007005186915929,0.0056368264624393,,9006.830035856614,10864.345111209012,150,3,2025-09-12,2025-09-26 17:14:10.286,AH,C,685477718,AMBUSH51,1,1,48,2,1,1,225,2,1,0,0,9,1,225,2,1,-152071.5467756414,-4790952.796039453,4197664.11420821,2.41661,2.70184,-0.42511,-99.8282,45.5962,47.9261,-0.114963,-7.24267,6.58268,0.035134,0.00214197,0.000517028,4,0,41.40014664445074,-91.81803782456356,8950.584096580169,-56.7419603241711,0.0913198637217144,1.9754280870185217,199.168,9006.830035856614,10864.345111209012,150,True,19.31129327439951,False,162.33585943597313,174.2858573090612,False,23.339272721585818,True,False
3,1970-07-23 10:29:32.516575764,2025-09-12,2025-09-26 17:14:11.657,AH,C,1498225684,JASSM,3,103,76,2,2,1,225,9,2,0,1,26,0,0,0,0,-171609.81775076812,-4770977.348604049,4219940.616667271,-2.51439,-0.703138,0.607648,57.125,-48.375,-52.0,0.0,0.0,0.0,0.0,0.0,0.0,2,0,41.66540862728543,-92.06001420461804,10002.61881356001,139.8384453373123,-0.0024847445332908,0.0024999826435938,,9006.830035856614,10864.345111209012,150,3,2025-09-12,2025-09-26 17:14:11.753,AH,C,687227450,AMBUSH51,1,1,48,2,1,1,225,2,1,0,0,9,1,225,2,1,-152217.52812225957,-4790885.064337296,4197734.856359091,2.50526,2.6885,-0.439912,-99.2946,46.0668,49.1592,-0.175789,-7.17609,6.70031,-0.00274326,-0.000302727,0.00500487,4,0,41.40099958362317,-91.81980759033269,8948.873356226653,-55.65644264093682,0.2331742601707083,6.737748881296984,199.388,9006.830035856614,10864.345111209012,150,True,19.173003954833028,False,162.96661289553754,174.16038883017288,False,22.826630169812802,True,False
3,1970-07-23 10:29:32.526315187,2025-09-12,2025-09-26 17:14:12.631,AH,C,1499538036,JASSM,3,103,76,2,2,1,225,9,2,0,1,26,0,0,0,0,-171546.92346365875,-4771030.676729049,4219883.269011021,-2.51439,-0.703138,0.607648,57.125,-48.375,-52.0,0.0,0.0,0.0,0.0,0.0,0.0,2,0,41.664717780849806,-92.0592368705358,10002.621457883712,139.83896208960783,-0.0015822584723114,0.0024982184071024,,9006.830035856614,10864.345111209012,150,3,2025-09-12,2025-09-26 17:14:12.654,AH,C,688301148,AMBUSH51,1,1,48,2,1,1,225,2,1,0,0,9,1,225,2,1,-152306.91016524582,-4790842.448376752,4197779.50972187,2.48344,2.67893,-0.446442,-98.6361,46.991,49.6717,0.0226678,-7.14981,6.40094,-0.0668714,-0.00699392,0.0078428,4,0,41.40153766247589,-91.82089164745038,8947.92300177593,-55.03962174247231,0.1689117800484542,5.254283785746243,199.571,9006.830035856614,10864.345111209012,150,True,19.06522499745813,False,163.53822490597912,174.0772842432264,False,22.34478085482188,True,False
3,1970-07-23 10:29:32.541358838,2025-09-12,2025-09-26 17:14:14.135,AH,C,1500790734,JASSM,3,103,76,2,2,1,225,9,2,0,1,26,0,0,0,0,-171486.8878191275,-4771081.579072799,4219828.526823521,-2.51439,-0.703138,0.607744,57.125,-48.375,-52.0,0.0,0.0,0.0,0.0,0.0,0.0,2,0,41.66405833384342,-92.05849488382654,10002.62174762343,139.8426800104496,-0.0051699828127915,0.0024963709026156,,9006.830035856614,10864.345111209012,150,3,2025-09-12,2025-09-26 17:14:14.119,AH,C,690050880,AMBUSH51,1,1,48,2,1,1,225,2,1,0,0,9,1,225,2,1,-152451.28556335764,-4790773.29625663,4197852.189772282,2.3223,2.6662,-0.454845,-98.5014,47.0895,49.8908,0.0406897,-7.23182,6.50793,-0.0930224,-0.00885605,-0.00637598,4,0,41.40241239460455,-91.822642841676,8946.823295729913,-54.232038515029714,0.0776579562861582,-4.293922741638685,199.645,9006.830035856614,10864.345111209012,150,True,18.926468000937156,False,163.6646435596475,173.9529535332975,False,22.341898426391154,True,False
3,1970-07-23 10:29:32.547213722,2025-09-12,2025-09-26 17:14:14.721,AH,C,1502103084,JASSM,3,103,76,2,2,1,225,9,2,0,1,26,0,0,0,0,-171423.9932878775,-4771134.907197799,4219771.175261021,-2.51439,-0.703138,0.607744,57.125,-48.375,-52.0,0.0,0.0,0.0,0.0,0.0,0.0,2,0,41.663367450761626,-92.0577175792978,10002.625996281708,139.84319672949323,-0.0042674750002544,0.0024946421688715,,9006.830035856614,10864.345111209012,150,3,2025-09-12,2025-09-26 17:14:14.886,AH,C,690965512,AMBUSH51,1,1,48,2,1,1,225,2,1,0,0,9,1,225,2,1,-152526.9622857094,-4790737.213282427,4197890.132746819,2.2464,2.67387,-0.447358,-98.9582,46.6516,49.578,-0.112931,-7.27102,6.58301,-0.0922941,0.00221271,-0.0141345,4,0,41.40286887599233,-91.8235607150838,8946.324205085592,-54.81425547829462,0.031885935759387,-8.451859768165555,199.791,9006.830035856614,10864.345111209012,150,True,18.82700345160535,False,163.33437467516973,173.87814918483116,False,22.74482233468075,True,False
3,1970-07-23 10:29:32.558255821,2025-09-12,2025-09-26 17:14:15.825,AH,C,1503355784,JASSM,3,103,76,2,2,1,225,9,2,0,1,26,0,0,0,0,-171363.95764334625,-4771185.805635299,4219716.433073521,-2.51439,-0.703138,0.607744,57.125,-48.375,-52.0,0.0,0.0,0.0,0.0,0.0,0.0,2,0,41.66270801714618,-92.0569756252753,10002.626402002868,139.84368994246236,-0.0034060303317636,0.0024930229601366,,9006.830035856614,10864.345111209012,150,3,2025-09-12,2025-09-26 17:14:15.986,AH,C,692277812,AMBUSH51,1,1,48,2,1,1,225,2,1,0,0,9,1,225,2,1,-152635.71482965315,-4790686.283265727,4197943.391079442,2.18924,2.68055,-0.435168,-100.036,46.0523,48.2452,-0.0133613,-7.27439,6.41454,-0.0189345,0.00355054,-0.0159426,4,0,41.40351080077384,-91.82487943192714,8945.13449569309,-55.54411023743765,-0.2427808531235178,-11.562071185782155,199.767,9006.830035856614,10864.345111209012,150,False,18.710776477487528,False,162.49621267409483,173.776449808362,False,23.691853466368944,True,False
3,1970-07-23 10:29:32.569254221,2025-09-12,2025-09-26 17:14:16.925,AH,C,1504668136,JASSM,3,103,76,2,2,1,225,9,2,0,1,26,0,0,0,0,-171301.06311209625,-4771239.129854049,4219659.077604771,-2.51439,-0.703138,0.607744,57.125,-48.375,-52.0,0.0,0.0,0.0,0.0,0.0,0.0,2,0,41.66201712071895,-92.05619835490856,10002.622708728191,139.84420662505838,-0.0025035208942016,0.0024912913295416,,9006.830035856614,10864.345111209012,150,3,2025-09-12,2025-09-26 17:14:16.752,AH,C,693192444,AMBUSH51,1,1,48,2,1,1,225,2,1,0,0,9,1,225,2,1,-152712.5644976521,-4790651.00589183,4197980.079690099,2.22336,2.68917,-0.425534,-100.778,45.3676,47.5647,-0.277783,-7.42928,6.59361,0.0624834,0.00260178,-0.020832,4,0,41.403953781220245,-91.8258110438399,8943.997631900967,-56.24974601548505,-0.3380630696281714,-9.39748034143466,200.097,9006.830035856614,10864.345111209012,150,True,18.611718556901433,False,161.91854540187484,173.69684141363956,False,24.347947002794204,True,False
3,1970-07-23 10:29:32.580295444,2025-09-12,2025-09-26 17:14:18.029,AH,C,1506040138,JASSM,3,103,76,2,2,1,225,9,2,0,1,26,0,0,0,0,-171235.30944998687,-4771294.875947799,4219599.116667271,-2.51439,-0.703138,0.607744,57.125,-48.375,-52.0,0.0,0.0,0.0,0.0,0.0,0.0,2,0,41.66129483668165,-92.05538576921754,10002.62307316316,139.84474677564194,-0.0015600041048301,0.0024894969491683,,9006.830035856614,10864.345111209012,150,3,2025-09-12,2025-09-26 17:14:18.053,AH,C,694743342,AMBUSH51,1,1,48,2,1,1,225,2,1,0,0,9,1,225,2,1,-152843.29588987984,-4790592.077897662,4198041.062250737,2.37745,2.71126,-0.414853,-101.173,44.6627,46.9632,-0.437572,-7.59089,6.82802,0.16288,0.00520253,-0.00498615,4,0,41.404691235332514,-91.82739545451864,8941.636532891584,-57.51017603703325,0.0140531681078023,-0.048732856857492,199.498,9006.830035856614,10864.345111209012,150,True,18.479344575041935,False,161.44901818954096,173.5700772891742,False,24.942305115396685,True,False
3,1970-07-23 10:29:32.591314622,2025-09-12,2025-09-26 17:14:19.131,AH,C,1507352486,JASSM,3,103,76,2,2,1,225,9,2,0,1,26,0,0,0,0,-171172.41491873687,-4771348.196260299,4219541.765104771,-2.51439,-0.703138,0.607744,57.125,-48.375,-52.0,0.0,0.0,0.0,0.0,0.0,0.0,2,0,41.660603978948565,-92.0546085345192,10002.628947770763,139.8452634201498,-0.0006575331757104,0.0024877962905275,,9006.830035856614,10864.345111209012,150,3,2025-09-12,2025-09-26 17:14:19.186,AH,C,696095408,AMBUSH51,1,1,48,2,1,1,225,2,1,0,0,9,1,225,2,1,-152958.0319835393,-4790540.825675024,4198094.552195622,2.49417,2.70935,-0.42179,-100.571,44.7268,47.5908,-0.191839,-7.50782,6.3606,0.0548705,-0.00364624,0.0241963,4,0,41.40533546005273,-91.82878586087996,8940.65241568342,-57.164353593921966,0.2336850330027639,6.595257344059283,199.278,9006.830035856614,10864.345111209012,150,True,18.358965301936923,False,161.80894365275435,173.455499126185,False,24.69128093542651,True,False
3,1970-07-23 10:29:32.602334119,2025-09-12,2025-09-26 17:14:20.233,AH,C,1508605188,JASSM,3,103,76,2,2,1,225,9,2,0,1,26,0,0,0,0,-171112.37878592435,-4771399.090791549,4219487.015104771,-2.51439,-0.703043,0.607744,57.125,-48.375,-52.0,0.0,0.0,0.0,0.0,0.0,0.0,2,0,41.65994449587889,-92.05386663976272,10002.622522494226,139.84210413153903,-0.0024434222171771,-0.0006514415162963,,9006.830035856614,10864.345111209012,150,3,2025-09-12,2025-09-26 17:14:20.052,AH,C,697129340,AMBUSH51,1,1,48,2,1,1,225,2,1,0,0,9,1,225,2,1,-153043.73630642478,-4790501.953256127,4198135.430293409,2.53563,2.69918,-0.431636,-99.6642,45.2235,48.2834,-0.30007,-7.58998,6.54348,0.0437247,-0.00987762,0.0155805,4,0,41.40582639600878,-91.82982469422026,8940.478220440442,-56.39185777109802,0.2776552817175008,8.732776751591743,199.131,9006.830035856614,10864.345111209012,150,True,18.257447356258186,False,162.38546276079484,173.3658800918677,False,24.203220764853672,True,False
3,1970-07-23 10:29:32.613353827,2025-09-12,2025-09-26 17:14:21.335,AH,C,1509917528,JASSM,3,103,76,2,2,1,225,9,2,0,1,26,0,0,0,0,-171049.48474295562,-4771452.411104049,4219429.659636021,-2.51439,-0.703043,0.607744,57.125,-48.375,-52.0,0.0,0.0,0.0,0.0,0.0,0.0,2,0,41.659253601343735,-92.05308944339376,10002.630066253156,139.84262073691275,-0.0015409338555218,-0.0006532201130586,,9006.830035856614,10864.345111209012,150,3,2025-09-12,2025-09-26 17:14:21.486,AH,C,698839304,AMBUSH51,1,1,48,2,1,1,225,2,1,0,0,9,1,225,2,1,-153185.23536751632,-4790435.226745812,4198205.470448519,2.54276,2.68659,-0.437479,-98.1441,46.8489,49.5178,-0.351996,-7.60604,6.33446,-0.0248121,0.00590993,0.0116045,4,0,41.40666928737502,-91.83154083052708,8939.469691305172,-55.686984672444936,0.0739276530117444,8.839677831661843,198.691,9006.830035856614,10864.345111209012,150,True,18.11922287621478,False,163.59004590204074,173.23046179999267,False,23.142094013522104,True,False
3,1970-07-23 10:29:32.628155500,2025-09-12,2025-09-26 17:14:22.815,AH,C,1511229892,JASSM,3,103,76,2,2,1,225,9,2,0,1,26,0,0,0,0,-170986.58923514312,-4771505.727510299,4219372.300261021,-2.51439,-0.703043,0.60784,57.125,-48.375,-52.0,0.0,0.0,0.0,0.0,0.0,0.0,2,0,41.65856269887215,-92.0523122477505,10002.624584692414,139.84636024835004,-0.0050846806612098,-0.0006551523080041,,9006.830035856614,10864.345111209012,150,3,2025-09-12,2025-09-26 17:14:22.685,AH,C,700270902,AMBUSH51,1,1,48,2,1,1,225,2,1,0,0,9,1,225,2,1,-153302.3246982365,-4790378.429442436,4198265.145937273,2.43119,2.67012,-0.449107,-97.2518,47.441,50.2495,0.0439078,-7.58832,6.29262,-0.118379,0.00330086,0.0123785,4,0,41.40738776011012,-91.83296155791196,8938.484189219074,-54.61019362111174,-0.0178623900286475,2.043058052705717,198.728,9006.830035856614,10864.345111209012,150,True,17.994585287428503,False,164.20530583911517,173.11537394504265,False,22.641817432958753,True,False
3,1970-07-23 10:29:32.635276129,2025-09-12,2025-09-26 17:14:23.527,AH,C,1512542242,JASSM,3,103,76,2,2,1,225,9,2,0,1,26,0,0,0,0,-170923.6944597525,-4771559.043916549,4219314.940886021,-2.51439,-0.703043,0.60784,57.125,-48.375,-52.0,0.0,0.0,0.0,0.0,0.0,0.0,2,0,41.65787179090529,-92.05153507750364,10002.624358079747,139.84687682243484,-0.0041821864547754,-0.0006568779207393,,9006.830035856614,10864.345111209012,150,3,2025-09-12,2025-09-26 17:14:23.385,AH,C,701106002,AMBUSH51,1,1,48,2,1,1,225,2,1,0,0,9,1,225,2,1,-153370.19771873415,-4790345.054946818,4198300.340341464,2.3654,2.67022,-0.448565,-97.0656,47.4805,50.3368,0.0615183,-7.56714,6.31515,-0.0881975,-0.0108097,-0.00284521,4,0,41.40781097715636,-91.83378529598676,8938.116030148909,-54.63551724107757,-0.0364693289986957,-1.7239671710945177,198.545,9006.830035856614,10864.345111209012,150,True,17.899458601104783,False,164.29293277216408,173.03985401862334,False,22.629379658037486,True,False
3,1970-07-23 10:29:32.646294954,2025-09-12,2025-09-26 17:14:24.629,AH,C,1513854594,JASSM,3,103,76,2,2,1,225,9,2,0,1,26,0,0,0,0,-170860.79944022125,-4771612.360322799,4219257.581511021,-2.51429,-0.703043,0.60784,57.125,-48.375,-52.0,0.0,0.0,0.0,0.0,0.0,0.0,2,0,41.65718087765296,-92.05075792094144,10002.629300680308,139.84739338039464,-0.0032796907691422,0.004832870234118,,9006.830035856614,10864.345111209012,150,3,2025-09-12,2025-09-26 17:14:24.485,AH,C,702418300,AMBUSH51,1,1,48,2,1,1,225,2,1,0,0,9,1,225,2,1,-153477.54565284593,-4790292.329822168,4198356.000348046,2.29188,2.67341,-0.440045,-97.2987,47.1649,50.0823,-0.0225389,-7.10371,6.13301,-0.0335943,-0.0148398,-0.024602,4,0,41.40847994493616,-91.8350881186302,8937.681044783032,-55.08901705651871,-0.2814864781715175,-5.8565757169424,198.435,9006.830035856614,10864.345111209012,150,True,17.780306902801527,False,164.07114425788498,172.931153021357,False,22.95872222242205,True,False
3,1970-07-23 10:29:32.657333942,2025-09-12,2025-09-26 17:14:25.733,AH,C,1515226594,JASSM,3,103,76,2,2,1,225,9,2,0,1,26,0,0,0,0,-170795.04577811187,-4771668.094697799,4219197.612761021,-2.51429,-0.703043,0.60784,57.125,-48.375,-52.0,0.0,0.0,0.0,0.0,0.0,0.0,2,0,41.65645857207517,-92.0499454618673,10002.621907314093,139.84793339560056,-0.0023361890196096,0.0048310769812495,,9006.830035856614,10864.345111209012,150,3,2025-09-12,2025-09-26 17:14:25.685,AH,C,703849900,AMBUSH51,1,1,48,2,1,1,225,2,1,0,0,9,1,225,2,1,-153593.58298970843,-4790236.093018042,4198415.09521827,2.30038,2.68328,-0.434151,-97.7797,46.7694,49.2324,-0.31624,-7.72143,6.59542,0.0407266,-0.00274743,-0.013733,4,0,41.40919132029451,-91.83649614015874,8936.75747619401,-55.695160492356365,-0.1781776560450435,-5.127470186795468,198.325,9006.830035856614,10864.345111209012,150,True,17.65408567018755,False,163.58487039252694,172.81154672528106,False,23.569469099493908,True,False
3,1970-07-23 10:29:32.668353691,2025-09-12,2025-09-26 17:14:26.835,AH,C,1516538946,JASSM,3,103,76,2,2,1,225,9,2,0,1,26,0,0,0,0,-170732.15051444,-4771721.407197799,4219140.249479771,-2.51429,-0.703043,0.60784,57.125,-48.375,-52.0,0.0,0.0,0.0,0.0,0.0,0.0,2,0,41.65576764504313,-92.04916833803188,10002.619358383732,139.84844991743088,-0.0014336903212629,0.0048293518493946,,9006.830035856614,10864.345111209012,150,3,2025-09-12,2025-09-26 17:14:26.853,AH,C,705241730,AMBUSH51,1,1,48,2,1,1,225,2,1,0,0,9,1,225,2,1,-153708.24006509752,-4790181.344483991,4198472.47617753,2.37198,2.69035,-0.429438,-98.0428,46.531,48.7618,-0.232682,-7.41284,6.25317,0.154167,-0.00226889,0.00383558,4,0,41.40988251768131,-91.83788712945154,8935.676177140389,-56.149222922392646,-0.1222252995738212,-0.854194041180453,198.129,9006.830035856614,10864.345111209012,150,True,17.53180940609448,False,163.3105849555173,172.69119747832252,False,23.966456080914412,True,False
3,1970-07-23 10:29:32.679228532,2025-09-12,2025-09-26 17:14:27.922,AH,C,1517791646,JASSM,3,103,76,2,2,1,225,9,2,0,1,26,0,0,0,0,-170672.1143816275,-4771772.297822799,4219085.495573521,-2.51429,-0.703043,0.60784,57.125,-48.375,-52.0,0.0,0.0,0.0,0.0,0.0,0.0,2,0,41.65510812339368,-92.04842655595388,10002.62952853046,139.84894294251097,-0.0005722188768551,0.004827706661789,,9006.830035856614,10864.345111209012,150,3,2025-09-12,2025-09-26 17:14:28.052,AH,C,706673330,AMBUSH51,1,1,48,2,1,1,225,2,1,0,0,9,1,225,2,1,-153824.8908960254,-4790125.810428266,4198530.808661401,2.46348,2.69252,-0.433224,-97.6998,46.3866,49.4046,-0.186277,-7.53421,6.62083,0.03085,-0.00373155,0.00591201,4,0,41.41058441399897,-91.83930227297978,8934.895388235698,-56.08362298101287,0.1142918345605771,4.439820887725905,197.909,9006.830035856614,10864.345111209012,150,True,17.41092418776338,False,163.55632153491592,172.56833542010216,False,23.834357925200035,True,False
3,1970-07-23 10:29:32.689256434,2025-09-12,2025-09-26 17:14:28.925,AH,C,1519044346,JASSM,3,103,76,2,2,1,225,9,2,0,1,26,0,0,0,0,-170612.07800467435,-4771823.184541549,4219030.737761021,-2.51429,-0.703043,0.60784,57.125,-48.375,-52.0,0.0,0.0,0.0,0.0,0.0,0.0,2,0,41.65444859401829,-92.047684787758,10002.626319525209,139.84943595195998,0.0002892554583088,0.0048260603150376,,9006.830035856614,10864.345111209012,150,3,2025-09-12,2025-09-26 17:14:28.953,AH,C,707747028,AMBUSH51,1,1,48,2,1,1,225,2,1,0,0,9,1,225,2,1,-153913.53873771548,-4790083.158756742,4198575.818052311,2.50545,2.67957,-0.44158,-97.1891,46.8568,49.993,-0.147554,-7.39267,6.52974,0.0474261,-0.000277759,0.00479473,4,0,41.41112506505423,-91.84037789253082,8934.680566653518,-55.26680046025945,0.0053476205933705,6.531410639310781,197.873,9006.830035856614,10864.345111209012,150,True,17.306451588695033,False,163.9941339481054,172.46923350508982,False,23.495214570044812,True,False
3,1970-07-23 10:29:32.700276765,2025-09-12,2025-09-26 17:14:30.027,AH,C,1520356696,JASSM,3,103,76,2,2,1,225,9,2,0,1,26,0,0,0,0,-170549.18298514312,-4771876.493135299,4218973.374479771,-2.51429,-0.702947,0.607936,57.125,-48.375,-52.0,0.0,0.0,0.0,0.0,0.0,0.0,2,0,41.65375767475828,-92.04690771684506,10002.629322570056,139.84952780409128,-0.0059028357781802,0.001687993293628,,9006.830035856614,10864.345111209012,150,3,2025-09-12,2025-09-26 17:14:30.053,AH,C,709059326,AMBUSH51,1,1,48,2,1,1,225,2,1,0,0,9,1,225,2,1,-154019.66500699328,-4790030.834034959,4198631.112941275,2.53956,2.67216,-0.449712,-96.2912,47.7087,50.9548,-0.155615,-7.36501,6.5645,0.0146214,0.00302414,0.00926385,4,0,41.4117893447244,-91.8416660977039,8934.38627316547,-54.66971376249977,0.086970050977624,8.303523894918508,197.836,9006.830035856614,10864.345111209012,150,True,17.188226739363838,False,164.74923705118204,172.3541570583445,False,22.85565034080095,True,False
3,1970-07-23 10:29:32.718164498,2025-09-12,2025-09-26 17:14:31.816,AH,C,1521609396,JASSM,3,103,76,2,2,1,225,9,2,0,1,26,0,0,0,0,-170489.14660819,-4771927.375947799,4218918.616667271,-2.51429,-0.702947,0.607936,57.125,-48.375,-52.0,0.0,0.0,0.0,0.0,0.0,0.0,2,0,41.65309815877539,-92.04616598131008,10002.62622806126,139.85002077892258,-0.0050413799056926,0.0016863546044941,,9006.830035856614,10864.345111209012,150,3,2025-09-12,2025-09-26 17:14:31.786,AH,C,711127192,AMBUSH51,1,1,48,2,1,1,225,2,1,0,0,9,1,225,2,1,-154184.1399926057,-4789946.509506114,4198720.065682505,2.56295,2.65103,-0.465831,-94.8241,49.5316,52.609,-0.217903,-7.29623,6.83945,-0.00655491,0.00403739,0.0194234,4,0,41.412860028297786,-91.84366385892731,8933.067865793357,-53.24638987039081,0.0352222288099733,9.109798991752376,198.288,9006.830035856614,10864.345111209012,150,True,17.034915796335262,False,166.11647089780843,172.19151419658348,False,21.65754230611503,True,False
3,1970-07-23 10:29:32.722314089,2025-09-12,2025-09-26 17:14:32.231,AH,C,1522921746,JASSM,3,103,76,2,2,1,225,9,2,0,1,26,0,0,0,0,-170426.25134451812,-4771980.684541549,4218861.249479771,-2.51429,-0.702947,0.607936,57.125,-48.375,-52.0,0.0,0.0,0.0,0.0,0.0,0.0,2,0,41.6524072028717,-92.04538893993087,10002.630837218996,139.85053721197863,-0.0041388792694274,0.0016846197979882,,9006.830035856614,10864.345111209012,150,3,2025-09-12,2025-09-26 17:14:32.253,AH,C,711683924,AMBUSH51,1,1,48,2,1,1,225,2,1,0,0,9,1,225,2,1,-154229.23619361882,-4789922.692280937,4198745.19046912,2.56278,2.64471,-0.470541,-94.4284,49.8441,53.211,-0.0557714,-7.25677,6.72575,-0.00453258,0.00541683,0.0223009,4,0,41.41316269625817,-91.84421189019528,8932.592497271033,-52.82610579829269,0.0187551754800102,8.937103913505975,198.398,9006.830035856614,10864.345111209012,150,True,16.952873262660198,False,166.48233350880443,172.12898492624743,False,21.350907166858043,True,False
3,1970-07-23 10:29:32.737031176,2025-09-12,2025-09-26 17:14:33.703,AH,C,1524293750,JASSM,3,103,76,2,2,1,225,9,2,0,1,26,0,0,0,0,-170360.4971941275,-4772036.411104049,4218801.272917271,-2.51429,-0.702947,0.607936,57.125,-48.375,-52.0,0.0,0.0,0.0,0.0,0.0,0.0,2,0,41.65168485301673,-92.04457659831776,10002.624718563928,139.85107709857004,-0.0031953711600088,0.0016828170685119,,9006.830035856614,10864.345111209012,150,3,2025-09-12,2025-09-26 17:14:33.685,AH,C,713393890,AMBUSH51,1,1,48,2,1,1,225,2,1,0,0,9,1,225,2,1,-154362.5278616649,-4789850.186820541,4198821.832433778,2.51361,2.62454,-0.480903,-93.329,51.2318,54.5303,-0.069038,-7.14591,6.53713,-0.0640667,-0.0151436,0.00816737,4,0,41.41408589379592,-91.84583255810531,8931.17768363925,-51.6659341430155,-0.2225078505244865,5.588603215950818,198.765,9006.830035856614,10864.345111209012,150,True,16.811343520393425,False,167.5280938527015,171.99269465171787,False,20.445857304845504,True,False
3,1970-07-23 10:29:32.747365227,2025-09-12,2025-09-26 17:14:34.736,AH,C,1525606100,JASSM,3,103,76,2,2,1,225,9,2,0,1,26,0,0,0,0,-170297.601686315,-4772089.715791549,4218743.901823521,-2.51429,-0.702947,0.607936,57.125,-48.375,-52.0,0.0,0.0,0.0,0.0,0.0,0.0,2,0,41.65099388333247,-92.04379958965242,10002.621836416853,139.85159349550707,-0.0022928675056458,0.00168108106793,,9006.830035856614,10864.345111209012,150,3,2025-09-12,2025-09-26 17:14:34.753,AH,C,714666422,AMBUSH51,1,1,48,2,1,1,225,2,1,0,0,9,1,225,2,1,-154462.7029545314,-4789794.455478347,4198880.734217218,2.42208,2.61781,-0.485541,-93.0611,51.6322,55.1479,-0.118745,-7.34066,6.89685,-0.0970545,0.00877283,0.0132503,4,0,41.41479587043671,-91.8470510761005,8929.899790254856,-51.2349024039224,-0.2483751215986482,0.1633468506405954,199.058,9006.830035856614,10864.345111209012,150,True,16.692727230496825,False,167.8792411950617,171.88482760576207,False,20.200351433368027,True,False
3,1970-07-23 10:29:32.755235215,2025-09-12,2025-09-26 17:14:35.523,AH,C,1526858800,JASSM,3,103,76,2,2,1,225,9,2,0,1,26,0,0,0,0,-170237.56530936187,-4772140.598604049,4218689.140104771,-2.51429,-0.702947,0.607936,57.125,-48.375,-52.0,0.0,0.0,0.0,0.0,0.0,0.0,2,0,41.65033432070992,-92.04305791752576,10002.630043092311,139.85208640136102,-0.0014313911407719,0.0016794253253351,,9006.830035856614,10864.345111209012,150,3,2025-09-12,2025-09-26 17:14:35.554,AH,C,715620820,AMBUSH51,1,1,48,2,1,1,225,2,1,0,0,9,1,225,2,1,-154537.06597525362,-4789752.934165873,4198924.801235238,2.37832,2.61682,-0.485939,-93.1706,51.6224,55.3253,-0.0859351,-7.25854,6.66894,-0.0260501,-0.00677338,0.00586208,4,0,41.41532610462809,-91.84795569428124,8929.330415944652,-51.18264948380788,-0.2637437743259852,-2.3707041128016773,199.327,9006.830035856614,10864.345111209012,150,True,16.59318505957127,False,167.89238119806595,171.79848819206916,False,20.270566024983427,True,False
3,1970-07-23 10:29:32.766253970,2025-09-12,2025-09-26 17:14:36.625,AH,C,1528171150,JASSM,3,103,76,2,2,1,225,9,2,0,1,26,0,0,0,0,-170174.66980154935,-4772193.899385299,4218631.769011021,-2.51429,-0.702947,0.607936,57.125,-48.375,-52.0,0.0,0.0,0.0,0.0,0.0,0.0,2,0,41.64964336394506,-92.04228094298838,10002.62773628444,139.85260276187856,-0.0005289059254486,0.0016777033639961,,9006.830035856614,10864.345111209012,150,3,2025-09-12,2025-09-26 17:14:36.686,AH,C,716972886,AMBUSH51,1,1,48,2,1,1,225,2,1,0,0,9,1,225,2,1,-154641.72208029026,-4789694.669869171,4198986.593592951,2.35478,2.62543,-0.480934,-93.5397,51.6473,55.0605,-0.0374143,-7.28696,6.59445,-0.0146859,0.00872289,-0.000487899,4,0,41.41606978041515,-91.84922878344597,8928.467934271905,-51.7006912563379,-0.1880745046509394,-3.4884982213557296,199.4,9006.830035856614,10864.345111209012,150,True,16.471669453435435,False,167.71524111042666,171.68424231133434,False,20.56647527026189,True,False
3,1970-07-23 10:29:32.776272986,2025-09-12,2025-09-26 17:14:37.627,AH,C,1529423850,JASSM,3,103,76,2,2,1,225,9,2,0,1,26,0,0,0,0,-170114.63318045562,-4772244.778291549,4218577.003386021,-2.51429,-0.702947,0.607936,57.125,-48.375,-52.0,0.0,0.0,0.0,0.0,0.0,0.0,2,0,41.64898378850104,-92.04153930058548,10002.627518645835,139.85309563486513,0.0003325734397294,0.0016760464328497,,9006.830035856614,10864.345111209012,150,3,2025-09-12,2025-09-26 17:14:37.485,AH,C,717927284,AMBUSH51,1,1,48,2,1,1,225,2,1,0,0,9,1,225,2,1,-154717.41036802073,-4789652.750400125,4199031.146517543,2.3411,2.62739,-0.48042,-93.8466,51.4102,54.9733,-0.0923413,-7.30314,6.51518,-0.00954057,-0.0042621,-0.00277031,4,0,41.41660539158541,-91.85014942768362,8928.09070214265,-51.79544648652182,-0.1429340957999993,-4.219676935979044,199.388,9006.830035856614,10864.345111209012,150,True,16.37156219346818,False,167.54045926329906,171.593971945006,False,20.82866769099503,True,False
3,1970-07-23 10:29:32.788595415,2025-09-12,2025-09-26 17:14:38.859,AH,C,1530736200,JASSM,3,103,76,2,2,1,225,9,2,0,1,26,0,0,0,0,-170051.73767264312,-4772298.075166549,4218519.628386021,-2.51429,-0.702947,0.608032,57.125,-48.375,-52.0,0.0,0.0,0.0,0.0,0.0,0.0,2,0,41.64829281838765,-92.04076236017124,10002.617269856126,139.8568351179197,-0.0032110067435339,0.0016742659964056,,9006.830035856614,10864.345111209012,150,3,2025-09-12,2025-09-26 17:14:38.685,AH,C,719358882,AMBUSH51,1,1,48,2,1,1,225,2,1,0,0,9,1,225,2,1,-154830.2292610547,-4789591.153688146,4199096.559613728,2.33348,2.63471,-0.472564,-94.3855,51.1367,54.4956,0.145743,-7.34033,6.49274,0.0181126,-0.00285562,-0.00438485,4,0,41.41739174087836,-91.85152140019316,8927.557049777315,-52.3738457697414,-0.2296150590183699,-4.462426953082415,199.767,9006.830035856614,10864.345111209012,150,True,16.245663672533173,False,167.18042020551601,171.46800164924178,False,21.31711586864863,True,False
3,1970-07-23 10:29:32.798314351,2025-09-12,2025-09-26 17:14:39.831,AH,C,1532048552,JASSM,3,103,76,2,2,1,225,9,2,0,1,26,0,0,0,0,-169988.84216483062,-4772351.375947799,4218462.257292271,-2.51429,-0.702851,0.608032,57.125,-48.25,-52.0,0.0,0.0,0.0,0.0,0.0,0.0,2,0,41.64760184586112,-92.03998543469132,10002.630298769089,139.85370001194346,-0.0049557516464767,-0.0014661445023479,,9006.830035856614,10864.345111209012,150,3,2025-09-12,2025-09-26 17:14:39.753,AH,C,720631414,AMBUSH51,1,1,48,2,1,1,225,2,1,0,0,9,1,225,2,1,-154930.90879073832,-4789536.589043733,4199154.347704448,2.39307,2.64243,-0.467849,-94.6675,50.835,54.376,-0.206462,-7.33772,6.70161,0.041665,3.22492e-05,0.0110864,4,0,41.418087100604616,-91.8527456195896,8926.810850117765,-52.84859731953714,-0.1657446135278009,-0.8461072171156515,199.755,9006.830035856614,10864.345111209012,150,True,16.1279525507776,False,167.02149125986892,171.32388762938893,False,21.623607680225668,True,False
3,1970-07-23 10:29:32.809333886,2025-09-12,2025-09-26 17:14:40.933,AH,C,1533360902,JASSM,3,103,76,2,2,1,225,9,2,0,1,26,0,0,0,0,-169925.9464128775,-4772404.672822799,4218404.878386021,-2.51419,-0.702851,0.608032,57.125,-48.25,-52.0,0.0,0.0,0.0,0.0,0.0,0.0,2,0,41.64691083886201,-92.03920852455552,10002.621893179254,139.85421630208262,-0.0040532431344733,0.0040372410726812,,9006.830035856614,10864.345111209012,150,3,2025-09-12,2025-09-26 17:14:40.752,AH,C,721824414,AMBUSH51,1,1,48,2,1,1,225,2,1,0,0,9,1,225,2,1,-155025.42393822895,-4789485.397297831,4199208.624905498,2.46369,2.64113,-0.470268,-94.534,50.833,54.6716,-0.127482,-7.3519,6.41213,0.120584,-0.00261219,0.0105247,4,0,41.41873986709119,-91.85389489422931,8926.256144902462,-52.70713610144157,-0.1062625247273254,3.166401017247864,199.938,9006.830035856614,10864.345111209012,150,True,16.014235500359938,False,167.1418706777911,171.20982373226244,False,21.61307968335896,True,False
3,1970-07-23 10:29:32.820351948,2025-09-12,2025-09-26 17:14:42.035,AH,C,1534673254,JASSM,3,103,76,2,2,1,225,9,2,0,1,26,0,0,0,0,-169863.05066092435,-4772457.969697799,4218347.503386021,-2.51419,-0.702851,0.608032,57.125,-48.25,-52.0,0.0,0.0,0.0,0.0,0.0,0.0,2,0,41.646219852797294,-92.03843163102202,10002.6271948279,139.85473257415896,-0.0031507545934245,0.0040355110822495,,9006.830035856614,10864.345111209012,150,3,2025-09-12,2025-09-26 17:14:42.185,AH,C,723534378,AMBUSH51,1,1,48,2,1,1,225,2,1,0,0,9,1,225,2,1,-155159.67877081965,-4789411.220531105,4199287.318738019,2.5819,2.62899,-0.477748,-93.3231,52.0267,55.5344,-0.147785,-7.11701,6.43958,0.061466,0.00492789,0.0247518,4,0,41.41968653653524,-91.85552799632036,8925.351093946225,-51.96127621419364,-0.198411284902893,9.619597907247067,199.461,9006.830035856614,10864.345111209012,150,True,15.874274447321008,False,168.03716810609924,171.05974967258547,False,20.87564741589095,True,False
3,1970-07-23 10:29:32.831214608,2025-09-12,2025-09-26 17:14:43.121,AH,C,1535925952,JASSM,3,103,76,2,2,1,225,9,2,0,1,26,0,0,0,0,-169803.0139177603,-4772508.840791549,4218292.733854771,-2.51419,-0.702851,0.608032,57.125,-48.25,-52.0,0.0,0.0,0.0,0.0,0.0,0.0,2,0,41.64556027257529,-92.0376900690122,10002.623857029408,139.85522536068416,-0.0022892912602527,0.0040338596820478,,9006.830035856614,10864.345111209012,150,3,2025-09-12,2025-09-26 17:14:43.218,AH,C,724767144,AMBUSH51,1,1,48,2,1,1,225,2,1,0,0,9,1,225,2,1,-155254.7290657076,-4789356.790340781,4199344.82999927,2.61389,2.60933,-0.490242,-92.1445,53.0594,56.6687,-0.265239,-7.26552,6.62127,-0.00871665,0.00523998,0.0122703,4,0,41.42038027102216,-91.8566849770562,8923.913692297714,-50.74095684491046,-0.3200547836106856,10.923023396256722,199.498,9006.830035856614,10864.345111209012,150,False,15.760848681719908,False,168.95670880079356,170.94679926729322,False,20.070351690180416,True,False
3,1970-07-23 10:29:32.841253948,2025-09-12,2025-09-26 17:14:44.125,AH,C,1537178652,JASSM,3,103,76,2,2,1,225,9,2,0,1,26,0,0,0,0,-169742.97705252594,-4772559.711885299,4218237.964323521,-2.51419,-0.702851,0.608032,57.125,-48.25,-52.0,0.0,0.0,0.0,0.0,0.0,0.0,2,0,41.64490068751938,-92.0369485206645,10002.625237981,139.85571813172655,-0.0014278271425358,0.0040322091066604,,9006.830035856614,10864.345111209012,150,3,2025-09-12,2025-09-26 17:14:44.153,AH,C,725880610,AMBUSH51,1,1,48,2,1,1,225,2,1,0,0,9,1,225,2,1,-155339.80349827654,-4789306.653366148,4199398.180862299,2.58449,2.59597,-0.503065,-91.1505,52.3731,58.806,-0.146562,-7.58819,6.88621,-0.0521407,0.000641864,0.0212606,4,0,41.42102229144319,-91.85772109981151,8923.21472215852,-49.7516333337604,-0.2057308097134469,8.868923434629997,199.388,9006.830035856614,10864.345111209012,150,True,15.652927804605769,False,169.6348650402359,170.84349811974738,False,19.432190485071384,True,False
3,1970-07-23 10:29:32.852272939,2025-09-12,2025-09-26 17:14:45.227,AH,C,1538491002,JASSM,3,103,76,2,2,1,225,9,2,0,1,26,0,0,0,0,-169680.0813005728,-4772613.004854049,4218180.585417271,-2.51419,-0.702851,0.608032,57.125,-48.25,-52.0,0.0,0.0,0.0,0.0,0.0,0.0,2,0,41.644209683015255,-92.03617167709116,10002.627552262673,139.85623435015677,-0.0005253368534272,0.0040304761899701,,9006.830035856614,10864.345111209012,150,3,2025-09-12,2025-09-26 17:14:45.085,AH,C,726994074,AMBUSH51,1,1,48,2,1,1,225,2,1,0,0,9,1,225,2,1,-155424.42171280572,-4789255.303237011,4199452.386453412,2.5727,2.58157,-0.512921,-89.8554,54.7002,58.4275,-0.077403,-7.34317,6.51216,-0.0151374,0.00318019,-0.00615752,4,0,41.42167737890343,-91.85875226137487,8921.358087870161,-48.83764008325869,-0.2447380922845434,7.788705589675873,199.388,9006.830035856614,10864.345111209012,150,True,15.5420698090226,False,170.5347805238421,170.73943697972658,False,18.70290008828783,True,False
3,1970-07-23 10:29:32.863311392,2025-09-12,2025-09-26 17:14:46.331,AH,C,1539743702,JASSM,3,103,76,2,2,1,225,9,2,0,1,26,0,0,0,0,-169620.04431326812,-4772663.873994674,4218125.811979771,-2.51419,-0.702851,0.608032,57.125,-48.25,-52.0,0.0,0.0,0.0,0.0,0.0,0.0,2,0,41.64355007343784,-92.03543015908328,10002.625305013004,139.856727087925,0.0003361389097693,0.0040288165234674,,9006.830035856614,10864.345111209012,150,3,2025-09-12,2025-09-26 17:14:46.218,AH,C,728346140,AMBUSH51,1,1,48,2,1,1,225,2,1,0,0,9,1,225,2,1,-155525.04481656745,-4789192.763479473,4199518.817948439,2.5768,2.57361,-0.516564,-88.8913,55.4068,59.5183,-0.164138,-7.53507,6.37369,0.028372,-0.00581838,0.0169891,4,0,41.42247846778768,-91.85997905976396,8919.810095319834,-48.4006083188724,-0.3408237883113547,7.796742646764816,199.168,9006.830035856614,10864.345111209012,150,True,15.42167890069019,False,171.29570408940805,170.62383668163898,False,18.053517245126613,True,False
3,1970-07-23 10:29:32.875772800,2025-09-12,2025-09-26 17:14:47.577,AH,C,1540996400,JASSM,3,103,76,2,2,1,225,9,2,0,1,26,0,0,0,0,-169560.00720389312,-4772714.743135299,4218071.038542271,-2.51419,-0.702851,0.608128,57.125,-48.25,-52.0,0.0,0.0,0.0,0.0,0.0,0.0,2,0,41.64289045902717,-92.03468865473636,10002.627776647863,139.8604452183762,-0.0032510391008807,0.0040270998840667,,9006.830035856614,10864.345111209012,150,3,2025-09-12,2025-09-26 17:14:47.653,AH,C,730056104,AMBUSH51,1,1,48,2,1,1,225,2,1,0,0,9,1,225,2,1,-155650.86269979275,-4789111.916631142,4199604.807339429,2.60406,2.5546,-0.531384,-87.2927,56.6683,60.7276,-0.201601,-7.56432,6.57814,-0.0477923,-0.00459291,0.00809871,4,0,41.42351561499244,-91.8615141044708,8917.724778539527,-47.13335393968087,-0.2925234397873965,8.806693085249952,199.278,9006.830035856614,10864.345111209012,150,True,15.28212774317521,False,172.42031625095896,170.4885742860089,False,17.069482871120613,True,False
3,1970-07-23 10:29:32.884351877,2025-09-12,2025-09-26 17:14:48.435,AH,C,1542308752,JASSM,3,103,76,2,2,1,225,9,2,0,1,26,0,0,0,0,-169497.1113298697,-4772768.032197799,4218013.655729771,-2.51419,-0.702755,0.608128,57.125,-48.25,-52.0,0.0,0.0,0.0,0.0,0.0,0.0,2,0,41.64219943610954,-92.03391185965248,10002.62709314324,139.8573126294893,-0.0049941556524555,0.0008881974458035,,9006.830035856614,10864.345111209012,150,3,2025-09-12,2025-09-26 17:14:48.351,AH,C,730891204,AMBUSH51,1,1,48,2,1,1,225,2,1,0,0,9,1,225,2,1,-155711.72810222572,-4789071.968082995,4199647.424561297,2.56708,2.54508,-0.536478,-86.6567,57.1207,61.3046,-0.0944754,-7.43296,6.61906,-0.0525714,-0.00544388,0.0118043,4,0,41.42402920268967,-91.86225703793212,8916.872727621892,-46.58585374370118,-0.3648489933855294,6.4070350839908565,199.156,9006.830035856614,10864.345111209012,150,True,15.185311021986356,False,172.88065129406124,170.40540105167182,False,16.691765825662404,True,False
3,1970-07-23 10:29:32.895231091,2025-09-12,2025-09-26 17:14:49.523,AH,C,1543621102,JASSM,3,103,76,2,2,1,225,9,2,0,1,26,0,0,0,0,-169434.21533377594,-4772821.321260299,4217956.272917271,-2.51419,-0.702755,0.608128,57.125,-48.25,-52.0,0.0,0.0,0.0,0.0,0.0,0.0,2,0,41.64150840788544,-92.03313507970309,10002.631589619496,139.85782877838193,-0.0040916621461309,0.0008864566093746,,9006.830035856614,10864.345111209012,150,3,2025-09-12,2025-09-26 17:14:49.485,AH,C,732243270,AMBUSH51,1,1,48,2,1,1,225,2,1,0,0,9,1,225,2,1,-155809.8397259222,-4789006.380879243,4199717.566631989,2.48961,2.53487,-0.54288,-85.956,57.5981,61.8832,-0.306593,-7.25188,6.63269,-0.0959102,-0.00236043,-0.00100389,4,0,41.42487391878984,-91.86345509352388,8915.712980588665,-45.96580625480782,-0.3963383358243564,1.6635220312669745,199.193,9006.830035856614,10864.345111209012,150,True,15.061068430447557,False,173.36816129756878,170.29210230196642,False,16.317539036048856,True,False
3,1970-07-23 10:29:32.906252173,2025-09-12,2025-09-26 17:14:50.625,AH,C,1544873802,JASSM,3,103,76,2,2,1,225,9,2,0,1,26,0,0,0,0,-169374.17810233062,-4772872.184541549,4217901.495573521,-2.51419,-0.702755,0.608128,57.125,-48.25,-52.0,0.0,0.0,0.0,0.0,0.0,0.0,2,0,41.64084878720699,-92.03239362319768,10002.625816714888,139.85832144926172,-0.0032301925057993,0.0008847963814375,,9006.830035856614,10864.345111209012,150,3,2025-09-12,2025-09-26 17:14:50.685,AH,C,733674868,AMBUSH51,1,1,48,2,1,1,225,2,1,0,0,9,1,225,2,1,-155912.48046658488,-4788936.902390775,4199792.04226123,2.4393,2.53527,-0.542897,-85.7718,57.6802,62.1318,-0.151219,-7.53639,6.49982,-0.0297307,-0.00419136,-0.00603476,4,0,41.4257701494796,-91.86470882423896,8914.765034847414,-45.98143702091612,-0.3817594398035762,-1.2066570934098604,199.229,9006.830035856614,10864.345111209012,150,True,14.9353802060361,False,173.5104468556865,170.17618792334923,False,16.28813609452973,True,False
