Subject_cm,Timestamp,SampleDate_cm,SampleTime_cm,Configuration_cm,Scenario_cm,DisTime_cm,MarkingTxt_cm,Application_cm,EntId_cm,Site_cm,ExerciseId_cm,ForceId_cm,Category_cm,Country_cm,Domain_cm,Kind_cm,Extra_cm,Specific_cm,Subcategory_cm,AltCategory_cm,AltCountry_cm,AltDomain_cm,AltKind_cm,ECEF_X_cm,ECEF_Y_cm,ECEF_Z_cm,OriPhi_cm,OriPsi_cm,OriTheta_cm,LinVelX_cm,LinVelY_cm,LinVelZ_cm,LinAccX_cm,LinAccY_cm,LinAccZ_cm,AngVelX_cm,AngVelY_cm,AngVelZ_cm,DrAlg_cm,Appearance_cm,Latitude_cm,Longitude_cm,Altitude_cm,Heading_cm,Pitch_cm,Roll_cm,CalibratedAirspeed_cm,CM_Altitude_Lead_cm,CM_Altitude_Wing_cm,CM_Airspeed_cm,Subject_ac,SampleDate_ac,SampleTime_ac,Configuration_ac,Scenario_ac,DisTime_ac,MarkingTxt_ac,Application_ac,EntId_ac,Site_ac,ExerciseId_ac,ForceId_ac,Category_ac,Country_ac,Domain_ac,Kind_ac,Extra_ac,Specific_ac,Subcategory_ac,AltCategory_ac,AltCountry_ac,AltDomain_ac,AltKind_ac,ECEF_X_ac,ECEF_Y_ac,ECEF_Z_ac,OriPhi_ac,OriPsi_ac,OriTheta_ac,LinVelX_ac,LinVelY_ac,LinVelZ_ac,LinAccX_ac,LinAccY_ac,LinAccZ_ac,AngVelX_ac,AngVelY_ac,AngVelZ_ac,DrAlg_ac,Appearance_ac,Latitude_ac,Longitude_ac,Altitude_ac,Heading_ac,Pitch_ac,Roll_ac,CalibratedAirspeed_ac,CM_Altitude_Lead_ac,CM_Altitude_Wing_ac,CM_Airspeed_ac,Bank_Angle_Condition,distance_nm,Distance_Condition,angle_between_vel,angle_between_pos,Cone_Condition,angle_between_pos_nose,Nose_Cone_Condition,Intercept_Criteria
3,1970-07-23 10:17:04.326292773,2025-09-11,2025-09-26 20:27:12.629,HA,C,2534624460,JASSM,3,115,76,2,2,1,225,9,2,0,1,26,0,0,0,0,-180574.90564139312,-4777983.532197799,4211687.130339146,-2.36693,-0.400848,0.381002,79.875,-33.75,-34.625,0.0,0.0,0.0,0.0,0.0,0.0,2,0,41.56605798633762,-92.16435620626552,10002.628366901065,119.79869683540142,-0.0029745267833744,0.0045531293429336,,8905.102926237949,10943.217344713625,150,3,2025-09-11,2025-09-26 20:27:12.737,HA,C,1617287414,AMBUSH51,1,1,48,2,1,1,225,2,1,0,0,9,1,225,2,1,-144243.76351990676,-4792523.566254889,4196136.997728628,2.29525,2.90582,-0.243079,-110.422,18.8494,22.634,-0.0521706,-7.49294,6.46191,-0.00147826,0.00329046,-0.00404156,4,0,41.3819320891372,-91.72394868280492,8906.759708570842,-71.84055171384233,0.5944322300927499,-1.2234607875635668,195.099,8905.102926237949,10943.217344713625,150,True,22.64780009489643,False,163.6639428320695,178.97910534250465,False,15.479333916486729,True,False
3,1970-07-23 10:17:04.337310450,2025-09-11,2025-09-26 20:27:13.731,HA,C,2535877426,JASSM,3,115,76,2,2,1,225,9,2,0,1,26,0,0,0,0,-180490.9495867056,-4778019.123994674,4211650.597136021,-2.36693,-0.400848,0.381098,79.875,-33.75,-34.625,0.0,0.0,0.0,0.0,0.0,0.0,2,0,41.56561855887399,-92.1633347725004,10002.627641279149,119.80321655731588,-0.0060190239515168,0.0045513251760231,,8905.102926237949,10943.217344713625,150,3,2025-09-11,2025-09-26 20:27:13.802,HA,C,1618559946,AMBUSH51,1,1,48,2,1,1,225,2,1,0,0,9,1,225,2,1,-144360.57953215786,-4792501.341879098,4196159.176764516,2.29379,2.90704,-0.244942,-110.261,20.4826,21.0823,-0.259466,-7.49316,6.63742,-0.00132222,0.00275367,-0.00443063,4,0,41.382193117627466,-91.72535197767152,8908.833749161051,-71.80930351556343,0.7180425844675387,-1.2894726928530644,194.72,8905.102926237949,10943.217344713625,150,True,22.532400884953848,False,163.73834516962782,179.01015867007564,False,15.488776598941888,True,False
3,1970-07-23 10:17:04.348289956,2025-09-11,2025-09-26 20:27:14.828,HA,C,2537189022,JASSM,3,115,76,2,2,1,225,9,2,0,1,26,0,0,0,0,-180403.06482108065,-4778056.377900924,4211612.352995396,-2.36693,-0.400848,0.381098,79.875,-33.75,-34.625,0.0,0.0,0.0,0.0,0.0,0.0,2,0,41.565158569782376,-92.16226555726314,10002.620859573106,119.80392595435882,-0.0050962212183728,0.0045497921604792,,8905.102926237949,10943.217344713625,150,3,2025-09-11,2025-09-26 20:27:14.970,HA,C,1619951778,AMBUSH51,1,1,48,2,1,1,225,2,1,0,0,9,1,225,2,1,-144489.70743732812,-4792477.237378647,4196183.991489951,2.30287,2.90751,-0.248879,-110.065,20.3944,21.0569,0.0358254,-7.58793,6.42712,0.01092,0.00661525,0.0150874,4,0,41.38248090161629,-91.72690301991253,8912.919042132851,-71.66217191574731,0.8912812375509755,-0.7608220499321755,194.573,8905.102926237949,10943.217344713625,150,True,22.407973075958687,False,163.72492912723763,179.04461410195273,False,15.548054273540723,True,False
3,1970-07-23 10:17:04.359290419,2025-09-11,2025-09-26 20:27:15.929,HA,C,2538501634,JASSM,3,115,76,2,2,1,225,9,2,0,1,26,0,0,0,0,-180315.11169608065,-4778093.663057174,4211574.079557896,-2.36693,-0.400848,0.381098,79.875,-33.75,-34.625,0.0,0.0,0.0,0.0,0.0,0.0,2,0,41.56469820237969,-92.16119552451552,10002.626068550877,119.80463588734492,-0.0041726947281925,0.0045482491566168,,8905.102926237949,10943.217344713625,150,3,2025-09-11,2025-09-26 20:27:16.037,HA,C,1621224310,AMBUSH51,1,1,48,2,1,1,225,2,1,0,0,9,1,225,2,1,-144606.02021325464,-4792455.83167622,4196206.248105667,2.31276,2.90907,-0.255125,-109.786,20.1659,21.1442,-0.228727,-7.6085,6.80414,0.00583503,0.00811744,0.00643008,4,0,41.38273763931089,-91.7283000316999,8917.154170929642,-71.45893182691918,1.1989010779076863,-0.1675520250472775,194.341,8905.102926237949,10943.217344713625,150,True,22.290456698225583,False,163.7131787783319,179.0751821698316,False,15.59804983046406,True,False
3,1970-07-23 10:17:04.370249938,2025-09-11,2025-09-26 20:27:17.024,HA,C,2539813720,JASSM,3,115,76,2,2,1,225,9,2,0,1,26,0,0,0,0,-180227.19470389312,-4778130.928682174,4211535.821745396,-2.36693,-0.400848,0.381098,79.875,-33.75,-34.625,0.0,0.0,0.0,0.0,0.0,0.0,2,0,41.56423803859573,-92.1601259484428,10002.626163403394,119.8053455108868,-0.0032495609697302,0.0045467272763424,,8905.102926237949,10943.217344713625,150,3,2025-09-11,2025-09-26 20:27:16.902,HA,C,1622258242,AMBUSH51,1,1,48,2,1,1,225,2,1,0,0,9,1,225,2,1,-144700.9005437958,-4792438.456846107,4196224.7527893735,2.32172,2.9086,-0.257686,-109.526,19.8308,21.5171,0.0576862,-7.64029,6.44108,0.0209485,-0.00736427,0.0102709,4,0,41.38294889987096,-91.72943959875904,8921.58472737092,-71.33380021896264,1.2797260178876668,0.3415720395582534,193.84,8905.102926237949,10943.217344713625,150,True,22.184385646879285,False,163.75880063644476,179.09930001144753,False,15.577151345097274,True,False
3,1970-07-23 10:17:04.381409216,2025-09-11,2025-09-26 20:27:18.140,HA,C,2541126074,JASSM,3,115,76,2,2,1,225,9,2,0,1,26,0,0,0,0,-180139.25720389312,-4778168.204072799,4211497.552214146,-2.36693,-0.400848,0.381098,79.875,-33.75,-34.625,0.0,0.0,0.0,0.0,0.0,0.0,2,0,41.56377773226424,-92.1590561375755,10002.62824672134,119.8060552837529,-0.0023261989540927,0.0045451832950351,,8905.102926237949,10943.217344713625,150,3,2025-09-11,2025-09-26 20:27:18.036,HA,C,1623610308,AMBUSH51,1,1,48,2,1,1,225,2,1,0,0,9,1,225,2,1,-144825.49382128072,-4792415.671675546,4196249.550650736,2.33966,2.90683,-0.262138,-109.189,19.7398,21.9611,-0.115802,-7.4024,6.73052,0.017994,-0.00410813,-0.000766699,4,0,41.38322948314456,-91.73093603466464,8928.566659485137,-71.08075398142402,1.3817945133772764,1.3492908251027365,193.461,8905.102926237949,10943.217344713625,150,True,22.062308792810555,False,163.92142808480133,179.1310310405139,False,15.453083974210971,True,False
3,1970-07-23 10:17:04.392250982,2025-09-11,2025-09-26 20:27:19.225,HA,C,2542438424,JASSM,3,115,76,2,2,1,225,9,2,0,1,26,0,0,0,0,-180051.32165701812,-4778205.475557174,4211459.282682896,-2.36693,-0.400848,0.381098,79.875,-33.75,-34.625,0.0,0.0,0.0,0.0,0.0,0.0,2,0,41.56331743881012,-92.1579863670429,10002.626368593808,119.80676502340307,-0.0014028645594192,0.0045436497589073,,8905.102926237949,10943.217344713625,150,3,2025-09-11,2025-09-26 20:27:19.202,HA,C,1625002138,AMBUSH51,1,1,48,2,1,1,225,2,1,0,0,9,1,225,2,1,-144951.56304984007,-4792392.629378491,4196275.328072237,2.35591,2.90582,-0.268056,-108.665,19.7474,22.4982,-0.196253,-7.57959,6.59554,0.0126698,0.00286602,0.00487795,4,0,41.38351792528133,-91.7324502050376,8937.158943054634,-70.7949570882359,1.5722559427190776,2.2727080048697417,192.887,8905.102926237949,10943.217344713625,150,True,21.939321661891398,False,164.17391026212394,179.1622577775373,False,15.239502171679408,True,False
3,1970-07-23 10:17:04.403689209,2025-09-11,2025-09-26 20:27:20.368,HA,C,2543750776,JASSM,3,115,76,2,2,1,225,9,2,0,1,26,0,0,0,0,-179963.38513358062,-4778242.747041549,4211421.011198521,-2.36693,-0.400752,0.381098,79.875,-33.75,-34.625,0.0,0.0,0.0,0.0,0.0,0.0,2,0,41.56285712243456,-92.15691660000064,10002.625588938068,119.80383043271372,-0.0040459630107203,0.0024991186013476,,8905.102926237949,10943.217344713625,150,3,2025-09-11,2025-09-26 20:27:20.369,HA,C,1626393970,AMBUSH51,1,1,48,2,1,1,225,2,1,0,0,9,1,225,2,1,-145078.88758340338,-4792368.894882533,4196302.395961595,2.3793,2.89979,-0.275343,-108.086,19.8935,23.3715,-0.163934,-7.46291,6.70971,0.00872706,0.0021607,-0.00108087,4,0,41.38381895223372,-91.73397963206584,8946.94933634486,-70.26321199664072,1.6124239208186022,3.53502946390034,192.422,8905.102926237949,10943.217344713625,150,True,21.815379133392945,False,164.5941042607006,179.19223402059828,False,14.854679009590464,True,False
3,1970-07-23 10:17:04.415289473,2025-09-11,2025-09-26 20:27:21.528,HA,C,2545004240,JASSM,3,115,76,2,2,1,225,9,2,0,1,26,0,0,0,0,-179879.39489920562,-4778278.344697799,4211384.456511021,-2.36693,-0.400752,0.381098,79.875,-33.75,-34.625,0.0,0.0,0.0,0.0,0.0,0.0,2,0,41.56241745669493,-92.15589485515176,10002.625436000108,119.8045082976088,-0.003164052875847,0.0024975931507048,,8905.102926237949,10943.217344713625,150,3,2025-09-11,2025-09-26 20:27:21.469,HA,C,1627706270,AMBUSH51,1,1,48,2,1,1,225,2,1,0,0,9,1,225,2,1,-145196.29745058934,-4792346.700634176,4196328.022656914,2.39116,2.89446,-0.278937,-107.518,20.2437,24.0025,-0.112177,-7.48805,6.62756,0.00382933,-0.00218566,0.00127436,4,0,41.38410285272818,-91.73539008643029,8956.673404065828,-69.9132071923494,1.5379185451251836,4.141054537566061,191.811,8905.102926237949,10943.217344713625,150,True,21.69908409958139,False,165.00781303434266,179.21843383629934,False,14.478287866878995,True,False
3,1970-07-23 10:17:04.424889328,2025-09-11,2025-09-26 20:27:22.488,HA,C,2546315826,JASSM,3,115,76,2,2,1,225,9,2,0,1,26,0,0,0,0,-179791.51013358062,-4778315.590791549,4211346.206511021,-2.36693,-0.400752,0.381098,79.875,-33.75,-34.625,0.0,0.0,0.0,0.0,0.0,0.0,2,0,41.56195740532813,-92.15482574897574,10002.624546681742,119.80521757752656,-0.0022412555734942,0.0024960060399229,,8905.102926237949,10943.217344713625,150,3,2025-09-11,2025-09-26 20:27:22.669,HA,C,1629137868,AMBUSH51,1,1,48,2,1,1,225,2,1,0,0,9,1,225,2,1,-145325.2482905737,-4792321.5974961,4196357.060004538,2.39194,2.88414,-0.287116,-106.889,20.9378,24.5018,-0.0721739,-7.35938,6.54515,-0.0181875,-0.000408837,0.00652787,4,0,41.38442498575239,-91.73693945950995,8967.5066774181,-69.1840310442648,1.442533948968543,4.03954528386742,191.188,8905.102926237949,10943.217344713625,150,True,21.573795704170234,False,165.51696805114437,179.2452381853442,False,14.016516239696573,True,False
3,1970-07-23 10:17:04.435387299,2025-09-11,2025-09-26 20:27:23.538,HA,C,2547568626,JASSM,3,115,76,2,2,1,225,9,2,0,1,26,0,0,0,0,-179707.56482108062,-4778351.166963424,4211309.669401646,-2.36693,-0.400752,0.381194,79.875,-33.75,-34.625,0.0,0.0,0.0,0.0,0.0,0.0,2,0,41.56151795740976,-92.15380458003156,10002.624250131268,119.80973720998658,-0.0052857343167483,0.0024942592249464,,8905.102926237949,10943.217344713625,150,3,2025-09-11,2025-09-26 20:27:23.402,HA,C,1630012734,AMBUSH51,1,1,48,2,1,1,225,2,1,0,0,9,1,225,2,1,-145404.05522846925,-4792305.739940822,4196375.392279523,2.38293,2.87784,-0.28875,-106.483,21.3683,24.8297,-0.192184,-7.17277,6.33029,-0.0144695,-0.0105642,0.00930962,4,0,41.38462887240937,-91.7378865361936,8974.134124633789,-68.8798105843959,1.2542297760878942,3.4278765841325045,190.638,8905.102926237949,10943.217344713625,150,True,21.478008745015742,False,165.8426968150911,179.25968632473447,False,13.718386762471187,True,False
3,1970-07-23 10:17:04.446888726,2025-09-11,2025-09-26 20:27:24.688,HA,C,2548821480,JASSM,3,115,76,2,2,1,225,9,2,0,1,26,0,0,0,0,-179623.61560233062,-4778386.745088424,4211273.128386021,-2.36693,-0.400752,0.381194,79.875,-33.75,-34.625,0.0,0.0,0.0,0.0,0.0,0.0,2,0,41.56107846330867,-92.15278337727275,10002.62483992614,119.81041469740929,-0.0044042475541946,0.0024927798496224,,8905.102926237949,10943.217344713625,150,3,2025-09-11,2025-09-26 20:27:24.535,HA,C,1631364798,AMBUSH51,1,1,48,2,1,1,225,2,1,0,0,9,1,225,2,1,-145523.67283842212,-4792281.000783255,4196403.447921845,2.36742,2.87087,-0.289564,-106.028,22.0235,25.0633,-0.181378,-7.03283,6.32252,-0.0197792,0.00240205,0.00326133,4,0,41.38494386300569,-91.73932431560078,8983.051254041033,-68.5850373389273,1.0082443354540334,2.431551315516747,189.783,8905.102926237949,10943.217344713625,150,True,21.35977921101287,False,166.2289848963168,179.28066292246078,False,13.378930266700753,True,False
3,1970-07-23 10:17:04.456547024,2025-09-11,2025-09-26 20:27:25.654,HA,C,2550133574,JASSM,3,115,76,2,2,1,225,9,2,0,1,26,0,0,0,0,-179535.69665701812,-4778424.002900924,4211234.860807896,-2.36693,-0.400752,0.381194,79.875,-33.75,-34.625,0.0,0.0,0.0,0.0,0.0,0.0,2,0,41.56061820228408,-92.15171390070948,10002.627102795628,119.81112420438156,-0.0034810910121124,0.0024912519730302,,8905.102926237949,10943.217344713625,150,3,2025-09-11,2025-09-26 20:27:25.702,HA,C,1632756630,AMBUSH51,1,1,48,2,1,1,225,2,1,0,0,9,1,225,2,1,-145647.99115665743,-4792254.503349647,4196432.70182895,2.35156,2.86141,-0.289401,-105.773,22.78,24.9974,0.0128316,-6.94678,6.34325,-0.0205573,-0.00851899,0.0153225,4,0,41.38527653435907,-91.74081889535064,8990.60092596067,-68.23643178457509,0.6246314893971547,1.373066541124863,189.477,8905.102926237949,10943.217344713625,150,True,21.236323762946466,False,166.52075153836742,179.29981232549008,False,13.142681740339128,True,False
3,1970-07-23 10:17:04.467389531,2025-09-11,2025-09-26 20:27:26.738,HA,C,2551386272,JASSM,3,115,76,2,2,1,225,9,2,0,1,26,0,0,0,0,-179451.75720389312,-4778459.571260299,4211198.323698521,-2.36693,-0.400752,0.381194,79.875,-33.75,-34.625,0.0,0.0,0.0,0.0,0.0,0.0,2,0,41.56017877192657,-92.15069284760222,10002.62328783791,119.81180158047704,-0.0025997238325618,0.0024897988631491,,8905.102926237949,10943.217344713625,150,3,2025-09-11,2025-09-26 20:27:26.935,HA,C,1634227996,AMBUSH51,1,1,48,2,1,1,225,2,1,0,0,9,1,225,2,1,-145777.5370433749,-4792225.965399699,4196463.470931205,2.35121,2.85586,-0.290911,-105.585,23.1393,25.2597,-0.246538,-7.19711,6.41972,-0.000795827,0.000970597,0.0142906,4,0,41.385630607700406,-91.74237667362172,8996.816611436558,-67.9653620037358,0.464089892037185,1.2649008653916958,189.16,8905.102926237949,10943.217344713625,150,True,21.1122802964027,False,166.7673210806689,179.31687155248434,False,12.941116365388499,True,False
3,1970-07-23 10:17:04.478868311,2025-09-11,2025-09-26 20:27:27.886,HA,C,2552638972,JASSM,3,115,76,2,2,1,225,9,2,0,1,26,0,0,0,0,-179367.81775076812,-4778495.141572799,4211161.784636021,-2.36693,-0.400752,0.381194,79.875,-33.75,-34.625,0.0,0.0,0.0,0.0,0.0,0.0,2,0,41.559739307664245,-92.14967180745076,10002.624969981309,119.81247894209616,-0.0017183436834705,0.0024883245184882,,8905.102926237949,10943.217344713625,150,3,2025-09-11,2025-09-26 20:27:27.802,HA,C,1635261928,AMBUSH51,1,1,48,2,1,1,225,2,1,0,0,9,1,225,2,1,-145868.79774307087,-4792205.468254506,4196485.359294054,2.35417,2.85194,-0.293084,-105.423,23.3462,25.5078,-0.204078,-7.09822,6.37975,-0.00746413,0.00301166,0.00234795,4,0,41.385883801099176,-91.74347422830256,9000.69490612855,-67.72762289512944,0.3944128120508687,1.3712129226141272,188.964,8905.102926237949,10943.217344713625,150,True,21.009187174094254,False,166.9506392130748,179.32666533628938,False,12.787121083341205,True,False
3,1970-07-23 10:17:04.488330754,2025-09-11,2025-09-26 20:27:28.833,HA,C,2553891672,JASSM,3,115,76,2,2,1,225,9,2,0,1,26,0,0,0,0,-179283.87927420562,-4778530.707979049,4211125.245573521,-2.36693,-0.400657,0.381194,79.875,-33.75,-34.625,0.0,0.0,0.0,0.0,0.0,0.0,2,0,41.5592998573883,-92.14865079458173,10002.622115914466,119.8095122261218,-0.0044034243247897,0.0004434083204141,,8905.102926237949,10943.217344713625,150,3,2025-09-11,2025-09-26 20:27:28.701,HA,C,1636335626,AMBUSH51,1,1,48,2,1,1,225,2,1,0,0,9,1,225,2,1,-145963.9518714777,-4792183.820455467,4196508.267608782,2.36322,2.84933,-0.296947,-105.161,23.917,25.4462,0.0171134,-7.2102,6.33863,0.0115442,0.000795827,0.00128061,4,0,41.3861500094299,-91.74461871676137,9004.251005735316,-67.46960697625782,0.4443173314839486,1.8485218957596772,189.037,8905.102926237949,10943.217344713625,150,True,20.903883667334487,False,167.17466059919167,179.3354311460392,False,12.60587727332385,True,False
3,1970-07-23 10:17:04.499334827,2025-09-11,2025-09-26 20:27:29.933,HA,C,2555204022,JASSM,3,115,76,2,2,1,225,9,2,0,1,26,0,0,0,0,-179195.94275076812,-4778567.969697799,4211086.966276646,-2.36693,-0.400657,0.381194,79.875,-33.75,-34.625,0.0,0.0,0.0,0.0,0.0,0.0,2,0,41.55883945950106,-92.147581164445,10002.627852085609,119.8102218101352,-0.0034800809491195,0.0004418152268719,,8905.102926237949,10943.217344713625,150,3,2025-09-11,2025-09-26 20:27:29.968,HA,C,1637846758,AMBUSH51,1,1,48,2,1,1,225,2,1,0,0,9,1,225,2,1,-146096.06155784143,-4792153.094817829,4196540.436522682,2.37272,2.8449,-0.298492,-104.872,24.5522,25.6976,-0.0687025,-6.94521,6.20615,-0.0121226,0.00326549,0.0122932,4,0,41.38652602954578,-91.74620795576166,9008.336040967864,-67.2392578056382,0.3308848790043406,2.3203704263258325,188.842,8905.102926237949,10943.217344713625,150,True,20.775472792257375,False,167.53071331336938,179.34537311008555,False,12.30074801385506,True,False
3,1970-07-23 10:17:04.510970062,2025-09-11,2025-09-26 20:27:31.097,HA,C,2556516350,JASSM,3,115,76,2,2,1,225,9,2,0,1,26,0,0,0,0,-179108.00818045562,-4778605.227510299,4211048.685026646,-2.36693,-0.400657,0.381194,79.875,-33.75,-34.625,0.0,0.0,0.0,0.0,0.0,0.0,2,0,41.55837906134265,-92.1465115746301,10002.62537395471,119.81093136094272,-0.0025567586510142,0.0004402211680793,,8905.102926237949,10943.217344713625,150,3,2025-09-11,2025-09-26 20:27:31.235,HA,C,1639357890,AMBUSH51,1,1,48,2,1,1,225,2,1,0,0,9,1,225,2,1,-146228.22126301468,-4792121.559145431,4196572.957374201,2.36408,2.84089,-0.303787,-104.511,24.938,26.02,0.012781,-7.23744,6.40542,-0.00371074,-0.00259554,0.0159322,4,0,41.38690921266572,-91.74779810518947,9011.205232080649,-66.86927931719043,0.3827929050900938,1.7591872009953429,188.769,8905.102926237949,10943.217344713625,150,True,20.646824438564394,False,167.83659956890241,179.3519075168949,False,12.039522087142556,True,False
3,1970-07-23 10:17:04.520291093,2025-09-11,2025-09-26 20:27:32.029,HA,C,2557769072,JASSM,3,115,76,2,2,1,225,9,2,0,1,26,0,0,0,0,-179024.06677420562,-4778640.791963424,4211012.142057896,-2.36684,-0.400657,0.38129,79.875,-33.75,-34.625,0.0,0.0,0.0,0.0,0.0,0.0,2,0,41.55793956890496,-92.1454905703781,10002.624299251816,119.81545097729752,-0.0056011474715402,0.0059299343203229,,8905.102926237949,10943.217344713625,150,3,2025-09-11,2025-09-26 20:27:32.036,HA,C,1640312290,AMBUSH51,1,1,48,2,1,1,225,2,1,0,0,9,1,225,2,1,-146312.04363312566,-4792101.25920001,4196593.722066317,2.3641,2.84285,-0.304323,-104.265,25.4668,25.9172,0.00692627,-7.16018,6.29092,1.56045e-05,0.00211701,0.00628652,4,0,41.38715494427339,-91.74880677668152,9012.59602110003,-66.92147343093562,0.4820327507376403,1.7935381980427516,188.573,8905.102926237949,10943.217344713625,150,True,20.547438198206773,False,168.0239381551685,179.35382309583306,False,11.89201292843075,True,False
3,1970-07-23 10:17:04.531267353,2025-09-11,2025-09-26 20:27:33.126,HA,C,2559081424,JASSM,3,115,76,2,2,1,225,9,2,0,1,26,0,0,0,0,-178936.13025076812,-4778678.049775924,4210973.858854771,-2.36684,-0.400657,0.38129,79.875,-33.75,-34.625,0.0,0.0,0.0,0.0,0.0,0.0,2,0,41.55747913851254,-92.14442098685262,10002.62802345141,119.8161605114158,-0.0046778034188127,0.005928399763427,,8905.102926237949,10943.217344713625,150,3,2025-09-11,2025-09-26 20:27:33.068,HA,C,1641545054,AMBUSH51,1,1,48,2,1,1,225,2,1,0,0,9,1,225,2,1,-146418.6354020786,-4792074.779396235,4196620.522701075,2.36658,2.84121,-0.306841,-103.976,25.7675,26.2722,-0.181546,-7.38788,6.58572,-0.0117647,0.000535753,0.0120539,4,0,41.387474042293285,-91.75008969608564,9013.590607407032,-66.75617572560326,0.5178835394163657,1.9087625914169644,188.769,8905.102926237949,10943.217344713625,150,True,20.43267682866372,False,168.3010940619794,179.35456663042817,False,11.648425520522775,True,False
3,1970-07-23 10:17:04.542388191,2025-09-11,2025-09-26 20:27:34.238,HA,C,2560334610,JASSM,3,115,76,2,2,1,225,9,2,0,1,26,0,0,0,0,-178852.15759451812,-4778713.623994674,4210937.300261021,-2.36684,-0.400657,0.38129,79.875,-33.75,-34.625,0.0,0.0,0.0,0.0,0.0,0.0,2,0,41.55703947093968,-92.1433996323948,10002.624181201783,119.8168380455874,-0.0037960903193318,0.0059269488898025,,8905.102926237949,10943.217344713625,150,3,2025-09-11,2025-09-26 20:27:34.368,HA,C,1643095954,AMBUSH51,1,1,48,2,1,1,225,2,1,0,0,9,1,225,2,1,-146554.1117110049,-4792040.921552016,4196654.877620913,2.36014,2.84354,-0.307855,-103.699,25.8212,26.8763,-0.197269,-7.42989,6.8835,-0.0053773,0.00543555,0.00424753,4,0,41.38788276406356,-91.75172035652378,9014.998946424792,-66.80324254997562,0.6515232350604588,1.580132823152423,188.964,8905.102926237949,10943.217344713625,150,True,20.30420411478862,False,168.57886584708947,179.353496699572,False,11.403187086683312,True,False
3,1970-07-23 10:17:04.553387300,2025-09-11,2025-09-26 20:27:35.338,HA,C,2561646652,JASSM,3,115,76,2,2,1,225,9,2,0,1,26,0,0,0,0,-178764.24255545562,-4778750.870088424,4210899.022917271,-2.36684,-0.400657,0.38129,79.875,-33.75,-34.625,0.0,0.0,0.0,0.0,0.0,0.0,2,0,41.55657912560171,-92.14233034103026,10002.62451410684,119.81754737327634,-0.0028729685326818,0.0059254073140261,,8905.102926237949,10943.217344713625,150,3,2025-09-11,2025-09-26 20:27:35.336,HA,C,1644249186,AMBUSH51,1,1,48,2,1,1,225,2,1,0,0,9,1,225,2,1,-146653.3171570776,-4792016.060946346,4196680.606299508,2.3587,2.84867,-0.313374,-103.38,25.5271,27.4548,-0.191664,-7.93439,7.05982,0.00458667,0.000121715,-0.00296589,4,0,41.38818630525178,-91.75291448024196,9017.110749127756,-66.7678548461753,1.072984777024094,1.5879619868546653,188.879,8905.102926237949,10943.217344713625,150,True,20.193389258217707,False,168.72911403216827,179.35085524434604,False,11.265923583015375,True,False
3,1970-07-23 10:17:04.565267173,2025-09-11,2025-09-26 20:27:36.526,HA,C,2562958824,JASSM,3,115,76,2,2,1,225,9,2,0,1,26,0,0,0,0,-178676.31775076812,-4778788.118135299,4210860.741667271,-2.36684,-0.400657,0.38129,79.875,-33.75,-34.625,0.0,0.0,0.0,0.0,0.0,0.0,2,0,41.55611873450433,-92.14126094704407,10002.625678981198,119.81825676258543,-0.0019497524028922,0.0059238784842728,,8905.102926237949,10943.217344713625,150,3,2025-09-11,2025-09-26 20:27:36.501,HA,C,1645641018,AMBUSH51,1,1,48,2,1,1,225,2,1,0,0,9,1,225,2,1,-146774.171215943,-4791985.788797278,4196712.955675725,2.38004,2.84191,-0.314983,-102.886,25.7139,27.912,-0.135863,-7.43079,6.57432,0.0193901,-0.00105174,0.00127436,4,0,41.38856278188615,-91.7543691953714,9021.906998449278,-66.44791720844775,0.871015259842604,2.696490863620157,188.487,8905.102926237949,10943.217344713625,150,True,20.070255282395674,False,169.037181795786,179.34704700999876,False,10.98950594596833,True,False
3,1970-07-23 10:17:04.574350258,2025-09-11,2025-09-26 20:27:37.435,HA,C,2564211522,JASSM,3,115,76,2,2,1,225,9,2,0,1,26,0,0,0,0,-178592.37829764312,-4778823.676729049,4210824.194792271,-2.36684,-0.400561,0.38129,79.875,-33.75,-34.625,0.0,0.0,0.0,0.0,0.0,0.0,2,0,41.55567920348933,-92.14024003994555,10002.62739910777,119.81529019620297,-0.0046348179943308,0.0038784889015968,,8905.102926237949,10943.217344713625,150,3,2025-09-11,2025-09-26 20:27:37.568,HA,C,1646913550,AMBUSH51,1,1,48,2,1,1,225,2,1,0,0,9,1,225,2,1,-146883.00560148433,-4791958.3268516045,4196742.461721852,2.39687,2.83381,-0.321758,-102.608,25.9899,28.41,0.0409843,-7.31641,6.6292,0.000410917,0.000179971,0.00890183,4,0,41.38890551795348,-91.75567931743068,9026.551418292112,-65.86379828378004,0.8222852567139999,3.524441129623363,188.377,8905.102926237949,10943.217344713625,150,True,19.956266936461706,False,169.35210116742923,179.3418529623533,False,10.70313905104655,True,False
3,1970-07-23 10:17:04.585308172,2025-09-11,2025-09-26 20:27:38.530,HA,C,2565464222,JASSM,3,115,76,2,2,1,225,9,2,0,1,26,0,0,0,0,-178508.43786795562,-4778859.233369674,4210787.645964146,-2.36684,-0.400561,0.38129,79.875,-33.75,-34.625,0.0,0.0,0.0,0.0,0.0,0.0,2,0,41.55523966209306,-92.13921913586158,10002.624944030777,119.8159674076159,-0.0037534415966714,0.003876977118869,,8905.102926237949,10943.217344713625,150,3,2025-09-11,2025-09-26 20:27:38.701,HA,C,1648265614,AMBUSH51,1,1,48,2,1,1,225,2,1,0,0,9,1,225,2,1,-146999.71838491264,-4791928.116044767,4196775.212978622,2.41192,2.82252,-0.327797,-102.311,26.4759,29.2109,-0.130723,-7.26132,6.74751,0.00557079,0.000741732,0.0182541,4,0,41.38928506360402,-91.75708457122398,9032.073970121846,-65.19019339740495,0.621565968688458,4.188620131829593,188.133,8905.102926237949,10943.217344713625,150,True,19.837481307485316,False,169.84486856940057,179.335065669355,False,10.237223403015708,True,False
3,1970-07-23 10:17:04.596286091,2025-09-11,2025-09-26 20:27:39.628,HA,C,2566776572,JASSM,3,115,76,2,2,1,225,9,2,0,1,26,0,0,0,0,-178420.50134451812,-4778896.483369674,4210749.354948521,-2.36684,-0.400561,0.38129,79.875,-33.75,-34.625,0.0,0.0,0.0,0.0,0.0,0.0,2,0,41.55477916714825,-92.13814964485636,10002.624397055964,119.8166768426003,-0.0028300964945591,0.0038753770757834,,8905.102926237949,10943.217344713625,150,3,2025-09-11,2025-09-26 20:27:39.770,HA,C,1649538146,AMBUSH51,1,1,48,2,1,1,225,2,1,0,0,9,1,225,2,1,-147108.08927474482,-4791899.30023515,4196806.519585511,2.41701,2.81221,-0.33513,-102.108,27.0826,29.9819,-0.274872,-7.28373,6.93812,0.00221687,0.000363064,0.0213916,4,0,41.389648063318944,-91.75838968058812,9037.272732999989,-64.50055245864306,0.5138228467114,4.295275026244217,188.023,8905.102926237949,10943.217344713625,150,True,19.720575180470256,False,170.35232608880347,179.32733708282734,False,9.755932463010081,True,False
3,1970-07-23 10:17:04.607266446,2025-09-11,2025-09-26 20:27:40.726,HA,C,2568029472,JASSM,3,115,76,2,2,1,225,9,2,0,1,26,0,0,0,0,-178336.54821951812,-4778932.043916549,4210712.798307896,-2.36684,-0.400561,0.38129,79.875,-33.75,-34.625,0.0,0.0,0.0,0.0,0.0,0.0,2,0,41.55433953403482,-92.1371286153563,10002.62351077784,119.81735412515712,-0.0019485837981662,0.0038738590047782,,8905.102926237949,10943.217344713625,150,3,2025-09-11,2025-09-26 20:27:40.901,HA,C,1650890212,AMBUSH51,1,1,48,2,1,1,225,2,1,0,0,9,1,225,2,1,-147224.3369825644,-4791867.917041532,4196840.881761452,2.41793,2.80139,-0.340508,-101.892,27.6595,30.7567,-0.296425,-7.30092,6.83527,-0.0261083,-0.0032967,0.000585687,4,0,41.39004551080189,-91.75978983937487,9043.385751488608,-63.87243548775501,0.3113313485393739,4.147188487638792,188.341,8905.102926237949,10943.217344713625,150,True,19.601450947380716,False,170.84994609579417,179.31823757214414,False,9.284485085958593,True,False
3,1970-07-23 10:17:04.617286323,2025-09-11,2025-09-26 20:27:41.728,HA,C,2569341622,JASSM,3,115,76,2,2,1,225,9,2,0,1,26,0,0,0,0,-178248.62536795562,-4778969.284150924,4210674.513151646,-2.36684,-0.400561,0.381386,79.875,-33.75,-34.625,0.0,0.0,0.0,0.0,0.0,0.0,2,0,41.55387911424967,-92.13605932207452,10002.623640640511,119.8219058599076,-0.0049510348361009,0.0038720780865312,,8905.102926237949,10943.217344713625,150,3,2025-09-11,2025-09-26 20:27:41.668,HA,C,1651804844,AMBUSH51,1,1,48,2,1,1,225,2,1,0,0,9,1,225,2,1,-147302.14295800522,-4791846.357469957,4196864.527642253,2.40769,2.79543,-0.347711,-101.685,27.9483,31.3347,-0.0999719,-7.1642,6.5973,-0.0224153,0.00530032,-0.00151155,4,0,41.39031918287643,-91.76072719499037,9047.52097842794,-63.35318345555839,0.3714884061389945,3.448122601533544,188.219,8905.102926237949,10943.217344713625,150,True,19.50153004885055,False,171.17545305295016,179.311021949467,False,8.970815116622415,True,False
3,1970-07-23 10:17:04.634468550,2025-09-11,2025-09-26 20:27:43.446,HA,C,2570594420,JASSM,3,115,76,2,2,1,225,9,2,0,1,26,0,0,0,0,-178164.67810233062,-4779004.840791549,4210637.956511021,-2.36684,-0.400561,0.381386,79.875,-33.75,-34.625,0.0,0.0,0.0,0.0,0.0,0.0,2,0,41.5534394845067,-92.13503839279738,10002.623857466348,119.8225830640339,-0.0040695795189001,0.0038706113815621,,8905.102926237949,10943.217344713625,150,3,2025-09-11,2025-09-26 20:27:43.568,HA,C,1654071542,AMBUSH51,1,1,48,2,1,1,225,2,1,0,0,9,1,225,2,1,-147494.10505453506,-4791792.054189599,4196923.814244798,2.3645,2.78387,-0.358231,-101.492,28.8491,31.8138,-0.145467,-7.21922,6.66221,-0.0227211,-0.00426626,-0.000802069,4,0,41.39100736227276,-91.76304026987609,9057.059757087623,-62.48926854383249,0.354394936715812,0.750108148516989,188.5,8905.102926237949,10943.217344713625,150,True,19.338221836688227,False,171.69487516445233,179.29373042197736,False,8.511846562425328,True,False
3,1970-07-23 10:17:04.640866464,2025-09-11,2025-09-26 20:27:44.086,HA,C,2571966316,JASSM,3,115,76,2,2,1,225,9,2,0,1,26,0,0,0,0,-178072.75134451812,-4779043.774385299,4210597.925261021,-2.36684,-0.400561,0.381386,79.875,-33.75,-34.625,0.0,0.0,0.0,0.0,0.0,0.0,2,0,41.552958074397054,-92.13392043762316,10002.623332008512,119.82332462075246,-0.0031043486055573,0.0038690207701984,,8905.102926237949,10943.217344713625,150,3,2025-09-11,2025-09-26 20:27:43.968,HA,C,1654548742,AMBUSH51,1,1,48,2,1,1,225,2,1,0,0,9,1,225,2,1,-147535.37896754735,-4791780.202758374,4196936.684264938,2.35985,2.78336,-0.358711,-101.514,28.8436,31.992,-0.060068,-7.0759,6.63175,-0.00925553,-0.00035058,0.0138994,4,0,41.39115719569695,-91.76353767652486,9058.947801749411,-62.450942333431406,0.3548240730921422,0.4741394330018293,188.536,8905.102926237949,10943.217344713625,150,True,19.256595711071203,False,171.74272939551443,179.28803633685666,False,8.469365790128231,True,False
3,1970-07-23 10:17:04.650332173,2025-09-11,2025-09-26 20:27:45.033,HA,C,2573219024,JASSM,3,115,76,2,2,1,225,9,2,0,1,26,0,0,0,0,-177988.81091483062,-4779079.325166549,4210561.370573521,-2.36684,-0.400561,0.381386,79.875,-33.75,-34.625,0.0,0.0,0.0,0.0,0.0,0.0,2,0,41.55251847218238,-92.1328996217859,10002.624434360812,119.82400173730414,-0.0022229711479208,0.0038675629679558,,8905.102926237949,10943.217344713625,150,3,2025-09-11,2025-09-26 20:27:44.868,HA,C,1655622440,AMBUSH51,1,1,48,2,1,1,225,2,1,0,0,9,1,225,2,1,-147626.55450733227,-4791753.825497946,4196965.340877779,2.35454,2.7879,-0.3588,-101.516,29.0382,32.1779,-0.163923,-7.28152,6.8086,-0.00630316,0.00608886,0.000654347,4,0,41.39149087509926,-91.76463654576963,9063.128369989186,-62.6190077470185,0.5321438395330964,0.2598885296392776,188.781,8905.102926237949,10943.217344713625,150,True,19.151108631100527,False,171.87075524201367,179.27758943389094,False,8.364645486719153,True,False
3,1970-07-23 10:17:04.661344721,2025-09-11,2025-09-26 20:27:46.134,HA,C,2574531374,JASSM,3,115,76,2,2,1,225,9,2,0,1,26,0,0,0,0,-177900.87341483062,-4779116.567354049,4210523.073698521,-2.36684,-0.400465,0.381386,79.875,-33.75,-34.625,0.0,0.0,0.0,0.0,0.0,0.0,2,0,41.55205792560764,-92.13183021228356,10002.624024716366,119.8210675626732,-0.0048660518774979,0.0018216289206304,,8905.102926237949,10943.217344713625,150,3,2025-09-11,2025-09-26 20:27:46.301,HA,C,1657332404,AMBUSH51,1,1,48,2,1,1,225,2,1,0,0,9,1,225,2,1,-147772.10101818538,-4791711.317929325,4197011.359133724,2.36628,2.78491,-0.358651,-101.601,29.4932,32.4479,-0.208474,-7.20922,6.69428,0.00277863,-0.00524622,0.0139493,4,0,41.39202774139903,-91.76639087685264,9069.418394270906,-62.5136399120446,0.4136627483105811,0.8734168059651127,188.903,8905.102926237949,10943.217344713625,150,True,19.011551134022664,False,172.10313983426127,179.2605494892502,False,8.174366373804414,True,False
3,1970-07-23 10:17:04.671331609,2025-09-11,2025-09-26 20:27:47.133,HA,C,2575784666,JASSM,3,115,76,2,2,1,225,9,2,0,1,26,0,0,0,0,-177816.89392264312,-4779152.131807174,4210486.499479771,-2.36684,-0.400465,0.381386,79.875,-33.75,-34.625,0.0,0.0,0.0,0.0,0.0,0.0,2,0,41.55161810034459,-92.13080895101926,10002.622752116582,119.8217449627215,-0.0039842651289022,0.0018201139472722,,8905.102926237949,10943.217344713625,150,3,2025-09-11,2025-09-26 20:27:47.068,HA,C,1658247038,AMBUSH51,1,1,48,2,1,1,225,2,1,0,0,9,1,225,2,1,-147849.99860611997,-4791688.440269312,4197036.133945681,2.36952,2.7864,-0.363967,-101.617,29.4682,32.8193,-0.162278,-7.42968,6.98374,-0.00562073,0.00876659,0.00120362,4,0,41.39231680464178,-91.7673298663957,9072.792640700134,-62.35401708158575,0.6855311526236979,1.0906893112704872,188.817,8905.102926237949,10943.217344713625,150,True,18.913593514439423,False,172.2016232887507,179.25002038344147,False,8.08299371482881,True,False
3,1970-07-23 10:17:04.682331379,2025-09-11,2025-09-26 20:27:48.233,HA,C,2577097188,JASSM,3,115,76,2,2,1,225,9,2,0,1,26,0,0,0,0,-177728.94568045562,-4779189.375947799,4210448.196745396,-2.36684,-0.400465,0.381386,79.875,-33.75,-34.625,0.0,0.0,0.0,0.0,0.0,0.0,2,0,41.55115748552564,-92.12973944172032,10002.62403892148,119.82245435925628,-0.0030608094752586,0.0018185321201627,,8905.102926237949,10943.217344713625,150,3,2025-09-11,2025-09-26 20:27:48.135,HA,C,1659519570,AMBUSH51,1,1,48,2,1,1,225,2,1,0,0,9,1,225,2,1,-147957.52162768028,-4791656.722691467,4197070.662416718,2.36361,2.78181,-0.360614,-101.567,29.853,32.9108,-0.00193745,-6.65979,6.18637,-0.00146162,-0.00200673,0.00288058,4,0,41.39271885596868,-91.76862603002334,9077.83276049697,-62.31820770727418,0.3765454216729181,0.6591803409038706,188.426,8905.102926237949,10943.217344713625,150,True,18.79587775404661,False,172.38171683188128,179.23571145789433,False,7.9389586298273125,True,False
3,1970-07-23 10:17:04.694331619,2025-09-11,2025-09-26 20:27:49.433,HA,C,2578468612,JASSM,3,115,76,2,2,1,225,9,2,0,1,26,0,0,0,0,-177637.05017264312,-4779228.291963424,4210408.173307896,-2.36684,-0.400465,0.381386,79.875,-33.75,-34.625,0.0,0.0,0.0,0.0,0.0,0.0,2,0,41.55067617425481,-92.12862194712864,10002.628413344975,119.82319557713168,-0.0020959011345956,0.0018168683563544,,8905.102926237949,10943.217344713625,150,3,2025-09-11,2025-09-26 20:27:49.535,HA,C,1661189768,AMBUSH51,1,1,48,2,1,1,225,2,1,0,0,9,1,225,2,1,-148100.3963248763,-4791613.5545750735,4197116.592642067,2.3608,2.77997,-0.36542,-101.518,30.4861,32.9039,-0.155283,-7.01448,6.52935,-0.00644256,0.00466781,0.00578301,4,0,41.39325948653034,-91.77034875065767,9082.13301009273,-62.05436410582999,0.5018764440345331,0.4629714239716844,188.5,8905.102926237949,10943.217344713625,150,True,18.65495571616462,False,172.61976538293797,179.2154467856837,False,7.757035810621947,True,False
3,1970-07-23 10:17:04.705346027,2025-09-11,2025-09-26 20:27:50.534,HA,C,2579840430,JASSM,3,115,76,2,2,1,225,9,2,0,1,26,0,0,0,0,-177545.12829764312,-4779267.215791549,4210368.136198521,-2.36684,-0.400465,0.381482,79.875,-33.75,-34.625,0.0,0.0,0.0,0.0,0.0,0.0,2,0,41.55019471924587,-92.12750414997618,10002.625742676575,119.82777957311892,-0.0050562215890312,0.0018150006161779,,8905.102926237949,10943.217344713625,150,3,2025-09-11,2025-09-26 20:27:50.468,HA,C,1662303234,AMBUSH51,1,1,48,2,1,1,225,2,1,0,0,9,1,225,2,1,-148194.64792099094,-4791584.730124673,4197146.771297441,2.35964,2.77842,-0.366985,-101.512,30.8061,32.8776,-0.127779,-6.92348,6.47363,0.000294404,0.00455338,0.000252792,4,0,41.393617367077695,-91.77148533875544,9083.86064194332,-61.93312400738672,0.5072399376281778,0.3658802089240954,188.622,8905.102926237949,10943.217344713625,150,True,18.54226901674783,False,172.72636595795728,179.2001892072742,False,7.685946142862926,True,False
3,1970-07-23 10:17:04.717332195,2025-09-11,2025-09-26 20:27:51.733,HA,C,2581153624,JASSM,3,115,76,2,2,1,225,9,2,0,1,26,0,0,0,0,-177457.13415701812,-4779304.475557174,4210329.810026646,-2.36684,-0.400465,0.381482,79.875,-33.75,-34.625,0.0,0.0,0.0,0.0,0.0,0.0,2,0,41.54973383268878,-92.12643413116604,10002.626998156278,119.82848928773774,-0.004132284529757,0.0018134787434167,,8905.102926237949,10943.217344713625,150,3,2025-09-11,2025-09-26 20:27:51.736,HA,C,1663814364,AMBUSH51,1,1,48,2,1,1,225,2,1,0,0,9,1,225,2,1,-148323.46351413414,-4791544.778003999,4197188.117766925,2.33281,2.77403,-0.370511,-101.594,31.1908,32.8736,-0.0895554,-6.95766,6.38788,-0.0739683,-0.00739964,0.0116087,4,0,41.394110465377416,-91.7730389629586,9085.078461392824,-61.62555348539994,0.4848767313631706,-1.258960357099589,189.135,8905.102926237949,10943.217344713625,150,True,18.41180087977336,False,172.84181510782747,179.17918179207294,False,7.615933571731525,True,False
3,1970-07-23 10:17:04.727388727,2025-09-11,2025-09-26 20:27:52.738,HA,C,2582465134,JASSM,3,115,76,2,2,1,225,9,2,0,1,26,0,0,0,0,-177369.25427420562,-4779341.684541549,4210291.530729771,-2.36684,-0.400465,0.381482,79.875,-33.75,-34.625,0.0,0.0,0.0,0.0,0.0,0.0,2,0,41.54927352945743,-92.12536551798073,10002.621508675627,119.82919806359044,-0.0032095452335584,0.0018119539404997,,8905.102926237949,10943.217344713625,150,3,2025-09-11,2025-09-26 20:27:52.768,HA,C,1665047130,AMBUSH51,1,1,48,2,1,1,225,2,1,0,0,9,1,225,2,1,-148427.21256614546,-4791512.555970364,4197221.231846701,2.23639,2.77444,-0.371661,-101.851,31.1927,32.3908,-0.0142548,-7.29319,6.61286,-0.107743,0.000546156,-0.00764098,4,0,41.3945065982344,-91.77429029696252,9085.552784783578,-61.594885418356654,0.5476360092624553,-6.774514983001018,189.563,8905.102926237949,10943.217344713625,150,True,18.296057423903957,False,172.631619450633,179.16076492325033,False,7.868402715867699,True,False
3,1970-07-23 10:17:04.736264660,2025-09-11,2025-09-26 20:27:53.626,HA,C,2583538876,JASSM,3,115,76,2,2,1,225,9,2,0,1,26,0,0,0,0,-177297.30407889312,-4779372.149385299,4210260.190886021,-2.36684,-0.400465,0.381482,79.875,-33.75,-34.625,0.0,0.0,0.0,0.0,0.0,0.0,2,0,41.54889665747711,-92.1244906196914,10002.624057450155,119.82977834994496,-0.0024540680542082,0.0018107065301761,,8905.102926237949,10943.217344713625,150,3,2025-09-11,2025-09-26 20:27:53.668,HA,C,1666120830,AMBUSH51,1,1,48,2,1,1,225,2,1,0,0,9,1,225,2,1,-148519.83049956424,-4791484.271912057,4197250.246506173,2.14575,2.78853,-0.362876,-102.425,30.6342,31.5631,-0.0851853,-7.24562,6.77957,-0.104135,0.00636558,-0.017218,4,0,41.3948536675079,-91.7754072114634,9085.978939197576,-62.48382669087827,0.7291406913905253,-11.687669815406696,189.758,8905.102926237949,10943.217344713625,150,False,18.197029295259362,False,172.05161527115834,179.14324866379496,False,8.479850406305518,True,False
3,1970-07-23 10:17:04.745306462,2025-09-11,2025-09-26 20:27:54.530,HA,C,2584612618,JASSM,3,115,76,2,2,1,225,9,2,0,1,26,0,0,0,0,-177225.35486014312,-4779402.612275924,4210228.851042271,-2.36674,-0.400369,0.381482,79.875,-33.75,-34.625,0.0,0.0,0.0,0.0,0.0,0.0,2,0,41.54851979024991,-92.12361574412247,10002.625544562745,119.82671536753296,-0.0052650263580821,0.0052560678679901,,8905.102926237949,10943.217344713625,150,3,2025-09-11,2025-09-26 20:27:54.468,HA,C,1667075228,AMBUSH51,1,1,48,2,1,1,225,2,1,0,0,9,1,225,2,1,-148601.9417813863,-4791460.067273715,4197274.885568066,2.05729,2.80274,-0.35144,-103.264,29.7047,30.3436,-0.0310608,-7.38271,6.90042,-0.106072,0.00448264,-0.0029971,4,0,41.395148855915245,-91.77639710954313,9086.151424100815,-63.48669035440439,0.8149430298180028,-16.48497152516601,189.795,8905.102926237949,10943.217344713625,150,False,18.104498784002846,False,171.1640324837381,179.1256310898847,False,9.396853567935082,True,False
3,1970-07-23 10:17:04.755345387,2025-09-11,2025-09-26 20:27:55.534,HA,C,2585746012,JASSM,3,115,76,2,2,1,225,9,2,0,1,26,0,0,0,0,-177149.40954764312,-4779434.766572799,4210195.769011021,-2.36674,-0.400369,0.381482,79.875,-33.75,-34.75,0.0,0.0,0.0,0.0,0.0,0.0,2,0,41.54812197698384,-92.12269228880282,10002.62640644865,119.82732785072962,-0.0044676006714806,0.005254699432829,,8905.102926237949,10943.217344713625,150,3,2025-09-11,2025-09-26 20:27:55.605,HA,C,1668427294,AMBUSH51,1,1,48,2,1,1,225,2,1,0,0,9,1,225,2,1,-148719.07416880107,-4791427.6175794825,4197307.615284407,1.93713,2.82712,-0.328797,-104.901,27.6984,27.9747,-0.124489,-7.36643,6.9726,-0.0995741,0.00557287,-0.0329431,4,0,41.39554124044178,-91.77780845171128,9086.271391542112,-65.33569298800599,0.8574815126682745,-22.930421144284576,190.504,8905.102926237949,10943.217344713625,150,False,17.990198530936418,False,169.33187034991414,179.16834271901988,False,11.223091790148825,True,False
3,1970-07-23 10:17:04.768443864,2025-09-11,2025-09-26 20:27:56.844,HA,C,2586820030,JASSM,3,115,76,2,2,1,225,9,2,0,1,26,0,0,0,0,-177077.44177420562,-4779465.235322799,4210164.419401646,-2.36674,-0.400369,0.381482,79.875,-33.75,-34.75,0.0,0.0,0.0,0.0,0.0,0.0,2,0,41.54774499940165,-92.12181720939618,10002.62681965889,119.8279082440796,-0.0037119432978395,0.0052534089729437,,8905.102926237949,10943.217344713625,150,3,2025-09-11,2025-09-26 20:27:56.668,HA,C,1669699826,AMBUSH51,1,1,48,2,1,1,225,2,1,0,0,9,1,225,2,1,-148832.4781977308,-4791398.937983025,4197335.73632618,1.82687,2.86263,-0.293213,-106.791,25.4245,24.454,-0.0320254,-7.76233,7.17984,-0.0860149,0.0195066,-0.0449148,4,0,41.395880754584006,-91.77917387085093,9085.390461871886,-68.1491385507714,0.8541392722637622,-28.666959161265524,191.042,8905.102926237949,10943.217344713625,150,False,17.881798398602395,False,167.02013013810753,179.13479417107814,False,13.594922317365649,True,False
3,1970-07-23 10:17:04.773302554,2025-09-11,2025-09-26 20:27:57.330,HA,C,2587953624,JASSM,3,115,76,2,2,1,225,9,2,0,1,26,0,0,0,0,-177001.48181326812,-4779497.393525924,4210131.329557896,-2.36674,-0.400369,0.381482,79.875,-33.75,-34.75,0.0,0.0,0.0,0.0,0.0,0.0,2,0,41.54734709895619,-92.1208935990332,10002.626837900349,119.8285208207239,-0.002914366371283,0.0052520433465739,,8905.102926237949,10943.217344713625,150,3,2025-09-11,2025-09-26 20:27:57.468,HA,C,1670654224,AMBUSH51,1,1,48,2,1,1,225,2,1,0,0,9,1,225,2,1,-148918.3072807681,-4791379.45165107,4197354.1431539375,1.77692,2.89262,-0.257367,-108.257,23.257,21.4131,-0.0249772,-7.80237,7.10972,-0.00717701,0.0227274,-0.0485476,4,0,41.3961050793596,-91.78020646458565,9083.94854730842,-70.77922479092369,0.6579758038042732,-31.09647956884743,191.543,8905.102926237949,10943.217344713625,150,False,17.78727805614393,False,164.99307896893993,179.10363499110767,False,15.668479325872495,True,False
3,1970-07-23 10:17:04.783304696,2025-09-11,2025-09-26 20:27:58.330,HA,C,2589146196,JASSM,3,115,76,2,2,1,225,9,2,0,1,26,0,0,0,0,-176921.57068045562,-4779531.223604049,4210096.517057896,-2.36674,-0.400369,0.381482,79.875,-33.75,-34.75,0.0,0.0,0.0,0.0,0.0,0.0,2,0,41.54692848865952,-92.1199219583009,10002.625943745092,119.82916524789648,-0.0020753002727794,0.0052506026676748,,8905.102926237949,10943.217344713625,150,3,2025-09-11,2025-09-26 20:27:58.434,HA,C,1671807456,AMBUSH51,1,1,48,2,1,1,225,2,1,0,0,9,1,225,2,1,-149022.96085828918,-4791358.488611996,4197372.683808083,1.74717,2.92672,-0.212706,-110.017,20.5131,17.3435,-0.105636,-7.69778,7.36002,-0.026978,0.0135873,-0.0415172,4,0,41.39633560010958,-91.78146450278253,9080.60868062258,-73.94937474760187,0.3207311022369765,-32.37298163841511,191.86,8905.102926237949,10943.217344713625,150,False,17.68138856509039,False,162.37320895038738,179.05877250325082,False,18.35327232908857,True,False
3,1970-07-23 10:17:04.793361650,2025-09-11,2025-09-26 20:27:59.336,HA,C,2590279744,JASSM,3,115,76,2,2,1,225,9,2,0,1,26,0,0,0,0,-176845.61364920562,-4779563.377900924,4210063.425261021,-2.36674,-0.400369,0.381482,79.875,-33.75,-34.75,0.0,0.0,0.0,0.0,0.0,0.0,2,0,41.54653058243348,-92.11899840798144,10002.620722267187,119.82977777482849,-0.0012777518516816,0.0052492315136873,,8905.102926237949,10943.217344713625,150,3,2025-09-11,2025-09-26 20:27:59.534,HA,C,1673119756,AMBUSH51,1,1,48,2,1,1,225,2,1,0,0,9,1,225,2,1,-149144.7276167183,-4791337.767381735,4197388.899837824,1.72688,2.96732,-0.163162,-111.863,17.1562,12.4203,-0.0460081,-7.85657,7.474,-0.00939701,0.034335,-0.0510484,4,0,41.39654580557784,-91.78292690513778,9074.13670531334,-77.58773351659015,0.1038501311777413,-33.11413640368699,193.278,8905.102926237949,10943.217344713625,150,False,17.570743756997036,False,159.25065522573755,178.9965872821057,False,21.558903220486922,True,False
3,1970-07-23 10:17:04.802382948,2025-09-11,2025-09-26 20:28:00.238,HA,C,2591412982,JASSM,3,115,76,2,2,1,225,9,2,0,1,26,0,0,0,0,-176769.67810233062,-4779595.524385299,4210030.345182896,-2.36674,-0.400369,0.381578,79.875,-33.75,-34.75,0.0,0.0,0.0,0.0,0.0,0.0,2,0,41.54613278955193,-92.11807512963937,10002.627838289933,119.83423284209262,-0.0044057967584388,0.0052477042185032,,8905.102926237949,10943.217344713625,150,3,2025-09-11,2025-09-26 20:28:00.234,HA,C,1673954854,AMBUSH51,1,1,48,2,1,1,225,2,1,0,0,9,1,225,2,1,-149223.467698157,-4791326.516251732,4197396.361249605,1.71979,2.98762,-0.133783,-113.048,14.909,9.21334,0.0128482,-7.90307,7.50355,0.00521085,0.0236782,-0.0510359,4,0,41.39664852516673,-91.78387176911863,9068.6782654017,-79.60914194289364,-0.1658221440243441,-33.3471445714088,194.048,8905.102926237949,10943.217344713625,150,False,17.483399526374985,False,157.21898259608113,178.9491569989684,False,23.649615720775277,True,False
3,1970-07-23 10:17:04.811330421,2025-09-11,2025-09-26 20:28:01.133,HA,C,2592486724,JASSM,3,115,76,2,2,1,225,9,2,0,1,26,0,0,0,0,-176697.72888358062,-4779625.981416549,4209998.997526646,-2.36674,-0.400369,0.381578,79.875,-33.75,-34.75,0.0,0.0,0.0,0.0,0.0,0.0,2,0,41.545755855666805,-92.1172003311848,10002.62465409856,119.83481302636844,-0.0036503258981976,0.0052464481458528,,8905.102926237949,10943.217344713625,150,3,2025-09-11,2025-09-26 20:28:01.001,HA,C,1674869486,AMBUSH51,1,1,48,2,1,1,225,2,1,0,0,9,1,225,2,1,-149310.42408694106,-4791316.05918744,4197401.997174097,1.7517,3.01387,-0.100358,-114.102,12.264,5.99537,-0.107993,-8.01044,7.64831,0.0476571,0.0305338,-0.0520159,4,0,41.39673266578318,-91.78491449834176,9061.845841334582,-82.03325784305481,-0.3273858601863794,-31.332453394549407,194.842,8905.102926237949,10943.217344713625,150,False,17.395380931698345,False,155.08745401824683,178.89148578952563,False,25.84721847082738,True,False
3,1970-07-23 10:17:04.824443798,2025-09-11,2025-09-26 20:28:02.444,HA,C,2593620926,JASSM,3,115,76,2,2,1,225,9,2,0,1,26,0,0,0,0,-176621.72888358062,-4779658.151338424,4209965.886198521,-2.36674,-0.400369,0.381578,79.875,-33.75,-34.75,0.0,0.0,0.0,0.0,0.0,0.0,2,0,41.54535771222515,-92.1162762929452,10002.623340111752,119.83542586278293,-0.0028523316805095,0.0052451377482533,,8905.102926237949,10943.217344713625,150,3,2025-09-11,2025-09-26 20:28:02.401,HA,C,1676539684,AMBUSH51,1,1,48,2,1,1,225,2,1,0,0,9,1,225,2,1,-149471.2459015332,-4791301.884072159,4197405.786656762,1.81944,3.05725,-0.0503735,-115.675,7.53949,0.472065,-0.0221641,-8.08881,7.69933,0.0587237,0.0225859,-0.0354897,4,0,41.39681274396133,-91.78684106177036,9047.532441084224,-85.82142374019354,-0.3731260603465464,-27.240947700159623,196.284,8905.102926237949,10943.217344713625,150,False,17.270956230414974,False,151.43041708974278,178.7718765628257,False,29.638025890652212,True,False
3,1970-07-23 10:17:04.830363922,2025-09-11,2025-09-26 20:28:03.036,HA,C,2594753512,JASSM,3,115,76,2,2,1,225,9,2,0,1,26,0,0,0,0,-176545.83630545562,-4779690.276338424,4209932.821745396,-2.36674,-0.400273,0.381578,79.875,-33.75,-34.75,0.0,0.0,0.0,0.0,0.0,0.0,2,0,41.54496012132699,-92.11535357185409,10002.627589591964,119.83239483964331,-0.0056218791212061,0.0031984921833625,,8905.102926237949,10943.217344713625,150,3,2025-09-11,2025-09-26 20:28:03.068,HA,C,1677335018,AMBUSH51,1,1,48,2,1,1,225,2,1,0,0,9,1,225,2,1,-149548.58798452988,-4791297.433694926,4197405.015637785,1.84812,3.07519,-0.0307372,-116.293,5.45947,-2.18089,-0.1324,-8.07209,7.62473,0.0325187,0.0162671,-0.0318549,4,0,41.39681965557175,-91.78776670064796,9040.848946583928,-87.34540361252986,-0.3474520298652412,-25.546348005948275,196.846,8905.102926237949,10943.217344713625,150,False,17.187426985080773,False,149.75998592629244,178.706171172192,False,31.38219764032281,False,False
3,1970-07-23 10:17:04.840404365,2025-09-11,2025-09-26 20:28:04.040,HA,C,2595886906,JASSM,3,115,76,2,2,1,225,9,2,0,1,26,0,0,0,0,-176469.89001639312,-4779722.420869674,4209899.731901646,-2.36674,-0.400273,0.381578,79.875,-33.75,-34.75,0.0,0.0,0.0,0.0,0.0,0.0,2,0,41.54456224731288,-92.11443021046578,10002.623704925603,119.83300721761292,-0.0048244510592996,0.0031971340512504,,8905.102926237949,10943.217344713625,150,3,2025-09-11,2025-09-26 20:28:04.034,HA,C,1678488250,AMBUSH51,1,1,48,2,1,1,225,2,1,0,0,9,1,225,2,1,-149662.26535602938,-4791293.414197949,4197401.19594503,1.88624,3.09794,-0.00283587,-117.003,2.3389,-4.90856,-0.0975862,-7.95276,7.45855,0.043034,0.00983601,-0.0405934,4,0,41.39679666299135,-91.78912626482357,9031.405913381805,-89.4071124404131,-0.4268342026521491,-23.32670360806352,198.08,8905.102926237949,10943.217344713625,150,False,17.0881608074564,False,147.75187144956067,178.60397031836433,False,33.49640579131088,False,False
3,1970-07-23 10:17:04.849287266,2025-09-11,2025-09-26 20:28:04.928,HA,C,2596960648,JASSM,3,115,76,2,2,1,225,9,2,0,1,26,0,0,0,0,-176397.94079764312,-4779752.873994674,4209868.382292271,-2.36674,-0.400273,0.381578,79.875,-33.75,-34.75,0.0,0.0,0.0,0.0,0.0,0.0,2,0,41.54418529574089,-92.1135554560757,10002.621859495195,119.83358735473055,-0.0040689862406226,0.0031958379798158,,8905.102926237949,10943.217344713625,150,3,2025-09-11,2025-09-26 20:28:04.936,HA,C,1679561948,AMBUSH51,1,1,48,2,1,1,225,2,1,0,0,9,1,225,2,1,-149766.83141855203,-4791292.073703368,4197395.223585799,1.92033,3.11985,0.0228482,-117.416,-0.0881709,-7.57749,-0.00860639,-7.67835,7.2207,0.018046,-0.003511,-0.029739,4,0,41.39674487866265,-91.79037597924258,9023.188783216065,-91.34225653403354,-0.4570439205278742,-21.370528055945854,198.973,8905.102926237949,10943.217344713625,150,False,16.996585292992304,False,146.00015580415473,178.5028466960357,False,35.356997878465926,False,False
3,1970-07-23 10:17:04.860325719,2025-09-11,2025-09-26 20:28:06.032,HA,C,2598272998,JASSM,3,115,76,2,2,1,225,9,2,0,1,26,0,0,0,0,-176310.00232108062,-4779790.094697799,4209830.065886021,-2.36674,-0.400273,0.381578,79.875,-33.75,-34.75,0.0,0.0,0.0,0.0,0.0,0.0,2,0,41.54372456544628,-92.1124863190294,10002.624560727969,119.8342964005544,-0.0031456346930948,0.0031942540199089,,8905.102926237949,10943.217344713625,150,3,2025-09-11,2025-09-26 20:28:06.168,HA,C,1681033314,AMBUSH51,1,1,48,2,1,1,225,2,1,0,0,9,1,225,2,1,-149911.9021211287,-4791293.568951192,4197382.910594298,1.9651,-3.13542,0.0442929,-117.863,-3.11253,-10.9796,-0.164255,-8.2153,7.81174,0.0505553,0.0192361,-0.0289525,4,0,41.39662586586321,-91.79210852647272,9011.31397398932,-93.3220658570929,-0.0700407311501217,-18.850084020279105,200.158,8905.102926237949,10943.217344713625,150,False,16.878640022491506,False,143.81098166838152,178.35194633982897,False,37.70752284439575,False,False
3,1970-07-23 10:17:04.871244403,2025-09-11,2025-09-26 20:28:07.124,HA,C,2599525772,JASSM,3,115,76,2,2,1,225,9,2,0,1,26,0,0,0,0,-176226.05700858062,-4779825.623994674,4209793.487761021,-2.36674,-0.400273,0.381578,79.875,-33.75,-34.75,0.0,0.0,0.0,0.0,0.0,0.0,2,0,41.543284743648506,-92.11146574473072,10002.625597566856,119.83497323380388,-0.0022642098996497,0.0031927388583976,,8905.102926237949,10943.217344713625,150,3,2025-09-11,2025-09-26 20:28:07.234,HA,C,1682305846,AMBUSH51,1,1,48,2,1,1,225,2,1,0,0,9,1,225,2,1,-150038.2827523984,-4791298.307167472,4197369.977075542,2.00276,-3.10945,0.0607896,-117.798,-6.43369,-12.6045,-0.0897231,-8.40173,7.33269,0.033561,0.0138037,-0.0267242,4,0,41.39648682812524,-91.79361657349637,9004.641430107315,-95.01553120334498,0.4183864327536485,-16.775847840775818,200.635,8905.102926237949,10943.217344713625,150,False,16.772552087261815,False,142.16938212990442,178.21176944596226,False,39.48586860726296,False,False
3,1970-07-23 10:17:04.881363986,2025-09-11,2025-09-26 20:28:08.136,HA,C,2600838588,JASSM,3,115,76,2,2,1,225,9,2,0,1,26,0,0,0,0,-176138.08728201812,-4779862.852510299,4209755.155729771,-2.36674,-0.400273,0.381578,79.875,-33.75,-34.75,0.0,0.0,0.0,0.0,0.0,0.0,2,0,41.542823848880886,-92.11039625982424,10002.621280755198,119.83568249769388,-0.00134054096875,0.0031911696365262,,8905.102926237949,10943.217344713625,150,3,2025-09-11,2025-09-26 20:28:08.234,HA,C,1683498844,AMBUSH51,1,1,48,2,1,1,225,2,1,0,0,9,1,225,2,1,-150155.08835553928,-4791305.585075551,4197356.352387902,1.99307,-3.08942,0.0691728,-117.432,-9.12155,-14.36,-0.097905,-8.25256,7.29265,-0.0196835,0.0166957,-0.0139993,4,0,41.39632978170254,-91.7950092756192,9001.986962855059,-96.13564223131128,0.9574394511293112,-17.418944199807818,199.938,8905.102926237949,10943.217344713625,150,False,16.66902124655832,False,140.66173393873854,178.07469093643766,False,41.13160222762818,False,False
3,1970-07-23 10:17:04.893424673,2025-09-11,2025-09-26 20:28:09.342,HA,C,2602210066,JASSM,3,115,76,2,2,1,225,9,2,0,1,26,0,0,0,0,-176046.18689139312,-4779901.745088424,4209715.110807896,-2.36674,-0.400273,0.381674,79.875,-33.75,-34.75,0.0,0.0,0.0,0.0,0.0,0.0,2,0,41.54234234513044,-92.10927900413326,10002.623799597848,119.84026630198606,-0.0043008241181529,0.0031893695238351,,8905.102926237949,10943.217344713625,150,3,2025-09-11,2025-09-26 20:28:09.267,HA,C,1684731610,AMBUSH51,1,1,48,2,1,1,225,2,1,0,0,9,1,225,2,1,-150276.52873990397,-4791316.226430998,4197340.189230738,1.99052,-3.06576,0.0823205,-116.704,-11.9568,-16.2174,-0.153173,-8.34631,7.35761,0.0044868,0.0143072,-0.0285156,4,0,41.396134707674,-91.79645608059012,9002.463864414445,-97.5984706108744,1.4673400137745367,-17.698479467145923,199.315,8905.102926237949,10943.217344713625,150,False,16.56227530274593,False,139.03954475334504,177.92448026685113,False,42.904976163624895,False,False
3,1970-07-23 10:17:04.904445887,2025-09-11,2025-09-26 20:28:10.444,HA,C,2603522692,JASSM,3,115,76,2,2,1,225,9,2,0,1,26,0,0,0,0,-175958.23083670562,-4779938.967744674,4209676.782682896,-2.36674,-0.400273,0.381674,79.875,-33.75,-34.75,0.0,0.0,0.0,0.0,0.0,0.0,2,0,41.54188148820698,-92.1082097165236,10002.62596922202,119.8409754219212,-0.0033772918494186,0.0031878507826792,,8905.102926237949,10943.217344713625,150,3,2025-09-11,2025-09-26 20:28:10.334,HA,C,1686004142,AMBUSH51,1,1,48,2,1,1,225,2,1,0,0,9,1,225,2,1,-150400.02157654864,-4791329.830469261,4197321.745830936,2.01214,-3.04657,0.102462,-116.036,-14.4526,-18.1618,-0.105567,-8.12506,7.02943,0.0133127,0.00996085,-0.0223425,4,0,41.39590621363545,-91.79792628537037,9005.448080371025,-99.19007446962858,1.5150589788062754,-16.60222544391666,198.569,8905.102926237949,10943.217344713625,150,False,16.45831420914131,False,137.49474985234627,177.76439941520965,False,44.613553285153124,False,False
3,1970-07-23 10:17:04.915285155,2025-09-11,2025-09-26 20:28:11.528,HA,C,2604894408,JASSM,3,115,76,2,2,1,225,9,2,0,1,26,0,0,0,0,-175866.31433279935,-4779977.864229049,4209636.726042271,-2.36674,-0.400177,0.381674,79.875,-33.75,-34.75,0.0,0.0,0.0,0.0,0.0,0.0,2,0,41.54139986443749,-92.1070922986716,10002.622749849384,119.83807374056144,-0.005978582211405,0.0011404582137663,,8905.102926237949,10943.217344713625,150,3,2025-09-11,2025-09-26 20:28:11.668,HA,C,1687594806,AMBUSH51,1,1,48,2,1,1,225,2,1,0,0,9,1,225,2,1,-150553.99573061342,-4791350.5868951855,4197295.606476939,2.03984,-3.02874,0.121919,-114.994,-17.1076,-20.5888,0.0124344,-7.45317,6.41437,0.00815697,-0.00656116,-0.0286321,4,0,41.39557749890621,-91.79975793639464,9011.694601302795,-100.69946617498816,1.5257474627382144,-15.169598657612813,197.787,8905.102926237949,10943.217344713625,150,False,16.341511844590322,False,135.6890914121958,177.5550395261169,False,46.635790675310204,False,False
3,1970-07-23 10:17:04.932042452,2025-09-11,2025-09-26 20:28:13.204,HA,C,2606266410,JASSM,3,115,76,2,2,1,225,9,2,0,1,26,0,0,0,0,-175774.37878592435,-4780016.768525924,4209596.661589146,-2.36674,-0.400177,0.381674,79.875,-33.75,-34.75,0.0,0.0,0.0,0.0,0.0,0.0,2,0,41.54091813472783,-92.10597466601192,10002.625929594977,119.83881490764396,-0.0050132661260216,0.0011388087462026,,8905.102926237949,10943.217344713625,150,3,2025-09-11,2025-09-26 20:28:13.100,HA,C,1689304772,AMBUSH51,1,1,48,2,1,1,225,2,1,0,0,9,1,225,2,1,-150717.90813814593,-4791375.889581282,4197264.030831826,2.05125,-3.01059,0.147593,-113.903,-18.9797,-23.057,-0.157264,-7.21783,6.33421,0.0164461,-0.0039937,-0.0271486,4,0,41.39518314915093,-91.80170658478836,9018.112706135127,-102.4836014859144,1.3047337441606812,-14.699839688995066,197.03,8905.102926237949,10943.217344713625,150,False,16.222635826818898,False,134.10813532827711,177.32008415483466,False,48.463622404630634,False,False
3,1970-07-23 10:17:04.937301625,2025-09-11,2025-09-26 20:28:13.730,HA,C,2607519110,JASSM,3,115,76,2,2,1,225,9,2,0,1,26,0,0,0,0,-175690.43786795562,-4780052.288057174,4209560.079557896,-2.36674,-0.400177,0.381674,79.875,-33.75,-34.75,0.0,0.0,0.0,0.0,0.0,0.0,2,0,41.540478285897,-92.10495423686902,10002.626529628897,119.83949160726628,-0.0041318932517154,0.0011373020821525,,8905.102926237949,10943.217344713625,150,3,2025-09-11,2025-09-26 20:28:13.809,HA,C,1690139870,AMBUSH51,1,1,48,2,1,1,225,2,1,0,0,9,1,225,2,1,-150797.5674252797,-4791389.173450753,4197247.20001028,2.06843,-3.00357,0.158686,-113.475,-19.7838,-24.3345,-0.161114,-7.33078,6.53865,0.0194796,0.00305951,-0.0116066,4,0,41.394975587568574,-91.80265322236764,9020.442681980829,-103.22186079696596,1.1718550925948623,-13.792500968537048,197.152,8905.102926237949,10943.217344713625,150,False,16.140833105275398,False,133.3570662057271,177.1970125910311,False,49.343904162156285,False,False
3,1970-07-23 10:17:04.948360873,2025-09-11,2025-09-26 20:28:14.836,HA,C,2608831460,JASSM,3,115,76,2,2,1,225,9,2,0,1,26,0,0,0,0,-175602.49939139312,-4780089.497041549,4209521.753386021,-2.36674,-0.400177,0.381674,79.875,-33.75,-34.75,0.0,0.0,0.0,0.0,0.0,0.0,2,0,41.54001747945657,-92.10388522710043,10002.622994022127,119.84020051691375,-0.003208546501376,0.0011357226443711,,8905.102926237949,10943.217344713625,150,3,2025-09-11,2025-09-26 20:28:14.767,HA,C,1691293102,AMBUSH51,1,1,48,2,1,1,225,2,1,0,0,9,1,225,2,1,-150907.68335800996,-4791408.482018744,4197222.596922595,2.09758,-2.99258,0.171592,-112.9,-20.741,-26.0135,-0.00819628,-7.22262,6.3611,0.0252345,0.00427874,-0.0168871,4,0,41.39467400050458,-91.80396142783871,9023.094843971308,-104.18783736401636,1.133568275033353,-12.245401477418314,197.103,8905.102926237949,10943.217344713625,150,False,16.046028293617734,False,132.39908508217255,177.02490837388123,False,50.48246585079773,False,False
3,1970-07-23 10:17:04.960441847,2025-09-11,2025-09-26 20:28:16.044,HA,C,2610143812,JASSM,3,115,76,2,2,1,225,9,2,0,1,26,0,0,0,0,-175514.56091483062,-4780126.706025924,4209483.427214146,-2.36674,-0.400177,0.381674,79.875,-33.75,-34.75,0.0,0.0,0.0,0.0,0.0,0.0,2,0,41.53955666304186,-92.10281623250904,10002.624898494354,119.8409094100359,-0.0022851996767564,0.0011341431634029,,8905.102926237949,10943.217344713625,150,3,2025-09-11,2025-09-26 20:28:15.933,HA,C,1692684934,AMBUSH51,1,1,48,2,1,1,225,2,1,0,0,9,1,225,2,1,-151038.0309432138,-4791432.805255294,4197191.46335264,2.12354,-2.98197,0.18617,-112.219,-21.8404,-27.6011,-0.34323,-7.34855,6.48172,-0.0111697,-0.00848571,-0.0188013,4,0,41.39429468501627,-91.80550942199532,9025.491188774657,-105.2090865159682,1.011791657767475,-10.884838401104222,197.066,8905.102926237949,10943.217344713625,150,False,15.944906495748798,False,131.41144029489513,176.8158613538598,False,51.68648078508489,False,False
