Subject_cm,Timestamp,SampleDate_cm,SampleTime_cm,Configuration_cm,Scenario_cm,DisTime_cm,MarkingTxt_cm,Application_cm,EntId_cm,Site_cm,ExerciseId_cm,ForceId_cm,Category_cm,Country_cm,Domain_cm,Kind_cm,Extra_cm,Specific_cm,Subcategory_cm,AltCategory_cm,AltCountry_cm,AltDomain_cm,AltKind_cm,ECEF_X_cm,ECEF_Y_cm,ECEF_Z_cm,OriPhi_cm,OriPsi_cm,OriTheta_cm,LinVelX_cm,LinVelY_cm,LinVelZ_cm,LinAccX_cm,LinAccY_cm,LinAccZ_cm,AngVelX_cm,AngVelY_cm,AngVelZ_cm,DrAlg_cm,Appearance_cm,Latitude_cm,Longitude_cm,Altitude_cm,Heading_cm,Pitch_cm,Roll_cm,CalibratedAirspeed_cm,CM_Altitude_Lead_cm,CM_Altitude_Wing_cm,CM_Airspeed_cm,Subject_ac,SampleDate_ac,SampleTime_ac,Configuration_ac,Scenario_ac,DisTime_ac,MarkingTxt_ac,Application_ac,EntId_ac,Site_ac,ExerciseId_ac,ForceId_ac,Category_ac,Country_ac,Domain_ac,Kind_ac,Extra_ac,Specific_ac,Subcategory_ac,AltCategory_ac,AltCountry_ac,AltDomain_ac,AltKind_ac,ECEF_X_ac,ECEF_Y_ac,ECEF_Z_ac,OriPhi_ac,OriPsi_ac,OriTheta_ac,LinVelX_ac,LinVelY_ac,LinVelZ_ac,LinAccX_ac,LinAccY_ac,LinAccZ_ac,AngVelX_ac,AngVelY_ac,AngVelZ_ac,DrAlg_ac,Appearance_ac,Latitude_ac,Longitude_ac,Altitude_ac,Heading_ac,Pitch_ac,Roll_ac,CalibratedAirspeed_ac,CM_Altitude_Lead_ac,CM_Altitude_Wing_ac,CM_Airspeed_ac,Bank_Angle_Condition,distance_nm,Distance_Condition,angle_between_vel,angle_between_pos,Cone_Condition,angle_between_pos_nose,Nose_Cone_Condition,Intercept_Criteria
3,1970-07-23 10:16:58.168240118,2025-09-11,2025-09-26 20:16:56.824,HH,C,1799886302,JASSM,3,104,76,2,2,1,225,9,2,0,1,26,0,0,0,0,-180538.9652117056,-4777998.768525924,4211671.489714146,-2.36693,-0.400848,0.381002,79.875,-33.75,-34.625,0.0,0.0,0.0,0.0,0.0,0.0,2,0,41.56586986627544,-92.16391894286996,10002.624624704453,119.79898695177005,-0.0025971403680532,0.0045524661991834,,8988.574530004647,11016.82538521552,150,3,2025-09-11,2025-09-26 20:16:56.844,HH,C,882519484,AMBUSH51,1,1,48,2,1,1,225,2,1,0,0,9,1,225,2,1,-150326.85598009988,-4791259.07210297,4197397.40312675,2.32807,2.77525,-0.385689,-98.9813,37.5379,41.0766,-0.126414,-7.10978,7.01537,0.000887374,0.00143457,-0.00550837,4,0,41.39685157979481,-91.79707873771288,8989.878553120523,-61.071013736452834,1.1616968854168657,-1.4906776998079772,194.769,8988.574530004647,11016.82538521552,150,True,19.3400723895546,False,177.9343760558028,178.2161772927092,False,3.4814879842157107,True,False
3,1970-07-23 10:16:58.177121076,2025-09-11,2025-09-26 20:16:57.712,HH,C,1801019696,JASSM,3,104,76,2,2,1,225,9,2,0,1,26,0,0,0,0,-180463.02087576807,-4778030.961885299,4211638.444792271,-2.36693,-0.400848,0.381098,79.875,-33.75,-34.625,0.0,0.0,0.0,0.0,0.0,0.0,2,0,41.565472394610445,-92.16299498767113,10002.625138759087,119.80344199658268,-0.0057257754988696,0.0045508496489585,,8988.574530004647,11016.82538521552,150,3,2025-09-11,2025-09-26 20:16:57.578,HH,C,883394350,AMBUSH51,1,1,48,2,1,1,225,2,1,0,0,9,1,225,2,1,-150399.4671941509,-4791231.385077649,4197427.558206102,2.32314,2.77613,-0.384888,-99.2331,37.6108,41.1034,-0.017388,-7.18688,6.95139,0.00640303,0.00148867,0.00643216,4,0,41.397206313262544,-91.79795658006292,8992.799216618676,-61.13711950274918,1.1631934525704413,-1.7550992808212442,195.258,8988.574530004647,11016.82538521552,150,True,19.247619228646503,False,177.91421911394647,178.20484077245405,False,3.5236680946109855,True,False
3,1970-07-23 10:16:58.187160416,2025-09-11,2025-09-26 20:16:58.716,HH,C,1802213556,JASSM,3,104,76,2,2,1,225,9,2,0,1,26,0,0,0,0,-180383.02478201807,-4778064.873994674,4211603.634245396,-2.36693,-0.400848,0.381098,79.875,-33.75,-34.625,0.0,0.0,0.0,0.0,0.0,0.0,2,0,41.56505368440293,-92.16202174962557,10002.627253778055,119.8040877136057,-0.0048858003447426,0.0045494476811747,,8988.574530004647,11016.82538521552,150,3,2025-09-11,2025-09-26 20:16:58.677,HH,C,884706648,AMBUSH51,1,1,48,2,1,1,225,2,1,0,0,9,1,225,2,1,-150509.281338929,-4791189.959304616,4197473.223890524,2.32498,2.78323,-0.387493,-99.5457,37.1352,41.553,-0.102232,-7.40689,7.30478,0.00817778,0.00907451,-0.0123764,4,0,41.39774053355124,-91.79928404183964,8998.453514557072,-61.29747747459726,1.5368581167797806,-1.500414625496162,195.746,8988.574530004647,11016.82538521552,150,True,19.129785310490234,False,177.68740303788763,178.18937196821096,False,3.6480944931510746,True,False
3,1970-07-23 10:16:58.197180557,2025-09-11,2025-09-26 20:16:59.718,HH,C,1803346678,JASSM,3,104,76,2,2,1,225,9,2,0,1,26,0,0,0,0,-180307.0980242056,-4778097.059541549,4211570.593229771,-2.36693,-0.400848,0.381098,79.875,-33.75,-34.625,0.0,0.0,0.0,0.0,0.0,0.0,2,0,41.56465626639586,-92.16109803169768,10002.627065096618,119.80470057043364,-0.0040885546183112,0.004548117097017,,8988.574530004647,11016.82538521552,150,3,2025-09-11,2025-09-26 20:16:59.843,HH,C,886098480,AMBUSH51,1,1,48,2,1,1,225,2,1,0,0,9,1,225,2,1,-150624.8479651212,-4791146.892335054,4197521.385777808,2.32871,2.78426,-0.387759,-99.8615,36.9171,41.7606,-0.122142,-7.09938,7.06049,0.00685036,0.00129933,0.00932419,4,0,41.3983002780109,-91.80068086517608,9005.93944532157,-61.32600004531487,1.5876263160455382,-1.264908377814656,195.979,8988.574530004647,11016.82538521552,150,True,19.011055877538645,False,177.54137231730277,178.17327673194276,False,3.764774668026992,True,False
3,1970-07-23 10:16:58.206220548,2025-09-11,2025-09-26 20:17:00.622,HH,C,1804479528,JASSM,3,104,76,2,2,1,225,9,2,0,1,26,0,0,0,0,-180231.18982108065,-4778129.235322799,4211537.560026646,-2.36693,-0.400848,0.381098,79.875,-33.75,-34.625,0.0,0.0,0.0,0.0,0.0,0.0,2,0,41.56425894763724,-92.160174551679,10002.625699147631,119.80531326460552,-0.0032915089806798,0.0045467947942572,,8988.574530004647,11016.82538521552,150,3,2025-09-11,2025-09-26 20:17:00.510,HH,C,886893812,AMBUSH51,1,1,48,2,1,1,225,2,1,0,0,9,1,225,2,1,-150691.231064944,-4791122.190920947,4197549.281403868,2.33303,2.78508,-0.38721,-99.9622,36.7439,42.0425,-0.0340778,-7.15249,6.97438,-0.00467822,0.00604101,-0.0118896,4,0,41.39862313388052,-91.80148321673518,9010.834866267847,-61.37978038629775,1.5973561954451605,-1.0010927150419613,196.394,8988.574530004647,11016.82538521552,150,True,18.922514489295125,False,177.45880060556368,178.16234571132054,False,3.794439646688109,True,False
3,1970-07-23 10:16:58.218021948,2025-09-11,2025-09-26 20:17:01.802,HH,C,1805612924,JASSM,3,104,76,2,2,1,225,9,2,0,1,26,0,0,0,0,-180155.24548514312,-4778161.426729049,4211504.509245396,-2.36693,-0.400848,0.381098,79.875,-33.75,-34.625,0.0,0.0,0.0,0.0,0.0,0.0,2,0,41.563861417973946,-92.1592506432606,10002.625111525234,119.80592623819174,-0.0024940766757662,0.0045454594483253,,8988.574530004647,11016.82538521552,150,3,2025-09-11,2025-09-26 20:17:01.677,HH,C,888285644,AMBUSH51,1,1,48,2,1,1,225,2,1,0,0,9,1,225,2,1,-150808.30697660884,-4791078.704710166,4197598.549222184,2.3377,2.78622,-0.387733,-100.124,36.9014,42.1347,-0.0598945,-6.99583,6.86792,0.00797388,-0.00624699,-0.00686076,4,0,41.3991925286297,-91.8028982653313,9019.820039861495,-61.40179960392782,1.6625526605988452,-0.7094429366709217,196.663,8988.574530004647,11016.82538521552,150,True,18.802774797682453,False,177.50502057370898,178.14629167756874,False,3.769962517239596,True,False
3,1970-07-23 10:16:58.225161173,2025-09-11,2025-09-26 20:17:02.516,HH,C,1806746866,JASSM,3,104,76,2,2,1,225,9,2,0,1,26,0,0,0,0,-180079.26403983062,-4778193.631807174,4211471.442839146,-2.36693,-0.400848,0.381098,79.875,-33.75,-34.625,0.0,0.0,0.0,0.0,0.0,0.0,2,0,41.56346370241975,-92.15832629564709,10002.624678063006,119.80653949834632,-0.0016962631227273,0.004544136794184,,8988.574530004647,11016.82538521552,150,3,2025-09-11,2025-09-26 20:17:02.478,HH,C,889240044,AMBUSH51,1,1,48,2,1,1,225,2,1,0,0,9,1,225,2,1,-150887.4230747191,-4791049.361493563,4197631.931459018,2.34226,2.78833,-0.388755,-100.162,37.0195,42.1693,-0.115119,-7.06833,6.99874,0.0100607,-0.0049695,-0.00673385,4,0,41.39957763750425,-91.80385450619484,9026.19613655971,-61.43923176551515,1.78393075517278,-0.4037636833875423,196.956,8988.574530004647,11016.82538521552,150,True,18.706347511345726,False,177.5537314171805,178.1339350786591,False,3.740376389683628,True,False
3,1970-07-23 10:16:58.234200378,2025-09-11,2025-09-26 20:17:03.420,HH,C,1807820608,JASSM,3,104,76,2,2,1,225,9,2,0,1,26,0,0,0,0,-180007.31677420562,-4778224.125947799,4211440.130339146,-2.36693,-0.400752,0.381098,79.875,-33.75,-34.625,0.0,0.0,0.0,0.0,0.0,0.0,2,0,41.563087090915424,-92.15745103651406,10002.621712234397,119.80347586459553,-0.0045072533117842,0.0024999180295341,,8988.574530004647,11016.82538521552,150,3,2025-09-11,2025-09-26 20:17:03.243,HH,C,890154676,AMBUSH51,1,1,48,2,1,1,225,2,1,0,0,9,1,225,2,1,-150964.26500317306,-4791020.988362209,4197664.335580468,2.34061,2.78818,-0.387372,-100.293,36.8796,42.4662,-0.191728,-7.12834,7.19561,-0.0235305,-0.00293052,-0.00215446,4,0,41.39995079015728,-91.80478322277102,9032.66421426246,-61.49073106321716,1.723450518072848,-0.5031993694222825,197.139,8988.574530004647,11016.82538521552,150,True,18.613884539350444,False,177.4747779553751,178.1218321761006,False,3.767188905364695,True,False
3,1970-07-23 10:16:58.245219003,2025-09-11,2025-09-26 20:17:04.521,HH,C,1809132412,JASSM,3,104,76,2,2,1,225,9,2,0,1,26,0,0,0,0,-179919.41736014312,-4778261.381807174,4211401.876432896,-2.36693,-0.400752,0.381098,79.875,-33.75,-34.625,0.0,0.0,0.0,0.0,0.0,0.0,2,0,41.562626972793474,-92.15638172846054,10002.62701428637,119.80418528783328,-0.0035842989801999,0.0024983273230141,,8988.574530004647,11016.82538521552,150,3,2025-09-11,2025-09-26 20:17:04.477,HH,C,891626042,AMBUSH51,1,1,48,2,1,1,225,2,1,0,0,9,1,225,2,1,-151088.11961093076,-4790975.2483386,4197716.965373665,2.33236,2.78602,-0.391373,-100.373,36.8073,42.6986,0.0847015,-7.16999,6.91195,-0.0139868,0.000914421,0.0104914,4,0,41.400554975998745,-91.80628016180655,9043.94738992404,-61.24796646122216,1.804222705543938,-1.015560696042433,197.702,8988.574530004647,11016.82538521552,150,True,18.482407706036334,False,177.42987682152562,178.1043193887612,False,3.7819131359394564,True,False
3,1970-07-23 10:16:58.257617334,2025-09-11,2025-09-26 20:17:05.761,HH,C,1810385770,JASSM,3,104,76,2,2,1,225,9,2,0,1,26,0,0,0,0,-179835.43396170562,-4778296.975557174,4211365.323698521,-2.36693,-0.400752,0.381098,79.875,-33.75,-34.625,0.0,0.0,0.0,0.0,0.0,0.0,2,0,41.56218733720626,-92.15536007447584,10002.624759156515,119.8048630893629,-0.0027024604550194,0.0024968010584894,,8988.574530004647,11016.82538521552,150,3,2025-09-11,2025-09-26 20:17:05.744,HH,C,893137172,AMBUSH51,1,1,48,2,1,1,225,2,1,0,0,9,1,225,2,1,-151214.4793361716,-4790928.859061526,4197770.796958622,2.31913,2.78824,-0.388651,-100.579,36.4046,43.1606,-0.0518734,-7.03279,6.89586,-0.0150105,0.00131598,-0.00808831,4,0,41.40117064695598,-91.80780730122056,9056.445977147589,-61.44287654321508,1.77986992988517,-1.7309899678514915,198.007,8988.574530004647,11016.82538521552,150,True,18.35187778225011,False,177.20084540709723,178.08657841725307,False,3.91612061288969,True,False
3,1970-07-23 10:16:58.267277373,2025-09-11,2025-09-26 20:17:06.727,HH,C,1811697462,JASSM,3,104,76,2,2,1,225,9,2,0,1,26,0,0,0,0,-179747.54236014312,-4778334.225557174,4211327.069792271,-2.36693,-0.400752,0.381194,79.875,-33.75,-34.625,0.0,0.0,0.0,0.0,0.0,0.0,2,0,41.56172723277375,-92.1542908922742,10002.62703716916,119.8094145781332,-0.005705500948337,0.0024949523384305,,8988.574530004647,11016.82538521552,150,3,2025-09-11,2025-09-26 20:17:06.677,HH,C,894250638,AMBUSH51,1,1,48,2,1,1,225,2,1,0,0,9,1,225,2,1,-151308.74198841015,-4790894.343170037,4197811.033987913,2.32145,2.78992,-0.388988,-100.704,36.6183,42.9114,-0.143883,-7.20645,7.11539,0.00552918,0.00823395,-0.0035006,4,0,41.40162991671169,-91.80894651031473,9066.170131113677,-61.49225551077267,1.8576417978471669,-1.5631599631080688,198.117,8988.574530004647,11016.82538521552,150,True,18.23863926589685,False,177.28508626610707,178.07161509880575,False,3.923740852940032,True,False
3,1970-07-23 10:16:58.278140217,2025-09-11,2025-09-26 20:17:07.814,HH,C,1813009812,JASSM,3,104,76,2,2,1,225,9,2,0,1,26,0,0,0,0,-179659.60681326812,-4778371.491182174,4211288.794401646,-2.36693,-0.400752,0.381194,79.875,-33.75,-34.625,0.0,0.0,0.0,0.0,0.0,0.0,2,0,41.56126689032758,-92.15322119201797,10002.622264443313,119.81012424260469,-0.0047821656973035,0.002493416914284,,8988.574530004647,11016.82538521552,150,3,2025-09-11,2025-09-26 20:17:07.943,HH,C,895761770,AMBUSH51,1,1,48,2,1,1,225,2,1,0,0,9,1,225,2,1,-151435.8615015776,-4790847.977837229,4197865.523931106,2.33279,2.7947,-0.388023,-100.765,36.3643,43.2464,-0.130847,-7.19744,6.94321,0.013889,0.00298253,-0.0011849,4,0,41.40224971000777,-91.8104827653615,9080.23400447888,-61.71076779182279,2.0011170879699995,-0.816766232519807,198.533,8988.574530004647,11016.82538521552,150,True,18.105148897006156,False,177.15013916194235,178.05330731482164,False,3.99529762091351,True,False
3,1970-07-23 10:16:58.288180225,2025-09-11,2025-09-26 20:17:08.818,HH,C,1814263026,JASSM,3,104,76,2,2,1,225,9,2,0,1,26,0,0,0,0,-179575.63318045562,-4778407.079072799,4211252.243620396,-2.36693,-0.400752,0.381194,79.875,-33.75,-34.625,0.0,0.0,0.0,0.0,0.0,0.0,2,0,41.56082727247672,-92.15219970044484,10002.626137077032,119.8108019182692,-0.0039004273193025,0.0024919450293935,,8988.574530004647,11016.82538521552,150,3,2025-09-11,2025-09-26 20:17:08.677,HH,C,896636636,AMBUSH51,1,1,48,2,1,1,225,2,1,0,0,9,1,225,2,1,-151509.54759617808,-4790821.388501442,4197896.983958458,2.33247,2.79534,-0.390769,-100.803,36.3496,43.2121,-0.0400986,-7.13894,6.98348,0.00338409,0.00359839,0.00350892,4,0,41.402606415410304,-91.81137317499302,9088.824134056247,-61.622707264115846,2.136257344605742,-0.8178846707378893,198.643,8988.574530004647,11016.82538521552,150,True,18.007110384482655,False,177.1382466611546,178.04008142534826,False,4.030197042102518,True,False
3,1970-07-23 10:16:58.300179555,2025-09-11,2025-09-26 20:17:10.017,HH,C,1815634492,JASSM,3,104,76,2,2,1,225,9,2,0,1,26,0,0,0,0,-179483.73571951812,-4778446.020479049,4211212.243620396,-2.36693,-0.400752,0.381194,79.875,-33.75,-34.625,0.0,0.0,0.0,0.0,0.0,0.0,2,0,41.56034618712434,-92.15108183793308,10002.624247512687,119.8115435213794,-0.0029355013360751,0.0024903557201046,,8988.574530004647,11016.82538521552,150,3,2025-09-11,2025-09-26 20:17:09.876,HH,C,898068234,AMBUSH51,1,1,48,2,1,1,225,2,1,0,0,9,1,225,2,1,-151630.32483248645,-4790778.023743764,4197948.700071254,2.32655,2.79899,-0.39091,-100.89,36.1073,43.3536,-0.158334,-7.18873,7.03804,0.00183196,0.00270997,0.0106724,4,0,41.40319079256378,-91.81283256292468,9103.773195912618,-61.753206271284206,2.2811281848985847,-1.0827626810599127,198.716,8988.574530004647,11016.82538521552,150,True,17.875184810455615,False,177.00651513100328,178.02119595644214,False,4.144271749544676,True,False
3,1970-07-23 10:16:58.310205895,2025-09-11,2025-09-26 20:17:11.020,HH,C,1816887214,JASSM,3,104,76,2,2,1,225,9,2,0,1,26,0,0,0,0,-179399.79528983062,-4778481.590791549,4211175.704557896,-2.36693,-0.400752,0.381194,79.875,-33.75,-34.625,0.0,0.0,0.0,0.0,0.0,0.0,2,0,41.55990672654757,-92.15006078081828,10002.623951328878,119.81222089649296,-0.0020541137300098,0.0024888859300465,,8988.574530004647,11016.82538521552,150,3,2025-09-11,2025-09-26 20:17:11.177,HH,C,899619132,AMBUSH51,1,1,48,2,1,1,225,2,1,0,0,9,1,225,2,1,-151761.36313805834,-4790731.309794829,4198005.01752594,2.32454,2.79918,-0.392578,-100.988,35.8375,43.5176,-0.0901071,-7.13428,7.03918,-0.00780535,0.00156149,-0.00122859,4,0,41.403824204029625,-91.81441583888676,9121.27792176391,-61.693149940657534,2.3567249973132656,-1.1912971882588772,198.716,8988.574530004647,11016.82538521552,150,True,17.741984636709624,False,176.85834233274267,178.0015174536362,False,4.272779140907511,True,False
3,1970-07-23 10:16:58.321220502,2025-09-11,2025-09-26 20:17:12.122,HH,C,1818199564,JASSM,3,104,76,2,2,1,225,9,2,0,1,26,0,0,0,0,-179311.85876639312,-4778518.852510299,4211137.425261021,-2.36693,-0.400657,0.381194,79.875,-33.75,-34.625,0.0,0.0,0.0,0.0,0.0,0.0,2,0,41.55944634182468,-92.14899113066772,10002.622516539015,119.80928644855088,-0.0046972109700819,0.0004439134618982,,8988.574530004647,11016.82538521552,150,3,2025-09-11,2025-09-26 20:17:11.977,HH,C,900573532,AMBUSH51,1,1,48,2,1,1,225,2,1,0,0,9,1,225,2,1,-151842.21834739257,-4790702.744951279,4198039.774777078,2.32335,2.7973,-0.393645,-101.112,35.7022,43.5794,-0.0153376,-7.16227,6.94253,-0.00243742,0.00133054,0.00190686,4,0,41.40421353701118,-91.81539269126054,9132.738564913829,-61.580282253698805,2.3290932653479595,-1.2959098613810378,198.863,8988.574530004647,11016.82538521552,150,True,17.637128028535546,False,176.7736366309911,177.9865903275458,False,4.362632799509617,True,False
3,1970-07-23 10:16:58.333627828,2025-09-11,2025-09-26 20:17:13.362,HH,C,1819452264,JASSM,3,104,76,2,2,1,225,9,2,0,1,26,0,0,0,0,-179227.91931326812,-4778554.420869674,4211100.886198521,-2.36693,-0.400657,0.381194,79.875,-33.75,-34.625,0.0,0.0,0.0,0.0,0.0,0.0,2,0,41.55900687404871,-92.14797011445104,10002.627668500778,119.80996378458264,-0.0038158371665982,0.0004423927793254,,8988.574530004647,11016.82538521552,150,3,2025-09-11,2025-09-26 20:17:13.544,HH,C,902442564,AMBUSH51,1,1,48,2,1,1,225,2,1,0,0,9,1,225,2,1,-152000.56117734435,-4790647.236521469,4198107.950284894,2.30292,2.79813,-0.398064,-101.279,35.1897,43.7737,-0.0931548,-7.21169,6.98601,-0.0342476,0.00464493,-0.00714788,4,0,41.40497412795392,-91.81730557757072,9156.49237035908,-61.43132362299559,2.539342006045616,-2.4418581951005405,198.899,8988.574530004647,11016.82538521552,150,True,17.4873357172229,False,176.49879666734512,177.9628705399232,False,4.614093050310088,True,False
3,1970-07-23 10:16:58.342814877,2025-09-11,2025-09-26 20:17:14.281,HH,C,1820646090,JASSM,3,104,76,2,2,1,225,9,2,0,1,26,0,0,0,0,-179147.92517264312,-4778588.315400924,4211066.061979771,-2.36693,-0.400657,0.381194,79.875,-33.75,-34.625,0.0,0.0,0.0,0.0,0.0,0.0,2,0,41.55858804859188,-92.14699710171476,10002.626592279286,119.81060926991876,-0.0029758876285807,0.0004409388312753,,8988.574530004647,11016.82538521552,150,3,2025-09-11,2025-09-26 20:17:14.311,HH,C,903357196,AMBUSH51,1,1,48,2,1,1,225,2,1,0,0,9,1,225,2,1,-152078.04756515843,-4790620.218971956,4198141.422189624,2.28671,2.80151,-0.401996,-101.367,35.0942,43.5616,-0.10204,-7.37333,7.09205,-0.0177589,0.00940741,-0.0036296,4,0,41.40534618901183,-91.81824162379606,9168.71956201135,-61.39530063955901,2.8249082455435066,-3.2932103774439865,199.083,8988.574530004647,11016.82538521552,150,True,17.389576660424577,False,176.45061886305103,177.94838462001945,False,4.7203932330298315,True,False
3,1970-07-23 10:16:58.352157670,2025-09-11,2025-09-26 20:17:15.215,HH,C,1821838356,JASSM,3,104,76,2,2,1,225,9,2,0,1,26,0,0,0,0,-179068.03552420562,-4778622.163057174,4211031.282682896,-2.36684,-0.400657,0.381194,79.875,-33.75,-34.625,0.0,0.0,0.0,0.0,0.0,0.0,2,0,41.558169773671054,-92.14602537368064,10002.622396622066,119.811253897665,-0.0021370417827877,0.0059309685516951,,8988.574530004647,11016.82538521552,150,3,2025-09-11,2025-09-26 20:17:15.144,HH,C,904351362,AMBUSH51,1,1,48,2,1,1,225,2,1,0,0,9,1,225,2,1,-152162.60910248364,-4790591.286388903,4198177.804233828,2.27427,2.80628,-0.401921,-101.565,34.3175,43.7999,0.00247757,-7.35691,7.12406,-0.0166208,0.00342986,-0.0104727,4,0,41.405747943229926,-91.81926294029648,9183.10812219586,-61.57506964691778,3.0031598204061707,-3.9083023255224263,199.009,8988.574530004647,11016.82538521552,150,True,17.28769310025662,False,176.04580986238412,177.93237416506497,False,5.07850333629539,True,False
3,1970-07-23 10:16:58.363217283,2025-09-11,2025-09-26 20:17:16.321,HH,C,1822971758,JASSM,3,104,76,2,2,1,225,9,2,0,1,26,0,0,0,0,-178992.08923514312,-4778654.340791549,4210998.220182896,-2.36684,-0.400657,0.38129,79.875,-33.75,-34.625,0.0,0.0,0.0,0.0,0.0,0.0,2,0,41.55777213300497,-92.14510162147802,10002.624728005483,119.81570899671134,-0.0052653771314375,0.0059293723754982,,8988.574530004647,11016.82538521552,150,3,2025-09-11,2025-09-26 20:17:16.410,HH,C,905862492,AMBUSH51,1,1,48,2,1,1,225,2,1,0,0,9,1,225,2,1,-152291.53142951697,-4790548.316429211,4198233.0593304,2.26506,2.81603,-0.402912,-101.806,33.218,43.7516,-0.142765,-7.59045,7.30741,0.0075432,0.00739755,-0.00144081,4,0,41.40635221515503,-91.8208196253898,9207.397425898238,-61.89349603576882,3.412870885868505,-4.234840954211756,198.789,8988.574530004647,11016.82538521552,150,True,17.16146427956573,False,175.4940901747409,177.9099283531474,False,5.639735315594606,True,False
3,1970-07-23 10:16:58.371239772,2025-09-11,2025-09-26 20:17:17.123,HH,C,1824165372,JASSM,3,104,76,2,2,1,225,9,2,0,1,26,0,0,0,0,-178912.10876639312,-4778688.225557174,4210963.399870396,-2.36684,-0.400657,0.38129,79.875,-33.75,-34.625,0.0,0.0,0.0,0.0,0.0,0.0,2,0,41.55735336469795,-92.14412881385392,10002.622722649145,119.81635433032292,-0.0044255769652736,0.0059279828369309,,8988.574530004647,11016.82538521552,150,3,2025-09-11,2025-09-26 20:17:17.243,HH,C,906856658,AMBUSH51,1,1,48,2,1,1,225,2,1,0,0,9,1,225,2,1,-152375.43242724554,-4790521.142069872,4198268.924876921,2.26898,2.82176,-0.400931,-101.98,32.6227,43.6082,-0.0707107,-7.40311,7.22606,0.0103312,-0.0104227,-0.0179774,4,0,41.40674012272287,-91.82183240943806,9224.949911857942,-62.18631066793937,3.5526621256197286,-3.899598461549832,198.679,8988.574530004647,11016.82538521552,150,True,17.06029128494058,False,175.19248364250717,177.89221457853145,False,5.973802880673545,True,False
3,1970-07-23 10:16:58.381255521,2025-09-11,2025-09-26 20:17:18.125,HH,C,1825357844,JASSM,3,104,76,2,2,1,225,9,2,0,1,26,0,0,0,0,-178832.20544608062,-4778722.077119674,4210928.612761021,-2.36684,-0.400657,0.38129,79.875,-33.75,-34.625,0.0,0.0,0.0,0.0,0.0,0.0,2,0,41.55693499258649,-92.14315695736444,10002.62310536529,119.81699902764504,-0.0035865872027852,0.0059265949537565,,8988.574530004647,11016.82538521552,150,3,2025-09-11,2025-09-26 20:17:18.043,HH,C,907811058,AMBUSH51,1,1,48,2,1,1,225,2,1,0,0,9,1,225,2,1,-152456.97983191648,-4790495.3938774,4198303.638820386,2.283,2.82875,-0.401483,-102.061,31.9065,43.6067,-0.189045,-7.53838,7.40722,0.0205282,-0.00858974,0.00223976,4,0,41.40711220753349,-91.82281654032349,9243.331507714283,-62.41995442783767,3.84133315960811,-2.954819059854686,198.227,8988.574530004647,11016.82538521552,150,True,16.960762325119067,False,174.84086212034683,177.87396659575936,False,6.328642050269388,True,False
3,1970-07-23 10:16:58.391134756,2025-09-11,2025-09-26 20:17:19.113,HH,C,1826492060,JASSM,3,104,76,2,2,1,225,9,2,0,1,26,0,0,0,0,-178756.20446951812,-4778754.274385299,4210895.522917271,-2.36684,-0.400657,0.38129,79.875,-33.75,-34.625,0.0,0.0,0.0,0.0,0.0,0.0,2,0,41.55653704033842,-92.14223257681004,10002.621424560208,119.8176122260622,-0.0027885700113659,0.0059252702407868,,8988.574530004647,11016.82538521552,150,3,2025-09-11,2025-09-26 20:17:19.143,HH,C,909123356,AMBUSH51,1,1,48,2,1,1,225,2,1,0,0,9,1,225,2,1,-152569.98147514946,-4790460.45645847,4198352.023988499,2.29765,2.83354,-0.404937,-101.96,31.0651,43.7448,-0.0879835,-7.35672,7.19624,0.0259731,-0.00130141,0.00913485,4,0,41.40762528030965,-91.82418000067986,9271.246814277029,-62.45219578230319,4.161588810367137,-2.009816829320101,197.592,8988.574530004647,11016.82538521552,150,True,16.84476278290098,False,174.4481560830483,177.8508238887698,False,6.702981179690297,True,False
3,1970-07-23 10:16:58.401155736,2025-09-11,2025-09-26 20:17:20.115,HH,C,1827684464,JASSM,3,104,76,2,2,1,225,9,2,0,1,26,0,0,0,0,-178676.30505545562,-4778788.123994674,4210860.735807896,-2.36684,-0.400657,0.38129,79.875,-33.75,-34.625,0.0,0.0,0.0,0.0,0.0,0.0,2,0,41.55611866292202,-92.1412607924218,10002.626137501748,119.81825686515478,-0.0019496164222238,0.0059238739132395,,8988.574530004647,11016.82538521552,150,3,2025-09-11,2025-09-26 20:17:20.110,HH,C,910276588,AMBUSH51,1,1,48,2,1,1,225,2,1,0,0,9,1,225,2,1,-152667.42225507795,-4790430.939029438,4198393.805945035,2.30019,2.83391,-0.400642,-101.88,30.5761,43.8387,-0.190432,-7.05696,6.87484,-0.00681291,-0.00606597,-0.021685,4,0,41.40806446606721,-91.82535548849924,9296.951866371252,-62.64493437078723,4.006803963152695,-1.8698615402768228,196.92,8988.574530004647,11016.82538521552,150,True,16.735821319838166,False,174.22043340914468,177.82905451919686,False,6.9295921834481256,True,False
3,1970-07-23 10:16:58.411239325,2025-09-11,2025-09-26 20:17:21.123,HH,C,1828877862,JASSM,3,104,76,2,2,1,225,9,2,0,1,26,0,0,0,0,-178596.33923514312,-4778821.998994674,4210825.919401646,-2.36684,-0.400561,0.38129,79.875,-33.75,-34.625,0.0,0.0,0.0,0.0,0.0,0.0,2,0,41.55569994330121,-92.1402882141382,10002.627785701372,119.8152582399576,-0.0046764074928758,0.0038785595463727,,8988.574530004647,11016.82538521552,150,3,2025-09-11,2025-09-26 20:17:21.111,HH,C,911469586,AMBUSH51,1,1,48,2,1,1,225,2,1,0,0,9,1,225,2,1,-152768.99150771834,-4790400.412659356,4198437.157642437,2.2873,2.83673,-0.399252,-101.749,30.3589,43.551,-0.0801317,-6.92462,6.82917,-0.0168871,-0.00876242,-0.00289723,4,0,41.40851945423653,-91.82658070230576,9323.91187583993,-62.80638315800688,4.060430973223141,-2.5567455964316474,196.357,8988.574530004647,11016.82538521552,150,True,16.624445882040234,False,174.14340750138092,177.80571641761605,False,7.0627270580701556,True,False
3,1970-07-23 10:16:58.421284758,2025-09-11,2025-09-26 20:17:22.128,HH,C,1830130042,JASSM,3,104,76,2,2,1,225,9,2,0,1,26,0,0,0,0,-178512.43493826812,-4778857.541963424,4210789.386198521,-2.36684,-0.400561,0.38129,79.875,-33.75,-34.625,0.0,0.0,0.0,0.0,0.0,0.0,2,0,41.555260581068254,-92.13926774812424,10002.628870618872,119.8159351610584,-0.0037954048126623,0.0038770396025479,,8988.574530004647,11016.82538521552,150,3,2025-09-11,2025-09-26 20:17:22.144,HH,C,912702352,AMBUSH51,1,1,48,2,1,1,225,2,1,0,0,9,1,225,2,1,-152874.9788882748,-4790368.666290718,4198482.180874582,2.27594,2.83364,-0.396312,-101.726,30.3232,43.0345,-0.0964136,-6.85186,6.78441,-0.0174947,-0.00289515,-0.00432244,4,0,41.40899213094886,-91.82785918502915,9351.852192609833,-62.81652731318377,3.827190091705197,-3.277207202689296,195.979,8988.574530004647,11016.82538521552,150,True,16.508007437616925,False,174.14141882026706,177.78043183859793,False,7.16159461937758,True,False
3,1970-07-23 10:16:58.431157356,2025-09-11,2025-09-26 20:17:23.115,HH,C,1831323076,JASSM,3,104,76,2,2,1,225,9,2,0,1,26,0,0,0,0,-178432.49255545562,-4778891.403291549,4210754.577604771,-2.36684,-0.400561,0.38129,79.875,-33.75,-34.625,0.0,0.0,0.0,0.0,0.0,0.0,2,0,41.55484197348105,-92.13829548228868,10002.625343961725,119.81658010333848,-0.0029560117734931,0.00387560529689,,8988.574530004647,11016.82538521552,150,3,2025-09-11,2025-09-26 20:17:22.943,HH,C,913656752,AMBUSH51,1,1,48,2,1,1,225,2,1,0,0,9,1,225,2,1,-152956.24491754235,-4790344.374065436,4198516.455588253,2.26375,2.83536,-0.391236,-101.761,30.2438,42.654,-0.0217236,-6.80892,6.66852,-0.0199914,0.00102469,-0.00975279,4,0,41.4093525856968,-91.828839455544,9372.865963106353,-63.09112208143291,3.6931919391167143,-3.955614856953752,195.404,8988.574530004647,11016.82538521552,150,True,16.408982925126434,False,174.10109476739365,177.7590008862393,False,7.275021861094273,True,False
3,1970-07-23 10:16:58.441180507,2025-09-11,2025-09-26 20:17:24.118,HH,C,1832516798,JASSM,3,104,76,2,2,1,225,9,2,0,1,26,0,0,0,0,-178352.50525076812,-4778925.284150924,4210719.747526646,-2.36684,-0.400561,0.38129,79.875,-33.75,-34.625,0.0,0.0,0.0,0.0,0.0,0.0,2,0,41.55442310644382,-92.1373226824412,10002.623362368162,119.81722539450908,-0.0021161389100747,0.0038741563821551,,8988.574530004647,11016.82538521552,150,3,2025-09-11,2025-09-26 20:17:24.143,HH,C,915088350,AMBUSH51,1,1,48,2,1,1,225,2,1,0,0,9,1,225,2,1,-153078.60536158536,-4790308.268847129,4198567.046462658,2.15344,2.83797,-0.3854,-102.224,29.757,41.6513,-0.077868,-6.92388,6.85911,-0.10154,0.00303663,-0.0018174,4,0,41.409885637989404,-91.83031526382712,9403.468102184612,-63.4300427488522,3.563564138609208,-10.24039047373798,194.683,8988.574530004647,11016.82538521552,150,False,16.285584581113135,False,173.7792089400446,177.72765266012297,False,7.75447709254352,True,False
3,1970-07-23 10:16:58.451216476,2025-09-11,2025-09-26 20:17:25.121,HH,C,1833709802,JASSM,3,104,76,2,2,1,225,9,2,0,1,26,0,0,0,0,-178272.56482108062,-4778959.145479049,4210684.936979771,-2.36684,-0.400561,0.381386,79.875,-33.75,-34.625,0.0,0.0,0.0,0.0,0.0,0.0,2,0,41.55400446876197,-92.13635046508904,10002.62475812986,119.82171273747,-0.005202394303184,0.003872484258176,,8988.574530004647,11016.82538521552,150,3,2025-09-11,2025-09-26 20:17:24.976,HH,C,916082516,AMBUSH51,1,1,48,2,1,1,225,2,1,0,0,9,1,225,2,1,-153163.09052492044,-4790283.903935274,4198601.342541555,2.07542,2.84772,-0.374911,-102.762,28.9511,40.6927,-0.0126641,-6.97245,6.76219,-0.120661,0.00383558,-0.0352068,4,0,41.4102460342534,-91.83133404843969,9424.613306356729,-64.22549075688053,3.526646621610327,-14.552729358299446,194.769,8988.574530004647,11016.82538521552,150,False,16.185104895252742,False,173.25889768099256,177.70216321702785,False,8.390982356537823,True,False
3,1970-07-23 10:16:58.461235151,2025-09-11,2025-09-26 20:17:26.123,HH,C,1834843198,JASSM,3,104,76,2,2,1,225,9,2,0,1,26,0,0,0,0,-178196.61950858062,-4778991.311494674,4210651.866667271,-2.36684,-0.400561,0.381386,79.875,-33.75,-34.625,0.0,0.0,0.0,0.0,0.0,0.0,2,0,41.55360676717192,-92.13542684842923,10002.623925757229,119.82232539383584,-0.0044049703982629,0.0038711739701341,,8988.574530004647,11016.82538521552,150,3,2025-09-11,2025-09-26 20:17:26.343,HH,C,917712948,AMBUSH51,1,1,48,2,1,1,225,2,1,0,0,9,1,225,2,1,-153304.75020776992,-4790245.308645713,4198655.55560486,1.95017,2.87153,-0.339362,-104.237,27.1815,37.6156,0.0778362,-6.78035,6.55859,-0.0557964,0.00173834,-0.0271674,4,0,41.41081464206901,-91.83304144278044,9458.487286744208,-66.5892349041295,3.0614675081423166,-21.387652762776053,194.231,8988.574530004647,11016.82538521552,150,False,16.054324524027738,False,171.838389748873,177.65714879245357,False,10.0745870978872,True,False
3,1970-07-23 10:16:58.470134618,2025-09-11,2025-09-26 20:17:27.013,HH,C,1835976592,JASSM,3,104,76,2,2,1,225,9,2,0,1,26,0,0,0,0,-178120.67419608062,-4779023.477510299,4210618.794401646,-2.36684,-0.400561,0.381386,79.875,-33.75,-34.625,0.0,0.0,0.0,0.0,0.0,0.0,2,0,41.55320904498228,-92.13450324309228,10002.62290040404,119.82293803787591,-0.0036075398965494,0.0038698522382421,,8988.574530004647,11016.82538521552,150,3,2025-09-11,2025-09-26 20:17:27.143,HH,C,918667346,AMBUSH51,1,1,48,2,1,1,225,2,1,0,0,9,1,225,2,1,-153388.58610292108,-4790223.97097635,4198684.741619935,1.93516,2.87355,-0.310738,-105.296,26.6432,35.1114,-0.0728643,-5.93783,5.83387,-0.00537314,-0.0163504,-0.033871,4,0,41.41112263207556,-91.83405133535256,9475.94886137594,-67.8629212481378,2.020915110001748,-22.26737765959397,193.51,8988.574530004647,11016.82538521552,150,False,15.958382742179557,False,170.95230586672537,177.62190404703398,False,11.132467242907879,True,False
3,1970-07-23 10:16:58.483616915,2025-09-11,2025-09-26 20:17:28.361,HH,C,1837347960,JASSM,3,104,76,2,2,1,225,9,2,0,1,26,0,0,0,0,-178028.78259451812,-4779062.397432174,4210578.776823521,-2.36684,-0.400561,0.381386,79.875,-33.75,-34.625,0.0,0.0,0.0,0.0,0.0,0.0,2,0,41.55272779547093,-92.13338572285794,10002.624642750356,119.82367930271792,-0.0026426686347082,0.0038682465443608,,8988.574530004647,11016.82538521552,150,3,2025-09-11,2025-09-26 20:17:28.311,HH,C,920059178,AMBUSH51,1,1,48,2,1,1,225,2,1,0,0,9,1,225,2,1,-153511.5897143951,-4790193.125949409,4198723.136280817,1.94464,2.87218,-0.271019,-106.78,26.8152,31.0591,-0.0253527,-5.40619,5.38346,0.0203784,-0.0142573,-0.0269135,4,0,41.411541870114526,-91.8355328822514,9493.10398187555,-69.47271304284034,0.4104214221273153,-21.78063352383126,193.62,8988.574530004647,11016.82538521552,150,False,15.830960888633346,False,169.72265292079786,177.56425152653233,False,12.58043796676261,True,False
3,1970-07-23 10:16:58.492181876,2025-09-11,2025-09-26 20:17:29.218,HH,C,1838601304,JASSM,3,104,76,2,2,1,225,9,2,0,1,26,0,0,0,0,-177944.79919608062,-4779097.965791549,4210542.204557896,-2.36684,-0.400465,0.381386,79.875,-33.75,-34.625,0.0,0.0,0.0,0.0,0.0,0.0,2,0,41.55228797479376,-92.13236439199888,10002.629291064586,119.82071324025478,-0.0053272737776759,0.0018224219266063,,8988.574530004647,11016.82538521552,150,3,2025-09-11,2025-09-26 20:17:29.109,HH,C,921013576,AMBUSH51,1,1,48,2,1,1,225,2,1,0,0,9,1,225,2,1,-153597.4609175346,-4790171.639049084,4198746.895046628,1.95532,2.87045,-0.249511,-107.847,27.1264,28.2952,-0.0576358,-5.41094,5.52823,0.019569,-0.00968621,-0.0349301,4,0,41.41181370446824,-91.8365671708276,9498.591481612975,-70.3056253138932,-0.5026976582915118,-21.193263934044197,193.852,8988.574530004647,11016.82538521552,150,False,15.730221429896053,False,168.783573958589,177.51698236405727,False,13.632633332382692,True,False
3,1970-07-23 10:16:58.504176930,2025-09-11,2025-09-26 20:17:30.417,HH,C,1839973342,JASSM,3,104,76,2,2,1,225,9,2,0,1,26,0,0,0,0,-177852.86267264312,-4779136.899385299,4210502.165495396,-2.36684,-0.400465,0.381386,79.875,-33.75,-34.625,0.0,0.0,0.0,0.0,0.0,0.0,2,0,41.55180648814438,-92.13124635959063,10002.625092003516,119.82145483142816,-0.0043619417788811,0.0018207695654106,,8988.574530004647,11016.82538521552,150,3,2025-09-11,2025-09-26 20:17:30.409,HH,C,922564476,AMBUSH51,1,1,48,2,1,1,225,2,1,0,0,9,1,225,2,1,-153739.2938336132,-4790135.580852679,4198781.442566002,1.98162,2.86487,-0.205264,-109.424,28.0476,24.0712,-0.0438373,-5.09829,4.93294,0.00551254,-0.0148003,-0.0350715,4,0,41.412234365551576,-91.83827573432912,9496.078371914213,-71.94099195676598,-2.464834753810016,-19.716191447382005,195.111,8988.574530004647,11016.82538521552,150,False,15.59415631551035,False,167.30311403223058,177.43569847618824,False,15.248772982033833,True,False
3,1970-07-23 10:16:58.515199123,2025-09-11,2025-09-26 20:17:31.519,HH,C,1841285016,JASSM,3,104,76,2,2,1,225,9,2,0,1,26,0,0,0,0,-177764.97107108062,-4779174.120088424,4210463.886198521,-2.36684,-0.400465,0.381386,79.875,-33.75,-34.625,0.0,0.0,0.0,0.0,0.0,0.0,2,0,41.55134616249735,-92.13017753262427,10002.622820807734,119.82216377802052,-0.0034390749750376,0.0018191788380504,,8988.574530004647,11016.82538521552,150,3,2025-09-11,2025-09-26 20:17:31.644,HH,C,924035840,AMBUSH51,1,1,48,2,1,1,225,2,1,0,0,9,1,225,2,1,-153874.4344868157,-4790100.27192596,4198808.481972562,2.03559,2.85685,-0.173385,-110.987,29.4865,19.7632,-0.0973394,-5.46482,5.24264,0.142178,-0.0124534,-0.0225318,4,0,41.41260114539504,-91.83990406709243,9478.596705051445,-72.9640568356582,-4.044406130269083,-16.65276888178832,196.394,8988.574530004647,11016.82538521552,150,False,15.465439997027513,False,165.736027700451,177.34892328393687,False,16.91453272408845,True,False
3,1970-07-23 10:16:58.526237104,2025-09-11,2025-09-26 20:17:32.623,HH,C,1842597366,JASSM,3,104,76,2,2,1,225,9,2,0,1,26,0,0,0,0,-177677.03357108062,-4779211.360322799,4210425.587370396,-2.36684,-0.400465,0.381386,79.875,-33.75,-34.625,0.0,0.0,0.0,0.0,0.0,0.0,2,0,41.55088558901117,-92.12910816263393,10002.627216195157,119.82287307834044,-0.0025157273917066,0.0018175894468798,,8988.574530004647,11016.82538521552,150,3,2025-09-11,2025-09-26 20:17:32.809,HH,C,925427672,AMBUSH51,1,1,48,2,1,1,225,2,1,0,0,9,1,225,2,1,-154005.30736306135,-4790065.400061168,4198830.363694277,2.16023,2.86354,-0.142858,-112.389,29.9752,17.3662,-0.128867,-6.17133,5.71041,0.0832332,-0.017659,-0.00694815,4,0,41.4129313063881,-91.84148125720102,9450.669528904333,-74.50430365111062,-4.964226901250511,-9.32997385811071,198.08,8988.574530004647,11016.82538521552,150,True,15.339847816280084,False,164.66579535231173,177.25732274714397,False,18.071539030628493,True,False
3,1970-07-23 10:16:58.537236078,2025-09-11,2025-09-26 20:17:33.723,HH,C,1843909716,JASSM,3,104,76,2,2,1,225,9,2,0,1,26,0,0,0,0,-177589.09607108062,-4779248.596650924,4210387.286589146,-2.36684,-0.400465,0.381386,79.875,-33.75,-34.625,0.0,0.0,0.0,0.0,0.0,0.0,2,0,41.55042501569068,-92.12803880956248,10002.623217099555,119.82358236097934,-0.0015923859093282,0.0018160081686431,,8988.574530004647,11016.82538521552,150,3,2025-09-11,2025-09-26 20:17:33.643,HH,C,926421838,AMBUSH51,1,1,48,2,1,1,225,2,1,0,0,9,1,225,2,1,-154099.35350183723,-4790040.280008957,4198844.0946235135,2.21209,2.8629,-0.139277,-113.413,30.4158,16.0444,-0.0630534,-6.67384,6.28051,0.0235638,-0.00151779,0.0038335,4,0,41.41315545706423,-91.84261467260218,9426.13088879794,-74.63022317908128,-5.130328257716866,-6.352748942071883,199.571,8988.574530004647,11016.82538521552,150,True,15.234494001138472,False,164.07785257537662,177.18484605629016,False,18.727039138912154,True,False
3,1970-07-23 10:16:58.547258673,2025-09-11,2025-09-26 20:17:34.725,HH,C,1845162416,JASSM,3,104,76,2,2,1,225,9,2,0,1,26,0,0,0,0,-177505.15661795562,-4779284.141572799,4210350.726042271,-2.36684,-0.400465,0.381482,79.875,-33.75,-34.625,0.0,0.0,0.0,0.0,0.0,0.0,2,0,41.54998535634585,-92.12701808772468,10002.625841660156,119.82810196590326,-0.0046365171890375,0.0018143053503741,,8988.574530004647,11016.82538521552,150,3,2025-09-11,2025-09-26 20:17:34.909,HH,C,927932970,AMBUSH51,1,1,48,2,1,1,225,2,1,0,0,9,1,225,2,1,-154243.2832258762,-4790001.840391612,4198863.82844021,2.2445,2.86688,-0.131112,-114.996,30.5192,15.2676,-0.121383,-7.13865,6.7098,0.0277541,-0.00242285,-0.00716661,4,0,41.41348981248392,-91.84434928825698,9385.818837359808,-75.12961030077129,-5.2831971022278905,-4.419661974562408,202.284,8988.574530004647,11016.82538521552,150,True,15.105403037285686,False,163.59419168183433,177.07598875831326,False,19.318570965658324,True,False
3,1970-07-23 10:16:58.558133985,2025-09-11,2025-09-26 20:17:35.813,HH,C,1846475364,JASSM,3,104,76,2,2,1,225,9,2,0,1,26,0,0,0,0,-177417.17907889312,-4779321.393525924,4210312.405729771,-2.36684,-0.400465,0.381482,79.875,-33.75,-34.625,0.0,0.0,0.0,0.0,0.0,0.0,2,0,41.54952454763736,-92.1259482780412,10002.624665043431,119.82881153887818,-0.0037127523661786,0.0018127796531296,,8988.574530004647,11016.82538521552,150,3,2025-09-11,2025-09-26 20:17:35.843,HH,C,929046436,AMBUSH51,1,1,48,2,1,1,225,2,1,0,0,9,1,225,2,1,-154351.73613952607,-4789973.526820448,4198878.036122459,2.23845,2.87227,-0.131343,-115.893,28.8194,16.3883,-0.146845,-7.41601,6.79665,-0.0366674,0.00458251,-0.0013139,4,0,41.41373339425271,-91.84565610907067,9355.615457593643,-75.33066798323304,-5.048930524642667,-4.707845206520276,203.787,8988.574530004647,11016.82538521552,150,True,14.992910143822458,False,163.59963907684522,176.98815826907204,False,19.41105477392112,True,False
3,1970-07-23 10:16:58.570155268,2025-09-11,2025-09-26 20:17:37.015,HH,C,1847846746,JASSM,3,104,76,2,2,1,225,9,2,0,1,26,0,0,0,0,-177325.28552420562,-4779360.301729049,4210272.380339146,-2.36684,-0.400465,0.381482,79.875,-33.75,-34.625,0.0,0.0,0.0,0.0,0.0,0.0,2,0,41.54904323240391,-92.12483086654645,10002.625952984985,119.8295526778178,-0.0027478774993301,0.00181119908531,,8988.574530004647,11016.82538521552,150,3,2025-09-11,2025-09-26 20:17:36.976,HH,C,930398500,AMBUSH51,1,1,48,2,1,1,225,2,1,0,0,9,1,225,2,1,-154483.07951712474,-4789940.090202041,4198895.046709128,2.2,2.88473,-0.141715,-117.45,28.7505,15.4874,-0.181494,-8.1271,7.57438,-0.0378367,0.0149543,0.00333415,4,0,41.414021971481,-91.84723844162193,9320.71846195583,-75.37816730445861,-4.125121951107492,-6.809953664983284,205.62,8988.574530004647,11016.82538521552,150,True,14.86614528706527,False,163.0504778595311,176.88088565593344,False,20.067168942850373,True,False
3,1970-07-23 10:16:58.580178178,2025-09-11,2025-09-26 20:17:38.017,HH,C,1849100060,JASSM,3,104,76,2,2,1,225,9,2,0,1,26,0,0,0,0,-177241.30407889312,-4779395.860322799,4210235.798307896,-2.36674,-0.400369,0.381482,79.875,-33.75,-34.625,0.0,0.0,0.0,0.0,0.0,0.0,2,0,41.548603327518144,-92.12380967939616,10002.627130283088,119.82658673904538,-0.0054324898016778,0.0052563499449686,,8988.574530004647,11016.82538521552,150,3,2025-09-11,2025-09-26 20:17:37.876,HH,C,931472200,AMBUSH51,1,1,48,2,1,1,225,2,1,0,0,9,1,225,2,1,-154588.75840469764,-4789914.9650284005,4198909.121713478,2.17645,2.90994,-0.156026,-118.395,26.6646,16.0485,-0.211421,-9.30104,8.59673,-0.0259814,0.0202348,-0.00469486,4,0,41.41424618700384,-91.84851091479769,9297.862178490492,-75.7469014980423,-2.518646149288222,-7.923567366333973,206.977,8988.574530004647,11016.82538521552,150,True,14.758162111612016,False,162.6900832215623,176.7910776936078,False,20.517829317278085,True,False
3,1970-07-23 10:16:58.591193557,2025-09-11,2025-09-26 20:17:39.119,HH,C,1850411820,JASSM,3,104,76,2,2,1,225,9,2,0,1,26,0,0,0,0,-177153.40661795562,-4779433.073213424,4210197.509245396,-2.36674,-0.400369,0.381482,79.875,-33.75,-34.75,0.0,0.0,0.0,0.0,0.0,0.0,2,0,41.54814291462152,-92.12274089127294,10002.621719790695,119.82729561518478,-0.0045095702986153,0.0052547714392447,,8988.574530004647,11016.82538521552,150,3,2025-09-11,2025-09-26 20:17:39.076,HH,C,932903798,AMBUSH51,1,1,48,2,1,1,225,2,1,0,0,9,1,225,2,1,-154731.15506653071,-4789885.010727008,4198928.709843704,2.17067,2.9393,-0.168483,-119.169,22.9474,16.882,-0.0761074,-9.92224,8.3595,0.00367953,0.0232538,-0.00863343,4,0,41.41452927788452,-91.85022401708838,9278.017970098012,-76.34296364835697,-0.8110925822265485,-7.966088063748703,206.977,8988.574530004647,11016.82538521552,150,True,14.629265525473208,False,161.90186538071907,176.72753265022794,False,21.354965710325466,True,False
3,1970-07-23 10:16:58.602217083,2025-09-11,2025-09-26 20:17:40.221,HH,C,1851664518,JASSM,3,104,76,2,2,1,225,9,2,0,1,26,0,0,0,0,-177069.46618826812,-4779468.612275924,4210160.944792271,-2.36674,-0.400369,0.381482,79.875,-33.75,-34.75,0.0,0.0,0.0,0.0,0.0,0.0,2,0,41.54770321693567,-92.12172023213785,10002.627106110867,119.82797256364036,-0.0036281976306355,0.0052532618684574,,8988.574530004647,11016.82538521552,150,3,2025-09-11,2025-09-26 20:17:40.209,HH,C,934255864,AMBUSH51,1,1,48,2,1,1,225,2,1,0,0,9,1,225,2,1,-154867.06821556768,-4789860.853988651,4198948.136895612,2.18834,2.96375,-0.174712,-119.345,19.3108,17.6503,-0.132516,-9.75088,8.12168,0.0450126,0.024421,-0.00875202,4,0,41.414778005969445,-91.85185742344348,9271.576782340211,-77.00721731716732,0.4522600917896793,-6.712085952448247,206.158,8988.574530004647,11016.82538521552,150,True,14.507041715426581,False,161.09390396580264,176.60658557053966,False,22.24926355356338,True,False
3,1970-07-23 10:16:58.613235247,2025-09-11,2025-09-26 20:17:41.323,HH,C,1852976868,JASSM,3,104,76,2,2,1,225,9,2,0,1,26,0,0,0,0,-176981.52868826812,-4779505.840791549,4210122.636198521,-2.36674,-0.400369,0.381482,79.875,-33.75,-34.75,0.0,0.0,0.0,0.0,0.0,0.0,2,0,41.547242568644,-92.12065098741344,10002.624523099235,119.82868172999903,-0.0027048548896216,0.0052516769922052,,8988.574530004647,11016.82538521552,150,3,2025-09-11,2025-09-26 20:17:41.509,HH,C,935806762,AMBUSH51,1,1,48,2,1,1,225,2,1,0,0,9,1,225,2,1,-155021.33077754788,-4789837.733538123,4198971.663801214,2.21935,2.98656,-0.183414,-118.737,16.019,18.5162,-0.0749985,-8.91209,7.26175,0.0338253,0.00746205,-0.000487899,4,0,41.41504468269369,-91.85370970757494,9278.052201715886,-77.4981390644141,1.7431614934959812,-4.711844005651558,204.802,8988.574530004647,11016.82538521552,150,True,14.373581167517463,False,160.38591170475112,176.46647616751792,False,23.051064420040216,True,False
3,1970-07-23 10:16:58.623273375,2025-09-11,2025-09-26 20:17:42.327,HH,C,1854229568,JASSM,3,104,76,2,2,1,225,9,2,0,1,26,0,0,0,0,-176897.58728201812,-4779541.375947799,4210086.067839146,-2.36674,-0.400369,0.381482,79.875,-33.75,-34.75,0.0,0.0,0.0,0.0,0.0,0.0,2,0,41.54680284954588,-92.11963034663977,10002.621885445731,119.82935865422552,-0.0018234742276544,0.0052501686240677,,8988.574530004647,11016.82538521552,150,3,2025-09-11,2025-09-26 20:17:42.309,HH,C,936761160,AMBUSH51,1,1,48,2,1,1,225,2,1,0,0,9,1,225,2,1,-155115.08888819627,-4789825.428114598,4198986.172991976,2.24071,2.99309,-0.183128,-118.162,14.9084,18.5188,-0.272773,-8.34446,6.79642,0.0258275,0.00467614,-0.0139764,4,0,41.41519777234558,-91.85483482463822,9286.74531007804,-77.75680997733242,2.007335562252021,-3.4283222989350555,203.604,8988.574530004647,11016.82538521552,150,True,14.273685019675204,False,160.06591439640746,176.37394210536578,False,23.44983128199673,True,False
3,1970-07-23 10:16:58.634134357,2025-09-11,2025-09-26 20:17:43.413,HH,C,1855483052,JASSM,3,104,76,2,2,1,225,9,2,0,1,26,0,0,0,0,-176813.59411795562,-4779576.932588424,4210049.476042271,-2.36674,-0.400369,0.381578,79.875,-33.75,-34.75,0.0,0.0,0.0,0.0,0.0,0.0,2,0,41.54636284676988,-92.11860909057688,10002.621225441111,119.83387870612393,-0.0048669125703946,0.0052484614428034,,8988.574530004647,11016.82538521552,150,3,2025-09-11,2025-09-26 20:17:43.509,HH,C,938192758,AMBUSH51,1,1,48,2,1,1,225,2,1,0,0,9,1,225,2,1,-155255.95759674092,-4789808.362374794,4199008.4353335975,2.2641,3.00256,-0.189204,-117.123,13.4628,18.7669,-0.09759,-8.26569,6.51456,0.0284012,-0.00579134,-0.000494141,4,0,41.41542242080352,-91.8565247358862,9304.318324725416,-77.85334175982457,2.638096447215307,-1.9916765712094573,201.673,8988.574530004647,11016.82538521552,150,True,14.150312854082985,False,159.73632512191142,176.23872466897046,False,23.892207767490483,True,False
3,1970-07-23 10:16:58.645152859,2025-09-11,2025-09-26 20:17:44.515,HH,C,1856795160,JASSM,3,104,76,2,2,1,225,9,2,0,1,26,0,0,0,0,-176725.67321951812,-4779614.151338424,4210011.173307896,-2.36674,-0.400369,0.381578,79.875,-33.75,-34.75,0.0,0.0,0.0,0.0,0.0,0.0,2,0,41.54590226349544,-92.11754009308258,10002.624764320344,119.8345876898228,-0.0039437481353867,0.0052469443460806,,8988.574530004647,11016.82538521552,150,3,2025-09-11,2025-09-26 20:17:44.709,HH,C,939624358,AMBUSH51,1,1,48,2,1,1,225,2,1,0,0,9,1,225,2,1,-155396.38485223282,-4789792.514120594,4199031.052759496,2.27557,3.00621,-0.187473,-116.019,12.6427,18.8627,-0.131733,-7.86662,6.30346,0.00840872,-0.00115161,0.00102677,4,0,41.41564228122265,-91.85820890881398,9325.631276855063,-78.06531827799084,2.726649800227551,-1.3049645754271917,199.584,8988.574530004647,11016.82538521552,150,True,14.024931746179243,False,159.57173190928344,176.10020858290022,False,24.183334372298532,True,False
3,1970-07-23 10:16:58.656173779,2025-09-11,2025-09-26 20:17:45.617,HH,C,1858166622,JASSM,3,104,76,2,2,1,225,9,2,0,1,26,0,0,0,0,-176633.77478201812,-4779653.053682174,4209971.134245396,-2.36674,-0.400369,0.381578,79.875,-33.75,-34.75,0.0,0.0,0.0,0.0,0.0,0.0,2,0,41.54542081020281,-92.11642275046964,10002.626185534527,119.83532873021556,-0.0029788085049167,0.0052453389506532,,8988.574530004647,11016.82538521552,150,3,2025-09-11,2025-09-26 20:17:45.643,HH,C,940737822,AMBUSH51,1,1,48,2,1,1,225,2,1,0,0,9,1,225,2,1,-155504.05077970048,-4789780.584037359,4199048.405912463,2.27444,2.99834,-0.183076,-115.181,12.8023,18.3638,-0.169075,-6.76007,5.70308,-0.000689717,-0.0224423,-0.00253937,4,0,41.41580960092632,-91.859500088112,9342.548809450873,-77.95931404578049,2.2293881389525847,-1.4481937194358925,198.386,8988.574530004647,11016.82538521552,150,True,13.91353319979454,False,159.54943547889496,175.98757234184149,False,24.330873048163426,True,False
3,1970-07-23 10:16:58.667213127,2025-09-11,2025-09-26 20:17:46.721,HH,C,1859419976,JASSM,3,104,76,2,2,1,225,9,2,0,1,26,0,0,0,0,-176549.78943045562,-4779688.602510299,4209934.544401646,-2.36674,-0.400273,0.381578,79.875,-33.75,-34.75,0.0,0.0,0.0,0.0,0.0,0.0,2,0,41.5449808368676,-92.1154016348805,10002.626900987674,119.83236296386728,-0.0056633895752659,0.0031985677729463,,8988.574530004647,11016.82538521552,150,3,2025-09-11,2025-09-26 20:17:46.809,HH,C,942129654,AMBUSH51,1,1,48,2,1,1,225,2,1,0,0,9,1,225,2,1,-155637.10981678206,-4789764.998759804,4199069.021657141,2.27444,2.9822,-0.165782,-114.501,14.0174,17.0191,-0.178254,-5.9013,4.89474,-0.00571435,-0.0259336,-0.00814033,4,0,41.41601576690545,-91.86109612626024,9359.59387211169,-78.09087457059712,0.8910492497864401,-1.6123410783468357,196.895,8988.574530004647,11016.82538521552,150,True,13.794515637539204,False,159.60990657239816,175.85070076286073,False,24.447867633388245,True,False
3,1970-07-23 10:16:58.678214486,2025-09-11,2025-09-26 20:17:47.821,HH,C,1860792106,JASSM,3,104,76,2,2,1,225,9,2,0,1,26,0,0,0,0,-176457.84607108062,-4779727.518525924,4209894.483854771,-2.36674,-0.400273,0.381578,79.875,-33.75,-34.75,0.0,0.0,0.0,0.0,0.0,0.0,2,0,41.54449914635797,-92.1142837801964,10002.622425142292,119.83310433047006,-0.0046979891949484,0.0031969157177305,,8988.574530004647,11016.82538521552,150,3,2025-09-11,2025-09-26 20:17:47.742,HH,C,943243120,AMBUSH51,1,1,48,2,1,1,225,2,1,0,0,9,1,225,2,1,-155744.32106522136,-4789751.007276817,4199084.23299062,2.27589,2.97017,-0.154821,-114.12,15.5263,15.4836,-0.170102,-5.84462,4.83964,0.0118271,-0.0196439,-0.00378564,4,0,41.41618095229052,-91.86238268370516,9366.771179874608,-78.1033384846765,-0.0339484050513151,-1.6394295554782878,196.333,8988.574530004647,11016.82538521552,150,True,13.683457364616112,False,159.63870616749549,175.73303434280697,False,24.575248787840668,True,False
3,1970-07-23 10:16:58.689232621,2025-09-11,2025-09-26 20:17:48.923,HH,C,1862104142,JASSM,3,104,76,2,2,1,225,9,2,0,1,26,0,0,0,0,-176369.92907889312,-4779764.731416549,4209856.177214146,-2.36674,-0.400273,0.381578,79.875,-33.75,-34.75,0.0,0.0,0.0,0.0,0.0,0.0,2,0,41.54403853050556,-92.11321489344732,10002.625443397525,119.83381321469888,-0.0037748604704628,0.0031953281208427,,8988.574530004647,11016.82538521552,150,3,2025-09-11,2025-09-26 20:17:48.909,HH,C,944634952,AMBUSH51,1,1,48,2,1,1,225,2,1,0,0,9,1,225,2,1,-155876.42209364165,-4789731.859723813,4199101.241584521,2.27885,2.95983,-0.140542,-113.892,17.2621,13.8219,-0.261344,-6.36155,5.40755,-0.00310113,-0.00951144,-0.0049591,4,0,41.41638411516762,-91.863968673414,9367.167871598574,-78.31898447597065,-1.0158237698342352,-1.5547192734394202,196.406,8988.574530004647,11016.82538521552,150,True,13.562598456814408,False,159.62555988982456,175.58958008906228,False,24.762819338417163,True,False
3,1970-07-23 10:16:58.700291035,2025-09-11,2025-09-26 20:17:50.029,HH,C,1863416024,JASSM,3,104,76,2,2,1,225,9,2,0,1,26,0,0,0,0,-176282.02282889312,-4779801.936494674,4209817.874479771,-2.36674,-0.400273,0.381578,79.875,-33.75,-34.75,0.0,0.0,0.0,0.0,0.0,0.0,2,0,41.54357797522568,-92.1121461539117,10002.624199684627,119.83452199483952,-0.0028518524966711,0.003193752509678,,8988.574530004647,11016.82538521552,150,3,2025-09-11,2025-09-26 20:17:50.144,HH,C,946106318,AMBUSH51,1,1,48,2,1,1,225,2,1,0,0,9,1,225,2,1,-156017.56132530616,-4789709.743311827,4199117.901495329,2.28178,2.95433,-0.135179,-113.873,18.252,12.8457,-0.0559802,-6.67268,5.462,0.00720406,-0.00926593,-0.00225016,4,0,41.41660081739571,-91.865663831275,9360.240421911716,-78.33841270755556,-1.4522303350951564,-1.4295520108039546,196.59,8988.574530004647,11016.82538521552,150,True,13.437333929984984,False,159.5673276348618,175.43391226719356,False,24.988661157870165,True,False
3,1970-07-23 10:16:58.711273017,2025-09-11,2025-09-26 20:17:51.127,HH,C,1864668788,JASSM,3,104,76,2,2,1,225,9,2,0,1,26,0,0,0,0,-176198.07751639312,-4779837.463838424,4209781.296354771,-2.36674,-0.400273,0.381578,79.875,-33.75,-34.75,0.0,0.0,0.0,0.0,0.0,0.0,2,0,41.54313816204674,-92.11112558508492,10002.622096050529,119.83519882249765,-0.0019704340357246,0.0031922471191023,,8988.574530004647,11016.82538521552,150,3,2025-09-11,2025-09-26 20:17:51.143,HH,C,947299316,AMBUSH51,1,1,48,2,1,1,225,2,1,0,0,9,1,225,2,1,-156131.57750817295,-4789691.147217419,4199130.638638386,2.28027,2.94885,-0.133948,-113.885,18.9593,12.1341,-0.0852383,-6.9221,5.84458,-0.0070501,-0.0098048,0.00853564,4,0,41.41677533282392,-91.86703352011378,9351.292000361347,-78.18265366413388,-1.7289972800633822,-1.5628340774232006,196.736,8988.574530004647,11016.82538521552,150,True,13.328112272031321,False,159.50459923580615,175.3027377731093,False,25.188322110181137,True,False
3,1970-07-23 10:16:58.721151594,2025-09-11,2025-09-26 20:17:52.115,HH,C,1865922164,JASSM,3,104,76,2,2,1,225,9,2,0,1,26,0,0,0,0,-176114.09118826812,-4779873.008760299,4209744.700651646,-2.36674,-0.400273,0.381578,79.875,-33.75,-34.75,0.0,0.0,0.0,0.0,0.0,0.0,2,0,41.542698125548526,-92.11010453135316,10002.626130376277,119.83587596584736,-0.0010885851175059,0.0031907415714514,,8988.574530004647,11016.82538521552,150,3,2025-09-11,2025-09-26 20:17:52.010,HH,C,948333248,AMBUSH51,1,1,48,2,1,1,225,2,1,0,0,9,1,225,2,1,-156228.93866430206,-4789674.8105481295,4199141.131045429,2.27949,2.94477,-0.132276,-113.926,19.2705,11.8222,-0.137847,-6.97411,5.91555,-0.0130963,-0.0102396,-0.00981104,4,0,41.4169244698027,-91.86820331516168,9341.698644562344,-78.09837648562478,-1.9642485247529389,-1.640932333124699,197.188,8988.574530004647,11016.82538521552,150,True,13.227175277507845,False,159.47073296135608,175.18605166895154,False,25.340661195753484,True,False
3,1970-07-23 10:16:58.732175905,2025-09-11,2025-09-26 20:17:53.217,HH,C,1867233774,JASSM,3,104,76,2,2,1,225,9,2,0,1,26,0,0,0,0,-176026.20251639312,-4779910.204072799,4209706.401823521,-2.36674,-0.400273,0.381674,79.875,-33.75,-34.75,0.0,0.0,0.0,0.0,0.0,0.0,2,0,41.54223762195047,-92.1090360506849,10002.626830942929,119.84042742209957,-0.0040909824804655,0.0031890131219127,,8988.574530004647,11016.82538521552,150,3,2025-09-11,2025-09-26 20:17:53.109,HH,C,949645546,AMBUSH51,1,1,48,2,1,1,225,2,1,0,0,9,1,225,2,1,-156355.26731539617,-4789653.258195418,4199154.162987064,2.27503,2.94716,-0.135722,-114.052,19.4653,11.4886,-0.176063,-7.62427,6.46072,-0.0564933,0.0105413,-0.00437653,4,0,41.41711614486512,-91.86972130297818,9327.12168493127,-78.04434348061723,-1.7300360421898036,-1.880310189035952,197.751,8988.574530004647,11016.82538521552,150,True,13.109563713045398,False,159.38547133785735,175.03636518126046,False,25.576706543685855,True,False
3,1970-07-23 10:16:58.744172753,2025-09-11,2025-09-26 20:17:54.417,HH,C,1868546126,JASSM,3,104,76,2,2,1,225,9,2,0,1,26,0,0,0,0,-175938.26403983062,-4779947.416963424,4209668.081511021,-2.36674,-0.400273,0.381674,79.875,-33.75,-34.75,0.0,0.0,0.0,0.0,0.0,0.0,2,0,41.54177686976792,-92.10796698124696,10002.624858427316,119.84113639588152,-0.0031676428458546,0.0031875072205435,,8988.574530004647,11016.82538521552,150,3,2025-09-11,2025-09-26 20:17:54.343,HH,C,951116912,AMBUSH51,1,1,48,2,1,1,225,2,1,0,0,9,1,225,2,1,-156494.7888462047,-4789629.856175637,4199168.738637951,2.27667,2.95184,-0.140239,-114.161,18.6141,11.8722,-0.111082,-7.93371,6.73048,0.0571654,0.00921599,-0.015903,4,0,41.41732666066915,-91.87139767502728,9312.415267403503,-78.03232543378572,-1.3580198137505275,-1.749554875365241,198.19,8988.574530004647,11016.82538521552,150,True,12.985541219485144,False,159.277472705276,174.8700243221239,False,25.847672910595445,True,False
3,1970-07-23 10:16:58.756014665,2025-09-11,2025-09-26 20:17:55.601,HH,C,1869798858,JASSM,3,104,76,2,2,1,225,9,2,0,1,26,0,0,0,0,-175854.32068045562,-4779982.940400924,4209631.499479771,-2.36674,-0.400177,0.381674,79.875,-33.75,-34.75,0.0,0.0,0.0,0.0,0.0,0.0,2,0,41.541337015920455,-92.10694649415954,10002.625146419276,119.8381704323965,-0.0058526475559083,0.0011402396669584,,8988.574530004647,11016.82538521552,150,3,2025-09-11,2025-09-26 20:17:55.609,HH,C,952628044,AMBUSH51,1,1,48,2,1,1,225,2,1,0,0,9,1,225,2,1,-156639.02912179733,-4789606.488676759,4199184.092015704,2.29531,2.96051,-0.138353,-114.305,18.1727,12.2895,-0.0483463,-8.14787,6.79594,0.0149376,0.0171389,0.00268085,4,0,41.41754127761138,-91.87313043454932,9299.871573292929,-78.44395657917596,-1.0643792547179685,-0.6037729945109508,197.897,8988.574530004647,11016.82538521552,150,True,12.8619209756209,False,159.29330625669706,174.6960931519914,False,26.002442061961048,True,False
3,1970-07-23 10:16:58.765233366,2025-09-11,2025-09-26 20:17:56.523,HH,C,1871111856,JASSM,3,104,76,2,2,1,225,9,2,0,1,26,0,0,0,0,-175766.33874686187,-4780020.170869674,4209593.157682896,-2.36674,-0.400177,0.381674,79.875,-33.75,-34.75,0.0,0.0,0.0,0.0,0.0,0.0,2,0,41.540876004217154,-92.10587692645522,10002.626278428455,119.83887972408104,-0.0049288456849604,0.0011386633854807,,8988.574530004647,11016.82538521552,150,3,2025-09-11,2025-09-26 20:17:56.575,HH,C,953781276,AMBUSH51,1,1,48,2,1,1,225,2,1,0,0,9,1,225,2,1,-156750.3605298888,-4789589.006462745,4199196.383267109,2.29952,2.95746,-0.143456,-114.244,17.7011,12.7739,-0.127679,-7.44008,6.37551,0.00544804,0.00717701,-0.00308864,4,0,41.41770659015162,-91.87446765218677,9292.516131574628,-78.11177135302185,-0.9956814353027876,-0.3932488591544689,198.044,8988.574530004647,11016.82538521552,150,True,12.752078696236453,False,159.33918708012203,174.55350886904702,False,26.094446780773026,True,False
3,1970-07-23 10:16:58.776292343,2025-09-11,2025-09-26 20:17:57.629,HH,C,1872423526,JASSM,3,104,76,2,2,1,225,9,2,0,1,26,0,0,0,0,-175678.44616873687,-4780057.362275924,4209554.852995396,-2.36674,-0.400177,0.381674,79.875,-33.75,-34.75,0.0,0.0,0.0,0.0,0.0,0.0,2,0,41.540415445879496,-92.10480846073612,10002.625793288213,119.83958827851932,-0.0040059798962366,0.0011370842291023,,8988.574530004647,11016.82538521552,150,3,2025-09-11,2025-09-26 20:17:57.842,HH,C,955292408,AMBUSH51,1,1,48,2,1,1,225,2,1,0,0,9,1,225,2,1,-156894.14231095446,-4789566.636107194,4199212.570399364,2.29778,2.95701,-0.141738,-114.225,17.5571,13.0303,-0.191251,-7.5343,6.44328,-0.00500903,-0.00920143,-0.00151155,4,0,41.41792094405016,-91.876194566144,9284.216705872215,-78.16894068309408,-1.079136566437845,-0.4956618964439401,198.117,8988.574530004647,11016.82538521552,150,True,12.626425635288465,False,159.39284080177853,174.3731470642549,False,26.219065625273032,True,False
3,1970-07-23 10:16:58.786133131,2025-09-11,2025-09-26 20:17:58.613,HH,C,1873676226,JASSM,3,104,76,2,2,1,225,9,2,0,1,26,0,0,0,0,-175594.50476248687,-4780092.879854049,4209518.270964146,-2.36674,-0.400177,0.381674,79.875,-33.75,-34.75,0.0,0.0,0.0,0.0,0.0,0.0,2,0,41.5399755984174,-92.10378804241198,10002.627221117598,119.84026496423893,-0.0031246095569755,0.0011355895737418,,8988.574530004647,11016.82538521552,150,3,2025-09-11,2025-09-26 20:17:58.708,HH,C,956326340,AMBUSH51,1,1,48,2,1,1,225,2,1,0,0,9,1,225,2,1,-156993.5683632056,-4789551.186810786,4199223.980580834,2.29814,2.95647,-0.14548,-114.13,17.5974,13.0736,-0.0813814,-7.52567,6.47094,0.00990467,-0.00876034,0.00609094,4,0,41.418070499738974,-91.87738873818836,9279.003369268075,-77.99002147635336,-0.9572466014089228,-0.4822878941132515,198.08,8988.574530004647,11016.82538521552,150,True,12.525060555962902,False,159.43001428495734,174.2399949708323,False,26.315280377513723,True,False
3,1970-07-23 10:16:58.797153589,2025-09-11,2025-09-26 20:17:59.715,HH,C,1874988576,JASSM,3,104,76,2,2,1,225,9,2,0,1,26,0,0,0,0,-175506.56628592435,-4780130.088838424,4209479.942839146,-2.36674,-0.400177,0.381674,79.875,-33.75,-34.75,0.0,0.0,0.0,0.0,0.0,0.0,2,0,41.53951476793958,-92.1027190492004,10002.625370816691,119.84097385585927,-0.0022012561792494,0.0011339986768166,,8988.574530004647,11016.82538521552,150,3,2025-09-11,2025-09-26 20:17:59.575,HH,C,957360272,AMBUSH51,1,1,48,2,1,1,225,2,1,0,0,9,1,225,2,1,-157092.2823635704,-4789535.811505208,4199235.518912919,2.29913,2.95649,-0.146145,-114.072,17.4438,13.3611,-0.154271,-7.48821,6.52661,-0.00587872,0.00127228,-0.000136279,4,0,41.418220606682034,-91.87857437839534,9274.197953299932,-77.9632142150201,-0.9300192262902766,-0.4259620779315711,197.787,8988.574530004647,11016.82538521552,150,True,12.42155136795702,False,159.4950381303263,174.1046733747635,False,26.382934924122896,True,False
