Subject_cm,Timestamp,SampleDate_cm,SampleTime_cm,Configuration_cm,Scenario_cm,DisTime_cm,MarkingTxt_cm,Application_cm,EntId_cm,Site_cm,ExerciseId_cm,ForceId_cm,Category_cm,Country_cm,Domain_cm,Kind_cm,Extra_cm,Specific_cm,Subcategory_cm,AltCategory_cm,AltCountry_cm,AltDomain_cm,AltKind_cm,ECEF_X_cm,ECEF_Y_cm,ECEF_Z_cm,OriPhi_cm,OriPsi_cm,OriTheta_cm,LinVelX_cm,LinVelY_cm,LinVelZ_cm,LinAccX_cm,LinAccY_cm,LinAccZ_cm,AngVelX_cm,AngVelY_cm,AngVelZ_cm,DrAlg_cm,Appearance_cm,Latitude_cm,Longitude_cm,Altitude_cm,Heading_cm,Pitch_cm,Roll_cm,CalibratedAirspeed_cm,CM_Altitude_Lead_cm,CM_Altitude_Wing_cm,CM_Airspeed_cm,Subject_ac,SampleDate_ac,SampleTime_ac,Configuration_ac,Scenario_ac,DisTime_ac,MarkingTxt_ac,Application_ac,EntId_ac,Site_ac,ExerciseId_ac,ForceId_ac,Category_ac,Country_ac,Domain_ac,Kind_ac,Extra_ac,Specific_ac,Subcategory_ac,AltCategory_ac,AltCountry_ac,AltDomain_ac,AltKind_ac,ECEF_X_ac,ECEF_Y_ac,ECEF_Z_ac,OriPhi_ac,OriPsi_ac,OriTheta_ac,LinVelX_ac,LinVelY_ac,LinVelZ_ac,LinAccX_ac,LinAccY_ac,LinAccZ_ac,AngVelX_ac,AngVelY_ac,AngVelZ_ac,DrAlg_ac,Appearance_ac,Latitude_ac,Longitude_ac,Altitude_ac,Heading_ac,Pitch_ac,Roll_ac,CalibratedAirspeed_ac,CM_Altitude_Lead_ac,CM_Altitude_Wing_ac,CM_Airspeed_ac,Bank_Angle_Condition,distance_nm,Distance_Condition,angle_between_vel,angle_between_pos,Cone_Condition,angle_between_pos_nose,Nose_Cone_Condition,Intercept_Criteria
3,1970-07-23 09:47:03.690383252,2025-09-09,2025-09-26 18:26:09.038,AA,C,3580448222,JASSM,3,133,76,2,2,1,225,9,2,0,1,26,0,0,0,0,-121374.51824342164,-4791466.846754369,4198558.046354771,2.29618,-3.09845,0.0772743,-81.5,-3.375,-6.25,0.0,0.0,0.0,0.0,0.0,0.0,2,0,41.40833452075919,-91.45107144949031,10000.000232899336,-95.9128559354466,0.0057103826211229,0.0009496011940032,,8857.920509312844,10895.330121764337,150,3,2025-09-09,2025-09-26 18:26:08.928,AA,C,863397458,HAWK11,1,1,73,2,1,1,225,2,1,0,0,12,1,225,2,1,-144969.46911795562,-4790408.025361861,4199428.085417271,2.36319,2.78619,-0.433829,-82.125,35.75,40.5,0.03125,-6.90625,6.54688,0.0175781,-0.00195312,0.0136719,4,0,41.41660455736943,-91.73338146904932,10897.045397411435,-59.47503156671223,3.480104893536213,0.793848026326871,159.012,8857.920509312844,10895.330121764337,150,True,12.713889324900013,False,38.20336948959057,171.84460526910428,False,149.94090816165644,False,False
3,1970-07-23 09:47:03.701102574,2025-09-09,2025-09-26 18:26:10.110,AA,C,3581701614,JASSM,3,133,76,2,2,1,225,9,2,0,1,26,0,0,0,0,-121460.32293092164,-4791470.541090307,4198551.394011021,2.29618,-3.09845,0.0772743,-81.5,-3.375,-6.25,0.0,0.0,0.0,0.0,0.0,0.0,2,0,41.40825469569181,-91.45209571398424,10000.00079982364,-95.91353340490232,0.0064827328188291,0.0009498588757936,,8857.920509312844,10895.330121764337,150,3,2025-09-09,2025-09-26 18:26:10.132,AA,C,864908590,HAWK11,1,1,73,2,1,1,225,2,1,0,0,12,1,225,2,1,-145073.81091483062,-4790362.262666549,4199479.395964146,2.39311,2.78015,-0.441499,-81.5,36.0,40.5,-0.203125,-7.1875,6.78125,0.0175781,-0.00195312,0.00195312,4,0,41.4172043558637,-91.73464486959809,10903.636311979371,-58.9419627705968,3.567197689190454,2.39382889161713,158.242,8857.920509312844,10895.330121764337,150,True,12.726313437267146,False,38.481898861536834,171.66319428786431,False,149.8424466222145,False,False
3,1970-07-23 09:47:03.712324212,2025-09-09,2025-09-26 18:26:11.232,AA,C,3583013498,JASSM,3,133,76,2,2,1,225,9,2,0,1,26,0,0,0,0,-121550.13152467164,-4791474.407301244,4198544.429167271,2.29618,-3.09845,0.0773702,-81.5,-3.375,-6.25,0.0,0.0,0.0,0.0,0.0,0.0,2,0,41.40817112498612,-91.45316777122729,9999.999692646672,-95.918352797266,0.0036469030068023,0.0009497472016057,,8857.920509312844,10895.330121764337,150,3,2025-09-09,2025-09-26 18:26:11.320,AA,C,866260656,HAWK11,1,1,73,2,1,1,225,2,1,0,0,12,1,225,2,1,-145165.30896170562,-4790321.634736861,4199524.821745396,2.39857,2.77583,-0.447827,-80.75,36.0,40.625,-0.21875,-7.17188,6.71875,-0.00390625,0.00195312,0.00585938,4,0,41.41773618684781,-91.7357529532443,10909.13300458284,-58.52730402431414,3.6650199735441698,2.626780678741405,157.949,8857.920509312844,10895.330121764337,150,True,12.729560806747466,False,38.77367448356998,171.49754520290577,False,149.71712478412803,False,False
3,1970-07-23 09:47:03.725903546,2025-09-09,2025-09-26 18:26:12.590,AA,C,3584325624,JASSM,3,133,76,2,2,1,225,9,2,0,1,26,0,0,0,0,-121639.95964967164,-4791478.273512182,4198537.462370396,2.29618,-3.09845,0.0773702,-81.5,-3.375,-6.25,0.0,0.0,0.0,0.0,0.0,0.0,2,0,41.40808752815671,-91.45424005912382,9999.999740422789,-95.91906202807418,0.0044554704763924,0.0009499679070161,,8857.920509312844,10895.330121764337,150,3,2025-09-09,2025-09-26 18:26:12.522,AA,C,867732020,HAWK11,1,1,73,2,1,1,225,2,1,0,0,12,1,225,2,1,-145265.54724295562,-4790276.758760299,4199575.206511021,2.38438,2.77238,-0.456551,-80.125,36.125,40.875,0.0,-7.28125,6.9375,0.00390625,-0.00585938,0.00195312,4,0,41.4183251746727,-91.73696703828897,10915.6042115051,-58.04714247680248,3.892361663917336,1.759067846477153,157.228,8857.920509312844,10895.330121764337,150,True,12.737833953817091,False,39.113422931946275,171.31760642195056,False,149.5580070122471,False,False
3,1970-07-23 09:47:03.733922600,2025-09-09,2025-09-26 18:26:13.392,AA,C,3585579174,JASSM,3,133,76,2,2,1,225,9,2,0,1,26,0,0,0,0,-121725.77605592164,-4791481.965894994,4198530.806120396,2.29618,-3.09855,0.0773702,-81.5,-3.375,-6.25,0.0,0.0,0.0,0.0,0.0,0.0,2,0,41.40800765836351,-91.45526445649162,9999.999544090328,-95.91610740722687,0.0011311711088301,0.0013748297039331,,8857.920509312844,10895.330121764337,150,3,2025-09-09,2025-09-26 18:26:13.320,AA,C,868686420,HAWK11,1,1,73,2,1,1,225,2,1,0,0,12,1,225,2,1,-145329.77966483062,-4790247.982393111,4199607.706511021,2.38314,2.7696,-0.45866,-79.75,36.125,41.0,0.015625,-7.03125,6.6875,0.0,0.0078125,0.00585938,4,0,41.41870414964956,-91.7377450391059,10920.169359526704,-57.86074915171291,3.877078679393719,1.6299203601074888,156.947,8857.920509312844,10895.330121764337,150,True,12.72813284281037,False,39.28585216806301,171.19136224518468,False,149.51252706519966,False,False
3,1970-07-23 09:47:03.744737565,2025-09-09,2025-09-26 18:26:14.473,AA,C,3586951318,JASSM,3,133,76,2,2,1,225,9,2,0,1,26,0,0,0,0,-121819.70964967164,-4791486.006910619,4198523.519011021,2.29618,-3.09855,0.0773702,-81.5,-3.375,-6.25,0.0,0.0,0.0,0.0,0.0,0.0,2,0,41.40792021860393,-91.45638574669395,9999.999436074628,-95.91684904663649,0.0019766936231427,0.0013751157028421,,8857.920509312844,10895.330121764337,150,3,2025-09-09,2025-09-26 18:26:14.428,AA,C,869760118,HAWK11,1,1,73,2,1,1,225,2,1,0,0,12,1,225,2,1,-145401.48474295562,-4790215.398408736,4199644.583464146,2.42254,2.76768,-0.462975,-79.375,35.875,41.5,-0.09375,-7.03125,7.125,0.0917969,-0.00195312,0.00585938,4,0,41.41913396563544,-91.73861372787842,10925.432000673409,-57.61625153029199,3.9827722331812847,3.855541487171633,156.702,8857.920509312844,10895.330121764337,150,True,12.71840109668086,False,39.52488297451272,171.04909207595273,False,149.41944237923255,False,False
3,1970-07-23 09:47:03.755403108,2025-09-09,2025-09-26 18:26:15.540,AA,C,3588262678,JASSM,3,133,76,2,2,1,225,9,2,0,1,26,0,0,0,0,-121909.48308717164,-4791489.867262182,4198516.554167271,2.29618,-3.09855,0.0773702,-81.5,-3.375,-6.25,0.0,0.0,0.0,0.0,0.0,0.0,2,0,41.40783664811215,-91.45745737459926,9999.998416309983,-95.9175578373994,0.002784769091303,0.0013753821458862,,8857.920509312844,10895.330121764337,150,3,2025-09-09,2025-09-26 18:26:15.522,AA,C,871231484,HAWK11,1,1,73,2,1,1,225,2,1,0,0,12,1,225,2,1,-145498.90075858062,-4790170.409150924,4199695.395964146,2.50672,2.75455,-0.476109,-78.75,37.0,42.375,-0.109375,-6.54688,7.40625,0.03125,0.0,0.0253906,4,0,41.41972699302794,-91.73979417776351,10932.359940202958,-56.607952420480686,4.04283664371928,8.408612606098414,156.947,8857.920509312844,10895.330121764337,150,True,12.725519012846203,False,40.41112939834688,170.86780318300316,False,148.71261972389647,False,False
3,1970-07-23 09:47:03.766456545,2025-09-09,2025-09-26 18:26:16.645,AA,C,3589516294,JASSM,3,133,76,2,2,1,225,9,2,0,1,26,0,0,0,0,-121995.30339967164,-4791493.557691869,4198509.895964146,2.29618,-3.09855,0.0773702,-81.5,-3.375,-6.25,0.0,0.0,0.0,0.0,0.0,0.0,2,0,41.407756747518896,-91.4584818113584,10000.001390235726,-95.9182354141311,0.0035572614644285,0.0013756376402249,,8857.920509312844,10895.330121764337,150,3,2025-09-09,2025-09-26 18:26:16.632,AA,C,872424482,HAWK11,1,1,73,2,1,1,225,2,1,0,0,12,1,225,2,1,-145578.51013358062,-4790132.446260299,4199738.300261021,2.51851,2.73154,-0.49538,-78.5,38.125,43.375,-0.25,-6.71875,7.73438,-0.078125,0.0,0.0234375,4,0,41.42022804766145,-91.74075930378235,10938.077750810791,-54.99921674965904,4.013093301333902,8.581766170771877,158.046,8857.920509312844,10895.330121764337,150,True,12.724871929142436,False,41.20747895181422,170.7104577900619,False,148.072190678761,False,False
3,1970-07-23 09:47:03.777460803,2025-09-09,2025-09-26 18:26:17.746,AA,C,3590887380,JASSM,3,133,76,2,2,1,225,9,2,0,1,26,0,0,0,0,-122089.16277467164,-4791497.591871557,4198502.610807896,2.29618,-3.09855,0.0773702,-81.5,-3.375,-6.25,0.0,0.0,0.0,0.0,0.0,0.0,2,0,41.40766934151693,-91.4596022080949,9999.997153374814,-95.91897645889594,0.0044021171911954,0.0013759274273374,,8857.920509312844,10895.330121764337,150,3,2025-09-09,2025-09-26 18:26:17.634,AA,C,873856080,HAWK11,1,1,73,2,1,1,225,2,1,0,0,12,1,225,2,1,-145672.81482108062,-4790085.864229049,4199791.122526646,2.40212,2.72167,-0.502379,-78.375,38.875,44.75,-0.0625,-6.53125,7.5,-0.0429688,0.00195312,0.00390625,4,0,41.42084465637611,-91.74190318921588,10945.231800912195,-54.36265086077584,3.955596778265242,1.686641607757622,158.437,8857.920509312844,10895.330121764337,150,True,12.72849777009853,False,41.97419983622103,170.52099614012153,False,147.49725154650218,False,False
3,1970-07-23 09:47:03.788720665,2025-09-09,2025-09-26 18:26:18.872,AA,C,3592140898,JASSM,3,133,76,2,2,1,225,9,2,0,1,26,0,0,0,0,-122174.97527467164,-4791501.280348119,4198495.950651646,2.29618,-3.09855,0.0773702,-81.5,-3.375,-6.25,0.0,0.0,0.0,0.0,0.0,0.0,2,0,41.407589421449366,-91.46062654683256,9999.998573687615,-95.91965396854346,0.0051745404204941,0.0013761905437384,,8857.920509312844,10895.330121764337,150,3,2025-09-09,2025-09-26 18:26:18.820,AA,C,875168380,HAWK11,1,1,73,2,1,1,225,2,1,0,0,12,1,225,2,1,-145759.05114920562,-4790043.077119674,4199839.837370396,2.35859,2.73298,-0.494229,-78.75,38.875,45.375,-0.125,-6.59375,7.51562,-0.0136719,0.00195312,-0.00195312,4,0,41.421412412707824,-91.74294929557294,10952.205612544129,-55.09884669968051,4.018583836801878,-0.5486145485021011,159.77,8857.920509312844,10895.330121764337,150,True,12.73196342170193,False,42.06843649214338,170.34677217196293,False,147.57974580729197,False,False
3,1970-07-23 09:47:03.799483890,2025-09-09,2025-09-26 18:26:19.948,AA,C,3593453138,JASSM,3,133,76,2,2,1,225,9,2,0,1,26,0,0,0,0,-122264.81121217164,-4791505.139723119,4198488.977995396,2.29618,-3.09855,0.0773702,-81.5,-3.375,-6.25,0.0,0.0,0.0,0.0,0.0,0.0,2,0,41.40750575504352,-91.46169891103771,9999.998625044804,-95.92036324164717,0.0059831791615848,0.0013764554461332,,8857.920509312844,10895.330121764337,150,3,2025-09-09,2025-09-26 18:26:20.022,AA,C,876560210,HAWK11,1,1,73,2,1,1,225,2,1,0,0,12,1,225,2,1,-145851.98083670562,-4789996.598604049,4199892.821745396,2.35744,2.73029,-0.497297,-79.25,39.125,45.75,-0.078125,-6.60938,7.48438,0.00585938,-0.00195312,0.00976562,4,0,41.422029725762215,-91.74407675142274,10959.876774568633,-54.87946525508293,4.051007461386392,-0.6722220280837425,160.527,8857.920509312844,10895.330121764337,150,True,12.737262069096015,False,42.100504138897286,170.1587560183131,False,147.73611482074745,False,False
3,1970-07-23 09:47:03.810342964,2025-09-09,2025-09-26 18:26:21.034,AA,C,3594764782,JASSM,3,133,76,2,2,1,225,9,2,0,1,26,0,0,0,0,-122354.60027467164,-4791508.997144994,4198482.007292271,2.29618,-3.09855,0.0773702,-81.5,-3.375,-6.25,0.0,0.0,0.0,0.0,0.0,0.0,2,0,41.40742211057064,-91.46277071293174,9999.999341729324,-95.92107214165353,0.0067913971759193,0.0013767319222742,,8857.920509312844,10895.330121764337,150,3,2025-09-09,2025-09-26 18:26:21.131,AA,C,877912276,HAWK11,1,1,73,2,1,1,225,2,1,0,0,12,1,225,2,1,-145941.57263358062,-4789951.947236861,4199943.921354771,2.33932,2.73231,-0.497297,-79.75,39.25,46.125,0.0625,-6.51562,7.46875,-0.0664062,0.00976562,-0.00390625,4,0,41.42262404019142,-91.74516367281365,10967.706665106794,-54.95294835988717,4.122795323572969,-1.6606146568563338,161.224,8857.920509312844,10895.330121764337,150,True,12.74080468870438,False,42.09672045018543,169.97647300664417,False,147.92302319338535,False,False
3,1970-07-23 09:47:03.820367338,2025-09-09,2025-09-26 18:26:22.036,AA,C,3595957828,JASSM,3,133,76,2,2,1,225,9,2,0,1,26,0,0,0,0,-122436.27605592164,-4791512.503980932,4198475.667448521,2.29618,-3.09855,0.0773702,-81.5,-3.375,-6.25,0.0,0.0,0.0,0.0,0.0,0.0,2,0,41.40734603426628,-91.4637456657364,10000.00076974204,-95.92171698372718,0.007526583671798,0.0013769647205812,,8857.920509312844,10895.330121764337,150,3,2025-09-09,2025-09-26 18:26:22.132,AA,C,879184808,HAWK11,1,1,73,2,1,1,225,2,1,0,0,12,1,225,2,1,-146027.40075858062,-4789909.396455611,4199992.468229771,2.29733,2.73921,-0.496818,-80.375,39.125,46.0,-0.1875,-6.625,7.59375,0.00390625,0.00585938,-0.0117188,4,0,41.42318929964722,-91.74620486951856,10974.885075796448,-55.22200970140778,4.347328412021231,-3.897857107060984,162.446,8857.920509312844,10895.330121764337,150,True,12.74660490114731,False,41.80164403719626,169.80493118016363,False,148.38988067835965,False,False
3,1970-07-23 09:47:03.829927365,2025-09-09,2025-09-26 18:26:22.992,AA,C,3597091224,JASSM,3,133,76,2,2,1,225,9,2,0,1,26,0,0,0,0,-122513.86589967164,-4791515.836012182,4198469.642057896,2.29618,-3.09855,0.077466,-81.5,-3.375,-6.25,0.0,0.0,0.0,0.0,0.0,0.0,2,0,41.4072737341166,-91.46467184295582,10000.001000079388,-95.92643990443575,0.0045808028091898,0.0013767484713352,,8857.920509312844,10895.330121764337,150,3,2025-09-09,2025-09-26 18:26:22.820,AA,C,880019908,HAWK11,1,1,73,2,1,1,225,2,1,0,0,12,1,225,2,1,-146083.83435233062,-4789881.773408736,4200024.311979771,2.29244,2.74458,-0.488285,-80.875,39.0,46.0,-0.09375,-6.45312,7.28125,-0.0078125,0.00195312,-0.0117188,4,0,41.42355833312779,-91.7468893558846,10980.314346406069,-55.760026467454935,4.189499944929846,-4.072561377614325,162.812,8857.920509312844,10895.330121764337,150,True,12.737776673174231,False,41.59587538433563,169.68240698235232,False,148.71868257169174,False,False
3,1970-07-23 09:47:03.839462796,2025-09-09,2025-09-26 18:26:23.946,AA,C,3598284268,JASSM,3,133,76,2,2,1,225,9,2,0,1,26,0,0,0,0,-122595.53777467164,-4791519.341871557,4198463.300261021,2.29618,-3.09864,0.077466,-81.5,-3.375,-6.25,0.0,0.0,0.0,0.0,0.0,0.0,2,0,41.40719763492381,-91.46564674494294,10000.00227283806,-95.92344355859753,0.0012090116415504,0.0018031806274924,,8857.920509312844,10895.330121764337,150,3,2025-09-09,2025-09-26 18:26:24.029,AA,C,881451506,HAWK11,1,1,73,2,1,1,225,2,1,0,0,12,1,225,2,1,-146180.94177420562,-4789834.535127486,4200078.630339146,2.29023,2.75158,-0.483683,-81.625,38.75,46.0,-0.03125,-6.59375,7.46875,0.0136719,-0.00585938,0.00195312,4,0,41.42418837019017,-91.74806708767323,10989.350863558231,-56.1995371033758,4.252248891620374,-4.043925798488772,163.472,8857.920509312844,10895.330121764337,150,True,12.750209901637819,False,41.27244541813619,169.49571561180056,False,149.2297031425428,False,False
3,1970-07-23 09:47:03.850354069,2025-09-09,2025-09-26 18:26:25.035,AA,C,3599418698,JASSM,3,133,76,2,2,1,225,9,2,0,1,26,0,0,0,0,-122673.19793092164,-4791522.673902807,4198457.269011021,2.29618,-3.09864,0.077466,-81.5,-3.375,-6.25,0.0,0.0,0.0,0.0,0.0,0.0,2,0,41.40712526920724,-91.46657375817446,10000.00061098026,-95.92405669035004,0.0019080536470849,0.0018034030061832,,8857.920509312844,10895.330121764337,150,3,2025-09-09,2025-09-26 18:26:24.930,AA,C,882286604,HAWK11,1,1,73,2,1,1,225,2,1,0,0,12,1,225,2,1,-146238.68200858062,-4789807.247041549,4200110.220182896,2.29512,2.75551,-0.479369,-82.25,38.625,45.625,0.0,-6.625,7.42188,0.0429688,0.0,0.0,4,0,41.42455344777222,-91.74876708740946,10995.157635739002,-56.51666715687312,4.218006557749856,-3.682871275692954,164.071,8857.920509312844,10895.330121764337,150,True,12.742167827547336,False,40.894867860453886,169.3742722939213,False,149.72827283575822,False,False
3,1970-07-23 09:47:03.859378749,2025-09-09,2025-09-26 18:26:25.937,AA,C,3600610710,JASSM,3,133,76,2,2,1,225,9,2,0,1,26,0,0,0,0,-122754.80339967164,-4791526.175855932,4198450.931120396,2.29618,-3.09864,0.077466,-81.5,-3.375,-6.25,0.0,0.0,0.0,0.0,0.0,0.0,2,0,41.40704921363277,-91.46754786337088,10000.003299670116,-95.92470096804291,0.0026426090017676,0.0018036421655714,,8857.920509312844,10895.330121764337,150,3,2025-09-09,2025-09-26 18:26:25.930,AA,C,883678436,HAWK11,1,1,73,2,1,1,225,2,1,0,0,12,1,225,2,1,-146334.17810233062,-4789762.057588424,4200162.876432896,2.42542,2.75541,-0.477931,-82.5,38.875,46.0,-0.140625,-6.5625,7.25,0.0644531,0.0,0.0,4,0,41.42516034845716,-91.74992484865942,11005.514879849336,-56.57219699655219,4.157176190703052,3.7757919695250015,164.438,8857.920509312844,10895.330121764337,150,True,12.753845666257485,False,41.01633431939312,169.1937467697843,False,149.78757669516466,False,False
3,1970-07-23 09:47:03.868418272,2025-09-09,2025-09-26 18:26:26.841,AA,C,3601745124,JASSM,3,133,76,2,2,1,225,9,2,0,1,26,0,0,0,0,-122832.45964967164,-4791529.506910619,4198444.897917271,2.29618,-3.09864,0.077466,-81.5,-3.375,-6.25,0.0,0.0,0.0,0.0,0.0,0.0,2,0,41.40697682582108,-91.46847482600262,10000.001151165705,-95.92531406452126,0.0033416171241474,0.0018038749340601,,8857.920509312844,10895.330121764337,150,3,2025-09-09,2025-09-26 18:26:26.820,AA,C,884752136,HAWK11,1,1,73,2,1,1,225,2,1,0,0,12,1,225,2,1,-146408.28161795562,-4789726.314424361,4200203.886198521,2.45974,2.74468,-0.487422,-82.25,39.375,46.5,-0.203125,-6.78125,7.26562,0.00585938,0.0,0.0136719,4,0,41.42563632143095,-91.7508235150955,11012.216751092375,-55.80089175384049,4.161299101828599,5.512737047556248,164.707,8857.920509312844,10895.330121764337,150,True,12.755436748734608,False,41.41637836651405,169.04594523776188,False,149.53511080622945,False,False
3,1970-07-23 09:47:03.879454386,2025-09-09,2025-09-26 18:26:27.945,AA,C,3602996838,JASSM,3,133,76,2,2,1,225,9,2,0,1,26,0,0,0,0,-122918.15105592164,-4791533.181715307,4198438.239714146,2.29618,-3.09864,0.077466,-81.5,-3.375,-6.25,0.0,0.0,0.0,0.0,0.0,0.0,2,0,41.40689693977977,-91.46949770011555,9999.998541516044,-95.92599059618163,0.0041129523655901,0.0018041313361231,,8857.920509312844,10895.330121764337,150,3,2025-09-09,2025-09-26 18:26:27.818,AA,C,885905368,HAWK11,1,1,73,2,1,1,225,2,1,0,0,12,1,225,2,1,-146488.29919608062,-4789687.392549361,4200248.960417271,2.42388,2.73384,-0.497873,-81.875,39.75,47.25,0.0,-6.85938,6.98438,-0.0664062,-0.0136719,0.00585938,4,0,41.4261575546285,-91.7517940357069,11020.374751332356,-54.989644276311466,4.206438526369227,3.223931048153733,164.89,8857.920509312844,10895.330121764337,150,True,12.756322257885136,False,41.90977358642034,168.8835380384801,False,149.20483355872022,False,False
3,1970-07-23 09:47:03.889925430,2025-09-09,2025-09-26 18:26:28.992,AA,C,3604190554,JASSM,3,133,76,2,2,1,225,9,2,0,1,26,0,0,0,0,-122999.86980592164,-4791536.685621557,4198431.890104771,2.29618,-3.09864,0.077466,-81.5,-3.375,-6.25,0.0,0.0,0.0,0.0,0.0,0.0,2,0,41.406820751421016,-91.47047315158252,9999.9981026211,-95.9266357613783,0.0048485283416328,0.0018043732502121,,8857.920509312844,10895.330121764337,150,3,2025-09-09,2025-09-26 18:26:29.022,AA,C,887336966,HAWK11,1,1,73,2,1,1,225,2,1,0,0,12,1,225,2,1,-146586.37927420562,-4789638.609346236,4200304.952604771,2.36502,2.72914,-0.495572,-81.5,40.125,47.125,-0.03125,-6.98438,6.60938,-0.0332031,0.0,-0.0078125,4,0,41.42680785089969,-91.75298404703835,11029.350490282746,-54.91288406843958,3.947939611039554,-0.2716466904674483,164.572,8857.920509312844,10895.330121764337,150,True,12.76997271139975,False,42.09628285518336,168.69268782422918,False,149.2077982935677,False,False
3,1970-07-23 09:47:03.898418336,2025-09-09,2025-09-26 18:26:29.841,AA,C,3605324392,JASSM,3,133,76,2,2,1,225,9,2,0,1,26,0,0,0,0,-123077.49089967164,-4791540.012769994,4198425.858854771,2.29618,-3.09864,0.077466,-81.5,-3.375,-6.25,0.0,0.0,0.0,0.0,0.0,0.0,2,0,41.40674838184109,-91.47139968880776,9999.99820943598,-95.92724857371216,0.0055472196571592,0.0018045969763696,,8857.920509312844,10895.330121764337,150,3,2025-09-09,2025-09-26 18:26:29.937,AA,C,888450432,HAWK11,1,1,73,2,1,1,225,2,1,0,0,12,1,225,2,1,-146661.47497733062,-4789601.059541549,4200347.876432896,2.35015,2.73346,-0.49097,-81.25,40.25,46.75,0.0,-6.79688,6.5,-0.00585938,-0.0078125,0.0,4,0,41.42730728581648,-91.75389527564506,11035.854848415322,-55.254249138152645,3.911965134913064,-1.0294202357108182,163.973,8857.920509312844,10895.330121764337,150,True,12.772568660416553,False,42.0849556481486,168.53914149398318,False,149.37105304302355,False,False
3,1970-07-23 09:47:03.908420701,2025-09-09,2025-09-26 18:26:30.842,AA,C,3606517114,JASSM,3,133,76,2,2,1,225,9,2,0,1,26,0,0,0,0,-123159.13933717164,-4791543.512769994,4198419.513151646,2.29618,-3.09864,0.077466,-81.5,-3.375,-6.25,0.0,0.0,0.0,0.0,0.0,0.0,2,0,41.406672237721565,-91.47237429681029,9999.998929814628,-95.92789317913842,0.0062821634891087,0.0018048439005414,,8857.920509312844,10895.330121764337,150,3,2025-09-09,2025-09-26 18:26:30.521,AA,C,888967398,HAWK11,1,1,73,2,1,1,225,2,1,0,0,12,1,225,2,1,-146696.90661795562,-4789583.483369674,4200367.991667271,2.34805,2.73068,-0.488477,-81.125,40.25,46.625,-0.0625,-6.70312,6.25,0.00195312,-0.00585938,0.00195312,4,0,41.42754116490041,-91.75432516455328,11038.97337795182,-55.25359469315652,3.711961323212989,-1.225141337344318,163.656,8857.920509312844,10895.330121764337,150,True,12.74999816575987,False,42.08378431156008,168.4451505394177,False,149.46577505073336,False,False
3,1970-07-23 09:47:03.918379384,2025-09-09,2025-09-26 18:26:31.837,AA,C,3607650508,JASSM,3,133,76,2,2,1,225,9,2,0,1,26,0,0,0,0,-123236.72918092164,-4791546.836988744,4198413.483854771,2.29618,-3.09864,0.077466,-81.5,-3.375,-6.25,0.0,0.0,0.0,0.0,0.0,0.0,2,0,41.40659988823015,-91.47330045728532,10000.00048794362,-95.92850574048413,0.0069805732499592,0.0018050613345667,,8857.920509312844,10895.330121764337,150,3,2025-09-09,2025-09-26 18:26:31.928,AA,C,890796662,HAWK11,1,1,73,2,1,1,225,2,1,0,0,12,1,225,2,1,-146820.95153983062,-4789521.010713424,4200438.102995396,2.36463,2.72943,-0.487231,-80.625,40.5,45.75,-0.203125,-6.96875,6.4375,0.0175781,-0.00585938,-0.00195312,4,0,41.428363442248255,-91.75583055778968,11046.914181293923,-55.25920271370098,3.618183165374603,-0.3086320819852956,163.008,8857.920509312844,10895.330121764337,150,True,12.781325589957596,False,42.01973141529854,168.2173567581113,False,149.75241108236364,False,False
3,1970-07-23 09:47:03.928419920,2025-09-09,2025-09-26 18:26:32.841,AA,C,3608902554,JASSM,3,133,76,2,2,1,225,9,2,0,1,26,0,0,0,0,-123322.44402467164,-4791550.508863744,4198406.821745396,2.29618,-3.09864,0.077466,-81.5,-3.375,-6.25,0.0,0.0,0.0,0.0,0.0,0.0,2,0,41.4065199467615,-91.47432360054545,10000.001604892142,-95.9291824450952,0.0077521194471512,0.0018053085873328,,8857.920509312844,10895.330121764337,150,3,2025-09-09,2025-09-26 18:26:32.726,AA,C,891830594,HAWK11,1,1,73,2,1,1,225,2,1,0,0,12,1,225,2,1,-146891.01794608062,-4789485.732393111,4200477.394011021,2.3769,2.72646,-0.484546,-80.375,40.5,45.625,-0.171875,-7.15625,6.5625,0.00976562,0.0078125,-0.00390625,4,0,41.42882574000827,-91.75668088761655,11050.752079000182,-55.25893120762838,3.40373233011082,0.3150111648483923,162.629,8857.920509312844,10895.330121764337,150,True,12.776971787287353,False,42.061729869466795,168.06867001249546,False,149.85849335247593,False,False
3,1970-07-23 09:47:03.939461849,2025-09-09,2025-09-26 18:26:33.946,AA,C,3610155808,JASSM,3,133,76,2,2,1,225,9,2,0,1,26,0,0,0,0,-123408.23699342164,-4791554.183668432,4198400.151823521,2.29618,-3.09874,0.0775619,-81.5,-3.375,-6.25,0.0,0.0,0.0,0.0,0.0,0.0,2,0,41.40643991405308,-91.47534767396832,10000.00172754073,-95.9303380715492,0.0007834603484536,0.002230766126449,,8857.920509312844,10895.330121764337,150,3,2025-09-09,2025-09-26 18:26:34.021,AA,C,893341726,HAWK11,1,1,73,2,1,1,225,2,1,0,0,12,1,225,2,1,-146993.51208670562,-4789433.589814986,4200535.095182896,2.46156,2.71716,-0.480615,-80.0,41.125,45.375,-0.109375,-6.4375,6.39062,0.128906,-0.0117188,0.00585938,4,0,41.42950670292324,-91.75792498037124,11055.543140460635,-55.07649226267522,2.914977901824632,4.928270450679741,162.495,8857.920509312844,10895.330121764337,150,True,12.791693904909915,False,42.28443952702503,167.87007742678466,False,149.82826863764893,False,False
3,1970-07-23 09:47:03.949338532,2025-09-09,2025-09-26 18:26:34.933,AA,C,3611408032,JASSM,3,133,76,2,2,1,225,9,2,0,1,26,0,0,0,0,-123493.96355592164,-4791557.854566869,4198393.485807896,2.29618,-3.09874,0.0775619,-81.5,-3.375,-6.25,0.0,0.0,0.0,0.0,0.0,0.0,2,0,41.40635993202454,-91.47637095254495,10000.00031585977,-95.93101486354172,0.0015551135727078,0.0022310183652516,,8857.920509312844,10895.330121764337,150,3,2025-09-09,2025-09-26 18:26:34.927,AA,C,894375658,HAWK11,1,1,73,2,1,1,225,2,1,0,0,12,1,225,2,1,-147062.70739920562,-4789397.219697799,4200574.561979771,2.60527,2.70508,-0.487039,-79.375,42.25,45.875,-0.25,-6.32812,6.78125,0.146484,-0.00195312,0.0292969,4,0,41.42997682833249,-91.75876532880152,11057.0222413271,-54.37909276934933,2.757957149709044,12.875077432807066,162.629,8857.920509312844,10895.330121764337,150,False,12.78714109387989,False,42.99939276778067,167.71916633566642,False,149.2582784789959,False,False
3,1970-07-23 09:47:03.961520285,2025-09-09,2025-09-26 18:26:36.152,AA,C,3612660476,JASSM,3,133,76,2,2,1,225,9,2,0,1,26,0,0,0,0,-123579.70183717164,-4791561.524488744,4198386.819792271,2.29618,-3.09874,0.0775619,-81.5,-3.375,-6.25,0.0,0.0,0.0,0.0,0.0,0.0,2,0,41.40627994490717,-91.47739436894808,10000.001048209944,-95.93169174561768,0.0023268710872007,0.0022312557699799,,8857.920509312844,10895.330121764337,150,3,2025-09-09,2025-09-26 18:26:36.226,AA,C,895926558,HAWK11,1,1,73,2,1,1,225,2,1,0,0,12,1,225,2,1,-147165.84021170562,-4789340.119111861,4200634.665495396,2.81313,2.65101,-0.512062,-78.0,45.5,47.5,-0.15625,-6.32812,7.0625,0.134766,0.0136719,0.0507812,4,0,41.43070337085148,-91.76001891865434,11054.901169202032,-51.40987511344811,1.9565148151191163,23.421936351232848,164.022,8857.920509312844,10895.330121764337,150,False,12.80289980838531,False,44.95864664412397,167.50953943370828,False,147.49007362988834,False,False
3,1970-07-23 09:47:03.970440514,2025-09-09,2025-09-26 18:26:37.044,AA,C,3613913642,JASSM,3,133,76,2,2,1,225,9,2,0,1,26,0,0,0,0,-123665.49089967164,-4791565.196363744,4198380.147917271,2.29618,-3.09874,0.0775619,-81.5,-3.375,-6.25,0.0,0.0,0.0,0.0,0.0,0.0,2,0,41.40619988971417,-91.47841838905757,10000.000898578057,-95.9323690259053,0.00309908695893,0.0022315048714261,,8857.920509312844,10895.330121764337,150,3,2025-09-09,2025-09-26 18:26:37.021,AA,C,896880956,HAWK11,1,1,73,2,1,1,225,2,1,0,0,12,1,225,2,1,-147227.89489920562,-4789302.525361861,4200673.235807896,2.90709,2.61601,-0.53325,-76.375,48.0,49.375,-0.078125,-6.71875,7.57812,0.0742188,0.015625,0.0507812,4,0,41.43117602188758,-91.76077440244435,11050.895703985054,-49.30497524519564,1.70506102997758,27.8715035748697,165.256,8857.920509312844,10895.330121764337,150,False,12.794751799459105,False,46.84672371591382,167.3561472138258,False,145.74650280853527,False,False
3,1970-07-23 09:47:03.981439848,2025-09-09,2025-09-26 18:26:38.143,AA,C,3615166114,JASSM,3,133,76,2,2,1,225,9,2,0,1,26,0,0,0,0,-123751.23308717164,-4791568.865309057,4198373.477995396,2.29618,-3.09874,0.0775619,-81.5,-3.375,-6.25,0.0,0.0,0.0,0.0,0.0,0.0,2,0,41.40611986322687,-91.47944184741706,9999.998610482193,-95.93304593357902,0.0038708817293313,0.002231759746782,,8857.920509312844,10895.330121764337,150,3,2025-09-09,2025-09-26 18:26:38.227,AA,C,898352322,HAWK11,1,1,73,2,1,1,225,2,1,0,0,12,1,225,2,1,-147320.62341483062,-4789240.350557174,4200736.323698521,3.02635,2.55369,-0.563354,-72.875,52.5,52.875,-0.1875,-7.15625,8.03125,0.0644531,0.0253906,0.0488281,4,0,41.431954786424114,-91.76190555054866,11042.005904404634,-45.86695165926246,1.0430724833509455,32.92571551816298,166.992,8857.920509312844,10895.330121764337,150,False,12.805715353284885,False,50.42917177414361,167.13051343169698,False,142.37537241601117,False,False
3,1970-07-23 09:47:03.991337525,2025-09-09,2025-09-26 18:26:39.133,AA,C,3616419264,JASSM,3,133,76,2,2,1,225,9,2,0,1,26,0,0,0,0,-123837.01824342164,-4791572.535230932,4198366.806120396,2.29618,-3.09874,0.0775619,-81.5,-3.375,-6.25,0.0,0.0,0.0,0.0,0.0,0.0,2,0,41.406039802032375,-91.48046581642411,10000.001022561906,-95.9337231779159,0.0046430619857207,0.0022320003330024,,8857.920509312844,10895.330121764337,150,3,2025-09-09,2025-09-26 18:26:39.427,AA,C,899744154,HAWK11,1,1,73,2,1,1,225,2,1,0,0,12,1,225,2,1,-147404.70544608062,-4789176.628877486,4200800.671354771,3.11283,2.49253,-0.595089,-69.0,56.75,57.125,-0.234375,-7.78125,8.51562,0.0410156,0.03125,0.0605469,4,0,41.43275283164487,-91.76293395059216,11031.402141028111,-42.44109191159053,0.6350684395432982,36.01174057235595,169.24,8857.920509312844,10895.330121764337,150,False,12.812413013010312,False,54.19723450259497,166.89761226722763,False,138.83890018374026,False,False
3,1970-07-23 09:47:04.002412211,2025-09-09,2025-09-26 18:26:40.241,AA,C,3617671272,JASSM,3,133,76,2,2,1,225,9,2,0,1,26,0,0,0,0,-123922.72918092164,-4791576.200269994,4198360.138151646,2.29608,-3.09874,0.0775619,-81.5,-3.375,-6.25,0.0,0.0,0.0,0.0,0.0,0.0,2,0,41.40595979856794,-91.4814888975404,9999.998985577871,-95.9343998339341,0.0054145748307582,-0.003259228966293,,8857.920509312844,10895.330121764337,150,3,2025-09-09,2025-09-26 18:26:40.132,AA,C,900619018,HAWK11,1,1,73,2,1,1,225,2,1,0,0,12,1,225,2,1,-147454.02771170562,-4789133.936494674,4200843.675261021,-3.11197,2.44095,-0.625193,-65.5,59.625,59.875,-0.3125,-8.0,8.8125,0.03125,0.0351562,0.0488281,4,0,41.433288060059,-91.76353917452836,11023.537263956883,-39.46896598590177,0.5641888450980879,37.69438059845159,170.12,8857.920509312844,10895.330121764337,150,False,12.79844875257628,False,57.006709066234315,166.7236644994951,False,136.2009627097785,False,False
3,1970-07-23 09:47:04.012419469,2025-09-09,2025-09-26 18:26:41.241,AA,C,3618924590,JASSM,3,133,76,2,2,1,225,9,2,0,1,26,0,0,0,0,-124008.52605592164,-4791579.869215307,4198353.462370396,2.29608,-3.09874,0.0775619,-81.5,-3.375,-6.25,0.0,0.0,0.0,0.0,0.0,0.0,2,0,41.40587969679267,-91.48251300185676,9999.998877941058,-95.9350771656096,0.0061868621143928,-0.0032589769530606,,8857.920509312844,10895.330121764337,150,3,2025-09-09,2025-09-26 18:26:41.225,AA,C,901931318,HAWK11,1,1,73,2,1,1,225,2,1,0,0,12,1,225,2,1,-147523.49060233062,-4789065.768525924,4200912.409636021,-3.03882,2.36003,-0.663063,-59.75,63.875,64.25,-0.328125,-8.34375,9.14062,0.015625,0.0488281,0.0585938,4,0,41.43414483560984,-91.764394518854,11010.431839027216,-35.18677571629605,0.2435026676960836,39.1303246695286,172.027,8857.920509312844,10895.330121764337,150,False,12.798259691657188,False,61.3821880959539,166.4707420162334,False,132.07870930211794,False,False
3,1970-07-23 09:47:04.022440932,2025-09-09,2025-09-26 18:26:42.244,AA,C,3620117732,JASSM,3,133,76,2,2,1,225,9,2,0,1,26,0,0,0,0,-124090.20574342164,-4791583.361402807,4198347.106901646,2.29608,-3.09874,0.0775619,-81.5,-3.375,-6.25,0.0,0.0,0.0,0.0,0.0,0.0,2,0,41.405803434283385,-91.48348795972544,10000.000515996351,-95.93572199134812,0.006922088945006,-0.0032587408402853,,8857.920509312844,10895.330121764337,150,3,2025-09-09,2025-09-26 18:26:42.428,AA,C,903323150,HAWK11,1,1,73,2,1,1,225,2,1,0,0,12,1,225,2,1,-147590.15466483062,-4788988.706025924,4200990.804167271,-2.96912,2.26895,-0.704864,-53.125,67.875,69.25,-0.265625,-8.78125,9.46875,0.0175781,0.0546875,0.0527344,4,0,41.435120239512976,-91.765219709655,10996.228236117262,-30.488603410951125,0.1635642885457562,39.84104348921618,173.896,8857.920509312844,10895.330121764337,150,False,12.80011258903547,False,66.07800593556443,166.18795365292712,False,127.67458049451581,False,False
3,1970-07-23 09:47:04.033461881,2025-09-09,2025-09-26 18:26:43.346,AA,C,3621370260,JASSM,3,133,76,2,2,1,225,9,2,0,1,26,0,0,0,0,-124175.95183717164,-4791587.025465307,4198340.435026646,2.29608,-3.09883,0.0775619,-81.5,-3.375,-6.25,0.0,0.0,0.0,0.0,0.0,0.0,2,0,41.40572337796629,-91.48451145382931,10000.001071053017,-95.93276688826286,0.0035971415242819,-0.0028326447179711,,8857.920509312844,10895.330121764337,150,3,2025-09-09,2025-09-26 18:26:43.521,AA,C,904635448,HAWK11,1,1,73,2,1,1,225,2,1,0,0,12,1,225,2,1,-147644.48864920562,-4788911.868135299,4201069.511198521,-2.88168,2.16588,-0.745515,-45.625,71.25,73.5,-0.28125,-8.89062,9.54688,0.0175781,0.0605469,0.0488281,4,0,41.43609867292686,-91.76589746335996,10982.329223795898,-25.495279176972613,0.1439438544726087,40.944696834956034,175.106,8857.920509312844,10895.330121764337,150,False,12.793609309581027,False,70.7778694088171,165.89780091260855,False,123.2713145504746,False,False
3,1970-07-23 09:47:04.044336458,2025-09-09,2025-09-26 18:26:44.433,AA,C,3622682068,JASSM,3,133,76,2,2,1,225,9,2,0,1,26,0,0,0,0,-124265.75652467164,-4791590.862379369,4198333.444792271,2.29608,-3.09883,0.0775619,-81.5,-3.375,-6.25,0.0,0.0,0.0,0.0,0.0,0.0,2,0,41.40563950875685,-91.48558339015308,9999.99875018975,-95.93347585217896,0.0044055050338867,-0.002832332378259,,8857.920509312844,10895.330121764337,150,3,2025-09-09,2025-09-26 18:26:44.427,AA,C,905629614,HAWK11,1,1,73,2,1,1,225,2,1,0,0,12,1,225,2,1,-147679.93982108062,-4788851.440400924,4201132.019011021,-2.81121,2.08027,-0.768716,-40.5,72.125,77.125,-0.21875,-8.6875,9.32812,0.00195312,0.0488281,0.0722656,4,0,41.43687359423989,-91.766343481533,10972.176928841754,-21.700190028626736,-0.116160933700746,41.61261859348938,176.511,8857.920509312844,10895.330121764337,150,False,12.773203546006892,False,73.83859176502789,165.65185870888806,False,120.47642689473234,False,False
3,1970-07-23 09:47:04.053459404,2025-09-09,2025-09-26 18:26:45.345,AA,C,3623815462,JASSM,3,133,76,2,2,1,225,9,2,0,1,26,0,0,0,0,-124343.34636842164,-4791594.176832494,4198327.405729771,2.29608,-3.09883,0.0776578,-81.5,-3.375,-6.25,0.0,0.0,0.0,0.0,0.0,0.0,2,0,41.40556704512165,-91.48650952431146,9999.999524727496,-95.93819880526668,0.0014598191232434,-0.0028323040055599,,8857.920509312844,10895.330121764337,150,3,2025-09-09,2025-09-26 18:26:45.319,AA,C,906703312,HAWK11,1,1,73,2,1,1,225,2,1,0,0,12,1,225,2,1,-147712.05896170562,-4788783.309541549,4201202.276823521,-2.72109,1.97989,-0.795177,-32.125,76.375,79.25,-0.234375,-9.21875,9.9375,0.0117188,0.0664062,0.0605469,4,0,41.43774726764045,-91.76675252250509,10959.666555403708,-17.34838173832795,-0.1369775732402573,42.7117410391049,177.953,8857.920509312844,10895.330121764337,150,False,12.758666568356965,False,78.53066292675634,165.38538438880025,False,116.03359313886453,False,False
3,1970-07-23 09:47:04.063477690,2025-09-09,2025-09-26 18:26:46.347,AA,C,3624949866,JASSM,3,133,76,2,2,1,225,9,2,0,1,26,0,0,0,0,-124421.00261842164,-4791597.494215307,4198321.360807896,2.29608,-3.09883,0.0776578,-81.5,-3.375,-6.25,0.0,0.0,0.0,0.0,0.0,0.0,2,0,41.4054945067867,-91.4874364490238,10000.002148930596,-95.9388118586846,0.0021588303410977,-0.002832084893242,,8857.920509312844,10895.330121764337,150,3,2025-09-09,2025-09-26 18:26:46.225,AA,C,907936078,HAWK11,1,1,73,2,1,1,225,2,1,0,0,12,1,225,2,1,-147740.33435233062,-4788703.870088424,4201285.538542271,-2.62234,1.85746,-0.82672,-23.125,78.125,82.5,-0.46875,-9.73438,10.375,0.00976562,0.0742188,0.0566406,4,0,41.43877669631985,-91.76711979958584,10947.30517104485,-12.207395816899531,0.2604874180094403,43.28631544283652,179.395,8857.920509312844,10895.330121764337,150,False,12.743978376666567,False,83.30805064291572,165.07558776536564,False,111.57572221532283,False,False
3,1970-07-23 09:47:04.072418014,2025-09-09,2025-09-26 18:26:47.241,AA,C,3626082866,JASSM,3,133,76,2,2,1,225,9,2,0,1,26,0,0,0,0,-124498.56511842164,-4791600.805738744,4198315.321745396,2.29608,-3.09883,0.0776578,-81.5,-3.375,-6.25,0.0,0.0,0.0,0.0,0.0,0.0,2,0,41.40542204989445,-91.4883622532296,10000.00020189497,-95.93942417013584,0.0028569979831375,-0.0028318673804213,,8857.920509312844,10895.330121764337,150,3,2025-09-09,2025-09-26 18:26:47.155,AA,C,908413278,HAWK11,1,1,73,2,1,1,225,2,1,0,0,12,1,225,2,1,-147748.78552420562,-4788672.207979049,4201319.001432896,-2.58591,1.8077,-0.836499,-19.375,78.75,83.75,-0.203125,-9.875,10.4844,0.00390625,0.0820312,0.0527344,4,0,41.43918938347816,-91.76723249705884,10942.768744324872,-10.211200803800685,0.3925510375425248,43.2779715710986,180.398,8857.920509312844,10895.330121764337,150,False,12.712460070351433,False,85.24954980001878,164.92053302281178,False,109.79282615982952,False,False
3,1970-07-23 09:47:04.082417712,2025-09-09,2025-09-26 18:26:48.241,AA,C,3627215646,JASSM,3,133,76,2,2,1,225,9,2,0,1,26,0,0,0,0,-124576.11199342164,-4791604.116285619,4198309.284636021,2.29608,-3.09883,0.0776578,-81.5,-3.375,-6.25,0.0,0.0,0.0,0.0,0.0,0.0,2,0,41.40534960696418,-91.48928786897146,10000.002204308848,-95.94003635606006,0.0035550243544762,-0.0028316566672543,,8857.920509312844,10895.330121764337,150,3,2025-09-09,2025-09-26 18:26:48.317,AA,C,910361842,HAWK11,1,1,73,2,1,1,225,2,1,0,0,12,1,225,2,1,-147767.12341483062,-4788541.922822799,4201458.899870396,-2.40499,1.58671,-0.859413,-3.25,80.25,87.125,-0.21875,-10.0,10.6406,0.00390625,0.0683594,0.0527344,4,0,41.44090541774517,-91.76749975637908,10927.651187054304,-1.7490805344367637,0.7122896580062202,44.21237126577494,181.962,8857.920509312844,10895.330121764337,150,False,12.700808899449678,False,93.25542586655953,164.42327705826509,False,102.29358147538872,False,False
3,1970-07-23 09:47:04.091460399,2025-09-09,2025-09-26 18:26:49.146,AA,C,3628349038,JASSM,3,133,76,2,2,1,225,9,2,0,1,26,0,0,0,0,-124653.70183717164,-4791607.427809057,4198303.241667271,2.29608,-3.09883,0.0776578,-81.5,-3.375,-6.25,0.0,0.0,0.0,0.0,0.0,0.0,2,0,41.40527710457287,-91.49021399580572,9999.999756421492,-95.94064887912975,0.0042534389382452,-0.0028314340261533,,8857.920509312844,10895.330121764337,150,3,2025-09-09,2025-09-26 18:26:49.021,AA,C,911196942,HAWK11,1,1,73,2,1,1,225,2,1,0,0,12,1,225,2,1,-147766.50036795562,-4788484.846650924,4201520.909636021,-2.32676,1.48451,-0.867466,3.875,80.0,88.375,-0.40625,-10.4062,11.0,-0.0234375,0.0761719,0.0527344,4,0,41.44166365171006,-91.7675133627986,10921.945774571695,2.054156547996116,1.186497364860252,44.30535064536999,182.915,8857.920509312844,10895.330121764337,150,False,12.668836177696512,False,96.69861528327101,164.17062229521997,False,99.11016409550234,False,False
3,1970-07-23 09:47:04.100355789,2025-09-09,2025-09-26 18:26:50.035,AA,C,3629423308,JASSM,3,133,76,2,2,1,225,9,2,0,1,26,0,0,0,0,-124727.24480592164,-4791610.566480932,4198297.515104771,2.29608,-3.09883,0.0776578,-81.5,-3.375,-6.25,0.0,0.0,0.0,0.0,0.0,0.0,2,0,41.4052083858545,-91.49109181652602,10000.002638816064,-95.9412294526206,0.0049154252231512,-0.0028312319536117,,8857.920509312844,10895.330121764337,150,3,2025-09-09,2025-09-26 18:26:49.928,AA,C,912310406,HAWK11,1,1,73,2,1,1,225,2,1,0,0,12,1,225,2,1,-147757.89685233062,-4788409.969697799,4201604.104948521,-2.23328,1.35451,-0.862577,13.875,79.5,89.125,-0.171875,-10.2031,10.8281,0.00390625,0.0820312,0.0703125,4,0,41.44267224648498,-91.76743813655028,10917.884656733342,6.890409970135965,1.343774783386372,44.09537906412599,183.526,8857.920509312844,10895.330121764337,150,False,12.637939646900403,False,101.47112704660611,163.84945077205194,False,94.66376228950625,False,False
3,1970-07-23 09:47:04.109415735,2025-09-09,2025-09-26 18:26:50.941,AA,C,3630497644,JASSM,3,133,76,2,2,1,225,9,2,0,1,26,0,0,0,0,-124800.79168092164,-4791613.704176244,4198291.786589146,2.29608,-3.09883,0.0776578,-81.5,-3.375,-6.25,0.0,0.0,0.0,0.0,0.0,0.0,2,0,41.40513965245975,-91.49196968237749,10000.001929846732,-95.94181005516774,0.0055774473907479,-0.0028310255676201,,8857.920509312844,10895.330121764337,150,3,2025-09-09,2025-09-26 18:26:50.817,AA,C,913344338,HAWK11,1,1,73,2,1,1,225,2,1,0,0,12,1,225,2,1,-147741.80310233062,-4788342.034150924,4201680.841276646,-2.14201,1.2339,-0.859988,22.875,78.25,89.25,-0.265625,-10.3438,10.9375,-0.00585938,0.0644531,0.0625,4,0,41.4435973193734,-91.76727080699746,10916.299189001951,11.344310736670751,2.019886125954121,44.21018836602057,183.893,8857.920509312844,10895.330121764337,150,False,12.602449604400631,False,105.76164393563657,163.54552053834095,False,90.68218551806304,False,False
3,1970-07-23 09:47:04.122737357,2025-09-09,2025-09-26 18:26:52.273,AA,C,3631629918,JASSM,3,133,76,2,2,1,225,9,2,0,1,26,0,0,0,0,-124878.30339967164,-4791617.009840307,4198285.749479771,2.29608,-3.09883,0.0776578,-81.5,-3.375,-6.25,0.0,0.0,0.0,0.0,0.0,0.0,2,0,41.40506721501204,-91.4928948715272,10000.001794319129,-95.9424219555214,0.0062751579566073,-0.0028308165609795,,8857.920509312844,10895.330121764337,150,3,2025-09-09,2025-09-26 18:26:52.324,AA,C,915173604,HAWK11,1,1,73,2,1,1,225,2,1,0,0,12,1,225,2,1,-147694.04724295562,-4788222.682588424,4201817.851042271,-2.00242,1.04186,-0.820584,38.25,75.5,88.25,-0.328125,-10.0469,10.5938,0.0175781,0.0664062,0.0625,4,0,41.44524091560459,-91.76674392783856,10916.820296766526,19.02221819028279,2.019826600537032,44.27122977610191,185.029,8857.920509312844,10895.330121764337,150,False,12.557582262680715,False,113.09440645583066,163.03073312856313,False,83.86951845163037,False,False
3,1970-07-23 09:47:04.128337191,2025-09-09,2025-09-26 18:26:52.833,AA,C,3632704566,JASSM,3,133,76,2,2,1,225,9,2,0,1,26,0,0,0,0,-124951.86980592164,-4791620.147535619,4198280.017057896,2.29608,-3.09893,0.0776578,-81.5,-3.375,-6.25,0.0,0.0,0.0,0.0,0.0,0.0,2,0,41.40499843846077,-91.49377296696412,9999.999611107056,-95.93937073690604,0.0028405840850862,-0.002404262065761,,8857.920509312844,10895.330121764337,150,3,2025-09-09,2025-09-26 18:26:52.927,AA,C,915929170,HAWK11,1,1,73,2,1,1,225,2,1,0,0,12,1,225,2,1,-147668.10388358062,-4788175.633760299,4201872.560026646,-1.94375,0.96938,-0.801888,44.125,73.875,87.25,-0.3125,-9.875,10.4062,0.00195312,0.0585938,0.0683594,4,0,41.44589485025142,-91.76645113119318,10918.009579076726,22.07589750887122,2.1229929165247285,44.73132492310463,185.237,8857.920509312844,10895.330121764337,150,False,12.514315301377065,False,115.97496724830062,162.79016126837757,False,81.23121293372691,False,False
3,1970-07-23 09:47:04.137400054,2025-09-09,2025-09-26 18:26:53.740,AA,C,3633778330,JASSM,3,133,76,2,2,1,225,9,2,0,1,26,0,0,0,0,-125025.37761842164,-4791623.281324682,4198274.290495396,2.29608,-3.09893,0.0776578,-81.5,-3.375,-6.25,0.0,0.0,0.0,0.0,0.0,0.0,2,0,41.40492972709962,-91.4946503616097,9999.999572289726,-95.93995102540144,0.0035022545491951,-0.0024040197636469,,8857.920509312844,10895.330121764337,150,3,2025-09-09,2025-09-26 18:26:53.949,AA,C,916724502,HAWK11,1,1,73,2,1,1,225,2,1,0,0,12,1,225,2,1,-147636.20739920562,-4788126.332979049,4201929.944792271,-1.90031,0.902268,-0.77629,50.625,72.5,85.5,-0.25,-9.5,10.0938,-0.015625,0.0664062,0.0605469,4,0,41.44658133463898,-91.76608799008856,10919.026125854632,25.153242190478466,1.951111717527312,44.59943612619665,185.029,8857.920509312844,10895.330121764337,150,False,12.468591224300006,False,119.17292616563658,162.536324282378,False,78.28651644626709,False,False
3,1970-07-23 09:47:04.147436515,2025-09-09,2025-09-26 18:26:54.743,AA,C,3634970446,JASSM,3,133,76,2,2,1,225,9,2,0,1,26,0,0,0,0,-125106.98699342164,-4791626.760816869,4198267.931120396,2.29608,-3.09893,0.0776578,-81.5,-3.375,-6.25,0.0,0.0,0.0,0.0,0.0,0.0,2,0,41.40485342183218,-91.49562445483538,9999.999966161577,-95.94059526716909,0.0042368514092712,-0.0024037376496336,,8857.920509312844,10895.330121764337,150,3,2025-09-09,2025-09-26 18:26:54.723,AA,C,917798200,HAWK11,1,1,73,2,1,1,225,2,1,0,0,12,1,225,2,1,-147586.64880545562,-4788061.145479049,4202005.257292271,-1.83694,0.807449,-0.73842,58.75,70.125,83.0,-0.375,-9.76562,10.0938,-0.00195312,0.0722656,0.0566406,4,0,41.44748658113707,-91.76551954535844,10918.591344432518,29.659397697741067,1.9156764348599944,44.64809561154503,186.007,8857.920509312844,10895.330121764337,150,False,12.412605232920102,False,123.269394678592,162.20671832889994,False,74.5199055695362,False,False
3,1970-07-23 09:47:04.156325876,2025-09-09,2025-09-26 18:26:55.632,AA,C,3636044188,JASSM,3,133,76,2,2,1,225,9,2,0,1,26,0,0,0,0,-125180.49089967164,-4791629.892652807,4198262.204557896,2.29608,-3.09893,0.0776578,-81.5,-3.375,-6.25,0.0,0.0,0.0,0.0,0.0,0.0,2,0,41.40478470857981,-91.4965017995117,10000.000771920628,-95.94117552094517,0.0048984862566079,-0.0024035038803257,,8857.920509312844,10895.330121764337,150,3,2025-09-09,2025-09-26 18:26:55.631,AA,C,919190032,HAWK11,1,1,73,2,1,1,225,2,1,0,0,12,1,225,2,1,-147510.78357108062,-4787980.172822799,4202100.472136021,-1.76216,0.69125,-0.690196,69.125,65.875,79.375,-0.515625,-9.98438,10.4688,0.0117188,0.0605469,0.0644531,4,0,41.44862488734263,-91.7646423977399,10920.593616633672,35.390169067176345,2.260598650612221,44.77628696534423,186.41,8857.920509312844,10895.330121764337,150,False,12.350586528735331,False,128.70551210525804,161.8037171613025,False,69.48894241270266,False,False
3,1970-07-23 09:47:04.168298537,2025-09-09,2025-09-26 18:26:56.829,AA,C,3637237780,JASSM,3,133,76,2,2,1,225,9,2,0,1,26,0,0,0,0,-125262.20183717164,-4791633.375074682,4198255.835417271,2.29608,-3.09893,0.0777537,-81.5,-3.375,-6.25,0.0,0.0,0.0,0.0,0.0,0.0,2,0,41.40470828848641,-91.4974771010901,10000.000264404807,-95.94593100897096,0.0019899300205587,-0.0024034907213435,,8857.920509312844,10895.330121764337,150,3,2025-09-09,2025-09-26 18:26:56.817,AA,C,920502332,HAWK11,1,1,73,2,1,1,225,2,1,0,0,12,1,225,2,1,-147428.83435233062,-4787909.116182174,4202184.567839146,-1.68882,0.588665,-0.633918,78.5,61.375,74.875,-0.359375,-10.0312,10.5312,0.00585938,0.0800781,0.0683594,4,0,41.44963025734559,-91.7636888324415,10922.370992642873,41.039251694038754,2.376205125025804,45.59064231840036,187.168,8857.920509312844,10895.330121764337,150,False,12.279883438499892,False,133.91878994112474,161.42269814059208,False,64.65755333732658,False,False
3,1970-07-23 09:47:04.177896761,2025-09-09,2025-09-26 18:26:57.789,AA,C,3638430282,JASSM,3,133,76,2,2,1,225,9,2,0,1,26,0,0,0,0,-125343.83855592164,-4791636.852613744,4198249.472136021,2.29608,-3.09893,0.0777537,-81.5,-3.375,-6.25,0.0,0.0,0.0,0.0,0.0,0.0,2,0,41.40463194028297,-91.49845151504864,9999.999138216392,-95.94657546004856,0.0027247731043865,-0.0024032677535626,,8857.920509312844,10895.330121764337,150,3,2025-09-09,2025-09-26 18:26:57.726,AA,C,921655564,HAWK11,1,1,73,2,1,1,225,2,1,0,0,12,1,225,2,1,-147349.07653983062,-4787851.836885299,4202253.188932896,-1.63148,0.503433,-0.584543,86.25,56.75,70.5,-0.3125,-10.1406,10.6719,-0.00195312,0.0664062,0.0566406,4,0,41.45044880262275,-91.76275636822226,10924.579182111283,45.93644679645884,2.695455837123788,46.29592664048577,187.73,8857.920509312844,10895.330121764337,150,False,12.20816668532202,False,138.5120665048038,161.08939507066552,False,60.3984079223501,False,False
3,1970-07-23 09:47:04.185476456,2025-09-09,2025-09-26 18:26:58.547,AA,C,3639563676,JASSM,3,133,76,2,2,1,225,9,2,0,1,26,0,0,0,0,-125421.42839967164,-4791640.157301244,4198243.425261021,2.29608,-3.09893,0.0777537,-81.5,-3.375,-6.25,0.0,0.0,0.0,0.0,0.0,0.0,2,0,41.40455937843366,-91.49937762363278,10000.002222036976,-95.9471879623512,0.003423187885481,-0.0024030650603113,,8857.920509312844,10895.330121764337,150,3,2025-09-09,2025-09-26 18:26:58.641,AA,C,922649730,HAWK11,1,1,73,2,1,1,225,2,1,0,0,12,1,225,2,1,-147273.07263358062,-4787805.338838424,4202310.267057896,-1.60474,0.438814,-0.535935,92.75,52.375,65.75,-0.28125,-9.90625,10.4375,-0.0136719,0.0585938,0.0585938,4,0,41.45112459712198,-91.76186479657788,10928.508043538524,50.13531512103483,2.661367846133222,46.056366878433415,187.571,8857.920509312844,10895.330121764337,150,False,12.138748502024985,False,142.70773801025962,160.79672602536337,False,56.49552266836308,False,False
3,1970-07-23 09:47:04.195374248,2025-09-09,2025-09-26 18:26:59.537,AA,C,3640697070,JASSM,3,133,76,2,2,1,225,9,2,0,1,26,0,0,0,0,-125499.01403983062,-4791643.460908736,4198237.376432896,2.29608,-3.09893,0.0777537,-81.5,-3.375,-6.25,0.0,0.0,0.0,0.0,0.0,0.0,2,0,41.40448680302662,-91.5003036802641,10000.001255432278,-95.9478004294108,0.0041215660871983,-0.0024028523909231,,8857.920509312844,10895.330121764337,150,3,2025-09-09,2025-09-26 18:26:59.521,AA,C,923683662,HAWK11,1,1,73,2,1,1,225,2,1,0,0,12,1,225,2,1,-147190.42224295562,-4787761.600557174,4202364.153776646,-1.57511,0.377359,-0.48167,98.625,47.75,60.875,-0.296875,-9.875,10.2656,0.0078125,0.0585938,0.0625,4,0,41.45176364176943,-91.7608927280856,10931.792218583993,54.50841390894789,2.468202751080542,46.233284175149336,188.011,8857.920509312844,10895.330121764337,150,False,12.065615062479276,False,146.7870082549164,160.50683713651478,False,52.7060554236809,False,False
3,1970-07-23 09:47:04.205531899,2025-09-09,2025-09-26 18:27:00.553,AA,C,3641831462,JASSM,3,133,76,2,2,1,225,9,2,0,1,26,0,0,0,0,-125576.67419608062,-4791646.766572799,4198231.321745396,2.29608,-3.09893,0.0777537,-81.5,-3.375,-6.25,0.0,0.0,0.0,0.0,0.0,0.0,2,0,41.404414156756495,-91.50123062459978,10000.00055291315,-95.9484134826892,0.004820614653067,-0.0024026457878732,,8857.920509312844,10895.330121764337,150,3,2025-09-09,2025-09-26 18:27:00.427,AA,C,924797126,HAWK11,1,1,73,2,1,1,225,2,1,0,0,12,1,225,2,1,-147094.68591483062,-4787718.354463424,4202418.087370396,-1.55421,0.314083,-0.426926,104.375,42.5,55.125,-0.109375,-9.84375,10.25,-0.0117188,0.0683594,0.0585938,4,0,41.45240245743267,-91.75976400513528,10935.405706674635,59.0350618734921,2.4942179119780463,46.0348966297984,188.292,8857.920509312844,10895.330121764337,150,False,11.985910996485947,False,151.2074185316342,160.20537854913536,False,48.58666305814877,False,False
3,1970-07-23 09:47:04.217942132,2025-09-09,2025-09-26 18:27:01.794,AA,C,3643023494,JASSM,3,133,76,2,2,1,225,9,2,0,1,26,0,0,0,0,-125658.27575858062,-4791650.240205611,4198224.958464146,2.29608,-3.09893,0.0777537,-81.5,-3.375,-6.25,0.0,0.0,0.0,0.0,0.0,0.0,2,0,41.404337805491,-91.50220461090306,10000.000833959912,-95.9490576471654,0.0055551423137178,-0.0024024187105067,,8857.920509312844,10895.330121764337,150,3,2025-09-09,2025-09-26 18:27:01.928,AA,C,926586626,HAWK11,1,1,73,2,1,1,225,2,1,0,0,12,1,225,2,1,-146932.38122733062,-4787660.008760299,4202491.894011021,-1.51931,0.223386,-0.335367,112.125,34.25,45.125,-0.296875,-9.54688,10.0781,-0.0292969,0.0585938,0.0507812,4,0,41.453277385419725,-91.75784490409322,10940.054894507264,66.1643418784163,2.2920125001587444,46.39633917400552,188.805,8857.920509312844,10895.330121764337,150,False,11.873564874323925,False,158.1044620519506,159.78846382405263,False,42.10660863490827,False,False
3,1970-07-23 09:47:04.224354667,2025-09-09,2025-09-26 18:27:02.435,AA,C,3644157660,JASSM,3,133,76,2,2,1,225,9,2,0,1,26,0,0,0,0,-125735.91638358062,-4791653.543916549,4198218.903776646,2.29608,-3.09893,0.0777537,-81.5,-3.375,-6.25,0.0,0.0,0.0,0.0,0.0,0.0,2,0,41.40426515857605,-91.5031313182333,10000.000466127203,-95.94967054188236,0.006254015725286,-0.0024022085436867,,8857.920509312844,10895.330121764337,150,3,2025-09-09,2025-09-26 18:27:02.431,AA,C,926904758,HAWK11,1,1,73,2,1,1,225,2,1,0,0,12,1,225,2,1,-146901.55310233062,-4787650.748994674,4202503.860807896,-1.53283,0.207567,-0.320219,113.25,32.5,43.875,-0.0625,-9.54688,10.0469,-0.0878906,0.0585938,0.0585938,4,0,41.45341887279397,-91.7574797160716,10940.962242716758,67.38573498129799,2.321079156781764,45.37914904499258,188.927,8857.920509312844,10895.330121764337,150,False,11.820451003131211,False,159.1793319210345,159.65857582087165,False,41.159582478542816,False,False
3,1970-07-23 09:47:04.238862489,2025-09-09,2025-09-26 18:27:03.886,AA,C,3645349950,JASSM,3,133,76,2,2,1,225,9,2,0,1,26,0,0,0,0,-125817.53747733062,-4791657.016572799,4198212.538542271,2.29608,-3.09902,0.0777537,-81.5,-3.375,-6.25,0.0,0.0,0.0,0.0,0.0,0.0,2,0,41.40418878079471,-91.50410553377448,10000.0020925868,-95.94668294246534,0.0028919490080523,-0.001975124113953,,8857.920509312844,10895.330121764337,150,3,2025-09-09,2025-09-26 18:27:04.021,AA,C,929052156,HAWK11,1,1,73,2,1,1,225,2,1,0,0,12,1,225,2,1,-146691.24646170562,-4787600.678682174,4202571.839323521,-1.75871,0.10364,-0.219072,119.375,21.375,33.625,-0.328125,-9.92188,10.3125,-0.265625,0.0527344,0.0429688,4,0,41.45421393351727,-91.75498359671492,10949.697898044877,75.54326691109114,2.633075445615072,31.200903248676013,190.149,8857.920509312844,10895.330121764337,150,False,11.682614229749746,False,166.506407324311,159.22060605286154,False,34.23155998266988,False,False
3,1970-07-23 09:47:04.276937042,2025-09-09,2025-09-26 18:27:07.693,AA,C,3646542998,JASSM,3,133,76,2,2,1,225,9,2,0,1,26,0,0,0,0,-125899.21325858062,-4791660.490205611,4198206.167448521,2.29608,-3.09902,0.0777537,-81.5,-3.375,-6.25,0.0,0.0,0.0,0.0,0.0,0.0,2,0,41.40411234085105,-91.50508040019602,10000.000389577252,-95.94732768615306,0.0036271449615134,-0.0019748553131561,,8857.920509312844,10895.330121764337,150,3,2025-09-09,2025-09-26 18:27:07.429,AA,C,933068584,HAWK11,1,1,73,2,1,1,225,2,1,0,0,12,1,225,2,1,-146284.17810233062,-4787555.268525924,4202671.339323521,-2.22504,0.00383495,-0.219647,121.5,7.0,29.875,-0.046875,-8.10938,8.51562,-0.132812,0.0117188,0.0,4,0,41.4552296156949,-91.75013313792137,11023.592754137631,79.23164088802162,6.840403423742815,3.541640648714239,189.758,8857.920509312844,10895.330121764337,150,True,11.446846644870055,False,170.54519245675246,158.56747100270343,False,29.71973076908203,True,False
3,1970-07-23 09:47:04.281953839,2025-09-09,2025-09-26 18:27:08.195,AA,C,3647736828,JASSM,3,133,76,2,2,1,225,9,2,0,1,26,0,0,0,0,-125980.93591483062,-4791663.965791549,4198199.792448521,2.29608,-3.09902,0.0777537,-81.5,-3.375,-6.25,0.0,0.0,0.0,0.0,0.0,0.0,2,0,41.40403584732435,-91.5060558238342,10000.001499055028,-95.94797279738506,0.0043627630244201,-0.0019745848900423,,8857.920509312844,10895.330121764337,150,3,2025-09-09,2025-09-26 18:27:07.429,AA,C,933068584,HAWK11,1,1,73,2,1,1,225,2,1,0,0,12,1,225,2,1,-146284.17810233062,-4787555.268525924,4202671.339323521,-2.22504,0.00383495,-0.219647,121.5,7.0,29.875,-0.046875,-8.10938,8.51562,-0.132812,0.0117188,0.0,4,0,41.4552296156949,-91.75013313792137,11023.592754137631,79.23164088802162,6.840403423742815,3.541640648714239,189.758,8857.920509312844,10895.330121764337,150,True,11.405807583573255,False,170.54519245675246,158.4860620831141,False,29.79972986150526,True,False
3,1970-07-23 09:47:04.281982336,2025-09-09,2025-09-26 18:27:08.198,AA,C,3648929950,JASSM,3,133,76,2,2,1,225,9,2,0,1,26,0,0,0,0,-126062.61560233062,-4791667.438447799,4198193.419401646,2.29608,-3.09902,0.0777537,-81.5,-3.375,-6.25,0.0,0.0,0.0,0.0,0.0,0.0,2,0,41.40395938286996,-91.50703073266696,10000.000314484783,-95.94861756716288,0.0050979948755222,-0.001974311736514,,8857.920509312844,10895.330121764337,150,3,2025-09-09,2025-09-26 18:27:07.429,AA,C,933068584,HAWK11,1,1,73,2,1,1,225,2,1,0,0,12,1,225,2,1,-146284.17810233062,-4787555.268525924,4202671.339323521,-2.22504,0.00383495,-0.219647,121.5,7.0,29.875,-0.046875,-8.10938,8.51562,-0.132812,0.0117188,0.0,4,0,41.4552296156949,-91.75013313792137,11023.592754137631,79.23164088802162,6.840403423742815,3.541640648714239,189.758,8857.920509312844,10895.330121764337,150,True,11.364813368117726,False,170.54519245675246,158.40410726729178,False,29.880273255067532,True,False
3,1970-07-23 09:47:04.299414416,2025-09-09,2025-09-26 18:27:09.941,AA,C,3650063440,JASSM,3,133,76,2,2,1,225,9,2,0,1,26,0,0,0,0,-126140.20935233062,-4791670.736299361,4198187.364714146,2.29608,-3.09902,0.0778495,-81.5,-3.375,-6.25,0.0,0.0,0.0,0.0,0.0,0.0,2,0,41.40388673928733,-91.50795687097128,9999.998741851236,-95.95334055719124,0.0021524101717296,-0.0019743408291521,,8857.920509312844,10895.330121764337,150,3,2025-09-09,2025-09-26 18:27:10.325,AA,C,936568048,HAWK11,1,1,73,2,1,1,225,2,1,0,0,12,1,225,2,1,-145930.48474295562,-4787537.356416549,4202757.819792271,-2.06752,-0.00613592,-0.232206,120.125,4.375,29.125,-0.171875,-6.07812,6.48438,0.115234,-0.0078125,0.0117188,4,0,41.45598383589636,-91.74591072679978,11140.879834649946,79.05443900063773,7.735805499462581,12.41624684524841,187.094,8857.920509312844,10895.330121764337,150,False,11.15574547492518,False,170.75722389072484,157.83567444700614,False,29.733528253830308,True,False
3,1970-07-23 09:47:04.300983745,2025-09-09,2025-09-26 18:27:10.098,AA,C,3652508228,JASSM,3,133,76,2,2,1,225,9,2,0,1,26,0,0,0,0,-126307.57263358062,-4791677.847627486,4198174.304167271,2.29608,-3.09902,0.0778495,-81.5,-3.375,-6.25,0.0,0.0,0.0,0.0,0.0,0.0,2,0,41.40373003146936,-91.5099544680203,9999.999010028148,-95.95466169139496,0.0036589145604394,-0.0019739003288914,,8857.920509312844,10895.330121764337,150,3,2025-09-09,2025-09-26 18:27:10.325,AA,C,936568048,HAWK11,1,1,73,2,1,1,225,2,1,0,0,12,1,225,2,1,-145930.48474295562,-4787537.356416549,4202757.819792271,-2.06752,-0.00613592,-0.232206,120.125,4.375,29.125,-0.171875,-6.07812,6.48438,0.115234,-0.0078125,0.0117188,4,0,41.45598383589636,-91.74591072679978,11140.879834649946,79.05443900063773,7.735805499462581,12.41624684524841,187.094,8857.920509312844,10895.330121764337,150,False,11.072158865784731,False,170.75722389072484,157.65838512905893,False,29.906794819366482,True,False
3,1970-07-23 09:47:04.341192789,2025-09-09,2025-09-26 18:27:14.119,AA,C,3651196834,JASSM,3,133,76,2,2,1,225,9,2,0,1,26,0,0,0,0,-126217.79919608062,-4791674.033174361,4198181.311979771,2.29608,-3.09902,0.0778495,-81.5,-3.375,-6.25,0.0,0.0,0.0,0.0,0.0,0.0,2,0,41.403814107856505,-91.50888296084396,10000.001867242176,-95.95395303808635,0.0028508261536709,-0.0019741507642241,,8857.920509312844,10895.330121764337,150,3,2025-09-09,2025-09-26 18:27:14.429,AA,C,941578642,HAWK11,1,1,73,2,1,1,225,2,1,0,0,12,1,225,2,1,-145424.19763358062,-4787511.471650924,4202851.366667271,-2.14872,0.0321177,-0.0963532,121.75,5.875,18.625,-0.015625,-4.35938,4.82812,-0.0957031,-0.0253906,0.0195312,4,0,41.45686064678995,-91.73986664389176,11242.591154427178,83.49634885795153,0.9804395972750384,8.46102629335782,187.339,8857.920509312844,10895.330121764337,150,True,10.871533675495057,False,175.67644056767332,157.08415446559394,False,26.608049176337616,True,False
3,1970-07-23 09:47:04.341291536,2025-09-09,2025-09-26 18:27:14.129,AA,C,3653820582,JASSM,3,133,76,2,2,1,225,9,2,0,1,26,0,0,0,0,-126397.41247733062,-4791681.664033736,4198167.292448521,2.29608,-3.09902,0.0778495,-81.5,-3.375,-6.25,0.0,0.0,0.0,0.0,0.0,0.0,2,0,41.403645896690605,-91.51102676530878,10000.000961231504,-95.95537086606991,0.0044675995030112,-0.0019736634081612,,8857.920509312844,10895.330121764337,150,3,2025-09-09,2025-09-26 18:27:14.429,AA,C,941578642,HAWK11,1,1,73,2,1,1,225,2,1,0,0,12,1,225,2,1,-145424.19763358062,-4787511.471650924,4202851.366667271,-2.14872,0.0321177,-0.0963532,121.75,5.875,18.625,-0.015625,-4.35938,4.82812,-0.0957031,-0.0253906,0.0195312,4,0,41.45686064678995,-91.73986664389176,11242.591154427178,83.49634885795153,0.9804395972750384,8.46102629335782,187.339,8857.920509312844,10895.330121764337,150,True,10.782327966223649,False,175.67644056767332,156.88252744608602,False,26.808793055877686,True,False
