Subject_cm,Timestamp,SampleDate_cm,SampleTime_cm,Configuration_cm,Scenario_cm,DisTime_cm,MarkingTxt_cm,Application_cm,EntId_cm,Site_cm,ExerciseId_cm,ForceId_cm,Category_cm,Country_cm,Domain_cm,Kind_cm,Extra_cm,Specific_cm,Subcategory_cm,AltCategory_cm,AltCountry_cm,AltDomain_cm,AltKind_cm,ECEF_X_cm,ECEF_Y_cm,ECEF_Z_cm,OriPhi_cm,OriPsi_cm,OriTheta_cm,LinVelX_cm,LinVelY_cm,LinVelZ_cm,LinAccX_cm,LinAccY_cm,LinAccZ_cm,AngVelX_cm,AngVelY_cm,AngVelZ_cm,DrAlg_cm,Appearance_cm,Latitude_cm,Longitude_cm,Altitude_cm,Heading_cm,Pitch_cm,Roll_cm,CalibratedAirspeed_cm,CM_Altitude_Lead_cm,CM_Altitude_Wing_cm,CM_Airspeed_cm,Subject_ac,SampleDate_ac,SampleTime_ac,Configuration_ac,Scenario_ac,DisTime_ac,MarkingTxt_ac,Application_ac,EntId_ac,Site_ac,ExerciseId_ac,ForceId_ac,Category_ac,Country_ac,Domain_ac,Kind_ac,Extra_ac,Specific_ac,Subcategory_ac,AltCategory_ac,AltCountry_ac,AltDomain_ac,AltKind_ac,ECEF_X_ac,ECEF_Y_ac,ECEF_Z_ac,OriPhi_ac,OriPsi_ac,OriTheta_ac,LinVelX_ac,LinVelY_ac,LinVelZ_ac,LinAccX_ac,LinAccY_ac,LinAccZ_ac,AngVelX_ac,AngVelY_ac,AngVelZ_ac,DrAlg_ac,Appearance_ac,Latitude_ac,Longitude_ac,Altitude_ac,Heading_ac,Pitch_ac,Roll_ac,CalibratedAirspeed_ac,CM_Altitude_Lead_ac,CM_Altitude_Wing_ac,CM_Airspeed_ac,Bank_Angle_Condition,distance_nm,Distance_Condition,angle_between_vel,angle_between_pos,Cone_Condition,angle_between_pos_nose,Nose_Cone_Condition,Intercept_Criteria
3,1970-07-23 10:17:10.930208661,2025-09-11,2025-09-26 20:38:13.020,HA,D,3322392852,JASSM,3,123,76,2,2,1,225,9,2,0,1,26,0,0,0,0,-121193.63933717164,-4791459.654371557,4198572.599089146,2.29618,-3.09845,0.0772743,-85.125,-3.5,-6.5,0.0,0.0,0.0,0.0,0.0,0.0,2,0,41.40850279490316,-91.44891208042353,10002.624899527122,-95.91142768112655,0.0040821074287135,0.0009490418360517,,9174.609911748745,11300.678975010827,150,3,2025-09-11,2025-09-26 20:38:13.135,HA,D,1726614790,HAWK11,1,1,73,2,1,1,225,2,1,0,0,12,1,225,2,1,-140309.80114920562,-4792898.571260299,4196948.882292271,2.35447,2.6837,-0.45099,-109.375,34.5,36.125,-0.15625,-7.53125,6.07812,0.0273438,-0.00195312,-0.00585938,4,0,41.38587862161919,-91.6768274933661,11303.068647862428,-54.94698568729719,0.4299648953532359,-2.065725403956486,186.679,9174.609911748745,11300.678975010827,150,True,10.345810889806922,False,29.35326405790753,177.9980437635692,False,148.98201502641783,False,False
3,1970-07-23 10:17:10.939248462,2025-09-11,2025-09-26 20:38:13.924,HA,D,3323585600,JASSM,3,123,76,2,2,1,225,9,2,0,1,26,0,0,0,0,-121278.90105592164,-4791463.327223119,4198565.989714146,2.29618,-3.09845,0.0772743,-85.125,-3.5,-6.5,0.0,0.0,0.0,0.0,0.0,0.0,2,0,41.40842348873386,-91.44992986797124,10002.62402163029,-95.91210086885006,0.0048495702317124,0.0009493032038062,,9174.609911748745,11300.678975010827,150,3,2025-09-11,2025-09-26 20:38:13.824,HA,D,1727529424,HAWK11,1,1,73,2,1,1,225,2,1,0,0,12,1,225,2,1,-140392.02575858062,-4792872.807588424,4196976.276823521,2.41343,2.68236,-0.459907,-109.0,34.125,36.125,-0.296875,-7.6875,6.40625,0.0800781,-0.00195312,0.0078125,4,0,41.386202483177385,-91.6778186031827,11305.022609362624,-54.54860074827471,0.7571583673854764,1.28304324153932,186.838,9174.609911748745,11300.678975010827,150,True,10.341486680788481,False,29.32147014523415,178.10448360116504,False,149.1509085863816,False,False
3,1970-07-23 10:17:10.949287117,2025-09-11,2025-09-26 20:38:14.928,HA,D,3324719490,JASSM,3,123,76,2,2,1,225,9,2,0,1,26,0,0,0,0,-121359.95574342164,-4791466.818434057,4198559.706511021,2.29618,-3.09845,0.0772743,-85.125,-3.5,-6.5,0.0,0.0,0.0,0.0,0.0,0.0,2,0,41.40834809016808,-91.45089743310804,10002.625764602988,-95.91274083735138,0.005579164273623,0.0009495489290312,,9174.609911748745,11300.678975010827,150,3,2025-09-11,2025-09-26 20:38:14.842,HA,D,1728125922,HAWK11,1,1,73,2,1,1,225,2,1,0,0,12,1,225,2,1,-140446.52185233062,-4792855.919893111,4196994.427214146,2.45686,2.68034,-0.466522,-108.5,34.25,36.0,0.03125,-7.57812,6.59375,0.0878906,0.0,0.00976562,4,0,41.386415968188736,-91.67847542172808,11306.769007250638,-54.21509071041382,0.9646153521413768,3.725028978179061,186.923,9174.609911748745,11300.678975010827,150,True,10.325408146264355,False,29.414986224805553,178.17048509401357,False,149.13943942747977,False,False
3,1970-07-23 10:17:10.958327674,2025-09-11,2025-09-26 20:38:15.832,HA,D,3325853290,JASSM,3,123,76,2,2,1,225,9,2,0,1,26,0,0,0,0,-121441.00261842164,-4791470.308668432,4198553.423307896,2.29618,-3.09845,0.0772743,-85.125,-3.5,-6.5,0.0,0.0,0.0,0.0,0.0,0.0,2,0,41.40827269045451,-91.45186490294203,10002.628017817033,-95.91338074185931,0.006308688175939,0.0009497949240136,,9174.609911748745,11300.678975010827,150,3,2025-09-11,2025-09-26 20:38:15.729,HA,D,1729716588,HAWK11,1,1,73,2,1,1,225,2,1,0,0,12,1,225,2,1,-140591.32458670562,-4792809.837861861,4197043.257292271,2.51209,2.66874,-0.469206,-107.5,35.125,36.625,-0.09375,-7.01562,6.625,-0.00585938,0.00585938,0.015625,4,0,41.38699446416193,-91.6802211123841,11309.749183299034,-53.676460616202434,0.6756851436307627,6.597372181684632,186.923,9174.609911748745,11300.678975010827,150,True,10.35524571726907,False,30.073410800871446,178.35260273638468,False,148.71644720356537,False,False
3,1970-07-23 10:17:10.969189298,2025-09-11,2025-09-26 20:38:16.918,HA,D,3327046218,JASSM,3,123,76,2,2,1,225,9,2,0,1,26,0,0,0,0,-121526.27605592164,-4791473.979566869,4198546.810026646,2.29618,-3.09845,0.0773702,-85.125,-3.5,-6.5,0.0,0.0,0.0,0.0,0.0,0.0,2,0,41.40819334164976,-91.45288282393912,10002.62550327961,-95.91816432772528,0.0034320361548651,0.0009496850235739,,9174.609911748745,11300.678975010827,150,3,2025-09-11,2025-09-26 20:38:16.762,HA,D,1730432386,HAWK11,1,1,73,2,1,1,225,2,1,0,0,12,1,225,2,1,-140655.11755545562,-4792788.957979049,4197065.218229771,2.48562,2.65964,-0.476493,-107.25,35.75,37.0,-0.140625,-7.0,6.89062,-0.142578,0.00585938,0.00976562,4,0,41.387255782651486,-91.68099039031031,11310.616645402744,-53.05235262720371,0.6696762498781327,4.8510475239951445,187.204,9174.609911748745,11300.678975010827,150,True,10.341651591537648,False,30.426685837221683,178.42558469781156,False,148.46409444850474,False,False
3,1970-07-23 10:17:10.979208079,2025-09-11,2025-09-26 20:38:17.920,HA,D,3328298134,JASSM,3,123,76,2,2,1,225,9,2,0,1,26,0,0,0,0,-121615.76824342164,-4791477.831129369,4198539.868620396,2.29618,-3.09845,0.0773702,-85.125,-3.5,-6.5,0.0,0.0,0.0,0.0,0.0,0.0,2,0,41.40811005677798,-91.45395110237068,10002.62253099774,-95.91887090691353,0.0042375800438055,0.0009499082222307,,9174.609911748745,11300.678975010827,150,3,2025-09-11,2025-09-26 20:38:18.027,HA,D,1732500252,HAWK11,1,1,73,2,1,1,225,2,1,0,0,12,1,225,2,1,-140841.76208670562,-4792727.491182174,4197130.192839146,2.38956,2.65503,-0.475534,-107.75,35.875,37.875,0.21875,-6.90625,7.0,-0.00976562,-0.00585938,-0.0078125,4,0,41.388027427409526,-91.68324129962124,11313.807735774442,-52.91772239981549,0.4729527792266584,-0.7721690085264922,188.231,9174.609911748745,11300.678975010827,150,True,10.388417482287997,False,30.64427580929187,178.62772151038394,False,148.57191332634122,False,False
3,1970-07-23 10:17:10.990096636,2025-09-11,2025-09-26 20:38:19.009,HA,D,3329491414,JASSM,3,123,76,2,2,1,225,9,2,0,1,26,0,0,0,0,-121701.06511842164,-4791481.502027807,4198533.253386021,2.29618,-3.09845,0.0773702,-85.125,-3.5,-6.5,0.0,0.0,0.0,0.0,0.0,0.0,2,0,41.4080306727892,-91.45496929837184,10002.624954028435,-95.91954435956596,0.0050053602037934,0.0009501152243259,,9174.609911748745,11300.678975010827,150,3,2025-09-11,2025-09-26 20:38:19.135,HA,D,1733852316,HAWK11,1,1,73,2,1,1,225,2,1,0,0,12,1,225,2,1,-140965.58435233062,-4792686.804658736,4197173.235807896,2.38151,2.65043,-0.475918,-108.5,36.0,38.125,0.078125,-6.875,6.90625,0.0234375,0.0,0.0195312,4,0,41.388538360025535,-91.68473457731146,11316.027071148625,-52.730442772814605,0.332797747210899,-1.3527535678065534,188.622,9174.609911748745,11300.678975010827,150,True,10.405624788277507,False,30.605113852545532,178.73322105016132,False,148.8198777960915,False,False
3,1970-07-23 10:17:10.999287184,2025-09-11,2025-09-26 20:38:19.928,HA,D,3330684842,JASSM,3,123,76,2,2,1,225,9,2,0,1,26,0,0,0,0,-121786.37371217164,-4791485.171949682,4198526.636198521,2.29618,-3.09855,0.0773702,-85.125,-3.5,-6.5,0.0,0.0,0.0,0.0,0.0,0.0,2,0,41.40795127064449,-91.45598763223072,10002.625233969102,-95.9165857274624,0.0016764897683576,0.0013750089355041,,9174.609911748745,11300.678975010827,150,3,2025-09-11,2025-09-26 20:38:19.728,HA,D,1734568116,HAWK11,1,1,73,2,1,1,225,2,1,0,0,12,1,225,2,1,-141030.68982108062,-4792665.497041549,4197195.700651646,2.39061,2.65149,-0.477068,-108.75,36.0,38.125,-0.234375,-6.875,7.03125,0.015625,-0.00195312,-0.00195312,4,0,41.38880536444989,-91.68551971864466,11317.045291202809,-52.72644848611371,0.4183323775564696,-0.8030071936807225,188.903,9174.609911748745,11300.678975010827,150,True,10.392892091634586,False,30.553539042784976,178.77561069284764,False,148.97892841899187,False,False
3,1970-07-23 10:17:11.010873038,2025-09-11,2025-09-26 20:38:21.087,HA,D,3331937422,JASSM,3,123,76,2,2,1,225,9,2,0,1,26,0,0,0,0,-121875.91277467164,-4791489.023512182,4198519.688932896,2.29618,-3.09855,0.0773702,-85.125,-3.5,-6.5,0.0,0.0,0.0,0.0,0.0,0.0,2,0,41.40786791029786,-91.457056462891,10002.624524352,-95.91729266852242,0.0024824563769623,0.0013752863940664,,9174.609911748745,11300.678975010827,150,3,2025-09-11,2025-09-26 20:38:21.024,HA,D,1735999714,HAWK11,1,1,73,2,1,1,225,2,1,0,0,12,1,225,2,1,-141161.04919608062,-4792622.690400924,4197240.979948521,2.41746,2.65331,-0.476972,-109.25,36.25,38.375,0.078125,-6.89062,6.90625,0.0390625,0.0,0.00976562,4,0,41.38934282985595,-91.68709186072611,11319.38794750382,-52.79981169216941,0.4778672005474813,0.7827072907947606,189.331,9174.609911748745,11300.678975010827,150,True,10.411373840319708,False,30.601058665500467,178.8397489560211,False,149.14861505083047,False,False
3,1970-07-23 10:17:11.019249606,2025-09-11,2025-09-26 20:38:21.924,HA,D,3333070816,JASSM,3,123,76,2,2,1,225,9,2,0,1,26,0,0,0,0,-121956.93230592164,-4791492.506910619,4198513.403776646,2.29618,-3.09855,0.0773702,-85.125,-3.5,-6.5,0.0,0.0,0.0,0.0,0.0,0.0,2,0,41.407792490428015,-91.45802359379344,10002.625649535148,-95.91793234278872,0.0032117348578935,0.001375520138035,,9174.609911748745,11300.678975010827,150,3,2025-09-11,2025-09-26 20:38:21.728,HA,D,1736954114,HAWK11,1,1,73,2,1,1,225,2,1,0,0,12,1,225,2,1,-141248.55505545562,-4792593.826143111,4197271.476042271,2.4374,2.64602,-0.480903,-109.375,36.5,38.625,-0.234375,-6.875,6.82812,-0.0175781,-0.00976562,0.00585938,4,0,41.38970505706119,-91.68814724672548,11320.868098439576,-52.37470979280395,0.3968476681124836,1.7363435441644604,189.758,9174.609911748745,11300.678975010827,150,True,10.412565131492329,False,30.725038142072293,178.8602279201993,False,149.1703323412675,False,False
3,1970-07-23 10:17:11.029267044,2025-09-11,2025-09-26 20:38:22.926,HA,D,3334323352,JASSM,3,123,76,2,2,1,225,9,2,0,1,26,0,0,0,0,-122046.46746217164,-4791496.356519994,4198506.456511021,2.29618,-3.09855,0.0773702,-85.125,-3.5,-6.5,0.0,0.0,0.0,0.0,0.0,0.0,2,0,41.407709123381125,-91.45909237316282,10002.627792985732,-95.91863924769576,0.0040176658481105,0.0013757890834362,,9174.609911748745,11300.678975010827,150,3,2025-09-11,2025-09-26 20:38:22.824,HA,D,1738266412,HAWK11,1,1,73,2,1,1,225,2,1,0,0,12,1,225,2,1,-141370.07458670562,-4792553.253877486,4197313.985807896,2.37134,2.6371,-0.487039,-109.75,36.625,38.875,0.015625,-7.01562,6.98438,-0.0234375,-0.00195312,0.0,4,0,41.39021205009893,-91.68961305428157,11322.07656987594,-51.80435192631122,0.3570362120924938,-2.282116885805193,189.917,9174.609911748745,11300.678975010827,150,True,10.426722007036023,False,30.762731043169783,178.85985224026484,False,149.33785704338413,False,False
3,1970-07-23 10:17:11.042031841,2025-09-11,2025-09-26 20:38:24.203,HA,D,3335516066,JASSM,3,123,76,2,2,1,225,9,2,0,1,26,0,0,0,0,-122131.72527467164,-4791500.020582494,4198499.839323521,2.29618,-3.09855,0.0773702,-85.125,-3.5,-6.5,0.0,0.0,0.0,0.0,0.0,0.0,2,0,41.40762972731087,-91.46011009192478,10002.625722433751,-95.91931237934924,0.0047850959087268,0.0013760476345727,,9174.609911748745,11300.678975010827,150,3,2025-09-11,2025-09-26 20:38:24.204,HA,D,1739737778,HAWK11,1,1,73,2,1,1,225,2,1,0,0,12,1,225,2,1,-141506.17614920562,-4792507.476533736,4197361.804167271,2.37105,2.64065,-0.481574,-110.5,37.125,38.75,-0.125,-6.79688,6.875,0.0117188,0.00390625,-0.00585938,4,0,41.39078326123217,-91.69125490049667,11323.063448736732,-52.14842385505819,0.2454152180396552,-2.205465558485681,190.345,9174.609911748745,11300.678975010827,150,True,10.45083113067016,False,30.706807304482687,178.8180857398488,False,149.61400837120556,False,False
3,1970-07-23 10:17:11.049356647,2025-09-11,2025-09-26 20:38:24.935,HA,D,3336652716,JASSM,3,123,76,2,2,1,225,9,2,0,1,26,0,0,0,0,-122212.97527467164,-4791503.511793432,4198493.532682896,2.29618,-3.09855,0.0773702,-85.125,-3.5,-6.5,0.0,0.0,0.0,0.0,0.0,0.0,2,0,41.40755405528418,-91.4610799674851,10002.624629746062,-95.9199538659356,0.0055164506301931,0.0013762938913053,,9174.609911748745,11300.678975010827,150,3,2025-09-11,2025-09-26 20:38:24.823,HA,D,1740572876,HAWK11,1,1,73,2,1,1,225,2,1,0,0,12,1,225,2,1,-141583.69568045562,-4792481.459932174,4197388.755339146,2.38141,2.64123,-0.484738,-110.75,37.125,38.625,-0.0625,-6.5625,6.51562,0.0429688,-0.0175781,0.0078125,4,0,41.39110633528434,-91.6921900415422,11323.15289937014,-52.04956773050114,0.4004959828538998,-1.596144982899655,190.663,9174.609911748745,11300.678975010827,150,True,10.447000246436927,False,30.616423990336912,178.7745079368112,False,149.8326947720645,False,False
3,1970-07-23 10:17:11.060069358,2025-09-11,2025-09-26 20:38:26.006,HA,D,3337842738,JASSM,3,123,76,2,2,1,225,9,2,0,1,26,0,0,0,0,-122298.04168092164,-4791507.167066869,4198486.929167271,2.29618,-3.09855,0.0773702,-85.125,-3.5,-6.5,0.0,0.0,0.0,0.0,0.0,0.0,2,0,41.40747481528738,-91.46209539678442,10002.625934615196,-95.92062548124304,0.0062821584155252,0.0013765565308558,,9174.609911748745,11300.678975010827,150,3,2025-09-11,2025-09-26 20:38:26.024,HA,D,1741845408,HAWK11,1,1,73,2,1,1,225,2,1,0,0,12,1,225,2,1,-141701.24255545562,-4792440.995088424,4197429.030729771,2.5257,2.61649,-0.473233,-110.75,39.0,37.625,-0.234375,-5.4375,5.14062,0.160156,-0.00585938,-0.00195312,4,0,41.391598251513095,-91.69360842024616,11319.515464216203,-51.548325968814055,-0.9266043477595728,6.015815201156946,190.822,9174.609911748745,11300.678975010827,150,True,10.461889251450394,False,30.828371509720828,178.69165082635197,False,149.77931094124122,False,False
3,1970-07-23 10:17:11.070067950,2025-09-11,2025-09-26 20:38:27.006,HA,D,3339095360,JASSM,3,123,76,2,2,1,225,9,2,0,1,26,0,0,0,0,-122387.58464967164,-4791511.012769994,4198479.977995396,2.29618,-3.09855,0.0773702,-85.125,-3.5,-6.5,0.0,0.0,0.0,0.0,0.0,0.0,2,0,41.40739140610424,-91.46316426029055,10002.626287060302,-95.92133243734006,0.0070881604309308,0.0013768225912618,,9174.609911748745,11300.678975010827,150,3,2025-09-11,2025-09-26 20:38:26.932,HA,D,1743117940,HAWK11,1,1,73,2,1,1,225,2,1,0,0,12,1,225,2,1,-141819.32263358062,-4792397.382783736,4197468.743620396,2.69961,2.59003,-0.469878,-109.875,41.5,37.125,0.0,-5.65625,4.76562,0.158203,-0.0117188,0.0351562,4,0,41.39210497917544,-91.6950343025672,11306.96194236662,-50.65485260958871,-1.955867660284368,15.269432701698886,190.736,9174.609911748745,11300.678975010827,150,False,10.474742560936837,False,31.577588528899362,178.589492518611,False,149.19207616440994,False,False
3,1970-07-23 10:17:11.080288341,2025-09-11,2025-09-26 20:38:28.028,HA,D,3340347904,JASSM,3,123,76,2,2,1,225,9,2,0,1,26,0,0,0,0,-122477.11980592164,-4791514.857496557,4198473.026823521,2.29618,-3.09855,0.077466,-85.125,-3.5,-6.5,0.0,0.0,0.0,0.0,0.0,0.0,2,0,41.40730799399015,-91.46423302800162,10002.627894908725,-95.92614966902408,0.0042499014712183,0.001376653329998,,9174.609911748745,11300.678975010827,150,3,2025-09-11,2025-09-26 20:38:28.028,HA,D,1744430238,HAWK11,1,1,73,2,1,1,225,2,1,0,0,12,1,225,2,1,-141939.83825858062,-4792348.915986861,4197509.192839146,2.86452,2.54478,-0.473041,-108.125,45.25,36.75,-0.140625,-5.92188,4.67188,0.105469,-0.00585938,0.0332031,4,0,41.39264510514006,-91.69649101928742,11284.249181413168,-48.76700418593823,-3.29943905614957,23.45360012479797,190.345,9174.609911748745,11300.678975010827,150,False,10.488943053729724,False,32.95633789659797,178.46641811885746,False,147.9739612944072,False,False
3,1970-07-23 10:17:11.090307874,2025-09-11,2025-09-26 20:38:29.030,HA,D,3341600602,JASSM,3,123,76,2,2,1,225,9,2,0,1,26,0,0,0,0,-122566.66668092164,-4791518.701246557,4198466.071745396,2.29618,-3.09864,0.077466,-85.125,-3.5,-6.5,0.0,0.0,0.0,0.0,0.0,0.0,2,0,41.40722454960763,-91.46530193331508,10002.623509616744,-95.92321549802745,0.0009489965884576,0.0018030984207945,,9174.609911748745,11300.678975010827,150,3,2025-09-11,2025-09-26 20:38:29.026,HA,D,1745583470,HAWK11,1,1,73,2,1,1,225,2,1,0,0,12,1,225,2,1,-142044.95349295562,-4792302.034150924,4197545.401823521,2.94131,2.51199,-0.46518,-106.125,49.125,37.125,-0.203125,-6.28125,5.0625,0.0566406,-0.00390625,0.0410156,4,0,41.39314987568272,-91.69776323977102,11255.12350742396,-47.74335499964025,-4.700659050965026,26.933011945958807,189.685,9174.609911748745,11300.678975010827,150,False,10.49517499999405,False,34.6846023600243,178.34031398284648,False,146.40236662225382,False,False
3,1970-07-23 10:17:11.100353509,2025-09-11,2025-09-26 20:38:30.035,HA,D,3342793650,JASSM,3,123,76,2,2,1,225,9,2,0,1,26,0,0,0,0,-122651.94793092164,-4791522.361402807,4198459.448698521,2.29618,-3.09864,0.077466,-85.125,-3.5,-6.5,0.0,0.0,0.0,0.0,0.0,0.0,2,0,41.40714507873154,-91.46631991822076,10002.623540706663,-95.92388879926784,0.0017166385997304,0.001803348893934,,9174.609911748745,11300.678975010827,150,3,2025-09-11,2025-09-26 20:38:30.024,HA,D,1746856002,HAWK11,1,1,73,2,1,1,225,2,1,0,0,12,1,225,2,1,-142157.21130545562,-4792246.892549361,4197585.636198521,3.03057,2.4745,-0.463646,-103.625,53.375,38.5,-0.28125,-7.10938,5.78125,0.078125,0.015625,0.03125,4,0,41.393729677215504,-91.69912373126525,11214.93886987079,-46.27576938096358,-5.947515242254192,30.949051909945734,189.331,9174.609911748745,11300.678975010827,150,False,10.507447017750883,False,36.9346212527259,178.1862128795491,False,144.34794131397328,False,False
3,1970-07-23 10:17:11.111207481,2025-09-11,2025-09-26 20:38:31.120,HA,D,3343987004,JASSM,3,123,76,2,2,1,225,9,2,0,1,26,0,0,0,0,-122737.25261842164,-4791526.021559057,4198452.823698521,2.29618,-3.09864,0.077466,-85.125,-3.5,-6.5,0.0,0.0,0.0,0.0,0.0,0.0,2,0,41.407065582091946,-91.4673381807208,10002.62457380865,-95.92456228304808,0.0024844912939379,0.0018035943851733,,9174.609911748745,11300.678975010827,150,3,2025-09-11,2025-09-26 20:38:31.024,HA,D,1747969468,HAWK11,1,1,73,2,1,1,225,2,1,0,0,12,1,225,2,1,-142254.41638358062,-4792194.194307174,4197623.087370396,3.08819,2.4444,-0.462975,-101.0,57.25,40.375,-0.09375,-7.57812,6.40625,0.0410156,0.0214844,0.0488281,4,0,41.39427880029121,-91.70030357265928,11173.636752205806,-45.05737295734692,-6.9028154732329305,33.343315022583404,189.221,9174.609911748745,11300.678975010827,150,False,10.511889719111405,False,39.235701027577875,178.03046987142415,False,142.24189310775904,False,False
3,1970-07-23 10:17:11.120247552,2025-09-11,2025-09-26 20:38:32.024,HA,D,3345120398,JASSM,3,123,76,2,2,1,225,9,2,0,1,26,0,0,0,0,-122818.26824342164,-4791529.497144994,4198446.530729771,2.29618,-3.09864,0.077466,-85.125,-3.5,-6.5,0.0,0.0,0.0,0.0,0.0,0.0,2,0,41.40699007014212,-91.46830524353172,10002.62539220228,-95.92520190212008,0.0032137374158542,0.0018038315347222,,9174.609911748745,11300.678975010827,150,3,2025-09-11,2025-09-26 20:38:32.134,HA,D,1749281768,HAWK11,1,1,73,2,1,1,225,2,1,0,0,12,1,225,2,1,-142364.25036795562,-4792128.159150924,4197669.753386021,-3.1345,2.40384,-0.468631,-97.25,62.125,43.625,-0.0625,-8.23438,6.96875,0.0449219,0.0332031,0.0351562,4,0,41.39496721964785,-91.70163903211149,11120.44536282124,-43.168657274126986,-7.851961457325739,35.52332302937282,189.135,9174.609911748745,11300.678975010827,150,False,10.525195462960575,False,42.45544108846282,177.82762928613755,False,139.27484765292172,False,False
3,1970-07-23 10:17:11.134139889,2025-09-11,2025-09-26 20:38:33.413,HA,D,3346254168,JASSM,3,123,76,2,2,1,225,9,2,0,1,26,0,0,0,0,-122899.31511842164,-4791532.973707494,4198440.233854771,2.29618,-3.09864,0.077466,-85.125,-3.5,-6.5,0.0,0.0,0.0,0.0,0.0,0.0,2,0,41.40691451311563,-91.46927267723652,10002.625504517096,-95.9258417655426,0.0039432657280887,0.0018040765723016,,9174.609911748745,11300.678975010827,150,3,2025-09-11,2025-09-26 20:38:33.024,HA,D,1750435000,HAWK11,1,1,73,2,1,1,225,2,1,0,0,12,1,225,2,1,-142457.97693045562,-4792065.631807174,4197714.407682896,-3.08896,2.36578,-0.47841,-93.75,66.0,47.125,-0.140625,-8.54688,7.26562,0.03125,0.0253906,0.046875,4,0,41.39562402937702,-91.70278086420574,11070.350459832114,-41.23280250104566,-8.487948278494686,36.86293500795438,189.294,9174.609911748745,11300.678975010827,150,False,10.530119278783157,False,45.3527143886261,177.6252729765756,False,136.62885348251137,False,False
3,1970-07-23 10:17:11.139334776,2025-09-11,2025-09-26 20:38:33.933,HA,D,3347447034,JASSM,3,123,76,2,2,1,225,9,2,0,1,26,0,0,0,0,-122984.58464967164,-4791536.629957494,4198433.608854771,2.29618,-3.09864,0.077466,-85.125,-3.5,-6.5,0.0,0.0,0.0,0.0,0.0,0.0,2,0,41.406835018955576,-91.47029051362242,10002.625627877618,-95.926514964407,0.0047108029787928,0.0018043261441941,,9174.609911748745,11300.678975010827,150,3,2025-09-11,2025-09-26 20:38:33.930,HA,D,1751508698,HAWK11,1,1,73,2,1,1,225,2,1,0,0,12,1,225,2,1,-142542.22302420562,-4792002.809541549,4197759.688932896,-3.04466,2.32599,-0.491545,-89.875,69.875,50.875,-0.25,-9.29688,7.78125,0.0273438,0.0390625,0.0371094,4,0,41.39628849506594,-91.70380957614918,11020.20387271006,-39.10897268043675,-8.960023556288672,38.01577052943182,189.526,9174.609911748745,11300.678975010827,150,False,10.52784324406729,False,48.38792437583233,177.41415645403387,False,133.84797184612418,False,False
3,1970-07-23 10:17:11.155245984,2025-09-11,2025-09-26 20:38:35.524,HA,D,3348579892,JASSM,3,123,76,2,2,1,225,9,2,0,1,26,0,0,0,0,-123065.56511842164,-4791540.101637182,4198427.315886021,2.29618,-3.09864,0.077466,-85.125,-3.5,-6.5,0.0,0.0,0.0,0.0,0.0,0.0,2,0,41.40675951080643,-91.47125715068282,10002.624984586697,-95.92715429895884,0.0054397336561564,0.0018045673693713,,9174.609911748745,11300.678975010827,150,3,2025-09-11,2025-09-26 20:38:35.526,HA,D,1753218662,HAWK11,1,1,73,2,1,1,225,2,1,0,0,12,1,225,2,1,-142667.18005545562,-4791896.862275924,4197838.778776646,-2.9811,2.24958,-0.532867,-82.75,74.25,58.375,-0.296875,-10.5312,8.95312,0.0273438,0.0605469,0.0527344,4,0,41.397430503088266,-91.70533998951387,10940.306212122896,-34.565004109565045,-8.898427934881457,38.80522576200764,189.49,9174.609911748745,11300.678975010827,150,False,10.54905245978683,False,53.34919578490283,177.04993336379556,False,129.33663016361817,False,False
3,1970-07-23 10:17:11.158265660,2025-09-11,2025-09-26 20:38:35.826,HA,D,3349653668,JASSM,3,123,76,2,2,1,225,9,2,0,1,26,0,0,0,0,-123142.31902467164,-4791543.390699682,4198421.351042271,2.29618,-3.09864,0.077466,-85.125,-3.5,-6.5,0.0,0.0,0.0,0.0,0.0,0.0,2,0,41.40668794241142,-91.4721733350356,10002.623314928152,-95.927760263164,0.0061306193984611,0.0018047897309158,,9174.609911748745,11300.678975010827,150,3,2025-09-11,2025-09-26 20:38:35.822,HA,D,1753616330,HAWK11,1,1,73,2,1,1,225,2,1,0,0,12,1,225,2,1,-142693.59997733062,-4791871.944307174,4197858.081511021,-2.95886,2.22398,-0.548973,-80.0,76.375,59.875,-0.296875,-11.125,9.29688,0.0273438,0.0507812,0.0566406,4,0,41.39770435374015,-91.70566447182073,10922.821616653866,-32.99936580398165,-8.703542230837712,39.08480941519077,189.38,9174.609911748745,11300.678975010827,150,False,10.521391743475997,False,55.0674644238143,176.9519197058264,False,127.72122184919638,False,False
3,1970-07-23 10:17:11.167305197,2025-09-11,2025-09-26 20:38:36.730,HA,D,3350787060,JASSM,3,123,76,2,2,1,225,9,2,0,1,26,0,0,0,0,-123223.33855592164,-4791546.862379369,4198415.054167271,2.29618,-3.09864,0.077466,-85.125,-3.5,-6.5,0.0,0.0,0.0,0.0,0.0,0.0,2,0,41.40661238609789,-91.47314043452384,10002.623276110822,-95.9283999016982,0.0068599016699317,0.0018050270271655,,9174.609911748745,11300.678975010827,150,3,2025-09-11,2025-09-26 20:38:36.728,HA,D,1754849094,HAWK11,1,1,73,2,1,1,225,2,1,0,0,12,1,225,2,1,-142773.57849295562,-4791789.563447799,4197924.739714146,-2.88897,2.14776,-0.597294,-72.0,79.5,66.5,-0.40625,-12.2969,10.6406,0.0273438,0.0800781,0.0507812,4,0,41.39863021292742,-91.70664923965629,10870.647648188806,-28.425080588818577,-7.910206677734831,40.05854378854739,189.221,9174.609911748745,11300.678975010827,150,False,10.5192912245127,False,59.83456767726651,176.6450161261634,False,123.3170153907769,False,False
3,1970-07-23 10:17:11.176348834,2025-09-11,2025-09-26 20:38:37.634,HA,D,3351861100,JASSM,3,123,76,2,2,1,225,9,2,0,1,26,0,0,0,0,-123300.11199342164,-4791550.151441869,4198409.087370396,2.29618,-3.09864,0.077466,-85.125,-3.5,-6.5,0.0,0.0,0.0,0.0,0.0,0.0,2,0,41.40654078653112,-91.47405684813651,10002.624870863285,-95.9290060157654,0.0075509632177307,0.0018052474511614,,9174.609911748745,11300.678975010827,150,3,2025-09-11,2025-09-26 20:38:37.634,HA,D,1755922794,HAWK11,1,1,73,2,1,1,225,2,1,0,0,12,1,225,2,1,-142834.48474295562,-4791716.738252486,4197987.497526646,-2.81984,2.07672,-0.638615,-64.0,81.625,72.625,-0.5,-12.9219,11.2812,0.0273438,0.0761719,0.0507812,4,0,41.399476276993866,-91.70740278752638,10832.127750044638,-24.39573280612773,-7.1063088145466935,41.1330020213289,189.221,9174.609911748745,11300.678975010827,150,False,10.509616473556122,False,64.30917153197785,176.36028876877438,False,119.1721843342533,False,False
3,1970-07-23 10:17:11.186224908,2025-09-11,2025-09-26 20:38:38.622,HA,D,3352994196,JASSM,3,123,76,2,2,1,225,9,2,0,1,26,0,0,0,0,-123381.10808717164,-4791553.621168432,4198402.790495396,2.29618,-3.09874,0.0775619,-85.125,-3.5,-6.5,0.0,0.0,0.0,0.0,0.0,0.0,2,0,41.40646522959785,-91.47502366378882,10002.62515818914,-95.93012377240396,0.0005391258563193,0.0022306941905762,,9174.609911748745,11300.678975010827,150,3,2025-09-11,2025-09-26 20:38:38.822,HA,D,1757076026,HAWK11,1,1,73,2,1,1,225,2,1,0,0,12,1,225,2,1,-142891.72107108062,-4791635.958955611,4198061.503386021,-2.74362,1.98382,-0.693263,-54.0,82.875,79.0,-0.578125,-14.2344,12.5469,0.0117188,0.0996094,0.0507812,4,0,41.40044623703283,-91.70811534762495,10798.183651612702,-19.342050313256596,-5.663519360274866,41.64657837004392,189.025,9174.609911748745,11300.678975010827,150,False,10.4958502986694,False,69.47076673788402,176.03177999319294,False,114.38241711284853,False,False
3,1970-07-23 10:17:11.195285155,2025-09-11,2025-09-26 20:38:39.528,HA,D,3354067938,JASSM,3,123,76,2,2,1,225,9,2,0,1,26,0,0,0,0,-123457.86199342164,-4791556.908277807,4198396.823698521,2.29618,-3.09874,0.0775619,-85.125,-3.5,-6.5,0.0,0.0,0.0,0.0,0.0,0.0,2,0,41.40639362964675,-91.4759398404738,10002.62697812123,-95.9307297280271,0.0012300122450908,0.0022309124054039,,9174.609911748745,11300.678975010827,150,3,2025-09-11,2025-09-26 20:38:39.430,HA,D,1757871358,HAWK11,1,1,73,2,1,1,225,2,1,0,0,12,1,225,2,1,-142924.81482108062,-4791579.273408736,4198116.460417271,-2.68188,1.91172,-0.731134,-45.875,83.25,83.75,-0.34375,-14.2969,12.6875,0.015625,0.0761719,0.0644531,4,0,41.40114856194944,-91.7085309131465,10780.412339997778,-15.697238429645596,-4.523653028056333,42.15985216905394,188.793,9174.609911748745,11300.678975010827,150,False,10.471848252559191,False,73.52749354254277,175.78798925723808,False,110.59778017277351,False,False
3,1970-07-23 10:17:11.204333045,2025-09-11,2025-09-26 20:38:40.433,HA,D,3355142276,JASSM,3,123,76,2,2,1,225,9,2,0,1,26,0,0,0,0,-123534.65886842164,-4791560.196363744,4198390.851042271,2.29618,-3.09874,0.0775619,-85.125,-3.5,-6.5,0.0,0.0,0.0,0.0,0.0,0.0,2,0,41.40632197044565,-91.47685652830972,10002.624259450606,-95.93133602086093,0.0019212868422391,0.0022311425506009,,9174.609911748745,11300.678975010827,150,3,2025-09-11,2025-09-26 20:38:40.324,HA,D,1759064356,HAWK11,1,1,73,2,1,1,225,2,1,0,0,12,1,225,2,1,-142963.48474295562,-4791494.955049361,4198203.571745396,-2.57105,1.79054,-0.775427,-33.375,83.0,89.375,-0.390625,-14.25,12.5312,0.0195312,0.109375,0.0488281,4,0,41.40223133530497,-91.70902295755484,10764.84887986794,-10.175154274104315,-3.2162272582016893,43.38327375727753,188.475,9174.609911748745,11300.678975010827,150,False,10.450902437740266,False,79.49686936889866,175.41821887954362,False,105.0289066640155,False,False
3,1970-07-23 10:17:11.213225610,2025-09-11,2025-09-26 20:38:41.322,HA,D,3356216052,JASSM,3,123,76,2,2,1,225,9,2,0,1,26,0,0,0,0,-123611.41668092164,-4791563.481519994,4198384.882292271,2.29618,-3.09874,0.0775619,-85.125,-3.5,-6.5,0.0,0.0,0.0,0.0,0.0,0.0,2,0,41.40625035373723,-91.4777727482499,10002.623383099868,-95.93194200336931,0.0026122087436397,0.0022313593059901,,9174.609911748745,11300.678975010827,150,3,2025-09-11,2025-09-26 20:38:41.228,HA,D,1760177822,HAWK11,1,1,73,2,1,1,225,2,1,0,0,12,1,225,2,1,-142989.10193045562,-4791418.375947799,4198289.647917271,-2.47115,1.65306,-0.814544,-21.625,80.875,93.625,-0.3125,-14.1094,12.4531,0.0,0.0859375,0.0625,4,0,41.40326339611691,-91.70935631370452,10765.126298948437,-4.404264250622004,-1.7416391027363487,43.228839034261945,188.231,9174.609911748745,11300.678975010827,150,False,10.423342116757265,False,84.92549192765249,175.06151117893168,False,99.981612429272,False,False
3,1970-07-23 10:17:11.223284618,2025-09-11,2025-09-26 20:38:42.328,HA,D,3357408750,JASSM,3,123,76,2,2,1,225,9,2,0,1,26,0,0,0,0,-123696.67449342164,-4791567.129957494,4198378.253386021,2.29618,-3.09874,0.0775619,-85.125,-3.5,-6.5,0.0,0.0,0.0,0.0,0.0,0.0,2,0,41.40617080629807,-91.47879042627302,10002.6264878141,-95.93261508865072,0.0033796411429253,0.0022315916228658,,9174.609911748745,11300.678975010827,150,3,2025-09-11,2025-09-26 20:38:42.433,HA,D,1761450354,HAWK11,1,1,73,2,1,1,225,2,1,0,0,12,1,225,2,1,-143000.95544608062,-4791329.859346236,4198390.464323521,-2.35485,1.5104,-0.841772,-6.75,79.625,96.375,-0.4375,-13.9375,12.2188,-0.00585938,0.09375,0.0507812,4,0,41.40446841646053,-91.70952949499282,10767.021404156942,1.1664433704241806,-0.3521807783731249,43.76348369888336,187.363,9174.609911748745,11300.678975010827,150,False,10.384312040078015,False,91.77064838882308,174.6437479831004,False,93.56697398900647,False,False
3,1970-07-23 10:17:11.233285968,2025-09-11,2025-09-26 20:38:43.328,HA,D,3358601514,JASSM,3,123,76,2,2,1,225,9,2,0,1,26,0,0,0,0,-123781.93621217164,-4791570.778394994,4198371.620573521,2.29618,-3.09874,0.0775619,-85.125,-3.5,-6.5,0.0,0.0,0.0,0.0,0.0,0.0,2,0,41.40609122288885,-91.4798081484914,10002.625125843402,-95.93328820209788,0.0041471111632672,0.0022318471785279,,9174.609911748745,11300.678975010827,150,3,2025-09-11,2025-09-26 20:38:43.024,HA,D,1762245686,HAWK11,1,1,73,2,1,1,225,2,1,0,0,12,1,225,2,1,-143002.53943045562,-4791277.448213424,4198455.632292271,-2.28659,1.40724,-0.852606,1.625,77.25,97.625,-0.5,-13.6094,11.9531,-0.0117188,0.078125,0.0429688,4,0,41.405219829606,-91.70956710919032,10779.626996082228,5.03328073685583,0.5083926084468978,43.24861260414366,187.045,9174.609911748745,11300.678975010827,150,False,10.339847318238325,False,95.62800234545617,174.37077182229316,False,89.99109243161608,False,False
3,1970-07-23 10:17:11.242324796,2025-09-11,2025-09-26 20:38:44.232,HA,D,3359734910,JASSM,3,123,76,2,2,1,225,9,2,0,1,26,0,0,0,0,-123862.95183717164,-4791574.243238744,4198365.319792271,2.29618,-3.09874,0.0775619,-85.125,-3.5,-6.5,0.0,0.0,0.0,0.0,0.0,0.0,2,0,41.40601561730742,-91.48077518571046,10002.626361636389,-95.93392779190266,0.0048763587193393,0.0022320672567502,,9174.609911748745,11300.678975010827,150,3,2025-09-11,2025-09-26 20:38:44.228,HA,D,1763756818,HAWK11,1,1,73,2,1,1,225,2,1,0,0,12,1,225,2,1,-142988.05896170562,-4791180.168916549,4198579.259245396,-2.14163,1.23227,-0.851359,17.125,73.125,98.125,-0.46875,-12.5625,10.9688,0.00585938,0.0742188,0.046875,4,0,41.40663562532182,-91.70942878740928,10807.548301135588,11.552967293088503,1.524686812335288,44.11711066453227,186.654,9174.609911748745,11300.678975010827,150,False,10.290050489761148,False,102.86879638152385,173.87542456184582,False,83.25338609444553,False,False
3,1970-07-23 10:17:11.252207630,2025-09-11,2025-09-26 20:38:45.220,HA,D,3360808650,JASSM,3,123,76,2,2,1,225,9,2,0,1,26,0,0,0,0,-123939.70574342164,-4791577.525465307,4198359.347136021,2.29608,-3.09874,0.0775619,-85.125,-3.5,-6.5,0.0,0.0,0.0,0.0,0.0,0.0,2,0,41.40594396105815,-91.48169135126896,10002.622593021748,-95.93453373475668,0.005567247370821,-0.0032591761231662,,9174.609911748745,11300.678975010827,150,3,2025-09-11,2025-09-26 20:38:45.134,HA,D,1764870284,HAWK11,1,1,73,2,1,1,225,2,1,0,0,12,1,225,2,1,-142965.09411795562,-4791112.012666549,4198668.522917271,-2.0493,1.11674,-0.83602,27.875,70.5,96.625,-0.296875,-11.75,10.4688,-0.00390625,0.0566406,0.0625,4,0,41.40764771038145,-91.70917870376203,10831.922654321246,16.027732985310738,1.8622009875154848,44.59155466026067,186.056,9174.609911748745,11300.678975010827,150,False,10.238020771186838,False,108.0279832542799,173.51096244090564,False,78.460145956796,False,False
3,1970-07-23 10:17:11.260268116,2025-09-11,2025-09-26 20:38:46.026,HA,D,3361882740,JASSM,3,123,76,2,2,1,225,9,2,0,1,26,0,0,0,0,-124016.48699342164,-4791580.808668432,4198353.374479771,2.29608,-3.09874,0.0775619,-85.125,-3.5,-6.5,0.0,0.0,0.0,0.0,0.0,0.0,2,0,41.405872287491256,-91.48260784125902,10002.626016072314,-95.93513989132556,0.0062583806024475,-0.0032589627323359,,9174.609911748745,11300.678975010827,150,3,2025-09-11,2025-09-26 20:38:46.026,HA,D,1765705384,HAWK11,1,1,73,2,1,1,225,2,1,0,0,12,1,225,2,1,-142940.78357108062,-4791061.065400924,4198735.923307896,-1.99389,1.03582,-0.817804,35.75,68.625,95.25,-0.328125,-11.25,10.2188,-0.0195312,0.0625,0.0644531,4,0,41.40841007431092,-91.70890639947798,10851.087950870957,19.336674791697565,1.9359570740307208,44.46379103215872,185.848,9174.609911748745,11300.678975010827,150,False,10.185161125516775,False,111.84993834760569,173.22666201170796,False,74.92304842668241,False,False
3,1970-07-23 10:17:11.270284616,2025-09-11,2025-09-26 20:38:47.028,HA,D,3363075440,JASSM,3,123,76,2,2,1,225,9,2,0,1,26,0,0,0,0,-124101.74089967164,-4791584.453199682,4198346.739714146,2.29608,-3.09874,0.0775619,-85.125,-3.5,-6.5,0.0,0.0,0.0,0.0,0.0,0.0,2,0,41.40579268157696,-91.48362546201167,10002.624418957936,-95.93581293367488,0.0070257807531247,-0.003258711104092,,9174.609911748745,11300.678975010827,150,3,2025-09-11,2025-09-26 20:38:46.930,HA,D,1766858616,HAWK11,1,1,73,2,1,1,225,2,1,0,0,12,1,225,2,1,-142900.04138358062,-4790995.129854049,4198824.954557896,-1.92371,0.934865,-0.79163,45.5,65.75,92.75,-0.234375,-10.5625,10.2344,0.0,0.0527344,0.0449219,4,0,41.40941052727944,-91.7084430992675,10879.127514070862,23.61480417096501,2.1475113041258167,44.46687837747543,185.493,9174.609911748745,11300.678975010827,150,False,10.119718358804004,False,116.72950187299699,172.85419361719616,False,70.4162844417902,False,False
3,1970-07-23 10:17:11.279353009,2025-09-11,2025-09-26 20:38:47.935,HA,D,3364149456,JASSM,3,123,76,2,2,1,225,9,2,0,1,26,0,0,0,0,-124178.51433717164,-4791587.734449682,4198340.765104771,2.29608,-3.09883,0.0775619,-85.125,-3.5,-6.5,0.0,0.0,0.0,0.0,0.0,0.0,2,0,41.40572099224537,-91.4845418549984,10002.62473907258,-95.93278699519306,0.003620068229336,-0.0028326286508852,,9174.609911748745,11300.678975010827,150,3,2025-09-11,2025-09-26 20:38:47.822,HA,D,1768011848,HAWK11,1,1,73,2,1,1,225,2,1,0,0,12,1,225,2,1,-142849.84997733062,-4790931.277314986,4198911.374479771,-1.85669,0.841964,-0.755198,54.625,63.0,89.875,-0.34375,-9.73438,9.67188,0.00390625,0.0566406,0.0664062,4,0,41.41038263334402,-91.70786613906316,10905.937558102432,27.95823409099478,2.026298992116,44.74440943373912,185.408,9174.609911748745,11300.678975010827,150,False,10.05408748318522,False,121.37994219310079,172.48925391761844,False,66.13077238744296,False,False
3,1970-07-23 10:17:11.289206034,2025-09-11,2025-09-26 20:38:48.920,HA,D,3365282576,JASSM,3,123,76,2,2,1,225,9,2,0,1,26,0,0,0,0,-124259.51433717164,-4791591.195387182,4198334.460417271,2.29608,-3.09883,0.0775619,-85.125,-3.5,-6.5,0.0,0.0,0.0,0.0,0.0,0.0,2,0,41.405645346162,-91.48550869573562,10002.62351807748,-95.93342645035813,0.0043491775000756,-0.002832347101521,,9174.609911748745,11300.678975010827,150,3,2025-09-11,2025-09-26 20:38:49.024,HA,D,1769443446,HAWK11,1,1,73,2,1,1,225,2,1,0,0,12,1,225,2,1,-142775.87732108062,-4790854.790010299,4199013.683073521,-1.77491,0.74772,-0.698441,65.125,60.25,85.0,-0.203125,-8.73438,8.78125,0.0,0.0410156,0.046875,4,0,41.41154136534088,-91.70700950582722,10934.41757803574,33.08791598257737,1.2842688123844554,45.98731919300054,185.775,9174.609911748745,11300.678975010827,150,False,9.974421928325219,False,126.92550197799582,172.05134459151006,False,61.02312979176927,False,False
3,1970-07-23 10:17:11.298264614,2025-09-11,2025-09-26 20:38:49.826,HA,D,3366356590,JASSM,3,123,76,2,2,1,225,9,2,0,1,26,0,0,0,0,-124336.28777467164,-4791594.474684057,4198328.485807896,2.29608,-3.09883,0.0776578,-85.125,-3.5,-6.5,0.0,0.0,0.0,0.0,0.0,0.0,2,0,41.40557365345171,-91.48642508518718,10002.625301459437,-95.93814295851485,0.0013961420036729,-0.0028323247180932,,9174.609911748745,11300.678975010827,150,3,2025-09-11,2025-09-26 20:38:49.931,HA,D,1770437612,HAWK11,1,1,73,2,1,1,225,2,1,0,0,12,1,225,2,1,-142716.78747733062,-4790802.645479049,4199080.679167271,-1.75574,0.701413,-0.659612,72.0,59.125,81.0,-0.09375,-8.40625,8.4375,-0.00195312,0.0429688,0.0644531,4,0,41.41231427700694,-91.70632201412704,10947.233434946536,36.033419241250265,0.5507058097874299,45.46633449980443,186.056,9174.609911748745,11300.678975010827,150,False,9.904239410917553,False,130.58422664017525,171.7443561865608,False,57.67034874225263,False,False
3,1970-07-23 10:17:11.307306756,2025-09-11,2025-09-26 20:38:50.730,HA,D,3367490584,JASSM,3,123,76,2,2,1,225,9,2,0,1,26,0,0,0,0,-124417.34636842164,-4791597.936598119,4198322.175261021,2.29608,-3.09883,0.0776578,-85.125,-3.5,-6.5,0.0,0.0,0.0,0.0,0.0,0.0,2,0,41.405497937126725,-91.48739262141814,10002.624124121608,-95.9387828718158,0.002125779054408,-0.002832095604071,,9174.609911748745,11300.678975010827,150,3,2025-09-11,2025-09-26 20:38:50.822,HA,D,1771511310,HAWK11,1,1,73,2,1,1,225,2,1,0,0,12,1,225,2,1,-142647.65271170562,-4790748.278291549,4199149.431120396,-1.71633,0.646189,-0.609086,78.625,57.5,76.5,-0.328125,-8.32812,8.35938,0.0078125,0.0332031,0.0488281,4,0,41.41311403900593,-91.7055152702758,10957.663354810193,39.77958467578157,-0.3657564553936705,45.85398886624348,186.129,9174.609911748745,11300.678975010827,150,False,9.826772974034803,False,134.3017611054192,171.4204009799274,False,54.27404200570763,False,False
3,1970-07-23 10:17:11.317362292,2025-09-11,2025-09-26 20:38:51.736,HA,D,3368623344,JASSM,3,123,76,2,2,1,225,9,2,0,1,26,0,0,0,0,-124498.31902467164,-4791601.394605932,4198315.870573521,2.29608,-3.09883,0.0776578,-85.125,-3.5,-6.5,0.0,0.0,0.0,0.0,0.0,0.0,2,0,41.40542228874624,-91.48835912970723,10002.62395894018,-95.9394221042915,0.0028546430507232,-0.0028318625249775,,9174.609911748745,11300.678975010827,150,3,2025-09-11,2025-09-26 20:38:51.728,HA,D,1772704310,HAWK11,1,1,73,2,1,1,225,2,1,0,0,12,1,225,2,1,-142564.10193045562,-4790689.994111861,4199221.239714146,-1.68076,0.582721,-0.557986,85.875,55.25,71.25,-0.359375,-8.60938,8.60938,-0.00390625,0.0546875,0.0605469,4,0,41.4139602838864,-91.7045376400729,10964.044888785493,43.96407026042786,-0.8880371720292499,45.8414344245517,186.056,9174.609911748745,11300.678975010827,150,False,9.742139966137545,False,138.48752616897718,171.073085953015,False,50.430606529558816,False,False
3,1970-07-23 10:17:11.330852748,2025-09-11,2025-09-26 20:38:53.085,HA,D,3369816190,JASSM,3,123,76,2,2,1,225,9,2,0,1,26,0,0,0,0,-124583.58855592164,-4791605.034254369,4198309.231901646,2.29608,-3.09883,0.0776578,-85.125,-3.5,-6.5,0.0,0.0,0.0,0.0,0.0,0.0,2,0,41.40534263223042,-91.4893769246411,10002.624129731545,-95.9400952558624,0.0036221836554397,-0.0028316319886128,,9174.609911748745,11300.678975010827,150,3,2025-09-11,2025-09-26 20:38:52.930,HA,D,1773937074,HAWK11,1,1,73,2,1,1,225,2,1,0,0,12,1,225,2,1,-142470.01403983062,-4790632.510713424,4199290.919401646,-1.64002,0.519732,-0.495188,93.25,52.25,65.75,-0.171875,-8.96875,8.98438,0.00390625,0.0507812,0.0605469,4,0,41.41478925177263,-91.70343378844456,10967.012754469317,48.65186435917021,-1.7335068836998926,46.2535948023902,185.848,9174.609911748745,11300.678975010827,150,False,9.649853533016504,False,142.86333455882192,170.7218264916069,False,46.40028182289827,False,False
3,1970-07-23 10:17:11.337648729,2025-09-11,2025-09-26 20:38:53.764,HA,D,3370949548,JASSM,3,123,76,2,2,1,225,9,2,0,1,26,0,0,0,0,-124664.60418092164,-4791608.492262182,4198302.923307896,2.29608,-3.09883,0.0776578,-85.125,-3.5,-6.5,0.0,0.0,0.0,0.0,0.0,0.0,2,0,41.40526693416034,-91.49034394177887,10002.625204058611,-95.94073482291016,0.0043514341355113,-0.0028314058629405,,9174.609911748745,11300.678975010827,150,3,2025-09-11,2025-09-26 20:38:53.823,HA,D,1775010774,HAWK11,1,1,73,2,1,1,225,2,1,0,0,12,1,225,2,1,-142382.92614920562,-4790586.119111861,4199346.827604771,-1.61221,0.460386,-0.443608,99.375,48.75,60.625,-0.1875,-9.4375,9.4375,0.0,0.0507812,0.0566406,4,0,41.41545802743884,-91.7024096165742,10967.890689298763,52.88016972028085,-2.000764590273044,46.16985804547327,185.848,9174.609911748745,11300.678975010827,150,False,9.56316354120285,False,146.80792533034693,170.42466177880272,False,42.748990919566836,False,False
3,1970-07-23 10:17:11.346301837,2025-09-11,2025-09-26 20:38:54.630,HA,D,3372142592,JASSM,3,123,76,2,2,1,225,9,2,0,1,26,0,0,0,0,-124749.88543092164,-4791612.130934057,4198296.280729771,2.29608,-3.09883,0.0776578,-85.125,-3.5,-6.5,0.0,0.0,0.0,0.0,0.0,0.0,2,0,41.40518723771308,-91.49136187219952,10002.622584038518,-95.94140806201216,0.0051190817701843,-0.0028311639029057,,9174.609911748745,11300.678975010827,150,3,2025-09-11,2025-09-26 20:38:54.728,HA,D,1776164006,HAWK11,1,1,73,2,1,1,225,2,1,0,0,12,1,225,2,1,-142282.77771170562,-4790540.143525924,4199401.300261021,-1.58719,0.397397,-0.387426,105.75,44.125,55.0,-0.171875,-9.95312,9.84375,-0.00195312,0.0644531,0.0683594,4,0,41.416116938535225,-91.70122920715563,10965.728677726154,57.49200388096537,-2.159741337984713,45.978341600281,185.848,9174.609911748745,11300.678975010827,150,False,9.467414152440744,False,151.16738769367652,170.12048026355967,False,38.693330412274726,False,False
3,1970-07-23 10:17:11.355345466,2025-09-11,2025-09-26 20:38:55.534,HA,D,3373216334,JASSM,3,123,76,2,2,1,225,9,2,0,1,26,0,0,0,0,-124826.63543092164,-4791615.405348119,4198290.304167271,2.29608,-3.09883,0.0776578,-85.125,-3.5,-6.5,0.0,0.0,0.0,0.0,0.0,0.0,2,0,41.40511551788445,-91.49227797023087,10002.626096805272,-95.9420139502709,0.005809935364307,-0.0028309578151224,,9174.609911748745,11300.678975010827,150,3,2025-09-11,2025-09-26 20:38:55.322,HA,D,1776959338,HAWK11,1,1,73,2,1,1,225,2,1,0,0,12,1,225,2,1,-142210.46521170562,-4790511.139619674,4199434.847136021,-1.56696,0.354445,-0.348022,110.125,40.75,50.375,-0.296875,-10.0625,10.0469,0.00390625,0.0664062,0.046875,4,0,41.416528706126776,-91.70037538638304,10961.92778394194,60.71468451550337,-2.2107122910775767,46.129551008182425,185.897,9174.609911748745,11300.678975010827,150,False,9.390036603192337,False,154.38495464697021,169.91145276496397,False,35.681012234928325,False,False
3,1970-07-23 10:17:11.368827967,2025-09-11,2025-09-26 20:38:56.882,HA,D,3374349728,JASSM,3,123,76,2,2,1,225,9,2,0,1,26,0,0,0,0,-124907.65496217164,-4791618.861402807,4198283.991667271,2.29608,-3.09883,0.0776578,-85.125,-3.5,-6.5,0.0,0.0,0.0,0.0,0.0,0.0,2,0,41.40503978007801,-91.49324502791823,10002.62433000257,-95.94265354125214,0.0065392227380155,-0.0028307199987652,,9174.609911748745,11300.678975010827,150,3,2025-09-11,2025-09-26 20:38:56.822,HA,D,1778748836,HAWK11,1,1,73,2,1,1,225,2,1,0,0,12,1,225,2,1,-142037.37927420562,-4790455.250947799,4199500.386198521,-1.52813,0.260297,-0.251765,118.75,31.625,40.25,0.03125,-10.5156,10.4062,-0.0175781,0.0644531,0.0683594,4,0,41.41733414232147,-91.698326855309,10954.098801412763,68.26464847363545,-2.455167789413884,46.45013015605358,186.178,9174.609911748745,11300.678975010827,150,False,9.25876529716476,False,161.54618743833066,169.52659672342867,False,28.909496222855577,True,False
3,1970-07-23 10:17:11.374264058,2025-09-11,2025-09-26 20:38:57.426,HA,D,3375483114,JASSM,3,123,76,2,2,1,225,9,2,0,1,26,0,0,0,0,-124988.67058717164,-4791622.315504369,4198277.681120396,2.29608,-3.09893,0.0776578,-85.125,-3.5,-6.5,0.0,0.0,0.0,0.0,0.0,0.0,2,0,41.40496405955469,-91.4942120372912,10002.62514264571,-95.93966112794942,0.0031716999050113,-0.0024041459184595,,9174.609911748745,11300.678975010827,150,3,2025-09-11,2025-09-26 20:38:57.430,HA,D,1779544168,HAWK11,1,1,73,2,1,1,225,2,1,0,0,12,1,225,2,1,-141953.54138358062,-4790434.270479049,4199522.589323521,-1.52257,0.223769,-0.211402,122.875,27.5,34.5,-0.34375,-10.6562,10.6875,-0.0800781,0.0761719,0.0546875,4,0,41.41762362087123,-91.69733242987216,10944.580981184416,71.34747824998887,-2.579046790482367,46.15285080855293,186.129,9174.609911748745,11300.678975010827,150,False,9.172576931425303,False,165.10114613674236,169.3475993968222,False,25.525050290396827,True,False
3,1970-07-23 10:17:11.384303189,2025-09-11,2025-09-26 20:38:58.430,HA,D,3376616758,JASSM,3,123,76,2,2,1,225,9,2,0,1,26,0,0,0,0,-125069.70574342164,-4791625.770582494,4198271.366667271,2.29608,-3.09893,0.0776578,-85.125,-3.5,-6.5,0.0,0.0,0.0,0.0,0.0,0.0,2,0,41.404888295691286,-91.49517927749956,10002.62453200302,-95.94030083773652,0.0039011278122643,-0.0024038665803278,,9174.609911748745,11300.678975010827,150,3,2025-09-11,2025-09-26 20:38:58.322,HA,D,1780578100,HAWK11,1,1,73,2,1,1,225,2,1,0,0,12,1,225,2,1,-141844.72302420562,-4790412.623018111,4199548.153776646,-1.65152,0.169793,-0.161835,126.5,21.125,28.75,0.0,-10.7656,10.625,-0.216797,0.0527344,0.0507812,4,0,41.41794414650422,-91.6960397133735,10938.903279937016,75.50142579946544,-2.2925516504097665,38.01387415050152,186.459,9174.609911748745,11300.678975010827,150,False,9.07325723485729,False,169.13679678391946,169.14593357015866,False,21.70872728689043,True,False
3,1970-07-23 10:17:11.393342633,2025-09-11,2025-09-26 20:38:59.334,HA,D,3377690794,JASSM,3,123,76,2,2,1,225,9,2,0,1,26,0,0,0,0,-125146.48308717164,-4791629.043043432,4198265.384245396,2.29608,-3.09893,0.0776578,-85.125,-3.5,-6.5,0.0,0.0,0.0,0.0,0.0,0.0,2,0,41.40481651328605,-91.4960956944802,10002.62498455003,-95.94090693335563,0.0045922289681531,-0.0024036099895762,,9174.609911748745,11300.678975010827,150,3,2025-09-11,2025-09-26 20:38:59.228,HA,D,1781691566,HAWK11,1,1,73,2,1,1,225,2,1,0,0,12,1,225,2,1,-141725.09997733062,-4790394.982393111,4199572.017057896,-1.93186,0.12013,-0.1278,129.125,15.125,25.125,-0.234375,-10.0312,9.84375,-0.298828,0.0371094,0.0449219,4,0,41.418231235498006,-91.69461644972272,10938.607513678991,78.84234888086704,-1.5252756054717098,21.429841439808392,186.532,9174.609911748745,11300.678975010827,150,False,8.970277937884228,False,172.15160868691453,168.95149011930377,False,18.885920233408658,True,False
3,1970-07-23 10:17:11.403224114,2025-09-11,2025-09-26 20:39:00.322,HA,D,3378883314,JASSM,3,123,76,2,2,1,225,9,2,0,1,26,0,0,0,0,-125231.72527467164,-4791632.675855932,4198258.741667271,2.29608,-3.09893,0.0777537,-85.125,-3.5,-6.5,0.0,0.0,0.0,0.0,0.0,0.0,2,0,41.40473680688796,-91.49711314589824,10002.626704325216,-95.94569029858546,0.0017154574676139,-0.0024035775780458,,9174.609911748745,11300.678975010827,150,3,2025-09-11,2025-09-26 20:39:00.164,HA,D,1782168766,HAWK11,1,1,73,2,1,1,225,2,1,0,0,12,1,225,2,1,-141672.65075858062,-4790388.986299361,4199580.237761021,-2.02227,0.104598,-0.129046,130.0,13.0,24.125,-0.109375,-9.78125,9.65625,-0.208984,0.0429688,0.0078125,4,0,41.41833162770252,-91.69399179551434,10937.888997033864,79.38102470905781,-0.8216484435558891,16.124800502306243,186.459,9174.609911748745,11300.678975010827,150,False,8.89767322248443,False,173.0525852790301,168.83957125572246,False,18.061656117313476,True,False
3,1970-07-23 10:17:11.412262729,2025-09-11,2025-09-26 20:39:01.226,HA,D,3380016700,JASSM,3,123,76,2,2,1,225,9,2,0,1,26,0,0,0,0,-125312.74089967164,-4791636.127027807,4198252.427214146,2.29608,-3.09893,0.0777537,-85.125,-3.5,-6.5,0.0,0.0,0.0,0.0,0.0,0.0,2,0,41.40466104491657,-91.49808014720132,10002.625419769183,-95.94632984749876,0.0024447094993728,-0.0024033585776743,,9174.609911748745,11300.678975010827,150,3,2025-09-11,2025-09-26 20:39:01.024,HA,D,1783799198,HAWK11,1,1,73,2,1,1,225,2,1,0,0,12,1,225,2,1,-141494.18982108062,-4790374.414033736,4199608.749479771,-2.14566,0.0726723,-0.14707,131.625,7.25,23.25,-0.09375,-9.0625,8.92188,0.00976562,0.0078125,0.0234375,4,0,41.418642146126295,-91.69186430766808,10950.964630771452,79.82264939636975,1.218436660417883,8.804876747592823,186.459,9174.609911748745,11300.678975010827,150,True,8.761205345361885,False,174.30513202437132,168.6047431218029,False,16.61068603254138,True,False
3,1970-07-23 10:17:11.421322741,2025-09-11,2025-09-26 20:39:02.132,HA,D,3381091054,JASSM,3,123,76,2,2,1,225,9,2,0,1,26,0,0,0,0,-125389.54168092164,-4791639.398512182,4198246.440886021,2.29608,-3.09893,0.0777537,-85.125,-3.5,-6.5,0.0,0.0,0.0,0.0,0.0,0.0,2,0,41.40458921519794,-91.49899683816116,10002.62615835873,-95.94693612160243,0.0031360223658252,-0.0024031491903791,,9174.609911748745,11300.678975010827,150,3,2025-09-11,2025-09-26 20:39:02.228,HA,D,1785191030,HAWK11,1,1,73,2,1,1,225,2,1,0,0,12,1,225,2,1,-141340.67810233062,-4790367.194307174,4199633.097136021,-2.09177,0.0477452,-0.145441,132.125,3.75,22.5,-0.046875,-8.14062,8.07812,0.0839844,0.0214844,0.0253906,4,0,41.418876388857285,-91.69003235891527,10974.910723693762,80.83315835187118,2.2135475859829388,11.71410014738458,186.728,9174.609911748745,11300.678975010827,150,False,8.63989574697321,False,174.65319765920316,168.40333087994262,False,15.859933597881637,True,False
3,1970-07-23 10:17:11.431624982,2025-09-11,2025-09-26 20:39:03.162,HA,D,3382223836,JASSM,3,123,76,2,2,1,225,9,2,0,1,26,0,0,0,0,-125470.51433717164,-4791642.846754369,4198240.128386021,2.29608,-3.09893,0.0777537,-85.125,-3.5,-6.5,0.0,0.0,0.0,0.0,0.0,0.0,2,0,41.40451347470488,-91.49996332255996,10002.625753022568,-95.9475753267762,0.0038648881935002,-0.0024029274062874,,9174.609911748745,11300.678975010827,150,3,2025-09-11,2025-09-26 20:39:03.202,HA,D,1786304494,HAWK11,1,1,73,2,1,1,225,2,1,0,0,12,1,225,2,1,-141218.06677420562,-4790364.078096236,4199651.233854771,-2.0609,0.0227221,-0.142181,132.125,1.375,20.875,-0.171875,-7.96875,7.875,0.0234375,0.0,0.0234375,4,0,41.41903884748879,-91.68856822322176,10997.719822194342,81.91515510356405,3.153894483517827,13.328031829092335,187.045,9174.609911748745,11300.678975010827,150,False,8.532513808470625,False,175.06596382443024,168.23307380133863,False,15.018735476969868,True,False
3,1970-07-23 10:17:11.440245312,2025-09-11,2025-09-26 20:39:04.024,HA,D,3383297578,JASSM,3,123,76,2,2,1,225,9,2,0,1,26,0,0,0,0,-125547.26794608062,-4791646.114229049,4198234.144011021,2.29608,-3.09893,0.0777537,-85.125,-3.5,-6.5,0.0,0.0,0.0,0.0,0.0,0.0,2,0,41.40444167437799,-91.50087944695342,10002.624095485273,-95.94818122439372,0.0045557769009278,-0.0024027184038276,,9174.609911748745,11300.678975010827,150,3,2025-09-11,2025-09-26 20:39:04.024,HA,D,1787179360,HAWK11,1,1,73,2,1,1,225,2,1,0,0,12,1,225,2,1,-141120.19568045562,-4790363.020479049,4199664.733854771,-2.0702,0.00997088,-0.134127,132.25,-0.125,19.375,-0.03125,-7.3125,7.375,-0.0273438,-0.0175781,0.0351562,4,0,41.41915340907262,-91.68739901118322,11017.32754603753,82.74186383014366,3.3926988262382096,12.74173684142075,187.999,9174.609911748745,11300.678975010827,150,False,8.440333867722652,False,175.36281188937738,168.09069101511798,False,14.338415285516323,True,False
3,1970-07-23 10:17:11.449282951,2025-09-11,2025-09-26 20:39:04.928,HA,D,3384372014,JASSM,3,123,76,2,2,1,225,9,2,0,1,26,0,0,0,0,-125624.06872733062,-4791649.383760299,4198228.155729771,2.29608,-3.09893,0.0777537,-85.125,-3.5,-6.5,0.0,0.0,0.0,0.0,0.0,0.0,2,0,41.40436982079236,-91.50179613235775,10002.625111879674,-95.94878749218265,0.0052470904116156,-0.0024025074248765,,9174.609911748745,11300.678975010827,150,3,2025-09-11,2025-09-26 20:39:05.204,HA,D,1788332592,HAWK11,1,1,73,2,1,1,225,2,1,0,0,12,1,225,2,1,-140993.66833670562,-4790363.542939986,4199680.745573521,-2.08008,-0.00642354,-0.131731,131.875,-1.875,17.375,-0.125,-6.90625,6.9375,-0.0195312,0.0,0.0117188,4,0,41.419280525415935,-91.68588679118491,11044.20326065396,83.4621929290587,4.002464799129113,12.097818765200111,189.221,9174.609911748745,11300.678975010827,150,False,8.332914041654771,False,175.54966924932842,167.9278730093729,False,13.479663843665085,True,False
3,1970-07-23 10:17:11.459322913,2025-09-11,2025-09-26 20:39:05.932,HA,D,3385564902,JASSM,3,123,76,2,2,1,225,9,2,0,1,26,0,0,0,0,-125709.33825858062,-4791653.011689986,4198221.507292271,2.29608,-3.09893,0.0777537,-85.125,-3.5,-6.5,0.0,0.0,0.0,0.0,0.0,0.0,2,0,41.40429004921473,-91.50281389810176,10002.62493686558,-95.94946061041588,0.0060146334921822,-0.0024022869183469,,9174.609911748745,11300.678975010827,150,3,2025-09-11,2025-09-26 20:39:05.820,HA,D,1789565358,HAWK11,1,1,73,2,1,1,225,2,1,0,0,12,1,225,2,1,-140858.04138358062,-4790365.148408736,4199696.175261021,-2.0888,-0.0105461,-0.116966,132.0,-3.0,15.375,0.125,-6.35938,6.46875,0.00390625,-0.00390625,0.00976562,4,0,41.41939884116061,-91.68426544555966,11071.829300466025,84.25531064281473,3.621588186096945,11.621294034991836,189.807,9174.609911748745,11300.678975010827,150,False,8.21615364835402,False,175.70592796771632,167.75367056378244,False,12.689010242411992,True,False
3,1970-07-23 10:17:11.469202305,2025-09-11,2025-09-26 20:39:06.920,HA,D,3386697760,JASSM,3,123,76,2,2,1,225,9,2,0,1,26,0,0,0,0,-125790.31872733062,-4791656.457979049,4198215.190886021,2.29608,-3.09902,0.0777537,-85.125,-3.5,-6.5,0.0,0.0,0.0,0.0,0.0,0.0,2,0,41.40421426068888,-91.50378046759823,10002.625155029731,-95.94646795447,0.0026468013031369,-0.0019752068836826,,9174.609911748745,11300.678975010827,150,3,2025-09-11,2025-09-26 20:39:07.026,HA,D,1790917424,HAWK11,1,1,73,2,1,1,225,2,1,0,0,12,1,225,2,1,-140708.49450858062,-4790367.803682174,4199710.802214146,-2.19158,-0.00786165,-0.0981748,132.25,-3.0,12.625,0.171875,-5.82812,5.875,-0.201172,-0.0078125,0.0195312,4,0,41.41950790252782,-91.68247738239477,11099.298665141328,84.96510770434658,2.7970834387824324,5.788788606207553,191.054,9174.609911748745,11300.678975010827,150,True,8.094212631245588,False,176.20016639115374,167.57576272884788,False,11.731923970976666,True,False
3,1970-07-23 10:17:11.478264685,2025-09-11,2025-09-26 20:39:07.826,HA,D,3387831154,JASSM,3,123,76,2,2,1,225,9,2,0,1,26,0,0,0,0,-125871.33825858062,-4791659.904268111,4198208.872526646,2.29608,-3.09902,0.0777537,-85.125,-3.5,-6.5,0.0,0.0,0.0,0.0,0.0,0.0,2,0,41.40413844475288,-91.504747501612,10002.627052938702,-95.94710751839608,0.00337608913347,-0.0019749472533669,,9174.609911748745,11300.678975010827,150,3,2025-09-11,2025-09-26 20:39:07.762,HA,D,1791315090,HAWK11,1,1,73,2,1,1,225,2,1,0,0,12,1,225,2,1,-140664.59216483062,-4790368.335908736,4199714.763151646,-2.25649,-0.00786165,-0.0902172,132.25,-2.625,12.0,0.09375,-5.54688,5.71875,-0.154297,-0.0175781,0.0214844,4,0,41.41953913803659,-91.68195254880044,11106.033949666667,85.30800434247138,2.496172993082346,2.085743593763373,191.799,9174.609911748745,11300.678975010827,150,True,8.028255445280184,False,176.42509434744343,167.47485239835308,False,11.628856001670478,True,False
3,1970-07-23 10:17:11.488282828,2025-09-11,2025-09-26 20:39:08.828,HA,D,3389024200,JASSM,3,123,76,2,2,1,225,9,2,0,1,26,0,0,0,0,-125956.61950858062,-4791663.530244674,4198202.220182896,2.29608,-3.09902,0.0777537,-85.125,-3.5,-6.5,0.0,0.0,0.0,0.0,0.0,0.0,2,0,41.40405863048648,-91.5057654007766,10002.625265584573,-95.94778072178968,0.004143738869643,-0.0019746724342022,,9174.609911748745,11300.678975010827,150,3,2025-09-11,2025-09-26 20:39:08.930,HA,D,1793184122,HAWK11,1,1,73,2,1,1,225,2,1,0,0,12,1,225,2,1,-140457.46325858062,-4790370.065400924,4199731.116667271,-2.32446,0.0188871,-0.0781372,132.625,-0.25,9.875,0.109375,-5.25,5.35938,0.0,-0.0175781,-0.00976562,4,0,41.41967537334187,-91.67947668362152,11130.83626915323,84.81781361997527,0.8950387321079347,-1.6946237464940834,192.948,9174.609911748745,11300.678975010827,150,True,7.87363021882279,False,177.54228958702794,167.24645767406557,False,11.399659254712589,True,False
3,1970-07-23 10:17:11.508042241,2025-09-11,2025-09-26 20:39:10.804,HA,D,3390336552,JASSM,3,123,76,2,2,1,225,9,2,0,1,26,0,0,0,0,-126050.42810233062,-4791667.519502486,4198194.901823521,2.29608,-3.09902,0.0777537,-85.125,-3.5,-6.5,0.0,0.0,0.0,0.0,0.0,0.0,2,0,41.40397081517296,-91.50688507743013,10002.62758218844,-95.94852123606992,0.0049881474225067,-0.0019743601821069,,9174.609911748745,11300.678975010827,150,3,2025-09-11,2025-09-26 20:39:10.728,HA,D,1795251986,HAWK11,1,1,73,2,1,1,225,2,1,0,0,12,1,225,2,1,-140226.88903983062,-4790367.866182174,4199745.185026646,-2.27,0.0348981,-0.0620303,133.375,2.25,7.375,-0.171875,-5.28125,5.375,0.0390625,-0.00585938,-0.0136719,4,0,41.41982359859346,-91.6767220081273,11139.351422075722,84.90398114630592,-0.3997881270101934,1.4900585266493969,194.097,9174.609911748745,11300.678975010827,150,True,7.702282844583213,False,178.16856587047437,166.986237567853,False,11.240895472957982,True,False
3,1970-07-23 10:17:11.509324808,2025-09-11,2025-09-26 20:39:10.932,HA,D,3391589250,JASSM,3,123,76,2,2,1,225,9,2,0,1,26,0,0,0,0,-126139.97107108062,-4791671.325166549,4198187.913542271,2.29608,-3.09902,0.0778495,-85.125,-3.5,-6.5,0.0,0.0,0.0,0.0,0.0,0.0,2,0,41.40388697764045,-91.5079538384946,10002.62278249762,-95.95333855162416,0.0021501231591968,-0.0019743419829685,,9174.609911748745,11300.678975010827,150,3,2025-09-11,2025-09-26 20:39:11.024,HA,D,1795649652,HAWK11,1,1,73,2,1,1,225,2,1,0,0,12,1,225,2,1,-140183.28747733062,-4790366.955049361,4199747.421354771,-2.25879,0.0396918,-0.0604005,133.5,2.625,7.0,0.0,-5.39062,5.54688,0.0273438,-0.0078125,0.0,4,0,41.4198517065992,-91.67620127129904,11138.826485600535,84.79232540723308,-0.6664777939958632,2.150603591347351,194.329,9174.609911748745,11300.678975010827,150,True,7.632151652578136,False,178.16792771444767,166.86954451228183,False,11.311367526213145,True,False
3,1970-07-23 10:17:11.520365983,2025-09-11,2025-09-26 20:39:12.036,HA,D,3392901602,JASSM,3,123,76,2,2,1,225,9,2,0,1,26,0,0,0,0,-126233.78357108062,-4791675.311494674,4198180.593229771,2.29608,-3.09902,0.0778495,-85.125,-3.5,-6.5,0.0,0.0,0.0,0.0,0.0,0.0,2,0,41.40379914466397,-91.50907355685214,10002.62280765372,-95.9540790909836,0.0029945668891974,-0.0019740975477888,,9174.609911748745,11300.678975010827,150,3,2025-09-11,2025-09-26 20:39:11.930,HA,D,1796842650,HAWK11,1,1,73,2,1,1,225,2,1,0,0,12,1,225,2,1,-140049.67419608062,-4790363.634736861,4199752.950651646,-2.24891,0.0420886,-0.0469782,134.25,3.625,5.375,-0.078125,-5.79688,5.84375,0.0625,-0.0117188,0.015625,4,0,41.41993203700433,-91.6746056991542,11133.05175965309,85.27782212322374,-1.2781560647178067,2.715514553273453,194.744,9174.609911748745,11300.678975010827,150,True,7.512238124629898,False,177.7776091559836,166.67655718786858,False,11.184284665401636,True,False
