Subject_cm,Timestamp,SampleDate_cm,SampleTime_cm,Configuration_cm,Scenario_cm,DisTime_cm,MarkingTxt_cm,Application_cm,EntId_cm,Site_cm,ExerciseId_cm,ForceId_cm,Category_cm,Country_cm,Domain_cm,Kind_cm,Extra_cm,Specific_cm,Subcategory_cm,AltCategory_cm,AltCountry_cm,AltDomain_cm,AltKind_cm,ECEF_X_cm,ECEF_Y_cm,ECEF_Z_cm,OriPhi_cm,OriPsi_cm,OriTheta_cm,LinVelX_cm,LinVelY_cm,LinVelZ_cm,LinAccX_cm,LinAccY_cm,LinAccZ_cm,AngVelX_cm,AngVelY_cm,AngVelZ_cm,DrAlg_cm,Appearance_cm,Latitude_cm,Longitude_cm,Altitude_cm,Heading_cm,Pitch_cm,Roll_cm,CalibratedAirspeed_cm,CM_Altitude_Lead_cm,CM_Altitude_Wing_cm,CM_Airspeed_cm,Subject_ac,SampleDate_ac,SampleTime_ac,Configuration_ac,Scenario_ac,DisTime_ac,MarkingTxt_ac,Application_ac,EntId_ac,Site_ac,ExerciseId_ac,ForceId_ac,Category_ac,Country_ac,Domain_ac,Kind_ac,Extra_ac,Specific_ac,Subcategory_ac,AltCategory_ac,AltCountry_ac,AltDomain_ac,AltKind_ac,ECEF_X_ac,ECEF_Y_ac,ECEF_Z_ac,OriPhi_ac,OriPsi_ac,OriTheta_ac,LinVelX_ac,LinVelY_ac,LinVelZ_ac,LinAccX_ac,LinAccY_ac,LinAccZ_ac,AngVelX_ac,AngVelY_ac,AngVelZ_ac,DrAlg_ac,Appearance_ac,Latitude_ac,Longitude_ac,Altitude_ac,Heading_ac,Pitch_ac,Roll_ac,CalibratedAirspeed_ac,CM_Altitude_Lead_ac,CM_Altitude_Wing_ac,CM_Airspeed_ac,Bank_Angle_Condition,distance_nm,Distance_Condition,angle_between_vel,angle_between_pos,Cone_Condition,angle_between_pos_nose,Nose_Cone_Condition,Intercept_Criteria
3,1970-07-23 10:16:58.168240878,2025-09-11,2025-09-26 20:16:56.824,HH,C,1799886302,JASSM,3,105,76,2,2,1,225,9,2,0,1,26,0,0,0,0,-188220.6097429556,-4786095.315400924,4202195.261198521,-2.30155,-0.153302,0.128183,90.875,-13.875,-11.75,0.0,0.0,0.0,0.0,0.0,0.0,2,0,41.4519868534997,-92.25208472485704,10002.624213367248,99.81660859027352,-0.0038602930714682,0.0023906696186947,,8988.574530004647,11016.82538521552,150,3,2025-09-11,2025-09-26 20:16:56.844,HH,C,882519484,AMBUSH51,1,1,48,2,1,1,225,2,1,0,0,9,1,225,2,1,-150326.85598009988,-4791259.07210297,4197397.40312675,2.32807,2.77525,-0.385689,-98.9813,37.5379,41.0766,-0.126414,-7.10978,7.01537,0.000887374,0.00143457,-0.00550837,4,0,41.39685157979481,-91.79707873771288,8989.878553120523,-61.071013736452834,1.1616968854168657,-1.4906776998079772,194.769,8988.574530004647,11016.82538521552,150,True,20.727601853569283,False,161.82590735621477,179.0764878572226,False,18.859553992396542,True,False
3,1970-07-23 10:16:58.177121656,2025-09-11,2025-09-26 20:16:57.712,HH,C,1801019696,JASSM,3,105,76,2,2,1,225,9,2,0,1,26,0,0,0,0,-188134.29919608065,-4786108.661104049,4202184.003386021,-2.30155,-0.153302,0.128183,90.875,-13.875,-11.75,0.0,0.0,0.0,0.0,0.0,0.0,2,0,41.45185166994929,-92.25104679983497,10002.62732394808,99.81729568765884,-0.0030706983308751,0.0023901045222357,,8988.574530004647,11016.82538521552,150,3,2025-09-11,2025-09-26 20:16:57.578,HH,C,883394350,AMBUSH51,1,1,48,2,1,1,225,2,1,0,0,9,1,225,2,1,-150399.4671941509,-4791231.385077649,4197427.558206102,2.32314,2.77613,-0.384888,-99.2331,37.6108,41.1034,-0.017388,-7.18688,6.95139,0.00640303,0.00148867,0.00643216,4,0,41.397206313262544,-91.79795658006292,8992.799216618676,-61.13711950274918,1.1631934525704413,-1.7550992808212442,195.258,8988.574530004647,11016.82538521552,150,True,20.63790902575876,False,161.8590995067841,179.04324734149424,False,18.869135150975502,True,False
3,1970-07-23 10:16:58.187161029,2025-09-11,2025-09-26 20:16:58.716,HH,C,1802213556,JASSM,3,105,76,2,2,1,225,9,2,0,1,26,0,0,0,0,-188043.3831804556,-4786122.715791549,4202172.144011021,-2.30155,-0.153302,0.128183,90.875,-13.875,-11.75,0.0,0.0,0.0,0.0,0.0,0.0,2,0,41.451709275862015,-92.2499534980122,10002.625354497157,99.81801944201328,-0.0022389746473593,0.0023895217478695,,8988.574530004647,11016.82538521552,150,3,2025-09-11,2025-09-26 20:16:58.677,HH,C,884706648,AMBUSH51,1,1,48,2,1,1,225,2,1,0,0,9,1,225,2,1,-150509.281338929,-4791189.959304616,4197473.223890524,2.32498,2.78323,-0.387493,-99.5457,37.1352,41.553,-0.102232,-7.40689,7.30478,0.00817778,0.00907451,-0.0123764,4,0,41.39774053355124,-91.79928404183964,8998.453514557072,-61.29747747459726,1.5368581167797806,-1.500414625496162,195.746,8988.574530004647,11016.82538521552,150,True,20.524035102930256,False,161.90185971645388,178.99294358247542,False,18.878082244649846,True,False
3,1970-07-23 10:16:58.197181207,2025-09-11,2025-09-26 20:16:59.718,HH,C,1803346678,JASSM,3,105,76,2,2,1,225,9,2,0,1,26,0,0,0,0,-187957.0941179556,-4786136.053682174,4202160.888151646,-2.30155,-0.153302,0.128183,90.875,-13.875,-11.75,0.0,0.0,0.0,0.0,0.0,0.0,2,0,41.45157412773683,-92.24891584230534,10002.623758996093,99.81870635733004,-0.0014495815533964,0.0023889771456122,,8988.574530004647,11016.82538521552,150,3,2025-09-11,2025-09-26 20:16:59.843,HH,C,886098480,AMBUSH51,1,1,48,2,1,1,225,2,1,0,0,9,1,225,2,1,-150624.8479651212,-4791146.892335054,4197521.385777808,2.32871,2.78426,-0.387759,-99.8615,36.9171,41.7606,-0.122142,-7.09938,7.06049,0.00685036,0.00129933,0.00932419,4,0,41.3983002780109,-91.80068086517608,9005.93944532157,-61.32600004531487,1.5876263160455382,-1.264908377814656,195.979,8988.574530004647,11016.82538521552,150,True,20.409403112330917,False,161.96089666274509,178.93890104920257,False,18.880190592402883,True,False
3,1970-07-23 10:16:58.206221226,2025-09-11,2025-09-26 20:17:00.622,HH,C,1804420420,JASSM,3,105,76,2,2,1,225,9,2,0,1,26,0,0,0,0,-187875.3245867056,-4786148.692354049,4202150.220182896,-2.30155,-0.153302,0.128183,90.875,-13.875,-11.75,0.0,0.0,0.0,0.0,0.0,0.0,2,0,41.45144604214292,-92.24793253978702,10002.620792809988,99.81935728980466,-0.000701533149764,0.0023884536725211,,8988.574530004647,11016.82538521552,150,3,2025-09-11,2025-09-26 20:17:00.510,HH,C,886893812,AMBUSH51,1,1,48,2,1,1,225,2,1,0,0,9,1,225,2,1,-150691.231064944,-4791122.190920947,4197549.281403868,2.33303,2.78508,-0.38721,-99.9622,36.7439,42.0425,-0.0340778,-7.15249,6.97438,-0.00467822,0.00604101,-0.0118896,4,0,41.39862313388052,-91.80148321673518,9010.834866267847,-61.37978038629775,1.5973561954451605,-1.0010927150419613,196.394,8988.574530004647,11016.82538521552,150,True,20.32589816196816,False,161.92829650146626,178.90585189848454,False,18.946898886981387,True,False
3,1970-07-23 10:16:58.218022608,2025-09-11,2025-09-26 20:17:01.802,HH,C,1805673124,JASSM,3,105,76,2,2,1,225,9,2,0,1,26,0,0,0,0,-187779.92810233065,-4786163.438447799,4202137.774870396,-2.30145,-0.153206,0.128279,90.875,-13.875,-11.75,0.0,0.0,0.0,0.0,0.0,0.0,2,0,41.45129659659775,-92.24678537351028,10002.625787797444,99.82057084551532,-0.0075521835529306,0.0071768138770277,,8988.574530004647,11016.82538521552,150,3,2025-09-11,2025-09-26 20:17:01.677,HH,C,888285644,AMBUSH51,1,1,48,2,1,1,225,2,1,0,0,9,1,225,2,1,-150808.30697660884,-4791078.704710166,4197598.549222184,2.3377,2.78622,-0.387733,-100.124,36.9014,42.1347,-0.0598945,-6.99583,6.86792,0.00797388,-0.00624699,-0.00686076,4,0,41.3991925286297,-91.8028982653313,9019.820039861495,-61.40179960392782,1.6625526605988452,-0.7094429366709217,196.663,8988.574530004647,11016.82538521552,150,True,20.205417353015548,False,161.89510755512148,178.84761192556869,False,19.050670263555585,True,False
3,1970-07-23 10:16:58.228016371,2025-09-11,2025-09-26 20:17:02.801,HH,C,1806984928,JASSM,3,105,76,2,2,1,225,9,2,0,1,26,0,0,0,0,-187680.02966483065,-4786178.877900924,4202124.741667271,-2.30145,-0.153206,0.128279,90.875,-13.875,-11.75,0.0,0.0,0.0,0.0,0.0,0.0,2,0,41.45114009740893,-92.2455840769708,10002.628753714664,99.821366082455,-0.0066382889671987,0.0071761886312927,,8988.574530004647,11016.82538521552,150,3,2025-09-11,2025-09-26 20:17:02.877,HH,C,889717244,AMBUSH51,1,1,48,2,1,1,225,2,1,0,0,9,1,225,2,1,-150928.16619320062,-4791034.313130726,4197649.106338002,2.34303,2.78844,-0.387308,-100.227,36.8928,42.3777,-0.0512517,-7.14156,7.01651,0.00654659,-0.00137631,-0.00897881,4,0,41.3997754739763,-91.80434693058196,9029.600456104716,-61.50276645887013,1.730400393518332,-0.3593057703631425,197.03,8988.574530004647,11016.82538521552,150,True,20.08087948972084,False,161.83538473639777,178.78606113811435,False,19.179585953605873,True,False
3,1970-07-23 10:16:58.238157938,2025-09-11,2025-09-26 20:17:03.815,HH,C,1808297676,JASSM,3,105,76,2,2,1,225,9,2,0,1,26,0,0,0,0,-187580.06091483065,-4786194.325166549,4202111.696745396,-2.30145,-0.153206,0.128279,90.875,-13.875,-11.75,0.0,0.0,0.0,0.0,0.0,0.0,2,0,41.45098347652067,-92.24438194212296,10002.624027426613,99.82216187186782,-0.0057237523510529,0.0071755637122587,,8988.574530004647,11016.82538521552,150,3,2025-09-11,2025-09-26 20:17:03.677,HH,C,890671642,AMBUSH51,1,1,48,2,1,1,225,2,1,0,0,9,1,225,2,1,-151008.03602756103,-4791004.732777653,4197683.00651733,2.33726,2.78817,-0.390089,-100.259,36.8754,42.5707,-0.0922928,-7.0854,7.00251,-0.00262883,-0.00920351,0.00456587,4,0,41.40016533646168,-91.80531228196163,9036.581857310046,-61.37986785026554,1.832895581780716,-0.6917713615265283,197.555,8988.574530004647,11016.82538521552,150,True,19.979582257692936,False,161.77836894528787,178.74261913881563,False,19.284058812585386,True,False
3,1970-07-23 10:16:58.250040128,2025-09-11,2025-09-26 20:17:05.004,HH,C,1809609630,JASSM,3,105,76,2,2,1,225,9,2,0,1,26,0,0,0,0,-187480.1527117056,-4786209.764619674,4202098.657682896,-2.30145,-0.153206,0.128279,90.875,-13.875,-11.75,0.0,0.0,0.0,0.0,0.0,0.0,2,0,41.45082691497942,-92.2431805404126,10002.623998784164,99.82295717348929,-0.0048097651560165,0.0071749165956093,,8988.574530004647,11016.82538521552,150,3,2025-09-11,2025-09-26 20:17:04.910,HH,C,892143008,AMBUSH51,1,1,48,2,1,1,225,2,1,0,0,9,1,225,2,1,-151130.97131151386,-4790959.52321331,4197735.167589072,2.3281,2.78597,-0.390505,-100.459,36.6636,42.8719,-0.0123299,-7.04351,6.85778,-0.0148627,0.00311777,0.00187358,4,0,41.40076336764564,-91.80679804693962,9048.08518255632,-61.28200154178831,1.7680221795084432,-1.2615155581294089,197.97,8988.574530004647,11016.82538521552,150,True,19.853307028722554,False,161.77047835891972,178.67659597215066,False,19.360884700298335,True,False
3,1970-07-23 10:16:58.260206132,2025-09-11,2025-09-26 20:17:06.020,HH,C,1810922504,JASSM,3,105,76,2,2,1,225,9,2,0,1,26,0,0,0,0,-187380.1722429556,-4786225.211885299,4202085.610807896,-2.30145,-0.153206,0.128279,90.875,-13.875,-11.75,0.0,0.0,0.0,0.0,0.0,0.0,2,0,41.45067025852326,-92.2419782770578,10002.624582357996,99.82375304302472,-0.0038951232613185,0.0071742992025726,,8988.574530004647,11016.82538521552,150,3,2025-09-11,2025-09-26 20:17:06.078,HH,C,893534840,AMBUSH51,1,1,48,2,1,1,225,2,1,0,0,9,1,225,2,1,-151248.70140762877,-4790916.344057484,4197785.326448813,2.31785,2.78893,-0.389082,-100.674,36.7057,42.8404,-0.0399046,-7.1842,6.9306,-0.00740172,0.00387095,0.00493621,4,0,41.401336760692125,-91.8082208835044,9059.844509867036,-61.45111894715589,1.8234953955244932,-1.789473392105057,198.154,8988.574530004647,11016.82538521552,150,True,19.73004711212041,False,161.82360630198465,178.61151156600766,False,19.38206449811955,True,False
3,1970-07-23 10:16:58.271218130,2025-09-11,2025-09-26 20:17:07.121,HH,C,1812234332,JASSM,3,105,76,2,2,1,225,9,2,0,1,26,0,0,0,0,-187280.2738054556,-4786240.647432174,4202072.571745396,-2.30145,-0.153206,0.128279,90.875,-13.875,-11.75,0.0,0.0,0.0,0.0,0.0,0.0,2,0,41.450513692850734,-92.24077700545858,10002.626567474572,99.8245482535723,-0.0029812271515859,0.0071736574991847,,8988.574530004647,11016.82538521552,150,3,2025-09-11,2025-09-26 20:17:07.110,HH,C,894767604,AMBUSH51,1,1,48,2,1,1,225,2,1,0,0,9,1,225,2,1,-151351.72755135252,-4790878.72834244,4197829.350651736,2.32712,2.79073,-0.387759,-100.794,36.4348,43.0825,-0.0777489,-7.16124,6.93978,0.0195794,-0.0111343,-0.00134094,4,0,41.4018383871789,-91.8094659691034,9070.844334717562,-61.573209591965146,1.8395618440123267,-1.2233724247940254,198.264,8988.574530004647,11016.82538521552,150,True,19.61541027809172,False,161.83039126433005,178.55281797267762,False,19.433973578956856,True,False
3,1970-07-23 10:16:58.284034547,2025-09-11,2025-09-26 20:17:08.403,HH,C,1813487742,JASSM,3,105,76,2,2,1,225,9,2,0,1,26,0,0,0,0,-187184.82263358065,-4786255.393525924,4202060.112761021,-2.30145,-0.153206,0.128279,90.875,-13.875,-11.75,0.0,0.0,0.0,0.0,0.0,0.0,2,0,41.450364096438655,-92.239629218382,10002.62695268708,99.82530805644876,-0.0021080183985837,0.0071730550321105,,8988.574530004647,11016.82538521552,150,3,2025-09-11,2025-09-26 20:17:08.310,HH,C,896199202,AMBUSH51,1,1,48,2,1,1,225,2,1,0,0,9,1,225,2,1,-151471.92498557124,-4790834.993832207,4197880.897421088,2.33206,2.79633,-0.389913,-100.758,36.2788,43.2576,-0.164697,-7.13464,7.01284,-0.00691278,0.00448264,0.00757857,4,0,41.40242395522848,-91.81091853785686,9084.458544528765,-61.69407020240689,2.138812101646109,-0.8229117112432819,198.496,8988.574530004647,11016.82538521552,150,True,19.49326551118269,False,161.79520521631022,178.48379890438764,False,19.54148631959697,True,False
3,1970-07-23 10:16:58.293257699,2025-09-11,2025-09-26 20:17:09.325,HH,C,1814799382,JASSM,3,105,76,2,2,1,225,9,2,0,1,26,0,0,0,0,-187084.9378679556,-4786270.823213424,4202047.073698521,-2.30145,-0.153206,0.128279,90.875,-13.875,-11.75,0.0,0.0,0.0,0.0,0.0,0.0,2,0,41.45020753792818,-92.2384281242322,10002.626283048405,99.82610314469866,-0.0011942503598983,0.0071724232158165,,8988.574530004647,11016.82538521552,150,3,2025-09-11,2025-09-26 20:17:09.510,HH,C,897630802,AMBUSH51,1,1,48,2,1,1,225,2,1,0,0,9,1,225,2,1,-151592.6660465592,-4790791.534314419,4197932.546487484,2.32693,2.79861,-0.390552,-100.837,36.0546,43.4103,-0.10426,-7.15475,6.9591,-0.0117273,-0.00509434,-0.000747974,4,0,41.40300845636657,-91.8123775218774,9099.023175379649,-61.75363817250027,2.2521333576113416,-1.0689136883145527,198.679,8988.574530004647,11016.82538521552,150,True,19.368449261117075,False,161.81115361787406,178.41342889076802,False,19.597762278121117,True,False
3,1970-07-23 10:16:58.303137804,2025-09-11,2025-09-26 20:17:10.313,HH,C,1816052082,JASSM,3,105,76,2,2,1,225,9,2,0,1,26,0,0,0,0,-186989.5394304556,-4786285.557588424,4202034.620573521,-2.30145,-0.15311,0.128279,90.875,-13.875,-11.75,0.0,0.0,0.0,0.0,0.0,0.0,2,0,41.45005801509409,-92.23728098373329,10002.625625307926,99.8232262402912,-0.0043784600814009,0.006469254658887,,8988.574530004647,11016.82538521552,150,3,2025-09-11,2025-09-26 20:17:10.243,HH,C,898505668,AMBUSH51,1,1,48,2,1,1,225,2,1,0,0,9,1,225,2,1,-151666.6541983102,-4790765.018036407,4197964.301325602,2.32606,2.79886,-0.391891,-100.934,36.0457,43.4123,-0.0282406,-7.04548,7.00817,-0.00493205,-0.0036941,0.0053232,4,0,41.40336664507661,-91.81327153189424,9108.463986060427,-61.708755517247184,2.3161215009366822,-1.111391916102247,198.533,8988.574530004647,11016.82538521552,150,True,19.27323805825832,False,161.83582465114858,178.36791179395556,False,19.6224090134472,True,False
3,1970-07-23 10:16:58.314158931,2025-09-11,2025-09-26 20:17:11.415,HH,C,1817364432,JASSM,3,105,76,2,2,1,225,9,2,0,1,26,0,0,0,0,-186889.59997733065,-4786300.993135299,4202021.571745396,-2.30145,-0.15311,0.128279,90.875,-13.875,-11.75,0.0,0.0,0.0,0.0,0.0,0.0,2,0,41.44990134401586,-92.23607924448544,10002.623322209458,99.82402175079308,-0.0034641922412264,0.0064685619488093,,8988.574530004647,11016.82538521552,150,3,2025-09-11,2025-09-26 20:17:11.543,HH,C,900056566,AMBUSH51,1,1,48,2,1,1,225,2,1,0,0,9,1,225,2,1,-151797.73964867045,-4790718.470863701,4198020.61838859,2.32539,2.79806,-0.39293,-101.054,35.7735,43.535,-0.21016,-7.11232,6.91232,-0.00912029,0.00943446,0.0056124,4,0,41.40399904645364,-91.81485531580368,9126.384946325275,-61.63733027182545,2.3286562753451023,-1.164832309620491,198.679,8988.574530004647,11016.82538521552,150,True,19.14248290864925,False,161.88257429977352,178.28976363867847,False,19.655136338592417,True,False
3,1970-07-23 10:16:58.325181382,2025-09-11,2025-09-26 20:17:12.518,HH,C,1818676784,JASSM,3,105,76,2,2,1,225,9,2,0,1,26,0,0,0,0,-186789.6605242056,-4786316.428682174,4202008.522917271,-2.30145,-0.15311,0.128375,90.875,-13.875,-11.75,0.0,0.0,0.0,0.0,0.0,0.0,2,0,41.44974466037991,-92.23487751102029,10002.62635709894,99.82890781990794,-0.0062162987890959,0.0064675562635567,,8988.574530004647,11016.82538521552,150,3,2025-09-11,2025-09-26 20:17:12.310,HH,C,900971198,AMBUSH51,1,1,48,2,1,1,225,2,1,0,0,9,1,225,2,1,-151875.13815987407,-4790691.150440637,4198053.915760495,2.32143,2.79716,-0.395439,-101.116,35.4932,43.7165,-0.124643,-7.20238,7.00429,-0.00686908,0.00278696,-0.00117866,4,0,41.40437176889689,-91.81579040161829,9137.471081996217,-61.50207621050092,2.396235280648193,-1.405751849681908,198.679,8988.574530004647,11016.82538521552,150,True,19.042868571022566,False,161.8943085495333,178.24077240532088,False,19.689482030429257,True,False
3,1970-07-23 10:16:58.336197815,2025-09-11,2025-09-26 20:17:13.619,HH,C,1819989122,JASSM,3,105,76,2,2,1,225,9,2,0,1,26,0,0,0,0,-186689.7230242056,-4786331.862275924,4201995.472136021,-2.30145,-0.15311,0.128375,90.875,-13.875,-11.75,0.0,0.0,0.0,0.0,0.0,0.0,2,0,41.44958796218472,-92.23367580759412,10002.62587609587,99.82970330178694,-0.0053020484240549,0.0064669236543646,,8988.574530004647,11016.82538521552,150,3,2025-09-11,2025-09-26 20:17:13.544,HH,C,902442564,AMBUSH51,1,1,48,2,1,1,225,2,1,0,0,9,1,225,2,1,-152000.56117734435,-4790647.236521469,4198107.950284894,2.30292,2.79813,-0.398064,-101.279,35.1897,43.7737,-0.0931548,-7.21169,6.98601,-0.0342476,0.00464493,-0.00714788,4,0,41.40497412795392,-91.81730557757072,9156.49237035908,-61.43132362299559,2.539342006045616,-2.4418581951005405,198.899,8988.574530004647,11016.82538521552,150,True,18.9154935751227,False,161.9800579998649,178.16376555329273,False,19.681104695329935,True,False
3,1970-07-23 10:16:58.347617459,2025-09-11,2025-09-26 20:17:14.761,HH,C,1821241834,JASSM,3,105,76,2,2,1,225,9,2,0,1,26,0,0,0,0,-186594.3245867056,-4786346.592744674,4201983.015104771,-2.30145,-0.15311,0.128375,90.875,-13.875,-11.75,0.0,0.0,0.0,0.0,0.0,0.0,2,0,41.44943838885103,-92.23252869074588,10002.627286258235,99.8304626471222,-0.0044293264518125,0.0064663388172591,,8988.574530004647,11016.82538521552,150,3,2025-09-11,2025-09-26 20:17:14.710,HH,C,903834394,AMBUSH51,1,1,48,2,1,1,225,2,1,0,0,9,1,225,2,1,-152117.9384666852,-4790606.506930367,4198158.594244747,2.28126,2.80319,-0.402307,-101.456,34.6188,43.8072,-0.0992653,-7.45384,7.21346,-0.00992964,-0.00150323,-0.00306368,4,0,41.40553615292007,-91.81872344040754,9175.37065667212,-61.44493116700071,2.901361092511067,-3.570628664090913,199.046,8988.574530004647,11016.82538521552,150,True,18.7953196922954,False,162.13518176418717,178.09058654848525,False,19.59414127791007,True,False
3,1970-07-23 10:16:58.358418466,2025-09-11,2025-09-26 20:17:15.841,HH,C,1822554184,JASSM,3,105,76,2,2,1,225,9,2,0,1,26,0,0,0,0,-186494.38513358065,-4786362.022432174,4201969.962370396,-2.30145,-0.15311,0.128375,90.875,-13.875,-11.75,0.0,0.0,0.0,0.0,0.0,0.0,2,0,41.44928167664381,-92.23132697709924,10002.623210942684,99.8312581309312,-0.0035150619394761,0.0064657192457201,,8988.574530004647,11016.82538521552,150,3,2025-09-11,2025-09-26 20:17:15.843,HH,C,905186460,AMBUSH51,1,1,48,2,1,1,225,2,1,0,0,9,1,225,2,1,-152233.66658919177,-4790567.504088439,4198208.16349777,2.26416,2.81174,-0.40242,-101.723,33.7009,43.7361,-0.131434,-7.51135,7.38004,-0.00494245,0.00724983,-0.00981521,4,0,41.40608094307813,-91.82012096516002,9196.044229088864,-61.75568682582222,3.2300827988008542,-4.374924590943829,199.009,8988.574530004647,11016.82538521552,150,True,18.67374186141403,False,162.4209842353716,178.01860936074803,False,19.36904321627794,True,False
3,1970-07-23 10:16:58.368256692,2025-09-11,2025-09-26 20:17:16.825,HH,C,1823806882,JASSM,3,105,76,2,2,1,225,9,2,0,1,26,0,0,0,0,-186398.98669608065,-4786376.750947799,4201957.501432896,-2.30145,-0.15311,0.128375,90.875,-13.875,-11.75,0.0,0.0,0.0,0.0,0.0,0.0,2,0,41.44913206515812,-92.23017987195158,10002.62129756056,99.8320174639072,-0.0026423380785283,0.0064651196954372,,8988.574530004647,11016.82538521552,150,3,2025-09-11,2025-09-26 20:17:16.876,HH,C,906419226,AMBUSH51,1,1,48,2,1,1,225,2,1,0,0,9,1,225,2,1,-152338.7315400739,-4790532.950246506,4198253.24452452,2.26726,2.81932,-0.402067,-101.911,32.9238,43.619,-0.104581,-7.47005,7.26037,0.00758481,0.00745581,-0.00569979,4,0,41.40657096588218,-91.8213894150605,9217.09581985386,-62.04943975467307,3.5045569419899847,-4.04438093302129,198.643,8988.574530004647,11016.82538521552,150,True,18.56088891228306,False,162.67022440486082,177.95288100690033,False,19.176106266108135,True,False
3,1970-07-23 10:16:58.379137106,2025-09-11,2025-09-26 20:17:17.913,HH,C,1825059920,JASSM,3,105,76,2,2,1,225,9,2,0,1,26,0,0,0,0,-186303.56482108065,-4786391.483369674,4201945.038542271,-2.30145,-0.15311,0.128375,90.875,-13.875,-11.75,0.0,0.0,0.0,0.0,0.0,0.0,2,0,41.44898241123296,-92.22903249012197,10002.627363394848,99.83277697777908,-0.0017694006692623,0.0064645256496788,,8988.574530004647,11016.82538521552,150,3,2025-09-11,2025-09-26 20:17:18.043,HH,C,907811058,AMBUSH51,1,1,48,2,1,1,225,2,1,0,0,9,1,225,2,1,-152456.97983191648,-4790495.3938774,4198303.638820386,2.283,2.82875,-0.401483,-102.061,31.9065,43.6067,-0.189045,-7.53838,7.40722,0.0205282,-0.00858974,0.00223976,4,0,41.40711220753349,-91.82281654032349,9243.331507714283,-62.41995442783767,3.84133315960811,-2.954819059854686,198.227,8988.574530004647,11016.82538521552,150,True,18.4405631758879,False,162.91117457695407,177.88046641443904,False,18.991270916529068,True,False
3,1970-07-23 10:16:58.390136801,2025-09-11,2025-09-26 20:17:19.013,HH,C,1826371932,JASSM,3,105,76,2,2,1,225,9,2,0,1,26,0,0,0,0,-186203.65075858065,-4786406.907197799,4201931.985807896,-2.30145,-0.153015,0.128375,90.875,-13.875,-11.75,0.0,0.0,0.0,0.0,0.0,0.0,2,0,41.4488256914927,-92.22783109950934,10002.626847158574,99.82993606103062,-0.0049122943478517,0.0057608266005597,,8988.574530004647,11016.82538521552,150,3,2025-09-11,2025-09-26 20:17:18.943,HH,C,908884756,AMBUSH51,1,1,48,2,1,1,225,2,1,0,0,9,1,225,2,1,-152548.56941951416,-4790467.0034121135,4198342.853092348,2.29429,2.8335,-0.404642,-101.973,31.1989,43.7218,-0.0671287,-7.42742,7.23118,0.01252,0.00764931,0.00430787,4,0,41.40752847957972,-91.82392167258868,9265.770990947864,-62.46263781363677,4.148009790237441,-2.2042942007614874,197.824,8988.574530004647,11016.82538521552,150,True,18.3331703377076,False,162.97912445604575,177.8224244649973,False,18.968096140157638,True,False
3,1970-07-23 10:16:58.400180602,2025-09-11,2025-09-26 20:17:20.018,HH,C,1827624634,JASSM,3,105,76,2,2,1,225,9,2,0,1,26,0,0,0,0,-186108.25232108065,-4786421.631807174,4201919.522917271,-2.30145,-0.153015,0.128375,90.875,-13.875,-11.75,0.0,0.0,0.0,0.0,0.0,0.0,2,0,41.44867605521562,-92.226684012243,10002.625916392071,99.83069537534536,-0.0040395735199258,0.0057601812285804,,8988.574530004647,11016.82538521552,150,3,2025-09-11,2025-09-26 20:17:20.009,HH,C,910157288,AMBUSH51,1,1,48,2,1,1,225,2,1,0,0,9,1,225,2,1,-152657.23609240574,-4790434.009422904,4198389.43506446,2.30093,2.83255,-0.401954,-101.883,30.6004,43.8559,-0.0536909,-6.98026,6.9252,0.00765763,-0.00386262,-0.00440774,4,0,41.40801862530975,-91.8252326117866,9294.220121351744,-62.54061402566585,4.006580971112651,-1.8509020314600335,196.883,8988.574530004647,11016.82538521552,150,True,18.218507925829773,False,163.0133756873877,177.75487015744636,False,18.990767636190032,True,False
3,1970-07-23 10:16:58.411240054,2025-09-11,2025-09-26 20:17:21.124,HH,C,1828877862,JASSM,3,105,76,2,2,1,225,9,2,0,1,26,0,0,0,0,-186012.81482108065,-4786436.362275924,4201907.054167271,-2.30145,-0.153015,0.128375,90.875,-13.875,-11.75,0.0,0.0,0.0,0.0,0.0,0.0,2,0,41.44852634212886,-92.2255364606363,10002.627792350184,99.83145499477362,-0.0031664946789561,0.0057595315083726,,8988.574530004647,11016.82538521552,150,3,2025-09-11,2025-09-26 20:17:21.111,HH,C,911469586,AMBUSH51,1,1,48,2,1,1,225,2,1,0,0,9,1,225,2,1,-152768.99150771834,-4790400.412659356,4198437.157642437,2.2873,2.83673,-0.399252,-101.749,30.3589,43.551,-0.0801317,-6.92462,6.82917,-0.0168871,-0.00876242,-0.00289723,4,0,41.40851945423653,-91.82658070230576,9323.91187583993,-62.80638315800688,4.060430973223141,-2.5567455964316474,196.357,8988.574530004647,11016.82538521552,150,True,18.102112323357183,False,163.14975153606179,177.68496263377543,False,18.928108538699647,True,False
3,1970-07-23 10:16:58.422274701,2025-09-11,2025-09-26 20:17:22.227,HH,C,1830249334,JASSM,3,105,76,2,2,1,225,9,2,0,1,26,0,0,0,0,-185908.37341483065,-4786452.481416549,4201893.405729771,-2.30145,-0.153015,0.128471,90.875,-13.875,-11.75,0.0,0.0,0.0,0.0,0.0,0.0,2,0,41.448362475182,-92.22428065154848,10002.62558058122,99.83637688271816,-0.0058773678833392,0.0057585155993952,,8988.574530004647,11016.82538521552,150,3,2025-09-11,2025-09-26 20:17:22.243,HH,C,912821652,AMBUSH51,1,1,48,2,1,1,225,2,1,0,0,9,1,225,2,1,-152884.13790797404,-4790365.939972884,4198486.050960639,2.27468,2.83355,-0.396101,-101.73,30.3157,42.9911,0.0340086,-6.79806,6.67737,-0.00929922,-0.000866568,-0.00420176,4,0,41.409032736116416,-91.82796966076036,9354.26423093239,-62.8220182302992,3.815393814259497,-3.351782915326789,195.82,8988.574530004647,11016.82538521552,150,True,17.978893215159616,False,163.38125840519925,177.61162356615606,False,18.78185598823578,True,False
3,1970-07-23 10:16:58.433156536,2025-09-11,2025-09-26 20:17:23.315,HH,C,1831502038,JASSM,3,105,76,2,2,1,225,9,2,0,1,26,0,0,0,0,-185812.97497733065,-4786467.202119674,4201880.940886021,-2.30145,-0.153015,0.128471,90.875,-13.875,-11.75,0.0,0.0,0.0,0.0,0.0,0.0,2,0,41.4482128135696,-92.22313358241423,10002.625863931844,99.83713617808316,-0.0050046500025432,0.0057579420969289,,8988.574530004647,11016.82538521552,150,3,2025-09-11,2025-09-26 20:17:23.310,HH,C,914094184,AMBUSH51,1,1,48,2,1,1,225,2,1,0,0,9,1,225,2,1,-152992.57111116088,-4790333.590261209,4198531.614883259,2.24231,2.83608,-0.388424,-101.846,30.0716,42.5343,-0.111826,-6.79561,6.65522,-0.0945578,0.00151363,-0.00504856,4,0,41.40951217066786,-91.82927761410905,9382.09406598338,-63.23444215124713,3.609756478432229,-5.177321259820146,195.148,8988.574530004647,11016.82538521552,150,True,17.86453925425586,False,163.6382981386224,177.54220933284984,False,18.598687091826353,True,False
3,1970-07-23 10:16:58.444139963,2025-09-11,2025-09-26 20:17:24.413,HH,C,1832814976,JASSM,3,105,76,2,2,1,225,9,2,0,1,26,0,0,0,0,-185712.99060233065,-4786482.629854049,4201867.874479771,-2.30145,-0.153015,0.128471,90.875,-13.875,-11.75,0.0,0.0,0.0,0.0,0.0,0.0,2,0,41.44805593296734,-92.22193137799168,10002.624747970256,99.83793196749448,-0.0040899774320433,0.0057573288565942,,8988.574530004647,11016.82538521552,150,3,2025-09-11,2025-09-26 20:17:24.343,HH,C,915326950,AMBUSH51,1,1,48,2,1,1,225,2,1,0,0,9,1,225,2,1,-153098.83989595075,-4790302.207752763,4198575.5626096185,2.13677,2.84049,-0.384515,-102.263,29.6517,41.4816,0.0566197,-6.92384,6.73474,-0.092161,0.00118906,-0.0115463,4,0,41.40997533666933,-91.83055935212828,9408.632796001622,-63.55971890154637,3.6259237674906575,-11.14937033812494,194.683,8988.574530004647,11016.82538521552,150,False,17.748996625919116,False,164.23957580597914,177.4736962350196,False,18.073034381604213,True,False
3,1970-07-23 10:16:58.455155895,2025-09-11,2025-09-26 20:17:25.515,HH,C,1834126734,JASSM,3,105,76,2,2,1,225,9,2,0,1,26,0,0,0,0,-185613.09607108065,-4786498.043916549,4201854.817839146,-2.30145,-0.153015,0.128471,90.875,-13.875,-11.75,0.0,0.0,0.0,0.0,0.0,0.0,2,0,41.44789916631969,-92.22073025953944,10002.625147892037,99.83872703558352,-0.0031761242042186,0.005756701878926,,8988.574530004647,11016.82538521552,150,3,2025-09-11,2025-09-26 20:17:25.443,HH,C,916639248,AMBUSH51,1,1,48,2,1,1,225,2,1,0,0,9,1,225,2,1,-153211.58005295246,-4790270.241818761,4198620.514831922,2.02066,2.85739,-0.364904,-103.175,28.4582,39.7417,0.128343,-7.10226,6.93715,-0.0969692,-0.000739651,-0.018071,4,0,41.41044750724045,-91.83191865218146,9436.432836899732,-64.99864247395128,3.5084637279316366,-17.537429047842995,194.463,8988.574530004647,11016.82538521552,150,False,17.63000266727447,False,165.37563431098098,177.40388623247017,False,17.00124852410418,True,False
3,1970-07-23 10:16:58.465196959,2025-09-11,2025-09-26 20:17:26.519,HH,C,1835379436,JASSM,3,105,76,2,2,1,225,9,2,0,1,26,0,0,0,0,-185517.69763358065,-4786512.762666549,4201842.349089146,-2.30145,-0.153015,0.128471,90.875,-13.875,-11.75,0.0,0.0,0.0,0.0,0.0,0.0,2,0,41.44774945457122,-92.21958320763235,10002.627203083915,99.83948631256598,-0.0023034044062527,0.0057561136174299,,8988.574530004647,11016.82538521552,150,3,2025-09-11,2025-09-26 20:17:26.343,HH,C,917712948,AMBUSH51,1,1,48,2,1,1,225,2,1,0,0,9,1,225,2,1,-153304.75020776992,-4790245.308645713,4198655.55560486,1.95017,2.87153,-0.339362,-104.237,27.1815,37.6156,0.0778362,-6.78035,6.55859,-0.0557964,0.00173834,-0.0271674,4,0,41.41081464206901,-91.83304144278044,9458.487286744208,-66.5892349041295,3.0614675081423166,-21.387652762776053,194.231,8988.574530004647,11016.82538521552,150,False,17.524848735986165,False,166.71941925737974,177.34850595362138,False,15.707723503386893,True,False
3,1970-07-23 10:16:58.476216821,2025-09-11,2025-09-26 20:17:27.621,HH,C,1836632154,JASSM,3,105,76,2,2,1,225,9,2,0,1,26,0,0,0,0,-185422.29919608065,-4786527.479463424,4201829.878386021,-2.30145,-0.152919,0.128471,90.875,-13.875,-11.75,0.0,0.0,0.0,0.0,0.0,0.0,2,0,41.44759972983314,-92.21843616190398,10002.625081012808,99.83660949886536,-0.0054876068999617,0.0050519691458272,,8988.574530004647,11016.82538521552,150,3,2025-09-11,2025-09-26 20:17:27.576,HH,C,919184312,AMBUSH51,1,1,48,2,1,1,225,2,1,0,0,9,1,225,2,1,-153433.64857488088,-4790212.596289276,4198699.50617517,1.9378,2.87211,-0.296324,-105.842,26.5591,33.8379,-0.0543205,-5.58391,5.69558,0.00336536,-0.0160882,-0.0294623,4,0,41.411281382009086,-91.8345941278667,9483.56532651528,-68.41228048833716,1.3992087630617724,-22.157101744426623,193.547,8988.574530004647,11016.82538521552,150,False,17.39978218798381,False,168.74354530447337,177.28132516455392,False,13.797587830782275,True,False
3,1970-07-23 10:16:58.487243046,2025-09-11,2025-09-26 20:17:28.724,HH,C,1838004136,JASSM,3,105,76,2,2,1,225,9,2,0,1,26,0,0,0,0,-185317.8167742056,-4786543.596650924,4201816.220182896,-2.30145,-0.152919,0.128471,90.875,-13.875,-11.75,0.0,0.0,0.0,0.0,0.0,0.0,2,0,41.44743574055703,-92.21717989923428,10002.62592084091,99.83744106156864,-0.0045317871163993,0.0050512677808963,,8988.574530004647,11016.82538521552,150,3,2025-09-11,2025-09-26 20:17:28.709,HH,C,920536378,AMBUSH51,1,1,48,2,1,1,225,2,1,0,0,9,1,225,2,1,-153555.1334073631,-4790182.220447147,4198735.479402672,1.94923,2.87203,-0.260482,-107.292,26.878,29.787,0.0106782,-5.49375,5.42625,0.0135603,-0.0012057,-0.0269156,4,0,41.41168176681018,-91.83605735356718,9496.502986550671,-69.90739394502542,-0.0086124510319959,-21.521365337003967,193.693,8988.574530004647,11016.82538521552,150,False,17.274251527177203,False,170.5926442446517,177.2224462665269,False,12.094733471677122,True,False
3,1970-07-23 10:16:58.499216335,2025-09-11,2025-09-26 20:17:29.921,HH,C,1839257202,JASSM,3,105,76,2,2,1,225,9,2,0,1,26,0,0,0,0,-185222.3909929556,-4786558.315400924,4201803.743620396,-2.30145,-0.152919,0.128471,90.875,-13.875,-11.75,0.0,0.0,0.0,0.0,0.0,0.0,2,0,41.44728594699463,-92.21603253683504,10002.6234642606,99.838200537139,-0.0036588179901746,0.0050506201365538,,8988.574530004647,11016.82538521552,150,3,2025-09-11,2025-09-26 20:17:29.976,HH,C,922047510,AMBUSH51,1,1,48,2,1,1,225,2,1,0,0,9,1,225,2,1,-153691.31763695934,-4790147.872319119,4198770.443384256,1.97664,2.86665,-0.220584,-108.91,27.6248,25.5544,-0.0651547,-5.3226,5.14226,0.00888102,-0.023801,-0.038232,4,0,41.41209614980101,-91.83769775938316,9498.649992658367,-71.3692081105324,-1.79117236698453,-20.001548198457485,194.573,8988.574530004647,11016.82538521552,150,False,17.145690210159476,False,172.22630179828604,177.16317985846072,False,10.599508867856438,True,False
3,1970-07-23 10:16:58.509254589,2025-09-11,2025-09-26 20:17:30.925,HH,C,1840569186,JASSM,3,105,76,2,2,1,225,9,2,0,1,26,0,0,0,0,-185122.47888358065,-4786573.725557174,4201790.681120396,-2.30145,-0.152919,0.128471,90.875,-13.875,-11.75,0.0,0.0,0.0,0.0,0.0,0.0,2,0,41.447129106513,-92.21483123849848,10002.62606170651,99.83899571219683,-0.0027448087629727,0.0050499495607814,,8988.574530004647,11016.82538521552,150,3,2025-09-11,2025-09-26 20:17:30.843,HH,C,923081442,AMBUSH51,1,1,48,2,1,1,225,2,1,0,0,9,1,225,2,1,-153786.1074402813,-4790123.512465067,4198791.352003705,1.98434,2.86188,-0.192269,-109.93,28.4129,22.6935,-0.133764,-5.09967,4.81661,-0.0064384,-0.0133709,-0.0284511,4,0,41.412364117792464,-91.8388397345991,9491.599938493924,-72.3689646902055,-3.0969808510024013,-19.573729166781938,195.453,8988.574530004647,11016.82538521552,150,False,17.03801243350681,False,172.9986354553988,177.12152658023328,False,9.873734157113416,True,False
3,1970-07-23 10:16:58.520114204,2025-09-11,2025-09-26 20:17:32.011,HH,C,1841881536,JASSM,3,105,76,2,2,1,225,9,2,0,1,26,0,0,0,0,-185022.5394304556,-4786589.137666549,4201777.612761021,-2.30145,-0.152919,0.128567,90.875,-13.875,-11.75,0.0,0.0,0.0,0.0,0.0,0.0,2,0,41.44697220862207,-92.21362961822828,10002.623471691626,99.84388175356032,-0.0054968229443577,0.0050490151454481,,8988.574530004647,11016.82538521552,150,3,2025-09-11,2025-09-26 20:17:32.043,HH,C,924513040,AMBUSH51,1,1,48,2,1,1,225,2,1,0,0,9,1,225,2,1,-153919.68284625266,-4790088.326848129,4198816.383818769,2.08954,2.85876,-0.161579,-111.499,29.6569,18.7934,-0.116642,-5.77968,5.48916,0.121851,-0.00790938,-0.0403022,4,0,41.41271690493736,-91.84044932413536,9469.944546476714,-73.53268651273179,-4.428803340131563,-13.501387269019393,196.993,8988.574530004647,11016.82538521552,150,False,16.908835015306703,False,173.54393702103837,177.0699751693421,False,9.243375792938282,True,False
3,1970-07-23 10:16:58.530866015,2025-09-11,2025-09-26 20:17:33.086,HH,C,1843134800,JASSM,3,105,76,2,2,1,225,9,2,0,1,26,0,0,0,0,-184927.0980242056,-4786603.856416549,4201765.132292271,-2.30145,-0.152919,0.128567,90.875,-13.875,-11.75,0.0,0.0,0.0,0.0,0.0,0.0,2,0,41.446822356882336,-92.2124820854103,10002.626107472091,99.8446413349823,-0.004623711890209,0.0050484312032139,,8988.574530004647,11016.82538521552,150,3,2025-09-11,2025-09-26 20:17:33.243,HH,C,925944638,AMBUSH51,1,1,48,2,1,1,225,2,1,0,0,9,1,225,2,1,-154053.3288338934,-4790052.624332005,4198837.451023459,2.19589,2.86269,-0.1403,-112.927,30.3924,16.3974,-0.240659,-6.37309,5.89014,0.0857715,-0.00237084,0.00976111,4,0,41.41304597297092,-91.84205997643758,9438.42958831032,-74.57906414100334,-5.099110401509394,-7.286788930218757,198.826,8988.574530004647,11016.82538521552,150,True,16.782258615687926,False,173.63601347690795,177.02201231740827,False,9.012099038945749,True,False
3,1970-07-23 10:16:58.542180487,2025-09-11,2025-09-26 20:17:34.218,HH,C,1844506240,JASSM,3,105,76,2,2,1,225,9,2,0,1,26,0,0,0,0,-184822.6566179556,-4786619.959932174,4201751.474089146,-2.30145,-0.152919,0.128567,90.875,-13.875,-11.75,0.0,0.0,0.0,0.0,0.0,0.0,2,0,41.4466583745237,-92.21122634927156,10002.624893547469,99.84547253637028,-0.0036682709448406,0.0050478050858587,,8988.574530004647,11016.82538521552,150,3,2025-09-11,2025-09-26 20:17:34.109,HH,C,926978570,AMBUSH51,1,1,48,2,1,1,225,2,1,0,0,9,1,225,2,1,-154151.67020906272,-4790026.286478821,4198851.392574904,2.22298,2.8631,-0.137013,-113.99,30.4809,15.6785,-0.0218592,-6.7927,6.40694,0.020395,-0.00305119,-0.00717701,4,0,41.41327796354807,-91.84324518965376,9411.695656594153,-74.73396237351534,-5.209797316497212,-5.717619886091854,200.488,8988.574530004647,11016.82538521552,150,True,16.67045789998285,False,173.75669442191753,176.9844356174902,False,8.855356850627654,True,False
3,1970-07-23 10:16:58.553193552,2025-09-11,2025-09-26 20:17:35.319,HH,C,1845818966,JASSM,3,105,76,2,2,1,225,9,2,0,1,26,0,0,0,0,-184722.6878679556,-4786635.373994674,4201738.397917271,-2.30145,-0.152919,0.128567,90.875,-13.875,-11.75,0.0,0.0,0.0,0.0,0.0,0.0,2,0,41.44650138136922,-92.210024395312,10002.623372588878,99.8462681355322,-0.0027537427514601,0.0050471856201719,,8988.574530004647,11016.82538521552,150,3,2025-09-11,2025-09-26 20:17:35.309,HH,C,928410170,AMBUSH51,1,1,48,2,1,1,225,2,1,0,0,9,1,225,2,1,-154289.23270059936,-4789989.748787892,4198869.761896934,2.24981,2.87018,-0.131768,-115.438,30.3991,15.1038,-0.167483,-7.35323,6.81359,0.00885189,-0.00198593,0.0020317,4,0,41.41359300358257,-91.84490299900943,9372.599357457397,-75.23074021813348,-5.1200658877399245,-4.08145669183303,203.054,8988.574530004647,11016.82538521552,150,True,16.539415177298626,False,173.9759635291746,176.93757192736683,False,8.614982084579676,True,False
3,1970-07-23 10:16:58.565661666,2025-09-11,2025-09-26 20:17:36.566,HH,C,1847072178,JASSM,3,105,76,2,2,1,225,9,2,0,1,26,0,0,0,0,-184627.25232108065,-4786650.088838424,4201725.915495396,-2.30145,-0.152823,0.128567,90.875,-13.875,-11.75,0.0,0.0,0.0,0.0,0.0,0.0,2,0,41.44635150238788,-92.2088769509212,10002.628017612313,99.84339166225077,-0.0059376028219754,0.0043425526514655,,8988.574530004647,11016.82538521552,150,3,2025-09-11,2025-09-26 20:17:36.543,HH,C,929881534,AMBUSH51,1,1,48,2,1,1,225,2,1,0,0,9,1,225,2,1,-154433.0703681789,-4789952.527286774,4198888.522494679,2.22282,2.88105,-0.141654,-116.912,29.4143,15.2661,-0.0692532,-8.00865,7.45237,-0.0721561,0.00554583,-0.00449513,4,0,41.41391352687869,-91.84663607757348,9333.17863998991,-75.23761069230135,-4.281229552253823,-5.542568631647977,205.046,8988.574530004647,11016.82538521552,150,True,16.407464465592238,False,174.60199082070304,176.8905851005403,False,8.055163956519825,True,False
3,1970-07-23 10:16:58.575234287,2025-09-11,2025-09-26 20:17:37.523,HH,C,1848443292,JASSM,3,105,76,2,2,1,225,9,2,0,1,26,0,0,0,0,-184522.8363054556,-4786666.184541549,4201712.255339146,-2.30145,-0.152823,0.128567,90.875,-13.875,-11.75,0.0,0.0,0.0,0.0,0.0,0.0,2,0,41.44618750816775,-92.20762154001235,10002.6225054047,99.84422264064928,-0.0049823933280069,0.0043418534960209,,8988.574530004647,11016.82538521552,150,3,2025-09-11,2025-09-26 20:17:37.443,HH,C,930955234,AMBUSH51,1,1,48,2,1,1,225,2,1,0,0,9,1,225,2,1,-154538.34636204914,-4789926.65035361,4198902.414871659,2.1879,2.89726,-0.153641,-117.864,27.9648,15.5723,-0.217238,-9.02322,8.36591,-0.0209401,0.0359267,-0.0191924,4,0,41.41414106675519,-91.84790402067745,9308.042421213786,-75.35980183724395,-3.1392984639135677,-7.398924971167349,206.378,8988.574530004647,11016.82538521552,150,True,16.292035951359537,False,175.37133374605168,176.8536546670372,False,7.374832724122399,True,False
3,1970-07-23 10:16:58.585273668,2025-09-11,2025-09-26 20:17:38.527,HH,C,1849695990,JASSM,3,105,76,2,2,1,225,9,2,0,1,26,0,0,0,0,-184427.4378679556,-4786680.889619674,4201699.774870396,-2.30145,-0.152823,0.128567,90.875,-13.875,-11.75,0.0,0.0,0.0,0.0,0.0,0.0,2,0,41.446037668007634,-92.20647455471472,10002.62110045811,99.84498184787772,-0.0041096783669324,0.0043412177629539,,8988.574530004647,11016.82538521552,150,3,2025-09-11,2025-09-26 20:17:38.642,HH,C,932386832,AMBUSH51,1,1,48,2,1,1,225,2,1,0,0,9,1,225,2,1,-154680.3449540375,-4789895.159363838,4198921.654700156,2.16954,2.92713,-0.163781,-118.958,24.4655,16.4249,-0.230791,-9.63226,8.30265,0.00359423,0.0213063,-0.00750783,4,0,41.41443103597285,-91.8496129524726,9283.627793244874,-76.0777595919752,-1.501107150009521,-8.151035849577614,207.16,8988.574530004647,11016.82538521552,150,True,16.16141591171865,False,177.05460201016487,176.81248250266339,False,5.925681185088719,True,False
3,1970-07-23 10:16:58.596135072,2025-09-11,2025-09-26 20:17:39.613,HH,C,1851008832,JASSM,3,105,76,2,2,1,225,9,2,0,1,26,0,0,0,0,-184327.45935233065,-4786696.299775924,4201686.694792271,-2.30145,-0.152823,0.128567,90.875,-13.875,-11.75,0.0,0.0,0.0,0.0,0.0,0.0,2,0,41.445880624330464,-92.20527250874736,10002.621688383002,99.84577749818764,-0.0031950650960949,0.0043405539534134,,8988.574530004647,11016.82538521552,150,3,2025-09-11,2025-09-26 20:17:39.442,HH,C,933341230,AMBUSH51,1,1,48,2,1,1,225,2,1,0,0,9,1,225,2,1,-154775.59114820222,-4789876.682965633,4198934.953383021,2.17268,2.94675,-0.170344,-119.266,21.7994,17.0031,-0.114847,-9.65919,8.06004,0.016625,0.0139181,-0.000223664,4,0,41.4146124293369,-91.85075821510446,9274.61944535653,-76.54767602937332,-0.4276737247714128,-7.776275905364673,206.977,8988.574530004647,11016.82538521552,150,True,16.054233019711425,False,178.19662587257693,176.78383606583336,False,4.9786327175233085,True,False
3,1970-07-23 10:16:58.607153683,2025-09-11,2025-09-26 20:17:40.715,HH,C,1852320692,JASSM,3,105,76,2,2,1,225,9,2,0,1,26,0,0,0,0,-184227.5550554556,-4786711.698213424,4201673.622526646,-2.30145,-0.152823,0.128567,90.875,-13.875,-11.75,0.0,0.0,0.0,0.0,0.0,0.0,2,0,41.44572367354526,-92.20407136103458,10002.622805609575,99.84657255145372,-0.0022811289508725,0.0043398795972324,,8988.574530004647,11016.82538521552,150,3,2025-09-11,2025-09-26 20:17:40.709,HH,C,934852362,AMBUSH51,1,1,48,2,1,1,225,2,1,0,0,9,1,225,2,1,-154926.37662030023,-4789851.392395738,4198957.194792235,2.20118,2.97544,-0.177256,-119.131,17.9186,18.0966,-0.23904,-9.51353,7.92837,0.0204845,0.0233287,0.000221583,4,0,41.41488402978137,-91.85256977970408,9272.684151435724,-77.34087024577434,1.040051695493366,-5.863446440574713,205.62,8988.574530004647,11016.82538521552,150,True,15.916701135363038,False,178.73477089895258,176.7489805116502,False,4.072916256219073,True,False
3,1970-07-23 10:16:58.618180708,2025-09-11,2025-09-26 20:17:41.818,HH,C,1853573392,JASSM,3,105,76,2,2,1,225,9,2,0,1,26,0,0,0,0,-184132.15954764312,-4786726.399385299,4201661.140104771,-2.30145,-0.152823,0.128663,90.875,-13.875,-11.75,0.0,0.0,0.0,0.0,0.0,0.0,2,0,41.44557380738376,-92.20292442888736,10002.622891390254,99.85142241762632,-0.0050746651588076,0.0043390168417878,,8988.574530004647,11016.82538521552,150,3,2025-09-11,2025-09-26 20:17:41.843,HH,C,936204428,AMBUSH51,1,1,48,2,1,1,225,2,1,0,0,9,1,225,2,1,-155060.0873456776,-4789832.521267826,4198977.655719716,2.23014,2.98881,-0.183008,-118.538,15.6763,18.3918,-0.230787,-8.61875,7.07035,0.0397758,0.00305327,-0.000720926,4,0,41.41510867521874,-91.85417484261215,9281.323803380645,-77.60036116401878,1.822383182849845,-4.0732542048956,204.191,8988.574530004647,11016.82538521552,150,True,15.79119509341827,False,178.14947292462386,176.7212229845209,False,3.779040654365226,True,False
3,1970-07-23 10:16:58.629195306,2025-09-11,2025-09-26 20:17:42.919,HH,C,1854885744,JASSM,3,105,76,2,2,1,225,9,2,0,1,26,0,0,0,0,-184032.21618826807,-4786741.801729049,4201648.061979771,-2.30145,-0.152823,0.128663,90.875,-13.875,-11.75,0.0,0.0,0.0,0.0,0.0,0.0,2,0,41.44541677823487,-92.2017228238224,10002.627620639108,99.8522177688114,-0.0041603735790723,0.0043384147091578,,8988.574530004647,11016.82538521552,150,3,2025-09-11,2025-09-26 20:17:43.076,HH,C,937675792,AMBUSH51,1,1,48,2,1,1,225,2,1,0,0,9,1,225,2,1,-155205.46975294928,-4789814.317482368,4199000.370703399,2.25125,2.99878,-0.186735,-117.636,13.807,18.8001,-0.233955,-8.49538,6.96617,0.0312537,0.00816321,-0.000675153,4,0,41.41534229018148,-91.85591912716067,9297.436129629445,-77.8166948558616,2.3845091466451867,-2.7666698477976515,202.48,8988.574530004647,11016.82538521552,150,True,15.656920345773472,False,177.37728182666172,176.69390355630298,False,3.8486205778222713,True,False
3,1970-07-23 10:16:58.639237573,2025-09-11,2025-09-26 20:17:43.923,HH,C,1856139274,JASSM,3,105,76,2,2,1,225,9,2,0,1,26,0,0,0,0,-183936.75525076807,-4786756.510713424,4201635.567839146,-2.30145,-0.152823,0.128663,90.875,-13.875,-11.75,0.0,0.0,0.0,0.0,0.0,0.0,2,0,41.445266778058965,-92.20057511688164,10002.625237137676,99.85297744211978,-0.0032870881372628,0.0043378374128828,,8988.574530004647,11016.82538521552,150,3,2025-09-11,2025-09-26 20:17:43.909,HH,C,938669958,AMBUSH51,1,1,48,2,1,1,225,2,1,0,0,9,1,225,2,1,-155303.51989494704,-4789802.929300262,4199016.051528322,2.26994,3.00414,-0.187868,-116.801,13.0392,18.9034,-0.218093,-7.98994,6.54988,0.00014044,0.00833382,-0.00628028,4,0,41.41549697963031,-91.85709518471936,9311.27909989725,-77.96990884783419,2.6537332191776515,-1.6455397903607072,201.16,8988.574530004647,11016.82538521552,150,True,15.551034735659716,False,177.05597723442105,176.67269273964376,False,3.9503984705647976,True,False
3,1970-07-23 10:16:58.650259656,2025-09-11,2025-09-26 20:17:45.025,HH,C,1857391140,JASSM,3,105,76,2,2,1,225,9,2,0,1,26,0,0,0,0,-183841.42028983065,-4786771.200166549,4201623.089323521,-2.30145,-0.152727,0.128663,90.875,-13.875,-11.75,0.0,0.0,0.0,0.0,0.0,0.0,2,0,41.445116959295845,-92.19942892986224,10002.625547370768,99.85010021337644,-0.0064718656625084,0.0036327191068137,,8988.574530004647,11016.82538521552,150,3,2025-09-11,2025-09-26 20:17:45.044,HH,C,940022024,AMBUSH51,1,1,48,2,1,1,225,2,1,0,0,9,1,225,2,1,-155434.22364460948,-4789788.340293614,4199037.158913748,2.27653,3.0052,-0.186682,-115.705,12.792,18.5939,-0.0845887,-7.51075,6.15595,-0.0163275,-0.00472191,-0.00118906,4,0,41.41570102429648,-91.85866268113855,9331.638969925374,-78.06181543550592,2.65461718731523,-1.2607039479995978,199.058,8988.574530004647,11016.82538521552,150,True,15.427391853194543,False,177.04684609730944,176.648509599831,False,3.910284869686854,True,False
3,1970-07-23 10:16:58.661272387,2025-09-11,2025-09-26 20:17:46.127,HH,C,1858584188,JASSM,3,105,76,2,2,1,225,9,2,0,1,26,0,0,0,0,-183750.56482108065,-4786785.196260299,4201611.196745396,-2.30145,-0.152727,0.128663,90.875,-13.875,-11.75,0.0,0.0,0.0,0.0,0.0,0.0,2,0,41.4449741855311,-92.19833660494442,10002.621782899414,99.85082322482408,-0.0056407144962165,0.003632127724916,,8988.574530004647,11016.82538521552,150,3,2025-09-11,2025-09-26 20:17:46.009,HH,C,941175256,AMBUSH51,1,1,48,2,1,1,225,2,1,0,0,9,1,225,2,1,-155545.46995111814,-4789775.912932221,4199054.940928478,2.27684,2.99415,-0.180026,-114.941,13.0677,18.0113,-0.142557,-6.60349,5.49357,0.0018174,-0.014896,-0.0142469,4,0,41.4158735005288,-91.8599968387289,9348.552508296085,-77.93226910633821,1.936949856189752,-1.352790776735506,197.824,8988.574530004647,11016.82538521552,150,True,15.316846956078873,False,177.32153577380453,176.62658546692165,False,3.7247532911286605,True,False
3,1970-07-23 10:16:58.671155580,2025-09-11,2025-09-26 20:17:47.115,HH,C,1859836886,JASSM,3,105,76,2,2,1,225,9,2,0,1,26,0,0,0,0,-183655.16638358065,-4786799.893525924,4201598.708464146,-2.30145,-0.152727,0.128663,90.875,-13.875,-11.75,0.0,0.0,0.0,0.0,0.0,0.0,2,0,41.44482424657178,-92.19718966597344,10002.6235868053,99.85158238318871,-0.0047680009375034,0.0036314919969246,,8988.574530004647,11016.82538521552,150,3,2025-09-11,2025-09-26 20:17:47.209,HH,C,942606854,AMBUSH51,1,1,48,2,1,1,225,2,1,0,0,9,1,225,2,1,-155683.63842292537,-4789759.117698754,4199075.766488354,2.27342,2.97628,-0.160151,-114.35,14.5667,16.433,0.0540176,-5.70104,4.65604,-0.00492165,-0.0162775,0.00736635,4,0,41.41608728726591,-91.86165440436628,9363.48887228068,-78.10725263959316,0.4266954938998931,-1.7259106319543074,196.553,8988.574530004647,11016.82538521552,150,True,15.189083801507236,False,178.36545754111066,176.6005925000559,False,3.2242612265362864,True,False
3,1970-07-23 10:16:58.681215645,2025-09-11,2025-09-26 20:17:48.121,HH,C,1861090264,JASSM,3,105,76,2,2,1,225,9,2,0,1,26,0,0,0,0,-183559.71618826807,-4786814.596650924,4201586.212370396,-2.30145,-0.152727,0.128663,90.875,-13.875,-11.75,0.0,0.0,0.0,0.0,0.0,0.0,2,0,41.44467422040699,-92.19604211099282,10002.622810917015,99.85234194702802,-0.0038948155434952,0.0036308612639809,,8988.574530004647,11016.82538521552,150,3,2025-09-11,2025-09-26 20:17:48.143,HH,C,943720320,AMBUSH51,1,1,48,2,1,1,225,2,1,0,0,9,1,225,2,1,-155789.19036088724,-4789744.770089418,4199090.200717703,2.2793,2.96465,-0.148684,-114.029,16.2862,14.7457,-0.193175,-5.81223,4.90495,0.00899129,-0.0175009,-0.00220855,4,0,41.41624966176159,-91.86292127463128,9367.973782218582,-78.15519849132727,-0.5012551292357101,-1.491424392872402,196.37,8988.574530004647,11016.82538521552,150,True,15.079103444804712,False,179.4516475658146,176.5770786167413,False,3.027171385015429,True,False
3,1970-07-23 10:16:58.691234101,2025-09-11,2025-09-26 20:17:49.123,HH,C,1862342638,JASSM,3,105,76,2,2,1,225,9,2,0,1,26,0,0,0,0,-183464.34216483065,-4786829.288057174,4201573.726042271,-2.30145,-0.152727,0.128663,90.875,-13.875,-11.75,0.0,0.0,0.0,0.0,0.0,0.0,2,0,41.44452430104878,-92.19489547706635,10002.626486454395,99.85310089896456,-0.0030223266942047,0.0036302295318064,,8988.574530004647,11016.82538521552,150,3,2025-09-11,2025-09-26 20:17:48.909,HH,C,944634952,AMBUSH51,1,1,48,2,1,1,225,2,1,0,0,9,1,225,2,1,-155876.42209364165,-4789731.859723813,4199101.241584521,2.27885,2.95983,-0.140542,-113.892,17.2621,13.8219,-0.261344,-6.36155,5.40755,-0.00310113,-0.00951144,-0.0049591,4,0,41.41638411516762,-91.863968673414,9367.167871598574,-78.31898447597065,-1.0158237698342352,-1.5547192734394202,196.406,8988.574530004647,11016.82538521552,150,True,14.97916394293574,False,179.55393867545624,176.5547494662541,False,3.1318840085605224,True,False
3,1970-07-23 10:16:58.701255468,2025-09-11,2025-09-26 20:17:50.125,HH,C,1863535776,JASSM,3,105,76,2,2,1,225,9,2,0,1,26,0,0,0,0,-183373.47986014312,-4786843.282197799,4201561.829557896,-2.30145,-0.152727,0.128663,90.875,-13.875,-11.75,0.0,0.0,0.0,0.0,0.0,0.0,2,0,41.44438147105825,-92.19380309122072,10002.627105233933,99.85382394223453,-0.0021911135098808,0.0036296353782486,,8988.574530004647,11016.82538521552,150,3,2025-09-11,2025-09-26 20:17:50.144,HH,C,946106318,AMBUSH51,1,1,48,2,1,1,225,2,1,0,0,9,1,225,2,1,-156017.56132530616,-4789709.743311827,4199117.901495329,2.28178,2.95433,-0.135179,-113.873,18.252,12.8457,-0.0559802,-6.67268,5.462,0.00720406,-0.00926593,-0.00225016,4,0,41.41660081739571,-91.865663831275,9360.240421911716,-78.33841270755556,-1.4522303350951564,-1.4295520108039546,196.59,8988.574530004647,11016.82538521552,150,True,14.852193418542498,False,178.98035241839594,176.52606040972444,False,3.361209062307544,True,False
3,1970-07-23 10:16:58.712272885,2025-09-11,2025-09-26 20:17:51.227,HH,C,1864788210,JASSM,3,105,76,2,2,1,225,9,2,0,1,26,0,0,0,0,-183278.10095389312,-4786857.969697799,4201549.339323521,-2.30145,-0.152727,0.128663,90.875,-13.875,-11.75,0.0,0.0,0.0,0.0,0.0,0.0,2,0,41.44423152738903,-92.1926564110323,10002.621731585004,99.85458292038068,-0.0013185824968376,0.0036290088599965,,8988.574530004647,11016.82538521552,150,3,2025-09-11,2025-09-26 20:17:51.209,HH,C,947378850,AMBUSH51,1,1,48,2,1,1,225,2,1,0,0,9,1,225,2,1,-156138.0312395803,-4789690.072616695,4199131.327351832,2.2799,2.94878,-0.133598,-113.892,18.8585,12.2107,-0.168656,-7.07176,5.92242,-0.00501943,-0.00288266,-0.00686076,4,0,41.41678512372937,-91.86711105831482,9350.661603780514,-78.19463930681829,-1.745645305738486,-1.58390234487325,196.736,8988.574530004647,11016.82538521552,150,True,14.734051560910338,False,178.56293274354596,176.49857276918974,False,3.563998707058911,True,False
3,1970-07-23 10:16:58.722133814,2025-09-11,2025-09-26 20:17:52.213,HH,C,1866040728,JASSM,3,105,76,2,2,1,225,9,2,0,1,26,0,0,0,0,-183182.71618826807,-4786872.659150924,4201536.849089146,-2.30145,-0.152727,0.128759,90.875,-13.875,-11.75,0.0,0.0,0.0,0.0,0.0,0.0,2,0,41.44408156199553,-92.19150966519956,10002.6254684864,99.85943268631324,-0.0041121690112397,0.0036282185387736,,8988.574530004647,11016.82538521552,150,3,2025-09-11,2025-09-26 20:17:52.010,HH,C,948333248,AMBUSH51,1,1,48,2,1,1,225,2,1,0,0,9,1,225,2,1,-156228.93866430206,-4789674.8105481295,4199141.131045429,2.27949,2.94477,-0.132276,-113.926,19.2705,11.8222,-0.137847,-6.97411,5.91555,-0.0130963,-0.0102396,-0.00981104,4,0,41.4169244698027,-91.86820331516168,9341.698644562344,-78.09837648562478,-1.9642485247529389,-1.640932333124699,197.188,8988.574530004647,11016.82538521552,150,True,14.632075579168974,False,178.29305828841467,176.4741052029257,False,3.7333651676045734,True,False
3,1970-07-23 10:16:58.733155452,2025-09-11,2025-09-26 20:17:53.315,HH,C,1867293428,JASSM,3,105,76,2,2,1,225,9,2,0,1,26,0,0,0,0,-183087.31775076807,-4786887.348604049,4201524.354948521,-2.30145,-0.152727,0.128759,90.875,-13.875,-11.75,0.0,0.0,0.0,0.0,0.0,0.0,2,0,41.44393156192811,-92.19036276124424,10002.62430006764,99.86019180808552,-0.0032394591102624,0.0036276512726057,,8988.574530004647,11016.82538521552,150,3,2025-09-11,2025-09-26 20:17:53.409,HH,C,950003446,AMBUSH51,1,1,48,2,1,1,225,2,1,0,0,9,1,225,2,1,-156388.1822564259,-4789647.559067911,4199157.604965371,2.25543,2.94817,-0.137617,-114.078,19.3359,11.5791,-0.156973,-7.76437,6.81693,-0.074349,0.00786777,0.00459915,4,0,41.41716689427359,-91.87011684928996,9323.220264976511,-78.00288037696214,-1.6141379454711753,-2.996263006781417,197.861,8988.574530004647,11016.82538521552,150,True,14.492698397906873,False,178.17449372010572,176.44048479975896,False,3.762456264213719,True,False
3,1970-07-23 10:16:58.742192662,2025-09-11,2025-09-26 20:17:54.219,HH,C,1868367192,JASSM,3,105,76,2,2,1,225,9,2,0,1,26,0,0,0,0,-183005.54528983065,-4786899.940400924,4201513.644011021,-2.30145,-0.152631,0.128759,90.875,-13.875,-11.75,0.0,0.0,0.0,0.0,0.0,0.0,2,0,41.443802965601805,-92.18937967618774,10002.625368580051,99.85720669998636,-0.0065483042375753,0.0029220990498808,,8988.574530004647,11016.82538521552,150,3,2025-09-11,2025-09-26 20:17:54.243,HH,C,950997612,AMBUSH51,1,1,48,2,1,1,225,2,1,0,0,9,1,225,2,1,-156484.490169399,-4789631.608001445,4199167.507694294,2.26912,2.94898,-0.138144,-114.294,18.88,11.5848,-0.196413,-8.0489,6.71555,0.0645973,0.00181116,-0.0013139,4,0,41.417309930614216,-91.8712739249003,9313.22398629116,-78.01235893657764,-1.5587124865398767,-2.205540262161946,198.227,8988.574530004647,11016.82538521552,150,True,14.395258117407694,False,178.28051948931872,176.41738078154768,False,3.5498746598275113,True,False
3,1970-07-23 10:16:58.751252429,2025-09-11,2025-09-26 20:17:55.125,HH,C,1869500540,JASSM,3,105,76,2,2,1,225,9,2,0,1,26,0,0,0,0,-182919.23571951807,-4786913.227510299,4201502.339323521,-2.30145,-0.152631,0.128759,90.875,-13.875,-11.75,0.0,0.0,0.0,0.0,0.0,0.0,2,0,41.44366724857109,-92.18834205082084,10002.623346247236,99.85789348793206,-0.0057587425819641,0.0029215461765355,,8988.574530004647,11016.82538521552,150,3,2025-09-11,2025-09-26 20:17:55.075,HH,C,951991778,AMBUSH51,1,1,48,2,1,1,225,2,1,0,0,9,1,225,2,1,-156579.3160971558,-4789616.169807358,4199177.552299771,2.2895,2.95939,-0.13399,-114.266,18.2713,12.0695,0.0167171,-7.97375,6.70577,0.00829637,0.00805086,-0.00409357,4,0,41.41745114936916,-91.87241309701304,9304.68260393861,-78.5862506908052,-1.279755072746462,-0.9425471033836488,198.044,8988.574530004647,11016.82538521552,150,True,14.29614836703125,False,178.6114221620646,176.39353839968604,False,3.3447701675671273,True,False
3,1970-07-23 10:16:58.760133342,2025-09-11,2025-09-26 20:17:56.013,HH,C,1870574304,JASSM,3,105,76,2,2,1,225,9,2,0,1,26,0,0,0,0,-182837.46423514312,-4786925.817354049,4201491.628386021,-2.30145,-0.152631,0.128759,90.875,-13.875,-11.75,0.0,0.0,0.0,0.0,0.0,0.0,2,0,41.44353864637522,-92.18735898630736,10002.627051945658,99.8585441611995,-0.0050106928244205,0.0029210101846835,,8988.574530004647,11016.82538521552,150,3,2025-09-11,2025-09-26 20:17:55.912,HH,C,952985944,AMBUSH51,1,1,48,2,1,1,225,2,1,0,0,9,1,225,2,1,-156674.46672295537,-4789600.893443273,4199187.939013987,2.2959,2.96033,-0.141571,-114.358,17.5772,12.8099,-0.327011,-8.19531,7.03641,0.00437237,-0.00124316,0.00507769,4,0,41.417593639698566,-91.87355609179124,9297.312586862668,-78.30058464088854,-0.9479454783317388,-0.5741421870717383,197.824,8988.574530004647,11016.82538521552,150,True,14.199345688216921,False,179.0322466482171,176.36990746544024,False,3.170079903984292,True,False
3,1970-07-23 10:16:58.770171474,2025-09-11,2025-09-26 20:17:57.017,HH,C,1871707676,JASSM,3,105,76,2,2,1,225,9,2,0,1,26,0,0,0,0,-182751.1527117056,-4786939.104463424,4201480.319792271,-2.30145,-0.152631,0.128759,90.875,-13.875,-11.75,0.0,0.0,0.0,0.0,0.0,0.0,2,0,41.44340288520464,-92.18632134601904,10002.624116745585,99.85923095541986,-0.0042211094565574,0.0029204347118703,,8988.574530004647,11016.82538521552,150,3,2025-09-11,2025-09-26 20:17:56.975,HH,C,954258476,AMBUSH51,1,1,48,2,1,1,225,2,1,0,0,9,1,225,2,1,-156795.30477667126,-4789582.00865296,4199201.38848837,2.30074,2.95744,-0.142735,-114.249,17.7864,12.7426,-0.106096,-7.53168,6.62503,0.00412686,-0.00337785,-0.00940325,4,0,41.417773258739146,-91.87500746285647,9289.78939492881,-78.14217906020292,-1.0236305278656173,-0.3227482344866231,198.19,8988.574530004647,11016.82538521552,150,True,14.086029549865835,False,178.99121024990913,176.34250900140282,False,3.286770824266857,True,False
3,1970-07-23 10:16:58.779211828,2025-09-11,2025-09-26 20:17:57.921,HH,C,1872781440,JASSM,3,105,76,2,2,1,225,9,2,0,1,26,0,0,0,0,-182669.38025076807,-4786951.690400924,4201469.606901646,-2.30145,-0.152631,0.128759,90.875,-13.875,-11.75,0.0,0.0,0.0,0.0,0.0,0.0,2,0,41.44327427603292,-92.18533827959632,10002.621235114892,99.85988162653564,-0.0034730541242608,0.0029199100681977,,8988.574530004647,11016.82538521552,150,3,2025-09-11,2025-09-26 20:17:57.842,HH,C,955292408,AMBUSH51,1,1,48,2,1,1,225,2,1,0,0,9,1,225,2,1,-156894.14231095446,-4789566.636107194,4199212.570399364,2.29778,2.95701,-0.141738,-114.225,17.5571,13.0303,-0.191251,-7.5343,6.44328,-0.00500903,-0.00920143,-0.00151155,4,0,41.41792094405016,-91.876194566144,9284.216705872215,-78.16894068309408,-1.079136566437845,-0.4956618964439401,198.117,8988.574530004647,11016.82538521552,150,True,13.987224914958086,False,179.14722621241043,176.3179843168226,False,3.271594216053078,True,False
3,1970-07-23 10:16:58.788252364,2025-09-11,2025-09-26 20:17:58.825,HH,C,1873855364,JASSM,3,105,76,2,2,1,225,9,2,0,1,26,0,0,0,0,-182587.59607108065,-4786964.280244674,4201458.892057896,-2.30145,-0.152631,0.128759,90.875,-13.875,-11.75,0.0,0.0,0.0,0.0,0.0,0.0,2,0,41.44314562469109,-92.18435507521552,10002.62618719062,99.86053238730236,-0.0027248882379845,0.0029193703325598,,8988.574530004647,11016.82538521552,150,3,2025-09-11,2025-09-26 20:17:58.708,HH,C,956326340,AMBUSH51,1,1,48,2,1,1,225,2,1,0,0,9,1,225,2,1,-156993.5683632056,-4789551.186810786,4199223.980580834,2.29814,2.95647,-0.14548,-114.13,17.5974,13.0736,-0.0813814,-7.52567,6.47094,0.00990467,-0.00876034,0.00609094,4,0,41.418070499738974,-91.87738873818836,9279.003369268075,-77.99002147635336,-0.9572466014089228,-0.4822878941132515,198.08,8988.574530004647,11016.82538521552,150,True,13.888087706604148,False,179.1709579474879,176.29282743992553,False,3.332306707731719,True,False
3,1970-07-23 10:16:58.797154151,2025-09-11,2025-09-26 20:17:59.715,HH,C,1874988576,JASSM,3,105,76,2,2,1,225,9,2,0,1,26,0,0,0,0,-182501.29626639312,-4786977.561494674,4201447.585417271,-2.30145,-0.152631,0.128759,90.875,-13.875,-11.75,0.0,0.0,0.0,0.0,0.0,0.0,2,0,41.44300988181165,-92.18331759017966,10002.625717016314,99.86121907340544,-0.0019354180017751,0.0029188211553981,,8988.574530004647,11016.82538521552,150,3,2025-09-11,2025-09-26 20:17:59.575,HH,C,957360272,AMBUSH51,1,1,48,2,1,1,225,2,1,0,0,9,1,225,2,1,-157092.2823635704,-4789535.811505208,4199235.518912919,2.29913,2.95649,-0.146145,-114.072,17.4438,13.3611,-0.154271,-7.48821,6.52661,-0.00587872,0.00127228,-0.000136279,4,0,41.418220606682034,-91.87857437839534,9274.197953299932,-77.9632142150201,-0.9300192262902766,-0.4259620779315711,197.787,8988.574530004647,11016.82538521552,150,True,13.786859080912341,False,179.32043311695037,176.26636065153014,False,3.364424716724124,True,False
