Subject_cm,Timestamp,SampleDate_cm,SampleTime_cm,Configuration_cm,Scenario_cm,DisTime_cm,MarkingTxt_cm,Application_cm,EntId_cm,Site_cm,ExerciseId_cm,ForceId_cm,Category_cm,Country_cm,Domain_cm,Kind_cm,Extra_cm,Specific_cm,Subcategory_cm,AltCategory_cm,AltCountry_cm,AltDomain_cm,AltKind_cm,ECEF_X_cm,ECEF_Y_cm,ECEF_Z_cm,OriPhi_cm,OriPsi_cm,OriTheta_cm,LinVelX_cm,LinVelY_cm,LinVelZ_cm,LinAccX_cm,LinAccY_cm,LinAccZ_cm,AngVelX_cm,AngVelY_cm,AngVelZ_cm,DrAlg_cm,Appearance_cm,Latitude_cm,Longitude_cm,Altitude_cm,Heading_cm,Pitch_cm,Roll_cm,CalibratedAirspeed_cm,CM_Altitude_Lead_cm,CM_Altitude_Wing_cm,CM_Airspeed_cm,Subject_ac,SampleDate_ac,SampleTime_ac,Configuration_ac,Scenario_ac,DisTime_ac,MarkingTxt_ac,Application_ac,EntId_ac,Site_ac,ExerciseId_ac,ForceId_ac,Category_ac,Country_ac,Domain_ac,Kind_ac,Extra_ac,Specific_ac,Subcategory_ac,AltCategory_ac,AltCountry_ac,AltDomain_ac,AltKind_ac,ECEF_X_ac,ECEF_Y_ac,ECEF_Z_ac,OriPhi_ac,OriPsi_ac,OriTheta_ac,LinVelX_ac,LinVelY_ac,LinVelZ_ac,LinAccX_ac,LinAccY_ac,LinAccZ_ac,AngVelX_ac,AngVelY_ac,AngVelZ_ac,DrAlg_ac,Appearance_ac,Latitude_ac,Longitude_ac,Altitude_ac,Heading_ac,Pitch_ac,Roll_ac,CalibratedAirspeed_ac,CM_Altitude_Lead_ac,CM_Altitude_Wing_ac,CM_Airspeed_ac,Bank_Angle_Condition,distance_nm,Distance_Condition,angle_between_vel,angle_between_pos,Cone_Condition,angle_between_pos_nose,Nose_Cone_Condition,Intercept_Criteria
1,1970-07-23 09:33:44.431370154,2025-09-08,2025-09-26 20:14:03.137,HH,B,3224070148,JASSM,3,128,76,2,2,1,225,9,2,0,1,26,0,0,0,0,-111028.85808717164,-4807342.328016576,4181704.361906529,2.36214,2.75369,-0.386851,-72.75,29.75,32.125,0.0,0.0,0.0,0.0,0.0,0.0,2,0,41.201607778219056,-91.32304999434454,12000.000491947256,-59.90043572288145,-0.004881353251566,-0.0007800162576192,,10456.756926878135,13162.46325448802,150,1,2025-09-08,2025-09-26 20:14:02.978,HH,B,669885794,AMBUSH51,1,1,48,2,1,1,225,2,1,0,0,9,1,225,2,1,-154723.12942764995,-4793053.160229289,4196104.995517657,-2.3247,0.0266086,-0.0531166,119.334,3.61724,4.60078,0.058677,-7.41897,6.77834,-0.020626,0.00781367,0.00432452,4,0,41.376623334240826,-91.84890605286428,10944.688102011209,85.48710052182503,-0.5156329909910214,-1.7089103366205718,180.837,10456.756926878135,13162.46325448802,150,True,25.957966838844307,False,146.15921193959625,173.79472268154595,False,27.69591464413658,True,False
1,1970-07-23 09:33:44.447172641,2025-09-08,2025-09-26 20:14:04.717,HH,B,3225278912,JASSM,3,128,76,2,2,1,225,9,2,0,1,26,0,0,0,0,-111102.78191529664,-4807312.230497655,4181736.78036356,2.36166,2.75493,-0.3857,-72.875,29.75,32.0,0.0,0.0,0.0,0.0,0.0,0.0,2,0,41.201995525238274,-91.32393886320108,12000.000403905491,-59.99440105295135,-0.004484612220647,-0.0013437342178567,,10456.756926878135,13162.46325448802,150,1,2025-09-08,2025-09-26 20:14:04.810,HH,B,672072958,AMBUSH51,1,1,48,2,1,1,225,2,1,0,0,9,1,225,2,1,-154505.05328927826,-4793046.736784713,4196113.759436975,-2.3241,0.0272695,-0.0591026,119.582,3.23417,5.38066,-0.108958,-7.33941,6.706,-0.00752655,0.00170713,-0.0152268,4,0,41.376762531966,-91.84630437034927,10930.578982081968,85.20684835624554,-0.3147844539311717,-1.6704208309278887,181.339,10456.756926878135,13162.46325448802,150,True,25.807747619552032,False,146.10920821781417,174.00724642477687,False,27.943244292017052,True,False
1,1970-07-23 09:33:44.450313609,2025-09-08,2025-09-26 20:14:05.031,HH,B,3226412308,JASSM,3,128,76,2,2,1,225,9,2,0,1,26,0,0,0,0,-111172.09832154664,-4807284.008817968,4181767.176725865,2.36166,2.75493,-0.3857,-72.875,29.75,32.0,0.0,0.0,0.0,0.0,0.0,0.0,2,0,41.20235908868646,-91.32477234141416,12000.000317993428,-59.99495008000749,-0.0037597453536116,-0.0013449717535204,,10456.756926878135,13162.46325448802,150,1,2025-09-08,2025-09-26 20:14:05.177,HH,B,672510392,AMBUSH51,1,1,48,2,1,1,225,2,1,0,0,9,1,225,2,1,-154460.39477193353,-4793045.440587901,4196115.70848079,-2.32771,0.0265252,-0.0597472,119.644,3.36372,5.38631,-0.00146762,-7.33166,6.44839,-0.0039729,0.00429331,0.00507353,4,0,41.37679195811727,-91.8457715780396,10928.074671154343,85.20774127199891,-0.2580276765648499,-1.879751309673436,181.29,10456.756926878135,13162.46325448802,150,True,25.74312574778269,False,146.06731195659927,174.0221156495357,False,28.001461437638277,True,False
1,1970-07-23 09:33:44.460352709,2025-09-08,2025-09-26 20:14:06.035,HH,B,3227605354,JASSM,3,128,76,2,2,1,225,9,2,0,1,26,0,0,0,0,-111245.06121217164,-4807254.30100852,4181799.1722092633,2.36166,2.75493,-0.3857,-72.875,29.75,32.0,0.0,0.0,0.0,0.0,0.0,0.0,2,0,41.20274178070838,-91.32564967626556,12000.000343861462,-59.99552800053349,-0.0029967409736512,-0.0013462823160816,,10456.756926878135,13162.46325448802,150,1,2025-09-08,2025-09-26 20:14:05.878,HH,B,673345490,AMBUSH51,1,1,48,2,1,1,225,2,1,0,0,9,1,225,2,1,-154376.72879652344,-4793043.117104481,4196119.329249584,-2.32877,0.0270551,-0.0614537,119.677,3.39447,5.52459,-0.181047,-7.29466,6.50798,-0.0019568,-0.00246655,-0.000148763,4,0,41.37684624936771,-91.8447733706291,10923.57724621145,85.11508023741318,-0.2152040211189098,-1.9382292004126025,181.461,10456.756926878135,13162.46325448802,150,True,25.65764002870077,False,146.00927209626872,174.05828086594468,False,28.09536864403552,True,False
1,1970-07-23 09:33:44.470234139,2025-09-08,2025-09-26 20:14:07.023,HH,B,3228798398,JASSM,3,128,76,2,2,1,225,9,2,0,1,26,0,0,0,0,-111318.02605592164,-4807224.592420873,4181831.16696024,2.36166,2.75493,-0.3857,-72.875,29.75,32.0,0.0,0.0,0.0,0.0,0.0,0.0,2,0,41.20312446540599,-91.32652704481956,12000.000692976051,-59.99610594768712,-0.0022337216532502,-0.0013475834822299,,10456.756926878135,13162.46325448802,150,1,2025-09-08,2025-09-26 20:14:07.143,HH,B,674856622,AMBUSH51,1,1,48,2,1,1,225,2,1,0,0,9,1,225,2,1,-154225.09229395626,-4793038.5474850815,4196126.339033223,-2.32832,0.0324613,-0.0666751,119.803,3.4905,5.8773,-0.108135,-7.23797,6.65438,-0.0164107,0.00110584,-0.0111093,4,0,41.37694977852855,-91.84296434851504,10915.523538327516,84.6873846125599,-0.247117302406886,-1.8907173487670197,181.913,10456.756926878135,13162.46325448802,150,True,25.539953559107897,False,145.8567921196383,174.13353546149443,False,28.322069260449954,True,False
1,1970-07-23 09:33:44.479290942,2025-09-08,2025-09-26 20:14:07.929,HH,B,3229931794,JASSM,3,128,76,2,2,1,225,9,2,0,1,26,0,0,0,0,-111387.34050904664,-4807196.368360815,4181861.561247349,2.36166,2.75493,-0.3857,-72.875,29.75,32.0,0.0,0.0,0.0,0.0,0.0,0.0,2,0,41.20348801037562,-91.32736052907008,12000.000547768555,-59.99665499112463,-0.0015088694981847,-0.0013488297229438,,10456.756926878135,13162.46325448802,150,1,2025-09-08,2025-09-26 20:14:07.944,HH,B,675811022,AMBUSH51,1,1,48,2,1,1,225,2,1,0,0,9,1,225,2,1,-154129.8199978095,-4793035.899410313,4196130.45690355,-2.32844,0.0341785,-0.0656669,119.969,3.64684,5.76895,-0.205813,-7.25517,6.52707,0.000949791,-0.00255809,0.00161558,4,0,41.377011551378274,-91.84182766160308,10910.397218851762,84.66632056366448,-0.3580603972409089,-1.8915180735404136,181.913,10456.756926878135,13162.46325448802,150,True,25.451264330576443,False,145.84980611356548,174.17742327157023,False,28.375855118562413,True,False
1,1970-07-23 09:33:44.489331286,2025-09-08,2025-09-26 20:14:08.933,HH,B,3231124814,JASSM,3,128,76,2,2,1,225,9,2,0,1,26,0,0,0,0,-111460.30339967164,-4807166.658674535,4181893.55367899,2.36166,2.75493,-0.3857,-72.875,29.75,32.0,0.0,0.0,0.0,0.0,0.0,0.0,2,0,41.20387067306523,-91.32823789459398,12000.000305756068,-59.99723294491325,-0.0007458697013847,-0.0013501317425491,,10456.756926878135,13162.46325448802,150,1,2025-09-08,2025-09-26 20:14:08.944,HH,B,677004020,AMBUSH51,1,1,48,2,1,1,225,2,1,0,0,9,1,225,2,1,-154008.572160871,-4793032.2472479725,4196136.095481574,-2.32575,0.0386772,-0.0666667,120.118,3.79512,5.85653,-0.0606318,-7.14587,6.59882,0.00989843,0.00348812,0.00367121,4,0,41.37709451495958,-91.84038116671336,10904.04895857037,84.45386633871303,-0.5115381975685055,-1.7182132764810452,182.194,10456.756926878135,13162.46325448802,150,True,25.34807309794154,False,145.77564069555962,174.23640372829274,False,28.510439614816985,True,False
1,1970-07-23 09:33:44.499369786,2025-09-08,2025-09-26 20:14:09.936,HH,B,3232317888,JASSM,3,128,76,2,2,1,225,9,2,0,1,26,0,0,0,0,-111533.26824342164,-4807136.946821508,4181925.547087193,2.36166,2.75484,-0.385604,-72.875,29.75,32.0,0.0,0.0,0.0,0.0,0.0,0.0,2,0,41.20425334822994,-91.32911529420514,12000.000654134275,-59.99805612721933,-0.0074664321572844,-0.0034171177826992,,10456.756926878135,13162.46325448802,150,1,2025-09-08,2025-09-26 20:14:10.011,HH,B,678276552,AMBUSH51,1,1,48,2,1,1,225,2,1,0,0,9,1,225,2,1,-153881.4973476728,-4793027.9843712505,4196142.34544061,-2.32466,0.0426231,-0.0693792,120.308,3.9011,6.13684,-0.119076,-7.24468,6.40949,-0.00770964,-0.00465949,-0.00188398,4,0,41.3771863323755,-91.83886531756912,10897.071109624396,84.18894636281084,-0.576138860119265,-1.6379564737123613,182.402,10456.756926878135,13162.46325448802,150,True,25.24227357212171,False,145.64832072228378,174.29979141445133,False,28.700726265451387,True,False
1,1970-07-23 09:33:44.509249896,2025-09-08,2025-09-26 20:14:10.924,HH,B,3233451532,JASSM,3,128,76,2,2,1,225,9,2,0,1,26,0,0,0,0,-111602.59832154664,-4807108.71418601,4181955.9460129743,2.36166,2.75484,-0.385604,-72.875,29.75,32.0,0.0,0.0,0.0,0.0,0.0,0.0,2,0,41.20461695447539,-91.32994899560772,12000.000678920658,-59.99860532594697,-0.0067414172875728,-0.0034183654782295,,10456.756926878135,13162.46325448802,150,1,2025-09-08,2025-09-26 20:14:10.945,HH,B,679390018,AMBUSH51,1,1,48,2,1,1,225,2,1,0,0,9,1,225,2,1,-153769.35531660475,-4793024.0339460205,4196148.042695916,-2.32292,0.0426198,-0.069967,120.384,4.21193,6.18502,-0.13392,-7.21624,6.44573,0.00826932,-0.00205875,-0.000115473,4,0,41.37726969157009,-91.8375276663249,10890.850496257222,84.16475237688245,-0.5526474137715123,-1.5384580362198326,182.768,10456.756926878135,13162.46325448802,150,True,25.145902893374274,False,145.5347650947762,174.3557513447883,False,28.873439578240365,True,False
1,1970-07-23 09:33:44.518293977,2025-09-08,2025-09-26 20:14:11.829,HH,B,3234585120,JASSM,3,128,76,2,2,1,225,9,2,0,1,26,0,0,0,0,-111671.92644654664,-4807080.482191381,4181986.342497349,2.36176,2.75484,-0.385604,-72.875,29.75,32.0,0.0,0.0,0.0,0.0,0.0,0.0,2,0,41.2049805346034,-91.33078268279576,12000.000250918643,-59.99915451930792,-0.0060164277688029,0.0020718674975042,,10456.756926878135,13162.46325448802,150,1,2025-09-08,2025-09-26 20:14:11.777,HH,B,680384184,AMBUSH51,1,1,48,2,1,1,225,2,1,0,0,9,1,225,2,1,-153668.70666223657,-4793020.40842803,4196153.298582858,-2.32015,0.0452362,-0.0751141,120.435,3.78956,6.81987,-0.231333,-7.44418,6.8336,0.00563321,0.00640719,-0.0011204,4,0,41.37734593215431,-91.83632713727376,10885.385299691752,83.84567957059494,-0.4679680260539176,-1.3655915182275604,182.939,10456.756926878135,13162.46325448802,150,True,25.05502102845241,False,145.44586522682687,174.40552475456377,False,29.004264889950885,True,False
1,1970-07-23 09:33:44.529317146,2025-09-08,2025-09-26 20:14:12.931,HH,B,3235837376,JASSM,3,128,76,2,2,1,225,9,2,0,1,26,0,0,0,0,-111748.51043092164,-4807049.293836889,4182019.920622349,2.36176,2.75484,-0.385604,-72.875,29.75,32.0,0.0,0.0,0.0,0.0,0.0,0.0,2,0,41.20538217179965,-91.33170363459182,12000.000473901351,-59.99976120307516,-0.0052155548767846,0.002070488560953,,10456.756926878135,13162.46325448802,150,1,2025-09-08,2025-09-26 20:14:12.846,HH,B,681656716,AMBUSH51,1,1,48,2,1,1,225,2,1,0,0,9,1,225,2,1,-153539.33253664535,-4793015.734848177,4196160.3233146975,-2.29486,0.043068,-0.077173,120.607,4.18682,6.69148,-0.145301,-7.52929,6.72033,0.0341831,0.00223352,-0.000100909,4,0,41.37744580810524,-91.83478397317438,10878.91813022715,83.84061738222044,-0.2958579368134412,0.0738483161459186,183.062,10456.756926878135,13162.46325448802,150,True,24.946122302335972,False,145.37115908869538,174.4719993000667,False,29.15076167282287,True,False
1,1970-07-23 09:33:44.539359480,2025-09-08,2025-09-26 20:14:13.935,HH,B,3237030422,JASSM,3,128,76,2,2,1,225,9,2,0,1,26,0,0,0,0,-111821.47332154664,-4807019.579298315,4182051.9101243024,2.36176,2.75484,-0.385604,-72.875,29.75,32.0,0.0,0.0,0.0,0.0,0.0,0.0,2,0,41.2057648101966,-91.33258105205827,12000.00031518846,-60.00033921281873,-0.0044525500017206,0.0020691762000576,,10456.756926878135,13162.46325448802,150,1,2025-09-08,2025-09-26 20:14:14.110,HH,B,683167846,AMBUSH51,1,1,48,2,1,1,225,2,1,0,0,9,1,225,2,1,-153386.63666880142,-4793010.873548362,4196168.801495355,-2.28298,0.039612,-0.0790066,120.693,3.53214,6.96084,-0.107746,-7.4117,6.45796,6.13775e-05,-0.0064384,0.0107952,4,0,41.3775610323464,-91.832962371695,10873.313186841018,83.89414605877128,-0.0770694918449043,0.7389369080139234,183.184,10456.756926878135,13162.46325448802,150,True,24.828473970518207,False,145.48436790634094,174.55332191884114,False,29.112453958340495,True,False
1,1970-07-23 09:33:44.551219500,2025-09-08,2025-09-26 20:14:15.121,HH,B,3238223626,JASSM,3,128,76,2,2,1,225,9,2,0,1,26,0,0,0,0,-111894.44597779664,-4806989.859998998,4182083.903288365,2.36176,2.75484,-0.385604,-72.875,29.75,32.0,0.0,0.0,0.0,0.0,0.0,0.0,2,0,41.206147493545714,-91.3334585974034,12000.000599522962,-60.00091731123079,-0.0036894426874855,0.0020678633847345,,10456.756926878135,13162.46325448802,150,1,2025-09-08,2025-09-26 20:14:15.211,HH,B,684480146,AMBUSH51,1,1,48,2,1,1,225,2,1,0,0,9,1,225,2,1,-153254.6085665862,-4793006.874078976,4196176.259302744,-2.28861,0.0382031,-0.0776127,120.815,3.47684,6.79598,-0.120885,-7.44998,6.65056,-0.0166832,-0.00137215,0.00296381,4,0,41.377660284276494,-91.8313872447072,10869.253935363384,84.00833121460435,-0.0686052810551703,0.4097938728085374,183.184,10456.756926878135,13162.46325448802,150,True,24.720589475801862,False,145.56363761475217,174.62289198851366,False,29.10442559101808,True,False
1,1970-07-23 09:33:44.558332273,2025-09-08,2025-09-26 20:14:15.833,HH,B,3239357050,JASSM,3,128,76,2,2,1,225,9,2,0,1,26,0,0,0,0,-111963.76433717164,-4806961.628797826,4182114.2926926618,2.36176,2.75484,-0.385604,-72.875,29.75,32.0,0.0,0.0,0.0,0.0,0.0,0.0,2,0,41.20651099687964,-91.3342922068852,12000.000385059044,-60.00146647022167,-0.0029645549499925,0.00206662495509,,10456.756926878135,13162.46325448802,150,1,2025-09-08,2025-09-26 20:14:16.010,HH,B,685434544,AMBUSH51,1,1,48,2,1,1,225,2,1,0,0,9,1,225,2,1,-153158.07166655103,-4793003.864691478,4196181.996881131,-2.29597,0.0377553,-0.0755094,120.843,3.47887,6.87249,-0.254797,-7.42842,6.46633,-0.000259034,-0.00947399,0.0124347,4,0,41.377735269222256,-91.83023556532396,10866.699412531982,84.11625953482024,-0.1285034177394065,-0.0140085331580521,183.22,10456.756926878135,13162.46325448802,150,True,24.63179643395487,False,145.53673097168465,174.67230944553464,False,29.180888604333013,True,False
1,1970-07-23 09:33:44.569335710,2025-09-08,2025-09-26 20:14:16.933,HH,B,3240609534,JASSM,3,128,76,2,2,1,225,9,2,0,1,26,0,0,0,0,-112040.36199342164,-4806930.431227026,4182147.873747349,2.36176,2.75484,-0.385604,-72.875,29.75,32.0,0.0,0.0,0.0,0.0,0.0,0.0,2,0,41.20691267847231,-91.33521336702854,12000.00058071929,-60.00207330982493,-0.0021635382025273,0.0020652455192155,,10456.756926878135,13162.46325448802,150,1,2025-09-08,2025-09-26 20:14:16.877,HH,B,686468476,AMBUSH51,1,1,48,2,1,1,225,2,1,0,0,9,1,225,2,1,-153053.46454462738,-4793000.845210295,4196187.911481092,-2.29811,0.0392786,-0.0761604,120.876,3.36155,6.91263,-0.183331,-7.19618,6.45004,-0.0061492,-0.00957594,-0.0065778,4,0,41.37781303035018,-91.8289875132924,10863.87464860878,84.03145565380812,-0.1679697162339363,-0.1298095567184967,183.22,10456.756926878135,13162.46325448802,150,True,24.5345813360221,False,145.56010926125634,174.72560853297296,False,29.210334502333524,True,False
1,1970-07-23 09:33:44.578374337,2025-09-08,2025-09-26 20:14:17.837,HH,B,3241683276,JASSM,3,128,76,2,2,1,225,9,2,0,1,26,0,0,0,0,-112106.02800904664,-4806903.68507224,4182176.661589146,2.36176,2.75484,-0.385604,-72.875,29.75,32.0,0.0,0.0,0.0,0.0,0.0,0.0,2,0,41.20725702910211,-91.3360030729613,12000.00017791004,-60.00259355423143,-0.0014768380243007,0.0020640622552323,,10456.756926878135,13162.46325448802,150,1,2025-09-08,2025-09-26 20:14:17.677,HH,B,687422876,AMBUSH51,1,1,48,2,1,1,225,2,1,0,0,9,1,225,2,1,-152956.69112940162,-4792997.977286631,4196193.379500186,-2.30523,0.0398703,-0.0748933,120.977,3.41911,6.89965,-0.284476,-7.20101,6.46276,-0.0114651,-0.00723735,-0.00964252,4,0,41.37788537479954,-91.8278329495207,10861.075053000635,84.06413904430671,-0.2405497196446635,-0.5354323788373238,183.257,10456.756926878135,13162.46325448802,150,True,24.447932210064852,False,145.5496738044642,174.77601237207378,False,29.27246979219678,True,False
1,1970-07-23 09:33:44.587270726,2025-09-08,2025-09-26 20:14:18.727,HH,B,3242757016,JASSM,3,128,76,2,2,1,225,9,2,0,1,26,0,0,0,0,-112171.69402467164,-4806876.938795385,4182205.448454381,2.36176,2.75484,-0.385604,-72.875,29.75,32.0,0.0,0.0,0.0,0.0,0.0,0.0,2,0,41.20760136840787,-91.33679278720838,12000.000372228911,-60.00311380770021,-0.0007901408089888,0.002062884127261,,10456.756926878135,13162.46325448802,150,1,2025-09-08,2025-09-26 20:14:18.710,HH,B,688655642,AMBUSH51,1,1,48,2,1,1,225,2,1,0,0,9,1,225,2,1,-152831.03544886046,-4792994.373269569,4196200.532392612,-2.31221,0.035633,-0.0791127,120.995,3.2568,7.13774,-0.0367858,-7.50524,6.62198,-0.00041924,-0.00482178,0.000281921,4,0,41.37797893822008,-91.82633375342068,10857.85679224833,84.04467150201327,0.1020763430785853,-0.9538785748077466,183.624,10456.756926878135,13162.46325448802,150,True,24.34771798441227,False,145.5163635641825,174.84453018807827,False,29.37222206957839,True,False
1,1970-07-23 09:33:44.596332309,2025-09-08,2025-09-26 20:14:19.633,HH,B,3243831070,JASSM,3,128,76,2,2,1,225,9,2,0,1,26,0,0,0,0,-112237.38152467164,-4806850.182997045,4182234.244108677,2.36176,2.75474,-0.385604,-72.875,29.75,32.0,0.0,0.0,0.0,0.0,0.0,0.0,2,0,41.20794581524202,-91.33758276833008,12000.00031509985,-60.00001642458942,-0.0036811504822798,-3.8624646907802405e-06,,10456.756926878135,13162.46325448802,150,1,2025-09-08,2025-09-26 20:14:19.510,HH,B,689610040,AMBUSH51,1,1,48,2,1,1,225,2,1,0,0,9,1,225,2,1,-152734.4339955935,-4792991.90202934,4196206.044858171,-2.30546,0.0345679,-0.0810925,120.964,3.0949,7.21972,-0.0206457,-7.58604,6.45907,0.00668391,0.00569979,-0.00527535,4,0,41.37804916504894,-91.82518108569552,10856.154236515527,84.00083312382426,0.2236842315103279,-0.5722926620805718,183.709,10456.756926878135,13162.46325448802,150,True,24.26112780524716,False,145.5365866364746,174.89541239482364,False,29.40174119678327,True,False
1,1970-07-23 09:33:44.605370243,2025-09-08,2025-09-26 20:14:20.537,HH,B,3245023834,JASSM,3,128,76,2,2,1,225,9,2,0,1,26,0,0,0,0,-112310.32879029664,-4806820.469801244,4182266.2211594586,2.36176,2.75474,-0.385509,-72.875,29.75,32.0,0.0,0.0,0.0,0.0,0.0,0.0,2,0,41.20832831858031,-91.33846006777073,12000.000548058832,-60.00445699145357,-0.0068241161893763,-4.790193027600296e-06,,10456.756926878135,13162.46325448802,150,1,2025-09-08,2025-09-26 20:14:20.710,HH,B,691041638,AMBUSH51,1,1,48,2,1,1,225,2,1,0,0,9,1,225,2,1,-152590.07957887894,-4792988.274894207,4196214.685055694,-2.29457,0.0341194,-0.0815223,121.021,2.98434,7.28702,-0.276446,-7.45913,6.64658,0.0084753,-0.00480929,-0.00523166,4,0,41.37815641460353,-91.82345859017468,10854.654177110784,84.00050963691328,0.2604794185550253,0.049277774744173,183.868,10456.756926878135,13162.46325448802,150,True,24.14762476922897,False,145.54854373111664,174.9757128487186,False,29.469770801668616,True,False
1,1970-07-23 09:33:44.615590888,2025-09-08,2025-09-26 20:14:21.559,HH,B,3246097576,JASSM,3,128,76,2,2,1,225,9,2,0,1,26,0,0,0,0,-112375.99480592164,-4806793.720838842,4182295.006559849,2.36176,2.75474,-0.385509,-72.875,29.75,32.0,0.0,0.0,0.0,0.0,0.0,0.0,2,0,41.20867264697284,-91.33924980852711,12000.000311320173,-60.004977273384405,-0.0061374156209443,-5.976095899579189e-06,,10456.756926878135,13162.46325448802,150,1,2025-09-08,2025-09-26 20:14:21.710,HH,B,692234638,AMBUSH51,1,1,48,2,1,1,225,2,1,0,0,9,1,225,2,1,-152468.51250002816,-4792985.374864686,4196222.112361608,-2.28447,0.0304604,-0.0837862,120.966,2.61313,7.48804,-0.148459,-7.5524,6.66218,0.0251159,0.00715829,-0.000687637,4,0,41.378246815064166,-91.82200793913664,10854.1070232046,84.04280709335181,0.5039925502256047,0.6110254931217532,183.831,10456.756926878135,13162.46325448802,150,True,24.049424440008828,False,145.58976819112235,175.04340795675063,False,29.492949173161552,True,False
1,1970-07-23 09:33:44.624289665,2025-09-08,2025-09-26 20:14:22.428,HH,B,3247230968,JASSM,3,128,76,2,2,1,225,9,2,0,1,26,0,0,0,0,-112445.30925904664,-4806765.485121069,4182325.390593053,2.36176,2.75474,-0.385509,-72.875,29.75,32.0,0.0,0.0,0.0,0.0,0.0,0.0,2,0,41.20903609917286,-91.34008343682704,12000.000410752917,-60.00552647235814,-0.0054125622363857,-7.226627694404556e-06,,10456.756926878135,13162.46325448802,150,1,2025-09-08,2025-09-26 20:14:22.544,HH,B,693228802,AMBUSH51,1,1,48,2,1,1,225,2,1,0,0,9,1,225,2,1,-152368.42602426192,-4792983.3361506695,4196228.098160877,-2.28012,0.0250529,-0.0842887,120.842,2.30436,7.44559,-0.220534,-7.45376,6.75148,0.00215654,-0.00513179,-0.00211076,4,0,41.37831828192063,-91.8208134790385,10854.24070579512,84.22657028605913,0.7552296213264952,0.8362838360974377,183.795,10456.756926878135,13162.46325448802,150,True,23.95896491980328,False,145.69637985830576,175.09725886097962,False,29.438861351825917,True,False
1,1970-07-23 09:33:44.633336263,2025-09-08,2025-09-26 20:14:23.333,HH,B,3248304710,JASSM,3,128,76,2,2,1,225,9,2,0,1,26,0,0,0,0,-112510.97722779664,-4806738.734693822,4182354.17477274,2.36176,2.75474,-0.385509,-72.875,29.75,32.0,0.0,0.0,0.0,0.0,0.0,0.0,2,0,41.2093804165373,-91.34087321828136,12000.00021915651,-60.006046788470535,-0.0047258462526038,-8.40370447864557e-06,,10456.756926878135,13162.46325448802,150,1,2025-09-08,2025-09-26 20:14:23.344,HH,B,694183202,AMBUSH51,1,1,48,2,1,1,225,2,1,0,0,9,1,225,2,1,-152272.1998235632,-4792981.508332085,4196234.0176294325,-2.28619,0.0230525,-0.0827731,120.803,2.30294,7.26182,-0.0980945,-7.67103,6.59147,-0.00159894,-0.000252792,0.00986722,4,0,41.37838730532084,-91.81966503591543,10855.056382747342,84.368047177319,0.7841618938165571,0.4806645449173928,183.831,10456.756926878135,13162.46325448802,150,True,23.872631675331757,False,145.76165392716246,175.1496067005669,False,29.427710732906256,True,False
1,1970-07-23 09:33:44.643218306,2025-09-08,2025-09-26 20:14:24.321,HH,B,3249438104,JASSM,3,128,76,2,2,1,225,9,2,0,1,26,0,0,0,0,-112580.29168092164,-4806710.49745017,4182384.55758524,2.36176,2.75474,-0.385509,-72.875,29.75,32.0,0.0,0.0,0.0,0.0,0.0,0.0,2,0,41.20974385772072,-91.34170686497416,12000.00044404892,-60.00659600733957,-0.0040009922904462,-9.654699896740256e-06,,10456.756926878135,13162.46325448802,150,1,2025-09-08,2025-09-26 20:14:24.110,HH,B,695097834,AMBUSH51,1,1,48,2,1,1,225,2,1,0,0,9,1,225,2,1,-152179.60257331136,-4792979.93734632,4196239.706069665,-2.2933,0.0202728,-0.0842574,120.761,1.91299,7.48282,-0.215044,-7.55394,6.90657,-0.00260386,0.000286082,-0.00195264,4,0,41.37845254500655,-91.81855983023684,10856.291255627331,84.41014423950821,0.9602394434114488,0.0606670739933625,183.783,10456.756926878135,13162.46325448802,150,True,23.785703719459192,False,145.80073605253185,175.19943242241027,False,29.434880827797063,True,False
1,1970-07-23 09:33:44.652271540,2025-09-08,2025-09-26 20:14:25.227,HH,B,3250511846,JASSM,3,128,76,2,2,1,225,9,2,0,1,26,0,0,0,0,-112645.95769654664,-4806683.745619115,4182413.340544224,2.36176,2.75474,-0.385509,-72.875,29.75,32.0,0.0,0.0,0.0,0.0,0.0,0.0,2,0,41.21008816423676,-91.34249664057374,12000.000222652025,-60.00711632696255,-0.0033142911331415,-1.0840614728253196e-05,,10456.756926878135,13162.46325448802,150,1,2025-09-08,2025-09-26 20:14:25.343,HH,B,696569200,AMBUSH51,1,1,48,2,1,1,225,2,1,0,0,9,1,225,2,1,-152030.11055373543,-4792977.896757452,4196249.326324234,-2.27729,0.0157469,-0.0877534,120.578,1.44038,7.77886,-0.177735,-7.54089,6.83985,0.0494609,0.00974863,0.00371698,4,0,41.37855784911935,-91.8167753580184,10860.46079357307,84.43219070822592,1.2878228876261888,0.9564532746629896,183.587,10456.756926878135,13162.46325448802,150,True,23.674377783857324,False,145.8328390565373,175.28646807660738,False,29.485670336475156,True,False
1,1970-07-23 09:33:44.662310729,2025-09-08,2025-09-26 20:14:26.231,HH,B,3251704892,JASSM,3,128,76,2,2,1,225,9,2,0,1,26,0,0,0,0,-112718.92254029664,-4806654.020582494,4182445.3210129743,2.36176,2.75474,-0.385509,-72.875,29.75,32.0,0.0,0.0,0.0,0.0,0.0,0.0,2,0,41.21047072087605,-91.34337420997258,12000.000442188108,-60.00769449106377,-0.0025512694290599,-1.214671166487856e-05,,10456.756926878135,13162.46325448802,150,1,2025-09-08,2025-09-26 20:14:26.109,HH,B,697483832,AMBUSH51,1,1,48,2,1,1,225,2,1,0,0,9,1,225,2,1,-151937.70050460653,-4792976.957110153,4196255.291620143,-2.24164,0.0137309,-0.0903147,120.488,0.889592,7.87351,-0.233947,-7.62642,6.81932,0.0416941,0.0044223,-0.00993172,4,0,41.378621141411976,-91.81567214359572,10863.875702906911,84.3990081826622,1.4720238416245013,2.987820727091332,183.135,10456.756926878135,13162.46325448802,150,True,23.585246242974566,False,145.9628651846861,175.33651364068976,False,29.402144232202293,True,False
1,1970-07-23 09:33:44.671348034,2025-09-08,2025-09-26 20:14:27.134,HH,B,3252897940,JASSM,3,128,76,2,2,1,225,9,2,0,1,26,0,0,0,0,-112791.88543092164,-4806624.294691381,4182477.3007493024,2.36176,2.75474,-0.385509,-72.875,29.75,32.0,0.0,0.0,0.0,0.0,0.0,0.0,2,0,41.21085327118041,-91.3442517665652,12000.000572206607,-60.00827265115292,-0.0017882625922704,-1.3461767003318284e-05,,10456.756926878135,13162.46325448802,150,1,2025-09-08,2025-09-26 20:14:27.110,HH,B,698676830,AMBUSH51,1,1,48,2,1,1,225,2,1,0,0,9,1,225,2,1,-151818.26659311363,-4792976.347005962,4196262.841403408,-2.20465,0.00528919,-0.085711,120.312,0.259893,7.40485,-0.244371,-7.62514,6.75726,0.0398403,0.000556559,0.0107203,4,0,41.37869825334008,-91.8142460802689,10869.435827312418,84.91665392953715,1.6599794156076555,5.078401570371077,182.817,10456.756926878135,13162.46325448802,150,True,23.4833250146225,False,146.32003939901608,175.40379503667586,False,29.111328269296006,True,False
1,1970-07-23 09:33:44.683201758,2025-09-08,2025-09-26 20:14:28.320,HH,B,3254031334,JASSM,3,128,76,2,2,1,225,9,2,0,1,26,0,0,0,0,-112861.19988404664,-4806596.054334936,4182507.680632115,2.36176,2.75474,-0.385509,-72.875,29.75,32.0,0.0,0.0,0.0,0.0,0.0,0.0,2,0,41.211216686429246,-91.34508545151996,12000.00037135809,-60.008821911415886,-0.0010634089412993,-1.47111293888992e-05,,10456.756926878135,13162.46325448802,150,1,2025-09-08,2025-09-26 20:14:28.310,HH,B,700108430,AMBUSH51,1,1,48,2,1,1,225,2,1,0,0,9,1,225,2,1,-151673.45027694292,-4792976.557698907,4196271.34007281,-2.16046,-0.00457187,-0.0787808,120.07,-0.901103,6.65845,-0.191951,-7.36189,6.63456,0.0292376,-0.0058704,0.00404988,4,0,41.378781651030486,-91.81251658357532,10877.10426923326,85.5882799427054,1.8212755043600883,7.584537142208471,182.451,10456.756926878135,13162.46325448802,150,True,23.371522859181283,False,146.9391636983304,175.48717909146498,False,28.572913973483764,True,False
1,1970-07-23 09:33:44.692269195,2025-09-08,2025-09-26 20:14:29.226,HH,B,3255284032,JASSM,3,128,76,2,2,1,225,9,2,0,1,26,0,0,0,0,-112937.81121217164,-4806564.840345678,4182541.257780552,2.36176,2.75465,-0.385509,-72.875,29.75,32.0,0.0,0.0,0.0,0.0,0.0,0.0,2,0,41.21161835031716,-91.3460069111383,12000.000374749718,-60.00581091878673,-0.0038401891210906,-0.0020811804933093,,10456.756926878135,13162.46325448802,150,1,2025-09-08,2025-09-26 20:14:29.310,HH,B,701301428,AMBUSH51,1,1,48,2,1,1,225,2,1,0,0,9,1,225,2,1,-151554.4129210072,-4792977.783794569,4196277.328426967,-2.14765,-0.0127797,-0.0697494,119.876,-1.77872,5.53098,-0.172314,-7.28014,6.59653,0.0198499,-0.00184029,0.0146921,4,0,41.378837187443246,-91.8110945571178,10883.843249147694,86.28786308087874,1.8323725117222875,8.305949794633714,181.913,10456.756926878135,13162.46325448802,150,True,23.266997415044983,False,147.61707763577493,175.55230226595557,False,27.960933630844995,True,False
1,1970-07-23 09:33:44.703286798,2025-09-08,2025-09-26 20:14:30.328,HH,B,3256596384,JASSM,3,128,76,2,2,1,225,9,2,0,1,26,0,0,0,0,-113018.07097779664,-4806532.138990697,4182576.433073521,2.36176,2.75465,-0.385413,-72.875,29.75,32.0,0.0,0.0,0.0,0.0,0.0,0.0,2,0,41.21203913372537,-91.34697226547584,12000.000697819052,-60.01030940105407,-0.0069068201133789,-0.0020822375907492,,10456.756926878135,13162.46325448802,150,1,2025-09-08,2025-09-26 20:14:30.443,HH,B,702653494,AMBUSH51,1,1,48,2,1,1,225,2,1,0,0,9,1,225,2,1,-151417.80913495013,-4792980.453247969,4196282.907240159,-2.13101,-0.0210233,-0.0577592,119.739,-2.91599,4.19602,-0.204387,-7.18232,6.59187,0.0185579,0.00963211,0.0119624,4,0,41.378884658536805,-91.8094622030398,10891.88723138978,87.11645622427334,1.7335146009309732,9.255006910802043,181.632,10456.756926878135,13162.46325448802,150,True,23.151446715824953,False,148.45324468658345,175.6265264261996,False,27.199346163585098,True,False
1,1970-07-23 09:33:44.714308904,2025-09-08,2025-09-26 20:14:31.430,HH,B,3257908734,JASSM,3,128,76,2,2,1,225,9,2,0,1,26,0,0,0,0,-113098.32879029664,-4806499.4366591545,4182611.6071457863,2.36176,2.75465,-0.385413,-72.875,29.75,32.0,0.0,0.0,0.0,0.0,0.0,0.0,2,0,41.21245990680741,-91.34793760918862,12000.00035444884,-60.01094541789115,-0.0060675235455353,-0.0020836919238296,,10456.756926878135,13162.46325448802,150,1,2025-09-08,2025-09-26 20:14:31.610,HH,B,704045324,AMBUSH51,1,1,48,2,1,1,225,2,1,0,0,9,1,225,2,1,-151278.92190217014,-4792984.394695958,4196286.948721519,-2.11831,-0.0299826,-0.0455323,119.626,-4.06403,2.68216,0.0151981,-7.40101,6.55829,0.0198416,0.00973406,0.0273505,4,0,41.3789145906518,-91.8078020990183,10899.559206961858,87.98249963016815,1.6567441222879171,9.981744897861866,181.302,10456.756926878135,13162.46325448802,150,True,23.034353472443264,False,149.36132982604332,175.70044237188708,False,26.36645152360177,True,False
1,1970-07-23 09:33:44.727597278,2025-09-08,2025-09-26 20:14:32.759,HH,B,3259221086,JASSM,3,128,76,2,2,1,225,9,2,0,1,26,0,0,0,0,-113178.58855592164,-4806466.733228979,4182646.7804856314,2.36176,2.75465,-0.385413,-72.875,29.75,32.0,0.0,0.0,0.0,0.0,0.0,0.0,2,0,41.21288067304766,-91.34890298884967,12000.000325620003,-60.0115814637681,-0.0052282110367225,-0.0020851384658014,,10456.756926878135,13162.46325448802,150,1,2025-09-08,2025-09-26 20:14:32.710,HH,B,705357624,AMBUSH51,1,1,48,2,1,1,225,2,1,0,0,9,1,225,2,1,-151146.73211442953,-4792989.677804871,4196288.930293967,-2.04755,-0.0423117,-0.0324423,119.417,-5.61478,1.06008,-0.222675,-7.28107,6.52762,0.0717254,0.000589849,0.01061,4,0,41.378921355665206,-91.8062214717028,10906.594583200947,89.01333915104595,1.6922774677848145,14.03822826363551,180.972,10456.756926878135,13162.46325448802,150,False,22.919926496235245,False,150.43354302019793,175.76814400960376,False,25.36109957359926,True,False
1,1970-07-23 09:33:44.736375220,2025-09-08,2025-09-26 20:14:33.637,HH,B,3260533436,JASSM,3,128,76,2,2,1,225,9,2,0,1,26,0,0,0,0,-113258.84832154664,-4806434.028761205,4182681.953093053,2.36176,2.75465,-0.385413,-72.875,29.75,32.0,0.0,0.0,0.0,0.0,0.0,0.0,2,0,41.21330143235639,-91.34986838117304,12000.000648631283,-60.01221752334206,-0.0043888978039318,-0.0020865858952067,,10456.756926878135,13162.46325448802,150,1,2025-09-08,2025-09-26 20:14:33.744,HH,B,706590388,AMBUSH51,1,1,48,2,1,1,225,2,1,0,0,9,1,225,2,1,-151024.25865308312,-4792996.2488234695,4196288.530585007,-1.9943,-0.0556635,-0.0136529,119.212,-7.06056,-1.49959,-0.176579,-7.32966,6.39276,0.0332073,-0.000587768,0.0209776,4,0,41.37890254075795,-91.80475639490592,10912.396820509792,90.3282225070154,1.5559616599760349,17.10872908810658,180.434,10456.756926878135,13162.46325448802,150,False,22.809559597561083,False,151.8262460905219,175.82741211645805,False,24.03300022521528,True,False
1,1970-07-23 09:33:44.748390097,2025-09-08,2025-09-26 20:14:34.839,HH,B,3261845798,JASSM,3,128,76,2,2,1,225,9,2,0,1,26,0,0,0,0,-113339.10808717164,-4806401.323072729,4182717.124723912,2.36176,2.75465,-0.385413,-72.875,29.75,32.0,0.0,0.0,0.0,0.0,0.0,0.0,2,0,41.21372218416608,-91.35083378621052,12000.000343947017,-60.01285359664719,-0.0035495840970894,-0.0020880337012938,,10456.756926878135,13162.46325448802,150,1,2025-09-08,2025-09-26 20:14:34.944,HH,B,708021988,AMBUSH51,1,1,48,2,1,1,225,2,1,0,0,9,1,225,2,1,-150880.51583724312,-4793006.102140719,4196284.990301976,-1.94627,-0.0733064,0.0173309,118.951,-9.2381,-4.50462,-0.266448,-7.30237,6.69438,0.0336443,0.0035755,0.0256797,4,0,41.37884696489418,-91.80303608272494,10917.824419416726,92.33003414904528,1.1415992242710686,19.90993319740814,180.349,10456.756926878135,13162.46325448802,150,False,22.687892042900277,False,153.60829067925405,175.89468983111115,False,22.32167106898194,True,False
1,1970-07-23 09:33:44.757289466,2025-09-08,2025-09-26 20:14:35.728,HH,B,3263098744,JASSM,3,128,76,2,2,1,225,9,2,0,1,26,0,0,0,0,-113415.73504029664,-4806370.09712058,4182750.703337193,2.36176,2.75465,-0.385413,-72.875,29.75,32.0,0.0,0.0,0.0,0.0,0.0,0.0,2,0,41.21412388052255,-91.35175550566304,12000.000457095992,-60.01346089196819,-0.0027482619955269,-0.0020894130120678,,10456.756926878135,13162.46325448802,150,1,2025-09-08,2025-09-26 20:14:35.710,HH,B,708936620,AMBUSH51,1,1,48,2,1,1,225,2,1,0,0,9,1,225,2,1,-150789.56005550572,-4793013.897963227,4196280.362842919,-1.92264,-0.0893403,0.0342985,118.654,-10.8676,-6.67314,-0.246599,-7.26211,6.9778,-0.00483634,0.0216621,0.0406434,4,0,41.37878638303811,-91.80194694060457,10919.927796397033,93.6676250901941,1.1872850913653432,21.31460350788779,180.178,10456.756926878135,13162.46325448802,150,False,22.594022422374866,False,154.91670160316693,175.93124961618472,False,21.0520754793419,True,False
1,1970-07-23 09:33:44.774087502,2025-09-08,2025-09-26 20:14:37.408,HH,B,3264410856,JASSM,3,128,76,2,2,1,225,9,2,0,1,26,0,0,0,0,-113495.97918092164,-4806337.395582494,4182785.866667271,2.36185,2.75465,-0.385413,-72.875,29.75,32.0,0.0,0.0,0.0,0.0,0.0,0.0,2,0,41.21454453784357,-91.35272074755538,12000.000325681116,-60.01409686824602,-0.0019091097514108,0.0034142693801684,,10456.756926878135,13162.46325448802,150,1,2025-09-08,2025-09-26 20:14:37.476,HH,B,711044250,AMBUSH51,1,1,48,2,1,1,225,2,1,0,0,9,1,225,2,1,-150580.38550154952,-4793036.905075552,4196263.452628227,-1.9367,-0.129799,0.0837846,117.756,-15.0891,-11.8361,-0.211653,-7.55603,6.91467,-0.012287,0.00847322,0.0151873,4,0,41.37857449583007,-91.7994403010946,10923.68378663604,97.3265538227124,1.0390074927816897,20.7168798021422,180.104,10456.756926878135,13162.46325448802,150,False,22.436408248207513,False,158.1483521416891,176.01717091219456,False,17.908861850283614,True,False
1,1970-07-23 09:33:44.780131476,2025-09-08,2025-09-26 20:14:38.013,HH,B,3265723206,JASSM,3,128,76,2,2,1,225,9,2,0,1,26,0,0,0,0,-113576.23699342164,-4806304.687086401,4182821.035612584,2.36185,2.75465,-0.385413,-72.875,29.75,32.0,0.0,0.0,0.0,0.0,0.0,0.0,2,0,41.214965264385874,-91.35368616666446,12000.000455824897,-60.01473296664145,-0.0010698115055026,0.0034128143222727,,10456.756926878135,13162.46325448802,150,1,2025-09-08,2025-09-26 20:14:37.910,HH,B,711561218,AMBUSH51,1,1,48,2,1,1,225,2,1,0,0,9,1,225,2,1,-150529.8081723859,-4793043.594125735,4196258.018920474,-1.94526,-0.137192,0.0922939,117.508,-16.0655,-13.044,-0.276267,-7.78676,6.86585,-0.0281369,0.00941573,0.0315741,4,0,41.37850747725016,-91.79883378882732,10924.449407778797,97.97174086499874,1.030081849257899,20.27516472073289,179.933,10456.756926878135,13162.46325448802,150,False,22.359696906611745,False,158.90364886486498,176.0292955818636,False,17.16654104467982,True,False
1,1970-07-23 09:33:44.791974011,2025-09-08,2025-09-26 20:14:39.197,HH,B,3267035540,JASSM,3,128,76,2,2,1,225,9,2,0,1,26,0,0,0,0,-113656.49480592164,-4806271.977979955,4182856.203093053,2.36185,2.75455,-0.385413,-72.875,29.75,32.0,0.0,0.0,0.0,0.0,0.0,0.0,2,0,41.215385976505566,-91.35465159831676,12000.000408519329,-60.011750721671525,-0.0038084642056842,0.0013467645441857,,10456.756926878135,13162.46325448802,150,1,2025-09-08,2025-09-26 20:14:39.310,HH,B,713231416,AMBUSH51,1,1,48,2,1,1,225,2,1,0,0,9,1,225,2,1,-150366.6490788134,-4793068.149863327,4196236.794099837,-1.98165,-0.161271,0.124726,116.663,-19.0028,-16.9149,-0.27119,-7.55137,6.92306,-0.0189657,0.00339449,0.0370211,4,0,41.37824859684065,-91.7968761140265,10926.238747262398,100.27262869836416,0.8145561558974034,18.376519623080497,179.774,10456.756926878135,13162.46325448802,150,False,22.223147508600583,False,161.26927729786297,176.0827088864183,False,14.859623708765872,True,False
1,1970-07-23 09:33:44.801289000,2025-09-08,2025-09-26 20:14:40.128,HH,B,3268347892,JASSM,3,128,76,2,2,1,225,9,2,0,1,26,0,0,0,0,-113736.75457154664,-4806239.267286596,4182891.370329381,2.36185,2.75455,-0.385317,-72.875,29.75,32.0,0.0,0.0,0.0,0.0,0.0,0.0,2,0,41.21580668798094,-91.35561706605812,12000.00052714685,-60.01624918480474,-0.0068752336652205,0.0013457023252728,,10456.756926878135,13162.46325448802,150,1,2025-09-08,2025-09-26 20:14:40.076,HH,B,714146048,AMBUSH51,1,1,48,2,1,1,225,2,1,0,0,9,1,225,2,1,-150277.41156315518,-4793083.414910609,4196223.133187413,-1.9967,-0.176821,0.140227,116.167,-20.7048,-18.5765,-0.245746,-7.54928,7.15355,-0.0244688,0.0130901,0.0265265,4,0,41.37808222460178,-91.79580471178036,10927.286890192425,101.52442329198114,0.8777821183865437,17.650615332918903,179.848,10456.756926878135,13162.46325448802,150,False,22.124977341308327,False,162.42773422906453,176.10486134806303,False,13.71996197279881,True,False
1,1970-07-23 09:33:44.814369195,2025-09-08,2025-09-26 20:14:41.436,HH,B,3269719896,JASSM,3,128,76,2,2,1,225,9,2,0,1,26,0,0,0,0,-113820.66277467164,-4806205.068800268,4182928.134733677,2.36185,2.75455,-0.385317,-72.875,29.75,32.0,0.0,0.0,0.0,0.0,0.0,0.0,2,0,41.216246510482,-91.35662643536436,12000.000243047623,-60.01691425796732,-0.0059977683356125,0.0013441901787297,,10456.756926878135,13162.46325448802,150,1,2025-09-08,2025-09-26 20:14:41.276,HH,B,715577646,AMBUSH51,1,1,48,2,1,1,225,2,1,0,0,9,1,225,2,1,-150138.63479048767,-4793109.8578195255,4196198.956006074,-2.02479,-0.197106,0.161018,115.298,-23.2356,-21.1949,-0.11861,-7.73386,7.01772,-0.0112737,0.00696063,0.0205927,4,0,41.37778759444532,-91.79413753169166,10929.21823007128,103.17998436435836,0.9315224541643932,16.241902025731104,179.689,10456.756926878135,13162.46325448802,150,False,21.996992712224717,False,164.2156209306632,176.13924822122556,False,11.962308851643193,True,False
1,1970-07-23 09:33:44.824327073,2025-09-08,2025-09-26 20:14:42.432,HH,B,3271032246,JASSM,3,128,76,2,2,1,225,9,2,0,1,26,0,0,0,0,-113900.92058717164,-4806172.356153783,4182963.300016881,2.36185,2.75455,-0.385317,-72.875,29.75,32.0,0.0,0.0,0.0,0.0,0.0,0.0,2,0,41.21666720396821,-91.35759190569236,12000.000401216636,-60.017550411579336,-0.0051584696763167,0.0013427322934797,,10456.756926878135,13162.46325448802,150,1,2025-09-08,2025-09-26 20:14:42.310,HH,B,716810412,AMBUSH51,1,1,48,2,1,1,225,2,1,0,0,9,1,225,2,1,-150020.10808717008,-4793134.745072974,4196176.265729005,-2.04491,-0.220837,0.179681,114.303,-24.9745,-23.3311,-0.302861,-7.55375,7.18029,-0.0159093,0.0054626,0.0235887,4,0,41.37750846238345,-91.79271277508644,10932.11630855017,104.87434511992798,1.201647378357679,15.350881363062582,179.774,10456.756926878135,13162.46325448802,150,False,21.881537236242274,False,165.61721292941144,176.16430633905625,False,10.586551366800046,True,False
1,1970-07-23 09:33:44.835369271,2025-09-08,2025-09-26 20:14:43.536,HH,B,3272344596,JASSM,3,128,76,2,2,1,225,9,2,0,1,26,0,0,0,0,-113981.18035279664,-4806139.642408666,4182998.464323521,2.36185,2.75455,-0.385317,-72.875,29.75,32.0,0.0,0.0,0.0,0.0,0.0,0.0,2,0,41.21708788895654,-91.35855741197332,12000.000347017814,-60.0181865942357,-0.0043191559002595,0.0013412836307976,,10456.756926878135,13162.46325448802,150,1,2025-09-08,2025-09-26 20:14:43.543,HH,B,718281776,AMBUSH51,1,1,48,2,1,1,225,2,1,0,0,9,1,225,2,1,-149880.29890319164,-4793167.033213848,4196146.316178305,-2.06957,-0.242605,0.197621,113.226,-27.2036,-25.5424,-0.258909,-7.80327,6.94947,-0.0144279,0.00859806,0.0180897,4,0,41.37714024503215,-91.7910311125159,10935.852517420672,106.4618940804324,1.40764225516763,14.208285157384648,179.689,10456.756926878135,13162.46325448802,150,False,21.753322700096728,False,167.19908134536809,176.19039702416546,False,9.023883754771834,True,False
1,1970-07-23 09:33:44.845320361,2025-09-08,2025-09-26 20:14:44.532,HH,B,3273597296,JASSM,3,128,76,2,2,1,225,9,2,0,1,26,0,0,0,0,-114057.79168092164,-4806108.414625463,4183032.029509068,2.36185,2.75455,-0.385317,-72.875,29.75,32.0,0.0,0.0,0.0,0.0,0.0,0.0,2,0,41.21748944540919,-91.35947904026344,12000.000333124364,-60.01879387019776,-0.0035179941419399,0.0013398988221835,,10456.756926878135,13162.46325448802,150,1,2025-09-08,2025-09-26 20:14:44.576,HH,B,719514542,AMBUSH51,1,1,48,2,1,1,225,2,1,0,0,9,1,225,2,1,-149763.93850778282,-4793196.287778242,4196119.001103201,-2.08276,-0.260678,0.212353,112.27,-29.2101,-27.0171,-0.180231,-7.64513,6.94504,-0.0151852,0.00647377,0.0233952,4,0,41.37680347454656,-91.78963062451147,10939.651100339284,107.77172081231107,1.5766416398485217,13.697164408256224,179.725,10456.756926878135,13162.46325448802,150,False,21.63962130004788,False,168.42908480392578,176.20712092605007,False,7.796503469430163,True,False
1,1970-07-23 09:33:44.857247632,2025-09-08,2025-09-26 20:14:45.724,HH,B,3274969300,JASSM,3,128,76,2,2,1,225,9,2,0,1,26,0,0,0,0,-114141.69793092164,-4806074.211866674,4183068.790251256,2.36185,2.75455,-0.385317,-72.875,29.75,32.0,0.0,0.0,0.0,0.0,0.0,0.0,2,0,41.21792923474198,-91.3604884392437,12000.000274876978,-60.01945898530059,-0.0026405430399307,0.0013383778276561,,10456.756926878135,13162.46325448802,150,1,2025-09-08,2025-09-26 20:14:45.610,HH,B,720747308,AMBUSH51,1,1,48,2,1,1,225,2,1,0,0,9,1,225,2,1,-149647.35650620642,-4793227.597055529,4196089.757139035,-2.08983,-0.276406,0.22497,111.274,-30.8249,-28.8144,-0.111339,-7.53414,6.70797,0.0150958,0.0018715,0.0245125,4,0,41.376441485896095,-91.78822673901348,10944.313359623828,108.90212029837448,1.7252830578954197,13.520274634538232,179.481,10456.756926878135,13162.46325448802,150,False,21.520539371595092,False,169.67741616052186,176.21990897447384,False,6.556434820417196,True,False
1,1970-07-23 09:33:44.869230352,2025-09-08,2025-09-26 20:14:46.923,HH,B,3276281650,JASSM,3,128,76,2,2,1,225,9,2,0,1,26,0,0,0,0,-114221.95769654664,-4806041.495069799,4183103.951872349,2.36185,2.75455,-0.385317,-72.875,29.75,32.0,0.0,0.0,0.0,0.0,0.0,0.0,2,0,41.21834989526405,-91.3614539835047,12000.000371306149,-60.02009520904377,-0.0018012289301739,0.0013369296725799,,10456.756926878135,13162.46325448802,150,1,2025-09-08,2025-09-26 20:14:46.944,HH,B,722337972,AMBUSH51,1,1,48,2,1,1,225,2,1,0,0,9,1,225,2,1,-149501.02606053517,-4793269.801257334,4196049.961804125,-2.07186,-0.297654,0.245071,109.881,-32.8715,-31.211,-0.292092,-7.5297,6.97288,0.012185,0.0055375,0.0208548,4,0,41.37594896688715,-91.7864635621318,10950.62735586522,110.55436020449471,1.794916533400719,14.883951178382294,179.188,10456.756926878135,13162.46325448802,150,False,21.385740422870263,False,171.32621922025197,176.23356624175977,False,4.915655613043881,True,False
1,1970-07-23 09:33:44.880367128,2025-09-08,2025-09-26 20:14:48.036,HH,B,3277594002,JASSM,3,128,76,2,2,1,225,9,2,0,1,26,0,0,0,0,-114302.21550904664,-4806008.777174291,4183139.112761021,2.36185,2.75445,-0.385317,-72.875,29.75,32.0,0.0,0.0,0.0,0.0,0.0,0.0,2,0,41.21877054948989,-91.36241951717804,12000.00055445098,-60.0171128038313,-0.0045398848379899,-0.0007286872637635,,10456.756926878135,13162.46325448802,150,1,2025-09-08,2025-09-26 20:14:48.076,HH,B,723690038,AMBUSH51,1,1,48,2,1,1,225,2,1,0,0,9,1,225,2,1,-149377.08902737935,-4793308.266438032,4196013.374390831,-2.0678,-0.317047,0.263779,108.503,-34.7977,-33.1261,-0.190816,-7.49001,6.94261,0.011022,0.0065133,0.0199269,4,0,41.37549616612489,-91.78496921934271,10956.427191898672,112.07403645780438,1.8315685729462343,15.44445071115972,179.066,10456.756926878135,13162.46325448802,150,False,21.262880503979567,False,172.75970584295987,176.23892179439292,False,3.4797107294569294,True,False
1,1970-07-23 09:33:44.890329607,2025-09-08,2025-09-26 20:14:49.032,HH,B,3278906352,JASSM,3,128,76,2,2,1,225,9,2,0,1,26,0,0,0,0,-114382.47527467164,-4805976.058302221,4183174.27242899,2.36185,2.75445,-0.385317,-72.875,29.75,32.0,0.0,0.0,0.0,0.0,0.0,0.0,2,0,41.21919119283994,-91.36338508677213,12000.000299024756,-60.01774905488774,-0.0037005708376424,-0.0007300813221889,,10456.756926878135,13162.46325448802,150,1,2025-09-08,2025-09-26 20:14:49.143,HH,B,724962570,AMBUSH51,1,1,48,2,1,1,225,2,1,0,0,9,1,225,2,1,-149261.40338818528,-4793346.596465136,4195976.447115608,-2.02544,-0.335219,0.280871,107.074,-36.5238,-35.454,-0.127954,-7.42925,6.80187,0.0903613,0.0185433,0.0256215,4,0,41.37504032700004,-91.78357348329726,10961.799017906726,113.476770111553,1.8718230048437496,18.19638936934466,178.809,10456.756926878135,13162.46325448802,150,False,21.143931608921942,False,174.3103838413869,176.2386712365623,False,1.9295993015449373,True,False
1,1970-07-23 09:33:44.900228491,2025-09-08,2025-09-26 20:14:50.022,HH,B,3280159196,JASSM,3,128,76,2,2,1,225,9,2,0,1,26,0,0,0,0,-114459.09441529664,-4805944.822096166,4183207.837126256,2.36185,2.75445,-0.385317,-72.875,29.75,32.0,0.0,0.0,0.0,0.0,0.0,0.0,2,0,41.21959275603083,-91.36430686958704,12000.000362649856,-60.0183564581397,-0.0028993243331881,-0.0007314189063357,,10456.756926878135,13162.46325448802,150,1,2025-09-08,2025-09-26 20:14:50.176,HH,B,726195336,AMBUSH51,1,1,48,2,1,1,225,2,1,0,0,9,1,225,2,1,-149152.45957846154,-4793385.16539754,4195938.480555624,-1.97425,-0.354839,0.302181,105.399,-38.5258,-37.952,-0.243293,-7.28518,6.82021,0.0345597,0.00540643,0.0364094,4,0,41.37457478509195,-91.78225818645836,10966.02951424438,115.10408558441706,1.7870042414805325,21.50442187436644,178.393,10456.756926878135,13162.46325448802,150,False,21.030266206599805,False,176.02513531424486,176.23306616907203,False,0.38895261260584296,True,False
1,1970-07-23 09:33:44.911997134,2025-09-08,2025-09-26 20:14:51.199,HH,B,3281411924,JASSM,3,128,76,2,2,1,225,9,2,0,1,26,0,0,0,0,-114535.70574342164,-4805913.5878432365,4183241.397917271,2.36185,2.75445,-0.385221,-72.875,29.75,32.0,0.0,0.0,0.0,0.0,0.0,0.0,2,0,41.219994274898674,-91.365228570036,12000.00043718011,-60.02282599238448,-0.006004381258301,-0.0007324865922429,,10456.756926878135,13162.46325448802,150,1,2025-09-08,2025-09-26 20:14:51.309,HH,B,727547400,AMBUSH51,1,1,48,2,1,1,225,2,1,0,0,9,1,225,2,1,-149033.4998116493,-4793430.113609842,4195893.456009572,-1.95601,-0.386137,0.337695,103.252,-40.7213,-41.0664,-0.185131,-7.53368,6.94709,0.0117564,0.00790522,0.0259752,4,0,41.374025488399845,-91.78082093536592,10969.8937695995,117.74884556374757,1.5558972111435256,23.190701277497357,178.442,10456.756926878135,13162.46325448802,150,False,20.90944824534423,False,178.0723656388114,176.22171413857228,False,1.9966820892053365,True,False
1,1970-07-23 09:33:44.922286638,2025-09-08,2025-09-26 20:14:52.228,HH,B,3282724100,JASSM,3,128,76,2,2,1,225,9,2,0,1,26,0,0,0,0,-114615.95379029664,-4805880.87031394,4183276.5505051618,2.36185,2.75445,-0.385221,-72.875,29.75,32.0,0.0,0.0,0.0,0.0,0.0,0.0,2,0,41.22041484037647,-91.36619403561104,12000.000575763235,-60.02346219036705,-0.0051651858557754,-0.0007339427694409,,10456.756926878135,13162.46325448802,150,1,2025-09-08,2025-09-26 20:14:52.075,HH,B,728462032,AMBUSH51,1,1,48,2,1,1,225,2,1,0,0,9,1,225,2,1,-148954.9665951439,-4793461.882831585,4195861.0218402445,-1.95746,-0.402544,0.35622,101.707,-42.319,-43.1495,-0.173486,-7.39655,6.70958,0.00139712,0.00284521,0.0399339,4,0,41.37363208590055,-91.7798713465795,10971.729860368689,119.12458652678568,1.4207587980065874,23.46339421323617,178.308,10456.756926878135,13162.46325448802,150,False,20.810227221097644,False,179.1842500240526,176.2063008336868,False,3.478394790697889,True,False
1,1970-07-23 09:33:44.932308010,2025-09-08,2025-09-26 20:14:53.230,HH,B,3283976800,JASSM,3,128,76,2,2,1,225,9,2,0,1,26,0,0,0,0,-114692.56511842164,-4805849.6347182365,4183310.108854771,2.36185,2.75445,-0.385221,-72.875,29.75,32.0,0.0,0.0,0.0,0.0,0.0,0.0,2,0,41.22081633551656,-91.36711575952452,12000.000445561402,-60.024069569574266,-0.0043640231041977,-0.0007353299178643,,10456.756926878135,13162.46325448802,150,1,2025-09-08,2025-09-26 20:14:53.142,HH,B,729734564,AMBUSH51,1,1,48,2,1,1,225,2,1,0,0,9,1,225,2,1,-148848.43432255072,-4793507.61661903,4195813.367400705,-1.97037,-0.429106,0.385458,99.4498,-44.3503,-46.2109,-0.116533,-7.46309,6.85695,0.000845762,0.0132149,0.0476175,4,0,41.37305803451585,-91.77858224600187,10972.789579045915,121.31029941023402,1.2053329697915196,23.325194054049373,177.77,10456.756926878135,13162.46325448802,150,False,20.69475660389564,False,178.10020654102087,176.18284834554333,False,5.577941753600844,True,False
1,1970-07-23 09:33:44.945993874,2025-09-08,2025-09-26 20:14:54.599,HH,B,3285229498,JASSM,3,128,76,2,2,1,225,9,2,0,1,26,0,0,0,0,-114769.17644654664,-4805818.398268041,4183343.666227818,2.36185,2.75445,-0.385221,-72.875,29.75,32.0,0.0,0.0,0.0,0.0,0.0,0.0,2,0,41.22121782170648,-91.36803749495492,12000.000191830992,-60.02467696124842,-0.0035628610219797,-0.0007367156046392,,10456.756926878135,13162.46325448802,150,1,2025-09-08,2025-09-26 20:14:54.442,HH,B,731285462,AMBUSH51,1,1,48,2,1,1,225,2,1,0,0,9,1,225,2,1,-148721.3203272746,-4793566.798870154,4195750.332007849,-1.98109,-0.464332,0.420754,96.6061,-46.9355,-50.0736,-0.227736,-7.4393,7.18962,-0.0188096,0.0158448,0.0268678,4,0,41.3723039378332,-91.77704241585522,10972.027426150982,124.05000895281148,1.0111418031801438,23.55586584180796,178.65,10456.756926878135,13162.46325448802,150,False,20.564370972583088,False,175.5522638310403,176.14594867937146,False,8.243897982990068,True,False
1,1970-07-23 09:33:44.954351527,2025-09-08,2025-09-26 20:14:55.435,HH,B,3286541848,JASSM,3,128,76,2,2,1,225,9,2,0,1,26,0,0,0,0,-114849.43425904664,-4805785.673414526,4183378.8207688336,2.36185,2.75445,-0.385221,-72.75,29.75,32.0,0.0,0.0,0.0,0.0,0.0,0.0,2,0,41.2216384188021,-91.36900311496436,12000.000134206934,-60.02531327656877,-0.0027235610155742,-0.0007381750336182,,10456.756926878135,13162.46325448802,150,1,2025-09-08,2025-09-26 20:14:55.575,HH,B,732637528,AMBUSH51,1,1,48,2,1,1,225,2,1,0,0,9,1,225,2,1,-148612.6904969765,-4793621.337764475,4195691.23940823,-2.01629,-0.497014,0.454074,94.1548,-49.235,-53.2282,-0.163599,-7.3896,7.22951,-0.0119665,0.0118771,0.0431151,4,0,41.37160064664619,-91.77572505985351,10969.810459107575,126.59156282632982,0.7518404049799696,22.371500012406702,179.151,10456.756926878135,13162.46325448802,150,False,20.442064202301097,False,173.38863182521249,176.06100542038462,False,10.505902580625323,True,False
1,1970-07-23 09:33:44.964211078,2025-09-08,2025-09-26 20:14:56.421,HH,B,3287795008,JASSM,3,128,76,2,2,1,225,9,2,0,1,26,0,0,0,0,-114926.07293092164,-4805754.423658666,4183412.3891282086,2.36185,2.75445,-0.385221,-72.75,29.75,32.0,0.0,0.0,0.0,0.0,0.0,0.0,2,0,41.22204003919777,-91.36992520308544,12000.000807512231,-60.02592091064546,-0.0019221096631996,-0.0007395661849499,,10456.756926878135,13162.46325448802,150,1,2025-09-08,2025-09-26 20:14:56.576,HH,B,733830526,AMBUSH51,1,1,48,2,1,1,225,2,1,0,0,9,1,225,2,1,-148520.41879238022,-4793671.062776214,4195636.682527648,-2.04944,-0.524307,0.478525,91.9363,-51.1335,-56.0205,-0.192262,-7.45002,7.17367,-0.0427781,-0.000514947,0.0255611,4,0,41.370953578210205,-91.77460484375692,10966.838788854802,128.5673395849969,0.637556630701903,21.19904397606031,179.811,10456.756926878135,13162.46325448802,150,False,20.331513846483393,False,171.46038190286103,176.01607339454014,False,12.487419290463611,True,False
1,1970-07-23 09:33:44.975245293,2025-09-08,2025-09-26 20:14:57.524,HH,B,3289107138,JASSM,3,128,76,2,2,1,225,9,2,0,1,26,0,0,0,0,-115006.31902467164,-4805721.702223119,4183447.535856724,2.36185,2.75436,-0.385221,-72.75,29.75,32.0,0.0,0.0,0.0,0.0,0.0,0.0,2,0,41.22246054892177,-91.37089070667228,12000.000386782356,-60.022938262022585,-0.0046609009944287,-0.0028046948218409,,10456.756926878135,13162.46325448802,150,1,2025-09-08,2025-09-26 20:14:57.643,HH,B,735103058,AMBUSH51,1,1,48,2,1,1,225,2,1,0,0,9,1,225,2,1,-148422.93741558195,-4793726.765784096,4195575.098757927,-2.11153,-0.549459,0.505445,89.7812,-52.8351,-58.6931,-0.10485,-7.25138,7.03369,-0.0451853,0.00299085,0.0273671,4,0,41.37022446163564,-91.77342023171614,10962.95185750536,130.53881371738805,0.3089878670063696,18.339198429310844,180.471,10456.756926878135,13162.46325448802,150,False,20.213943281772625,False,169.63989061823088,175.9613058864468,False,14.3694273069829,True,False
1,1970-07-23 09:33:44.986286793,2025-09-08,2025-09-26 20:14:58.628,HH,B,3290359974,JASSM,3,128,76,2,2,1,225,9,2,0,1,26,0,0,0,0,-115082.93816529664,-4805690.458570776,4183481.093718053,2.36185,2.75436,-0.385221,-72.75,29.75,32.0,0.0,0.0,0.0,0.0,0.0,0.0,2,0,41.22286204967428,-91.37181258341944,12000.000656810911,-60.02354576671456,-0.0038596546346449,-0.002806032905506,,10456.756926878135,13162.46325448802,150,1,2025-09-08,2025-09-26 20:14:58.776,HH,B,736455124,AMBUSH51,1,1,48,2,1,1,225,2,1,0,0,9,1,225,2,1,-148323.07585724434,-4793787.155221342,4195507.662990555,-2.1694,-0.573078,0.524032,87.7686,-54.6517,-60.7938,-0.201626,-7.36151,7.1004,-0.0456743,0.0161506,0.0198541,4,0,41.36942838740159,-91.77220549331015,10957.736134637596,132.12680756917433,0.2610429151025986,15.69737759271776,181.339,10456.756926878135,13162.46325448802,150,False,20.095685810587153,False,168.00915860905354,175.89774652509377,False,16.06096954945304,True,False
1,1970-07-23 09:33:44.997306450,2025-09-08,2025-09-26 20:14:59.730,HH,B,3291672292,JASSM,3,128,76,2,2,1,225,9,2,0,1,26,0,0,0,0,-115163.19402467164,-4805657.7304213615,4183516.2438645368,2.36185,2.75436,-0.385221,-72.75,29.75,32.0,0.0,0.0,0.0,0.0,0.0,0.0,2,0,41.22328260506507,-91.37277822946736,12000.000424679976,-60.02418212003223,-0.003020374289778,-0.0028074389766021,,10456.756926878135,13162.46325448802,150,1,2025-09-08,2025-09-26 20:14:59.709,HH,B,737568590,AMBUSH51,1,1,48,2,1,1,225,2,1,0,0,9,1,225,2,1,-148241.3413866256,-4793838.893500577,4195449.8181444565,-2.22411,-0.59224,0.535465,86.3073,-56.0108,-62.2191,-0.181527,-7.43909,7.14857,-0.0483894,0.00512346,0.0228272,4,0,41.36874517210215,-91.77121042519062,10953.414771790342,133.2748074040026,0.3637493075452029,13.123982795931688,182.035,10456.756926878135,13162.46325448802,150,False,19.987048594717006,False,166.84997812676704,175.83813772021227,False,17.27651870747695,True,False
1,1970-07-23 09:33:45.008246658,2025-09-08,2025-09-26 20:15:00.824,HH,B,3292984302,JASSM,3,128,76,2,2,1,225,9,2,0,1,26,0,0,0,0,-115243.43230592164,-4805625.008985815,4183551.384977818,2.36185,2.75436,-0.385125,-72.75,29.75,32.0,0.0,0.0,0.0,0.0,0.0,0.0,2,0,41.22370305387973,-91.37374367651228,12000.000679788423,-60.02868038640697,-0.006087644768565,-0.002808560480653,,10456.756926878135,13162.46325448802,150,1,2025-09-08,2025-09-26 20:15:00.876,HH,B,738960422,AMBUSH51,1,1,48,2,1,1,225,2,1,0,0,9,1,225,2,1,-148142.1932125205,-4793904.582731621,4195376.910626762,-2.28424,-0.613245,0.542985,84.7703,-57.6148,-63.4901,-0.19533,-7.44552,7.27028,-0.0476259,0.00158437,0.00880404,4,0,41.367880481298585,-91.77000230269158,10949.449138981436,134.34867258359333,0.68252556605206,10.306639360684548,182.976,10456.756926878135,13162.46325448802,150,False,19.865047401232218,False,165.65828539345296,175.7618240358053,False,18.536805145894974,True,False
1,1970-07-23 09:33:45.019265883,2025-09-08,2025-09-26 20:15:01.926,HH,B,3294356304,JASSM,3,128,76,2,2,1,225,9,2,0,1,26,0,0,0,0,-115327.33855592164,-4805590.790235815,4183588.13180399,2.36195,2.75436,-0.385125,-72.75,29.75,32.0,0.0,0.0,0.0,0.0,0.0,0.0,2,0,41.2241427182943,-91.37475327113198,12000.000507958182,-60.029345712705855,-0.0052101913632746,0.0026813848978729,,10456.756926878135,13162.46325448802,150,1,2025-09-08,2025-09-26 20:15:01.909,HH,B,740193186,AMBUSH51,1,1,48,2,1,1,225,2,1,0,0,9,1,225,2,1,-148054.5613641383,-4793965.067693177,4195310.186601224,-2.34631,-0.626485,0.549364,83.7509,-58.9673,-64.2837,-0.0690584,-7.50825,7.21901,-0.0534848,0.00737259,0.0189199,4,0,41.367086363571374,-91.76893363860728,10946.96804423358,135.08404256606406,0.8026372738674914,7.153575492947095,183.636,10456.756926878135,13162.46325448802,150,True,19.748291025413387,False,164.8201706072511,175.68734823639116,False,19.440065117173972,True,False
1,1970-07-23 09:33:45.030330551,2025-09-08,2025-09-26 20:15:03.033,HH,B,3295609428,JASSM,3,128,76,2,2,1,225,9,2,0,1,26,0,0,0,0,-115403.97527467164,-4805559.535475072,4183621.6938157086,2.36195,2.75436,-0.385125,-72.75,29.75,32.0,0.0,0.0,0.0,0.0,0.0,0.0,2,0,41.2245442794545,-91.37567540776416,12000.000553861266,-60.02995340900484,-0.0044087611015806,0.0026799936147868,,10456.756926878135,13162.46325448802,150,1,2025-09-08,2025-09-26 20:15:02.942,HH,B,741425952,AMBUSH51,1,1,48,2,1,1,225,2,1,0,0,9,1,225,2,1,-147968.87051787955,-4794026.086899706,4195243.743575636,-2.3961,-0.639342,0.553882,83.0933,-60.2365,-64.571,-0.0798968,-7.56211,7.22393,-0.0273026,0.00254353,0.00685244,4,0,41.36629060150796,-91.76788797917156,10946.56660908926,135.73788637572764,0.988461969986003,4.696994886496023,184.161,10456.756926878135,13162.46325448802,150,True,19.63701962830977,False,164.2466372553739,175.61159108510103,False,20.07475084425765,True,False
1,1970-07-23 09:33:45.041328611,2025-09-08,2025-09-26 20:15:04.132,HH,B,3296980998,JASSM,3,128,76,2,2,1,225,9,2,0,1,26,0,0,0,0,-115487.85418092164,-4805525.325269994,4183658.427214146,2.36195,2.75436,-0.385125,-72.75,29.75,32.0,0.0,0.0,0.0,0.0,0.0,0.0,2,0,41.22498378921716,-91.37668469998466,12000.000208272746,-60.03061854721059,-0.0035315904791406,0.0026784628827784,,10456.756926878135,13162.46325448802,150,1,2025-09-08,2025-09-26 20:15:04.275,HH,B,743016618,AMBUSH51,1,1,48,2,1,1,225,2,1,0,0,9,1,225,2,1,-147858.63646662628,-4794106.695514294,4195156.946329129,-2.47146,-0.644335,0.552109,82.5668,-61.1189,-64.9379,-0.08883,-7.35443,7.07577,-0.0556486,-0.00114745,0.00685868,4,0,41.36524540682903,-91.76654208591134,10948.390760730432,135.86830611833116,1.2197306034198112,0.5320387870724367,184.479,10456.756926878135,13162.46325448802,150,True,19.502562256826852,False,163.78309021748012,175.51175517495622,False,20.630421095229273,True,False
1,1970-07-23 09:33:45.052349289,2025-09-08,2025-09-26 20:15:05.234,HH,B,3298293358,JASSM,3,128,76,2,2,1,225,9,2,0,1,26,0,0,0,0,-115568.11394654664,-4805492.591017065,4183693.5739426618,2.36195,2.75436,-0.385125,-72.75,29.75,32.0,0.0,0.0,0.0,0.0,0.0,0.0,2,0,41.22540431608997,-91.37765045675238,12000.000439010366,-60.03125500039583,-0.0026922728336153,0.002677007739385,,10456.756926878135,13162.46325448802,150,1,2025-09-08,2025-09-26 20:15:05.342,HH,B,744289150,AMBUSH51,1,1,48,2,1,1,225,2,1,0,0,9,1,225,2,1,-147769.85121629373,-4794172.662166409,4195086.885063106,-2.43755,-0.643099,0.549551,82.4471,-61.7413,-64.8593,-0.160904,-7.28057,6.95162,0.0946494,0.00319475,-0.0137663,4,0,41.36439634206065,-91.76545771780172,10952.10459923503,135.7313735768526,1.2994913214189934,2.4351453772833542,185.041,10456.756926878135,13162.46325448802,150,True,19.38615067195454,False,163.619276633257,175.42751715414778,False,20.868056912374293,True,False
