Subject_cm,Timestamp,SampleDate_cm,SampleTime_cm,Configuration_cm,Scenario_cm,DisTime_cm,MarkingTxt_cm,Application_cm,EntId_cm,Site_cm,ExerciseId_cm,ForceId_cm,Category_cm,Country_cm,Domain_cm,Kind_cm,Extra_cm,Specific_cm,Subcategory_cm,AltCategory_cm,AltCountry_cm,AltDomain_cm,AltKind_cm,ECEF_X_cm,ECEF_Y_cm,ECEF_Z_cm,OriPhi_cm,OriPsi_cm,OriTheta_cm,LinVelX_cm,LinVelY_cm,LinVelZ_cm,LinAccX_cm,LinAccY_cm,LinAccZ_cm,AngVelX_cm,AngVelY_cm,AngVelZ_cm,DrAlg_cm,Appearance_cm,Latitude_cm,Longitude_cm,Altitude_cm,Heading_cm,Pitch_cm,Roll_cm,CalibratedAirspeed_cm,CM_Altitude_Lead_cm,CM_Altitude_Wing_cm,CM_Airspeed_cm,Subject_ac,SampleDate_ac,SampleTime_ac,Configuration_ac,Scenario_ac,DisTime_ac,MarkingTxt_ac,Application_ac,EntId_ac,Site_ac,ExerciseId_ac,ForceId_ac,Category_ac,Country_ac,Domain_ac,Kind_ac,Extra_ac,Specific_ac,Subcategory_ac,AltCategory_ac,AltCountry_ac,AltDomain_ac,AltKind_ac,ECEF_X_ac,ECEF_Y_ac,ECEF_Z_ac,OriPhi_ac,OriPsi_ac,OriTheta_ac,LinVelX_ac,LinVelY_ac,LinVelZ_ac,LinAccX_ac,LinAccY_ac,LinAccZ_ac,AngVelX_ac,AngVelY_ac,AngVelZ_ac,DrAlg_ac,Appearance_ac,Latitude_ac,Longitude_ac,Altitude_ac,Heading_ac,Pitch_ac,Roll_ac,CalibratedAirspeed_ac,CM_Altitude_Lead_ac,CM_Altitude_Wing_ac,CM_Airspeed_ac,Bank_Angle_Condition,distance_nm,Distance_Condition,angle_between_vel,angle_between_pos,Cone_Condition,angle_between_pos_nose,Nose_Cone_Condition,Intercept_Criteria
1,1970-07-23 10:27:38.405296715,2025-09-12,2025-09-26 14:04:00.529,HH,C,1572313318,JASSM,3,102,76,2,2,1,225,9,2,0,1,26,0,0,0,0,-163289.76599295562,-4785541.036104049,4204315.532682896,-2.36559,-0.397301,0.382249,74.0,-31.0,-32.125,0.0,0.0,0.0,0.0,0.0,0.0,2,0,41.47503851657493,-91.95425887625991,10997.37704385901,119.85322367564213,-0.0042595518770843,0.0050462176743943,,9720.794529171932,12053.737931086003,150,1,2025-09-12,2025-09-26 14:04:00.542,HH,C,4253326074,AMBUSH51,1,1,48,2,1,1,225,2,1,0,0,9,1,225,2,1,-145590.48682042182,-4793078.218610135,4195836.838606303,2.37425,2.69202,-0.489128,-102.544,26.2457,30.6797,-0.141978,-6.99055,6.84623,0.00928465,0.00024655,0.012676,4,0,41.376364588272544,-91.73983314584711,9720.794529171932,-53.80250467607491,2.3473782261516325,-0.6525804931172967,181.057,9720.794529171932,12053.737931086003,150,True,11.312394967161245,False,170.27300578130408,178.01197460361738,False,11.177857094039824,True,False
1,1970-07-23 10:27:38.419376955,2025-09-12,2025-09-26 14:04:01.937,HH,C,1573685236,JASSM,3,102,76,2,2,1,225,9,2,0,1,26,0,0,0,0,-163204.62878592435,-4785576.768525924,4204278.415495396,-2.36559,-0.397301,0.382249,74.0,-31.0,-32.125,0.0,0.0,0.0,0.0,0.0,0.0,2,0,41.4745927067496,-91.95322616705036,10997.3762048284,119.85390762952944,-0.0033665570765906,0.0050447298449931,,9720.794529171932,12053.737931086003,150,1,2025-09-12,2025-09-26 14:04:02.108,HH,C,4255195106,AMBUSH51,1,1,48,2,1,1,225,2,1,0,0,9,1,225,2,1,-145751.23864580313,-4793036.807781762,4195884.827365219,2.37964,2.69216,-0.487683,-102.651,26.2463,30.9041,-0.135969,-7.04715,6.9525,-0.00520461,-0.00659861,0.00782824,4,0,41.37690585825516,-91.74176801626572,9734.98632993285,-53.86553283333527,2.2933111079585755,-0.3416721164619595,181.461,9720.794529171932,12053.737931086003,150,True,11.167794201082682,False,170.31996457307818,177.9304782960276,False,11.219136432695176,True,False
1,1970-07-23 10:27:38.429897796,2025-09-12,2025-09-26 14:04:02.989,HH,C,1575057238,JASSM,3,102,76,2,2,1,225,9,2,0,1,26,0,0,0,0,-163119.48620779935,-4785612.504854049,4204241.292448521,-2.36559,-0.397301,0.382249,74.0,-31.0,-32.125,0.0,0.0,0.0,0.0,0.0,0.0,2,0,41.47414682593351,-91.95219340616988,10997.37686975546,119.85459161159496,-0.0024734887267499,0.0050432130270528,,9720.794529171932,12053.737931086003,150,1,2025-09-12,2025-09-26 14:04:02.808,HH,C,4256030204,AMBUSH51,1,1,48,2,1,1,225,2,1,0,0,9,1,225,2,1,-145823.26736437774,-4793018.234713891,4195906.29401446,2.37941,2.69007,-0.488305,-102.753,26.2929,30.9561,-0.184845,-7.11804,7.01347,0.00395625,0.0010663,0.000277759,4,0,41.37714824098852,-91.7426349975362,9741.22832231151,-53.76466777385739,2.247440035980064,-0.4071428333248576,181.595,9720.794529171932,12053.737931086003,150,True,11.073484782920296,False,170.3341130331201,177.88728297080831,False,11.254393775771875,True,False
1,1970-07-23 10:27:38.438217828,2025-09-12,2025-09-26 14:04:03.821,HH,C,1576309938,JASSM,3,102,76,2,2,1,225,9,2,0,1,26,0,0,0,0,-163041.74743826812,-4785645.129854049,4204207.397917271,-2.36559,-0.397301,0.382249,74.0,-30.875,-32.125,0.0,0.0,0.0,0.0,0.0,0.0,2,0,41.4737397348373,-91.95125046577188,10997.373464931074,119.85521610161966,-0.0016580930158813,0.0050418492220418,,9720.794529171932,12053.737931086003,150,1,2025-09-12,2025-09-26 14:04:03.942,HH,C,4257382270,AMBUSH51,1,1,48,2,1,1,225,2,1,0,0,9,1,225,2,1,-145940.69952561156,-4792988.153938532,4195941.034433518,2.37697,2.68939,-0.487529,-102.921,26.3066,30.924,-0.100611,-7.04984,6.82723,0.00492581,0.00263091,-0.0030824,4,0,41.37754046656784,-91.74404842215009,9751.344331748389,-53.77113393471771,2.1926819531573063,-0.5648508461400956,181.632,9720.794529171932,12053.737931086003,150,True,10.958217955083017,False,170.35534104404036,177.81525334924817,False,11.37031575100993,True,False
1,1970-07-23 10:27:38.449218826,2025-09-12,2025-09-26 14:04:04.921,HH,C,1577622284,JASSM,3,102,76,2,2,1,225,9,2,0,1,26,0,0,0,0,-162960.30700858062,-4785679.309541549,4204171.888151646,-2.36559,-0.397301,0.382249,74.0,-30.875,-32.125,0.0,0.0,0.0,0.0,0.0,0.0,2,0,41.47331323529137,-91.95026263787534,10997.374578836296,119.85587031430649,-0.000803862639142,0.0050404069089089,,9720.794529171932,12053.737931086003,150,1,2025-09-12,2025-09-26 14:04:04.742,HH,C,4258336670,AMBUSH51,1,1,48,2,1,1,225,2,1,0,0,9,1,225,2,1,-146023.15304211088,-4792966.9286788255,4195965.510475331,2.37519,2.68797,-0.487549,-103.037,26.3392,30.9407,-0.0955964,-6.98504,6.76588,0.0101148,0.00493621,0.00716869,4,0,41.377817036979565,-91.74504088781084,9758.376161848331,-53.71866227820004,2.1451413129333226,-0.7025246467289759,181.791,9720.794529171932,12053.737931086003,150,True,10.860381034105453,False,170.35105733745152,177.76355992419622,False,11.433385319340255,True,False
1,1970-07-23 10:27:38.460237731,2025-09-12,2025-09-26 14:04:06.023,HH,C,1578874986,JASSM,3,102,76,2,2,1,225,9,2,0,1,26,0,0,0,0,-162882.56775076812,-4785711.934541549,4204137.991667271,-2.36559,-0.397205,0.382249,74.0,-30.875,-32.125,0.0,0.0,0.0,0.0,0.0,0.0,2,0,41.472906115238736,-91.94931971579882,10997.375576671468,119.85285690022651,-0.0035581119329994,0.002990146757821,,9720.794529171932,12053.737931086003,150,1,2025-09-12,2025-09-26 14:04:05.942,HH,C,4259768268,AMBUSH51,1,1,48,2,1,1,225,2,1,0,0,9,1,225,2,1,-146146.1728112395,-4792935.377978343,4196001.916726349,2.37809,2.68791,-0.491365,-103.147,26.4264,30.8218,-0.0639885,-6.91996,6.84534,0.00970077,-0.0025352,-3.22492e-05,4,0,41.37822820950976,-91.74652160774158,9768.921022962855,-53.56744046457329,2.3033862566373338,-0.5318112836852292,182.084,9720.794529171932,12053.737931086003,150,True,10.74197894591249,False,170.327922809749,177.6894566616156,False,11.55045679529192,True,False
1,1970-07-23 10:27:38.470274462,2025-09-12,2025-09-26 14:04:07.027,HH,C,1580127762,JASSM,3,102,76,2,2,1,225,9,2,0,1,26,0,0,0,0,-162804.82409842435,-4785744.559541549,4204104.093229771,-2.36559,-0.397205,0.382249,74.0,-30.875,-32.125,0.0,0.0,0.0,0.0,0.0,0.0,2,0,41.472498975149016,-91.94837675297074,10997.376206227827,119.8534813898351,-0.0027426655711249,0.0029887308705548,,9720.794529171932,12053.737931086003,150,1,2025-09-12,2025-09-26 14:04:07.141,HH,C,4261199866,AMBUSH51,1,1,48,2,1,1,225,2,1,0,0,9,1,225,2,1,-146270.33603351074,-4792903.411183942,4196038.840805305,2.37889,2.68975,-0.493465,-103.102,26.2873,30.992,-0.0716103,-7.07369,6.92336,0.00357134,-0.00191519,0.00138464,4,0,41.378645126237856,-91.74801615294798,9779.659880888912,-53.55378244760961,2.4560014233860907,-0.4352669642399477,182.365,9720.794529171932,12053.737931086003,150,True,10.62288738076176,False,170.33446073214807,177.61288133722024,False,11.615113893817426,True,False
1,1970-07-23 10:27:38.481314965,2025-09-12,2025-09-26 14:04:08.131,HH,C,1581440308,JASSM,3,102,76,2,2,1,225,9,2,0,1,26,0,0,0,0,-162723.37097342435,-4785778.741182174,4204068.575651646,-2.36559,-0.397205,0.382345,74.0,-30.875,-32.125,0.0,0.0,0.0,0.0,0.0,0.0,2,0,41.47207238909302,-91.94738881014078,10997.377629443376,119.85798305689003,-0.0058090933969827,0.0029869791462438,,9720.794529171932,12053.737931086003,150,1,2025-09-12,2025-09-26 14:04:08.242,HH,C,4262512164,AMBUSH51,1,1,48,2,1,1,225,2,1,0,0,9,1,225,2,1,-146383.08737883193,-4792874.525247943,4196072.321804045,2.38023,2.68725,-0.496678,-103.145,26.3524,30.9277,-0.126423,-7.07007,6.93593,0.00312609,0.00692526,0.00607846,4,0,41.37902252432687,-91.74937329720927,9789.663889475496,-53.33642772163268,2.5047236237977124,-0.4170020814197927,182.536,9720.794529171932,12053.737931086003,150,True,10.507981214877036,False,170.33206393722128,177.53955921306024,False,11.705174834324973,True,False
1,1970-07-23 10:27:38.494568801,2025-09-12,2025-09-26 14:04:09.456,HH,C,1582752388,JASSM,3,102,76,2,2,1,225,9,2,0,1,26,0,0,0,0,-162641.94665701812,-4785812.909150924,4204033.069792271,-2.36559,-0.397205,0.382345,74.0,-30.875,-32.125,0.0,0.0,0.0,0.0,0.0,0.0,2,0,41.471645949140886,-91.9464012303196,10997.377987587028,119.85863708385344,-0.0049550373149876,0.002985546705051,,9720.794529171932,12053.737931086003,150,1,2025-09-12,2025-09-26 14:04:09.275,HH,C,4263744930,AMBUSH51,1,1,48,2,1,1,225,2,1,0,0,9,1,225,2,1,-146490.84791549094,-4792846.994121807,4196104.307579199,2.3807,2.68707,-0.494,-103.348,26.3344,31.0075,-0.085047,-7.05609,6.88982,-0.000756296,-0.00635726,0.00549381,4,0,41.37938265952669,-91.75067035467504,9799.390952581123,-53.43580144089545,2.387660811925677,-0.3987640641462238,182.573,9720.794529171932,12053.737931086003,150,True,10.395952104222916,False,170.31123175068836,177.46688310627604,False,11.801913078790045,True,False
1,1970-07-23 10:27:38.503179665,2025-09-12,2025-09-26 14:04:10.317,HH,C,1584064864,JASSM,3,102,76,2,2,1,225,9,2,0,1,26,0,0,0,0,-162560.49841483062,-4785847.084932174,4203997.552214146,-2.36559,-0.397205,0.382345,74.0,-30.875,-32.125,0.0,0.0,0.0,0.0,0.0,0.0,2,0,41.47121937996718,-91.94541337416216,10997.374736336147,119.85929128828968,-0.0041007330902445,0.0029841174559152,,9720.794529171932,12053.737931086003,150,1,2025-09-12,2025-09-26 14:04:10.475,HH,C,4265176528,AMBUSH51,1,1,48,2,1,1,225,2,1,0,0,9,1,225,2,1,-146614.77422536368,-4792815.345502963,4196141.108916157,2.37502,2.68321,-0.495438,-103.375,26.3702,30.9106,-0.0904565,-6.90149,6.69315,-0.00557703,-0.00998373,0.011049,4,0,41.379796843273326,-91.75216200273128,9810.654040209953,-53.23812334503076,2.315654563075643,-0.8206380671708694,182.609,9720.794529171932,12053.737931086003,150,True,10.27479932020957,False,170.2909396242024,177.38268437502578,False,11.921334077471403,True,False
1,1970-07-23 10:27:38.522566106,2025-09-12,2025-09-26 14:04:12.256,HH,C,1585377090,JASSM,3,102,76,2,2,1,225,9,2,0,1,26,0,0,0,0,-162479.06482108062,-4785881.254854049,4203962.040495396,-2.36559,-0.397205,0.382345,74.0,-30.875,-32.125,0.0,0.0,0.0,0.0,0.0,0.0,2,0,41.47079287372549,-91.9444257085017,10997.37569882506,119.85994536103964,-0.0032465797468863,0.0029826838969486,,9720.794529171932,12053.737931086003,150,1,2025-09-12,2025-09-26 14:04:12.075,HH,C,4267085326,AMBUSH51,1,1,48,2,1,1,225,2,1,0,0,9,1,225,2,1,-146780.4855382175,-4792772.82357122,4196189.826247661,2.35688,2.67536,-0.488447,-103.641,26.7997,30.4083,-0.110921,-6.41841,6.25953,-0.0267325,-0.00561657,-0.00145121,4,0,41.38034852500098,-91.75415670003132,9824.163340080282,-53.22254399244975,1.753816334681529,-2.0718068672401,182.903,9720.794529171932,12053.737931086003,150,True,10.13016424724514,False,170.24766398678182,177.26933912708,False,12.132546485252169,True,False
1,1970-07-23 10:27:38.525216144,2025-09-12,2025-09-26 14:04:12.521,HH,C,1586689442,JASSM,3,102,76,2,2,1,225,9,2,0,1,26,0,0,0,0,-162397.62390311187,-4785915.426729049,4203926.524870396,-2.36559,-0.397205,0.382345,74.0,-30.875,-32.125,0.0,0.0,0.0,0.0,0.0,0.0,2,0,41.47036632247939,-91.94343796741308,10997.377017819868,119.86059947821016,-0.0023923507426496,0.0029812516231747,,9720.794529171932,12053.737931086003,150,1,2025-09-12,2025-09-26 14:04:12.441,HH,C,4267522760,AMBUSH51,1,1,48,2,1,1,225,2,1,0,0,9,1,225,2,1,-146817.75762736902,-4792763.144786225,4196200.565238988,2.34902,2.67405,-0.486697,-103.704,26.9964,30.1339,-0.0774135,-6.36286,6.21481,-0.0118854,-0.00872497,0.0060202,4,0,41.38047181113735,-91.75460539721284,9826.44784472315,-53.242694655095086,1.6358016778017734,-2.557292058539451,183.025,9720.794529171932,12053.737931086003,150,True,10.058009825178303,False,170.22064468685966,177.2322987400161,False,12.218540018169326,True,False
1,1970-07-23 10:27:38.536309478,2025-09-12,2025-09-26 14:04:13.630,HH,C,1588001792,JASSM,3,102,76,2,2,1,225,9,2,0,1,26,0,0,0,0,-162316.18298514312,-4785949.596650924,4203891.007292271,-2.36559,-0.397205,0.382345,74.0,-30.875,-32.125,0.0,0.0,0.0,0.0,0.0,0.0,2,0,41.46993976118323,-91.94245024006604,10997.373950945195,119.86125358074932,-0.0015381214245293,0.0029798176838171,,9720.794529171932,12053.737931086003,150,1,2025-09-12,2025-09-26 14:04:13.649,HH,C,4268954358,AMBUSH51,1,1,48,2,1,1,225,2,1,0,0,9,1,225,2,1,-146942.60955427185,-4792730.418669591,4196236.011321456,2.33457,2.67499,-0.479557,-104.19,27.428,29.4142,-0.153085,-6.62523,6.44276,-0.0154765,-0.00544804,-0.000833278,4,0,41.38088302958289,-91.75610854074164,9832.214160164429,-53.55694676836846,1.3694644700369525,-3.368414428326507,183.55,9720.794529171932,12053.737931086003,150,True,9.936595097901563,False,170.047140020793,177.13653139156568,False,12.541767125479678,True,False
1,1970-07-23 10:27:38.547281065,2025-09-12,2025-09-26 14:04:14.728,HH,C,1589254492,JASSM,3,102,76,2,2,1,225,9,2,0,1,26,0,0,0,0,-162238.44372733062,-4785982.213838424,4203857.102995396,-2.36559,-0.397109,0.382345,74.0,-30.875,-32.125,0.0,0.0,0.0,0.0,0.0,0.0,2,0,41.46953257070981,-91.9415074189275,10997.373933608174,119.85824032686708,-0.0042923624727845,0.0009291116947144,,9720.794529171932,12053.737931086003,150,1,2025-09-12,2025-09-26 14:04:14.742,HH,C,4270266656,AMBUSH51,1,1,48,2,1,1,225,2,1,0,0,9,1,225,2,1,-147058.696898369,-4792699.727273074,4196267.939892213,2.26224,2.67186,-0.470018,-104.875,27.7342,28.5206,-0.269622,-6.51514,6.42884,-0.165454,-0.00624907,-0.0161048,4,0,41.38125997460179,-91.75750627636631,9834.705488702446,-53.81261288039178,0.8613846471102821,-7.598821410695615,184.113,9720.794529171932,12053.737931086003,150,True,9.822635778573813,False,169.71936839785786,177.04206751971967,False,13.011977660883634,True,False
1,1970-07-23 10:27:38.557299711,2025-09-12,2025-09-26 14:04:15.729,HH,C,1590507190,JASSM,3,102,76,2,2,1,225,9,2,0,1,26,0,0,0,0,-162160.70446951812,-4786014.829072799,4203823.198698521,-2.36559,-0.397109,0.382345,74.0,-30.875,-32.125,0.0,0.0,0.0,0.0,0.0,0.0,2,0,41.469125384112914,-91.94056461037933,10997.37336021228,119.85886467272516,-0.0034769611975,0.0009276928421251,,9720.794529171932,12053.737931086003,150,1,2025-09-12,2025-09-26 14:04:15.708,HH,C,4271419888,AMBUSH51,1,1,48,2,1,1,225,2,1,0,0,9,1,225,2,1,-147160.67118403042,-4792673.279028731,4196294.67161629,2.04489,2.69134,-0.466596,-106.19,27.0015,27.2294,0.136265,-7.38377,7.21587,-0.198548,0.022201,-0.0125824,4,0,41.38157915382665,-91.75873391072535,9835.307563634546,-54.67535361277672,1.398511895706139,-19.565220892928853,185.127,9720.794529171932,12053.737931086003,150,False,9.71701305135375,False,168.79659951675643,176.95139107486298,False,14.040633601501254,True,False
1,1970-07-23 10:27:38.567191421,2025-09-12,2025-09-26 14:04:16.719,HH,C,1591700238,JASSM,3,102,76,2,2,1,225,9,2,0,1,26,0,0,0,0,-162086.66784842435,-4786045.889619674,4203790.909636021,-2.36559,-0.397109,0.382345,74.0,-30.875,-32.125,0.0,0.0,0.0,0.0,0.0,0.0,2,0,41.46873759442259,-91.93966671826088,10997.374554159916,119.85945926937734,-0.0027004019885439,0.0009263502446768,,9720.794529171932,12053.737931086003,150,1,2025-09-12,2025-09-26 14:04:16.675,HH,C,4272573120,AMBUSH51,1,1,48,2,1,1,225,2,1,0,0,9,1,225,2,1,-147263.09410935463,-4792648.883579273,4196319.45725604,1.83281,2.77257,-0.407027,-108.228,24.5958,24.7142,0.119985,-7.74643,7.6342,-0.18435,0.0210463,-0.0527067,4,0,41.38187288914367,-91.75996616205954,9836.779741458822,-60.079981353115066,1.8925671245801392,-29.90106113219972,185.97,9720.794529171932,12053.737931086003,150,False,9.614394692399234,False,166.79844688528456,176.8519070713858,False,16.13146418614066,True,False
1,1970-07-23 10:27:38.576217307,2025-09-12,2025-09-26 14:04:17.621,HH,C,1592774160,JASSM,3,102,76,2,2,1,225,9,2,0,1,26,0,0,0,0,-162020.02185233062,-4786073.850557174,4203761.841276646,-2.36559,-0.397109,0.382441,74.0,-30.875,-32.125,0.0,0.0,0.0,0.0,0.0,0.0,2,0,41.4683884866119,-91.93885846600156,10997.375848484447,119.8638420367205,-0.0059220000349345,0.0009248559946706,,9720.794529171932,12053.737931086003,150,1,2025-09-12,2025-09-26 14:04:17.708,HH,C,4273805886,AMBUSH51,1,1,48,2,1,1,225,2,1,0,0,9,1,225,2,1,-147375.85120134245,-4792625.570488611,4196342.500740746,1.70569,2.88537,-0.291087,-110.291,21.0439,20.0998,-0.0616264,-8.17719,8.02672,-0.0069211,0.0309957,-0.0585698,4,0,41.38214652073169,-91.76132145494408,9837.924409074376,-69.0795739623834,1.6634068360119356,-35.24783130459269,186.202,9720.794529171932,12053.737931086003,150,False,9.512461151481554,False,163.7034493656048,176.72876391328776,False,19.36337664003255,True,False
1,1970-07-23 10:27:38.593761117,2025-09-12,2025-09-26 14:04:19.376,HH,C,1593907374,JASSM,3,102,76,2,2,1,225,9,2,0,1,26,0,0,0,0,-161949.69763358062,-4786103.352510299,4203731.169401646,-2.36559,-0.397109,0.382441,74.0,-30.875,-32.125,0.0,0.0,0.0,0.0,0.0,0.0,2,0,41.46802012333576,-91.93800561621202,10997.376980606685,119.86440679765566,-0.0051843768438658,0.0009236248996618,,9720.794529171932,12053.737931086003,150,1,2025-09-12,2025-09-26 14:04:19.309,HH,C,4275714684,AMBUSH51,1,1,48,2,1,1,225,2,1,0,0,9,1,225,2,1,-147551.97092203412,-4792598.243269976,4196367.390558398,1.69376,3.02578,-0.142822,-112.314,13.8606,11.8554,-0.16269,-8.83841,8.63649,0.0169953,0.0298264,-0.0446152,4,0,41.38244487680287,-91.76343502120974,9838.002775248537,-80.65094711440717,1.7777493310609729,-34.54064997229442,187.009,9720.794529171932,12053.737931086003,150,False,9.37890944850039,False,158.11059371102894,176.50084645608487,False,25.188739255334905,True,False
1,1970-07-23 10:27:38.595300448,2025-09-12,2025-09-26 14:04:19.530,HH,C,1594981126,JASSM,3,102,76,2,2,1,225,9,2,0,1,26,0,0,0,0,-161883.06286795562,-4786131.305635299,4203702.104948521,-2.36559,-0.397109,0.382441,74.0,-30.875,-32.125,0.0,0.0,0.0,0.0,0.0,0.0,2,0,41.46767107441909,-91.93719751922325,10997.374907870006,119.86494191928134,-0.0044854494736011,0.0009224535219186,,9720.794529171932,12053.737931086003,150,1,2025-09-12,2025-09-26 14:04:19.641,HH,C,4276112350,AMBUSH51,1,1,48,2,1,1,225,2,1,0,0,9,1,225,2,1,-147590.2509846273,-4792593.835605613,4196371.118706404,1.69935,3.03984,-0.130013,-112.803,12.2643,10.249,-0.0329821,-8.83044,8.43032,0.0287923,0.0324375,-0.0529314,4,0,41.38248925370752,-91.76389384920644,9838.143932919053,-81.73012016249716,1.8883164131296604,-34.14520560494669,187.082,9720.794529171932,12053.737931086003,150,False,9.318362113854446,False,156.94868325928752,176.43259331118122,False,26.416172592271995,True,False
1,1970-07-23 10:27:38.605176270,2025-09-12,2025-09-26 14:04:20.517,HH,C,1596174408,JASSM,3,102,76,2,2,1,225,9,2,0,1,26,0,0,0,0,-161809.01111014312,-4786162.370088424,4203669.806120396,-2.36549,-0.397109,0.382441,74.0,-30.875,-32.125,0.0,0.0,0.0,0.0,0.0,0.0,2,0,41.46728317227976,-91.93629948465976,10997.377656551953,119.86553659320197,-0.0037087284793299,0.0064126285373912,,9720.794529171932,12053.737931086003,150,1,2025-09-12,2025-09-26 14:04:20.408,HH,C,4277026982,AMBUSH51,1,1,48,2,1,1,225,2,1,0,0,9,1,225,2,1,-147676.68417914087,-4792586.139912803,4196377.479543917,1.72049,3.082,-0.0886687,-113.39,8.46182,6.88034,-0.104973,-8.77856,8.6115,0.0443177,0.0306399,-0.0446631,4,0,41.38256213742671,-91.764929016458,9839.555970677817,-85.0977663742511,2.1219865892298952,-32.788039325163744,187.4,9720.794529171932,12053.737931086003,150,False,9.230592998953204,False,154.3919822202607,176.28620482892035,False,29.108574964165953,True,False
1,1970-07-23 10:27:38.614324382,2025-09-12,2025-09-26 14:04:21.432,HH,C,1597307556,JASSM,3,102,76,2,2,1,225,9,2,0,1,26,0,0,0,0,-161738.69030936187,-4786191.868135299,4203639.132292271,-2.36549,-0.397109,0.382441,74.0,-30.875,-32.125,0.0,0.0,0.0,0.0,0.0,0.0,2,0,41.46691479936731,-91.9354467062889,10997.375648833691,119.86610129446878,-0.0029711374147968,0.0064113896767702,,9720.794529171932,12053.737931086003,150,1,2025-09-12,2025-09-26 14:04:21.342,HH,C,4278140448,AMBUSH51,1,1,48,2,1,1,225,2,1,0,0,9,1,225,2,1,-147782.1599450695,-4792580.563182415,4196381.430850629,1.74888,3.12225,-0.0527927,-114.061,4.05742,2.33047,-0.1568,-8.93542,8.61626,0.0466521,0.0332385,-0.0358268,4,0,41.38260264839883,-91.7661908451975,9842.404183467826,-88.16388283216051,2.4925587980190063,-31.121992115887707,187.681,9720.794529171932,12053.737931086003,150,False,9.137816576523766,False,151.1955493913378,176.09462824589508,False,32.49754515732646,False,False
1,1970-07-23 10:27:38.624323987,2025-09-12,2025-09-26 14:04:22.432,HH,C,1598440950,JASSM,3,102,76,2,2,1,225,9,2,0,1,26,0,0,0,0,-161668.35486014312,-4786221.372041549,4203608.452604771,-2.36549,-0.397109,0.382441,74.0,-30.875,-32.125,0.0,0.0,0.0,0.0,0.0,0.0,2,0,41.46654634864712,-91.9345937600488,10997.377564244682,119.86666610277108,-0.0022333953579475,0.0064101550619684,,9720.794529171932,12053.737931086003,150,1,2025-09-12,2025-09-26 14:04:22.408,HH,C,4279412980,AMBUSH51,1,1,48,2,1,1,225,2,1,0,0,9,1,225,2,1,-147904.75368745823,-4792578.990361124,4196381.814953854,1.8907,-3.12373,-0.017866,-114.317,-0.821741,-1.10248,-0.239771,-8.45551,8.17465,0.185286,0.0189927,-0.043111,4,0,41.38259210565328,-91.76765565198215,9848.672476943775,-91.07750193783826,2.77086364777034,-23.054474418526784,187.718,9720.794529171932,12053.737931086003,150,False,9.039269876117427,False,148.26337168249117,175.85317055637887,False,35.65275861414733,False,False
1,1970-07-23 10:27:38.633307566,2025-09-12,2025-09-26 14:04:23.330,HH,C,1599574344,JASSM,3,102,76,2,2,1,225,9,2,0,1,26,0,0,0,0,-161598.01892264312,-4786250.873994674,4203577.770964146,-2.36549,-0.397109,0.382441,74.0,-30.875,-32.125,0.0,0.0,0.0,0.0,0.0,0.0,2,0,41.466177890138496,-91.93374081841658,10997.373869976962,119.867230903896,-0.0014956492549886,0.0064089210548831,,9720.794529171932,12053.737931086003,150,1,2025-09-12,2025-09-26 14:04:23.374,HH,C,4280566212,AMBUSH51,1,1,48,2,1,1,225,2,1,0,0,9,1,225,2,1,-148015.2606558841,-4792581.404142113,4196379.72763003,2.04774,-3.09444,-5.99865e-05,-114.374,-5.42704,-0.507802,-0.273343,-8.25994,8.05091,0.144492,0.0222634,-0.0237781,4,0,41.382543368126,-91.76897462589127,9858.478631973814,-92.95612736214562,3.3550082316771785,-14.142184995179353,187.119,9720.794529171932,12053.737931086003,150,False,8.94761466842284,False,146.83837601441076,175.61743489985392,False,37.237780054971545,False,False
1,1970-07-23 10:27:38.643215581,2025-09-12,2025-09-26 14:04:24.321,HH,C,1600767390,JASSM,3,102,76,2,2,1,225,9,2,0,1,26,0,0,0,0,-161523.98132498687,-4786281.928682174,4203545.474089146,-2.36549,-0.397013,0.382441,74.0,-30.875,-32.125,0.0,0.0,0.0,0.0,0.0,0.0,2,0,41.46579002939957,-91.93284299831832,10997.37285916194,119.86418807392896,-0.0042887167104965,0.0043578005890084,,9720.794529171932,12053.737931086003,150,1,2025-09-12,2025-09-26 14:04:24.408,HH,C,4281798978,AMBUSH51,1,1,48,2,1,1,225,2,1,0,0,9,1,225,2,1,-148133.33751663868,-4792586.2184426645,4196374.24893219,2.1448,-3.08844,-0.00713062,-114.065,-6.35789,-4.32147,-0.165931,-7.72072,7.50484,0.0997822,0.00943862,-0.00639055,4,0,41.38245604806794,-91.7703831227933,9867.41760554358,-92.88092580531098,3.881882764530024,-8.5749163301291,187.314,9720.794529171932,12053.737931086003,150,True,8.851791649461083,False,145.16667446501253,175.34817400376176,False,39.234645850323574,False,False
1,1970-07-23 10:27:38.662304042,2025-09-12,2025-09-26 14:04:26.230,HH,C,1603034178,JASSM,3,102,76,2,2,1,225,9,2,0,1,26,0,0,0,0,-161383.30944998687,-4786340.930635299,4203484.108854771,-2.36549,-0.397013,0.382441,74.0,-30.875,-32.125,0.0,0.0,0.0,0.0,0.0,0.0,2,0,41.465053078436185,-91.93113716514588,10997.374159099463,119.8653176221035,-0.0028132241677727,0.0043552371358669,,9720.794529171932,12053.737931086003,150,1,2025-09-12,2025-09-26 14:04:26.276,HH,C,4284025908,AMBUSH51,1,1,48,2,1,1,225,2,1,0,0,9,1,225,2,1,-148346.2116228029,-4792599.363145355,4196364.092026601,2.23409,-3.07183,-0.00306302,-113.647,-8.33462,-4.93149,-0.192628,-7.65441,7.38744,-0.0277083,0.0065882,0.014819,4,0,41.38227013804342,-91.77292075900176,9893.93148645392,-93.69010645305518,4.44266754153891,-3.512936817273109,186.52,9720.794529171932,12053.737931086003,150,True,8.676117652382816,False,144.23294536427642,174.83634995111845,False,40.67635264611529,False,False
1,1970-07-23 10:27:38.662564535,2025-09-12,2025-09-26 14:04:26.256,HH,C,1601900784,JASSM,3,102,76,2,2,1,225,9,2,0,1,26,0,0,0,0,-161453.64538748687,-4786311.430635299,4203514.792448521,-2.36549,-0.397013,0.382441,74.0,-30.875,-32.125,0.0,0.0,0.0,0.0,0.0,0.0,2,0,41.465421557861184,-91.93199007650946,10997.37629370432,119.86475285353784,-0.0035509705900334,0.0043565196905352,,9720.794529171932,12053.737931086003,150,1,2025-09-12,2025-09-26 14:04:26.276,HH,C,4284025908,AMBUSH51,1,1,48,2,1,1,225,2,1,0,0,9,1,225,2,1,-148346.2116228029,-4792599.363145355,4196364.092026601,2.23409,-3.07183,-0.00306302,-113.647,-8.33462,-4.93149,-0.192628,-7.65441,7.38744,-0.0277083,0.0065882,0.014819,4,0,41.38227013804342,-91.77292075900176,9893.93148645392,-93.69010645305518,4.44266754153891,-3.512936817273109,186.52,9720.794529171932,12053.737931086003,150,True,8.720184388040277,False,144.23294536427642,174.8619066582069,False,40.65198623285218,False,False
1,1970-07-23 10:27:38.686566863,2025-09-12,2025-09-26 14:04:28.656,HH,C,1604107920,JASSM,3,102,76,2,2,1,225,9,2,0,1,26,0,0,0,0,-161316.67566092435,-4786368.877900924,4203455.040495396,-2.36549,-0.397013,0.382441,74.0,-30.875,-32.125,0.0,0.0,0.0,0.0,0.0,0.0,2,0,41.46470398945028,-91.93032915587668,10997.375779139413,119.86585265424,-0.0021143097993984,0.0043540231861655,,9720.794529171932,12053.737931086003,150,1,2025-09-12,2025-09-26 14:04:28.608,HH,C,4286809572,AMBUSH51,1,1,48,2,1,1,225,2,1,0,0,9,1,225,2,1,-148609.84157295665,-4792620.677073465,4196351.278219606,2.15409,-3.06024,0.00139068,-112.822,-10.5404,-5.44778,-0.0649364,-7.25659,7.02762,-0.047861,0.00802797,-0.0140513,4,0,41.382008294087605,-91.7760615533678,9938.67829756213,-94.32526634187018,4.772478672960244,-8.146691224719689,185.603,9720.794529171932,12053.737931086003,150,True,8.528135883197947,False,143.21842271124132,174.20633796068662,False,42.31667535733987,False,False
1,1970-07-23 10:27:38.686595048,2025-09-12,2025-09-26 14:04:28.659,HH,C,1605420272,JASSM,3,102,76,2,2,1,225,9,2,0,1,26,0,0,0,0,-161235.23376639312,-4786403.034150924,4203419.511198521,-2.36549,-0.397013,0.382536,74.0,-30.875,-32.125,0.0,0.0,0.0,0.0,0.0,0.0,2,0,41.46427731778388,-91.92934159423912,10997.375381454272,119.8703542504966,-0.0051805881412145,0.0043523259451173,,9720.794529171932,12053.737931086003,150,1,2025-09-12,2025-09-26 14:04:28.608,HH,C,4286809572,AMBUSH51,1,1,48,2,1,1,225,2,1,0,0,9,1,225,2,1,-148609.84157295665,-4792620.677073465,4196351.278219606,2.15409,-3.06024,0.00139068,-112.822,-10.5404,-5.44778,-0.0649364,-7.25659,7.02762,-0.047861,0.00802797,-0.0140513,4,0,41.382008294087605,-91.7760615533678,9938.67829756213,-94.32526634187018,4.772478672960244,-8.146691224719689,185.603,9720.794529171932,12053.737931086003,150,True,8.47716600066756,False,143.21842271124132,174.17211190765303,False,42.349483186207394,False,False
1,1970-07-23 10:27:38.693235612,2025-09-12,2025-09-26 14:04:29.323,HH,C,1606732622,JASSM,3,102,76,2,2,1,225,9,2,0,1,26,0,0,0,0,-161153.79236014312,-4786437.190400924,4203383.979948521,-2.36549,-0.397013,0.382536,74.0,-30.875,-32.125,0.0,0.0,0.0,0.0,0.0,0.0,2,0,41.46385062433853,-91.92835405138769,10997.375437532237,119.87100815228418,-0.0043263523880773,0.004350888607588,,9720.794529171932,12053.737931086003,150,1,2025-09-12,2025-09-26 14:04:29.308,HH,C,4287644672,AMBUSH51,1,1,48,2,1,1,225,2,1,0,0,9,1,225,2,1,-148688.87603790965,-4792628.201597612,4196346.677723497,2.1326,-3.06664,0.00859681,-112.617,-11.1266,-6.3352,0.0237069,-6.385,6.2265,-0.00682747,-0.0394325,-0.0110324,4,0,41.3819179052706,-91.77700271414976,9953.245947875172,-94.39202680413356,4.2252785695470925,-9.38106015240308,185.481,9720.794529171932,12053.737931086003,150,True,8.395021177958242,False,142.6866608281083,173.94592553015997,False,43.118170732357704,False,False
1,1970-07-23 10:27:38.704252978,2025-09-12,2025-09-26 14:04:30.425,HH,C,1607985322,JASSM,3,102,76,2,2,1,225,9,2,0,1,26,0,0,0,0,-161076.05261404935,-4786469.791963424,4203350.063932896,-2.36549,-0.397013,0.382536,74.0,-30.875,-32.125,0.0,0.0,0.0,0.0,0.0,0.0,2,0,41.46344333204273,-91.92741140712988,10997.374966627662,119.87163231929294,-0.0035109512447386,0.0043495293196609,,9720.794529171932,12053.737931086003,150,1,2025-09-12,2025-09-26 14:04:30.307,HH,C,4288837670,AMBUSH51,1,1,48,2,1,1,225,2,1,0,0,9,1,225,2,1,-148802.35694369712,-4792638.527977954,4196338.710911695,2.11683,-3.08257,0.0416537,-112.535,-10.2149,-8.63225,-0.0409439,-5.20706,5.06672,-0.0109616,-0.00796348,-0.0125491,4,0,41.38178175642916,-91.77835424142977,9970.040863294653,-95.20518402541784,2.286575045126321,-10.307900523355926,184.919,9720.794529171932,12053.737931086003,150,False,8.302046788464231,False,142.20039981167005,173.62808519584323,False,43.97987596490536,False,False
1,1970-07-23 10:27:38.715275257,2025-09-12,2025-09-26 14:04:31.527,HH,C,1609297672,JASSM,3,102,76,2,2,1,225,9,2,0,1,26,0,0,0,0,-160994.61071951812,-4786503.946260299,4203314.532682896,-2.36549,-0.397013,0.382536,74.0,-30.875,-32.125,0.0,0.0,0.0,0.0,0.0,0.0,2,0,41.46301663369511,-91.92642388453312,10997.379284166534,119.87228619685465,-0.0026567179265268,0.0043481039667481,,9720.794529171932,12053.737931086003,150,1,2025-09-12,2025-09-26 14:04:31.541,HH,C,4290309036,AMBUSH51,1,1,48,2,1,1,225,2,1,0,0,9,1,225,2,1,-148941.23217692223,-4792649.762534847,4196325.349689807,2.14341,-3.08355,0.062943,-112.571,-9.21297,-11.614,-0.0773629,-6.31942,6.06254,0.0212668,-0.00573308,-0.0144341,4,0,41.381599071960814,-91.7800087183525,9979.318880208057,-96.08147757842592,1.435842756527881,-8.810411514344253,185.359,9720.794529171932,12053.737931086003,150,True,8.197751057280986,False,141.4730302175309,173.22753736141473,False,45.167216117099976,False,False
1,1970-07-23 10:27:38.726293950,2025-09-12,2025-09-26 14:04:32.629,HH,C,1610610332,JASSM,3,102,76,2,2,1,225,9,2,0,1,26,0,0,0,0,-160913.14978201812,-4786538.106416549,4203278.989714146,-2.36549,-0.397013,0.382536,74.0,-30.875,-32.125,0.0,0.0,0.0,0.0,0.0,0.0,2,0,41.46258981672731,-91.92543614483849,10997.37562565757,119.87294021263128,-0.0018022802131288,0.0043466689612758,,9720.794529171932,12053.737931086003,150,1,2025-09-12,2025-09-26 14:04:32.608,HH,C,4291581568,AMBUSH51,1,1,48,2,1,1,225,2,1,0,0,9,1,225,2,1,-149061.1509180777,-4792659.54786263,4196311.587643374,2.17043,-3.08125,0.0748491,-112.629,-9.54859,-13.0974,-0.147112,-6.43695,6.3744,0.0244397,-0.00770964,-0.0133876,4,0,41.38142578136118,-91.78143731896442,9982.72101091272,-96.6799529529461,1.0822002762335767,-7.284514519816896,185.762,9720.794529171932,12053.737931086003,150,True,8.101641892779364,False,140.81909367838813,172.86065830082936,False,46.2046849975968,False,False
1,1970-07-23 10:27:38.740184625,2025-09-12,2025-09-26 14:04:34.018,HH,C,1611982086,JASSM,3,102,76,2,2,1,225,9,2,0,1,26,0,0,0,0,-160828.02136404935,-4786573.803682174,4203241.847136021,-2.36549,-0.396918,0.382536,74.0,-30.875,-32.125,0.0,0.0,0.0,0.0,0.0,0.0,2,0,41.46214378364387,-91.9244039499538,10997.376014924752,119.86998658230122,-0.0044790143454483,0.0022948823294341,,9720.794529171932,12053.737931086003,150,1,2025-09-12,2025-09-26 14:04:34.007,HH,C,4293251766,AMBUSH51,1,1,48,2,1,1,225,2,1,0,0,9,1,225,2,1,-149219.1626733819,-4792672.529628303,4196291.404137724,2.20486,-3.07955,0.0861682,-112.942,-9.80618,-14.6797,-0.101974,-6.92145,6.74922,0.0360806,0.00275991,-0.00682539,4,0,41.38118305101471,-91.78331967936424,9982.986205638488,-97.2302804279589,0.7250533191764074,-5.328379020959891,186.679,9720.794529171932,12053.737931086003,150,True,7.98991165167385,False,140.1740717399667,172.3705659475744,False,47.35777246079392,False,False
1,1970-07-23 10:27:38.750173286,2025-09-12,2025-09-26 14:04:35.017,HH,C,1613294598,JASSM,3,102,76,2,2,1,225,9,2,0,1,26,0,0,0,0,-160746.56970389312,-4786607.957979049,4203206.308073521,-2.36549,-0.396918,0.382536,74.0,-30.875,-32.125,0.0,0.0,0.0,0.0,0.0,0.0,2,0,41.461717008649416,-91.92341635002704,10997.376736360608,119.8706404943072,-0.0036246797822769,0.0022934022236923,,9720.794529171932,12053.737931086003,150,1,2025-09-12,2025-09-26 14:04:35.107,HH,C,4294564064,AMBUSH51,1,1,48,2,1,1,225,2,1,0,0,9,1,225,2,1,-149342.7137687344,-4792683.246683107,4196274.40231458,2.23363,-3.07565,0.0922556,-113.188,-10.0821,-15.5833,0.00768654,-6.89947,6.55315,0.0180627,-0.000217422,9.67477e-05,4,0,41.38098162834381,-91.78479129665504,9981.950264864836,-97.6396457610244,0.6603849301592504,-3.704436790729289,187.241,9720.794529171932,12053.737931086003,150,True,7.894133546733227,False,139.76974266589067,171.9638390036185,False,48.177522432691546,False,False
1,1970-07-23 10:27:38.759225786,2025-09-12,2025-09-26 14:04:35.922,HH,C,1614606746,JASSM,3,102,76,2,2,1,225,9,2,0,1,26,0,0,0,0,-160665.14050467435,-4786642.100557174,4203170.776823521,-2.36549,-0.396918,0.382536,74.0,-30.875,-32.125,0.0,0.0,0.0,0.0,0.0,0.0,2,0,41.46129034312933,-91.92242903630698,10997.372142492695,119.87129421127683,-0.002770581491915,0.0022919223999205,,9720.794529171932,12053.737931086003,150,1,2025-09-12,2025-09-26 14:04:35.774,HH,C,392100,AMBUSH51,1,1,48,2,1,1,225,2,1,0,0,9,1,225,2,1,-149418.381436,-4792689.909231342,4196263.73042991,2.24928,-3.07659,0.095416,-113.429,-10.3532,-15.7915,-0.0787774,-7.00032,6.70476,0.0234244,-3.12089e-06,-0.00641551,4,0,41.38085592013965,-91.78569253308672,9981.001014935831,-97.73988888569768,0.5006823838795019,-2.803611577591018,187.718,9720.794529171932,12053.737931086003,150,True,7.816127109180251,False,139.62374604871255,171.68816506943742,False,48.59954037087879,False,False
1,1970-07-23 10:27:38.772665733,2025-09-12,2025-09-26 14:04:37.266,HH,C,1615978732,JASSM,3,102,76,2,2,1,225,9,2,0,1,26,0,0,0,0,-160579.99792654935,-4786677.801729049,4203133.626432896,-2.36549,-0.396918,0.382632,74.0,-30.875,-32.125,0.0,0.0,0.0,0.0,0.0,0.0,2,0,41.46084420984286,-91.92139671176386,10997.378813934174,119.87582554245256,-0.0057979054737194,0.0022901161448056,,9720.794529171932,12053.737931086003,150,1,2025-09-12,2025-09-26 14:04:38.440,HH,C,3573430,AMBUSH51,1,1,48,2,1,1,225,2,1,0,0,9,1,225,2,1,-149722.63068468566,-4792718.241715815,4196219.7066056905,2.28212,-3.06769,0.0909128,-114.195,-12.3703,-15.0174,-0.0698457,-7.45457,7.0842,0.00568106,0.00476144,-0.00512971,4,0,41.38033369602524,-91.78931567039643,9978.59675269258,-97.8874269942445,1.054159228193429,-0.9711412585619654,189.294,9720.794529171932,12053.737931086003,150,True,7.655469967362207,False,139.30042562522672,170.70104585297983,False,49.88328150219029,False,False
1,1970-07-23 10:27:38.782253314,2025-09-12,2025-09-26 14:04:38.225,HH,C,1617350736,JASSM,3,102,76,2,2,1,225,9,2,0,1,26,0,0,0,0,-160494.85388358062,-4786713.500947799,4203096.472136021,-2.36549,-0.396918,0.382632,74.0,-30.875,-32.125,0.0,0.0,0.0,0.0,0.0,0.0,2,0,41.46039805283749,-91.92036438464064,10997.377168976458,119.87650905168798,-0.0049048385981849,0.0022886212954875,,9720.794529171932,12053.737931086003,150,1,2025-09-12,2025-09-26 14:04:38.440,HH,C,3573430,AMBUSH51,1,1,48,2,1,1,225,2,1,0,0,9,1,225,2,1,-149722.63068468566,-4792718.241715815,4196219.7066056905,2.28212,-3.06769,0.0909128,-114.195,-12.3703,-15.0174,-0.0698457,-7.45457,7.0842,0.00568106,0.00476144,-0.00512971,4,0,41.38033369602524,-91.78931567039643,9978.59675269258,-97.8874269942445,1.054159228193429,-0.9711412585619654,189.294,9720.794529171932,12053.737931086003,150,True,7.60260435709171,False,139.30042562522672,170.63667200210102,False,49.94695262408926,False,False
1,1970-07-23 10:27:38.794251734,2025-09-12,2025-09-26 14:04:39.425,HH,C,1618722738,JASSM,3,102,76,2,2,1,225,9,2,0,1,26,0,0,0,0,-160409.70984061187,-4786749.198213424,4203059.317839146,-2.36549,-0.396918,0.382632,74.0,-30.875,-32.125,0.0,0.0,0.0,0.0,0.0,0.0,2,0,41.45995189816438,-91.91933207245071,10997.375813850123,119.87719254498776,-0.0040117779555616,0.0022871361986726,,9720.794529171932,12053.737931086003,150,1,2025-09-12,2025-09-26 14:04:39.474,HH,C,4806196,AMBUSH51,1,1,48,2,1,1,225,2,1,0,0,9,1,225,2,1,-149839.97521270058,-4792729.713878178,4196203.03351195,2.29217,-3.06538,0.0911253,-114.453,-11.6767,-15.7735,-0.153118,-7.30188,6.96406,0.00305535,0.00234171,-0.00833798,4,0,41.38013108014216,-91.79071284330662,9979.68709430203,-97.98531438948255,1.145610689499735,-0.4092217033391148,189.648,9720.794529171932,12053.737931086003,150,True,7.508953479589123,False,139.28027552170425,170.19908609914077,False,50.4244419591498,False,False
1,1970-07-23 10:27:38.805272893,2025-09-12,2025-09-26 14:04:40.527,HH,C,1620035090,JASSM,3,102,76,2,2,1,225,9,2,0,1,26,0,0,0,0,-160328.26794608062,-4786783.342744674,4203023.778776646,-2.36549,-0.396918,0.382632,74.0,-30.875,-32.125,0.0,0.0,0.0,0.0,0.0,0.0,2,0,41.4595251356734,-91.91834465970447,10997.377260694013,119.87784630473332,-0.003157549384224,0.0022857169638155,,9720.794529171932,12053.737931086003,150,1,2025-09-12,2025-09-26 14:04:40.640,HH,C,6198028,AMBUSH51,1,1,48,2,1,1,225,2,1,0,0,9,1,225,2,1,-149974.212724123,-4792743.27728442,4196184.300704453,2.29735,-3.0634,0.08514,-114.635,-11.9258,-15.5713,-0.193393,-7.42581,7.08439,0.0109679,-0.00339657,0.00465117,4,0,41.379898959861805,-91.7923109788634,9982.763838751283,-97.80558170001058,1.4593566763558172,-0.1184924920501529,189.807,9720.794529171932,12053.737931086003,150,True,7.41227693844198,False,139.28602726693896,169.69863084228186,False,50.91647191187781,False,False
1,1970-07-23 10:27:38.815312136,2025-09-12,2025-09-26 14:04:41.531,HH,C,1621287960,JASSM,3,102,76,2,2,1,225,9,2,0,1,26,0,0,0,0,-160250.51696951812,-4786815.938447799,4202989.849089146,-2.36549,-0.396918,0.382632,74.0,-30.875,-32.125,0.0,0.0,0.0,0.0,0.0,0.0,2,0,41.45911770598553,-91.91740200880018,10997.376822019069,119.87847042278354,-0.0023420344658345,0.0022843618157522,,9720.794529171932,12053.737931086003,150,1,2025-09-12,2025-09-26 14:04:41.675,HH,C,7430794,AMBUSH51,1,1,48,2,1,1,225,2,1,0,0,9,1,225,2,1,-150092.7410741855,-4792755.583925818,4196168.090865416,2.30592,-3.0646,0.0829505,-114.818,-11.9542,-15.4685,-0.0994695,-7.04051,6.80721,0.00301166,0.00017581,0.0030179,4,0,41.37969425344595,-91.7937219589616,9987.018993031268,-97.66721697068664,1.4927931102391556,0.381776888636189,189.991,9720.794529171932,12053.737931086003,150,True,7.323785242278216,False,139.32850980732601,169.24060041879474,False,51.33289994228616,False,False
1,1970-07-23 10:27:38.827361817,2025-09-12,2025-09-26 14:04:42.736,HH,C,1622600140,JASSM,3,102,76,2,2,1,225,9,2,0,1,26,0,0,0,0,-160169.08581717435,-4786850.077119674,4202954.311979771,-2.36549,-0.396822,0.382632,74.0,-30.875,-32.125,0.0,0.0,0.0,0.0,0.0,0.0,2,0,41.458690972790286,-91.91641475213837,10997.378097439096,119.87548726171092,-0.0050575420481506,0.0002321871009827,,9720.794529171932,12053.737931086003,150,1,2025-09-12,2025-09-26 14:04:42.807,HH,C,8782858,AMBUSH51,1,1,48,2,1,1,225,2,1,0,0,9,1,225,2,1,-150222.0454088851,-4792768.75004888,4196150.553568285,2.3065,-3.07015,0.0827361,-114.955,-11.7455,-15.3998,-0.0238084,-6.8589,6.48681,-0.00688781,0.000956033,0.00500903,4,0,41.37947344651482,-91.79526130441948,9991.348463197626,-97.44819321428288,1.2657169035195526,0.4467186636183956,190.235,9720.794529171932,12053.737931086003,150,True,7.229790114139913,False,139.432740292133,168.73199049225954,False,51.74165464987704,False,False
1,1970-07-23 10:27:38.836220139,2025-09-12,2025-09-26 14:04:43.622,HH,C,1623733534,JASSM,3,102,76,2,2,1,225,9,2,0,1,26,0,0,0,0,-160098.75036795562,-4786879.561494674,4202923.616667271,-2.36549,-0.396822,0.382632,74.0,-30.875,-32.125,0.0,0.0,0.0,0.0,0.0,0.0,2,0,41.45832239138685,-91.91556202924778,10997.37557913116,119.87605183044124,-0.0043198095545775,0.0002309170226925,,9720.794529171932,12053.737931086003,150,1,2025-09-12,2025-09-26 14:04:43.707,HH,C,9856558,AMBUSH51,1,1,48,2,1,1,225,2,1,0,0,9,1,225,2,1,-150326.39350931134,-4792779.246939767,4196136.263196088,2.30662,-3.07404,0.0825074,-115.149,-11.6604,-15.3734,-0.030625,-6.93902,6.57693,0.00565402,-0.00502984,0.0127509,4,0,41.37929507221978,-91.796503590215,9994.234575235205,-97.29139912611012,1.109473600674682,0.4754501656639065,190.382,9720.794529171932,12053.737931086003,150,True,7.151524300488959,False,139.4857642186777,168.3067928868711,False,52.11635793677638,False,False
1,1970-07-23 10:27:38.846255047,2025-09-12,2025-09-26 14:04:44.625,HH,C,1624986234,JASSM,3,102,76,2,2,1,225,9,2,0,1,26,0,0,0,0,-160021.00866873687,-4786912.151338424,4202889.686979771,-2.36549,-0.396822,0.382632,74.0,-30.875,-32.125,0.0,0.0,0.0,0.0,0.0,0.0,2,0,41.45791497185724,-91.91461952643613,10997.374031158715,119.8766758356456,-0.0035043846157694,0.000229496380931,,9720.794529171932,12053.737931086003,150,1,2025-09-12,2025-09-26 14:04:44.507,HH,C,10810956,AMBUSH51,1,1,48,2,1,1,225,2,1,0,0,9,1,225,2,1,-150418.65581593948,-4792788.156344327,4196123.864530321,2.31231,-3.07647,0.0852224,-115.361,-11.3768,-15.3617,-0.100115,-6.98636,6.47657,-0.00130349,-0.00108503,-0.00879155,4,0,41.37914115429443,-91.7976021255126,9996.38962867297,-97.31602367769035,0.9032101138418764,0.8129825917767153,190.577,9720.794529171932,12053.737931086003,150,True,7.072932550559238,False,139.59962451561128,167.90775587852002,False,52.40635141041182,False,False
1,1970-07-23 10:27:38.859383495,2025-09-12,2025-09-26 14:04:45.938,HH,C,1626298584,JASSM,3,102,76,2,2,1,225,9,2,0,1,26,0,0,0,0,-159939.56677420562,-4786946.291963424,4202854.144011021,-2.3654,-0.396822,0.382632,74.0,-30.875,-32.125,0.0,0.0,0.0,0.0,0.0,0.0,2,0,41.45748816568319,-91.913632177042,10997.379617074645,119.87732952713031,-0.0026501553130753,0.0057194915835798,,9720.794529171932,12053.737931086003,150,1,2025-09-12,2025-09-26 14:04:45.942,HH,C,12520922,AMBUSH51,1,1,48,2,1,1,225,2,1,0,0,9,1,225,2,1,-150583.61791238363,-4792803.686252641,4196101.707842174,2.31059,-3.0817,0.0817359,-115.774,-10.7956,-15.4434,-0.114408,-7.1054,6.79249,-0.0055812,0.00323845,0.00235627,4,0,41.378868384525006,-91.79956640855258,9999.295634357206,-96.96954769880423,0.8143698490329122,0.7443410762462772,190.932,9720.794529171932,12053.737931086003,150,True,6.968521947023183,False,139.79183318317126,167.23772400469372,False,52.89479330278642,False,False
1,1970-07-23 10:27:38.868289935,2025-09-12,2025-09-26 14:04:46.828,HH,C,1627551332,JASSM,3,102,76,2,2,1,225,9,2,0,1,26,0,0,0,0,-159861.82312186187,-4786978.879854049,4202820.212370396,-2.3654,-0.396822,0.382632,74.0,-30.875,-32.125,0.0,0.0,0.0,0.0,0.0,0.0,2,0,41.45708072912951,-91.9126896758142,10997.37755434174,119.8779535209598,-0.0018347150135439,0.0057180782989447,,9720.794529171932,12053.737931086003,150,1,2025-09-12,2025-09-26 14:04:46.807,HH,C,13554854,AMBUSH51,1,1,48,2,1,1,225,2,1,0,0,9,1,225,2,1,-150685.23663489427,-4792813.1090740925,4196088.315710068,2.30449,-3.0832,0.0800646,-116.008,-10.8871,-15.118,-0.110366,-7.12678,6.70632,-0.0115858,-0.00811744,-0.00428498,4,0,41.37870292657601,-91.80077647711732,10001.29572967427,-96.84185640559762,0.8148991048816595,0.4036260153574748,191.323,9720.794529171932,12053.737931086003,150,True,6.887689878196172,False,139.8963826997408,166.78309151863718,False,53.241388233276275,False,False
1,1970-07-23 10:27:38.879392305,2025-09-12,2025-09-26 14:04:47.939,HH,C,1628863634,JASSM,3,102,76,2,2,1,225,9,2,0,1,26,0,0,0,0,-159780.38415701812,-4787013.014619674,4202784.667448521,-2.3654,-0.396822,0.382728,74.0,-30.875,-32.125,0.0,0.0,0.0,0.0,0.0,0.0,2,0,41.45665392746599,-91.91170238908974,10997.37384007564,119.88245511914045,-0.0049007543326513,0.0057164082206132,,9720.794529171932,12053.737931086003,150,1,2025-09-12,2025-09-26 14:04:48.074,HH,C,15065986,AMBUSH51,1,1,48,2,1,1,225,2,1,0,0,9,1,225,2,1,-150831.67749055236,-4792826.334104861,4196068.854848255,2.29196,-3.09173,0.0847481,-116.369,-10.2554,-15.5594,-0.0647115,-6.69261,6.30367,-0.000583607,-0.00243534,0.00241037,4,0,41.37846547890727,-91.8025204063351,10002.965790027532,-96.7200602339406,0.2737428786174238,-0.2724618155321684,191.75,9720.794529171932,12053.737931086003,150,True,6.790643177889506,False,139.97014357328783,166.14751330739108,False,53.81745464951671,False,False
1,1970-07-23 10:27:38.889196093,2025-09-12,2025-09-26 14:04:48.919,HH,C,1630116334,JASSM,3,102,76,2,2,1,225,9,2,0,1,26,0,0,0,0,-159702.64343436187,-4787045.600557174,4202750.735807896,-2.3654,-0.396822,0.382728,74.0,-30.875,-32.125,0.0,0.0,0.0,0.0,0.0,0.0,2,0,41.45624648609084,-91.91075994782138,10997.375905448514,119.88307906304046,-0.0040853425928727,0.0057150458409151,,9720.794529171932,12053.737931086003,150,1,2025-09-12,2025-09-26 14:04:48.840,HH,C,15980618,AMBUSH51,1,1,48,2,1,1,225,2,1,0,0,9,1,225,2,1,-150920.80071675294,-4792834.169637242,4196056.5504598105,2.28383,-3.09204,0.0871082,-116.51,-10.1504,-15.7764,-0.17002,-6.9236,6.44692,-0.0165043,-0.00570811,-0.000111312,4,0,41.37831911346886,-91.8035818273911,10002.464297542549,-96.81034777097972,0.1717801676961349,-0.7373933980562817,192.129,9720.794529171932,12053.737931086003,150,True,6.714887799519735,False,139.93686703570836,165.71382319835075,False,54.28857219877531,False,False
1,1970-07-23 10:27:38.902153778,2025-09-12,2025-09-26 14:04:50.215,HH,C,1631488336,JASSM,3,102,76,2,2,1,225,9,2,0,1,26,0,0,0,0,-159617.49939139312,-4787081.288057174,4202713.571745396,-2.3654,-0.396822,0.382728,74.0,-30.875,-32.125,0.0,0.0,0.0,0.0,0.0,0.0,2,0,41.455800237203206,-91.90972777118972,10997.37669194862,119.88376241051508,-0.0031922799937814,0.0057135555164147,,9720.794529171932,12053.737931086003,150,1,2025-09-12,2025-09-26 14:04:50.273,HH,C,17690582,AMBUSH51,1,1,48,2,1,1,225,2,1,0,0,9,1,225,2,1,-151087.83441159088,-4792848.063886656,4196033.195102623,2.29037,-3.09694,0.0907924,-116.753,-9.58747,-16.4056,-0.292505,-7.11575,6.56765,0.00635934,0.00421633,0.00440774,4,0,41.378047484552354,-91.80557141527248,9998.950374141854,-96.78411180789956,-0.1758323904518551,-0.3372782142022785,192.642,9720.794529171932,12053.737931086003,150,True,6.610661064194877,False,139.908429510866,164.960056238782,False,55.084266970537335,False,False
1,1970-07-23 10:27:38.912213875,2025-09-12,2025-09-26 14:04:51.221,HH,C,1632800688,JASSM,3,102,76,2,2,1,225,9,2,0,1,26,0,0,0,0,-159536.05700858062,-4787115.420869674,4202678.022917271,-2.3654,-0.396822,0.382728,74.0,-30.875,-32.125,0.0,0.0,0.0,0.0,0.0,0.0,2,0,41.45537339598759,-91.9087404832154,10997.373381597869,119.88441603401424,-0.0023380520483208,0.005712142983863,,9720.794529171932,12053.737931086003,150,1,2025-09-12,2025-09-26 14:04:51.074,HH,C,18644982,AMBUSH51,1,1,48,2,1,1,225,2,1,0,0,9,1,225,2,1,-151182.0970223464,-4792855.662300045,4196019.856134431,2.29983,-3.09813,0.0913603,-116.936,-9.50563,-16.4151,-0.0467167,-6.94962,6.43457,0.0140908,0.000462932,0.00416223,4,0,41.37789455031772,-91.80669428955042,9996.03264610044,-96.76387630071514,-0.2476834908301332,0.2108980108199393,192.789,9720.794529171932,12053.737931086003,150,True,6.532088593997423,False,139.94475427208195,164.4752107924342,False,55.53421934978143,False,False
1,1970-07-23 10:27:38.923287269,2025-09-12,2025-09-26 14:04:52.328,HH,C,1634113038,JASSM,3,102,76,2,2,1,225,9,2,0,1,26,0,0,0,0,-159454.61462576812,-4787149.555635299,4202642.472136021,-2.3654,-0.396726,0.382728,74.0,-30.875,-32.125,0.0,0.0,0.0,0.0,0.0,0.0,2,0,41.45494652146424,-91.90775320740828,10997.375285208436,119.88143310619472,-0.0050534328376481,0.0036594739632666,,9720.794529171932,12053.737931086003,150,1,2025-09-12,2025-09-26 14:04:52.274,HH,C,20076580,AMBUSH51,1,1,48,2,1,1,225,2,1,0,0,9,1,225,2,1,-151321.71564625722,-4792866.814016217,4195999.747035874,2.30618,-3.10049,0.0882427,-117.19,-9.19052,-16.6445,-0.0896637,-7.22762,6.58009,0.0124576,0.000762538,0.0047656,4,0,41.37766624408963,-91.80835748301362,9990.70357009768,-96.5420300869635,-0.2286433814643589,0.5859204744050228,193.18,9720.794529171932,12053.737931086003,150,True,6.440353969134059,False,139.9804235050322,163.795437395089,False,56.18426409589006,False,False
1,1970-07-23 10:27:38.934253739,2025-09-12,2025-09-26 14:04:53.425,HH,C,1635425698,JASSM,3,102,76,2,2,1,225,9,2,0,1,26,0,0,0,0,-159373.15271170562,-4787183.694307174,4202606.913542271,-2.3654,-0.396726,0.382728,74.0,-30.875,-32.125,0.0,0.0,0.0,0.0,0.0,0.0,2,0,41.45451956635576,-91.90676570949012,10997.372878402552,119.88208685770653,-0.0041990033328886,0.0036580111977199,,9720.794529171932,12053.737931086003,150,1,2025-09-12,2025-09-26 14:04:53.441,HH,C,21468412,AMBUSH51,1,1,48,2,1,1,225,2,1,0,0,9,1,225,2,1,-151459.3151639977,-4792877.847311963,4195980.392015958,2.28815,-3.09572,0.0794947,-117.417,-9.51518,-16.2356,-0.130114,-7.63932,6.95629,-0.0342227,0.000327694,0.0095697,4,0,41.37744408962183,-91.8099965973414,9986.571745364154,-96.34882199906492,0.3089925213988727,-0.4696817333575391,193.449,9720.794529171932,12053.737931086003,150,True,6.350014298570309,False,140.04237459898903,163.10548748612217,False,56.80609203450351,False,False
1,1970-07-23 10:27:38.945175495,2025-09-12,2025-09-26 14:04:54.517,HH,C,1636737742,JASSM,3,102,76,2,2,1,225,9,2,0,1,26,0,0,0,0,-159291.72888358062,-4787217.819307174,4202571.370573521,-2.3654,-0.396726,0.382728,74.0,-30.875,-32.125,0.0,0.0,0.0,0.0,0.0,0.0,2,0,41.45409278198705,-91.90577868528872,10997.378581934625,119.88274029007238,-0.0033449624947015,0.0036565317552948,,9720.794529171932,12053.737931086003,150,1,2025-09-12,2025-09-26 14:04:54.608,HH,C,22860244,AMBUSH51,1,1,48,2,1,1,225,2,1,0,0,9,1,225,2,1,-151595.62239771098,-4792889.357276818,4195961.758124825,2.27763,-3.09398,0.0761368,-117.584,-10.0456,-15.9299,-0.0605298,-7.65795,6.94535,-0.00305951,-0.00227721,-0.000342258,4,0,41.37722419038958,-91.81162008815588,9985.086122083105,-96.27191361564404,0.5122414406163264,-1.079428303128247,193.95,9720.794529171932,12053.737931086003,150,True,6.261018879160598,False,139.99671416803955,162.40158554449826,False,57.54764244978723,False,False
1,1970-07-23 10:27:38.955214069,2025-09-12,2025-09-26 14:04:55.521,HH,C,1637990440,JASSM,3,102,76,2,2,1,225,9,2,0,1,26,0,0,0,0,-159213.98864920562,-4787250.397432174,4202537.433073521,-2.3654,-0.396726,0.382728,74.0,-30.875,-32.125,0.0,0.0,0.0,0.0,0.0,0.0,2,0,41.45368529880625,-91.9048363271122,10997.375429319,119.883364147356,-0.0025295597337334,0.0036551200537586,,9720.794529171932,12053.737931086003,150,1,2025-09-12,2025-09-26 14:04:55.373,HH,C,23774876,AMBUSH51,1,1,48,2,1,1,225,2,1,0,0,9,1,225,2,1,-151685.72867563178,-4792897.265582282,4195949.717952719,2.28043,-3.08887,0.0758899,-117.624,-10.5738,-15.555,-0.142589,-7.60403,7.09904,0.00451593,0.0122765,-0.00268293,4,0,41.37707890744424,-91.8126931821806,9985.44913861168,-96.45595830300896,0.7409240285330879,-0.9433210616085316,193.718,9720.794529171932,12053.737931086003,150,True,6.188408062730826,False,139.964981556546,161.88243101869952,False,58.08859793493423,False,False
1,1970-07-23 10:27:38.966234524,2025-09-12,2025-09-26 14:04:56.623,HH,C,1639243174,JASSM,3,102,76,2,2,1,225,9,2,0,1,26,0,0,0,0,-159136.24548514312,-4787282.975557174,4202503.495573521,-2.3654,-0.396726,0.382728,74.0,-30.875,-32.125,0.0,0.0,0.0,0.0,0.0,0.0,2,0,41.453277808457024,-91.90389394570568,10997.376279997254,119.88398801497442,-0.0017141344431793,0.003653721900712,,9720.794529171932,12053.737931086003,150,1,2025-09-12,2025-09-26 14:04:56.573,HH,C,25206474,AMBUSH51,1,1,48,2,1,1,225,2,1,0,0,9,1,225,2,1,-151827.7360192066,-4792910.37729621,4195931.161916764,2.2847,-3.08558,0.0694541,-117.683,-11.3409,-14.993,-0.121668,-7.66867,7.01185,0.0152123,0.00283273,-0.00338201,4,0,41.37684889840129,-91.81438412157112,9988.53423149726,-96.3059281145821,1.1273542189453123,-0.7099210972823136,193.95,9720.794529171932,12053.737931086003,150,True,6.101759819758218,False,139.92158282248982,161.12450355294627,False,58.873926123794625,False,False
1,1970-07-23 10:27:38.976314143,2025-09-12,2025-09-26 14:04:57.631,HH,C,1640495936,JASSM,3,102,76,2,2,1,225,9,2,0,1,26,0,0,0,0,-159058.50134451812,-4787315.553682174,4202469.554167271,-2.3654,-0.396726,0.382824,74.0,-30.875,-32.125,0.0,0.0,0.0,0.0,0.0,0.0,2,0,41.45287028420525,-91.9029515644199,10997.3728097114,119.88845997771246,-0.0048187837719381,0.0036521133990377,,9720.794529171932,12053.737931086003,150,1,2025-09-12,2025-09-26 14:04:57.740,HH,C,26598306,AMBUSH51,1,1,48,2,1,1,225,2,1,0,0,9,1,225,2,1,-151964.21732036048,-4792923.595036425,4195914.041538078,2.2886,-3.07964,0.0658926,-117.65,-11.8668,-14.4639,-0.200036,-7.54771,7.07145,-0.0014637,0.00611799,-0.00201714,4,0,41.37662897126332,-91.81600901508344,9994.573147011217,-96.38026935157016,1.518209432165466,-0.5110273973565891,193.608,9720.794529171932,12053.737931086003,150,True,6.01767925602392,False,139.93377604295884,160.37029153320947,False,59.6022328809719,False,False
1,1970-07-23 10:27:38.987853609,2025-09-12,2025-09-26 14:04:58.785,HH,C,1641748804,JASSM,3,102,76,2,2,1,225,9,2,0,1,26,0,0,0,0,-158980.74939139312,-4787348.133760299,4202435.610807896,-2.3654,-0.396726,0.382824,74.0,-30.875,-32.25,0.0,0.0,0.0,0.0,0.0,0.0,2,0,41.45246272894662,-91.90200910075632,10997.373502984525,119.88908388978956,-0.0040032648686362,0.0036507666379809,,9720.794529171932,12053.737931086003,150,1,2025-09-12,2025-09-26 14:04:58.874,HH,C,27950372,AMBUSH51,1,1,48,2,1,1,225,2,1,0,0,9,1,225,2,1,-152098.25692311983,-4792937.326380117,4195897.559591822,2.29234,-3.0767,0.059586,-117.541,-12.4435,-13.9961,-0.234958,-7.82589,7.25248,-0.00178203,0.00402075,0.0055812,4,0,41.37641073969666,-91.81760454285686,10003.079532658876,-96.2228549998465,1.885087322926042,-0.3024464990800462,193.571,9720.794529171932,12053.737931086003,150,True,5.935435323289615,False,139.84805597461892,159.66353281226876,False,60.38615089260003,False,False
1,1970-07-23 10:27:38.998350921,2025-09-12,2025-09-26 14:04:59.835,HH,C,1643061174,JASSM,3,102,76,2,2,1,225,9,2,0,1,26,0,0,0,0,-158899.30603201812,-4787382.260713424,4202400.054167271,-2.3654,-0.396726,0.382824,74.0,-30.875,-32.25,0.0,0.0,0.0,0.0,0.0,0.0,2,0,41.45203580363165,-91.90102190464664,10997.375149537222,119.88973740939166,-0.0031490215727028,0.0036493451912708,,9720.794529171932,12053.737931086003,150,1,2025-09-12,2025-09-26 14:04:59.673,HH,C,28904770,AMBUSH51,1,1,48,2,1,1,225,2,1,0,0,9,1,225,2,1,-152192.16515452386,-4792947.131331203,4195886.556355682,2.29699,-3.07093,0.0574377,-117.397,-12.7221,-13.573,-0.297736,-7.83216,7.21096,-0.000708443,0.00953641,-0.00968413,4,0,41.37626040882495,-91.8187222934466,10010.679179153913,-96.35090960173024,2.214156625762936,-0.0597339469992305,193.412,9720.794529171932,12053.737931086003,150,True,5.86248667675788,False,139.89196367802472,159.05689532480093,False,60.9383273984005,False,False
1,1970-07-23 10:27:39.012168792,2025-09-12,2025-09-26 14:05:01.216,HH,C,1644432890,JASSM,3,102,76,2,2,1,225,9,2,0,1,26,0,0,0,0,-158814.17907889312,-4787417.928682174,4202362.888151646,-2.3654,-0.396726,0.382824,74.0,-30.875,-32.25,0.0,0.0,0.0,0.0,0.0,0.0,2,0,41.45158956679609,-91.89999007357234,10997.37310294052,119.89042047123364,-0.0022561458232539,0.0036478650522268,,9720.794529171932,12053.737931086003,150,1,2025-09-12,2025-09-26 14:05:01.207,HH,C,30734036,AMBUSH51,1,1,48,2,1,1,225,2,1,0,0,9,1,225,2,1,-152371.7625778322,-4792966.97610086,4195865.858636276,2.31235,-3.06678,0.0504886,-117.024,-13.1987,-12.9975,0.0730711,-7.63322,7.0043,0.0603196,0.00367745,0.00428082,4,0,41.37596871035245,-91.82085953526614,10028.665545985272,-96.21285481076865,2.6580926197407453,0.8131125033971579,193.033,9720.794529171932,12053.737931086003,150,True,5.766289283265808,False,139.90423766381753,158.01879473224145,False,61.94809638268134,False,False
1,1970-07-23 10:27:39.027310720,2025-09-12,2025-09-26 14:05:02.731,HH,C,1645745242,JASSM,3,102,76,2,2,1,225,9,2,0,1,26,0,0,0,0,-158732.73571951812,-4787452.053682174,4202327.329557896,-2.3654,-0.39663,0.382824,74.0,-30.875,-32.25,0.0,0.0,0.0,0.0,0.0,0.0,2,0,41.45116262254597,-91.8990029047128,10997.375230862952,119.88743769274286,-0.004971517026816,0.0015947129103679,,9720.794529171932,12053.737931086003,150,1,2025-09-12,2025-09-26 14:05:02.673,HH,C,32483768,AMBUSH51,1,1,48,2,1,1,225,2,1,0,0,9,1,225,2,1,-152542.3654521268,-4792985.9765436575,4195847.721770006,2.4971,-3.06571,0.0403569,-116.749,-12.6458,-11.2836,-0.37377,-7.69521,7.18349,0.0944143,0.0101086,0.0223674,4,0,41.375700989152165,-91.8228896624078,10049.440357553787,-95.8205863856326,3.0911059090365707,11.415723178529612,192.484,9720.794529171932,12053.737931086003,150,False,5.675942889312639,False,140.6569983348672,157.00242924413777,False,62.19342272782301,False,False
1,1970-07-23 10:27:39.031612606,2025-09-12,2025-09-26 14:05:03.161,HH,C,1646997942,JASSM,3,102,76,2,2,1,225,9,2,0,1,26,0,0,0,0,-158654.99548514312,-4787484.625947799,4202293.388151646,-2.3654,-0.39663,0.382824,74.0,-30.875,-32.25,0.0,0.0,0.0,0.0,0.0,0.0,2,0,41.45075509219624,-91.89806063367116,10997.379700502572,119.88806145626307,-0.0041561196112363,0.0015933105173464,,9720.794529171932,12053.737931086003,150,1,2025-09-12,2025-09-26 14:05:03.073,HH,C,32960966,AMBUSH51,1,1,48,2,1,1,225,2,1,0,0,9,1,225,2,1,-152589.82295248882,-4792990.916098041,4195843.212673714,2.53727,-3.07343,0.0297635,-116.689,-12.3018,-10.4114,-0.196131,-7.62966,7.00979,0.0956127,0.00649874,0.0347823,4,0,41.37563218674666,-91.82345452140082,10055.533629821552,-95.0727727131219,3.164621590742437,13.773895938623376,192.141,9720.794529171932,12053.737931086003,150,False,5.619025301775666,False,141.06784556451507,156.57646663317996,False,62.19835637227623,False,False
1,1970-07-23 10:27:39.053467902,2025-09-12,2025-09-26 14:05:05.346,HH,C,1649682296,JASSM,3,102,76,2,2,1,225,9,2,0,1,26,0,0,0,0,-158488.40759451812,-4787554.418916549,4202220.649870396,-2.3654,-0.39663,0.382824,74.0,-30.875,-32.25,0.0,0.0,0.0,0.0,0.0,0.0,2,0,41.449881770193,-91.89604150301986,10997.377227113844,119.88939806110918,-0.002408819185447,0.0015902976600745,,9720.794529171932,12053.737931086003,150,1,2025-09-12,2025-09-26 14:05:05.473,HH,C,35824164,AMBUSH51,1,1,48,2,1,1,225,2,1,0,0,9,1,225,2,1,-152869.83594801626,-4793014.957087241,4195824.204059248,2.62106,-3.11973,-0.020943,-116.347,-7.77392,-4.64781,-0.179236,-7.56891,6.97299,0.00504024,0.0145777,0.0224943,4,0,41.37530782336045,-91.82678926604234,10095.424260188936,-91.1354916965064,3.1038742952465794,18.80196283451601,191.09,9720.794529171932,12053.737931086003,150,False,5.451622577766901,False,144.5862300141232,154.75559837485693,False,60.48330416952367,False,False
