Subject_cm,Timestamp,SampleDate_cm,SampleTime_cm,Configuration_cm,Scenario_cm,DisTime_cm,MarkingTxt_cm,Application_cm,EntId_cm,Site_cm,ExerciseId_cm,ForceId_cm,Category_cm,Country_cm,Domain_cm,Kind_cm,Extra_cm,Specific_cm,Subcategory_cm,AltCategory_cm,AltCountry_cm,AltDomain_cm,AltKind_cm,ECEF_X_cm,ECEF_Y_cm,ECEF_Z_cm,OriPhi_cm,OriPsi_cm,OriTheta_cm,LinVelX_cm,LinVelY_cm,LinVelZ_cm,LinAccX_cm,LinAccY_cm,LinAccZ_cm,AngVelX_cm,AngVelY_cm,AngVelZ_cm,DrAlg_cm,Appearance_cm,Latitude_cm,Longitude_cm,Altitude_cm,Heading_cm,Pitch_cm,Roll_cm,CalibratedAirspeed_cm,CM_Altitude_Lead_cm,CM_Altitude_Wing_cm,CM_Airspeed_cm,Subject_ac,SampleDate_ac,SampleTime_ac,Configuration_ac,Scenario_ac,DisTime_ac,MarkingTxt_ac,Application_ac,EntId_ac,Site_ac,ExerciseId_ac,ForceId_ac,Category_ac,Country_ac,Domain_ac,Kind_ac,Extra_ac,Specific_ac,Subcategory_ac,AltCategory_ac,AltCountry_ac,AltDomain_ac,AltKind_ac,ECEF_X_ac,ECEF_Y_ac,ECEF_Z_ac,OriPhi_ac,OriPsi_ac,OriTheta_ac,LinVelX_ac,LinVelY_ac,LinVelZ_ac,LinAccX_ac,LinAccY_ac,LinAccZ_ac,AngVelX_ac,AngVelY_ac,AngVelZ_ac,DrAlg_ac,Appearance_ac,Latitude_ac,Longitude_ac,Altitude_ac,Heading_ac,Pitch_ac,Roll_ac,CalibratedAirspeed_ac,CM_Altitude_Lead_ac,CM_Altitude_Wing_ac,CM_Airspeed_ac,Bank_Angle_Condition,distance_nm,Distance_Condition,angle_between_vel,angle_between_pos,Cone_Condition,angle_between_pos_nose,Nose_Cone_Condition,Intercept_Criteria
1,1970-07-23 09:33:42.670262029,2025-09-08,2025-09-26 20:11:07.026,HH,B,3014050036,JASSM,3,123,76,2,2,1,225,9,2,0,1,26,0,0,0,0,-170845.47448904935,-4793851.516572799,4195064.324675083,-2.29541,0.0348981,-0.079767,97.25,3.375,7.75,0.0,0.0,0.0,0.0,0.0,0.0,2,0,41.36159509568683,-92.04106938647388,11999.99938656999,83.90250967325063,-0.003625299773394,0.0057514384735623,,10456.756926878135,13162.46325448802,150,1,2025-09-08,2025-09-26 20:11:07.112,HH,B,460077080,AMBUSH51,1,1,48,2,1,1,225,2,1,0,0,9,1,225,2,1,-147261.421570923,-4792359.38808263,4196933.739046875,2.33304,2.86547,-0.263482,-108.091,30.1327,28.2131,-0.0991514,-7.33265,6.83229,-0.00851899,0.00411854,-0.00757857,4,0,41.38774264763607,-91.76005243330738,10456.756926878135,-69.48308301033349,-0.2171001348754715,0.3736558450043186,193.803,10456.756926878135,13162.46325448802,150,True,12.751981360504507,False,154.4652097917052,178.37225488699298,False,26.64456986907744,True,False
1,1970-07-23 09:33:42.679559473,2025-09-08,2025-09-26 20:11:07.955,HH,B,3015243082,JASSM,3,123,76,2,2,1,225,9,2,0,1,26,0,0,0,0,-170748.195436315,-4793848.123018111,4195072.110807896,-2.29541,0.0348981,-0.079767,97.25,3.375,7.75,0.0,0.0,0.0,0.0,0.0,0.0,2,0,41.3616884486355,-92.03990963083425,11999.999499621188,83.90327605081474,-0.0027498495021538,0.0057518085569083,,10456.756926878135,13162.46325448802,150,1,2025-09-08,2025-09-26 20:11:07.912,HH,B,461031480,AMBUSH51,1,1,48,2,1,1,225,2,1,0,0,9,1,225,2,1,-147348.1141088389,-4792335.013476593,4196956.570729662,2.33156,2.86314,-0.264644,-108.352,30.1932,28.5815,-0.170885,-7.44633,6.8171,-0.00176538,-0.00208788,0.0084545,4,0,41.38802591907882,-91.76109687231872,10452.869335658515,-69.34696507645755,-0.2643101814109638,0.2537201905097053,194.182,10456.756926878135,13162.46325448802,150,True,12.654879294262146,False,154.3658243805324,178.2928346699187,False,26.84556355605051,True,False
1,1970-07-23 09:33:42.690201826,2025-09-08,2025-09-26 20:11:09.020,HH,B,3016436128,JASSM,3,123,76,2,2,1,225,9,2,0,1,26,0,0,0,0,-170650.91638358062,-4793844.728486861,4195079.895964146,-2.29541,0.0348981,-0.0796711,97.25,3.375,7.75,0.0,0.0,0.0,0.0,0.0,0.0,2,0,41.36178178910299,-92.0387498722953,11999.999987370848,83.90815511261873,-0.0055159485468221,0.0057519126021072,,10456.756926878135,13162.46325448802,150,1,2025-09-08,2025-09-26 20:11:09.111,HH,B,462463078,AMBUSH51,1,1,48,2,1,1,225,2,1,0,0,9,1,225,2,1,-147479.1559968709,-4792298.676683039,4196991.131453225,2.30953,2.8668,-0.268306,-108.695,29.9161,29.0512,0.0192084,-7.31385,6.69972,-0.0289275,0.00951976,0.0110532,4,0,41.38845140089214,-91.76267544710733,10448.355429486322,-69.33423207787615,0.0281725000112761,-0.9533761560890672,194.867,10456.756926878135,13162.46325448802,150,True,12.535048819692824,False,154.348648369171,178.17013969172518,False,27.010828948072394,True,False
1,1970-07-23 09:33:42.700260710,2025-09-08,2025-09-26 20:11:10.026,HH,B,3017629176,JASSM,3,123,76,2,2,1,225,9,2,0,1,26,0,0,0,0,-170553.63708670562,-4793841.332979049,4195087.680143833,-2.29541,0.0348981,-0.0796711,97.25,3.375,7.75,0.0,0.0,0.0,0.0,0.0,0.0,2,0,41.36187511714091,-92.03759010794305,12000.000828436436,83.90892149875876,-0.0046404969402729,0.0057523437458866,,10456.756926878135,13162.46325448802,150,1,2025-09-08,2025-09-26 20:11:10.113,HH,B,463656076,AMBUSH51,1,1,48,2,1,1,225,2,1,0,0,9,1,225,2,1,-147588.22080760484,-4792268.886945441,4197019.861216687,2.27332,2.87124,-0.270929,-109.09,29.5141,29.1313,-0.182847,-7.47084,7.01028,-0.0270321,0.0110615,-0.00231466,4,0,41.388802579702606,-91.7639891281813,10445.645334191297,-69.39348746245895,0.3106764153069088,-2.9603249829071268,195.331,10456.756926878135,13162.46325448802,150,True,12.426565788999032,False,154.51104899428663,178.0616303931559,False,26.97610922484646,True,False
1,1970-07-23 09:33:42.710000851,2025-09-08,2025-09-26 20:11:11.000,HH,B,3018822222,JASSM,3,123,76,2,2,1,225,9,2,0,1,26,0,0,0,0,-170456.35778983062,-4793837.935518111,4195095.463346958,-2.29541,0.0348981,-0.0796711,97.25,3.375,7.75,0.0,0.0,0.0,0.0,0.0,0.0,2,0,41.361968438501066,-92.03643034110635,11999.999641015393,83.90968788796454,-0.0037650454352291,0.0057527798942462,,10456.756926878135,13162.46325448802,150,1,2025-09-08,2025-09-26 20:11:11.111,HH,B,464849076,AMBUSH51,1,1,48,2,1,1,225,2,1,0,0,9,1,225,2,1,-147697.6093621036,-4792239.585169697,4197048.609697638,2.24449,2.87658,-0.269193,-109.531,28.8968,29.027,-0.204482,-7.53643,6.91292,-0.024756,0.00814241,-0.00253937,4,0,41.38915090852017,-91.76530651108833,10444.207878976456,-69.66870606852204,0.4587314918177095,-4.53256698216041,195.82,10456.756926878135,13162.46325448802,150,True,12.317966723381291,False,154.80780648986413,177.94893187245296,False,26.80761414722459,True,False
1,1970-07-23 09:33:42.720159123,2025-09-08,2025-09-26 20:11:12.015,HH,B,3020015268,JASSM,3,123,76,2,2,1,225,9,2,0,1,26,0,0,0,0,-170359.07849295562,-4793834.537080611,4195103.245573521,-2.29541,0.0348981,-0.0796711,97.25,3.375,7.75,0.0,0.0,0.0,0.0,0.0,0.0,2,0,41.362061747379904,-92.03527057137062,11999.998828295866,83.91045428051049,-0.0028895943377439,0.0057532152433833,,10456.756926878135,13162.46325448802,150,1,2025-09-08,2025-09-26 20:11:12.045,HH,B,465962542,AMBUSH51,1,1,48,2,1,1,225,2,1,0,0,9,1,225,2,1,-147799.90922712456,-4792212.844700513,4197075.28556071,2.17417,2.88672,-0.266483,-109.961,28.2116,28.5325,-0.0500797,-7.49184,7.00403,-0.0976434,0.00875202,-0.0134958,4,0,41.38947129564078,-91.76653829267543,10444.044998016749,-70.16551238015651,0.763116813364935,-8.412956071901426,196.199,10456.756926878135,13162.46325448802,150,True,12.213034538577254,False,155.25744760737817,177.8401442522169,False,26.483446338591015,True,False
1,1970-07-23 09:33:42.730218540,2025-09-08,2025-09-26 20:11:13.021,HH,B,3021208316,JASSM,3,123,76,2,2,1,225,9,2,0,1,26,0,0,0,0,-170261.79919608062,-4793831.138643111,4195111.026823521,-2.29541,0.0348981,-0.0796711,97.25,3.375,7.75,0.0,0.0,0.0,0.0,0.0,0.0,2,0,41.36215503797379,-92.03411079832196,12000.000793484338,83.91122067667004,-0.0020141439542332,0.0057536439894824,,10456.756926878135,13162.46325448802,150,1,2025-09-08,2025-09-26 20:11:13.211,HH,B,467354374,AMBUSH51,1,1,48,2,1,1,225,2,1,0,0,9,1,225,2,1,-147927.81629889226,-4792180.916675878,4197107.724911802,2.06018,2.90285,-0.255197,-110.794,26.6635,27.2904,-0.0501907,-7.55152,6.94131,-0.09482,0.0128258,-0.0178442,4,0,41.38985673485913,-91.76807786962124,10445.572561907971,-71.24781828639638,0.9784923431112686,-14.722153810132898,196.871,10456.756926878135,13162.46325448802,150,False,12.09497247987862,False,156.29087440183434,177.70498802574278,False,25.600637602980505,True,False
1,1970-07-23 09:33:42.739259762,2025-09-08,2025-09-26 20:11:13.925,HH,B,3022341710,JASSM,3,123,76,2,2,1,225,9,2,0,1,26,0,0,0,0,-170169.3839128775,-4793827.908174361,4195118.418425083,-2.29541,0.0348981,-0.0796711,97.25,3.375,7.75,0.0,0.0,0.0,0.0,0.0,0.0,2,0,41.36224366085027,-92.03300901226848,12000.001122041387,83.91194875543535,-0.0011824663458415,0.0057540589657331,,10456.756926878135,13162.46325448802,150,1,2025-09-08,2025-09-26 20:11:13.945,HH,B,468229238,AMBUSH51,1,1,48,2,1,1,225,2,1,0,0,9,1,225,2,1,-148009.40479465353,-4792162.041617809,4197127.039912091,1.98956,2.91715,-0.241992,-111.584,25.3406,25.7317,0.0309083,-7.62707,7.24772,-0.0744426,0.0137871,-0.0223674,4,0,41.3900844195132,-91.76905938385444,10447.23253476022,-72.34333370645403,1.050585202317334,-18.58642324374958,196.871,10456.756926878135,13162.46325448802,150,False,12.003194784541233,False,157.36082192781808,177.61713960189306,False,24.632532947591827,True,False
1,1970-07-23 09:33:42.750284372,2025-09-08,2025-09-26 20:11:15.028,HH,B,3023594408,JASSM,3,123,76,2,2,1,225,9,2,0,1,26,0,0,0,0,-170067.24035819,-4793824.335908736,4195126.586393833,-2.29541,0.0349939,-0.0796711,97.25,3.375,7.75,0.0,0.0,0.0,0.0,0.0,0.0,2,0,41.36234159917959,-92.03179124185674,11999.998617018857,83.90912346661406,-0.0043628624966227,0.0061918478397261,,10456.756926878135,13162.46325448802,150,1,2025-09-08,2025-09-26 20:11:15.111,HH,B,469621070,AMBUSH51,1,1,48,2,1,1,225,2,1,0,0,9,1,225,2,1,-148141.09755734674,-4792134.043096233,4197155.701313578,1.95759,2.93979,-0.218308,-112.861,22.5499,23.3001,-0.23265,-7.71455,7.11342,-0.00156565,0.00594322,-0.027494,4,0,41.39042025070773,-91.77064275810382,10450.535442162112,-74.19835702933689,1.0679064279981176,-20.15596713453327,197.103,10456.756926878135,13162.46325448802,150,False,11.880290049897805,False,159.24705317809017,177.4836591834872,False,22.883918877139973,True,False
1,1970-07-23 09:33:42.760338446,2025-09-08,2025-09-26 20:11:16.033,HH,B,3024847106,JASSM,3,123,76,2,2,1,225,9,2,0,1,26,0,0,0,0,-169965.09704764312,-4793820.763643111,4195134.754362583,-2.29541,0.0349939,-0.0796711,97.25,3.375,7.75,0.0,0.0,0.0,0.0,0.0,0.0,2,0,41.3624395245699,-92.03057347070794,12000.001530176409,83.90992819331807,-0.0034436396283129,0.0061922470824313,,10456.756926878135,13162.46325448802,150,1,2025-09-08,2025-09-26 20:11:16.179,HH,B,470893602,AMBUSH51,1,1,48,2,1,1,225,2,1,0,0,9,1,225,2,1,-148262.0366897459,-4792111.432880503,4197179.563185916,1.94525,2.96337,-0.197012,-113.687,18.3651,23.7755,-0.103788,-7.84731,7.18868,-0.0110386,0.0149959,-0.023362,4,0,41.39069358712727,-91.77209570636128,10455.874254094657,-75.99157864097621,1.2289404744547068,-20.620656691789318,197.03,10456.756926878135,13162.46325448802,150,False,11.762742908357666,False,160.34396663022778,177.36541647696396,False,21.799749133099805,True,False
1,1970-07-23 09:33:42.770197591,2025-09-08,2025-09-26 20:11:17.019,HH,B,3026040154,JASSM,3,123,76,2,2,1,225,9,2,0,1,26,0,0,0,0,-169867.8175066275,-4793817.359346236,4195142.530729771,-2.29541,0.0349939,-0.0796711,97.25,3.375,7.75,0.0,0.0,0.0,0.0,0.0,0.0,2,0,41.362532769716296,-92.0294136838134,11999.998293955632,83.91069460436495,-0.0025681887532847,0.0061926220328771,,10456.756926878135,13162.46325448802,150,1,2025-09-08,2025-09-26 20:11:16.978,HH,B,471848002,AMBUSH51,1,1,48,2,1,1,225,2,1,0,0,9,1,225,2,1,-148352.77239888185,-4792095.725048907,4197194.588168799,1.94287,2.97731,-0.183237,-114.706,18.3033,18.76,-0.140453,-7.73677,7.24699,-0.00240829,0.0196419,-0.0313951,4,0,41.39087175144804,-91.77318533747425,10456.731947580622,-77.10395027694112,1.2843268090250504,-20.63054595740956,197.249,10456.756926878135,13162.46325448802,150,False,11.663237629214382,False,162.39728934837993,177.2771662216189,False,19.954607095041002,True,False
1,1970-07-23 09:33:42.781159594,2025-09-08,2025-09-26 20:11:18.115,HH,B,3027233592,JASSM,3,123,76,2,2,1,225,9,2,0,1,26,0,0,0,0,-169770.5061052603,-4793813.954072799,4195150.310026646,-2.29541,0.0349939,-0.0795753,97.25,3.375,7.75,0.0,0.0,0.0,0.0,0.0,0.0,2,0,41.36262603546966,-92.02825351370196,12000.0011247333,83.91557392295391,-0.0053340314899018,0.0061927466320986,,10456.756926878135,13162.46325448802,150,1,2025-09-08,2025-09-26 20:11:18.111,HH,B,473200066,AMBUSH51,1,1,48,2,1,1,225,2,1,0,0,9,1,225,2,1,-148484.05005044717,-4792076.25748505,4197214.117455989,1.94199,3.00183,-0.155009,-115.631,15.6705,15.8646,-0.0984938,-7.693,7.01394,-0.0071895,0.0085294,-0.02579,4,0,41.39109520746904,-91.77476063476968,10461.20570543144,-79.23430782403611,1.2381508277804678,-20.49093293176674,197.176,10456.756926878135,13162.46325448802,150,False,11.542519708845605,False,164.34913271324723,177.16166976342137,False,18.12492286492012,True,False
1,1970-07-23 09:33:42.790281837,2025-09-08,2025-09-26 20:11:19.028,HH,B,3028426644,JASSM,3,123,76,2,2,1,225,9,2,0,1,26,0,0,0,0,-169673.22607596344,-4793810.547822799,4195158.085417271,-2.29541,0.0349939,-0.0795753,97.25,3.375,7.75,0.0,0.0,0.0,0.0,0.0,0.0,2,0,41.36271926234744,-92.02709371518182,12000.00071419664,83.91634034449858,-0.0044585763966511,0.0061931890204391,,10456.756926878135,13162.46325448802,150,1,2025-09-08,2025-09-26 20:11:19.046,HH,B,474313532,AMBUSH51,1,1,48,2,1,1,225,2,1,0,0,9,1,225,2,1,-148592.34565111055,-4792062.522648194,4197227.477537691,1.9519,3.0191,-0.138999,-116.319,13.6326,13.3088,-0.118944,-7.65746,7.18303,0.0264537,0.011334,-0.0193194,4,0,41.39124713299681,-91.77605930009013,10464.655962396688,-80.57129148971045,1.3594050421203905,-19.80861602500937,197.359,10456.756926878135,13162.46325448802,150,False,11.433550307365214,False,165.97273254586713,177.0698927242882,False,16.605159043194494,True,False
1,1970-07-23 09:33:42.801316751,2025-09-08,2025-09-26 20:11:20.131,HH,B,3029678944,JASSM,3,123,76,2,2,1,225,9,2,0,1,26,0,0,0,0,-169571.11511404935,-4793806.971650924,4195166.245573521,-2.29541,0.0349939,-0.0795753,97.25,3.375,7.75,0.0,0.0,0.0,0.0,0.0,0.0,2,0,41.36281710167228,-92.02587631775457,12000.000710695014,83.91714483025726,-0.0035396468942102,0.0061936487510036,,10456.756926878135,13162.46325448802,150,1,2025-09-08,2025-09-26 20:11:20.180,HH,B,475665598,AMBUSH51,1,1,48,2,1,1,225,2,1,0,0,9,1,225,2,1,-148723.64681207118,-4792048.479586186,4197241.013687047,1.99727,3.04299,-0.11672,-116.889,11.0553,10.9591,-0.185594,-7.77937,7.14194,0.0438204,0.0111135,-0.0297223,4,0,41.39139781954308,-91.7776328849396,10469.492469036108,-82.42904659808389,1.529359595370912,-17.081576573360362,197.372,10456.756926878135,13162.46325448802,150,False,11.30976125669611,False,167.6623239395186,176.96706066662847,False,15.004295917360707,True,False
1,1970-07-23 09:33:42.811199383,2025-09-08,2025-09-26 20:11:21.119,HH,B,3030931644,JASSM,3,123,76,2,2,1,225,9,2,0,1,26,0,0,0,0,-169468.97143729156,-4793803.392549361,4195174.407682896,-2.29541,0.0349939,-0.0795753,97.25,3.375,7.75,0.0,0.0,0.0,0.0,0.0,0.0,2,0,41.36291496559319,-92.0246585273959,12000.000279506092,83.91794957724255,-0.0026204229079753,0.006194114740894,,10456.756926878135,13162.46325448802,150,1,2025-09-08,2025-09-26 20:11:21.211,HH,B,476898364,AMBUSH51,1,1,48,2,1,1,225,2,1,0,0,9,1,225,2,1,-148844.34598730228,-4792038.313730779,4197251.31672899,2.07336,3.06412,-0.103948,-117.105,7.35756,11.5306,-0.135008,-7.62235,7.06295,0.0892918,0.010739,-0.0114672,4,0,41.39150555467055,-91.77907839775648,10476.052722636708,-83.77565168235667,1.947406367273918,-12.629331592562306,197.518,10456.756926878135,13162.46325448802,150,False,11.191302097716163,False,168.4055591208181,176.87792741337364,False,14.157229957206056,True,False
1,1970-07-23 09:33:42.822218181,2025-09-08,2025-09-26 20:11:22.221,HH,B,3032184342,JASSM,3,123,76,2,2,1,225,9,2,0,1,26,0,0,0,0,-169366.82776053375,-4793799.812471236,4195182.568815708,-2.29541,0.0349939,-0.0795753,97.25,3.375,7.75,0.0,0.0,0.0,0.0,0.0,0.0,2,0,41.3630128158341,-92.0234407338006,12000.00072475652,83.91875432793526,-0.0017011993288914,0.0061945799269947,,10456.756926878135,13162.46325448802,150,1,2025-09-08,2025-09-26 20:11:22.045,HH,B,477892528,AMBUSH51,1,1,48,2,1,1,225,2,1,0,0,9,1,225,2,1,-148942.86645584795,-4792030.961127321,4197257.72766394,2.16914,3.07431,-0.0940331,-117.262,7.77029,8.07532,-0.22661,-7.43133,7.03327,0.137572,0.0088935,-0.00983601,4,0,41.39157436213003,-91.78025794672644,10479.402373773995,-84.5871769132789,2.0081866095851337,-7.111846470768274,197.628,10456.756926878135,13162.46325448802,150,True,11.084346509773463,False,169.7374974230106,176.8050841879382,False,13.057745036104626,True,False
1,1970-07-23 09:33:42.832282416,2025-09-08,2025-09-26 20:11:23.228,HH,B,3033437046,JASSM,3,123,76,2,2,1,225,9,2,0,1,26,0,0,0,0,-169264.683717565,-4793796.231416549,4195190.727995396,-2.29541,0.0350898,-0.0795753,97.25,3.375,7.75,0.0,0.0,0.0,0.0,0.0,0.0,2,0,41.3631106458761,-92.02222293259751,11999.999897355216,83.91592901245264,-0.0048815982407435,0.0066318768874162,,10456.756926878135,13162.46325448802,150,1,2025-09-08,2025-09-26 20:11:23.178,HH,B,479244594,AMBUSH51,1,1,48,2,1,1,225,2,1,0,0,9,1,225,2,1,-149075.0413033201,-4792022.464266768,4197266.285520546,2.31066,3.08132,-0.0952768,-117.208,6.93163,8.03039,-0.195251,-7.62718,7.00047,0.075924,0.00791146,-0.00161558,4,0,41.39165823182616,-91.78183992227684,10487.174705033858,-84.7993801627207,2.3566892606751417,1.026540715283121,197.775,10456.756926878135,13162.46325448802,150,True,10.959652467908864,False,169.9758456574314,176.7139984939062,False,12.872948713518506,True,False
1,1970-07-23 09:33:42.842296195,2025-09-08,2025-09-26 20:11:24.229,HH,B,3034689974,JASSM,3,123,76,2,2,1,225,9,2,0,1,26,0,0,0,0,-169162.52136404935,-4793792.648408736,4195198.888151646,-2.29541,0.0350898,-0.0795753,97.25,3.375,7.75,0.0,0.0,0.0,0.0,0.0,0.0,2,0,41.36320848507307,-92.02100490999293,12000.000187693817,83.91673391758927,-0.0039622076373961,0.0066322807514791,,10456.756926878135,13162.46325448802,150,1,2025-09-08,2025-09-26 20:11:24.411,HH,B,480715960,AMBUSH51,1,1,48,2,1,1,225,2,1,0,0,9,1,225,2,1,-149220.01025678223,-4792013.763712583,4197275.779592463,2.38595,3.07764,-0.100051,-117.124,7.0325,8.76067,-0.377781,-7.49361,7.0938,0.0488555,-0.000712604,0.0115296,4,0,41.391747242612695,-91.78357480121062,10497.465969600396,-84.45601943349743,2.381011077051564,5.334356497534738,197.592,10456.756926878135,13162.46325448802,150,True,10.828231157433272,False,169.6455480563019,176.61439843442417,False,13.285080428194858,True,False
1,1970-07-23 09:33:42.854334421,2025-09-08,2025-09-26 20:11:25.433,HH,B,3036002090,JASSM,3,123,76,2,2,1,225,9,2,0,1,26,0,0,0,0,-169055.53271658844,-4793788.894502486,4195207.433073521,-2.29541,0.0350898,-0.0795753,97.25,3.375,7.75,0.0,0.0,0.0,0.0,0.0,0.0,2,0,41.36331093726879,-92.0197293430556,12000.000676494576,83.91757685139228,-0.0029993837484917,0.0066327084277453,,10456.756926878135,13162.46325448802,150,1,2025-09-08,2025-09-26 20:11:25.344,HH,B,481829424,AMBUSH51,1,1,48,2,1,1,225,2,1,0,0,9,1,225,2,1,-149330.15490022904,-4792006.778624379,4197284.067419564,2.41001,3.07321,-0.103345,-116.924,7.52149,9.63211,-0.167584,-7.2768,6.81225,0.0115338,-0.00104342,0.0119749,4,0,41.39182433544481,-91.78489307055922,10506.701581693693,-84.14807993293752,2.317221051977938,6.699497769821684,197.518,10456.756926878135,13162.46325448802,150,True,10.712651281535827,False,169.15181849414756,176.52947491088952,False,13.861419852220129,True,False
1,1970-07-23 09:33:42.864217556,2025-09-08,2025-09-26 20:11:26.421,HH,B,3037195138,JASSM,3,123,76,2,2,1,225,9,2,0,1,26,0,0,0,0,-168958.25280936187,-4793785.480439986,4195215.200651646,-2.29541,0.0350898,-0.0795753,97.25,3.375,7.75,0.0,0.0,0.0,0.0,0.0,0.0,2,0,41.36340407186827,-92.01856952496742,12000.00009061688,83.91834329629366,-0.0021239329540558,0.0066330890758467,,10456.756926878135,13162.46325448802,150,1,2025-09-08,2025-09-26 20:11:26.511,HH,B,483221256,AMBUSH51,1,1,48,2,1,1,225,2,1,0,0,9,1,225,2,1,-149465.94523580917,-4791997.251464829,4197295.656790352,2.41696,3.06793,-0.107567,-116.737,8.38625,10.8258,-0.198556,-7.48776,6.82553,-0.00263715,9.36268e-06,0.00657364,4,0,41.39193406546764,-91.786518624962,10518.819481776674,-83.76854950956943,2.2528531320846605,7.081271911015079,197.176,10456.756926878135,13162.46325448802,150,True,10.588995142134243,False,168.42982124491766,176.42402749710342,False,14.697107205285787,True,False
1,1970-07-23 09:33:42.875216728,2025-09-08,2025-09-26 20:11:27.521,HH,B,3038507488,JASSM,3,123,76,2,2,1,225,9,2,0,1,26,0,0,0,0,-168851.24499686187,-4793781.723604049,4195223.744596958,-2.29541,0.0350898,-0.0794794,97.25,3.375,7.75,0.0,0.0,0.0,0.0,0.0,0.0,2,0,41.36350651189471,-92.0172937228458,12000.000896070378,83.92329901367609,-0.0048025498788436,0.0066332992765046,,10456.756926878135,13162.46325448802,150,1,2025-09-08,2025-09-26 20:11:27.611,HH,B,484533556,AMBUSH51,1,1,48,2,1,1,225,2,1,0,0,9,1,225,2,1,-149594.97238115524,-4791987.378069906,4197308.017487482,2.41635,3.06435,-0.117135,-116.399,9.00876,12.095,-0.117145,-7.48286,6.87275,-0.0114235,0.0033716,0.00947607,4,0,41.392052294997626,-91.78806352617572,10531.249019914285,-83.22319347776461,2.4637972805338726,7.046037353246579,196.993,10456.756926878135,13162.46325448802,150,True,10.463803123959972,False,167.72824526410244,176.31447531922285,False,15.500966539693692,True,False
1,1970-07-23 09:33:42.885256303,2025-09-08,2025-09-26 20:11:28.525,HH,B,3039700536,JASSM,3,123,76,2,2,1,225,9,2,0,1,26,0,0,0,0,-168753.96667654935,-4793778.306611861,4195231.511198521,-2.29541,0.0350898,-0.0794794,97.25,3.375,7.75,0.0,0.0,0.0,0.0,0.0,0.0,2,0,41.36359963242848,-92.01613391798833,12000.001400600955,83.92406545278767,-0.0039271130913878,0.0066337546977018,,10456.756926878135,13162.46325448802,150,1,2025-09-08,2025-09-26 20:11:28.677,HH,B,485806088,AMBUSH51,1,1,48,2,1,1,225,2,1,0,0,9,1,225,2,1,-149718.30407652358,-4791977.062243389,4197321.2964164335,2.2877,3.05996,-0.126185,-116.117,9.45044,13.1037,0.174632,-7.5976,6.97144,-0.201669,0.00501943,0.017915,4,0,41.39218039281052,-91.7895405644412,10544.15297385686,-82.66938028188322,2.6203673756622883,-0.3314166099440307,196.541,10456.756926878135,13162.46325448802,150,True,10.34701393401438,False,167.18144657851235,176.20359406353776,False,16.152534299845726,True,False
1,1970-07-23 09:33:42.895593430,2025-09-08,2025-09-26 20:11:29.559,HH,B,3040953222,JASSM,3,123,76,2,2,1,225,9,2,0,1,26,0,0,0,0,-168651.82202322906,-4793774.717744674,4195239.663542271,-2.29541,0.0350898,-0.0794794,97.25,3.375,7.75,0.0,0.0,0.0,0.0,0.0,0.0,2,0,41.36369738552859,-92.01491609090776,11999.9988551875,83.92487023651924,-0.0030078844198395,0.0066342197666134,,10456.756926878135,13162.46325448802,150,1,2025-09-08,2025-09-26 20:11:29.445,HH,B,486720720,AMBUSH51,1,1,48,2,1,1,225,2,1,0,0,9,1,225,2,1,-149807.42184397217,-4791969.896095407,4197331.237062166,2.24714,3.05805,-0.128339,-116.026,9.4078,12.9984,-0.00651012,-7.47158,6.93886,0.0619903,0.00479889,-0.0186931,4,0,41.3922735625865,-91.79060774670404,10554.939907508246,-82.50583438857939,2.621653208318713,-2.661461208326653,196.834,10456.756926878135,13162.46325448802,150,True,10.245491935481281,False,167.22970469552055,176.11544939817074,False,16.199090652045424,True,False
1,1970-07-23 09:33:42.908755008,2025-09-08,2025-09-26 20:11:30.875,HH,B,3042205934,JASSM,3,123,76,2,2,1,225,9,2,0,1,26,0,0,0,0,-168549.67712576812,-4793771.127900924,4195247.815886021,-2.29541,0.0350898,-0.0794794,97.25,3.375,7.75,0.0,0.0,0.0,0.0,0.0,0.0,2,0,41.36379513159474,-92.01369825767785,11999.999282404246,83.92567502588112,-0.0020886532752483,0.0066346904096017,,10456.756926878135,13162.46325448802,150,1,2025-09-08,2025-09-26 20:11:30.912,HH,B,488470450,AMBUSH51,1,1,48,2,1,1,225,2,1,0,0,9,1,225,2,1,-149977.4103282472,-4791956.115855883,4197350.795963228,2.49905,3.07612,-0.119963,-115.61,9.56476,14.0843,-0.315008,-7.48008,6.95785,0.213718,0.0127613,0.0229458,4,0,41.39245594734982,-91.79264340001734,10576.54995200092,-83.54758002335656,3.0768383117685785,11.848304207426713,195.783,10456.756926878135,13162.46325448802,150,False,10.101925982265636,False,166.7090364213092,175.96050387175336,False,16.855832153732177,True,False
1,1970-07-23 09:33:42.916193846,2025-09-08,2025-09-26 20:11:31.619,HH,B,3043398980,JASSM,3,123,76,2,2,1,225,9,2,0,1,26,0,0,0,0,-168452.3970354361,-4793767.707979049,4195255.579557896,-2.29541,0.0351857,-0.0794794,97.25,3.375,7.75,0.0,0.0,0.0,0.0,0.0,0.0,2,0,41.363888213883214,-92.01253842267242,12000.001247125225,83.92281149839337,-0.0053126707103516,0.0070714669023671,,10456.756926878135,13162.46325448802,150,1,2025-09-08,2025-09-26 20:11:31.611,HH,B,489305550,AMBUSH51,1,1,48,2,1,1,225,2,1,0,0,9,1,225,2,1,-150058.4406635027,-4791948.775715236,4197361.069727348,2.6341,3.05829,-0.136625,-115.268,10.7844,15.504,-0.340718,-7.4256,6.86549,0.13871,0.00738715,0.0394283,4,0,41.39255387822689,-91.79361404898422,10587.02052067408,-82.16031498269365,2.94811631011794,19.528326799061222,195.294,10456.756926878135,13162.46325448802,150,False,10.007436329818196,False,165.79056000440778,175.87060462496035,False,17.881817504654425,True,False
1,1970-07-23 09:33:42.926254491,2025-09-08,2025-09-26 20:11:32.625,HH,B,3044651870,JASSM,3,123,76,2,2,1,225,9,2,0,1,26,0,0,0,0,-168350.2374285025,-4793764.115205611,4195263.730925083,-2.29541,0.0351857,-0.0794794,97.25,3.375,7.75,0.0,0.0,0.0,0.0,0.0,0.0,2,0,41.363985948671285,-92.01132040796332,12000.001613222395,83.923616410714,-0.0043933079689113,0.0070718791669641,,10456.756926878135,13162.46325448802,150,1,2025-09-08,2025-09-26 20:11:32.745,HH,B,490657616,AMBUSH51,1,1,48,2,1,1,225,2,1,0,0,9,1,225,2,1,-150189.3251330937,-4791934.5136233885,4197380.220510783,2.70766,3.02657,-0.163419,-114.29,13.9038,18.3879,-0.244185,-7.35478,6.87211,0.0105705,0.00751823,0.0235388,4,0,41.39274361020284,-91.79518279720128,10603.56670492702,-79.8181393199809,2.619260252153841,23.585448043282756,195.025,10456.756926878135,13162.46325448802,150,False,9.884782219006913,False,163.72585530366584,175.72373844483317,False,20.150609657564168,True,False
1,1970-07-23 09:33:42.939196018,2025-09-08,2025-09-26 20:11:33.919,HH,B,3045964030,JASSM,3,123,76,2,2,1,225,9,2,0,1,26,0,0,0,0,-168243.24490530914,-4793760.350557174,4195272.266081333,-2.29541,0.0351857,-0.0794794,97.25,3.375,7.75,0.0,0.0,0.0,0.0,0.0,0.0,2,0,41.36408829220516,-92.01004476890864,11999.999112899255,83.92445940516137,-0.0034304531910178,0.00707230993034,,10456.756926878135,13162.46325448802,150,1,2025-09-08,2025-09-26 20:11:33.977,HH,B,492128980,AMBUSH51,1,1,48,2,1,1,225,2,1,0,0,9,1,225,2,1,-150329.84413747457,-4791914.905800928,4197404.649091358,2.72758,2.99414,-0.192964,-112.997,17.4712,21.7069,-0.0784473,-7.46333,6.87981,-0.00331543,0.0162505,0.0430922,4,0,41.39299894961635,-91.7968686397278,10619.164145990671,-77.33678349942745,2.379584576380936,24.505437782934933,194.647,10456.756926878135,13162.46325448802,150,False,9.755110519035554,False,161.31072007257654,175.54426002149773,False,22.79548575572396,True,False
1,1970-07-23 09:33:42.951597159,2025-09-08,2025-09-26 20:11:35.159,HH,B,3047216730,JASSM,3,123,76,2,2,1,225,9,2,0,1,26,0,0,0,0,-168141.10067923492,-4793756.755830611,4195280.414518833,-2.29541,0.0351857,-0.0794794,97.25,3.375,7.75,0.0,0.0,0.0,0.0,0.0,0.0,2,0,41.364185989212345,-92.00882693116552,12000.000700734015,83.92526420374072,-0.002511229326468,0.0070727254213068,,10456.756926878135,13162.46325448802,150,1,2025-09-08,2025-09-26 20:11:35.078,HH,B,493441280,AMBUSH51,1,1,48,2,1,1,225,2,1,0,0,9,1,225,2,1,-150452.2467747872,-4791893.731307622,4197429.653320855,2.73328,2.96418,-0.220873,-111.684,20.809,24.6609,-0.317905,-7.54875,6.99334,0.00318643,0.0141075,0.0317072,4,0,41.39327085168758,-91.79833867990396,10630.767581233393,-75.02367638348905,2.1980373953523347,24.57168920614604,194.537,10456.756926878135,13162.46325448802,150,False,9.63789735195044,False,159.07812663192138,175.36393571375424,False,25.24907577193398,True,False
1,1970-07-23 09:33:42.958198181,2025-09-08,2025-09-26 20:11:35.819,HH,B,3048469428,JASSM,3,123,76,2,2,1,225,9,2,0,1,26,0,0,0,0,-168038.9564684195,-4793753.160127486,4195288.561003208,-2.29541,0.0351857,-0.0794794,97.25,3.375,7.75,0.0,0.0,0.0,0.0,0.0,0.0,2,0,41.36428366594001,-92.00760909037086,12000.001048977783,83.92606900590194,-0.0015920067008567,0.0070731335612777,,10456.756926878135,13162.46325448802,150,1,2025-09-08,2025-09-26 20:11:35.811,HH,B,494316144,AMBUSH51,1,1,48,2,1,1,225,2,1,0,0,9,1,225,2,1,-150534.99070488894,-4791877.375327631,4197448.539800078,2.73517,2.94688,-0.238166,-110.71,23.144,26.6682,-0.237053,-7.6961,7.08875,-0.00233339,0.0172554,0.0283658,4,0,41.39348018403236,-91.7993331963303,10637.895939159936,-73.64121125794449,2.1475100997798435,24.50707556255906,194.537,10456.756926878135,13162.46325448802,150,False,9.541149356833438,False,157.5225994894187,175.22147224846776,False,26.972051951714384,True,False
1,1970-07-23 09:33:42.969233234,2025-09-08,2025-09-26 20:11:36.923,HH,B,3049722122,JASSM,3,123,76,2,2,1,225,9,2,0,1,26,0,0,0,0,-167936.81265433258,-4793749.562471236,4195296.706511021,-2.29541,0.0351857,-0.0793835,97.25,3.375,7.75,0.0,0.0,0.0,0.0,0.0,0.0,2,0,41.36438133470821,-92.00639125148724,11999.9999046518,83.93098640527427,-0.0043144314710636,0.0070733680079885,,10456.756926878135,13162.46325448802,150,1,2025-09-08,2025-09-26 20:11:36.911,HH,B,495628444,AMBUSH51,1,1,48,2,1,1,225,2,1,0,0,9,1,225,2,1,-150654.91282444712,-4791850.296617853,4197479.425532976,2.72157,2.92197,-0.271682,-109.115,26.0942,30.1789,-0.23055,-8.14805,7.58552,-0.0449502,0.0129028,0.02961,4,0,41.39382734208194,-91.80077584224593,10647.556208086427,-71.29072951972975,2.421196527020549,23.46123557717757,194.537,10456.756926878135,13162.46325448802,150,False,9.42618694805644,False,155.13134982190738,175.00708160411807,False,29.588284176962613,True,False
1,1970-07-23 09:33:42.980775885,2025-09-08,2025-09-26 20:11:38.077,HH,B,3050915172,JASSM,3,123,76,2,2,1,225,9,2,0,1,26,0,0,0,0,-167839.5320642752,-4793746.135713424,4195304.463346958,-2.29541,0.0351857,-0.0793835,97.25,3.375,7.75,0.0,0.0,0.0,0.0,0.0,0.0,2,0,41.3644743379074,-92.00523139256316,12000.001022232816,83.93175289340942,-0.0034389784425518,0.0070738211573074,,10456.756926878135,13162.46325448802,150,1,2025-09-08,2025-09-26 20:11:38.077,HH,B,497020276,AMBUSH51,1,1,48,2,1,1,225,2,1,0,0,9,1,225,2,1,-150781.53911010627,-4791818.140134451,4197516.962484146,2.67208,2.89959,-0.301687,-107.261,28.6795,33.8906,-0.130884,-7.9645,7.39002,-0.045589,0.0142739,0.0177007,4,0,41.39424833207588,-91.80230049312917,10659.68157932612,-69.19159093599797,2.680754064617871,20.35660443910665,194.488,10456.756926878135,13162.46325448802,150,False,9.311212660871965,False,152.7211791842315,174.75898260075147,False,32.246325480728665,False,False
1,1970-07-23 09:33:42.989315512,2025-09-08,2025-09-26 20:11:38.931,HH,B,3052167844,JASSM,3,123,76,2,2,1,225,9,2,0,1,26,0,0,0,0,-167737.3900316519,-4793742.536104049,4195312.606901646,-2.29541,0.0351857,-0.0793835,97.25,3.375,7.75,0.0,0.0,0.0,0.0,0.0,0.0,2,0,41.3645719795573,-92.00401356865278,12000.001527035332,83.93255768900205,-0.0025197762053275,0.0070743002846485,,10456.756926878135,13162.46325448802,150,1,2025-09-08,2025-09-26 20:11:38.778,HH,B,497855374,AMBUSH51,1,1,48,2,1,1,225,2,1,0,0,9,1,225,2,1,-150856.41311740928,-4791797.556004692,4197541.348923908,2.64438,2.8874,-0.312891,-106.271,30.0586,35.7172,-0.145332,-7.62515,7.04634,-0.0378408,0.00332791,0.0285988,4,0,41.39452138248744,-91.80320261666122,10667.74644585123,-68.26790354723671,2.6297041643444805,18.600944317697245,194.268,10456.756926878135,13162.46325448802,150,False,9.219572655068427,False,151.49031631575167,174.58671126470767,False,33.65269978011497,False,False
1,1970-07-23 09:33:43.000316792,2025-09-08,2025-09-26 20:11:40.031,HH,B,3053420568,JASSM,3,123,76,2,2,1,225,9,2,0,1,26,0,0,0,0,-167635.2435625357,-4793738.934541549,4195320.749479771,-2.29541,0.0352816,-0.0793835,97.25,3.375,7.75,0.0,0.0,0.0,0.0,0.0,0.0,2,0,41.36466961425287,-92.0027956889562,12000.000123045118,83.92973233190017,-0.0057001659989061,0.0075106224231116,,10456.756926878135,13162.46325448802,150,1,2025-09-08,2025-09-26 20:11:40.045,HH,B,499366506,AMBUSH51,1,1,48,2,1,1,225,2,1,0,0,9,1,225,2,1,-150990.38260934636,-4791757.670973415,4197588.560764388,2.60876,2.86195,-0.335483,-104.398,32.5833,38.2296,-0.18106,-7.12223,6.64456,-0.0203867,-0.00742252,0.0269864,4,0,41.3950522476164,-91.80481792218669,10682.43335066406,-66.37765696102649,2.506297672736646,16.18036010406426,194.036,10456.756926878135,13162.46325448802,150,False,9.099630414292395,False,149.5205884148544,174.28109761053986,False,35.94899289277168,False,False
1,1970-07-23 09:33:43.009201246,2025-09-08,2025-09-26 20:11:40.920,HH,B,3054494310,JASSM,3,123,76,2,2,1,225,9,2,0,1,26,0,0,0,0,-167547.69122488922,-4793735.847627486,4195327.727995396,-2.29541,0.0352816,-0.0793835,97.25,3.375,7.75,0.0,0.0,0.0,0.0,0.0,0.0,2,0,41.36475328402347,-92.00175181035154,12000.001896707465,83.93042217877729,-0.0049122610015952,0.0075109794808059,,10456.756926878135,13162.46325448802,150,1,2025-09-08,2025-09-26 20:11:40.878,HH,B,500360672,AMBUSH51,1,1,48,2,1,1,225,2,1,0,0,9,1,225,2,1,-151077.22335486647,-4791729.69430067,4197621.172278762,2.59663,2.84679,-0.344119,-103.475,33.9376,39.7133,-0.105593,-7.17454,6.60397,-0.0217599,0.00668391,0.0218223,4,0,41.39542253159279,-91.80586579625742,10691.09456984358,-65.45517259678847,2.2522449278072565,15.23413679749586,193.913,10456.756926878135,13162.46325448802,150,False,9.010850749266481,False,148.43135668255994,174.06083066406987,False,37.267504945870726,False,False
1,1970-07-23 09:33:43.020235218,2025-09-08,2025-09-26 20:11:42.023,HH,B,3055806668,JASSM,3,123,76,2,2,1,225,9,2,0,1,26,0,0,0,0,-167440.68222220367,-4793732.072236861,4195336.256315708,-2.29541,0.0352816,-0.0793835,97.25,3.375,7.75,0.0,0.0,0.0,0.0,0.0,0.0,2,0,41.36485554257551,-92.00047594908985,12000.00113971146,83.93126533288668,-0.0039492606572514,0.0075114236720478,,10456.756926878135,13162.46325448802,150,1,2025-09-08,2025-09-26 20:11:42.045,HH,B,501752504,AMBUSH51,1,1,48,2,1,1,225,2,1,0,0,9,1,225,2,1,-151197.19021330363,-4791688.669222996,4197668.515469257,2.57501,2.82854,-0.360112,-102.053,36.177,41.2964,-0.140046,-7.27315,6.71698,-0.0182104,0.00559992,0.0206738,4,0,41.395963653903685,-91.8073143043623,10702.19357390572,-64.11445370878073,2.1766977356600288,13.686422642444644,193.84,10456.756926878135,13162.46325448802,150,False,8.896264098947421,False,146.95662616484685,173.7427273121815,False,39.086342123568464,False,False
1,1970-07-23 09:33:43.031279434,2025-09-08,2025-09-26 20:11:43.127,HH,B,3057119014,JASSM,3,123,76,2,2,1,225,9,2,0,1,26,0,0,0,0,-167333.67413504547,-4793728.295869674,4195344.782682896,-2.29541,0.0352816,-0.0793835,97.25,3.375,7.75,0.0,0.0,0.0,0.0,0.0,0.0,2,0,41.36495777940405,-91.99920009516994,11999.999746684452,83.93210848386089,-0.0029862695915327,0.0075118611743824,,10456.756926878135,13162.46325448802,150,1,2025-09-08,2025-09-26 20:11:43.244,HH,B,503184102,AMBUSH51,1,1,48,2,1,1,225,2,1,0,0,9,1,225,2,1,-151318.28539483112,-4791644.478102848,4197718.627222973,2.56573,2.80466,-0.366246,-100.832,37.9882,42.6259,-0.0785415,-6.58637,6.13238,0.00365456,0.00500487,0.0160695,4,0,41.396542067453005,-91.80877750770104,10711.607909049557,-62.97279784449063,1.5036437420534896,12.705456976938846,193.926,10456.756926878135,13162.46325448802,150,False,8.78181284366878,False,145.72722165959573,173.40033549442836,False,40.67808430372425,False,False
1,1970-07-23 09:33:43.042272020,2025-09-08,2025-09-26 20:11:44.227,HH,B,3058431364,JASSM,3,123,76,2,2,1,225,9,2,0,1,26,0,0,0,0,-167226.6655901236,-4793724.518525924,4195353.308073521,-2.29541,0.0352816,-0.0793835,97.25,3.375,7.75,0.0,0.0,0.0,0.0,0.0,0.0,2,0,41.36506000138963,-91.99792423219849,11999.999716905351,83.93295164253276,-0.0020232748419282,0.0075122975290803,,10456.756926878135,13162.46325448802,150,1,2025-09-08,2025-09-26 20:11:44.078,HH,B,504178268,AMBUSH51,1,1,48,2,1,1,225,2,1,0,0,9,1,225,2,1,-151402.99180168202,-4791611.642752717,4197754.86016049,2.56559,2.79018,-0.373279,-100.122,39.4517,43.5386,-0.202078,-6.98766,6.47551,-0.00297005,-0.010481,0.0132107,4,0,41.396966062789495,-91.80980176307428,10716.026655168282,-62.14401359197969,1.2343839998537809,12.417755462883637,194.194,10456.756926878135,13162.46325448802,150,False,8.684927700418209,False,144.85520921762472,173.13357607152923,False,41.832707820307405,False,False
1,1970-07-23 09:33:43.054753426,2025-09-08,2025-09-26 20:11:45.475,HH,B,3059684064,JASSM,3,123,76,2,2,1,225,9,2,0,1,26,0,0,0,0,-167124.52099783844,-4793720.911104049,4195361.445768833,-2.29541,0.0352816,-0.0793835,97.25,3.375,7.75,0.0,0.0,0.0,0.0,0.0,0.0,2,0,41.36515757309323,-91.99670635915147,12000.000453322424,83.93375647995296,-0.0011040515159676,0.0075127233057691,,10456.756926878135,13162.46325448802,150,1,2025-09-08,2025-09-26 20:11:45.277,HH,B,505609866,AMBUSH51,1,1,48,2,1,1,225,2,1,0,0,9,1,225,2,1,-151521.8828552555,-4791562.870922983,4197807.767226481,2.5707,2.76561,-0.383083,-98.9871,41.6588,44.7995,-0.140093,-6.84784,6.32107,-0.00208788,-0.00169673,0.0239196,4,0,41.39759097565842,-91.8112404094324,10720.082997573594,-60.82396919209295,0.7036106203063374,12.212522467909428,194.537,10456.756926878135,13162.46325448802,150,False,8.575397730716121,False,143.56390401414765,172.75830289455638,False,43.522747779899866,False,False
1,1970-07-23 09:33:43.063576380,2025-09-08,2025-09-26 20:11:46.357,HH,B,3060936762,JASSM,3,123,76,2,2,1,225,9,2,0,1,26,0,0,0,0,-167022.37634451812,-4793717.302705611,4195369.581511021,-2.29541,0.0352816,-0.0792876,97.25,3.375,7.75,0.0,0.0,0.0,0.0,0.0,0.0,2,0,41.36525512453269,-91.9954884821441,11999.999943530242,83.93867389052043,-0.0038265040564222,0.0075129977124566,,10456.756926878135,13162.46325448802,150,1,2025-09-08,2025-09-26 20:11:46.277,HH,B,506802866,AMBUSH51,1,1,48,2,1,1,225,2,1,0,0,9,1,225,2,1,-151620.4153425614,-4791520.561902089,4197853.040151384,2.56561,2.75251,-0.392997,-98.2237,41.9815,46.5805,-0.173942,-7.06057,6.46617,-0.0106891,0.0060743,0.0213438,4,0,41.39812972424537,-91.81243344049332,10721.899038546817,-59.931627517783134,0.6185423513811247,11.647484566048114,194.757,10456.756926878135,13162.46325448802,150,False,8.475810116484174,False,142.70465960276772,172.42269284351275,False,44.70299732311481,False,False
1,1970-07-23 09:33:43.073235979,2025-09-08,2025-09-26 20:11:47.323,HH,B,3062189462,JASSM,3,123,76,2,2,1,225,9,2,0,1,26,0,0,0,0,-166920.2316911978,-4793713.693330611,4195377.716276646,-2.29541,0.0353774,-0.0792876,97.25,3.375,7.75,0.0,0.0,0.0,0.0,0.0,0.0,2,0,41.36535266229082,-91.99427060190524,12000.00031011324,83.93584848561255,-0.0070069167455568,0.0079488803548894,,10456.756926878135,13162.46325448802,150,1,2025-09-08,2025-09-26 20:11:47.311,HH,B,508035630,AMBUSH51,1,1,48,2,1,1,225,2,1,0,0,9,1,225,2,1,-151722.0798345889,-4791474.813301813,4197901.270308171,2.5593,2.73557,-0.402662,-97.1936,44.6412,47.0606,-0.142391,-7.13505,6.61033,0.00688365,0.00838376,0.0170765,4,0,41.39870829325693,-91.81366520665732,10721.92129124463,-58.905809918056825,0.3879489949066275,10.919032540254976,195.099,10456.756926878135,13162.46325448802,150,False,8.375406674800395,False,141.57913180420786,172.0599980450056,False,46.228373895070725,False,False
1,1970-07-23 09:33:43.085575339,2025-09-08,2025-09-26 20:11:48.557,HH,B,3063442476,JASSM,3,123,76,2,2,1,225,9,2,0,1,26,0,0,0,0,-166818.06134207672,-4793710.081025924,4195385.852018833,-2.29541,0.0353774,-0.0792876,97.25,3.5,7.75,0.0,0.0,0.0,0.0,0.0,0.0,2,0,41.36545021648124,-91.99305241249462,11999.998781036133,83.93665353673552,-0.0060874632745131,0.0079493105464397,,10456.756926878135,13162.46325448802,150,1,2025-09-08,2025-09-26 20:11:48.444,HH,B,509387696,AMBUSH51,1,1,48,2,1,1,225,2,1,0,0,9,1,225,2,1,-151831.04079570627,-4791423.9617454,4197954.878601518,2.55756,2.72661,-0.416182,-96.216,45.7549,48.4738,-0.193013,-7.56686,6.92669,0.000631461,0.0157803,-0.000500383,4,0,41.39935213354078,-91.8149860898264,10721.636226711376,-58.02884214005807,0.616236350430403,10.622450774709447,195.368,10456.756926878135,13162.46325448802,150,False,8.272414852406213,False,140.53292690533817,171.7133058303059,False,47.63298031045806,False,False
1,1970-07-23 09:33:43.094315184,2025-09-08,2025-09-26 20:11:49.431,HH,B,3064754512,JASSM,3,123,76,2,2,1,225,9,2,0,1,26,0,0,0,0,-166711.078248815,-4793706.297822799,4195394.370573521,-2.29541,0.0353774,-0.0792876,97.25,3.5,7.75,0.0,0.0,0.0,0.0,0.0,0.0,2,0,41.36555235369713,-91.99177683656217,12000.00022895862,83.93749651391872,-0.0051246989419214,0.0079497625134336,,10456.756926878135,13162.46325448802,150,1,2025-09-08,2025-09-26 20:11:49.610,HH,B,510779528,AMBUSH51,1,1,48,2,1,1,225,2,1,0,0,9,1,225,2,1,-151943.29561127903,-4791369.613474558,4198012.724690516,2.56484,2.71539,-0.436871,-95.0399,46.7336,50.36,-0.199133,-7.95169,7.42484,0.0231144,0.0160882,0.0211482,4,0,41.40004474457678,-91.8163476724872,10722.21050370482,-56.785719578095886,1.0646657439937302,10.792013275422011,195.673,10456.756926878135,13162.46325448802,150,False,8.166254838452316,False,139.37279993823262,171.27265715688108,False,49.22860378793762,False,False
1,1970-07-23 09:33:43.106171935,2025-09-08,2025-09-26 20:11:50.617,HH,B,3066126514,JASSM,3,123,76,2,2,1,225,9,2,0,1,26,0,0,0,0,-166599.2053240103,-4793702.340791549,4195403.275846958,-2.29541,0.0353774,-0.0792876,97.25,3.5,7.75,0.0,0.0,0.0,0.0,0.0,0.0,2,0,41.36565913174716,-91.99044295452524,12000.00012023404,83.93837802511166,-0.0041179315508105,0.0079502227956208,,10456.756926878135,13162.46325448802,150,1,2025-09-08,2025-09-26 20:11:50.677,HH,B,512052060,AMBUSH51,1,1,48,2,1,1,225,2,1,0,0,9,1,225,2,1,-152043.45965523226,-4791319.548831339,4198067.362274988,2.60449,2.70501,-0.451228,-93.7756,47.4924,52.4912,-0.177384,-7.95673,7.23243,0.0265723,0.00504232,0.0118854,4,0,41.40069248176689,-91.8175632210062,10725.42582025549,-55.82950945208498,1.2889972099174771,12.827662270733828,195.82,10456.756926878135,13162.46325448802,150,False,8.063640589398664,False,138.1712024575534,170.84777663834154,False,50.84373509798788,False,False
1,1970-07-23 09:33:43.117213349,2025-09-08,2025-09-26 20:11:51.721,HH,B,3067438864,JASSM,3,123,76,2,2,1,225,9,2,0,1,26,0,0,0,0,-166492.19665701812,-4793698.553682174,4195411.793425083,-2.29541,0.0353774,-0.0792876,97.25,3.5,7.75,0.0,0.0,0.0,0.0,0.0,0.0,2,0,41.36576126193626,-91.98916706675708,11999.999763618149,83.9392212118818,-0.0031549383042415,0.0079506723668028,,10456.756926878135,13162.46325448802,150,1,2025-09-08,2025-09-26 20:11:51.711,HH,B,513284824,AMBUSH51,1,1,48,2,1,1,225,2,1,0,0,9,1,225,2,1,-152140.12409795923,-4791269.746207261,4198122.841804753,2.62971,2.69109,-0.471979,-92.2282,48.3294,54.5107,-0.319305,-7.94136,7.42044,0.0184351,0.010816,0.0231518,4,0,41.40134499171207,-91.81873688652142,10730.84705029996,-54.49379477157797,1.6623046646252535,13.951918558598068,195.783,10456.756926878135,13162.46325448802,150,False,7.965977200659733,False,136.90122795644754,170.4168424537035,False,52.535744664516315,False,False
1,1970-07-23 09:33:43.128232837,2025-09-08,2025-09-26 20:11:52.823,HH,B,3068691622,JASSM,3,123,76,2,2,1,225,9,2,0,1,26,0,0,0,0,-166390.0468767447,-4793694.937471236,4195419.923307896,-2.29541,0.0353774,-0.0792876,97.25,3.5,7.75,0.0,0.0,0.0,0.0,0.0,0.0,2,0,41.365858741497526,-91.98794910927684,12000.000295740072,83.94002611627863,-0.0022356715399837,0.0079511014521388,,10456.756926878135,13162.46325448802,150,1,2025-09-08,2025-09-26 20:11:52.845,HH,B,514636890,AMBUSH51,1,1,48,2,1,1,225,2,1,0,0,9,1,225,2,1,-152243.09675822483,-4791214.734928298,4198185.320087971,2.65422,2.673,-0.490673,-90.4296,49.2863,56.7187,-0.270713,-7.55859,7.03849,-0.00534609,-0.00389591,0.0208611,4,0,41.40207452511535,-91.8199879128336,10739.142876098284,-53.091381497027285,1.818703701362256,14.918859415848535,195.979,10456.756926878135,13162.46325448802,150,False,7.869298356321039,False,135.46957065440438,169.93994446340736,False,54.43535944993878,False,False
1,1970-07-23 09:33:43.139274547,2025-09-08,2025-09-26 20:11:53.927,HH,B,3070063540,JASSM,3,123,76,2,2,1,225,9,2,0,1,26,0,0,0,0,-166278.1809099478,-4793690.975557174,4195428.825651646,-2.29541,0.0353774,-0.0792876,97.25,3.5,7.75,0.0,0.0,0.0,0.0,0.0,0.0,2,0,41.36596548297603,-91.98661529981544,12000.00099036068,83.9409075848847,-0.0012289668818998,0.0079515760627665,,10456.756926878135,13162.46325448802,150,1,2025-09-08,2025-09-26 20:11:53.977,HH,B,515988956,AMBUSH51,1,1,48,2,1,1,225,2,1,0,0,9,1,225,2,1,-152345.11369775946,-4791157.160172656,4198250.476277614,2.64405,2.64431,-0.497571,-88.6889,51.1819,57.8855,-0.130704,-6.82078,6.34436,-0.0160507,0.000862407,0.0247414,4,0,41.40283755091575,-91.82122852233606,10746.878191045967,-51.757778052641584,1.1344831386689027,13.590769468791777,195.82,10456.756926878135,13162.46325448802,150,False,7.769054226648034,False,134.1430089873723,169.43054707949227,False,56.288905373255126,False,False
1,1970-07-23 09:33:43.150750547,2025-09-08,2025-09-26 20:11:55.075,HH,B,3071316336,JASSM,3,123,76,2,2,1,225,9,2,0,1,26,0,0,0,0,-166176.02807791656,-4793687.356416549,4195436.952604771,-2.29541,0.0353774,-0.0792876,97.25,3.5,7.75,0.0,0.0,0.0,0.0,0.0,0.0,2,0,41.366062933782736,-91.985397299501,11999.99900876712,83.94171252086159,-0.0003096740506996,0.007952000520704,,10456.756926878135,13162.46325448802,150,1,2025-09-08,2025-09-26 20:11:55.077,HH,B,517301254,AMBUSH51,1,1,48,2,1,1,225,2,1,0,0,9,1,225,2,1,-152441.21421278274,-4791100.119734233,4198314.243955319,2.64036,2.63195,-0.512459,-87.0506,52.7974,59.0897,-0.185075,-7.39508,6.82759,-0.00724775,0.00592449,0.0107348,4,0,41.40358913132155,-91.822398275093,10752.461121864577,-50.72711635020115,1.3559242843724433,13.059040883025814,196.199,10456.756926878135,13162.46325448802,150,False,7.6774537072869276,False,132.9028175392973,168.92641214719796,False,58.0450365418273,False,False
1,1970-07-23 09:33:43.161317900,2025-09-08,2025-09-26 20:11:56.131,HH,B,3072628618,JASSM,3,123,76,2,2,1,225,9,2,0,1,26,0,0,0,0,-166069.0246599478,-4793683.564424361,4195445.465300083,-2.29541,0.0354733,-0.0791918,97.25,3.5,7.75,0.0,0.0,0.0,0.0,0.0,0.0,2,0,41.36616500298784,-91.9841214606433,11999.999920430508,83.94303791392839,-0.0070880749705486,0.0083872454307985,,10456.756926878135,13162.46325448802,150,1,2025-09-08,2025-09-26 20:11:56.145,HH,B,518573786,AMBUSH51,1,1,48,2,1,1,225,2,1,0,0,9,1,225,2,1,-152533.9027491415,-4791042.744123268,4198378.420921926,2.63381,2.61477,-0.528453,-85.4649,54.0031,60.5043,-0.15661,-7.63311,7.13008,0.00435364,0.0100066,0.0262103,4,0,41.40434610219045,-91.8235274193503,10757.849089132513,-49.48045291043867,1.4763164821979384,12.225233398256131,196.052,10456.756926878135,13162.46325448802,150,False,7.585748591890197,False,131.7153919167743,168.40762837083219,False,59.7545292746396,False,False
1,1970-07-23 09:33:43.171194519,2025-09-08,2025-09-26 20:11:57.119,HH,B,3073881316,JASSM,3,123,76,2,2,1,225,9,2,0,1,26,0,0,0,0,-165966.87964041656,-4793679.943330611,4195453.590300083,-2.29551,0.0354733,-0.0791918,97.25,3.5,7.75,0.0,0.0,0.0,0.0,0.0,0.0,2,0,41.366262424207086,-91.98290354696186,12000.000615084728,83.94384279579035,-0.0061688527199485,0.0028962097095832,,10456.756926878135,13162.46325448802,150,1,2025-09-08,2025-09-26 20:11:56.944,HH,B,519528186,AMBUSH51,1,1,48,2,1,1,225,2,1,0,0,9,1,225,2,1,-152601.9496904511,-4790999.528920537,4198427.298516055,2.63781,2.60586,-0.543869,-84.259,54.4807,61.793,-0.0910692,-7.90876,7.31036,0.00208372,0.00650082,0.014224,4,0,41.40492022066336,-91.82435680864847,10762.94529655599,-48.56853619837879,1.852606886936245,12.21972922191762,196.199,10456.756926878135,13162.46325448802,150,False,7.506692547936506,False,130.85213424654157,167.99052205065937,False,61.028800583553426,False,False
1,1970-07-23 09:33:43.182232600,2025-09-08,2025-09-26 20:11:58.223,HH,B,3075193668,JASSM,3,123,76,2,2,1,225,9,2,0,1,26,0,0,0,0,-165859.87048514312,-4793676.148408736,4195462.100065708,-2.29551,0.0354733,-0.0791918,97.25,3.5,7.75,0.0,0.0,0.0,0.0,0.0,0.0,2,0,41.36636446456855,-91.98162763302996,11999.999052717723,83.9446860099169,-0.0052058582989141,0.0028966606682645,,10456.756926878135,13162.46325448802,150,1,2025-09-08,2025-09-26 20:11:58.377,HH,B,521238150,AMBUSH51,1,1,48,2,1,1,225,2,1,0,0,9,1,225,2,1,-152720.81965597547,-4790920.87910326,4198517.597519982,2.63943,2.58944,-0.560763,-82.0682,55.2866,64.2773,-0.21094,-7.88035,7.20319,-0.00787609,0.0214541,0.0279205,4,0,41.405975089510186,-91.82580689048535,10774.758132270565,-47.32975051249608,2.0621990953252443,11.861726280925415,196.089,10456.756926878135,13162.46325448802,150,False,7.408176864355412,False,129.25854972212983,167.2838606678543,False,63.315660046351056,False,False
1,1970-07-23 09:33:43.192272168,2025-09-08,2025-09-26 20:11:59.227,HH,B,3076386714,JASSM,3,123,76,2,2,1,225,9,2,0,1,26,0,0,0,0,-165762.5910661978,-4793672.697236861,4195469.836393833,-2.29551,0.0354733,-0.0791918,97.25,3.5,7.75,0.0,0.0,0.0,0.0,0.0,0.0,2,0,41.36645722450762,-91.98046772780216,12000.00023753241,83.94545255877615,-0.0043304228869944,0.0028970803713612,,10456.756926878135,13162.46325448802,150,1,2025-09-08,2025-09-26 20:11:59.143,HH,B,522152782,AMBUSH51,1,1,48,2,1,1,225,2,1,0,0,9,1,225,2,1,-152783.23056854255,-4790878.283194462,4198567.308299642,2.63951,2.57854,-0.574733,-80.8403,55.5004,65.6001,-0.34966,-7.7115,7.25327,-0.0323376,0.00345067,0.0111801,4,0,41.40655219942006,-91.82656874863282,10782.756130110727,-46.40944077005335,2.329963132976152,11.565609234765578,196.125,10456.756926878135,13162.46325448802,150,False,7.335736216185778,False,128.43313050248088,166.8557202371383,False,64.55828826742503,False,False
1,1970-07-23 09:33:43.202290993,2025-09-08,2025-09-26 20:12:00.229,HH,B,3077579760,JASSM,3,123,76,2,2,1,225,9,2,0,1,26,0,0,0,0,-165665.30822928375,-4793669.245088424,4195477.570768833,-2.29551,0.0354733,-0.0791918,97.25,3.5,7.75,0.0,0.0,0.0,0.0,0.0,0.0,2,0,41.366549966070245,-91.97930777887905,11999.999388687464,83.94621913792876,-0.0034549580425448,0.0028974901852238,,10456.756926878135,13162.46325448802,150,1,2025-09-08,2025-09-26 20:12:00.077,HH,B,523266248,AMBUSH51,1,1,48,2,1,1,225,2,1,0,0,9,1,225,2,1,-152858.16471983338,-4790825.872469752,4198629.020214089,2.52745,2.56068,-0.581701,-79.7043,56.1235,66.4581,-0.146365,-7.29002,6.87336,-0.163573,0.00322804,0.0181043,4,0,41.40726632178858,-91.8274839798418,10793.64385111548,-45.49683629032705,2.0850041510068364,4.620802301138666,195.6,10456.756926878135,13162.46325448802,150,True,7.259975053357909,False,127.6785853838653,166.34063437761458,False,65.82977854077393,False,False
1,1970-07-23 09:33:43.213552927,2025-09-08,2025-09-26 20:12:01.355,HH,B,3078832468,JASSM,3,123,76,2,2,1,225,9,2,0,1,26,0,0,0,0,-165563.16247733062,-4793665.619111861,4195485.691862583,-2.29551,0.0354733,-0.0791918,97.25,3.5,7.75,0.0,0.0,0.0,0.0,0.0,0.0,2,0,41.36664733912997,-91.97808984411398,12000.00086631572,83.94702403989287,-0.0025357305387199,0.0028979286053083,,10456.756926878135,13162.46325448802,150,1,2025-09-08,2025-09-26 20:12:01.344,HH,B,524777380,AMBUSH51,1,1,48,2,1,1,225,2,1,0,0,9,1,225,2,1,-152958.9040852768,-4790755.54884973,4198713.970047222,2.36972,2.55218,-0.58841,-79.3943,53.071,69.443,0.0166354,-7.31352,6.76227,-0.110281,-0.00231674,0.00401867,4,0,41.40823895188925,-91.82871436919028,10812.934848765992,-44.93919097060366,2.122737679719525,-4.6650040021885095,195.563,10456.756926878135,13162.46325448802,150,True,7.174340807225459,False,127.37514450654382,165.65644105247503,False,66.72433585134179,False,False
1,1970-07-23 09:33:43.225171336,2025-09-08,2025-09-26 20:12:02.517,HH,B,3080085526,JASSM,3,123,76,2,2,1,225,9,2,0,1,26,0,0,0,0,-165460.98791678375,-4793661.990205611,4195493.813932896,-2.29551,0.0354733,-0.0791918,97.25,3.5,7.75,0.0,0.0,0.0,0.0,0.0,0.0,2,0,41.366744729216855,-91.97687156300309,12000.00020198754,83.94782917230904,-0.0016162441242347,0.0028983696098421,,10456.756926878135,13162.46325448802,150,1,2025-09-08,2025-09-26 20:12:02.376,HH,B,526010144,AMBUSH51,1,1,48,2,1,1,225,2,1,0,0,9,1,225,2,1,-153042.12083249257,-4790697.1983645605,4198782.358356852,2.26001,2.57456,-0.580657,-80.3313,55.0098,66.1149,-0.0698263,-7.66799,7.10862,-0.0549662,0.00949271,-0.00935747,4,0,41.409031881620976,-91.82973086926842,10824.367844996348,-46.04604835025001,2.468820242081909,-10.287613844450783,195.074,10456.756926878135,13162.46325448802,150,False,7.094887132312077,False,128.21604769128265,165.06253803353204,False,66.56495973229852,False,False
1,1970-07-23 09:33:43.234351811,2025-09-08,2025-09-26 20:12:03.435,HH,B,3081337856,JASSM,3,123,76,2,2,1,225,9,2,0,1,26,0,0,0,0,-165358.87243826812,-4793658.363252486,4195501.929167271,-2.29551,0.0354733,-0.0791918,97.25,3.5,7.75,0.0,0.0,0.0,0.0,0.0,0.0,2,0,41.36684203651582,-91.97565398278856,11999.999937150316,83.94863384307972,-0.0006972908916416,0.0028987968057328,,10456.756926878135,13162.46325448802,150,1,2025-09-08,2025-09-26 20:12:03.210,HH,B,527004310,AMBUSH51,1,1,48,2,1,1,225,2,1,0,0,9,1,225,2,1,-153109.50329171476,-4790651.859915492,4198837.176074134,2.23104,2.59033,-0.576867,-81.3313,53.9462,65.3898,-0.0356742,-7.65681,7.05659,-0.018845,0.00201714,-0.0201599,4,0,41.40965880325068,-91.83055324034478,10837.116065892427,-46.76407582206482,2.795515909790757,-11.486101504573064,194.952,10456.756926878135,13162.46325448802,150,False,7.020736568077698,False,128.9788307513107,164.55627155173565,False,66.30289928908846,False,False
1,1970-07-23 09:33:43.247179210,2025-09-08,2025-09-26 20:12:04.717,HH,B,3082650208,JASSM,3,123,76,2,2,1,225,9,2,0,1,26,0,0,0,0,-165251.86316092435,-4793654.560518111,4195510.433073521,-2.29551,0.0355692,-0.0791918,97.25,3.5,7.75,0.0,0.0,0.0,0.0,0.0,0.0,2,0,41.36694400337819,-91.97437804797664,12000.000088893566,83.94584674019004,-0.003833907834907,0.0033339275060242,,10456.756926878135,13162.46325448802,150,1,2025-09-08,2025-09-26 20:12:04.579,HH,B,528634742,AMBUSH51,1,1,48,2,1,1,225,2,1,0,0,9,1,225,2,1,-153222.11943841018,-4790579.634005719,4198925.561347105,2.11876,2.61461,-0.564283,-83.3852,51.8561,63.8258,-0.0598119,-7.58555,7.04152,-0.0714778,0.00834839,-0.0242337,4,0,41.410663640801125,-91.83192634437722,10860.146559129744,-48.12317738229323,3.021523347450504,-17.23683098496947,194.194,10456.756926878135,13162.46325448802,150,False,6.930175708446518,False,130.5527876858865,163.78548623564953,False,65.48947960251436,False,False
1,1970-07-23 09:33:43.255214995,2025-09-08,2025-09-26 20:12:05.521,HH,B,3083843256,JASSM,3,123,76,2,2,1,225,9,2,0,1,26,0,0,0,0,-165154.58166678375,-4793651.102510299,4195518.162565708,-2.29551,0.0355692,-0.0790959,97.25,3.5,7.75,0.0,0.0,0.0,0.0,0.0,0.0,2,0,41.36703668512726,-91.973218100209,12000.000047961816,83.95072581153615,-0.0066002261603167,0.0033339415972246,,10456.756926878135,13162.46325448802,150,1,2025-09-08,2025-09-26 20:12:05.310,HH,B,529509608,AMBUSH51,1,1,48,2,1,1,225,2,1,0,0,9,1,225,2,1,-153283.76154960686,-4790541.805220836,4198972.207799935,2.08491,2.62525,-0.553198,-84.7844,50.9177,62.5273,-0.0597907,-7.54694,6.89999,-0.0510942,-0.000893615,-0.0384608,4,0,41.41119180722357,-91.83267729791834,10873.19184793552,-48.93266509990461,2.889141338134127,-18.89512252675581,194.036,10456.756926878135,13162.46325448802,150,False,6.860647716599791,False,131.59247609705017,163.3148797829386,False,64.92437612855885,False,False
1,1970-07-23 09:33:43.265212855,2025-09-08,2025-09-26 20:12:06.521,HH,B,3085095964,JASSM,3,123,76,2,2,1,225,9,2,0,1,26,0,0,0,0,-165052.43542654935,-4793647.469697799,4195526.277800083,-2.29551,0.0355692,-0.0790959,97.25,3.5,7.75,0.0,0.0,0.0,0.0,0.0,0.0,2,0,41.36713399488869,-91.97200014427798,11999.99894234622,83.9515307352277,-0.005680996366606,0.0033343884212102,,10456.756926878135,13162.46325448802,150,1,2025-09-08,2025-09-26 20:12:06.544,HH,B,530980974,AMBUSH51,1,1,48,2,1,1,225,2,1,0,0,9,1,225,2,1,-153390.108108935,-4790480.297601782,4199047.9379625525,2.02402,2.66315,-0.523608,-87.2862,48.7676,59.9657,-0.19379,-7.49993,7.04007,0.00224808,0.00965916,-0.0261479,4,0,41.41204862736629,-91.83397145193508,10894.644275876448,-51.45641120139106,2.8843055433436264,-21.39733636792183,193.241,10456.756926878135,13162.46325448802,150,False,6.774434475554078,False,133.6292915034563,162.59561476242052,False,63.608769859725626,False,False
1,1970-07-23 09:33:43.275577772,2025-09-08,2025-09-26 20:12:07.557,HH,B,3086289384,JASSM,3,123,76,2,2,1,225,9,2,0,1,26,0,0,0,0,-164955.12365897125,-4793644.008760299,4195534.008268833,-2.29551,0.0355692,-0.0790959,97.25,3.5,7.75,0.0,0.0,0.0,0.0,0.0,0.0,2,0,41.367226682867255,-91.9708398295529,12000.001281065945,83.95229756640379,-0.0048052732178382,0.0033348098527885,,10456.756926878135,13162.46325448802,150,1,2025-09-08,2025-09-26 20:12:07.577,HH,B,532213738,AMBUSH51,1,1,48,2,1,1,225,2,1,0,0,9,1,225,2,1,-153480.8208808076,-4790431.157989739,4199108.17131941,2.02948,2.68315,-0.505284,-89.5549,47.1709,57.5209,-0.238185,-7.46991,7.11689,0.0190967,0.0144633,-0.045564,4,0,41.41273023440827,-91.8350741066498,10911.660188735576,-52.90442334352692,2.795072969950939,-20.591912189137528,192.85,10456.756926878135,13162.46325448802,150,False,6.695389826064537,False,135.44350536772902,161.97562758126102,False,62.424520397961516,False,False
1,1970-07-23 09:33:43.285332862,2025-09-08,2025-09-26 20:12:08.533,HH,B,3087541862,JASSM,3,123,76,2,2,1,225,9,2,0,1,26,0,0,0,0,-164852.996217565,-4793640.373994674,4195542.119596958,-2.29551,0.0355692,-0.0790959,97.25,3.5,7.75,0.0,0.0,0.0,0.0,0.0,0.0,2,0,41.36732394884043,-91.96962209176536,11999.999028829669,83.95310234897275,-0.0038862135070329,0.0033352558760197,,10456.756926878135,13162.46325448802,150,1,2025-09-08,2025-09-26 20:12:08.544,HH,B,533366970,AMBUSH51,1,1,48,2,1,1,225,2,1,0,0,9,1,225,2,1,-153569.38454142187,-4790385.937518427,4199163.3882936295,2.04659,2.70619,-0.483574,-91.4652,45.4472,55.5332,-0.157886,-7.37762,6.9253,0.0465294,0.0179503,-0.0335444,4,0,41.413355065419005,-91.83614960321,10927.265319275924,-54.60607783772469,2.690793836864838,-19.066723710232708,192.618,10456.756926878135,13162.46325448802,150,False,6.614383022293296,False,137.04030079545583,161.36433413906346,False,61.43871673761612,False,False
1,1970-07-23 09:33:43.297176924,2025-09-08,2025-09-26 20:12:09.717,HH,B,3088854050,JASSM,3,123,76,2,2,1,225,9,2,0,1,26,0,0,0,0,-164745.99987967435,-4793636.565400924,4195550.616667271,-2.29551,0.0355692,-0.0790959,97.25,3.5,7.75,0.0,0.0,0.0,0.0,0.0,0.0,2,0,41.36742583483343,-91.96834629501,11999.999034904042,83.95394550341595,-0.0029233384166118,0.0033357198623345,,10456.756926878135,13162.46325448802,150,1,2025-09-08,2025-09-26 20:12:09.777,HH,B,534838336,AMBUSH51,1,1,48,2,1,1,225,2,1,0,0,9,1,225,2,1,-153682.82116941203,-4790331.325332165,4199229.562725385,2.10257,2.72593,-0.466015,-93.5103,43.7935,52.9543,-0.138971,-7.29536,6.78374,0.0616657,0.00588288,-0.0250285,4,0,41.41410496961849,-91.83752591089224,10945.523763964036,-56.03099411061925,2.6646675676558287,-15.408489431277784,192.422,10456.756926878135,13162.46325448802,150,False,6.522652732195832,False,138.85064981805425,160.62050051620545,False,60.383665049419456,False,False
1,1970-07-23 09:33:43.307211814,2025-09-08,2025-09-26 20:12:10.721,HH,B,3090047586,JASSM,3,123,76,2,2,1,225,9,2,0,1,26,0,0,0,0,-164648.67834647125,-4793633.100557174,4195558.344206333,-2.29551,0.0355692,-0.0790959,97.25,3.5,7.75,0.0,0.0,0.0,0.0,0.0,0.0,2,0,41.36751849139272,-91.96718585493402,12000.000007848945,83.95471242189035,-0.0020475289285722,0.0033361374613428,,10456.756926878135,13162.46325448802,150,1,2025-09-08,2025-09-26 20:12:10.776,HH,B,536031334,AMBUSH51,1,1,48,2,1,1,225,2,1,0,0,9,1,225,2,1,-153777.18284552047,-4790288.143765238,4199281.445534177,2.15175,2.74315,-0.453566,-94.7608,42.5655,51.3377,-0.187039,-7.25216,6.86032,0.0487806,0.0130464,-0.0187867,4,0,41.41469403462957,-91.8386699456635,10959.37944903731,-57.16375025949144,2.77286493261486,-12.207094229148698,192.117,10456.756926878135,13162.46325448802,150,False,6.442115142351732,False,140.0258169865927,159.98835838285834,False,59.844115861432925,False,False
