Subject_cm,Timestamp,SampleDate_cm,SampleTime_cm,Configuration_cm,Scenario_cm,DisTime_cm,MarkingTxt_cm,Application_cm,EntId_cm,Site_cm,ExerciseId_cm,ForceId_cm,Category_cm,Country_cm,Domain_cm,Kind_cm,Extra_cm,Specific_cm,Subcategory_cm,AltCategory_cm,AltCountry_cm,AltDomain_cm,AltKind_cm,ECEF_X_cm,ECEF_Y_cm,ECEF_Z_cm,OriPhi_cm,OriPsi_cm,OriTheta_cm,LinVelX_cm,LinVelY_cm,LinVelZ_cm,LinAccX_cm,LinAccY_cm,LinAccZ_cm,AngVelX_cm,AngVelY_cm,AngVelZ_cm,DrAlg_cm,Appearance_cm,Latitude_cm,Longitude_cm,Altitude_cm,Heading_cm,Pitch_cm,Roll_cm,CalibratedAirspeed_cm,CM_Altitude_Lead_cm,CM_Altitude_Wing_cm,CM_Airspeed_cm,Subject_ac,SampleDate_ac,SampleTime_ac,Configuration_ac,Scenario_ac,DisTime_ac,MarkingTxt_ac,Application_ac,EntId_ac,Site_ac,ExerciseId_ac,ForceId_ac,Category_ac,Country_ac,Domain_ac,Kind_ac,Extra_ac,Specific_ac,Subcategory_ac,AltCategory_ac,AltCountry_ac,AltDomain_ac,AltKind_ac,ECEF_X_ac,ECEF_Y_ac,ECEF_Z_ac,OriPhi_ac,OriPsi_ac,OriTheta_ac,LinVelX_ac,LinVelY_ac,LinVelZ_ac,LinAccX_ac,LinAccY_ac,LinAccZ_ac,AngVelX_ac,AngVelY_ac,AngVelZ_ac,DrAlg_ac,Appearance_ac,Latitude_ac,Longitude_ac,Altitude_ac,Heading_ac,Pitch_ac,Roll_ac,CalibratedAirspeed_ac,CM_Altitude_Lead_ac,CM_Altitude_Wing_ac,CM_Airspeed_ac,Bank_Angle_Condition,distance_nm,Distance_Condition,angle_between_vel,angle_between_pos,Cone_Condition,angle_between_pos_nose,Nose_Cone_Condition,Intercept_Criteria
1,1970-07-23 10:27:38.407275405,2025-09-12,2025-09-26 14:04:00.727,HH,C,1572552140,JASSM,3,105,76,2,2,1,225,9,2,0,1,26,0,0,0,0,-188360.3753679556,-4786302.163057174,4202413.040495396,-2.30155,-0.153302,0.128183,92.125,-14.125,-11.875,0.0,0.0,0.0,0.0,0.0,0.0,2,0,41.45219172108542,-92.25365801618295,10997.377797481717,99.81556708151427,-0.0050571536614259,0.0023915011874419,,9720.794529171932,12053.737931086003,150,1,2025-09-12,2025-09-26 14:04:00.542,HH,C,4253326074,AMBUSH51,1,1,48,2,1,1,225,2,1,0,0,9,1,225,2,1,-145590.48682042182,-4793078.218610135,4195836.838606303,2.37425,2.69202,-0.489128,-102.544,26.2457,30.6797,-0.141978,-6.99055,6.84623,0.00928465,0.00024655,0.012676,4,0,41.376364588272544,-91.73983314584711,9720.794529171932,-53.80250467607491,2.3473782261516325,-0.6525804931172967,181.057,9720.794529171932,12053.737931086003,150,True,23.550601092559358,False,169.52705785426278,178.59706771080644,False,9.16390076577715,True,False
1,1970-07-23 10:27:38.418296690,2025-09-12,2025-09-26 14:04:01.829,HH,C,1573923846,JASSM,3,105,76,2,2,1,225,9,2,0,1,26,0,0,0,0,-188254.4534929556,-4786318.540010299,4202399.226042271,-2.30155,-0.153302,0.128183,92.125,-14.125,-11.875,0.0,0.0,0.0,0.0,0.0,0.0,2,0,41.452025861191615,-92.2523843092436,10997.37487930089,99.8164102676592,-0.0040881977137614,0.002390823316441,,9720.794529171932,12053.737931086003,150,1,2025-09-12,2025-09-26 14:04:01.742,HH,C,4254757672,AMBUSH51,1,1,48,2,1,1,225,2,1,0,0,9,1,225,2,1,-145714.28864674817,-4793046.34822415,4195873.799257597,2.3793,2.69278,-0.487407,-102.625,26.22,30.8707,-0.194496,-7.03058,6.85443,-0.00415807,0.00300542,-0.00399786,4,0,41.37678133296523,-91.74132326140943,9731.782010147996,-53.89922716576872,2.3032771351618986,-0.3460893007340204,181.339,9720.794529171932,12053.737931086003,150,True,23.42195883804903,False,169.4677724207529,178.61945575430394,False,9.24474375843979,True,False
1,1970-07-23 10:27:38.431303739,2025-09-12,2025-09-26 14:04:03.130,HH,C,1575295848,JASSM,3,105,76,2,2,1,225,9,2,0,1,26,0,0,0,0,-188148.5081804556,-4786334.920869674,4202385.407682896,-2.30155,-0.153302,0.128183,92.125,-14.125,-11.875,0.0,0.0,0.0,0.0,0.0,0.0,2,0,41.45185994307457,-92.25111032682744,10997.376807529788,99.81725363339244,-0.0031190259739284,0.0023901379553908,,9720.794529171932,12053.737931086003,150,1,2025-09-12,2025-09-26 14:04:03.175,HH,C,4256467638,AMBUSH51,1,1,48,2,1,1,225,2,1,0,0,9,1,225,2,1,-145861.62996198455,-4793008.29780131,4195917.749995662,2.38026,2.68933,-0.488648,-102.776,26.449,30.8645,-0.0893396,-7.0296,6.8071,-1.14433e-05,-0.00052327,0.00247279,4,0,41.37727775252213,-91.74309677171436,9744.493133983658,-53.72437100671789,2.236658911176185,-0.3762115959317728,181.632,9720.794529171932,12053.737931086003,150,True,23.279881899265018,False,169.44409766718195,178.64687552926617,False,9.304097000182463,True,False
1,1970-07-23 10:27:38.441179094,2025-09-12,2025-09-26 14:04:04.117,HH,C,1576608198,JASSM,3,105,76,2,2,1,225,9,2,0,1,26,0,0,0,0,-188047.17028983065,-4786350.586885299,4202372.188932896,-2.30155,-0.153302,0.128183,92.125,-14.125,-11.875,0.0,0.0,0.0,0.0,0.0,0.0,2,0,41.45170123297625,-92.24989175545755,10997.375321184134,99.81806031487672,-0.0021920040283376,0.0023894877829492,,9720.794529171932,12053.737931086003,150,1,2025-09-12,2025-09-26 14:04:03.942,HH,C,4257382270,AMBUSH51,1,1,48,2,1,1,225,2,1,0,0,9,1,225,2,1,-145940.69952561156,-4792988.153938532,4195941.034433518,2.37697,2.68939,-0.487529,-102.921,26.3066,30.924,-0.100611,-7.04984,6.82723,0.00492581,0.00263091,-0.0030824,4,0,41.37754046656784,-91.74404842215009,9751.344331748389,-53.77113393471771,2.1926819531573063,-0.5648508461400956,181.632,9720.794529171932,12053.737931086003,150,True,23.179300451499095,False,169.48022953678924,178.65991541176848,False,9.27859034579375,True,False
1,1970-07-23 10:27:38.451200397,2025-09-12,2025-09-26 14:04:05.120,HH,C,1577860898,JASSM,3,105,76,2,2,1,225,9,2,0,1,26,0,0,0,0,-187950.4378679556,-4786365.540010299,4202359.571745396,-2.30155,-0.153302,0.128183,92.125,-14.125,-11.875,0.0,0.0,0.0,0.0,0.0,0.0,2,0,41.451549734661846,-92.24872857006211,10997.378524255568,99.81883032905576,-0.0013071143040017,0.0023888778814008,,9720.794529171932,12053.737931086003,150,1,2025-09-12,2025-09-26 14:04:05.143,HH,C,4258813868,AMBUSH51,1,1,48,2,1,1,225,2,1,0,0,9,1,225,2,1,-146063.6907028268,-4792956.459076202,4195977.586760235,2.37603,2.68768,-0.488476,-103.084,26.4723,30.8548,-0.0936522,-7.05372,6.82696,0.00122651,0.0030824,-2.18462e-05,4,0,41.37795350105595,-91.74552884154755,9761.843099589749,-53.671845876922646,2.174163445587246,-0.660767189769732,181.876,9720.794529171932,12053.737931086003,150,True,23.056178349364124,False,169.50024200876726,178.6826189656209,False,9.288758688966025,True,False
1,1970-07-23 10:27:38.462220415,2025-09-12,2025-09-26 14:04:06.222,HH,C,1579173248,JASSM,3,105,76,2,2,1,225,9,2,0,1,26,0,0,0,0,-187849.0980242056,-4786381.204072799,4202346.351042271,-2.30145,-0.153206,0.128183,92.125,-14.125,-11.875,0.0,0.0,0.0,0.0,0.0,0.0,2,0,41.45139099823528,-92.24750998787604,10997.37853551516,99.81600064298723,-0.0044370131807723,0.0071776472806397,,9720.794529171932,12053.737931086003,150,1,2025-09-12,2025-09-26 14:04:06.382,HH,C,4260285234,AMBUSH51,1,1,48,2,1,1,225,2,1,0,0,9,1,225,2,1,-146191.3099482499,-4792923.791483499,4196015.323113258,2.37857,2.68998,-0.493997,-103.065,26.3939,30.81,-0.113228,-7.00776,6.71878,-0.00538146,0.00107671,-0.000739651,4,0,41.37837945675198,-91.74706490616536,9772.87244902904,-53.54068631434228,2.4853598483771906,-0.4473849101089052,182.243,9720.794529171932,12053.737931086003,150,True,22.9279301512085,False,169.5342307015511,178.70599778209746,False,9.280189042286299,True,False
1,1970-07-23 10:27:38.473257938,2025-09-12,2025-09-26 14:04:07.325,HH,C,1580485584,JASSM,3,105,76,2,2,1,225,9,2,0,1,26,0,0,0,0,-187747.76013358065,-4786396.866182174,4202333.128386021,-2.30145,-0.153206,0.128279,92.125,-14.125,-11.875,0.0,0.0,0.0,0.0,0.0,0.0,2,0,41.45123224689289,-92.24629143589132,10997.375182390177,99.82089782373193,-0.0071764170618366,0.0071765533759122,,9720.794529171932,12053.737931086003,150,1,2025-09-12,2025-09-26 14:04:07.508,HH,C,4261637298,AMBUSH51,1,1,48,2,1,1,225,2,1,0,0,9,1,225,2,1,-146307.45479061728,-4792893.959089922,4196049.764995306,2.37765,2.68983,-0.494896,-103.115,26.2394,30.9671,-0.0925461,-7.04985,6.85662,0.00856061,-0.000860326,0.0062886,4,0,41.37876836729516,-91.74846291452462,9782.881081329857,-53.50046253442836,2.518529158884136,-0.5022107042603523,182.365,9720.794529171932,12053.737931086003,150,True,22.806205995543955,False,169.51410058539238,178.72728418511863,False,9.318809974723438,True,False
1,1970-07-23 10:27:38.484280142,2025-09-12,2025-09-26 14:04:08.428,HH,C,1581797950,JASSM,3,105,76,2,2,1,225,9,2,0,1,26,0,0,0,0,-187646.42028983065,-4786412.526338424,4202319.905729771,-2.30145,-0.153206,0.128279,92.125,-14.125,-11.875,0.0,0.0,0.0,0.0,0.0,0.0,2,0,41.451073494721065,-92.24507286741937,10997.372330162758,99.8217044933354,-0.0062493813320407,0.0071759218449585,,9720.794529171932,12053.737931086003,150,1,2025-09-12,2025-09-26 14:04:08.343,HH,C,4262631464,AMBUSH51,1,1,48,2,1,1,225,2,1,0,0,9,1,225,2,1,-146393.40214066207,-4792871.92546424,4196075.449125808,2.38052,2.68729,-0.497599,-103.158,25.6454,31.6213,-0.126423,-7.07007,6.93593,0.00312609,0.00692526,0.00607846,4,0,41.37905722934938,-91.74949743711753,9790.824367392246,-53.30193933455652,2.5447431543532777,-0.3975311585008584,182.573,9720.794529171932,12053.737931086003,150,True,22.70167477143579,False,169.37675002040658,178.74262359827725,False,9.452506976336787,True,False
1,1970-07-23 10:27:38.495320417,2025-09-12,2025-09-26 14:04:09.532,HH,C,1583110302,JASSM,3,105,76,2,2,1,225,9,2,0,1,26,0,0,0,0,-187545.0823992056,-4786428.186494674,4202306.683073521,-2.30145,-0.153206,0.128279,92.125,-14.125,-11.875,0.0,0.0,0.0,0.0,0.0,0.0,2,0,41.45091472918171,-92.24385432823313,10997.375154364943,99.8225111410117,-0.0053223627392322,0.0071752868308183,,9720.794529171932,12053.737931086003,150,1,2025-09-12,2025-09-26 14:04:09.643,HH,C,4264182362,AMBUSH51,1,1,48,2,1,1,225,2,1,0,0,9,1,225,2,1,-146528.06101754162,-4792837.446865121,4196115.415424293,2.37947,2.68691,-0.493664,-103.371,26.3375,31.0385,-0.10733,-7.0821,6.83465,-0.0103936,-0.0121663,0.00901626,4,0,41.37950767898642,-91.75111828701736,9802.788240512136,-53.44337619597446,2.3684286296017434,-0.4737296839307749,182.524,9720.794529171932,12053.737931086003,150,True,22.569417001730532,False,169.50868928519182,178.76802427792222,False,9.371905182369918,True,False
1,1970-07-23 10:27:38.506298093,2025-09-12,2025-09-26 14:04:10.629,HH,C,1584363040,JASSM,3,105,76,2,2,1,225,9,2,0,1,26,0,0,0,0,-187448.34607108065,-4786443.135713424,4202294.058073521,-2.30145,-0.153206,0.128279,92.125,-14.125,-11.875,0.0,0.0,0.0,0.0,0.0,0.0,2,0,41.45076314127053,-92.24269112608214,10997.377371655237,99.8232811543488,-0.0044374348945223,0.0071746613315363,,9720.794529171932,12053.737931086003,150,1,2025-09-12,2025-09-26 14:04:10.475,HH,C,4265176528,AMBUSH51,1,1,48,2,1,1,225,2,1,0,0,9,1,225,2,1,-146614.77422536368,-4792815.345502963,4196141.108916157,2.37502,2.68321,-0.495438,-103.375,26.3702,30.9106,-0.0904565,-6.90149,6.69315,-0.00557703,-0.00998373,0.011049,4,0,41.379796843273326,-91.75216200273128,9810.654040209953,-53.23812334503076,2.315654563075643,-0.8206380671708694,182.609,9720.794529171932,12053.737931086003,150,True,22.467005116522774,False,169.5553983984825,178.78351815046423,False,9.345869801045895,True,False
1,1970-07-23 10:27:38.517156335,2025-09-12,2025-09-26 14:04:11.715,HH,C,1585675352,JASSM,3,105,76,2,2,1,225,9,2,0,1,26,0,0,0,0,-187347.01013358065,-4786458.791963424,4202280.833464146,-2.30145,-0.153206,0.128279,92.125,-14.125,-11.875,0.0,0.0,0.0,0.0,0.0,0.0,2,0,41.45060436011858,-92.24147262368383,10997.37727060612,99.8240877727046,-0.0035104364846314,0.0071740324841305,,9720.794529171932,12053.737931086003,150,1,2025-09-12,2025-09-26 14:04:11.708,HH,C,4266647894,AMBUSH51,1,1,48,2,1,1,225,2,1,0,0,9,1,225,2,1,-146741.80544520967,-4792782.861861201,4196178.499559892,2.3652,2.6797,-0.492065,-103.562,26.4817,30.7147,-0.0215526,-6.59019,6.38332,-0.0337504,-0.00357134,0.00368161,4,0,41.38021938696006,-91.75369105663168,9821.383574704529,-53.24162190377286,2.0547304344919413,-1.4787022752510883,182.854,9720.794529171932,12053.737931086003,150,True,22.339127707782293,False,169.6452964807463,178.8070982901246,False,9.288771272655977,True,False
1,1970-07-23 10:27:38.527205035,2025-09-12,2025-09-26 14:04:12.720,HH,C,1586928066,JASSM,3,105,76,2,2,1,225,9,2,0,1,26,0,0,0,0,-187250.27575858065,-4786473.737275924,4202268.206511021,-2.30145,-0.153206,0.128279,92.125,-14.125,-11.875,0.0,0.0,0.0,0.0,0.0,0.0,2,0,41.45045275774135,-92.24030945779332,10997.376075347667,99.82485775729523,-0.002625528824329,0.0071734131559472,,9720.794529171932,12053.737931086003,150,1,2025-09-12,2025-09-26 14:04:12.708,HH,C,4267840892,AMBUSH51,1,1,48,2,1,1,225,2,1,0,0,9,1,225,2,1,-146846.4595164352,-4792755.615650014,4196208.841091188,2.34644,2.67372,-0.485001,-103.783,27.0266,30.0748,-0.066079,-6.60144,6.21689,-0.00805086,-0.00421216,-0.00218775,4,0,41.38056724067739,-91.75495095154528,9828.034298061517,-53.29658391799536,1.5532621950884733,-2.715398671959108,183.098,9720.794529171932,12053.737931086003,150,True,22.226510328227636,False,169.81347080071663,178.8256677075052,False,9.166840705758345,True,False
1,1970-07-23 10:27:38.538217288,2025-09-12,2025-09-26 14:04:13.821,HH,C,1588240402,JASSM,3,105,76,2,2,1,225,9,2,0,1,26,0,0,0,0,-187148.93982108065,-4786489.391572799,4202254.979948521,-2.30145,-0.153206,0.128279,92.125,-14.125,-11.875,0.0,0.0,0.0,0.0,0.0,0.0,2,0,41.45029394980693,-92.23909096792434,10997.377659928305,99.8256643623894,-0.0016985307748555,0.0071727825700492,,9720.794529171932,12053.737931086003,150,1,2025-09-12,2025-09-26 14:04:13.808,HH,C,4269153192,AMBUSH51,1,1,48,2,1,1,225,2,1,0,0,9,1,225,2,1,-146959.98322860204,-4792725.809519943,4196240.874933364,2.33249,2.67419,-0.478426,-104.256,27.3695,29.4362,-0.0843164,-6.59141,6.41986,-0.0151478,-0.00619497,0.000552398,4,0,41.38094011387804,-91.75631773116972,9832.732195206065,-53.571164113446855,1.294304357284885,-3.508856513725826,183.673,9720.794529171932,12053.737931086003,150,True,22.10636998901169,False,170.0656434491374,178.84476772888289,False,8.959358690284759,True,False
1,1970-07-23 10:27:38.547280345,2025-09-12,2025-09-26 14:04:14.728,HH,C,1589314144,JASSM,3,105,76,2,2,1,225,9,2,0,1,26,0,0,0,0,-187066.0238054556,-4786502.200166549,4202244.155729771,-2.30145,-0.153206,0.128279,92.125,-14.125,-11.875,0.0,0.0,0.0,0.0,0.0,0.0,2,0,41.45016398761713,-92.2380939685416,10997.37848815765,99.82632434528948,-0.0009400320934469,0.0071722554141572,,9720.794529171932,12053.737931086003,150,1,2025-09-12,2025-09-26 14:04:14.742,HH,C,4270266656,AMBUSH51,1,1,48,2,1,1,225,2,1,0,0,9,1,225,2,1,-147058.696898369,-4792699.727273074,4196267.939892213,2.26224,2.67186,-0.470018,-104.875,27.7342,28.5206,-0.269622,-6.51514,6.42884,-0.165454,-0.00624907,-0.0161048,4,0,41.38125997460179,-91.75750627636631,9834.705488702446,-53.81261288039178,0.8613846471102821,-7.598821410695615,184.113,9720.794529171932,12053.737931086003,150,True,22.004802694229735,False,170.43237080500708,178.86044578245907,False,8.643056569537963,True,False
1,1970-07-23 10:27:38.557299180,2025-09-12,2025-09-26 14:04:15.729,HH,C,1590447538,JASSM,3,105,76,2,2,1,225,9,2,0,1,26,0,0,0,0,-186978.5042742056,-4786515.717744674,4202232.729948521,-2.30145,-0.15311,0.128279,92.125,-14.125,-11.875,0.0,0.0,0.0,0.0,0.0,0.0,2,0,41.45002680928536,-92.23704162085345,10997.3767593259,99.82338469057252,-0.0041963560367796,0.0064691156388324,,9720.794529171932,12053.737931086003,150,1,2025-09-12,2025-09-26 14:04:15.708,HH,C,4271419888,AMBUSH51,1,1,48,2,1,1,225,2,1,0,0,9,1,225,2,1,-147160.67118403042,-4792673.279028731,4196294.67161629,2.04489,2.69134,-0.466596,-106.19,27.0015,27.2294,0.136265,-7.38377,7.21587,-0.198548,0.022201,-0.0125824,4,0,41.38157915382665,-91.75873391072535,9835.307563634546,-54.67535361277672,1.398511895706139,-19.565220892928853,185.127,9720.794529171932,12053.737931086003,150,False,21.898995086266087,False,171.36639260065942,178.87483929524285,False,7.738372259271597,True,False
1,1970-07-23 10:27:38.568203643,2025-09-12,2025-09-26 14:04:16.820,HH,C,1591580932,JASSM,3,105,76,2,2,1,225,9,2,0,1,26,0,0,0,0,-186890.98278983065,-4786529.235322799,4202221.302214146,-2.30145,-0.15311,0.128279,92.125,-14.125,-11.875,0.0,0.0,0.0,0.0,0.0,0.0,2,0,41.44988960860366,-92.23598925425532,10997.37469477496,99.82408132116474,-0.0033957281657197,0.0064685072904662,,9720.794529171932,12053.737931086003,150,1,2025-09-12,2025-09-26 14:04:16.675,HH,C,4272573120,AMBUSH51,1,1,48,2,1,1,225,2,1,0,0,9,1,225,2,1,-147263.09410935463,-4792648.883579273,4196319.45725604,1.83281,2.77257,-0.407027,-108.228,24.5958,24.7142,0.119985,-7.74643,7.6342,-0.18435,0.0210463,-0.0527067,4,0,41.38187288914367,-91.75996616205954,9836.779741458822,-60.079981353115066,1.8925671245801392,-29.90106113219972,185.97,9720.794529171932,12053.737931086003,150,False,21.793270523924853,False,173.35143492674396,178.88629794972186,False,5.756154441916585,True,False
1,1970-07-23 10:27:38.576217027,2025-09-12,2025-09-26 14:04:17.621,HH,C,1592714326,JASSM,3,105,76,2,2,1,225,9,2,0,1,26,0,0,0,0,-186803.46325858065,-4786542.752900924,4202209.874479771,-2.30145,-0.15311,0.128375,92.125,-14.125,-11.875,0.0,0.0,0.0,0.0,0.0,0.0,2,0,41.44975239783828,-92.23493691543544,10997.376911197483,99.82886849638535,-0.0062614918531834,0.006467579318961,,9720.794529171932,12053.737931086003,150,1,2025-09-12,2025-09-26 14:04:17.708,HH,C,4273805886,AMBUSH51,1,1,48,2,1,1,225,2,1,0,0,9,1,225,2,1,-147375.85120134245,-4792625.570488611,4196342.500740746,1.70569,2.88537,-0.291087,-110.291,21.0439,20.0998,-0.0616264,-8.17719,8.02672,-0.0069211,0.0309957,-0.0585698,4,0,41.38214652073169,-91.76132145494408,9837.924409074376,-69.0795739623834,1.6634068360119356,-35.24783130459269,186.202,9720.794529171932,12053.737931086003,150,False,21.682338192695656,False,176.45174810253278,178.89305755230012,False,2.6831587093855713,True,False
1,1970-07-23 10:27:38.585275058,2025-09-12,2025-09-26 14:04:18.527,HH,C,1593847722,JASSM,3,105,76,2,2,1,225,9,2,0,1,26,0,0,0,0,-186715.9417742056,-4786556.268525924,4202198.446745396,-2.30145,-0.15311,0.128375,92.125,-14.125,-11.875,0.0,0.0,0.0,0.0,0.0,0.0,2,0,41.44961518952316,-92.23388455861762,10997.378234598347,99.82956511674048,-0.0054608665600453,0.006467039395757,,9720.794529171932,12053.737931086003,150,1,2025-09-12,2025-09-26 14:04:18.674,HH,C,4274959118,AMBUSH51,1,1,48,2,1,1,225,2,1,0,0,9,1,225,2,1,-147481.88331812917,-4792607.63391225,4196359.150353095,1.68972,2.97765,-0.193826,-111.687,16.9435,15.0486,-0.231345,-8.71207,8.52394,0.0214332,0.0403583,-0.0452748,4,0,41.38234621831527,-91.76259446162592,9837.92817013577,-76.6581706201771,1.694472588982999,-35.11329997632886,186.764,9720.794529171932,12053.737931086003,150,False,21.575870167762087,False,179.6609415300403,178.89208764683323,False,0.7923688686127961,True,False
1,1970-07-23 10:27:38.594321671,2025-09-12,2025-09-26 14:04:19.432,HH,C,1594921464,JASSM,3,105,76,2,2,1,225,9,2,0,1,26,0,0,0,0,-186633.0277117056,-4786569.071260299,4202187.618620396,-2.30145,-0.15311,0.128375,92.125,-14.125,-11.875,0.0,0.0,0.0,0.0,0.0,0.0,2,0,41.44948519027447,-92.23288760609648,10997.37555551199,99.83022505980068,-0.0047023884226697,0.0064665227023661,,9720.794529171932,12053.737931086003,150,1,2025-09-12,2025-09-26 14:04:19.309,HH,C,4275714684,AMBUSH51,1,1,48,2,1,1,225,2,1,0,0,9,1,225,2,1,-147551.97092203412,-4792598.243269976,4196367.390558398,1.69376,3.02578,-0.142822,-112.314,13.8606,11.8554,-0.16269,-8.83841,8.63649,0.0169953,0.0298264,-0.0446152,4,0,41.38244487680287,-91.76343502120974,9838.002775248537,-80.65094711440717,1.7777493310609729,-34.54064997229442,187.009,9720.794529171932,12053.737931086003,150,False,21.492167015457667,False,177.89524036187922,178.88679321116197,False,2.9472023408835155,True,False
1,1970-07-23 10:27:38.604195283,2025-09-12,2025-09-26 14:04:20.419,HH,C,1596054856,JASSM,3,105,76,2,2,1,225,9,2,0,1,26,0,0,0,0,-186545.5081804556,-4786582.584932174,4202176.188932896,-2.30145,-0.15311,0.128375,92.125,-14.125,-11.875,0.0,0.0,0.0,0.0,0.0,0.0,2,0,41.44934796120558,-92.23183528216894,10997.37599665274,99.83092165469074,-0.0039017806629898,0.0064659776315709,,9720.794529171932,12053.737931086003,150,1,2025-09-12,2025-09-26 14:04:20.408,HH,C,4277026982,AMBUSH51,1,1,48,2,1,1,225,2,1,0,0,9,1,225,2,1,-147676.68417914087,-4792586.139912803,4196377.479543917,1.72049,3.082,-0.0886687,-113.39,8.46182,6.88034,-0.104973,-8.77856,8.6115,0.0443177,0.0306399,-0.0446631,4,0,41.38256213742671,-91.764929016458,9839.555970677817,-85.0977663742511,2.1219865892298952,-32.788039325163744,187.4,9720.794529171932,12053.737931086003,150,False,21.37686327619574,False,174.16550636465732,178.87213196898998,False,6.6620254763399265,True,False
1,1970-07-23 10:27:38.613235057,2025-09-12,2025-09-26 14:04:21.323,HH,C,1597188250,JASSM,3,105,76,2,2,1,225,9,2,0,1,26,0,0,0,0,-186457.98669608065,-4786596.098604049,4202164.757292271,-2.30145,-0.15311,0.128375,92.125,-14.125,-11.875,0.0,0.0,0.0,0.0,0.0,0.0,2,0,41.44921070978605,-92.23078293933328,10997.376102560132,99.83161826020084,-0.0031011534720577,0.0064654229769382,,9720.794529171932,12053.737931086003,150,1,2025-09-12,2025-09-26 14:04:21.342,HH,C,4278140448,AMBUSH51,1,1,48,2,1,1,225,2,1,0,0,9,1,225,2,1,-147782.1599450695,-4792580.563182415,4196381.430850629,1.74888,3.12225,-0.0527927,-114.061,4.05742,2.33047,-0.1568,-8.93542,8.61626,0.0466521,0.0332385,-0.0358268,4,0,41.38260264839883,-91.7661908451975,9842.404183467826,-88.16388283216051,2.4925587980190063,-31.121992115887707,187.681,9720.794529171932,12053.737931086003,150,False,21.27268012238881,False,170.97570297467803,178.85234955652214,False,9.882394522298151,True,False
1,1970-07-23 10:27:38.623314307,2025-09-12,2025-09-26 14:04:22.331,HH,C,1598321646,JASSM,3,105,76,2,2,1,225,9,2,0,1,26,0,0,0,0,-186370.46716483065,-4786609.610322799,4202153.325651646,-2.30145,-0.15311,0.128375,92.125,-14.125,-11.875,0.0,0.0,0.0,0.0,0.0,0.0,2,0,41.44907345991043,-92.22973062518622,10997.37568963711,99.83231484482272,-0.002300546081438,0.0064648761905055,,9720.794529171932,12053.737931086003,150,1,2025-09-12,2025-09-26 14:04:22.408,HH,C,4279412980,AMBUSH51,1,1,48,2,1,1,225,2,1,0,0,9,1,225,2,1,-147904.75368745823,-4792578.990361124,4196381.814953854,1.8907,-3.12373,-0.017866,-114.317,-0.821741,-1.10248,-0.239771,-8.45551,8.17465,0.185286,0.0189927,-0.043111,4,0,41.38259210565328,-91.76765565198215,9848.672476943775,-91.07750193783826,2.77086364777034,-23.054474418526784,187.718,9720.794529171932,12053.737931086003,150,False,21.16011380152476,False,168.00120710974062,178.82280831689863,False,12.861630835424117,True,False
1,1970-07-23 10:27:38.633404187,2025-09-12,2025-09-26 14:04:23.340,HH,C,1599455038,JASSM,3,105,76,2,2,1,225,9,2,0,1,26,0,0,0,0,-186282.9456804556,-4786623.120088424,4202141.894011021,-2.30145,-0.15311,0.128375,92.125,-14.125,-11.875,0.0,0.0,0.0,0.0,0.0,0.0,2,0,41.44893621248434,-92.22867829304008,10997.37438402243,99.83301143946164,-0.001499924165461,0.0064643441400886,,9720.794529171932,12053.737931086003,150,1,2025-09-12,2025-09-26 14:04:23.374,HH,C,4280566212,AMBUSH51,1,1,48,2,1,1,225,2,1,0,0,9,1,225,2,1,-148015.2606558841,-4792581.404142113,4196379.72763003,2.04774,-3.09444,-5.99865e-05,-114.374,-5.42704,-0.507802,-0.273343,-8.25994,8.05091,0.144492,0.0222634,-0.0237781,4,0,41.382543368126,-91.76897462589127,9858.478631973814,-92.95612736214562,3.3550082316771785,-14.142184995179353,187.119,9720.794529171932,12053.737931086003,150,False,21.05442894492081,False,166.34255927255805,178.7913144589079,False,14.450471358299412,True,False
1,1970-07-23 10:27:38.642233163,2025-09-12,2025-09-26 14:04:24.223,HH,C,1600588432,JASSM,3,105,76,2,2,1,225,9,2,0,1,26,0,0,0,0,-186195.4261492056,-4786636.631807174,4202130.460417271,-2.30145,-0.153015,0.128375,92.125,-14.125,-11.875,0.0,0.0,0.0,0.0,0.0,0.0,2,0,41.44879893017626,-92.22762598776517,10997.377916393403,99.83007183489762,-0.0047562416617389,0.0057607056820678,,9720.794529171932,12053.737931086003,150,1,2025-09-12,2025-09-26 14:04:24.107,HH,C,4281441078,AMBUSH51,1,1,48,2,1,1,225,2,1,0,0,9,1,225,2,1,-148098.42981739313,-4792584.384804584,4196376.030543847,2.11793,-3.09178,-0.00429535,-114.193,-5.67235,-4.06409,-0.233702,-7.78555,7.58492,0.0990186,0.0144965,-0.00792186,4,0,41.382485398424485,-91.7699668732295,9864.115673595172,-92.8760104484206,3.6309892435494735,-10.11525454064477,187.119,9720.794529171932,12053.737931086003,150,False,20.96328681821045,False,165.18423564172423,178.7631756611687,False,15.723219936809365,True,False
1,1970-07-23 10:27:38.651273427,2025-09-12,2025-09-26 14:04:25.127,HH,C,1601662472,JASSM,3,105,76,2,2,1,225,9,2,0,1,26,0,0,0,0,-186112.4886492056,-4786649.432588424,4202119.624479771,-2.30145,-0.153015,0.128375,92.125,-14.125,-11.875,0.0,0.0,0.0,0.0,0.0,0.0,2,0,41.44866884102614,-92.22662878102582,10997.374296273996,99.83073193558842,-0.0039975511554478,0.0057601412542901,,9720.794529171932,12053.737931086003,150,1,2025-09-12,2025-09-26 14:04:25.108,HH,C,4282634076,AMBUSH51,1,1,48,2,1,1,225,2,1,0,0,9,1,225,2,1,-148213.09365892917,-4792590.718550101,4196370.795435337,2.21024,-3.07774,-0.00410783,-113.861,-7.33538,-4.5575,-0.0996973,-7.60856,7.44262,0.0807885,0.00766803,-0.0125928,4,0,41.3823913030782,-91.77133404159883,9877.066891530483,-93.41877569287703,4.227248884509295,-4.86016250027776,187.155,9720.794529171932,12053.737931086003,150,True,20.858525165209837,False,164.36795412284945,178.72400609424284,False,16.569913227532428,True,False
1,1970-07-23 10:27:38.660315022,2025-09-12,2025-09-26 14:04:26.031,HH,C,1602736214,JASSM,3,105,76,2,2,1,225,9,2,0,1,26,0,0,0,0,-186029.5745867056,-4786662.229463424,4202108.792448521,-2.30145,-0.153015,0.128375,92.125,-14.125,-11.875,0.0,0.0,0.0,0.0,0.0,0.0,2,0,41.44853878740806,-92.22563186020584,10997.37547504486,99.8313918453107,-0.0032390763968021,0.0057595842399888,,9720.794529171932,12053.737931086003,150,1,2025-09-12,2025-09-26 14:04:26.075,HH,C,4283787310,AMBUSH51,1,1,48,2,1,1,225,2,1,0,0,9,1,225,2,1,-148322.45759490097,-4792597.734077474,4196365.360047084,2.24048,-3.07039,-0.00485242,-113.617,-8.35412,-4.6573,-0.196932,-7.65677,7.40844,-0.034878,0.00536065,0.00920767,4,0,41.382292760229305,-91.77263765227502,9890.864432184144,-93.66758958415018,4.571985846902883,-3.144220899712,186.569,9720.794529171932,12053.737931086003,150,True,20.756648478167847,False,163.9226040376155,178.68463483822467,False,17.04909120808165,True,False
1,1970-07-23 10:27:38.670213177,2025-09-12,2025-09-26 14:04:27.021,HH,C,1603928962,JASSM,3,105,76,2,2,1,225,9,2,0,1,26,0,0,0,0,-185937.4691179556,-4786676.444307174,4202096.757292271,-2.30145,-0.153015,0.128471,92.125,-14.125,-11.875,0.0,0.0,0.0,0.0,0.0,0.0,2,0,41.44839429451452,-92.22452443107336,10997.37446752369,99.83621551406765,-0.0060628431415529,0.0057586515033872,,9720.794529171932,12053.737931086003,150,1,2025-09-12,2025-09-26 14:04:27.008,HH,C,4284900774,AMBUSH51,1,1,48,2,1,1,225,2,1,0,0,9,1,225,2,1,-148429.45326350053,-4792605.505563448,4196360.320367483,2.22966,-3.07217,-0.00945313,-113.395,-9.18575,-4.63304,-0.0624952,-7.55348,7.23515,0.000494141,-0.00352557,-0.00783448,4,0,41.382192815544784,-91.77391269207163,9907.205952858994,-93.4025321324078,4.671209954669302,-3.743898679767344,186.569,9720.794529171932,12053.737931086003,150,True,20.651024695884104,False,163.5850143935143,178.64491008275624,False,17.421713850419938,True,False
1,1970-07-23 10:27:38.679255680,2025-09-12,2025-09-26 14:04:27.925,HH,C,1605062358,JASSM,3,105,76,2,2,1,225,9,2,0,1,26,0,0,0,0,-185849.9495867056,-4786689.950166549,4202085.321745396,-2.30145,-0.153015,0.128471,92.125,-14.125,-11.875,0.0,0.0,0.0,0.0,0.0,0.0,2,0,41.44825699590157,-92.22347214603464,10997.375518552417,99.83691206820885,-0.0052622391008964,0.0057581189027605,,9720.794529171932,12053.737931086003,150,1,2025-09-12,2025-09-26 14:04:28.075,HH,C,4286173306,AMBUSH51,1,1,48,2,1,1,225,2,1,0,0,9,1,225,2,1,-148549.4281595251,-4792615.400883062,4196354.540325224,2.19095,-3.06164,-0.00249231,-112.963,-10.1093,-4.91371,-0.124743,-7.31119,7.14429,-0.0815604,-0.000331855,-0.0128446,4,0,41.38207283546851,-91.77534195772672,9928.163098495064,-94.10456048530992,4.859764762698704,-6.016375155551834,185.958,9720.794529171932,12053.737931086003,150,True,20.541357628806683,False,163.10625519295434,178.59912310354386,False,17.948394637948386,True,False
1,1970-07-23 10:27:38.689278564,2025-09-12,2025-09-26 14:04:28.927,HH,C,1606255404,JASSM,3,105,76,2,2,1,225,9,2,0,1,26,0,0,0,0,-185757.8206804556,-4786704.166963424,4202073.280729771,-2.30145,-0.153015,0.128471,92.125,-14.125,-11.875,0.0,0.0,0.0,0.0,0.0,0.0,2,0,41.44811243647548,-92.22236444546115,10997.373192115883,99.83764530230177,-0.0044194665996796,0.0057575391439399,,9720.794529171932,12053.737931086003,150,1,2025-09-12,2025-09-26 14:04:28.942,HH,C,4287207238,AMBUSH51,1,1,48,2,1,1,225,2,1,0,0,9,1,225,2,1,-148648.16654540354,-4792624.152340715,4196349.21899828,2.14171,-3.06077,0.000705641,-112.676,-10.8606,-5.7462,-0.0303915,-7.10385,7.01963,-0.0286966,-0.011101,0.00593074,4,0,41.38196665476595,-91.7765180008038,9945.687340602635,-94.27610720768168,4.776399017312558,-8.851692058822193,185.518,9720.794529171932,12053.737931086003,150,True,20.44019403106353,False,162.54082413214778,178.55871707720365,False,18.56866232823073,True,False
1,1970-07-23 10:27:38.699313310,2025-09-12,2025-09-26 14:04:29.931,HH,C,1607448450,JASSM,3,105,76,2,2,1,225,9,2,0,1,26,0,0,0,0,-185665.69372733065,-4786718.381807174,4202061.241667271,-2.30145,-0.153015,0.128471,92.125,-14.125,-11.875,0.0,0.0,0.0,0.0,0.0,0.0,2,0,41.44796789072975,-92.22125677405415,10997.375029993043,99.83837851498352,-0.0035767161463117,0.0057569802300872,,9720.794529171932,12053.737931086003,150,1,2025-09-12,2025-09-26 14:04:29.942,HH,C,4288400238,AMBUSH51,1,1,48,2,1,1,225,2,1,0,0,9,1,225,2,1,-148760.1406325469,-4792634.8084029965,4196341.935140963,2.12252,-3.07859,0.0294459,-112.47,-10.4966,-7.89967,-0.0657499,-5.18312,5.03306,-0.0183103,-0.0233203,-0.0197896,4,0,41.38183344094406,-91.77785141213506,9964.657205156796,-94.8326863130844,2.921031474975761,-9.972993407919336,185.115,9720.794529171932,12053.737931086003,150,True,20.332421736831648,False,162.01691032406413,178.51012693204905,False,19.198606952275743,True,False
1,1970-07-23 10:27:38.711778656,2025-09-12,2025-09-26 14:04:31.177,HH,C,1608641496,JASSM,3,105,76,2,2,1,225,9,2,0,1,26,0,0,0,0,-185573.5667742056,-4786732.596650924,4202049.200651646,-2.30145,-0.153015,0.128471,92.125,-14.125,-11.875,0.0,0.0,0.0,0.0,0.0,0.0,2,0,41.44782332114076,-92.22014910756472,10997.377161997649,99.83911172230788,-0.0027339634207286,0.005756408294528,,9720.794529171932,12053.737931086003,150,1,2025-09-12,2025-09-26 14:04:31.274,HH,C,4289990902,AMBUSH51,1,1,48,2,1,1,225,2,1,0,0,9,1,225,2,1,-148910.36115361567,-4792647.232713296,4196328.655906129,2.13538,-3.08565,0.0596382,-112.522,-9.33294,-10.9382,-0.138613,-5.85325,5.72524,0.0329265,-0.00390216,-0.0181147,4,0,41.38164214615787,-91.77964095231454,9977.9046863458,-95.85994882532624,1.4716425935640396,-9.257260108884074,185.115,9720.794529171932,12053.737931086003,150,True,20.20523990375853,False,161.45196289287762,178.43996467334443,False,19.9102689827634,True,False
1,1970-07-23 10:27:38.719236308,2025-09-12,2025-09-26 14:04:31.923,HH,C,1609834542,JASSM,3,105,76,2,2,1,225,9,2,0,1,26,0,0,0,0,-185481.43982108065,-4786746.809541549,4202037.157682896,-2.30145,-0.153015,0.128471,92.125,-14.125,-11.875,0.0,0.0,0.0,0.0,0.0,0.0,2,0,41.447678739334414,-92.21904144689816,10997.37478866499,99.83984492367452,-0.0018912110775824,0.0057558346761908,,9720.794529171932,12053.737931086003,150,1,2025-09-12,2025-09-26 14:04:31.908,HH,C,4290746468,AMBUSH51,1,1,48,2,1,1,225,2,1,0,0,9,1,225,2,1,-148981.76238997694,-4792652.947629047,4196320.931273984,2.15534,-3.08147,0.0671629,-112.601,-9.26942,-12.1597,-0.11291,-6.5212,6.37388,0.0381217,-0.00285146,-0.0158635,4,0,41.381542804125786,-91.78049160395678,9980.672429810324,-96.34148441112548,1.3643620623943191,-8.140650689563637,185.481,9720.794529171932,12053.737931086003,150,True,20.118400201635083,False,161.05271410342718,178.40206343463717,False,20.368653469502572,True,False
1,1970-07-23 10:27:38.729253669,2025-09-12,2025-09-26 14:04:32.925,HH,C,1611027590,JASSM,3,105,76,2,2,1,225,9,2,0,1,26,0,0,0,0,-185389.3128679556,-4786761.022432174,4202025.114714146,-2.30145,-0.152919,0.128471,92.125,-14.125,-11.875,0.0,0.0,0.0,0.0,0.0,0.0,2,0,41.447534146859645,-92.21793379114985,10997.376951111746,99.83694203536524,-0.0051053806415686,0.0050516822360163,,9720.794529171932,12053.737931086003,150,1,2025-09-12,2025-09-26 14:04:32.942,HH,C,4291979234,AMBUSH51,1,1,48,2,1,1,225,2,1,0,0,9,1,225,2,1,-149097.9444744433,-4792662.534063528,4196307.095779514,2.17823,-3.08193,0.0775922,-112.67,-9.34853,-13.7915,-0.0835258,-6.50517,6.26508,0.0285801,-0.0152684,-0.00463869,4,0,41.38137088557793,-91.7818756476384,9983.142397859418,-96.77180519236538,0.9489574651343312,-6.836353326505251,185.921,9720.794529171932,12053.737931086003,150,True,20.008921117036724,False,160.44658027677448,178.3398149656167,False,21.061770440198462,True,False
1,1970-07-23 10:27:38.740292783,2025-09-12,2025-09-26 14:04:34.029,HH,C,1612280484,JASSM,3,105,76,2,2,1,225,9,2,0,1,26,0,0,0,0,-185292.5628679556,-4786775.946260299,4202012.466276646,-2.30145,-0.152919,0.128471,92.125,-14.125,-11.875,0.0,0.0,0.0,0.0,0.0,0.0,2,0,41.447382292986205,-92.21677055818886,10997.37602406076,99.83771201765198,-0.0042203397080558,0.0050510292764509,,9720.794529171932,12053.737931086003,150,1,2025-09-12,2025-09-26 14:04:34.007,HH,C,4293251766,AMBUSH51,1,1,48,2,1,1,225,2,1,0,0,9,1,225,2,1,-149219.1626733819,-4792672.529628303,4196291.404137724,2.20486,-3.07955,0.0861682,-112.942,-9.80618,-14.6797,-0.101974,-6.92145,6.74922,0.0360806,0.00275991,-0.00682539,4,0,41.38118305101471,-91.78331967936424,9982.986205638488,-97.2302804279589,0.7250533191764074,-5.328379020959891,186.679,9720.794529171932,12053.737931086003,150,True,19.894482906491696,False,159.9898844340496,178.27185072650386,False,21.59564613543355,True,False
1,1970-07-23 10:27:38.749174715,2025-09-12,2025-09-26 14:04:34.917,HH,C,1613413886,JASSM,3,105,76,2,2,1,225,9,2,0,1,26,0,0,0,0,-185205.04138358065,-4786789.444307174,4202001.024870396,-2.30145,-0.152919,0.128471,92.125,-14.125,-11.875,0.0,0.0,0.0,0.0,0.0,0.0,2,0,41.44724493085572,-92.2157182861295,10997.37512979245,99.8384085492554,-0.0034197222643044,0.0050504554429617,,9720.794529171932,12053.737931086003,150,1,2025-09-12,2025-09-26 14:04:34.741,HH,C,4294126632,AMBUSH51,1,1,48,2,1,1,225,2,1,0,0,9,1,225,2,1,-149301.98215474372,-4792679.730715056,4196280.067682596,2.22523,-3.07646,0.0913808,-113.104,-9.99027,-15.3712,-0.169978,-6.9594,6.71581,0.0254821,-0.000918582,-0.00900377,4,0,41.38104833942251,-91.7843061369364,9982.463935049813,-97.5713850495835,0.6590861047677103,-4.180840719688341,187.082,9720.794529171932,12053.737931086003,150,True,19.80465620316322,False,159.6898036236013,178.2226781263528,False,21.953315439937548,True,False
1,1970-07-23 10:27:38.759225101,2025-09-12,2025-09-26 14:04:35.922,HH,C,1614606746,JASSM,3,105,76,2,2,1,225,9,2,0,1,26,0,0,0,0,-185112.92810233065,-4786803.651338424,4201988.979948521,-2.30145,-0.152919,0.128471,92.125,-14.125,-11.875,0.0,0.0,0.0,0.0,0.0,0.0,2,0,41.44710032492979,-92.21461081124976,10997.373559392485,99.8391416192726,-0.0025770957254107,0.0050498251845862,,9720.794529171932,12053.737931086003,150,1,2025-09-12,2025-09-26 14:04:35.774,HH,C,392100,AMBUSH51,1,1,48,2,1,1,225,2,1,0,0,9,1,225,2,1,-149418.381436,-4792689.909231342,4196263.73042991,2.24928,-3.07659,0.095416,-113.429,-10.3532,-15.7915,-0.0787774,-7.00032,6.70476,0.0234244,-3.12089e-06,-0.00641551,4,0,41.38085592013965,-91.78569253308672,9981.001014935831,-97.73988888569768,0.5006823838795019,-2.803611577591018,187.718,9720.794529171932,12053.737931086003,150,True,19.695409370773717,False,159.44226864333828,178.15339653976136,False,22.27424584889733,True,False
1,1970-07-23 10:27:38.769254545,2025-09-12,2025-09-26 14:04:36.925,HH,C,1615740142,JASSM,3,105,76,2,2,1,225,9,2,0,1,26,0,0,0,0,-185025.40857108065,-4786817.149385299,4201977.536589146,-2.30145,-0.152919,0.128567,92.125,-14.125,-11.875,0.0,0.0,0.0,0.0,0.0,0.0,2,0,41.44696292941385,-92.21355857164538,10997.377011009112,99.84392878118258,-0.0054427662862561,0.0050489771505288,,9720.794529171932,12053.737931086003,150,1,2025-09-12,2025-09-26 14:04:35.774,HH,C,392100,AMBUSH51,1,1,48,2,1,1,225,2,1,0,0,9,1,225,2,1,-149418.381436,-4792689.909231342,4196263.73042991,2.24928,-3.07659,0.095416,-113.429,-10.3532,-15.7915,-0.0787774,-7.00032,6.70476,0.0234244,-3.12089e-06,-0.00641551,4,0,41.38085592013965,-91.78569253308672,9981.001014935831,-97.73988888569768,0.5006823838795019,-2.803611577591018,187.718,9720.794529171932,12053.737931086003,150,True,19.647435902345663,False,159.44226864333828,178.14916114287527,False,22.278195479117606,True,False
1,1970-07-23 10:27:38.780271509,2025-09-12,2025-09-26 14:04:38.027,HH,C,1617112310,JASSM,3,105,76,2,2,1,225,9,2,0,1,26,0,0,0,0,-184919.44763358065,-4786833.489229049,4201963.679167271,-2.30145,-0.152919,0.128567,92.125,-14.125,-11.875,0.0,0.0,0.0,0.0,0.0,0.0,2,0,41.44679656548401,-92.21228461969184,10997.374661356736,99.84477204238156,-0.0044734671789843,0.0050483268597594,,9720.794529171932,12053.737931086003,150,1,2025-09-12,2025-09-26 14:04:38.440,HH,C,3573430,AMBUSH51,1,1,48,2,1,1,225,2,1,0,0,9,1,225,2,1,-149722.63068468566,-4792718.241715815,4196219.7066056905,2.28212,-3.06769,0.0909128,-114.195,-12.3703,-15.0174,-0.0698457,-7.45457,7.0842,0.00568106,0.00476144,-0.00512971,4,0,41.38033369602524,-91.78931567039643,9978.59675269258,-97.8874269942445,1.054159228193429,-0.9711412585619654,189.294,9720.794529171932,12053.737931086003,150,True,19.43619645729009,False,159.09190676903248,177.9668816939217,False,22.786515755565087,True,False
1,1970-07-23 10:27:38.791293161,2025-09-12,2025-09-26 14:04:39.129,HH,C,1618424478,JASSM,3,105,76,2,2,1,225,9,2,0,1,26,0,0,0,0,-184818.1214617056,-4786849.112275924,4201950.427214146,-2.30145,-0.152919,0.128567,92.125,-14.125,-11.875,0.0,0.0,0.0,0.0,0.0,0.0,2,0,41.44663747314031,-92.21106639785906,10997.371466678816,99.84557841179196,-0.0035465675760908,0.0050477126953621,,9720.794529171932,12053.737931086003,150,1,2025-09-12,2025-09-26 14:04:39.107,HH,C,4368764,AMBUSH51,1,1,48,2,1,1,225,2,1,0,0,9,1,225,2,1,-149798.8379682857,-4792725.632932727,4196208.846261269,2.28961,-3.06715,0.0905642,-114.381,-11.5955,-15.8296,-0.160658,-7.36526,7.00973,0.00361087,0.00684412,-0.00340281,4,0,41.3802022464377,-91.79022306219136,9979.088369005509,-97.89358437337415,1.0910922441439104,-0.5453023866811694,189.49,9720.794529171932,12053.737931086003,150,True,19.342345849459427,False,159.090263382267,177.91620949329808,False,22.8606260338699,True,False
1,1970-07-23 10:27:38.802312317,2025-09-12,2025-09-26 14:04:40.231,HH,C,1619677176,JASSM,3,105,76,2,2,1,225,9,2,0,1,26,0,0,0,0,-184721.3870867056,-4786864.028291549,4201937.776823521,-2.30145,-0.152919,0.128567,92.125,-14.125,-11.875,0.0,0.0,0.0,0.0,0.0,0.0,2,0,41.44648557954536,-92.20990338728136,10997.378114394178,99.84634823321122,-0.0026616721264079,0.005047127559332,,9720.794529171932,12053.737931086003,150,1,2025-09-12,2025-09-26 14:04:40.207,HH,C,5681062,AMBUSH51,1,1,48,2,1,1,225,2,1,0,0,9,1,225,2,1,-149923.96858280557,-4792738.1083393,4196191.311291281,2.29497,-3.0639,0.0892658,-114.619,-11.768,-15.689,-0.152506,-7.28376,7.16695,0.00488628,0.00732473,0.00145954,4,0,41.379986385477736,-91.79171284399747,9981.38200986507,-97.96248328926956,1.2800737375302436,-0.2562343940970681,189.648,9720.794529171932,12053.737931086003,150,True,19.22645412275416,False,159.1008710479769,177.83599748247354,False,22.930333215995123,True,False
1,1970-07-23 10:27:38.813172565,2025-09-12,2025-09-26 14:04:41.317,HH,C,1621049380,JASSM,3,105,76,2,2,1,225,9,2,0,1,26,0,0,0,0,-184615.4261492056,-4786880.364229049,4201923.915495396,-2.30145,-0.152823,0.128567,92.125,-14.125,-11.875,0.0,0.0,0.0,0.0,0.0,0.0,2,0,41.44631917202725,-92.20862945580556,10997.374898184007,99.84355548380294,-0.005749290398532,0.004342413596174,,9720.794529171932,12053.737931086003,150,1,2025-09-12,2025-09-26 14:04:41.307,HH,C,6993360,AMBUSH51,1,1,48,2,1,1,225,2,1,0,0,9,1,225,2,1,-150049.88595831487,-4792751.14118622,4196173.892150717,2.3033,-3.06367,0.0830657,-114.755,-12.0916,-15.4108,-0.114028,-7.25885,6.92813,-0.00190478,-0.00100597,0.0100399,4,0,41.379767826260775,-91.79321180345644,9985.367357361862,-97.70706626273824,1.527513306696599,0.2264096756630462,189.917,9720.794529171932,12053.737931086003,150,True,19.105177933271758,False,159.0986144086303,177.7535120679553,False,23.011562497834895,True,False
1,1970-07-23 10:27:38.827352988,2025-09-12,2025-09-26 14:04:42.735,HH,C,1622361532,JASSM,3,105,76,2,2,1,225,9,2,0,1,26,0,0,0,0,-184514.09997733065,-4786895.985322799,4201910.661589146,-2.30145,-0.152823,0.128567,92.125,-14.125,-11.875,0.0,0.0,0.0,0.0,0.0,0.0,2,0,41.44616003941605,-92.20741125273346,10997.3791250167,99.84436183320584,-0.0048223911599975,0.0043417388206466,,9720.794529171932,12053.737931086003,150,1,2025-09-12,2025-09-26 14:04:42.807,HH,C,8782858,AMBUSH51,1,1,48,2,1,1,225,2,1,0,0,9,1,225,2,1,-150222.0454088851,-4792768.75004888,4196150.553568285,2.3065,-3.07015,0.0827361,-114.955,-11.7455,-15.3998,-0.0238084,-6.8589,6.48681,-0.00688781,0.000956033,0.00500903,4,0,41.37947344651482,-91.79526130441948,9991.348463197626,-97.44819321428288,1.2657169035195526,0.4467186636183956,190.235,9720.794529171932,12053.737931086003,150,True,18.96323997087489,False,159.23647795793008,177.6422038520824,False,22.994476913581575,True,False
1,1970-07-23 10:27:38.835235217,2025-09-12,2025-09-26 14:04:43.523,HH,C,1623673882,JASSM,3,105,76,2,2,1,225,9,2,0,1,26,0,0,0,0,-184412.76013358065,-4786911.606416549,4201897.403776646,-2.30145,-0.152823,0.128567,92.125,-14.125,-11.875,0.0,0.0,0.0,0.0,0.0,0.0,2,0,41.44600087068597,-92.20619289221564,10997.379061342714,99.8451682842772,-0.0038953672495262,0.0043410620651877,,9720.794529171932,12053.737931086003,150,1,2025-09-12,2025-09-26 14:04:43.441,HH,C,9538424,AMBUSH51,1,1,48,2,1,1,225,2,1,0,0,9,1,225,2,1,-150294.92808880343,-4792776.221958124,4196140.622910873,2.30578,-3.07289,0.084282,-115.086,-12.5748,-14.6012,-0.106387,-6.91444,6.54881,0.000583607,-0.0103895,-0.00267877,4,0,41.37934836836904,-91.79612893606664,9993.818496176524,-97.41088073462628,1.0907145479619589,0.4192888410518892,190.272,9720.794529171932,12053.737931086003,150,True,18.871156293909113,False,159.23523303812823,177.5904531520001,False,23.028242914974122,True,False
1,1970-07-23 10:27:38.846254476,2025-09-12,2025-09-26 14:04:44.625,HH,C,1624986234,JASSM,3,105,76,2,2,1,225,9,2,0,1,26,0,0,0,0,-184311.4183367056,-4786927.225557174,4201884.144011021,-2.30145,-0.152823,0.128567,92.125,-14.125,-11.875,0.0,0.0,0.0,0.0,0.0,0.0,2,0,41.4458416879467,-92.20497451520936,10997.375259966782,99.84597474371428,-0.0029683265493135,0.0043403870514825,,9720.794529171932,12053.737931086003,150,1,2025-09-12,2025-09-26 14:04:44.507,HH,C,10810956,AMBUSH51,1,1,48,2,1,1,225,2,1,0,0,9,1,225,2,1,-150418.65581593948,-4792788.156344327,4196123.864530321,2.31231,-3.07647,0.0852224,-115.361,-11.3768,-15.3617,-0.100115,-6.98636,6.47657,-0.00130349,-0.00108503,-0.00879155,4,0,41.37914115429443,-91.7976021255126,9996.38962867297,-97.31602367769035,0.9032101138418764,0.8129825917767153,190.577,9720.794529171932,12053.737931086003,150,True,18.75352932889079,False,159.40677331200237,177.50681390854314,False,22.96863680382217,True,False
1,1970-07-23 10:27:38.859383169,2025-09-12,2025-09-26 14:04:45.938,HH,C,1626298584,JASSM,3,105,76,2,2,1,225,9,2,0,1,26,0,0,0,0,-184210.0784929556,-4786942.844697799,4201870.884245396,-2.30145,-0.152823,0.128567,92.125,-14.125,-11.875,0.0,0.0,0.0,0.0,0.0,0.0,2,0,41.44568249185238,-92.20375616750154,10997.377131729663,99.8467811812102,-0.0020413029863566,0.0043397085553104,,9720.794529171932,12053.737931086003,150,1,2025-09-12,2025-09-26 14:04:45.942,HH,C,12520922,AMBUSH51,1,1,48,2,1,1,225,2,1,0,0,9,1,225,2,1,-150583.61791238363,-4792803.686252641,4196101.707842174,2.31059,-3.0817,0.0817359,-115.774,-10.7956,-15.4434,-0.114408,-7.1054,6.79249,-0.0055812,0.00323845,0.00235627,4,0,41.378868384525006,-91.79956640855258,9999.295634357206,-96.96954769880423,0.8143698490329122,0.7443410762462772,190.932,9720.794529171932,12053.737931086003,150,True,18.615223013992892,False,159.60481728404653,177.3963491887691,False,22.893041648095867,True,False
1,1970-07-23 10:27:38.868289511,2025-09-12,2025-09-26 14:04:46.828,HH,C,1627551332,JASSM,3,105,76,2,2,1,225,9,2,0,1,26,0,0,0,0,-184113.3402117056,-4786957.752900924,4201858.226042271,-2.30145,-0.152823,0.128663,92.125,-14.125,-11.875,0.0,0.0,0.0,0.0,0.0,0.0,2,0,41.44553051902885,-92.20259314794482,10997.378678843508,99.85164169515345,-0.0048225971317763,0.0043388538414083,,9720.794529171932,12053.737931086003,150,1,2025-09-12,2025-09-26 14:04:46.807,HH,C,13554854,AMBUSH51,1,1,48,2,1,1,225,2,1,0,0,9,1,225,2,1,-150685.23663489427,-4792813.1090740925,4196088.315710068,2.30449,-3.0832,0.0800646,-116.008,-10.8871,-15.118,-0.110366,-7.12678,6.70632,-0.0115858,-0.00811744,-0.00428498,4,0,41.37870292657601,-91.80077647711732,10001.29572967427,-96.84185640559762,0.8148991048816595,0.4036260153574748,191.323,9720.794529171932,12053.737931086003,150,True,18.51122845618251,False,159.70591088346555,177.32519495504013,False,22.860194623914733,True,False
1,1970-07-23 10:27:38.880289641,2025-09-12,2025-09-26 14:04:48.028,HH,C,1628863634,JASSM,3,105,76,2,2,1,225,9,2,0,1,26,0,0,0,0,-184012.00329764312,-4786973.368135299,4201844.964323521,-2.30145,-0.152823,0.128663,92.125,-14.125,-11.875,0.0,0.0,0.0,0.0,0.0,0.0,2,0,41.44537130711228,-92.20137484868904,10997.377713739072,99.85244809563532,-0.0038956022671488,0.0043382459801517,,9720.794529171932,12053.737931086003,150,1,2025-09-12,2025-09-26 14:04:48.074,HH,C,15065986,AMBUSH51,1,1,48,2,1,1,225,2,1,0,0,9,1,225,2,1,-150831.67749055236,-4792826.334104861,4196068.854848255,2.29196,-3.09173,0.0847481,-116.369,-10.2554,-15.5594,-0.0647115,-6.69261,6.30367,-0.000583607,-0.00243534,0.00241037,4,0,41.37846547890727,-91.8025204063351,10002.965790027532,-96.7200602339406,0.2737428786174238,-0.2724618155321684,191.75,9720.794529171932,12053.737931086003,150,True,18.382254970353397,False,159.78749445270736,177.2240797460011,False,22.895438427668644,True,False
1,1970-07-23 10:27:38.889194659,2025-09-12,2025-09-26 14:04:48.919,HH,C,1630116334,JASSM,3,105,76,2,2,1,225,9,2,0,1,26,0,0,0,0,-183915.26892264312,-4786988.272432174,4201832.302214146,-2.30145,-0.152823,0.128663,92.125,-14.125,-11.875,0.0,0.0,0.0,0.0,0.0,0.0,2,0,41.445219306214376,-92.20021188872606,10997.371787349566,99.85321786429036,-0.0030107090110954,0.0043376576400736,,9720.794529171932,12053.737931086003,150,1,2025-09-12,2025-09-26 14:04:48.840,HH,C,15980618,AMBUSH51,1,1,48,2,1,1,225,2,1,0,0,9,1,225,2,1,-150920.80071675294,-4792834.169637242,4196056.5504598105,2.28383,-3.09204,0.0871082,-116.51,-10.1504,-15.7764,-0.17002,-6.9236,6.44692,-0.0165043,-0.00570811,-0.000111312,4,0,41.37831911346886,-91.8035818273911,10002.464297542549,-96.81034777097972,0.1717801676961349,-0.7373933980562817,192.129,9720.794529171932,12053.737931086003,150,True,18.284607186752602,False,159.75581531643843,177.15835854542277,False,22.997828288379086,True,False
1,1970-07-23 10:27:38.902152931,2025-09-12,2025-09-26 14:04:50.215,HH,C,1631488336,JASSM,3,105,76,2,2,1,225,9,2,0,1,26,0,0,0,0,-183809.32165701807,-4787004.596650924,4201818.435026646,-2.30145,-0.152727,0.128663,92.125,-14.125,-11.875,0.0,0.0,0.0,0.0,0.0,0.0,2,0,41.445052818446776,-92.1989381755744,10997.373986095903,99.85042504460466,-0.0060984510910552,0.0036324558569457,,9720.794529171932,12053.737931086003,150,1,2025-09-12,2025-09-26 14:04:50.273,HH,C,17690582,AMBUSH51,1,1,48,2,1,1,225,2,1,0,0,9,1,225,2,1,-151087.83441159088,-4792848.063886656,4196033.195102623,2.29037,-3.09694,0.0907924,-116.753,-9.58747,-16.4056,-0.292505,-7.11575,6.56765,0.00635934,0.00421633,0.00440774,4,0,41.378047484552354,-91.80557141527248,9998.950374141854,-96.78411180789956,-0.1758323904518551,-0.3372782142022785,192.642,9720.794529171932,12053.737931086003,150,True,18.142889157190755,False,159.7306767353988,177.03974033469254,False,23.15689627871999,True,False
1,1970-07-23 10:27:38.912213082,2025-09-12,2025-09-26 14:04:51.221,HH,C,1632800688,JASSM,3,105,76,2,2,1,225,9,2,0,1,26,0,0,0,0,-183707.9808367056,-4787020.209932174,4201805.169401646,-2.30145,-0.152727,0.128663,92.125,-14.125,-11.875,0.0,0.0,0.0,0.0,0.0,0.0,2,0,41.44489355397901,-92.19771984840207,10997.3758341785,99.8512314559702,-0.0051714200068965,0.0036317812654464,,9720.794529171932,12053.737931086003,150,1,2025-09-12,2025-09-26 14:04:51.074,HH,C,18644982,AMBUSH51,1,1,48,2,1,1,225,2,1,0,0,9,1,225,2,1,-151182.0970223464,-4792855.662300045,4196019.856134431,2.29983,-3.09813,0.0913603,-116.936,-9.50563,-16.4151,-0.0467167,-6.94962,6.43457,0.0140908,0.000462932,0.00416223,4,0,41.37789455031772,-91.80669428955042,9996.03264610044,-96.76387630071514,-0.2476834908301332,0.2108980108199393,192.789,9720.794529171932,12053.737931086003,150,True,18.040182829704374,False,159.76707481806773,176.96816450552598,False,23.194138393227398,True,False
1,1970-07-23 10:27:38.923286955,2025-09-12,2025-09-26 14:04:52.328,HH,C,1634113038,JASSM,3,105,76,2,2,1,225,9,2,0,1,26,0,0,0,0,-183606.64001639312,-4787035.821260299,4201791.903776646,-2.30145,-0.152727,0.128663,92.125,-14.0,-11.875,0.0,0.0,0.0,0.0,0.0,0.0,2,0,41.444734288230094,-92.19650152808404,10997.378370810393,99.85203786024849,-0.0042443915477646,0.0036311179636044,,9720.794529171932,12053.737931086003,150,1,2025-09-12,2025-09-26 14:04:52.274,HH,C,20076580,AMBUSH51,1,1,48,2,1,1,225,2,1,0,0,9,1,225,2,1,-151321.71564625722,-4792866.814016217,4195999.747035874,2.30618,-3.10049,0.0882427,-117.19,-9.19052,-16.6445,-0.0896637,-7.22762,6.58009,0.0124576,0.000762538,0.0047656,4,0,41.37766624408963,-91.80835748301362,9990.70357009768,-96.5420300869635,-0.2286433814643589,0.5859204744050228,193.18,9720.794529171932,12053.737931086003,150,True,17.914838704435045,False,159.85084116748038,176.8291705814544,False,23.269250685609123,True,False
1,1970-07-23 10:27:38.934253192,2025-09-12,2025-09-26 14:04:53.425,HH,C,1635425698,JASSM,3,105,76,2,2,1,225,9,2,0,1,26,0,0,0,0,-183505.27478201807,-4787051.434541549,4201778.632292271,-2.30145,-0.152727,0.128663,92.125,-14.0,-11.875,0.0,0.0,0.0,0.0,0.0,0.0,2,0,41.44457496399413,-92.19528292104928,10997.37617154156,99.8528444517542,-0.0033171391108852,0.0036304472453326,,9720.794529171932,12053.737931086003,150,1,2025-09-12,2025-09-26 14:04:53.441,HH,C,21468412,AMBUSH51,1,1,48,2,1,1,225,2,1,0,0,9,1,225,2,1,-151459.3151639977,-4792877.847311963,4195980.392015958,2.28815,-3.09572,0.0794947,-117.417,-9.51518,-16.2356,-0.130114,-7.63932,6.95629,-0.0342227,0.000327694,0.0095697,4,0,41.37744408962183,-91.8099965973414,9986.571745364154,-96.34882199906492,0.3089925213988727,-0.4696817333575391,193.449,9720.794529171932,12053.737931086003,150,True,17.790513197141447,False,159.913402980477,176.7257404176769,False,23.30442291923555,True,False
1,1970-07-23 10:27:38.945174878,2025-09-12,2025-09-26 14:04:54.517,HH,C,1636737742,JASSM,3,105,76,2,2,1,225,9,2,0,1,26,0,0,0,0,-183403.9573992056,-4787067.040010299,4201765.366667271,-2.30145,-0.152727,0.128663,92.125,-14.0,-11.875,0.0,0.0,0.0,0.0,0.0,0.0,2,0,41.44441570196076,-92.19406489544347,10997.377493326054,99.85365065586504,-0.0023903245083252,0.0036297766635026,,9720.794529171932,12053.737931086003,150,1,2025-09-12,2025-09-26 14:04:54.608,HH,C,22860244,AMBUSH51,1,1,48,2,1,1,225,2,1,0,0,9,1,225,2,1,-151595.62239771098,-4792889.357276818,4195961.758124825,2.27763,-3.09398,0.0761368,-117.584,-10.0456,-15.9299,-0.0605298,-7.65795,6.94535,-0.00305951,-0.00227721,-0.000342258,4,0,41.37722419038958,-91.81162008815588,9985.086122083105,-96.27191361564404,0.5122414406163264,-1.079428303128247,193.95,9720.794529171932,12053.737931086003,150,True,17.666926966452696,False,159.86633504943987,176.62199839475662,False,23.447919876680974,True,False
1,1970-07-23 10:27:38.955213409,2025-09-12,2025-09-26 14:04:55.521,HH,C,1637990440,JASSM,3,105,76,2,2,1,225,9,2,0,1,26,0,0,0,0,-183307.2230242056,-4787081.936494674,4201752.700651646,-2.30145,-0.152727,0.128663,92.125,-14.0,-11.875,0.0,0.0,0.0,0.0,0.0,0.0,2,0,41.44426364729464,-92.1929019731866,10997.375318079725,99.85442038500874,-0.001505437236363,0.0036291512809281,,9720.794529171932,12053.737931086003,150,1,2025-09-12,2025-09-26 14:04:55.373,HH,C,23774876,AMBUSH51,1,1,48,2,1,1,225,2,1,0,0,9,1,225,2,1,-151685.72867563178,-4792897.265582282,4195949.717952719,2.28043,-3.08887,0.0758899,-117.624,-10.5738,-15.555,-0.142589,-7.60403,7.09904,0.00451593,0.0122765,-0.00268293,4,0,41.37707890744424,-91.8126931821806,9985.44913861168,-96.45595830300896,0.7409240285330879,-0.9433210616085316,193.718,9720.794529171932,12053.737931086003,150,True,17.56897429494759,False,159.8306108854537,176.54967350845723,False,23.546966002823083,True,False
1,1970-07-23 10:27:38.966233803,2025-09-12,2025-09-26 14:04:56.623,HH,C,1639243174,JASSM,3,105,76,2,2,1,225,9,2,0,1,26,0,0,0,0,-183210.48571951807,-4787096.834932174,4201740.032682896,-2.30145,-0.152727,0.128759,92.125,-14.0,-11.875,0.0,0.0,0.0,0.0,0.0,0.0,2,0,41.44411155673595,-92.1917390204527,10997.378426478916,99.85928087859097,-0.0042866909921234,0.0036283315030522,,9720.794529171932,12053.737931086003,150,1,2025-09-12,2025-09-26 14:04:56.573,HH,C,25206474,AMBUSH51,1,1,48,2,1,1,225,2,1,0,0,9,1,225,2,1,-151827.7360192066,-4792910.37729621,4195931.161916764,2.2847,-3.08558,0.0694541,-117.683,-11.3409,-14.993,-0.121668,-7.66867,7.01185,0.0152123,0.00283273,-0.00338201,4,0,41.37684889840129,-91.81438412157112,9988.53423149726,-96.3059281145821,1.1273542189453123,-0.7099210972823136,193.95,9720.794529171932,12053.737931086003,150,True,17.445186455595213,False,159.77671912056758,176.44001274301175,False,23.69636048872029,True,False
1,1970-07-23 10:27:38.976313668,2025-09-12,2025-09-26 14:04:57.631,HH,C,1640495936,JASSM,3,105,76,2,2,1,225,9,2,0,1,26,0,0,0,0,-183113.74548514312,-4787111.731416549,4201727.362761021,-2.30145,-0.152727,0.128759,92.125,-14.0,-11.875,0.0,0.0,0.0,0.0,0.0,0.0,2,0,41.44395945353415,-92.1905760390301,10997.377219306987,99.86005064228546,-0.0034017476302938,0.0036277535503525,,9720.794529171932,12053.737931086003,150,1,2025-09-12,2025-09-26 14:04:57.740,HH,C,26598306,AMBUSH51,1,1,48,2,1,1,225,2,1,0,0,9,1,225,2,1,-151964.21732036048,-4792923.595036425,4195914.041538078,2.2886,-3.07964,0.0658926,-117.65,-11.8668,-14.4639,-0.200036,-7.54771,7.07145,-0.0014637,0.00611799,-0.00201714,4,0,41.37662897126332,-91.81600901508344,9994.573147011217,-96.38026935157016,1.518209432165466,-0.5110273973565891,193.608,9720.794529171932,12053.737931086003,150,True,17.324211275204934,False,159.77676892737173,176.33315775317737,False,23.791370485644524,True,False
1,1970-07-23 10:27:38.987852958,2025-09-12,2025-09-26 14:04:58.785,HH,C,1641748804,JASSM,3,105,76,2,2,1,225,9,2,0,1,26,0,0,0,0,-183016.99841483065,-4787126.627900924,4201714.690886021,-2.30145,-0.152631,0.128759,92.125,-14.0,-12.0,0.0,0.0,0.0,0.0,0.0,0.0,2,0,41.44380732695195,-92.18941298134146,10997.376129876484,99.8571846557966,-0.0065736480321182,0.002922122056902,,9720.794529171932,12053.737931086003,150,1,2025-09-12,2025-09-26 14:04:58.874,HH,C,27950372,AMBUSH51,1,1,48,2,1,1,225,2,1,0,0,9,1,225,2,1,-152098.25692311983,-4792937.326380117,4195897.559591822,2.29234,-3.0767,0.059586,-117.541,-12.4435,-13.9961,-0.234958,-7.82589,7.25248,-0.00178203,0.00402075,0.0055812,4,0,41.37641073969666,-91.81760454285686,10003.079532658876,-96.2228549998465,1.885087322926042,-0.3024464990800462,193.571,9720.794529171932,12053.737931086003,150,True,17.204555288593834,False,159.6753805071102,176.2905692615213,False,23.935044601807014,True,False
1,1970-07-23 10:27:38.998349462,2025-09-12,2025-09-26 14:04:59.834,HH,C,1643061174,JASSM,3,105,76,2,2,1,225,9,2,0,1,26,0,0,0,0,-182915.65564139312,-4787142.231416549,4201701.417448521,-2.30145,-0.152631,0.128759,92.125,-14.0,-12.0,0.0,0.0,0.0,0.0,0.0,0.0,2,0,41.44364796744885,-92.18819468189412,10997.379739784345,99.85799102896227,-0.0056466038094355,0.0029214626447688,,9720.794529171932,12053.737931086003,150,1,2025-09-12,2025-09-26 14:04:59.673,HH,C,28904770,AMBUSH51,1,1,48,2,1,1,225,2,1,0,0,9,1,225,2,1,-152192.16515452386,-4792947.131331203,4195886.556355682,2.29699,-3.07093,0.0574377,-117.397,-12.7221,-13.573,-0.297736,-7.83216,7.21096,-0.000708443,0.00953641,-0.00968413,4,0,41.37626040882495,-91.8187222934466,10010.679179153913,-96.35090960173024,2.214156625762936,-0.0597339469992305,193.412,9720.794529171932,12053.737931086003,150,True,17.102361204566463,False,159.70736692287738,176.2112584694943,False,23.973906300783995,True,False
1,1970-07-23 10:27:39.007191218,2025-09-12,2025-09-26 14:05:00.719,HH,C,1644134914,JASSM,3,105,76,2,2,1,225,9,2,0,1,26,0,0,0,0,-182832.73962576807,-4787154.995088424,4201690.554167271,-2.30145,-0.152631,0.128759,92.125,-14.0,-12.0,0.0,0.0,0.0,0.0,0.0,0.0,2,0,41.44351756796918,-92.18719790671778,10997.372928736138,99.85865077681444,-0.0048881202456962,0.0029209169360177,,9720.794529171932,12053.737931086003,150,1,2025-09-12,2025-09-26 14:05:00.841,HH,C,30296602,AMBUSH51,1,1,48,2,1,1,225,2,1,0,0,9,1,225,2,1,-152328.05773112012,-4792962.08630704,4195870.771474486,2.30048,-3.06823,0.0528239,-117.117,-13.2085,-13.0976,-0.150892,-7.54045,7.03897,0.0201932,0.00315938,0.00759937,4,0,41.3760392218004,-91.82033946477772,10023.86917053798,-96.25740695952278,2.506840088922533,0.1353324782459045,193.07,9720.794529171932,12053.737931086003,150,True,16.989480209169614,False,159.67024000161283,176.1020500832004,False,24.108306796882683,True,False
1,1970-07-23 10:27:39.017231276,2025-09-12,2025-09-26 14:05:01.723,HH,C,1645327676,JASSM,3,105,76,2,2,1,225,9,2,0,1,26,0,0,0,0,-182740.6331804556,-4787169.174775924,4201678.487761021,-2.30145,-0.152631,0.128759,92.125,-14.0,-12.0,0.0,0.0,0.0,0.0,0.0,0.0,2,0,41.44337270369055,-92.18609065284971,10997.374926328404,99.85938364655566,-0.0040455655408997,0.0029203096317895,,9720.794529171932,12053.737931086003,150,1,2025-09-12,2025-09-26 14:05:01.873,HH,C,31529368,AMBUSH51,1,1,48,2,1,1,225,2,1,0,0,9,1,225,2,1,-152449.50979377772,-4792975.854190769,4195857.226856391,2.4019,-3.06197,0.0472098,-116.799,-13.3485,-12.3688,-0.301225,-7.75377,6.99171,0.146288,0.00931586,-0.00410397,4,0,41.375842930722825,-91.82178462499172,10037.875866842982,-96.25599482883013,2.9890014122757904,5.928877604206377,192.911,9720.794529171932,12053.737931086003,150,True,16.878786989980085,False,159.82953626623757,176.00129483865265,False,24.03788834590389,True,False
1,1970-07-23 10:27:39.027616628,2025-09-12,2025-09-26 14:05:02.761,HH,C,1646520722,JASSM,3,105,76,2,2,1,225,9,2,0,1,26,0,0,0,0,-182648.5042742056,-4787183.356416549,4201666.419401646,-2.30145,-0.152631,0.128759,92.125,-14.0,-12.0,0.0,0.0,0.0,0.0,0.0,0.0,2,0,41.443227809051606,-92.18498313458208,10997.379910215155,99.8601166891886,-0.0032028085343694,0.0029197174500231,,9720.794529171932,12053.737931086003,150,1,2025-09-12,2025-09-26 14:05:02.673,HH,C,32483768,AMBUSH51,1,1,48,2,1,1,225,2,1,0,0,9,1,225,2,1,-152542.3654521268,-4792985.9765436575,4195847.721770006,2.4971,-3.06571,0.0403569,-116.749,-12.6458,-11.2836,-0.37377,-7.69521,7.18349,0.0944143,0.0101086,0.0223674,4,0,41.375700989152165,-91.8228896624078,10049.440357553787,-95.8205863856326,3.0911059090365707,11.415723178529612,192.484,9720.794529171932,12053.737931086003,150,False,16.78219300360471,False,160.42287159772167,175.92212775972115,False,23.517600208922836,True,False
