Subject_cm,Timestamp,SampleDate_cm,SampleTime_cm,Configuration_cm,Scenario_cm,DisTime_cm,MarkingTxt_cm,Application_cm,EntId_cm,Site_cm,ExerciseId_cm,ForceId_cm,Category_cm,Country_cm,Domain_cm,Kind_cm,Extra_cm,Specific_cm,Subcategory_cm,AltCategory_cm,AltCountry_cm,AltDomain_cm,AltKind_cm,ECEF_X_cm,ECEF_Y_cm,ECEF_Z_cm,OriPhi_cm,OriPsi_cm,OriTheta_cm,LinVelX_cm,LinVelY_cm,LinVelZ_cm,LinAccX_cm,LinAccY_cm,LinAccZ_cm,AngVelX_cm,AngVelY_cm,AngVelZ_cm,DrAlg_cm,Appearance_cm,Latitude_cm,Longitude_cm,Altitude_cm,Heading_cm,Pitch_cm,Roll_cm,CalibratedAirspeed_cm,CM_Altitude_Lead_cm,CM_Altitude_Wing_cm,CM_Airspeed_cm,Subject_ac,SampleDate_ac,SampleTime_ac,Configuration_ac,Scenario_ac,DisTime_ac,MarkingTxt_ac,Application_ac,EntId_ac,Site_ac,ExerciseId_ac,ForceId_ac,Category_ac,Country_ac,Domain_ac,Kind_ac,Extra_ac,Specific_ac,Subcategory_ac,AltCategory_ac,AltCountry_ac,AltDomain_ac,AltKind_ac,ECEF_X_ac,ECEF_Y_ac,ECEF_Z_ac,OriPhi_ac,OriPsi_ac,OriTheta_ac,LinVelX_ac,LinVelY_ac,LinVelZ_ac,LinAccX_ac,LinAccY_ac,LinAccZ_ac,AngVelX_ac,AngVelY_ac,AngVelZ_ac,DrAlg_ac,Appearance_ac,Latitude_ac,Longitude_ac,Altitude_ac,Heading_ac,Pitch_ac,Roll_ac,CalibratedAirspeed_ac,CM_Altitude_Lead_ac,CM_Altitude_Wing_ac,CM_Airspeed_ac,Bank_Angle_Condition,distance_nm,Distance_Condition,angle_between_vel,angle_between_pos,Cone_Condition,angle_between_pos_nose,Nose_Cone_Condition,Intercept_Criteria
1,1970-07-23 11:27:16.043306524,2025-09-16,2025-09-26 17:26:44.330,HA,D,1199791660,JASSM,3,102,76,2,2,1,225,9,2,0,1,26,0,0,0,0,-188311.1448992056,-4786080.715791549,4202206.542448521,-2.30155,-0.153302,0.128183,88.0,-13.5,-11.375,0.0,0.0,0.0,0.0,0.0,0.0,2,0,41.45212866087725,-92.25317373992392,10000.00340884386,99.81588766974056,-0.0046887473346502,0.0023912431051282,,9149.92074150536,10701.197747240783,150,1,2025-09-16,2025-09-26 17:26:44.532,HA,D,1592255388,AMBUSH51,1,1,48,2,1,1,225,2,1,0,0,9,1,225,2,1,-142361.20930374766,-4793546.579771074,4195152.457635297,2.29871,2.8493,-0.304068,-111.023,32.6512,34.2705,-0.239031,-7.36546,7.06895,0.000217422,-0.000556559,-0.00256017,4,0,41.36953431625204,-91.70109949253776,9150.609595326929,-67.14367989280164,0.6874343276772954,-1.842805017601577,196.003,9149.92074150536,10701.197747240783,150,True,25.316841604897714,False,168.12325291171499,178.57331253325077,False,10.52775795811021,True,False
1,1970-07-23 11:27:16.053346129,2025-09-16,2025-09-26 17:26:45.334,HA,D,1201042076,JASSM,3,102,76,2,2,1,225,9,2,0,1,26,0,0,0,0,-188218.8988054556,-4786094.977510299,4202194.511198521,-2.30155,-0.153302,0.128183,88.0,-13.5,-11.375,0.0,0.0,0.0,0.0,0.0,0.0,2,0,41.451984206558414,-92.25206443316856,9999.999728270985,99.81662202321368,-0.003844855622339,0.0023906544673444,,9149.92074150536,10701.197747240783,150,1,2025-09-16,2025-09-26 17:26:45.299,HA,D,1593170020,AMBUSH51,1,1,48,2,1,1,225,2,1,0,0,9,1,225,2,1,-142446.24734830688,-4793521.528741467,4195178.811909143,2.29837,2.85043,-0.30458,-111.234,32.2696,34.5121,-0.28947,-7.48203,7.01455,0.00868336,-0.00182364,0.00429747,4,0,41.36984624424076,-91.70212391979042,9152.3203393379,-67.16589817419774,0.7535171220993135,-1.842768101070322,196.113,9149.92074150536,10701.197747240783,150,True,25.21743791540098,False,168.17669639791146,178.5900977265043,False,10.483743693917198,True,False
1,1970-07-23 11:27:16.064208011,2025-09-16,2025-09-26 17:26:46.420,HA,D,1202294696,JASSM,3,102,76,2,2,1,225,9,2,0,1,26,0,0,0,0,-188126.49060233065,-4786109.264619674,4202182.458464146,-2.30155,-0.153302,0.128183,88.0,-13.5,-11.375,0.0,0.0,0.0,0.0,0.0,0.0,2,0,41.45183948340108,-92.2509531817454,10000.0006652463,99.81735766193324,-0.0029994800303886,0.0023900605839939,,9149.92074150536,10701.197747240783,150,1,2025-09-16,2025-09-26 17:26:46.299,HA,D,1594363020,AMBUSH51,1,1,48,2,1,1,225,2,1,0,0,9,1,225,2,1,-142556.4790592583,-4793489.294221274,4195213.252510943,2.30002,2.85537,-0.30626,-111.388,32.0436,34.6668,-0.148147,-7.4458,6.95948,0.0023854,0.00463244,-0.00403947,4,0,41.37025103622968,-91.70345177713,9155.734642539004,-67.2825540722616,1.016457666241315,-1.664994882176715,196.345,9149.92074150536,10701.197747240783,150,True,25.103477389019577,False,168.20761271557612,178.61299796042798,False,10.472302463878284,True,False
1,1970-07-23 11:27:16.074244371,2025-09-16,2025-09-26 17:26:47.424,HA,D,1203549264,JASSM,3,102,76,2,2,1,225,9,2,0,1,26,0,0,0,0,-188033.93591483065,-4786123.573213424,4202170.386198521,-2.30155,-0.153302,0.128183,88.0,-13.5,-11.375,0.0,0.0,0.0,0.0,0.0,0.0,2,0,41.45169452412313,-92.24984017427798,10000.002395908308,99.81809446102098,-0.0021527654332066,0.0023894696449949,,9149.92074150536,10701.197747240783,150,1,2025-09-16,2025-09-26 17:26:47.433,HA,D,1595715084,AMBUSH51,1,1,48,2,1,1,225,2,1,0,0,9,1,225,2,1,-142683.56590364815,-4793452.80159474,4195252.601827487,2.29229,2.84933,-0.30125,-111.68,32.0694,34.4201,-0.0599441,-6.63988,6.23283,-0.0173449,-0.0170619,-0.0146776,4,0,41.37071130168169,-91.70498245379832,9160.555777182455,-67.2644891489861,0.5805920374725679,-2.211261241409007,196.528,9149.92074150536,10701.197747240783,150,True,24.979846821605523,False,168.3421397890683,178.63930822202448,False,10.368962563046825,True,False
1,1970-07-23 11:27:16.084297943,2025-09-16,2025-09-26 17:26:48.429,HA,D,1204742312,JASSM,3,102,76,2,2,1,225,9,2,0,1,26,0,0,0,0,-187945.9222429556,-4786137.178682174,4202158.903776646,-2.30155,-0.153302,0.128183,88.0,-13.5,-11.375,0.0,0.0,0.0,0.0,0.0,0.0,2,0,41.45155665697324,-92.2487817794703,10000.000242035345,99.81879510514398,-0.0013475918927568,0.0023888977169724,,9149.92074150536,10701.197747240783,150,1,2025-09-16,2025-09-26 17:26:48.300,HA,D,1596749018,AMBUSH51,1,1,48,2,1,1,225,2,1,0,0,9,1,225,2,1,-142779.39060229185,-4793424.861116881,4195282.160554464,2.29181,2.84752,-0.297122,-111.859,32.4313,34.0492,-0.0838657,-6.58135,6.33574,-0.00395209,-0.00380645,0.00922016,4,0,41.37106010779684,-91.7061367635488,9162.911497293528,-67.36852544640377,0.346927767283162,-2.269693546228956,197.017,9149.92074150536,10701.197747240783,150,True,24.87661293791286,False,168.41159666005248,178.6587939237997,False,10.330653590311735,True,False
1,1970-07-23 11:27:16.095301404,2025-09-16,2025-09-26 17:26:49.530,HA,D,1205992856,JASSM,3,102,76,2,2,1,225,9,2,0,1,26,0,0,0,0,-187853.66638358065,-4786151.438447799,4202146.868620396,-2.30155,-0.153302,0.128183,88.0,-13.5,-11.375,0.0,0.0,0.0,0.0,0.0,0.0,2,0,41.45141214784984,-92.24767237639593,10000.00034254974,99.81952951404358,-0.0005036124459829,0.0023883114625891,,9149.92074150536,10701.197747240783,150,1,2025-09-16,2025-09-26 17:26:49.500,HA,D,1598180616,AMBUSH51,1,1,48,2,1,1,225,2,1,0,0,9,1,225,2,1,-142914.19357997732,-4793385.341313821,4195322.96033225,2.2878,2.84945,-0.294696,-112.161,32.611,33.6908,-0.236531,-7.07229,6.71416,-0.0137995,-0.00315314,-0.0178817,4,0,41.37154676496176,-91.70776070451691,9164.011344467915,-67.54317291397334,0.3290209787667393,-2.468312980108492,197.396,9149.92074150536,10701.197747240783,150,True,24.748735015800406,False,168.54287733399732,178.6864117440378,False,10.23720283200055,True,False
1,1970-07-23 11:27:16.105339792,2025-09-16,2025-09-26 17:26:50.533,HA,D,1207245916,JASSM,3,102,76,2,2,1,225,9,2,0,1,26,0,0,0,0,-187761.2230242056,-4786165.725557174,4202134.808073521,-2.30145,-0.153206,0.128279,88.0,-13.5,-11.375,0.0,0.0,0.0,0.0,0.0,0.0,2,0,41.45126733776522,-92.24656072428785,9999.998961032878,99.82071955949128,-0.0073812815405585,0.0071767032494428,,9149.92074150536,10701.197747240783,150,1,2025-09-16,2025-09-26 17:26:50.568,HA,D,1599453148,AMBUSH51,1,1,48,2,1,1,225,2,1,0,0,9,1,225,2,1,-143034.1616706352,-4793350.145326024,4195359.121509705,2.29155,2.85254,-0.295084,-112.5,32.4277,33.7453,-0.191461,-7.29851,6.86543,0.00151363,-0.0012702,-0.00478017,4,0,41.37197899324807,-91.70920596218066,9164.614852808783,-67.64466699683723,0.4683075641105813,-2.202726049352714,197.726,9149.92074150536,10701.197747240783,150,True,24.629276164679954,False,168.63382773808308,178.71067963970896,False,10.169272809652453,True,False
1,1970-07-23 11:27:16.116359501,2025-09-16,2025-09-26 17:26:51.635,HA,D,1208500230,JASSM,3,102,76,2,2,1,225,9,2,0,1,26,0,0,0,0,-187668.68982108065,-4786180.026338424,4202122.733854771,-2.30145,-0.153206,0.128279,88.0,-13.5,-11.375,0.0,0.0,0.0,0.0,0.0,0.0,2,0,41.451122364295465,-92.24544799684028,9999.997391415129,99.82145616492554,-0.0065347640443452,0.0071761134623942,,9149.92074150536,10701.197747240783,150,1,2025-09-16,2025-09-26 17:26:51.433,HA,D,1600487080,AMBUSH51,1,1,48,2,1,1,225,2,1,0,0,9,1,225,2,1,-143130.86273164907,-4793321.97640468,4195388.3323121965,2.29979,2.85675,-0.295709,-112.598,32.4062,33.6878,0.0150976,-7.18278,6.78839,0.0115733,0.0064488,0.000591929,4,0,41.37232660956487,-91.71037086371,9165.738669379263,-67.77808005309117,0.6612691334347854,-1.661637025943919,198.068,9149.92074150536,10701.197747240783,150,True,24.52312319165859,False,168.67693603178455,178.72985951076276,False,10.147915938211174,True,False
1,1970-07-23 11:27:16.126238801,2025-09-16,2025-09-26 17:26:52.623,HA,D,1209750758,JASSM,3,102,76,2,2,1,225,9,2,0,1,26,0,0,0,0,-187576.4339617056,-4786194.284150924,4202110.696745396,-2.30145,-0.153206,0.128279,88.0,-13.5,-11.375,0.0,0.0,0.0,0.0,0.0,0.0,2,0,41.450977821464406,-92.24433860948048,10000.00212011704,99.82219055717192,-0.0056907849417254,0.0071755321326921,,9149.92074150536,10701.197747240783,150,1,2025-09-16,2025-09-26 17:26:52.600,HA,D,1601878912,AMBUSH51,1,1,48,2,1,1,225,2,1,0,0,9,1,225,2,1,-143261.67130722734,-4793284.396244892,4195427.527312262,2.30625,2.85766,-0.297883,-112.911,32.1838,33.8158,-0.151051,-7.3767,6.86219,0.00719782,0.000440046,0.000369306,4,0,41.37279154496346,-91.71194647107198,9167.866739382329,-67.72317807863831,0.784615624529051,-1.2757839053213371,198.398,9149.92074150536,10701.197747240783,150,True,24.39764642454691,False,168.7466835666618,178.75625253148192,False,10.10191371247094,True,False
1,1970-07-23 11:27:16.136298518,2025-09-16,2025-09-26 17:26:53.629,HA,D,1210946174,JASSM,3,102,76,2,2,1,225,9,2,0,1,26,0,0,0,0,-187488.24450858065,-4786207.911104049,4202099.188932896,-2.30145,-0.153206,0.128279,88.0,-13.5,-11.375,0.0,0.0,0.0,0.0,0.0,0.0,2,0,41.45083964550753,-92.24327812685912,10000.002213646518,99.82289257348992,-0.0048840081181084,0.0071749819532839,,9149.92074150536,10701.197747240783,150,1,2025-09-16,2025-09-26 17:26:53.578,HA,D,1603032144,AMBUSH51,1,1,48,2,1,1,225,2,1,0,0,9,1,225,2,1,-143371.9231328053,-4793252.884637632,4195460.657439456,2.31124,2.85743,-0.298507,-113.077,31.957,34.069,-0.18634,-7.21764,6.87386,0.00498406,0.00434532,0.00087489,4,0,41.37318306980114,-91.71327442856877,9170.27426977654,-67.68905852706709,0.8007664026512645,-0.9929878149056176,198.472,9149.92074150536,10701.197747240783,150,True,24.28618040815961,False,168.74590122137755,178.7783976942117,False,10.120351841618485,True,False
1,1970-07-23 11:27:16.147297305,2025-09-16,2025-09-26 17:26:54.729,HA,D,1212196762,JASSM,3,102,76,2,2,1,225,9,2,0,1,26,0,0,0,0,-187395.9847429556,-4786222.166963424,4202087.147917271,-2.30145,-0.153206,0.128279,88.0,-13.5,-11.375,0.0,0.0,0.0,0.0,0.0,0.0,2,0,41.45069506793272,-92.2421687033582,10000.002180646898,99.82362698554152,-0.0040399928111942,0.0071743927878441,,9149.92074150536,10701.197747240783,150,1,2025-09-16,2025-09-26 17:26:54.766,HA,D,1604463742,AMBUSH51,1,1,48,2,1,1,225,2,1,0,0,9,1,225,2,1,-143507.74425314102,-4793214.241418019,4195501.455402753,2.32308,2.85569,-0.300099,-113.273,32.0175,34.1532,-0.0876336,-7.03742,6.76107,0.00620954,-0.00113496,8.63447e-05,4,0,41.37366422000956,-91.71491032062356,9173.65063292666,-67.55857932447185,0.7957646800393516,-0.3424631644193037,198.814,9149.92074150536,10701.197747240783,150,True,24.157865642830643,False,168.73578904941692,178.80616440623132,False,10.161085734461032,True,False
1,1970-07-23 11:27:16.157339333,2025-09-16,2025-09-26 17:26:55.733,HA,D,1213450024,JASSM,3,102,76,2,2,1,225,9,2,0,1,26,0,0,0,0,-187303.5277117056,-4786236.452119674,4202075.081511021,-2.30145,-0.153206,0.128279,88.0,-13.5,-11.375,0.0,0.0,0.0,0.0,0.0,0.0,2,0,41.45055017993642,-92.241056913235,10000.004571988797,99.82436296212664,-0.0031941748687106,0.0071738115567843,,9149.92074150536,10701.197747240783,150,1,2025-09-16,2025-09-26 17:26:55.767,HA,D,1605656742,AMBUSH51,1,1,48,2,1,1,225,2,1,0,0,9,1,225,2,1,-143621.06593121565,-4793181.877775556,4195535.6044933945,2.32971,2.85653,-0.300511,-113.392,32.1273,34.3098,-0.0578031,-7.33002,6.71066,0.00258722,-0.00468654,0.000606493,4,0,41.37406711159384,-91.71627528069948,9176.413767902612,-67.5740815327106,0.8466585131894636,0.0516415804944186,198.777,9149.92074150536,10701.197747240783,150,True,24.04230605443013,False,168.67425919091409,178.82922323162828,False,10.24817862171142,True,False
1,1970-07-23 11:27:16.168359159,2025-09-16,2025-09-26 17:26:56.835,HA,D,1214761558,JASSM,3,102,76,2,2,1,225,9,2,0,1,26,0,0,0,0,-187206.77185233065,-4786251.399385299,4202062.450651646,-2.30145,-0.153206,0.128279,88.0,-13.5,-11.375,0.0,0.0,0.0,0.0,0.0,0.0,2,0,41.45039853314116,-92.23989343624083,9999.999414841815,99.82513315183115,-0.002309029147201,0.0071731926269147,,9149.92074150536,10701.197747240783,150,1,2025-09-16,2025-09-26 17:26:56.667,HA,D,1606730440,AMBUSH51,1,1,48,2,1,1,225,2,1,0,0,9,1,225,2,1,-143722.3728031507,-4793152.844018385,4195566.416006426,2.32711,2.85534,-0.303433,-113.477,32.253,34.5238,-0.178205,-7.33667,6.77102,-0.00818194,-0.00640511,0.00204002,4,0,41.37442978795579,-91.71749557266578,9179.254669901846,-67.40845975750909,0.9153982193449816,-0.1149036901451772,199.217,9149.92074150536,10701.197747240783,150,True,23.931240716694344,False,168.58278790041464,178.8499594378588,False,10.362312937525774,True,False
1,1970-07-23 11:27:16.179220690,2025-09-16,2025-09-26 17:26:57.922,HA,D,1216014292,JASSM,3,102,76,2,2,1,225,9,2,0,1,26,0,0,0,0,-187114.35388358065,-4786265.676729049,4202050.388151646,-2.30145,-0.153206,0.128279,88.0,-13.5,-11.375,0.0,0.0,0.0,0.0,0.0,0.0,2,0,41.4502536869149,-92.2387821267934,10000.00419495286,99.82586880589292,-0.0014635695610834,0.0071726139540476,,9149.92074150536,10701.197747240783,150,1,2025-09-16,2025-09-26 17:26:57.800,HA,D,1608082506,AMBUSH51,1,1,48,2,1,1,225,2,1,0,0,9,1,225,2,1,-143851.82037461983,-4793115.876700497,4195605.690826244,2.29786,2.85238,-0.302173,-113.635,32.3858,34.4739,-0.107332,-7.12454,6.50799,-0.0381175,-0.00201298,-0.000371386,4,0,41.37489176297719,-91.71905480560666,9183.01001576522,-67.35027984739656,0.749288458791981,-1.8409414439223963,199.742,9149.92074150536,10701.197747240783,150,True,23.806460286777064,False,168.59478881023375,178.87717290831958,False,10.38353205285666,True,False
1,1970-07-23 11:27:16.189258784,2025-09-16,2025-09-26 17:26:58.925,HA,D,1217268242,JASSM,3,102,76,2,2,1,225,9,2,0,1,26,0,0,0,0,-187021.84607108065,-4786279.965791549,4202038.310026646,-2.30145,-0.15311,0.128279,88.0,-13.5,-11.375,0.0,0.0,0.0,0.0,0.0,0.0,2,0,41.45010867568888,-92.2376697429522,9999.999774507118,99.82296889438484,-0.0046742188968002,0.0064694598166739,,9149.92074150536,10701.197747240783,150,1,2025-09-16,2025-09-26 17:26:58.967,HA,D,1609474338,AMBUSH51,1,1,48,2,1,1,225,2,1,0,0,9,1,225,2,1,-143983.5834069707,-4793078.197754951,4195645.607263937,2.27152,2.85541,-0.300147,-113.889,32.244,34.2893,-0.011004,-7.1823,6.75335,-0.00208788,0.00215029,-0.00791978,4,0,41.37536186785252,-91.7206419690959,9186.586853182527,-67.54991695965563,0.7912930548866771,-3.3007759256932423,200.146,9149.92074150536,10701.197747240783,150,True,23.680311367286922,False,168.73986355609773,178.90495555101174,False,10.269871210854129,True,False
1,1970-07-23 11:27:16.200275886,2025-09-16,2025-09-26 17:27:00.027,HA,D,1218579732,JASSM,3,102,76,2,2,1,225,9,2,0,1,26,0,0,0,0,-186925.09216483065,-4786294.909150924,4202025.679167271,-2.30145,-0.15311,0.128279,88.0,-13.5,-11.375,0.0,0.0,0.0,0.0,0.0,0.0,2,0,41.44995701742549,-92.23650630690392,9999.999772270476,99.82373905028332,-0.0037890956264816,0.0064688038264613,,9149.92074150536,10701.197747240783,150,1,2025-09-16,2025-09-26 17:27:00.099,HA,D,1610826402,AMBUSH51,1,1,48,2,1,1,225,2,1,0,0,9,1,225,2,1,-144113.45913222578,-4793041.274602241,4195684.701894936,2.28267,2.85762,-0.297079,-114.191,32.1261,34.0312,-0.298365,-7.10036,6.77986,0.0177901,-0.0152039,0.0168497,4,0,41.37582224374776,-91.72220634309208,9190.112180946286,-67.76171431598661,0.7594299525839339,-2.6277906928042767,200.476,9149.92074150536,10701.197747240783,150,True,23.552958421579486,False,168.91249621324468,178.9319219001289,False,10.129286814380219,True,False
1,1970-07-23 11:27:16.211296187,2025-09-16,2025-09-26 17:27:01.129,HA,D,1219834404,JASSM,3,102,76,2,2,1,225,9,2,0,1,26,0,0,0,0,-186832.5316179556,-4786309.204072799,4202013.593229771,-2.30145,-0.15311,0.128375,88.0,-13.5,-11.375,0.0,0.0,0.0,0.0,0.0,0.0,2,0,41.44981190886049,-92.23539330015466,9999.997081557862,99.82856638639625,-0.0066087066069687,0.0064678231892604,,9149.92074150536,10701.197747240783,150,1,2025-09-16,2025-09-26 17:27:01.066,HA,D,1611979634,AMBUSH51,1,1,48,2,1,1,225,2,1,0,0,9,1,225,2,1,-144222.96125276494,-4793010.30975768,4195717.269578756,2.29421,2.85623,-0.297625,-114.367,32.0654,33.8234,-0.105497,-7.0626,6.47553,0.0253677,-0.00544596,-0.00274743,4,0,41.37620673361986,-91.72352527075664,9192.646475728772,-67.68751961918349,0.7267098745343958,-1.98908812091732,200.659,9149.92074150536,10701.197747240783,150,True,23.439609347674025,False,169.0307139794287,178.95392744489303,False,10.038220244587459,True,False
1,1970-07-23 11:27:16.222335793,2025-09-16,2025-09-26 17:27:02.233,HA,D,1221145022,JASSM,3,102,76,2,2,1,225,9,2,0,1,26,0,0,0,0,-186735.84216483065,-4786324.137666549,4202000.968229771,-2.30145,-0.15311,0.128375,88.0,-13.5,-11.375,0.0,0.0,0.0,0.0,0.0,0.0,2,0,41.44966031025661,-92.23423064964318,10000.001776484054,99.82933601779956,-0.0057241696773216,0.0064672126209327,,9149.92074150536,10701.197747240783,150,1,2025-09-16,2025-09-26 17:27:02.167,HA,D,1613291934,AMBUSH51,1,1,48,2,1,1,225,2,1,0,0,9,1,225,2,1,-144349.76312482587,-4792974.539967812,4195754.430368096,2.31108,2.85228,-0.292333,-114.642,32.2547,33.5545,-0.0900178,-6.89244,6.32539,0.0066423,-0.00521293,0.00394585,4,0,41.37664770192799,-91.7250525576166,9194.607006319682,-67.75977430422849,0.3624064224218472,-1.0886630669200423,200.916,9149.92074150536,10701.197747240783,150,True,23.31416058355214,False,169.12244598512706,178.97896848008912,False,9.982618076333456,True,False
1,1970-07-23 11:27:16.233356206,2025-09-16,2025-09-26 17:27:03.335,HA,D,1222456774,JASSM,3,102,76,2,2,1,225,9,2,0,1,26,0,0,0,0,-186639.0706804556,-4786339.081025924,4201988.331511021,-2.30145,-0.15311,0.128375,88.0,-13.5,-11.375,0.0,0.0,0.0,0.0,0.0,0.0,2,0,41.449508581757335,-92.23306701951454,10000.002153779707,99.83010629535396,-0.0048388850749712,0.006466611652031,,9149.92074150536,10701.197747240783,150,1,2025-09-16,2025-09-26 17:27:03.333,HA,D,1614683766,AMBUSH51,1,1,48,2,1,1,225,2,1,0,0,9,1,225,2,1,-144483.67363354246,-4792936.005407701,4195793.695246103,2.32747,2.83855,-0.291367,-114.92,32.3853,33.8097,-0.130163,-6.59798,6.23054,0.015566,-0.00812576,0.0215456,4,0,41.377118026037245,-91.7266657611937,9194.864157415612,-67.28122918120374,-0.2199444723117695,-0.3754097718743799,201.294,9149.92074150536,10701.197747240783,150,True,23.18454749444439,False,169.04950314151617,179.00572809787386,False,10.08631763036827,True,False
1,1970-07-23 11:27:16.244218246,2025-09-16,2025-09-26 17:27:04.421,HA,D,1223767416,JASSM,3,102,76,2,2,1,225,9,2,0,1,26,0,0,0,0,-186542.3792742056,-4786354.010713424,4201975.704557896,-2.30145,-0.15311,0.128375,88.0,-13.5,-11.375,0.0,0.0,0.0,0.0,0.0,0.0,2,0,41.449356970167145,-92.23190435831113,10000.002818388995,99.83087592920144,-0.0039543340009382,0.0064660141252806,,9149.92074150536,10701.197747240783,150,1,2025-09-16,2025-09-26 17:27:04.367,HA,D,1615916530,AMBUSH51,1,1,48,2,1,1,225,2,1,0,0,9,1,225,2,1,-144601.7467551799,-4792901.511202943,4195827.785305017,2.35777,2.83671,-0.284973,-115.159,33.6461,33.1132,-0.102213,-6.75264,6.33253,0.0174094,-0.00859182,-0.000417159,4,0,41.377532195378286,-91.72808837926316,9192.675840538264,-67.47692507818218,-0.5451500091715971,1.332250099640376,201.844,9149.92074150536,10701.197747240783,150,True,23.064035148767342,False,168.98608447533155,179.0284437239069,False,10.210254698185143,True,False
1,1970-07-23 11:27:16.255236461,2025-09-16,2025-09-26 17:27:05.523,HA,D,1225081394,JASSM,3,102,76,2,2,1,225,9,2,0,1,26,0,0,0,0,-186445.44372733065,-4786368.977510299,4201963.042448521,-2.30145,-0.15311,0.128375,88.0,-13.5,-11.375,0.0,0.0,0.0,0.0,0.0,0.0,2,0,41.44920494537883,-92.23073876715851,9999.999947030965,99.83164750023154,-0.0030675464875262,0.0064653966944556,,9149.92074150536,10701.197747240783,150,1,2025-09-16,2025-09-26 17:27:05.500,HA,D,1617268596,AMBUSH51,1,1,48,2,1,1,225,2,1,0,0,9,1,225,2,1,-144732.97896027644,-4792862.674351437,4195865.41202866,2.36646,2.82971,-0.290344,-115.325,34.247,33.2386,-0.188791,-7.14689,6.69315,0.00593282,-0.00301166,0.00386887,4,0,41.37799369241169,-91.7296697473688,9188.457692514745,-66.98930239495118,-0.608584788799762,1.7112777956881606,202.394,9149.92074150536,10701.197747240783,150,True,22.935850735234087,False,168.80719175579898,179.053539892643,False,10.43003714865748,True,False
1,1970-07-23 11:27:16.266259438,2025-09-16,2025-09-26 17:27:06.625,HA,D,1226395846,JASSM,3,102,76,2,2,1,225,9,2,0,1,26,0,0,0,0,-186348.47107108065,-4786383.948213424,4201950.376432896,-2.30145,-0.15311,0.128375,88.0,-13.5,-11.375,0.0,0.0,0.0,0.0,0.0,0.0,2,0,41.44905286777416,-92.22957273608203,9999.999662647571,99.83241936014257,-0.002180423030284,0.0064647958236969,,9149.92074150536,10701.197747240783,150,1,2025-09-16,2025-09-26 17:27:06.535,HA,D,1618501362,AMBUSH51,1,1,48,2,1,1,225,2,1,0,0,9,1,225,2,1,-144851.32692183595,-4792827.066175476,4195899.750575008,2.38256,2.82476,-0.292246,-115.439,34.6395,33.738,-0.347677,-7.23466,6.65089,0.00765347,0.00440358,0.0144112,4,0,41.37841607783085,-91.73109608899678,9184.10525640351,-66.72333784801704,-0.7275069730096997,2.549396407796261,202.932,9149.92074150536,10701.197747240783,150,True,22.8149398110685,False,168.5587166897464,179.07642271171187,False,10.707518798605012,True,False
1,1970-07-23 11:27:16.277300181,2025-09-16,2025-09-26 17:27:07.730,HA,D,1227766122,JASSM,3,102,76,2,2,1,225,9,2,0,1,26,0,0,0,0,-186247.38122733065,-4786399.553682174,4201937.171354771,-2.30145,-0.153015,0.128375,88.0,-13.5,-11.375,0.0,0.0,0.0,0.0,0.0,0.0,2,0,41.448894317083,-92.22835720478324,9999.999810488926,99.82958780493662,-0.0053125615770375,0.0057611223752688,,9149.92074150536,10701.197747240783,150,1,2025-09-16,2025-09-26 17:27:07.867,HA,D,1620092026,AMBUSH51,1,1,48,2,1,1,225,2,1,0,0,9,1,225,2,1,-145005.481485553,-4792780.183187319,4195944.728779078,2.38515,2.81813,-0.296663,-115.655,35.3378,34.2195,-0.171866,-7.26681,6.64665,0.00857517,-0.00500903,0.0114235,4,0,41.37897090408158,-91.73295418518155,9177.757866969863,-66.29008302542302,-0.8113732084378327,2.581636383839973,203.702,9149.92074150536,10701.197747240783,150,True,22.67122474820307,False,168.2502644698271,179.10677880899055,False,11.061107208651134,True,False
1,1970-07-23 11:27:16.289316737,2025-09-16,2025-09-26 17:27:08.931,HA,D,1229140136,JASSM,3,102,76,2,2,1,225,9,2,0,1,26,0,0,0,0,-186146.0159929556,-4786415.200166549,4201923.929167271,-2.30145,-0.153015,0.128375,88.0,-13.5,-11.375,0.0,0.0,0.0,0.0,0.0,0.0,2,0,41.44873532281474,-92.22713836875336,9999.99929706984,99.8303946143635,-0.0043852543936087,0.0057604327639209,,9149.92074150536,10701.197747240783,150,1,2025-09-16,2025-09-26 17:27:09.001,HA,D,1621444092,AMBUSH51,1,1,48,2,1,1,225,2,1,0,0,9,1,225,2,1,-145136.43949055672,-4792739.828194244,4195983.659034452,2.38802,2.81407,-0.302145,-115.725,35.9037,34.7241,-0.141363,-7.33378,6.79104,-0.0171077,0.00704593,0.0143218,4,0,41.3794502150941,-91.73453289874556,9172.64264054243,-65.9107447399527,-0.7511963834337683,2.672466854756008,204.423,9149.92074150536,10701.197747240783,150,True,22.540554825412826,False,167.94740256112064,179.13285296696574,False,11.401663223014962,True,False
1,1970-07-23 11:27:16.300335735,2025-09-16,2025-09-26 17:27:10.033,HA,D,1230452398,JASSM,3,102,76,2,2,1,225,9,2,0,1,26,0,0,0,0,-186049.20544608065,-4786430.143525924,4201911.280729771,-2.30145,-0.153015,0.128375,88.0,-13.5,-11.375,0.0,0.0,0.0,0.0,0.0,0.0,2,0,41.44858345254354,-92.22597430479642,10000.000998301077,99.8311651649986,-0.0034996129198218,0.0057597661069191,,9149.92074150536,10701.197747240783,150,1,2025-09-16,2025-09-26 17:27:10.100,HA,D,1622756390,AMBUSH51,1,1,48,2,1,1,225,2,1,0,0,9,1,225,2,1,-145264.2857100981,-4792699.725087792,4196022.580237545,2.37462,2.80783,-0.308969,-115.775,36.1659,35.466,0.00324161,-7.37298,6.72445,-0.0206676,0.00214197,0.000583607,4,0,41.37992850648504,-91.73607437843626,9167.905923103428,-65.39377362512653,-0.7216885457072257,1.790278160031992,204.887,9149.92074150536,10701.197747240783,150,True,22.414048281862442,False,167.65276706607975,179.15913597000005,False,11.726729866310466,True,False
1,1970-07-23 11:27:16.311372952,2025-09-16,2025-09-26 17:27:11.137,HA,D,1231822224,JASSM,3,102,76,2,2,1,225,9,2,0,1,26,0,0,0,0,-185948.1488054556,-4786445.739229049,4201898.077604771,-2.30145,-0.153015,0.128471,88.0,-13.5,-11.375,0.0,0.0,0.0,0.0,0.0,0.0,2,0,41.44842492744836,-92.22475919241438,10000.000728703348,99.83606011486395,-0.0062414554045798,0.0057587737249171,,9149.92074150536,10701.197747240783,150,1,2025-09-16,2025-09-26 17:27:10.966,HA,D,1623790322,AMBUSH51,1,1,48,2,1,1,225,2,1,0,0,9,1,225,2,1,-145363.58785159205,-4792668.497708514,4196053.142504636,2.36794,2.80749,-0.31531,-115.793,36.3143,35.8943,-0.0102567,-7.42101,6.83693,-0.0163379,0.00442438,-0.00176538,4,0,41.380302695297885,-91.73727173807296,9164.759405076862,-65.12132335225543,-0.4804903996269004,1.3989341878569268,205.217,9149.92074150536,10701.197747240783,150,True,22.301581605353462,False,167.48150816181473,179.17912125098735,False,11.923549313772996,True,False
1,1970-07-23 11:27:16.322236120,2025-09-16,2025-09-26 17:27:12.223,HA,D,1233134466,JASSM,3,102,76,2,2,1,225,9,2,0,1,26,0,0,0,0,-185851.33825858065,-4786460.678682174,4201885.427214146,-2.30145,-0.153015,0.128471,88.0,-13.5,-11.375,0.0,0.0,0.0,0.0,0.0,0.0,2,0,41.44827304317317,-92.22359514136852,9999.99882695359,99.83683065223994,-0.0053558168989641,0.0057581799032649,,9149.92074150536,10701.197747240783,150,1,2025-09-16,2025-09-26 17:27:12.067,HA,D,1625102620,AMBUSH51,1,1,48,2,1,1,225,2,1,0,0,9,1,225,2,1,-145490.6980772249,-4792628.185913774,4196092.910574176,2.36262,2.80722,-0.318612,-115.83,36.4988,36.4292,-0.0744197,-7.30009,6.79872,-0.00807375,0.00370242,-0.00573308,4,0,41.38078804315431,-91.73880454413094,9161.308701791757,-64.9767903218959,-0.3575227041960285,1.0882312482724703,205.792,9149.92074150536,10701.197747240783,150,True,22.17539809794461,False,167.2705170151431,179.20556192012637,False,12.169291424395338,True,False
1,1970-07-23 11:27:16.333255009,2025-09-16,2025-09-26 17:27:13.325,HA,D,1234447458,JASSM,3,102,76,2,2,1,225,9,2,0,1,26,0,0,0,0,-185754.47497733065,-4786475.625947799,4201872.769011021,-2.30145,-0.153015,0.128471,88.0,-13.5,-11.375,0.0,0.0,0.0,0.0,0.0,0.0,2,0,41.448121060091374,-92.22243046182918,9999.999136373914,99.83760160332008,-0.0044696953274111,0.0057575814759752,,9149.92074150536,10701.197747240783,150,1,2025-09-16,2025-09-26 17:27:13.333,HA,D,1626613752,AMBUSH51,1,1,48,2,1,1,225,2,1,0,0,9,1,225,2,1,-145638.0531898334,-4792581.492812783,4196139.521209202,2.3596,2.8035,-0.321511,-115.918,35.4771,37.9273,-0.0936072,-7.09647,6.59531,-0.00587248,0.00502568,0.00960507,4,0,41.38135386939671,-91.74058149564934,9158.520504982576,-64.71780497160177,-0.3847232624849013,0.846543827059547,206.366,9149.92074150536,10701.197747240783,150,True,22.037520926101536,False,167.0645967377879,179.23612805891938,False,12.387308588861451,True,False
1,1970-07-23 11:27:16.344297783,2025-09-16,2025-09-26 17:27:14.429,HA,D,1235761542,JASSM,3,102,76,2,2,1,225,9,2,0,1,26,0,0,0,0,-185657.52966483065,-4786490.584932174,4201860.099089146,-2.30145,-0.153015,0.128471,88.0,-13.5,-11.375,0.0,0.0,0.0,0.0,0.0,0.0,2,0,41.44796893534494,-92.22126480182912,9999.999988414933,99.83837320108104,-0.0035828234232611,0.0057569813140267,,9149.92074150536,10701.197747240783,150,1,2025-09-16,2025-09-26 17:27:14.500,HA,D,1628005584,AMBUSH51,1,1,48,2,1,1,225,2,1,0,0,9,1,225,2,1,-145772.93197436258,-4792537.558241813,4196182.722516763,2.35949,2.79968,-0.32291,-115.914,37.3052,37.0997,-0.244545,-7.26698,6.48316,-0.00220023,0.00100181,0.0046907,4,0,41.38188249726254,-91.74220845697305,9154.204964356026,-64.5164581234854,-0.4756269527752493,0.7696634901357206,206.72,9149.92074150536,10701.197747240783,150,True,21.90665161559743,False,166.86061753786217,179.26324943498676,False,12.674089117585824,True,False
1,1970-07-23 11:27:16.356356725,2025-09-16,2025-09-26 17:27:15.635,HA,D,1237073642,JASSM,3,102,76,2,2,1,225,9,2,0,1,26,0,0,0,0,-185560.7308367056,-4786505.520479049,4201847.446745396,-2.30145,-0.153015,0.128471,88.0,-13.5,-11.375,0.0,0.0,0.0,0.0,0.0,0.0,2,0,41.44781702307357,-92.22010090896195,10000.000398914925,99.8391436267813,-0.0026972908885268,0.0057563764492911,,9149.92074150536,10701.197747240783,150,1,2025-09-16,2025-09-26 17:27:15.799,HA,D,1629556482,AMBUSH51,1,1,48,2,1,1,225,2,1,0,0,9,1,225,2,1,-145923.36111722,-4792488.544527751,4196231.1357515305,2.35826,2.7994,-0.32267,-115.773,37.6235,37.325,-0.0833945,-7.4326,6.49526,-0.00660485,0.0153891,-0.00155941,4,0,41.38247368808408,-91.74402302979294,9149.872512230964,-64.51676564194416,-0.4947635038811301,0.6940855835026728,206.684,9149.92074150536,10701.197747240783,150,True,21.766900236279888,False,166.67929236006933,179.29216934405744,False,12.908362593481943,True,False
1,1970-07-23 11:27:16.366259386,2025-09-16,2025-09-26 17:27:16.625,HA,D,1238383894,JASSM,3,102,76,2,2,1,225,9,2,0,1,26,0,0,0,0,-185464.06872733065,-4786520.432588424,4201834.811979771,-2.30145,-0.153015,0.128471,88.0,-13.5,-11.375,0.0,0.0,0.0,0.0,0.0,0.0,2,0,41.44766532558327,-92.2189386664818,9999.999415300144,99.83991295770856,-0.0018130119051175,0.0057557840529592,,9149.92074150536,10701.197747240783,150,1,2025-09-16,2025-09-26 17:27:16.466,HA,D,1630351816,AMBUSH51,1,1,48,2,1,1,225,2,1,0,0,9,1,225,2,1,-145999.73308828988,-4792463.467715172,4196255.881711822,2.35906,2.79204,-0.320117,-115.726,37.8712,37.3697,-0.308341,-6.85464,5.95134,0.00298461,-0.0190031,0.0101481,4,0,41.38277609481965,-91.7449443605376,9147.565727592264,-64.34115931070814,-0.8820395793019792,0.6042266375406339,206.61,9149.92074150536,10701.197747240783,150,True,21.669870906847425,False,166.59018155104337,179.30539995702858,False,13.026794165339718,True,False
1,1970-07-23 11:27:16.377274868,2025-09-16,2025-09-26 17:27:17.727,HA,D,1239696874,JASSM,3,102,76,2,2,1,225,9,2,0,1,26,0,0,0,0,-185367.20544608065,-4786535.375947799,4201822.149870396,-2.30145,-0.152919,0.128471,88.0,-13.5,-11.375,0.0,0.0,0.0,0.0,0.0,0.0,2,0,41.447513292246654,-92.21777401049044,10000.001690501713,99.83704779959412,-0.0049838129813666,0.0050515956652715,,9149.92074150536,10701.197747240783,150,1,2025-09-16,2025-09-26 17:27:17.699,HA,D,1631823180,AMBUSH51,1,1,48,2,1,1,225,2,1,0,0,9,1,225,2,1,-146143.29529642747,-4792415.77240333,4196301.656638303,2.36513,2.78559,-0.316824,-115.701,38.8285,36.8513,-0.0883415,-6.95751,6.12672,0.00238332,-0.00681499,-8.63447e-05,4,0,41.383342831480654,-91.74667648243872,9140.260798508169,-64.22999755667969,-1.2630617709755922,0.8345060635886477,206.757,9149.92074150536,10701.197747240783,150,True,21.53402111983117,False,166.47914230824856,179.32852317840067,False,13.209282014704064,True,False
1,1970-07-23 11:27:16.388294097,2025-09-16,2025-09-26 17:27:18.829,HA,D,1241009128,JASSM,3,102,76,2,2,1,225,9,2,0,1,26,0,0,0,0,-185270.3948992056,-4786550.307588424,4201809.493620396,-2.30145,-0.152919,0.128471,88.0,-13.5,-11.375,0.0,0.0,0.0,0.0,0.0,0.0,2,0,41.44736134424927,-92.21660999565351,9999.997923509552,99.83781829910993,-0.0040981782402467,0.0050509517826243,,9149.92074150536,10701.197747240783,150,1,2025-09-16,2025-09-26 17:27:18.933,HA,D,1633294546,AMBUSH51,1,1,48,2,1,1,225,2,1,0,0,9,1,225,2,1,-146285.09463678082,-4792367.759684726,4196346.847355066,2.36959,2.77974,-0.317386,-115.674,39.2375,36.9265,-0.0913428,-7.09133,6.08336,0.0111593,0.00304703,0.00781992,4,0,41.38390780509948,-91.74838769477508,9130.788202123003,-63.984073836668216,-1.4652152662458366,0.9794993072654292,206.83,9149.92074150536,10701.197747240783,150,True,21.399161216234535,False,166.33688639674443,179.34803017192445,False,13.407611640406927,True,False
1,1970-07-23 11:27:16.399315495,2025-09-16,2025-09-26 17:27:19.931,HA,D,1242322466,JASSM,3,102,76,2,2,1,225,9,2,0,1,26,0,0,0,0,-185173.5042742056,-4786565.252900924,4201796.825651646,-2.30145,-0.152919,0.128471,88.0,-13.5,-11.375,0.0,0.0,0.0,0.0,0.0,0.0,2,0,41.447209242474536,-92.21544502281394,9999.999700071588,99.83858943043312,-0.0032118076755087,0.0050502913447787,,9149.92074150536,10701.197747240783,150,1,2025-09-16,2025-09-26 17:27:19.999,HA,D,1634567078,AMBUSH51,1,1,48,2,1,1,225,2,1,0,0,9,1,225,2,1,-146409.00804627332,-4792324.98899178,4196386.346799548,2.38226,2.77458,-0.314348,-115.584,40.1392,36.6808,-0.316167,-7.04159,6.00928,-0.000739651,-0.00525454,-0.00463453,4,0,41.38440639656206,-91.74988338507636,9120.536983462916,-63.91027769204605,-1.7860609157497098,1.6117003254765234,207.001,9149.92074150536,10701.197747240783,150,True,21.27451916408527,False,166.1331025815482,179.36163804211157,False,13.673724014642833,True,False
1,1970-07-23 11:27:16.411451730,2025-09-16,2025-09-26 17:27:21.145,HA,D,1243692992,JASSM,3,102,76,2,2,1,225,9,2,0,1,26,0,0,0,0,-185072.39685233065,-4786580.846650924,4201783.604948521,-2.30145,-0.152919,0.128567,88.0,-13.5,-11.375,0.0,0.0,0.0,0.0,0.0,0.0,2,0,41.447050510867584,-92.21422935567824,9999.998927293822,99.84348477105316,-0.0059531354205404,0.0050493102159258,,9149.92074150536,10701.197747240783,150,1,2025-09-16,2025-09-26 17:27:21.299,HA,D,1636117976,AMBUSH51,1,1,48,2,1,1,225,2,1,0,0,9,1,225,2,1,-146558.99955111518,-4792272.110679744,4196433.967682056,2.39542,2.76755,-0.315544,-115.507,41.1038,36.635,-0.203209,-7.07269,6.02768,0.020318,-0.000779183,0.00038595,4,0,41.38501518073235,-91.75169428632866,9105.004040223464,-63.592273019227285,-2.0071503944723097,2.230425947921659,207.282,9149.92074150536,10701.197747240783,150,True,21.132458690490907,False,165.84925225479338,179.3732252710879,False,14.028943714057895,True,False
1,1970-07-23 11:27:16.421332331,2025-09-16,2025-09-26 17:27:22.133,HA,D,1244945768,JASSM,3,102,76,2,2,1,225,9,2,0,1,26,0,0,0,0,-184979.9730242056,-4786595.100557174,4201771.520964146,-2.30145,-0.152919,0.128567,88.0,-13.5,-11.375,0.0,0.0,0.0,0.0,0.0,0.0,2,0,41.446905412597104,-92.21311810135909,10000.00432051336,99.8442203399824,-0.0051076309615765,0.0050487542911283,,9149.92074150536,10701.197747240783,150,1,2025-09-16,2025-09-26 17:27:22.266,HA,D,1637271208,AMBUSH51,1,1,48,2,1,1,225,2,1,0,0,9,1,225,2,1,-146669.60543407852,-4792232.25232612,4196469.257084618,2.40508,2.76326,-0.316947,-115.403,41.8028,36.7778,-0.221196,-7.08865,6.37708,0.0108056,0.00824228,0.0014741,4,0,41.38547040318536,-91.75303001046768,9091.805751631926,-63.3710958788134,-2.1139558202347306,2.6991922578870158,207.747,9149.92074150536,10701.197747240783,150,True,21.017836138395065,False,165.58297065451507,179.37771672704056,False,14.346418916265288,True,False
1,1970-07-23 11:27:16.432214784,2025-09-16,2025-09-26 17:27:23.221,HA,D,1246260196,JASSM,3,102,76,2,2,1,225,9,2,0,1,26,0,0,0,0,-184883.00232108065,-4786610.053682174,4201758.839323521,-2.30145,-0.152919,0.128567,88.0,-13.5,-11.375,0.0,0.0,0.0,0.0,0.0,0.0,2,0,41.44675315512876,-92.2119521841188,10000.003042572524,99.84499208948404,-0.0042205301906468,0.0050481615799328,,9149.92074150536,10701.197747240783,150,1,2025-09-16,2025-09-26 17:27:23.233,HA,D,1638424440,AMBUSH51,1,1,48,2,1,1,225,2,1,0,0,9,1,225,2,1,-146782.29155043486,-4792191.141779978,4196505.309402332,2.40986,2.75723,-0.319474,-115.358,42.2548,37.1212,-0.205357,-7.3519,6.31692,0.00824852,-0.000754216,0.00338825,4,0,41.38593783068363,-91.7543910611544,9077.345904058377,-63.03689857948042,-2.241585372115241,2.8527627878924187,208.138,9149.92074150536,10701.197747240783,150,True,20.89948270410035,False,165.34690713433417,179.37868071873845,False,14.629446134052646,True,False
1,1970-07-23 11:27:16.443254357,2025-09-16,2025-09-26 17:27:24.325,HA,D,1247572550,JASSM,3,102,76,2,2,1,225,9,2,0,1,26,0,0,0,0,-184786.18591483065,-4786624.981416549,4201746.177214146,-2.30145,-0.152919,0.128567,88.0,-13.5,-11.375,0.0,0.0,0.0,0.0,0.0,0.0,2,0,41.44660113327907,-92.21078812822697,10000.001448119505,99.84576260458664,-0.0033348423483313,0.005047574739482,,9149.92074150536,10701.197747240783,150,1,2025-09-16,2025-09-26 17:27:24.266,HA,D,1639657206,AMBUSH51,1,1,48,2,1,1,225,2,1,0,0,9,1,225,2,1,-146901.03372471343,-4792146.935190432,4196543.714911703,2.41137,2.75167,-0.322486,-115.286,42.9535,37.4505,-0.165054,-7.18498,6.45851,-6.55387e-05,0.00624074,0.00896632,4,0,41.38643844222226,-91.7558256061889,9060.837740794095,-62.7014878279988,-2.330394718259717,2.8254357776375536,208.773,9149.92074150536,10701.197747240783,150,True,20.777625980635918,False,165.03684241131072,179.37555165388375,False,14.99409936825341,True,False
1,1970-07-23 11:27:16.454274347,2025-09-16,2025-09-26 17:27:25.427,HA,D,1248884746,JASSM,3,102,76,2,2,1,225,9,2,0,1,26,0,0,0,0,-184689.3792742056,-4786639.907197799,4201733.515104771,-2.30145,-0.152919,0.128567,88.0,-13.5,-11.375,0.0,0.0,0.0,0.0,0.0,0.0,2,0,41.44644910903025,-92.20962419539052,10000.000989473676,99.84653303591244,-0.002449242954124,0.0050469820217723,,9149.92074150536,10701.197747240783,150,1,2025-09-16,2025-09-26 17:27:25.433,HA,D,1641049038,AMBUSH51,1,1,48,2,1,1,225,2,1,0,0,9,1,225,2,1,-147035.8184465036,-4792096.209374357,4196587.7369568255,2.40103,2.74856,-0.327896,-115.229,43.414,37.9556,-0.148295,-7.58639,6.60829,-0.0198229,0.00515883,0.00168008,4,0,41.38701280806526,-91.7574541938423,9041.692933891676,-62.36404854951294,-2.2273568988503416,2.162064147671886,209.262,9149.92074150536,10701.197747240783,150,True,20.64642985053294,False,164.75447957730483,179.36696341989145,False,15.334105589069974,True,False
1,1970-07-23 11:27:16.465294242,2025-09-16,2025-09-26 17:27:26.529,HA,D,1250195038,JASSM,3,102,76,2,2,1,225,9,2,0,1,26,0,0,0,0,-184592.71325858065,-4786654.809541549,4201720.870573521,-2.30145,-0.152823,0.128567,88.0,-13.5,-11.375,0.0,0.0,0.0,0.0,0.0,0.0,2,0,41.44629729881446,-92.20846195955868,9999.999443847872,99.84366635257769,-0.0056218481006232,0.0043423265733973,,9149.92074150536,10701.197747240783,150,1,2025-09-16,2025-09-26 17:27:26.533,HA,D,1642361336,AMBUSH51,1,1,48,2,1,1,225,2,1,0,0,9,1,225,2,1,-147161.46419019578,-4792049.034921544,4196629.413916059,2.38807,2.75438,-0.341421,-115.294,42.9139,39.0312,-0.123946,-8.52035,7.4332,-0.0113652,0.017915,0.00765139,4,0,41.387551863994766,-91.75897234374868,9025.519899776124,-62.04446651798949,-1.45344082789896,1.5187537618358005,209.543,9149.92074150536,10701.197747240783,150,True,20.520589264976135,False,164.62085814176854,179.35456886974356,False,15.503125633654781,True,False
1,1970-07-23 11:27:16.476331188,2025-09-16,2025-09-26 17:27:27.633,HA,D,1251447806,JASSM,3,102,76,2,2,1,225,9,2,0,1,26,0,0,0,0,-184500.29138358065,-4786669.057588424,4201708.780729771,-2.30145,-0.152823,0.128567,88.0,-13.5,-11.375,0.0,0.0,0.0,0.0,0.0,0.0,2,0,41.446152139719935,-92.2073507569918,10000.00159239812,99.844401876303,-0.0047763619344062,0.00434170842039,,9149.92074150536,10701.197747240783,150,1,2025-09-16,2025-09-26 17:27:27.632,HA,D,1643673634,AMBUSH51,1,1,48,2,1,1,225,2,1,0,0,9,1,225,2,1,-147289.23751070525,-4792001.659031144,4196673.510855761,2.37704,2.75637,-0.349246,-115.241,42.1626,40.2703,-0.119435,-8.23081,6.8492,-0.00543555,0.00769508,0.000306888,4,0,41.3881080503618,-91.76051600948944,9014.27158724431,-61.806474758569735,-1.0578345141990837,0.9207148790410196,209.604,9149.92074150536,10701.197747240783,150,True,20.395789262089803,False,164.47010533010027,179.3392508698906,False,15.686714425140854,True,False
1,1970-07-23 11:27:16.486254217,2025-09-16,2025-09-26 17:27:28.625,HA,D,1252701438,JASSM,3,102,76,2,2,1,225,9,2,0,1,26,0,0,0,0,-184407.80700858065,-4786683.313447799,4201696.681120396,-2.30145,-0.152823,0.128567,88.0,-13.375,-11.375,0.0,0.0,0.0,0.0,0.0,0.0,2,0,41.44600687183879,-92.20623880877586,10000.00038021514,99.84513789146445,-0.0039303046308925,0.0043410898231189,,9149.92074150536,10701.197747240783,150,1,2025-09-16,2025-09-26 17:27:28.799,HA,D,1645065466,AMBUSH51,1,1,48,2,1,1,225,2,1,0,0,9,1,225,2,1,-147422.40914994263,-4791953.01395792,4196720.8457278935,2.36505,2.76666,-0.362169,-115.033,41.2085,41.4613,-0.1247,-8.30878,7.1526,-0.00249983,0.00990883,-0.00404364,4,0,41.3886926410237,-91.76212465445788,9007.343507753596,-61.67756261569396,-0.1416560943933905,0.4374657936033845,209.36,9149.92074150536,10701.197747240783,150,True,20.26780714997858,False,164.27941475154978,179.39010579932045,False,15.860437787975625,True,False
1,1970-07-23 11:27:16.498254510,2025-09-16,2025-09-26 17:27:29.825,HA,D,1254072506,JASSM,3,102,76,2,2,1,225,9,2,0,1,26,0,0,0,0,-184306.6566179556,-4786698.903291549,4201683.446745396,-2.30145,-0.152823,0.128567,88.0,-13.375,-11.375,0.0,0.0,0.0,0.0,0.0,0.0,2,0,41.4458479837901,-92.20502267477003,9999.997626910192,99.8459428663288,-0.0030049709543266,0.0043404171496425,,9149.92074150536,10701.197747240783,150,1,2025-09-16,2025-09-26 17:27:29.966,HA,D,1646457298,AMBUSH51,1,1,48,2,1,1,225,2,1,0,0,9,1,225,2,1,-147557.02799937455,-4791904.667461516,4196770.090687936,2.36705,2.76234,-0.36278,-114.794,40.9285,42.0108,-0.124346,-7.55165,6.19582,-0.00591825,0.00276407,-0.00134302,4,0,41.38928806592249,-91.7637505070721,9005.41446966239,-61.48996195113899,-0.2788533659377264,0.4640346039665295,209.042,9149.92074150536,10701.197747240783,150,True,20.134224510397626,False,164.1376168042305,179.36992382944172,False,16.057441667323584,True,False
1,1970-07-23 11:27:16.508293296,2025-09-16,2025-09-26 17:27:30.829,HA,D,1255325704,JASSM,3,102,76,2,2,1,225,9,2,0,1,26,0,0,0,0,-184214.2034929556,-4786713.153291549,4201671.349089146,-2.30145,-0.152823,0.128567,88.0,-13.375,-11.375,0.0,0.0,0.0,0.0,0.0,0.0,2,0,41.44570273429462,-92.2039111131373,9999.99878323826,99.84667862116336,-0.0021591984366472,0.0043397905350233,,9149.92074150536,10701.197747240783,150,1,2025-09-16,2025-09-26 17:27:30.732,HA,D,1647371930,AMBUSH51,1,1,48,2,1,1,225,2,1,0,0,9,1,225,2,1,-147645.01768015674,-4791873.16479582,4196802.440501455,2.3675,2.76684,-0.369151,-114.699,40.6455,42.4429,-0.178849,-8.08645,6.91571,-0.00450553,0.00612839,-0.00149699,4,0,41.38967775082792,-91.76481317843516,9004.752133598946,-61.40355389138907,0.1504670077957776,0.581904436051056,209.079,9149.92074150536,10701.197747240783,150,True,20.032477158215674,False,164.05771275002022,179.35305364115047,False,16.17216356829735,True,False
1,1970-07-23 11:27:16.519312035,2025-09-16,2025-09-26 17:27:31.931,HA,D,1256580088,JASSM,3,102,76,2,2,1,225,9,2,0,1,26,0,0,0,0,-184121.66150076807,-4786727.415010299,4201659.239714146,-2.30145,-0.152823,0.128663,88.0,-13.375,-11.375,0.0,0.0,0.0,0.0,0.0,0.0,2,0,41.445557345592334,-92.2027984889317,9999.999457084385,99.85150577832114,-0.0049788379495864,0.0043389495708416,,9149.92074150536,10701.197747240783,150,1,2025-09-16,2025-09-26 17:27:31.832,HA,D,1648684230,AMBUSH51,1,1,48,2,1,1,225,2,1,0,0,9,1,225,2,1,-147770.0950049418,-4791828.928780488,4196849.188413611,2.36243,2.76827,-0.374982,-114.412,40.065,43.0713,-0.153182,-7.81109,6.66066,-0.00484883,-0.00138672,0.0024395,4,0,41.39023357878831,-91.76632358688312,9006.814511426845,-61.22271273334661,0.4422698177435412,0.3222399582474296,208.7,9149.92074150536,10701.197747240783,150,True,19.909174239886607,False,163.9469977462833,179.32659055470464,False,16.330531462562714,True,False
1,1970-07-23 11:27:16.530332781,2025-09-16,2025-09-26 17:27:33.033,HA,D,1257891092,JASSM,3,102,76,2,2,1,225,9,2,0,1,26,0,0,0,0,-184024.94275076807,-4786742.319307174,4201646.583464146,-2.30145,-0.152823,0.128663,88.0,-13.375,-11.375,0.0,0.0,0.0,0.0,0.0,0.0,2,0,41.445405387784746,-92.2016356537526,10000.00160966181,99.85227546722192,-0.0040940466959129,0.0043383726996574,,9149.92074150536,10701.197747240783,150,1,2025-09-16,2025-09-26 17:27:32.966,HA,D,1650036294,AMBUSH51,1,1,48,2,1,1,225,2,1,0,0,9,1,225,2,1,-147900.58301264542,-4791783.029143163,4196898.6563463,2.36963,2.76459,-0.376773,-114.252,39.9396,43.4511,-0.110682,-7.5864,6.53942,-0.00306992,-6.76193e-05,-0.00741836,4,0,41.39081665437804,-91.76789926858105,9011.105550217602,-61.01237053356866,0.3776934819481454,0.658958646629515,208.199,9149.92074150536,10701.197747240783,150,True,19.78043843684403,False,163.82490116529763,179.2943597104793,False,16.51294456291332,True,False
1,1970-07-23 11:27:16.541354901,2025-09-16,2025-09-26 17:27:34.135,HA,D,1259262738,JASSM,3,102,76,2,2,1,225,9,2,0,1,26,0,0,0,0,-183923.75134451807,-4786757.911104049,4201633.339323521,-2.30145,-0.152823,0.128663,88.0,-13.375,-11.375,0.0,0.0,0.0,0.0,0.0,0.0,2,0,41.44524638293594,-92.20041905109616,9999.999273050396,99.85308074271576,-0.003168338516305,0.0043377617819757,,9149.92074150536,10701.197747240783,150,1,2025-09-16,2025-09-26 17:27:34.032,HA,D,1651308826,AMBUSH51,1,1,48,2,1,1,225,2,1,0,0,9,1,225,2,1,-148021.33780016322,-4791740.404700927,4196944.988363077,2.37239,2.76217,-0.37924,-113.979,39.9603,43.7335,-0.277513,-7.46624,6.49767,0.0121725,-0.000400514,0.00758897,4,0,41.3913608418451,-91.76935749804514,9015.92272024395,-60.82222784207282,0.3881776553632616,0.7669997916314419,207.991,9149.92074150536,10701.197747240783,150,True,19.654870570984496,False,163.6747305056493,179.2596688428,False,16.72332654281992,True,False
1,1970-07-23 11:27:16.552258417,2025-09-16,2025-09-26 17:27:35.225,HA,D,1260574738,JASSM,3,102,76,2,2,1,225,9,2,0,1,26,0,0,0,0,-183826.95837576807,-4786772.825166549,4201620.671354771,-2.30145,-0.152727,0.128663,88.0,-13.375,-11.375,0.0,0.0,0.0,0.0,0.0,0.0,2,0,41.44509428085083,-92.19925533547882,10000.003201523748,99.8502151158864,-0.0063397795913199,0.0036326356702426,,9149.92074150536,10701.197747240783,150,1,2025-09-16,2025-09-26 17:27:35.299,HA,D,1652819958,AMBUSH51,1,1,48,2,1,1,225,2,1,0,0,9,1,225,2,1,-148164.91853896162,-4791688.997411609,4197001.056600579,2.38487,2.76082,-0.377407,-113.512,40.2034,44.1959,-0.102265,-7.37639,6.4199,0.00319683,0.00134094,0.0113008,4,0,41.39201879225173,-91.77109167151131,9021.999679488808,-60.84631937202623,0.2643548677326724,1.4536749576318626,207.71,9149.92074150536,10701.197747240783,150,True,19.51838005388738,False,163.37418772941695,179.21269788781916,False,17.099632174779682,True,False
1,1970-07-23 11:27:16.563276069,2025-09-16,2025-09-26 17:27:36.327,HA,D,1261827864,JASSM,3,102,76,2,2,1,225,9,2,0,1,26,0,0,0,0,-183734.51013358065,-4786787.067354049,4201608.569792271,-2.30145,-0.152727,0.128663,88.0,-13.375,-11.375,0.0,0.0,0.0,0.0,0.0,0.0,2,0,41.444948994649536,-92.19814386152146,10000.000838479027,99.85095080176237,-0.0054940559654049,0.003632026367692,,9149.92074150536,10701.197747240783,150,1,2025-09-16,2025-09-26 17:27:36.373,HA,D,1654092490,AMBUSH51,1,1,48,2,1,1,225,2,1,0,0,9,1,225,2,1,-148286.45745994349,-4791645.474223246,4197048.347824331,2.38899,2.75569,-0.382413,-113.193,40.5898,44.2047,-0.120333,-7.25574,6.45694,0.00353181,0.00990051,0.00426002,4,0,41.39257461657756,-91.77255965247664,9026.767283915044,-60.45162425714804,0.2771639002350055,1.5827165362179607,207.454,9149.92074150536,10701.197747240783,150,True,19.39711452939243,False,163.21327814332213,179.16852411091153,False,17.33189280235062,True,False
1,1970-07-23 11:27:16.574273069,2025-09-16,2025-09-26 17:27:37.427,HA,D,1263139588,JASSM,3,102,76,2,2,1,225,9,2,0,1,26,0,0,0,0,-183637.7386492056,-4786801.975557174,4201595.901823521,-2.30145,-0.152727,0.128663,88.0,-13.375,-11.375,0.0,0.0,0.0,0.0,0.0,0.0,2,0,41.444796899514046,-92.1969804159993,10000.00218235799,99.85172088540357,-0.004608782406036,0.0036313853009406,,9149.92074150536,10701.197747240783,150,1,2025-09-16,2025-09-26 17:27:37.299,HA,D,1655205956,AMBUSH51,1,1,48,2,1,1,225,2,1,0,0,9,1,225,2,1,-148390.9737744294,-4791607.518004151,4197089.444788497,2.39919,2.75109,-0.382215,-112.86,40.8295,44.4313,-0.147348,-7.19835,6.23932,-0.0022356,-0.00537314,-0.000227825,4,0,41.39305862173229,-91.77382224476924,9030.5052202362,-60.28647753241578,0.0982917507957642,2.069426356191989,207.282,9149.92074150536,10701.197747240783,150,True,19.283314857263,False,163.01484085304736,179.12644292672329,False,17.590250402840525,True,False
1,1970-07-23 11:27:16.584315819,2025-09-16,2025-09-26 17:27:38.431,HA,D,1264392734,JASSM,3,102,76,2,2,1,225,9,2,0,1,26,0,0,0,0,-183545.28845389312,-4786816.215791549,4201583.798307896,-2.30145,-0.152727,0.128663,88.0,-13.375,-11.375,0.0,0.0,0.0,0.0,0.0,0.0,2,0,41.4446515902225,-92.19586892974368,9999.9999428999,99.85245657507674,-0.0037630419685343,0.0036307777055947,,9149.92074150536,10701.197747240783,150,1,2025-09-16,2025-09-26 17:27:38.432,HA,D,1656558022,AMBUSH51,1,1,48,2,1,1,225,2,1,0,0,9,1,225,2,1,-148519.328900889,-4791560.214078462,4197140.317859361,2.42019,2.74381,-0.379783,-112.539,40.4284,45.4817,-0.0645408,-6.94146,6.09262,0.0255799,-0.00891431,-0.0030928,4,0,41.39365982660125,-91.77537309859048,9034.28023372328,-60.10890305604891,-0.2715037021835403,3.1170890670238607,207.282,9149.92074150536,10701.197747240783,150,True,19.15798364457587,False,162.70757702596222,179.07111594806722,False,17.955542681589908,True,False
1,1970-07-23 11:27:16.596332330,2025-09-16,2025-09-26 17:27:39.633,HA,D,1265764538,JASSM,3,102,76,2,2,1,225,9,2,0,1,26,0,0,0,0,-183444.08435233065,-4786831.803682174,4201570.548307896,-2.30145,-0.152727,0.128663,88.0,-13.375,-11.375,0.0,0.0,0.0,0.0,0.0,0.0,2,0,41.44449251099021,-92.19465220530816,10000.000026587546,99.85326191917656,-0.0028372206812773,0.0036301138617542,,9149.92074150536,10701.197747240783,150,1,2025-09-16,2025-09-26 17:27:39.632,HA,D,1657989620,AMBUSH51,1,1,48,2,1,1,225,2,1,0,0,9,1,225,2,1,-148653.84313096182,-4791509.447804716,4197193.570287434,2.42671,2.73731,-0.384693,-112.026,42.3251,44.7231,-0.103579,-7.17713,6.29468,-0.00197552,0.00366705,0.00180492,4,0,41.39429653361759,-91.77699884195611,9035.180586376971,-59.66658031644727,-0.3104148246367847,3.349825504550666,207.209,9149.92074150536,10701.197747240783,150,True,19.024221405565648,False,162.38336038929967,179.007664362935,False,18.391563018791725,True,False
1,1970-07-23 11:27:16.606213290,2025-09-16,2025-09-26 17:27:40.621,HA,D,1267017262,JASSM,3,102,76,2,2,1,225,9,2,0,1,26,0,0,0,0,-183351.6644304556,-4786846.038057174,4201558.446745396,-2.30145,-0.152727,0.128663,88.0,-13.375,-11.375,0.0,0.0,0.0,0.0,0.0,0.0,2,0,41.444347220348654,-92.19354109394908,10000.00004668676,99.8539973562636,-0.0019917564448946,0.0036294999636203,,9149.92074150536,10701.197747240783,150,1,2025-09-16,2025-09-26 17:27:40.732,HA,D,1659301918,AMBUSH51,1,1,48,2,1,1,225,2,1,0,0,9,1,225,2,1,-148775.84693951753,-4791462.39577685,4197242.587936281,2.43604,2.73073,-0.388875,-111.563,43.1038,44.9817,-0.156814,-7.25043,6.15587,0.00724567,-0.00358174,0.00321556,4,0,41.39488484279491,-91.77847378490137,9035.087339005911,-59.25009595120439,-0.3812483815896312,3.739576250316977,207.246,9149.92074150536,10701.197747240783,150,True,18.90246783628285,False,162.0112187464374,178.94548588319716,False,18.845814425007863,True,False
1,1970-07-23 11:27:16.617262712,2025-09-16,2025-09-26 17:27:41.726,HA,D,1268270100,JASSM,3,102,76,2,2,1,225,9,2,0,1,26,0,0,0,0,-183259.23767264312,-4786860.272432174,4201546.343229771,-2.30145,-0.152727,0.128759,88.0,-13.375,-11.375,0.0,0.0,0.0,0.0,0.0,0.0,2,0,41.44420190735403,-92.1924299058452,9999.999747123544,99.85882358859398,-0.0048124015845571,0.0036286723453554,,9149.92074150536,10701.197747240783,150,1,2025-09-16,2025-09-26 17:27:41.766,HA,D,1660534684,AMBUSH51,1,1,48,2,1,1,225,2,1,0,0,9,1,225,2,1,-148891.62438172492,-4791417.032657759,4197289.542174819,2.44082,2.72327,-0.389661,-111.189,43.7774,45.3047,-0.0592664,-7.29415,6.09478,0.0063531,-0.00328214,0.00460956,4,0,41.3954503062776,-91.77987374437484,9034.206326634972,-58.93563592942697,-0.6227598960523059,3.848553767319551,207.392,9149.92074150536,10701.197747240783,150,True,18.784288532761515,False,161.66356596051406,178.88271455862042,False,19.271947524643075,True,False
1,1970-07-23 11:27:16.628291234,2025-09-16,2025-09-26 17:27:42.829,HA,D,1269582046,JASSM,3,102,76,2,2,1,225,9,2,0,1,26,0,0,0,0,-183162.44861014312,-4786875.176729049,4201533.667448521,-2.30145,-0.152727,0.128759,88.0,-13.375,-11.375,0.0,0.0,0.0,0.0,0.0,0.0,2,0,41.44404972896562,-92.19126627871329,9999.99745302664,99.85959378105592,-0.0039269696724088,0.0036280959275006,,9149.92074150536,10701.197747240783,150,1,2025-09-16,2025-09-26 17:27:42.932,HA,D,1661926516,AMBUSH51,1,1,48,2,1,1,225,2,1,0,0,9,1,225,2,1,-149019.973932877,-4791365.688313642,4197342.195601062,2.44347,2.71609,-0.393902,-110.68,44.5296,45.6244,-0.159367,-7.29791,6.26623,0.000741732,-0.0119936,-0.00426418,4,0,41.39608748450335,-91.7814261440783,9031.947012523851,-58.49419675903406,-0.7101533082692957,3.837800931073923,207.429,9149.92074150536,10701.197747240783,150,True,18.656310796067558,False,161.26599099714622,178.80894354972784,False,19.759549169866244,True,False
1,1970-07-23 11:27:16.638313472,2025-09-16,2025-09-26 17:27:43.831,HA,D,1270836776,JASSM,3,102,76,2,2,1,225,9,2,0,1,26,0,0,0,0,-183069.88122733065,-4786889.430635299,4201521.544401646,-2.30145,-0.152727,0.128759,88.0,-13.375,-11.375,0.0,0.0,0.0,0.0,0.0,0.0,2,0,41.44390417798573,-92.19015341110688,9999.998868829496,99.86033037415028,-0.003080158148526,0.0036275453886898,,9149.92074150536,10701.197747240783,150,1,2025-09-16,2025-09-26 17:27:43.699,HA,D,1662841148,AMBUSH51,1,1,48,2,1,1,225,2,1,0,0,9,1,225,2,1,-149104.70585266728,-4791331.323311016,4197377.2094459785,2.44384,2.71153,-0.398718,-110.444,44.7462,46.0789,-0.12748,-7.58262,6.67806,0.0196731,-0.00141793,-0.00156981,4,0,41.396512621444586,-91.78245117574636,9029.858127616872,-58.13001418903604,-0.6767628422881198,3.753785456394958,207.392,9149.92074150536,10701.197747240783,150,True,18.556075775468823,False,161.024158258456,178.7568697292745,False,20.057894420792667,True,False
1,1970-07-23 11:27:16.649333033,2025-09-16,2025-09-26 17:27:44.933,HA,D,1272148138,JASSM,3,102,76,2,2,1,225,9,2,0,1,26,0,0,0,0,-182973.13611014312,-4786904.327119674,4201508.872526646,-2.30145,-0.152631,0.128759,88.0,-13.375,-11.375,0.0,0.0,0.0,0.0,0.0,0.0,2,0,41.44375203942051,-92.188990323409,9999.99978059066,99.85746440669708,-0.0062520336149437,0.0029218899811945,,9149.92074150536,10701.197747240783,150,1,2025-09-16,2025-09-26 17:27:44.966,HA,D,1664352280,AMBUSH51,1,1,48,2,1,1,225,2,1,0,0,9,1,225,2,1,-149244.13220909896,-4791274.248340638,4197435.889517908,2.45614,2.70682,-0.405803,-109.906,45.2831,46.8183,-0.185677,-7.33236,6.53446,-0.0182333,-0.00469694,0.00683163,4,0,41.39722249041236,-91.7841380909126,9027.444438622775,-57.67088650173509,-0.5534393489290349,4.347916648406229,207.49,9149.92074150536,10701.197747240783,150,True,18.421550808075818,False,160.5496166182979,178.6697516266851,False,20.6285770077867,True,False
1,1970-07-23 11:27:16.660353285,2025-09-16,2025-09-26 17:27:46.035,HA,D,1273402008,JASSM,3,102,76,2,2,1,225,9,2,0,1,26,0,0,0,0,-182880.63415701807,-4786918.569307174,4201496.755339146,-2.30145,-0.152631,0.128759,88.0,-13.375,-11.375,0.0,0.0,0.0,0.0,0.0,0.0,2,0,41.4436065608208,-92.18787825332944,10000.000629298103,99.85820046761646,-0.0054058197386062,0.0029212775825324,,9149.92074150536,10701.197747240783,150,1,2025-09-16,2025-09-26 17:27:46.033,HA,D,1665624812,AMBUSH51,1,1,48,2,1,1,225,2,1,0,0,9,1,225,2,1,-149361.71583974414,-4791225.275251303,4197486.548194276,2.4491,2.69777,-0.41151,-109.472,45.4984,47.656,-0.0805632,-7.44697,6.48452,-0.00259346,0.00251024,0.00447224,4,0,41.39783403470795,-91.78556107313048,9025.895755292628,-57.10175638807112,-0.6425640692546906,3.7331070811129328,207.49,9149.92074150536,10701.197747240783,150,True,18.302027707809483,False,160.14935775907597,178.59170003176763,False,21.1094023545555,True,False
1,1970-07-23 11:27:16.671212202,2025-09-16,2025-09-26 17:27:47.121,HA,D,1274712490,JASSM,3,102,76,2,2,1,225,9,2,0,1,26,0,0,0,0,-182783.95153983065,-4786933.452119674,4201484.091276646,-2.30145,-0.152631,0.128759,88.0,-13.375,-11.375,0.0,0.0,0.0,0.0,0.0,0.0,2,0,41.44345451912557,-92.18671592948718,10000.000556313944,99.8589697884021,-0.0045213658837233,0.0029206603015544,,9149.92074150536,10701.197747240783,150,1,2025-09-16,2025-09-26 17:27:47.100,HA,D,1666897344,AMBUSH51,1,1,48,2,1,1,225,2,1,0,0,9,1,225,2,1,-149477.43671211778,-4791176.374337519,4197537.329810488,2.44295,2.6925,-0.411865,-109.107,45.9643,48.2465,-0.180338,-7.33188,6.51926,-0.0073393,-0.00498406,0.00780119,4,0,41.39844630778888,-91.7869618010062,9024.65804290229,-56.88749375165983,-0.8164549812928712,3.2570055566730693,207.466,9149.92074150536,10701.197747240783,150,True,18.181237806355078,False,159.77623696184432,178.5110410879208,False,21.57000349944572,True,False
1,1970-07-23 11:27:16.682232369,2025-09-16,2025-09-26 17:27:48.223,HA,D,1276025078,JASSM,3,102,76,2,2,1,225,9,2,0,1,26,0,0,0,0,-182687.11560233065,-4786948.358369674,4201471.403776646,-2.30145,-0.152631,0.128759,88.0,-13.375,-11.375,0.0,0.0,0.0,0.0,0.0,0.0,2,0,41.44330220288953,-92.18555176793387,9999.997803241216,99.85974032320904,-0.0036355057761284,0.0029200206504817,,9149.92074150536,10701.197747240783,150,1,2025-09-16,2025-09-26 17:27:48.298,HA,D,1668328942,AMBUSH51,1,1,48,2,1,1,225,2,1,0,0,9,1,225,2,1,-149607.81853318113,-4791120.515674259,4197595.296134134,2.43887,2.68441,-0.417801,-108.731,46.4655,48.7318,-0.133409,-7.37721,6.51086,0.00416431,-0.00209828,0.00916606,4,0,41.39914573663771,-91.78854030649096,9023.029035493872,-56.34620794233675,-0.8576560690016121,2.82848343091553,207.356,9149.92074150536,10701.197747240783,150,True,18.05172992179102,False,159.4232584841238,178.41684829057795,False,22.025568660598303,True,False
1,1970-07-23 11:27:16.692271337,2025-09-16,2025-09-26 17:27:49.227,HA,D,1277279446,JASSM,3,102,76,2,2,1,225,9,2,0,1,26,0,0,0,0,-182594.5745867056,-4786962.602510299,4201459.280729771,-2.30145,-0.152631,0.128759,88.0,-13.375,-11.375,0.0,0.0,0.0,0.0,0.0,0.0,2,0,41.443156648755085,-92.18443924546176,10000.00120596646,99.86047667698256,-0.0027889391376498,0.002919426509986,,9149.92074150536,10701.197747240783,150,1,2025-09-16,2025-09-26 17:27:49.399,HA,D,1669641240,AMBUSH51,1,1,48,2,1,1,225,2,1,0,0,9,1,225,2,1,-149726.64591113818,-4791068.869035592,4197648.943849005,2.4289,2.68268,-0.423035,-108.303,46.8114,49.2009,-0.167497,-7.45393,6.62403,-0.0302633,0.0090121,0.012031,4,0,41.39979307949002,-91.78997923004644,9021.514717035894,-56.0761958948203,-0.699156958314381,2.213364100033336,207.136,9149.92074150536,10701.197747240783,150,True,17.93129965370717,False,159.10056128301602,178.32706342297044,False,22.44376303096006,True,False
1,1970-07-23 11:27:16.703313502,2025-09-16,2025-09-26 17:27:50.331,HA,D,1278591898,JASSM,3,102,76,2,2,1,225,9,2,0,1,26,0,0,0,0,-182497.74939139312,-4786977.504854049,4201446.593229771,-2.30145,-0.152631,0.128759,88.0,-13.375,-11.375,0.0,0.0,0.0,0.0,0.0,0.0,2,0,41.44300433028668,-92.1832752247247,9999.999659986215,99.86124711403028,-0.0019031786828561,0.0029187905656841,,9149.92074150536,10701.197747240783,150,1,2025-09-16,2025-09-26 17:27:50.465,HA,D,1670913772,AMBUSH51,1,1,48,2,1,1,225,2,1,0,0,9,1,225,2,1,-149842.75037150172,-4791018.164659648,4197701.643580577,2.39921,2.67379,-0.426932,-108.207,47.1977,49.3139,-0.0251602,-7.28208,6.29746,-0.0154786,-0.00328422,0.00371698,4,0,41.40042890557626,-91.79138529872684,9020.061962188976,-55.58541060305212,-0.8504731772264303,0.295522284017461,207.148,9149.92074150536,10701.197747240783,150,True,17.81013336415585,False,158.95089153798892,178.23654553757333,False,22.69247555541776,True,False
