Subject_cm,Timestamp,SampleDate_cm,SampleTime_cm,Configuration_cm,Scenario_cm,DisTime_cm,MarkingTxt_cm,Application_cm,EntId_cm,Site_cm,ExerciseId_cm,ForceId_cm,Category_cm,Country_cm,Domain_cm,Kind_cm,Extra_cm,Specific_cm,Subcategory_cm,AltCategory_cm,AltCountry_cm,AltDomain_cm,AltKind_cm,ECEF_X_cm,ECEF_Y_cm,ECEF_Z_cm,OriPhi_cm,OriPsi_cm,OriTheta_cm,LinVelX_cm,LinVelY_cm,LinVelZ_cm,LinAccX_cm,LinAccY_cm,LinAccZ_cm,AngVelX_cm,AngVelY_cm,AngVelZ_cm,DrAlg_cm,Appearance_cm,Latitude_cm,Longitude_cm,Altitude_cm,Heading_cm,Pitch_cm,Roll_cm,CalibratedAirspeed_cm,CM_Altitude_Lead_cm,CM_Altitude_Wing_cm,CM_Airspeed_cm,Subject_ac,SampleDate_ac,SampleTime_ac,Configuration_ac,Scenario_ac,DisTime_ac,MarkingTxt_ac,Application_ac,EntId_ac,Site_ac,ExerciseId_ac,ForceId_ac,Category_ac,Country_ac,Domain_ac,Kind_ac,Extra_ac,Specific_ac,Subcategory_ac,AltCategory_ac,AltCountry_ac,AltDomain_ac,AltKind_ac,ECEF_X_ac,ECEF_Y_ac,ECEF_Z_ac,OriPhi_ac,OriPsi_ac,OriTheta_ac,LinVelX_ac,LinVelY_ac,LinVelZ_ac,LinAccX_ac,LinAccY_ac,LinAccZ_ac,AngVelX_ac,AngVelY_ac,AngVelZ_ac,DrAlg_ac,Appearance_ac,Latitude_ac,Longitude_ac,Altitude_ac,Heading_ac,Pitch_ac,Roll_ac,CalibratedAirspeed_ac,CM_Altitude_Lead_ac,CM_Altitude_Wing_ac,CM_Airspeed_ac,Bank_Angle_Condition,distance_nm,Distance_Condition,angle_between_vel,angle_between_pos,Cone_Condition,angle_between_pos_nose,Nose_Cone_Condition,Intercept_Criteria
1,1970-07-23 09:33:44.432355128,2025-09-08,2025-09-26 20:14:03.235,HH,B,3224070148,JASSM,3,129,76,2,2,1,225,9,2,0,1,26,0,0,0,0,-118692.03386842164,-4815604.042066869,4172041.7831711774,2.50662,2.45207,-0.615702,-53.875,44.625,49.625,0.0,0.0,0.0,0.0,0.0,0.0,2,0,41.08613772458537,-91.41190512088497,12000.001199520217,-39.97651278449706,-0.0045361257367663,0.0011922757985192,,10456.756926878135,13162.46325448802,150,1,2025-09-08,2025-09-26 20:14:03.310,HH,B,670283460,AMBUSH51,1,1,48,2,1,1,225,2,1,0,0,9,1,225,2,1,-154684.23429788288,-4793052.039871175,4196106.360496096,-2.32557,0.0257183,-0.0540248,119.347,3.39027,4.79401,-0.0957419,-7.62004,6.73449,0.00829013,0.00901834,0.00260803,4,0,41.37664667696043,-91.84844201918848,10941.802473072788,85.48216431446217,-0.4426536367173236,-1.761257421287978,180.923,10456.756926878135,13162.46325448802,150,True,26.335464986733182,False,126.11428297461623,171.36936960054146,False,45.290896601144425,False,False
1,1970-07-23 09:33:44.439625124,2025-09-08,2025-09-26 20:14:03.962,HH,B,3225143890,JASSM,3,129,76,2,2,1,225,9,2,0,1,26,0,0,0,0,-118740.81511842164,-4815563.969801244,4172086.3476243024,2.50557,2.45389,-0.614551,-54.0,44.5,49.5,0.0,0.0,0.0,0.0,0.0,0.0,2,0,41.0866698219549,-91.41249691397148,12000.000096691254,-40.08462459171239,-0.0062951780427312,0.0009934706063794,,10456.756926878135,13162.46325448802,150,1,2025-09-08,2025-09-26 20:14:04.043,HH,B,671158326,AMBUSH51,1,1,48,2,1,1,225,2,1,0,0,9,1,225,2,1,-154596.66100537518,-4793049.405762632,4196109.892299931,-2.3191,0.0253682,-0.056477,119.488,3.38371,5.01862,-0.190121,-7.70361,6.73034,0.00110584,-0.000127957,0.00110584,4,0,41.3767029866781,-91.8473972778377,10936.02804582079,85.39086963468708,-0.3337933483332191,-1.3914838152913849,181.131,10456.756926878135,13162.46325448802,150,True,26.260986516218807,False,126.17852695945123,171.56708220801892,False,45.42462015420843,False,False
1,1970-07-23 09:33:44.450313870,2025-09-08,2025-09-26 20:14:05.031,HH,B,3226412308,JASSM,3,129,76,2,2,1,225,9,2,0,1,26,0,0,0,0,-118798.44011842164,-4815516.630445776,4172138.9926438336,2.50557,2.45389,-0.614551,-54.0,44.5,49.5,0.0,0.0,0.0,0.0,0.0,0.0,2,0,41.08729840338879,-91.41319600857317,12000.00004297826,-40.08508403934405,-0.0054749628359502,0.0009918529655223,,10456.756926878135,13162.46325448802,150,1,2025-09-08,2025-09-26 20:14:05.177,HH,B,672510392,AMBUSH51,1,1,48,2,1,1,225,2,1,0,0,9,1,225,2,1,-154460.39477193353,-4793045.440587901,4196115.70848079,-2.32771,0.0265252,-0.0597472,119.644,3.36372,5.38631,-0.00146762,-7.33166,6.44839,-0.0039729,0.00429331,0.00507353,4,0,41.37679195811727,-91.8457715780396,10928.074671154343,85.20774127199891,-0.2580276765648499,-1.879751309673436,181.29,10456.756926878135,13162.46325448802,150,True,26.16069397744691,False,126.0573180339102,171.66582123009266,False,45.64301700049053,False,False
1,1970-07-23 09:33:44.460352966,2025-09-08,2025-09-26 20:14:06.035,HH,B,3227665076,JASSM,3,129,76,2,2,1,225,9,2,0,1,26,0,0,0,0,-118855.35418092164,-4815469.874586401,4172190.9867844586,2.50557,2.45389,-0.614551,-54.0,44.5,49.5,0.0,0.0,0.0,0.0,0.0,0.0,2,0,41.0879192194385,-91.41388649146631,11999.99987532797,-40.08553783302541,-0.0046648715938443,0.0009902593584974,,10456.756926878135,13162.46325448802,150,1,2025-09-08,2025-09-26 20:14:05.878,HH,B,673345490,AMBUSH51,1,1,48,2,1,1,225,2,1,0,0,9,1,225,2,1,-154376.72879652344,-4793043.117104481,4196119.329249584,-2.32877,0.0270551,-0.0614537,119.677,3.39447,5.52459,-0.181047,-7.29466,6.50798,-0.0019568,-0.00246655,-0.000148763,4,0,41.37684624936771,-91.8447733706291,10923.57724621145,85.11508023741318,-0.2152040211189098,-1.9382292004126025,181.461,10456.756926878135,13162.46325448802,150,True,26.080894933989654,False,125.99900748035184,171.72104249040513,False,45.756391259829385,False,False
1,1970-07-23 09:33:44.473615838,2025-09-08,2025-09-26 20:14:07.361,HH,B,3228977358,JASSM,3,129,76,2,2,1,225,9,2,0,1,26,0,0,0,0,-118914.97527467164,-4815420.897047338,4172245.450163365,2.50557,2.45389,-0.614551,-54.0,44.5,49.5,0.0,0.0,0.0,0.0,0.0,0.0,2,0,41.088569520525496,-91.41460982942954,12000.00144370518,-40.08601322552834,-0.0038162795484073,0.0009886144838647,,10456.756926878135,13162.46325448802,150,1,2025-09-08,2025-09-26 20:14:07.544,HH,B,675333822,AMBUSH51,1,1,48,2,1,1,225,2,1,0,0,9,1,225,2,1,-154177.79463140538,-4793037.379409704,4196128.194825996,-2.32676,0.033418,-0.0662076,119.912,3.56764,5.70936,-0.168055,-7.22241,6.56173,-0.00455338,0.000824956,0.00146578,4,0,41.37697830253298,-91.84239998754867,10912.929796187367,84.671563998934,-0.3053988064926685,-1.797904337863964,181.876,10456.756926878135,13162.46325448802,150,True,25.955550655572747,False,125.88439022032154,171.87399031190643,False,46.024941094684806,False,False
1,1970-07-23 09:33:44.482253132,2025-09-08,2025-09-26 20:14:08.225,HH,B,3230289708,JASSM,3,129,76,2,2,1,225,9,2,0,1,26,0,0,0,0,-118974.59636842164,-4815371.915113744,4172299.915007115,2.50557,2.45389,-0.614551,-54.0,44.5,49.5,0.0,0.0,0.0,0.0,0.0,0.0,2,0,41.08921985291757,-91.4153331829471,11999.999896741056,-40.086488634464914,-0.0029676594914504,0.0009869472505057,,10456.756926878135,13162.46325448802,150,1,2025-09-08,2025-09-26 20:14:08.210,HH,B,676129154,AMBUSH51,1,1,48,2,1,1,225,2,1,0,0,9,1,225,2,1,-154096.61690545728,-4793034.881217228,4196132.056807557,-2.32864,0.0346431,-0.0647539,120.003,3.57245,5.92104,-0.265388,-7.35737,6.5586,-0.00163639,0.000500383,0.000777102,4,0,41.377034756618855,-91.84143155385628,10908.734602341912,84.68813823862381,-0.4123262843422597,-1.9010522083783743,182.072,10456.756926878135,13162.46325448802,150,True,25.874642299052933,False,125.80985087987717,171.92781030584283,False,46.15260990046776,False,False
1,1970-07-23 09:33:44.493272341,2025-09-08,2025-09-26 20:14:09.327,HH,B,3231542408,JASSM,3,129,76,2,2,1,225,9,2,0,1,26,0,0,0,0,-119031.50652467164,-4815325.159254369,4172351.903776646,2.50557,2.45379,-0.614551,-54.0,44.5,49.5,0.0,0.0,0.0,0.0,0.0,0.0,2,0,41.08984062009265,-91.41602365962018,12000.000853033374,-40.08333302468665,-0.0048227040470503,-0.0021812075535759,,10456.756926878135,13162.46325448802,150,1,2025-09-08,2025-09-26 20:14:09.377,HH,B,677520986,AMBUSH51,1,1,48,2,1,1,225,2,1,0,0,9,1,225,2,1,-153957.6646473745,-4793030.565894773,4196138.612874443,-2.32533,0.0411324,-0.0681719,120.203,4.033,5.83655,-0.22365,-7.2626,6.5141,-0.000254873,0.00290555,-0.00565194,4,0,41.377131235204665,-91.8397738920283,10901.346999518002,84.2966362934651,-0.5589369253661864,-1.6836806439712328,182.438,10456.756926878135,13162.46325448802,150,True,25.77448071051927,False,125.700067764439,172.0324514446304,False,46.37106529954765,False,False
1,1970-07-23 09:33:44.504817311,2025-09-08,2025-09-26 20:14:10.481,HH,B,3232854764,JASSM,3,129,76,2,2,1,225,9,2,0,1,26,0,0,0,0,-119091.12761842164,-4815276.175367651,4172406.367155552,2.50557,2.45379,-0.614551,-54.0,44.5,49.5,0.0,0.0,0.0,0.0,0.0,0.0,2,0,41.09049094507823,-91.41674704159342,12000.00028977264,-40.08380846439509,-0.0039740825616344,-0.0021828219818728,,10456.756926878135,13162.46325448802,150,1,2025-09-08,2025-09-26 20:14:10.377,HH,B,678713984,AMBUSH51,1,1,48,2,1,1,225,2,1,0,0,9,1,225,2,1,-153837.1503379355,-4793026.405696224,4196144.604123843,-2.32573,0.0415324,-0.0705077,120.286,3.99455,6.22052,-0.20449,-7.28239,6.65315,-0.00484258,0.00920143,0.0036504,4,0,41.37721943520256,-91.83833634490726,10894.582178933477,84.1822569822646,-0.4861964620088418,-1.7039698866941897,182.561,10456.756926878135,13162.46325448802,150,True,25.679165728809032,False,125.57820775668618,172.12163270948426,False,46.580391263587536,False,False
1,1970-07-23 09:33:44.515353199,2025-09-08,2025-09-26 20:14:11.535,HH,B,3234167108,JASSM,3,129,76,2,2,1,225,9,2,0,1,26,0,0,0,0,-119150.74871217164,-4815227.190992651,4172460.829557896,2.50557,2.45379,-0.614551,-54.0,44.5,49.5,0.0,0.0,0.0,0.0,0.0,0.0,2,0,41.0911412617124,-91.41747043797608,12000.001003233589,-40.08428391978629,-0.0031254639612904,-0.0021844338944258,,10456.756926878135,13162.46325448802,150,1,2025-09-08,2025-09-26 20:14:11.710,HH,B,680304650,AMBUSH51,1,1,48,2,1,1,225,2,1,0,0,9,1,225,2,1,-153676.73587968323,-4793020.67759626,4196152.859127611,-2.32054,0.0454988,-0.0747684,120.451,4.28581,6.36431,-0.231333,-7.44418,6.8336,0.00563321,0.00640719,-0.0011204,4,0,41.37733983359607,-91.8364229169386,10885.728003111835,83.85048271114776,-0.4924031421881691,-1.387139811934744,182.939,10456.756926878135,13162.46325448802,150,True,25.569264338591434,False,125.44040460327355,172.24669096122886,False,46.8451399654088,False,False
1,1970-07-23 09:33:44.526373490,2025-09-08,2025-09-26 20:14:12.637,HH,B,3235479462,JASSM,3,129,76,2,2,1,225,9,2,0,1,26,0,0,0,0,-119210.36980592164,-4815178.205152807,4172515.290983677,2.50557,2.45379,-0.614455,-54.0,44.5,49.5,0.0,0.0,0.0,0.0,0.0,0.0,2,0,41.09179157576954,-91.41819384905608,12000.000579432915,-40.088021177951255,-0.0066946499338377,-0.0021857914750729,,10456.756926878135,13162.46325448802,150,1,2025-09-08,2025-09-26 20:14:12.444,HH,B,681179516,AMBUSH51,1,1,48,2,1,1,225,2,1,0,0,9,1,225,2,1,-153588.36672568004,-4793017.46179849,4196157.622862366,-2.31437,0.0449671,-0.0758675,120.556,4.37314,6.50016,-0.0760112,-7.27443,6.57166,0.0498271,0.00331959,0.007693,4,0,41.37740796374985,-91.83536886666556,10881.176607144023,83.82422059096497,-0.4270989271560855,-1.0354700913367711,183.098,10456.756926878135,13162.46325448802,150,True,25.48612917103504,False,125.36801305728387,172.30942400544373,False,46.9805836788888,False,False
1,1970-07-23 09:33:44.538000502,2025-09-08,2025-09-26 20:14:13.800,HH,B,3236791810,JASSM,3,129,76,2,2,1,225,9,2,0,1,26,0,0,0,0,-119269.99089967164,-4815129.218336401,4172569.751432896,2.50557,2.45379,-0.614455,-54.0,44.5,49.5,0.0,0.0,0.0,0.0,0.0,0.0,2,0,41.09244188436239,-91.41891727469046,12000.000225343938,-40.088496664863,-0.0058460303600542,-0.0021874519959884,,10456.756926878135,13162.46325448802,150,1,2025-09-08,2025-09-26 20:14:13.710,HH,B,682690648,AMBUSH51,1,1,48,2,1,1,225,2,1,0,0,9,1,225,2,1,-153435.70883489336,-4793012.397520158,4196166.028048335,-2.28363,0.0396829,-0.0819501,120.65,3.76603,6.8538,-0.203104,-7.69725,6.83811,-0.00429955,-0.00316979,0.00112456,4,0,41.37752390392368,-91.83354779873616,10874.913046928828,83.76484681033675,0.0313109624811825,0.7017864038149907,183.22,10456.756926878135,13162.46325448802,150,True,25.379324013622877,False,125.43569756623778,172.42953886459117,False,47.02832250712861,False,False
1,1970-07-23 09:33:44.548275097,2025-09-08,2025-09-26 20:14:14.827,HH,B,3238104164,JASSM,3,129,76,2,2,1,225,9,2,0,1,26,0,0,0,0,-119329.61199342164,-4815080.230543432,4172624.2113938336,2.50557,2.45379,-0.614455,-54.0,44.5,49.5,0.0,0.0,0.0,0.0,0.0,0.0,2,0,41.09309219080256,-91.41964071487982,12000.000993929529,-40.08897216755406,-0.0049974088584353,-0.0021891139100355,,10456.756926878135,13162.46325448802,150,1,2025-09-08,2025-09-26 20:14:14.844,HH,B,684042712,AMBUSH51,1,1,48,2,1,1,225,2,1,0,0,9,1,225,2,1,-153298.090179549,-4793008.143584961,4196173.817621863,-2.2841,0.0383182,-0.0778797,120.771,3.5533,6.80327,-0.290679,-7.4541,6.72527,-0.00463036,0.00664438,0.00897048,4,0,41.37762798034552,-91.8319060096001,10870.503845513202,83.99217753304848,-0.0637762781344468,0.6685005892710545,183.184,10456.756926878135,13162.46325448802,150,True,25.27813204440411,False,125.52362839495014,172.5372134694648,False,47.047831174146616,False,False
1,1970-07-23 09:33:44.561213470,2025-09-08,2025-09-26 20:14:16.121,HH,B,3239357050,JASSM,3,129,76,2,2,1,225,9,2,0,1,26,0,0,0,0,-119386.53386842164,-4815033.461012182,4172676.202604771,2.50566,2.45379,-0.614455,-54.0,44.5,49.5,0.0,0.0,0.0,0.0,0.0,0.0,2,0,41.09371302742881,-91.42033141602953,12000.00022517283,-40.08942615733108,-0.0041872256110403,0.003300787081075,,10456.756926878135,13162.46325448802,150,1,2025-09-08,2025-09-26 20:14:16.010,HH,B,685434544,AMBUSH51,1,1,48,2,1,1,225,2,1,0,0,9,1,225,2,1,-153158.07166655103,-4793003.864691478,4196181.996881131,-2.29597,0.0377553,-0.0755094,120.843,3.47887,6.87249,-0.254797,-7.42842,6.46633,-0.000259034,-0.00947399,0.0124347,4,0,41.377735269222256,-91.83023556532396,10866.699412531982,84.11625953482024,-0.1285034177394065,-0.0140085331580521,183.22,10456.756926878135,13162.46325448802,150,True,25.17850272557913,False,125.52436227601001,172.64871925025693,False,47.15855880718465,False,False
1,1970-07-23 09:33:44.570310020,2025-09-08,2025-09-26 20:14:17.031,HH,B,3240669212,JASSM,3,129,76,2,2,1,225,9,2,0,1,26,0,0,0,0,-119446.14714967164,-4814984.478590307,4172730.6523118014,2.50566,2.45379,-0.614455,-54.0,44.5,49.5,0.0,0.0,0.0,0.0,0.0,0.0,2,0,41.094363224686695,-91.42105478961648,12000.00064945933,-40.08990162838873,-0.0033387267824779,0.0032991352416809,,10456.756926878135,13162.46325448802,150,1,2025-09-08,2025-09-26 20:14:16.877,HH,B,686468476,AMBUSH51,1,1,48,2,1,1,225,2,1,0,0,9,1,225,2,1,-153053.46454462738,-4793000.845210295,4196187.911481092,-2.29811,0.0392786,-0.0761604,120.876,3.36155,6.91263,-0.183331,-7.19618,6.45004,-0.0061492,-0.00957594,-0.0065778,4,0,41.37781303035018,-91.8289875132924,10863.87464860878,84.03145565380812,-0.1679697162339363,-0.1298095567184967,183.22,10456.756926878135,13162.46325448802,150,True,25.089523489743417,False,125.5476042638034,172.7281882270161,False,47.21450445517016,False,False
1,1970-07-23 09:33:44.580350864,2025-09-08,2025-09-26 20:14:18.035,HH,B,3241921912,JASSM,3,129,76,2,2,1,225,9,2,0,1,26,0,0,0,0,-119503.05730592164,-4814937.714430151,4172782.634245396,2.50566,2.45379,-0.614455,-54.0,44.5,49.5,0.0,0.0,0.0,0.0,0.0,0.0,2,0,41.09498395973682,-91.42174537644392,12000.00099513646,-40.09035555461245,-0.0025286832390815,0.0032975427950899,,10456.756926878135,13162.46325448802,150,1,2025-09-08,2025-09-26 20:14:18.044,HH,B,687860308,AMBUSH51,1,1,48,2,1,1,225,2,1,0,0,9,1,225,2,1,-152911.50951368175,-4792996.650767396,4196195.915390545,-2.30899,0.0376689,-0.0766406,121.026,3.51967,6.83233,-0.0771064,-7.48582,6.60023,-0.00535857,0.0101377,-0.00400827,4,0,41.37791895803591,-91.82729390053848,10859.763370682162,84.07296387182365,-0.0796176369248364,-0.7604360251611471,183.22,10456.756926878135,13162.46325448802,150,True,24.98924906074478,False,125.53122513236019,172.84272701941504,False,47.34752575292235,False,False
1,1970-07-23 09:33:44.591611307,2025-09-08,2025-09-26 20:14:19.161,HH,B,3243234262,JASSM,3,129,76,2,2,1,225,9,2,0,1,26,0,0,0,0,-119562.67839967164,-4814888.722242651,4172837.090300084,2.50566,2.4537,-0.614455,-54.0,44.5,49.5,0.0,0.0,0.0,0.0,0.0,0.0,2,0,41.09563424762581,-91.42246887370706,12000.000418529213,-40.08722131013965,-0.0043451272787538,0.0001297845838398,,10456.756926878135,13162.46325448802,150,1,2025-09-08,2025-09-26 20:14:19.077,HH,B,689093074,AMBUSH51,1,1,48,2,1,1,225,2,1,0,0,9,1,225,2,1,-152787.47194894025,-4792993.158968535,4196203.076529064,-2.31138,0.0349072,-0.0782517,121.015,3.21122,7.22763,-0.175025,-7.46619,6.73486,-0.00031521,0.00727896,0.0113777,4,0,41.37801159621658,-91.8258139834355,10856.968959662623,84.10943137404173,0.1008007295538549,-0.9096940096043498,183.831,10456.756926878135,13162.46325448802,150,True,24.893311320181514,False,125.48650949053611,172.9412264118278,False,47.487763928697824,False,False
1,1970-07-23 09:33:44.602252371,2025-09-08,2025-09-26 20:14:20.225,HH,B,3244546614,JASSM,3,129,76,2,2,1,225,9,2,0,1,26,0,0,0,0,-119622.29949342164,-4814839.729078588,4172891.5453782086,2.50566,2.4537,-0.614455,-54.0,44.5,49.5,0.0,0.0,0.0,0.0,0.0,0.0,2,0,41.09628453005018,-91.42319238552852,11999.999911648942,-40.0876968903406,-0.0034965064127683,0.000128178054099,,10456.756926878135,13162.46325448802,150,1,2025-09-08,2025-09-26 20:14:20.343,HH,B,690604206,AMBUSH51,1,1,48,2,1,1,225,2,1,0,0,9,1,225,2,1,-152633.6457385088,-4792989.374027636,4196212.083500546,-2.2982,0.0342558,-0.080814,121.004,3.06195,7.24807,-0.250906,-7.54691,6.88492,-0.0011204,-0.0049695,-0.00220439,4,0,41.37812406375937,-91.82397843820758,10855.12988181368,84.02539050806332,0.2273567864616661,-0.1576379737845004,183.868,10456.756926878135,13162.46325448802,150,True,24.786502698847677,False,125.5252063142943,173.06761313072596,False,47.575354947487256,False,False
1,1970-07-23 09:33:44.612313654,2025-09-08,2025-09-26 20:14:21.231,HH,B,3245799314,JASSM,3,129,76,2,2,1,225,9,2,0,1,26,0,0,0,0,-119679.20964967164,-4814792.961988744,4172943.524382115,2.50566,2.4537,-0.614359,-54.0,44.5,49.5,0.0,0.0,0.0,0.0,0.0,0.0,2,0,41.09690524953648,-91.42388301346544,11999.99964141872,-40.09141443115754,-0.0071071992754298,0.0001269177799895,,10456.756926878135,13162.46325448802,150,1,2025-09-08,2025-09-26 20:14:21.310,HH,B,691757438,AMBUSH51,1,1,48,2,1,1,225,2,1,0,0,9,1,225,2,1,-152517.70889512458,-4792986.505788359,4196219.116807961,-2.28891,0.0313234,-0.0835225,120.958,2.8521,7.35531,-0.327998,-7.51663,6.75826,0.00661525,0.00210868,-0.00671512,4,0,41.3782105559345,-91.82259501282194,10854.244574071668,84.02108251948985,0.4566385580484948,0.3605905739153407,183.831,10456.756926878135,13162.46325448802,150,True,24.695977360948486,False,125.55072435494742,173.1609772143701,False,47.64220062920275,False,False
1,1970-07-23 09:33:44.623332603,2025-09-08,2025-09-26 20:14:22.333,HH,B,3247111664,JASSM,3,129,76,2,2,1,225,9,2,0,1,26,0,0,0,0,-119738.83074342164,-4814743.967359838,4172997.977995396,2.50566,2.4537,-0.614359,-54.0,44.5,49.5,0.0,0.0,0.0,0.0,0.0,0.0,2,0,41.09755552166517,-91.42460655361226,12000.0013252121,-40.09189004198999,-0.0062585794529359,0.0001252640342983,,10456.756926878135,13162.46325448802,150,1,2025-09-08,2025-09-26 20:14:22.544,HH,B,693228802,AMBUSH51,1,1,48,2,1,1,225,2,1,0,0,9,1,225,2,1,-152368.42602426192,-4792983.3361506695,4196228.098160877,-2.28012,0.0250529,-0.0842887,120.842,2.30436,7.44559,-0.220534,-7.45376,6.75148,0.00215654,-0.00513179,-0.00211076,4,0,41.37831828192063,-91.8208134790385,10854.24070579512,84.22657028605913,0.7552296213264952,0.8362838360974377,183.795,10456.756926878135,13162.46325448802,150,True,24.590971798451218,False,125.68461224938288,173.2850085710207,False,47.62986665437255,False,False
1,1970-07-23 09:33:44.634350700,2025-09-08,2025-09-26 20:14:23.435,HH,B,3248424342,JASSM,3,129,76,2,2,1,225,9,2,0,1,26,0,0,0,0,-119798.46746217164,-4814694.959059057,4173052.4438157086,2.50566,2.4537,-0.614359,-54.0,44.5,49.5,0.0,0.0,0.0,0.0,0.0,0.0,2,0,41.098205950515954,-91.42533029790133,12000.001094193374,-40.09236579322892,-0.0054097441518169,0.0001236158697214,,10456.756926878135,13162.46325448802,150,1,2025-09-08,2025-09-26 20:14:23.344,HH,B,694183202,AMBUSH51,1,1,48,2,1,1,225,2,1,0,0,9,1,225,2,1,-152272.1998235632,-4792981.508332085,4196234.0176294325,-2.28619,0.0230525,-0.0827731,120.803,2.30294,7.26182,-0.0980945,-7.67103,6.59147,-0.00159894,-0.000252792,0.00986722,4,0,41.37838730532084,-91.81966503591543,10855.056382747342,84.368047177319,0.7841618938165571,0.4806645449173928,183.831,10456.756926878135,13162.46325448802,150,True,24.50529842278453,False,125.74963370737271,173.36067566294386,False,47.64182080700483,False,False
1,1970-07-23 09:33:44.645373945,2025-09-08,2025-09-26 20:14:24.537,HH,B,3249736364,JASSM,3,129,76,2,2,1,225,9,2,0,1,26,0,0,0,0,-119858.07293092164,-4814645.973707494,4173106.88180399,2.50566,2.4537,-0.614359,-54.0,44.5,49.5,0.0,0.0,0.0,0.0,0.0,0.0,2,0,41.09885605487939,-91.42605367802054,12000.00022831696,-40.09284131129191,-0.0045613373166402,0.0001219555648115,,10456.756926878135,13162.46325448802,150,1,2025-09-08,2025-09-26 20:14:24.577,HH,B,695654568,AMBUSH51,1,1,48,2,1,1,225,2,1,0,0,9,1,225,2,1,-152122.63840623118,-4792979.151117951,4196243.288490511,-2.29568,0.0161025,-0.0881494,120.639,1.79893,7.50812,-0.19665,-7.59542,6.9589,-0.00328838,0.00458667,0.0019464,4,0,41.37849216292849,-91.81787985819356,10857.676544823127,84.40100962122125,1.286793643205892,-0.0961328869995698,183.783,10456.756926878135,13162.46325448802,150,True,24.400261396736365,False,125.81269523275397,173.48656484874604,False,47.701760656340575,False,False
1,1970-07-23 09:33:44.656249590,2025-09-08,2025-09-26 20:14:25.624,HH,B,3250989066,JASSM,3,129,76,2,2,1,225,9,2,0,1,26,0,0,0,0,-119914.98308717164,-4814599.202711401,4173158.857389928,2.50566,2.4537,-0.614359,-54.0,44.5,49.5,0.0,0.0,0.0,0.0,0.0,0.0,2,0,41.09947675685787,-91.42674436098514,12000.00025624136,-40.09329534148819,-0.0037512954230062,0.0001203710461786,,10456.756926878135,13162.46325448802,150,1,2025-09-08,2025-09-26 20:14:25.709,HH,B,697006632,AMBUSH51,1,1,48,2,1,1,225,2,1,0,0,9,1,225,2,1,-151986.71227505253,-4792977.403100482,4196252.120956947,-2.25934,0.0145794,-0.088599,120.535,1.26989,7.77993,-0.262697,-7.57596,6.77654,0.0504596,0.00397498,0.000731329,4,0,41.37858783948772,-91.8162572785004,10861.920293808113,84.44030020743371,1.3702338754517045,1.979101830539748,183.22,10456.756926878135,13162.46325448802,150,True,24.302587284294397,False,125.8751708800598,173.60141582258146,False,47.75113537300491,False,False
1,1970-07-23 09:33:44.666292761,2025-09-08,2025-09-26 20:14:26.629,HH,B,3252242264,JASSM,3,129,76,2,2,1,225,9,2,0,1,26,0,0,0,0,-119971.91668092164,-4814552.412184057,4173210.852995396,2.50566,2.4537,-0.614359,-54.0,44.5,49.5,0.0,0.0,0.0,0.0,0.0,0.0,2,0,41.10009770244776,-91.4274353414884,12000.000813962435,-40.09374957294046,-0.0029409259462809,0.0001187909719526,,10456.756926878135,13162.46325448802,150,1,2025-09-08,2025-09-26 20:14:26.743,HH,B,698239398,AMBUSH51,1,1,48,2,1,1,225,2,1,0,0,9,1,225,2,1,-151861.58257617906,-4792976.468862061,4196260.129927567,-2.21821,0.00904693,-0.0882845,120.355,0.541962,7.57911,-0.302029,-7.40039,6.84974,0.0322461,0.000213261,0.0163004,4,0,41.37867105977013,-91.81476331915742,10867.231647933362,84.66376140066978,1.5962167432810117,4.313212471571201,182.854,10456.756926878135,13162.46325448802,150,True,24.20868540655035,False,126.16680288225562,173.7065321769953,False,47.562636471722506,False,False
1,1970-07-23 09:33:44.677311801,2025-09-08,2025-09-26 20:14:27.731,HH,B,3253554456,JASSM,3,129,76,2,2,1,225,9,2,0,1,26,0,0,0,0,-120031.52996217164,-4814503.417555151,4173265.2953782086,2.50566,2.4537,-0.614359,-54.0,44.5,49.5,0.0,0.0,0.0,0.0,0.0,0.0,2,0,41.10074787689731,-91.42815885878623,12000.000326833047,-40.09422519925226,-0.0020924090722817,0.0001171321049303,,10456.756926878135,13162.46325448802,150,1,2025-09-08,2025-09-26 20:14:27.910,HH,B,699631230,AMBUSH51,1,1,48,2,1,1,225,2,1,0,0,9,1,225,2,1,-151722.2699913638,-4792976.459809276,4196268.510811767,-2.17276,-0.00242466,-0.0811958,120.135,-0.446533,6.82333,-0.186325,-7.3151,6.5322,0.043808,-0.00127436,0.00817362,4,0,41.378753940585085,-91.81309963290626,10874.529388691935,85.40291123841368,1.8202622794257244,6.883921577050295,182.646,10456.756926878135,13162.46325448802,150,True,24.10703240775384,False,126.73959152748262,173.82440158803902,False,47.10674594392929,False,False
1,1970-07-23 09:33:44.688330269,2025-09-08,2025-09-26 20:14:28.833,HH,B,3254866706,JASSM,3,129,76,2,2,1,225,9,2,0,1,26,0,0,0,0,-120091.14714967164,-4814454.420484838,4173319.738737584,2.50566,2.4536,-0.614359,-54.0,44.5,49.5,0.0,0.0,0.0,0.0,0.0,0.0,2,0,41.10139806721511,-91.42888243753713,12000.000741237996,-40.091090671035424,-0.0039088990791646,-0.0030501524044021,,10456.756926878135,13162.46325448802,150,1,2025-09-08,2025-09-26 20:14:28.676,HH,B,700545862,AMBUSH51,1,1,48,2,1,1,225,2,1,0,0,9,1,225,2,1,-151630.2346218743,-4792976.923538277,4196273.6324023865,-2.15375,-0.0068518,-0.0759037,120.022,-1.26473,6.32051,-0.28061,-7.45647,6.79583,0.0153184,-0.000810392,0.0186848,4,0,41.3788030854383,-91.81200035723606,10879.611440717654,85.79851498313707,1.8104598375830048,7.965367377476007,182.328,10456.756926878135,13162.46325448802,150,True,24.022473504066024,False,127.17174137280276,173.8979425350809,False,46.7468479271273,False,False
1,1970-07-23 09:33:44.700333690,2025-09-08,2025-09-26 20:14:30.033,HH,B,3256238468,JASSM,3,129,76,2,2,1,225,9,2,0,1,26,0,0,0,0,-120153.46746217164,-4814403.199293432,4173376.650846959,2.50566,2.4536,-0.614263,-54.0,44.5,49.5,0.0,0.0,0.0,0.0,0.0,0.0,2,0,41.10207774950808,-91.42963884034788,12000.000295636184,-40.09484922541636,-0.0074400242898902,-0.003051528274918,,10456.756926878135,13162.46325448802,150,1,2025-09-08,2025-09-26 20:14:30.046,HH,B,702176294,AMBUSH51,1,1,48,2,1,1,225,2,1,0,0,9,1,225,2,1,-151466.53812222162,-4792979.378456702,4196281.07416339,-2.13793,-0.0190828,-0.0614486,119.78,-2.41348,4.5596,-0.217287,-7.33813,6.62927,0.00721654,0.00990051,0.00210036,4,0,41.37886951616162,-91.81004453899718,10889.055617616325,86.8839547202023,1.7894261266158735,8.85788732909217,181.876,10456.756926878135,13162.46325448802,150,True,23.90850024694584,False,128.16462268391857,174.0370734605262,False,45.89519200113414,False,False
1,1970-07-23 09:33:44.710775212,2025-09-08,2025-09-26 20:14:31.077,HH,B,3257491168,JASSM,3,129,76,2,2,1,225,9,2,0,1,26,0,0,0,0,-120210.37761842164,-4814356.423414526,4173428.622038365,2.50566,2.4536,-0.614263,-54.0,44.5,49.5,0.0,0.0,0.0,0.0,0.0,0.0,2,0,41.10269842872263,-91.43032959226603,12000.00048280514,-40.09530333012971,-0.0066299828446804,-0.0030531063032987,,10456.756926878135,13162.46325448802,150,1,2025-09-08,2025-09-26 20:14:31.210,HH,B,703568126,AMBUSH51,1,1,48,2,1,1,225,2,1,0,0,9,1,225,2,1,-151326.0469697288,-4792982.967215695,4196285.693345433,-2.12122,-0.0253153,-0.051108,119.638,-3.76885,3.29375,-0.210262,-7.07034,6.41146,0.00935956,0.00487587,0.00819234,4,0,41.378905755888766,-91.8083654138539,10896.984585638658,87.56567643135321,1.6668818340829437,9.815579995228989,181.375,10456.756926878135,13162.46325448802,150,True,23.80699822105613,False,129.0444781595047,174.1547031155151,False,45.13230942486498,False,False
1,1970-07-23 09:33:44.721594611,2025-09-08,2025-09-26 20:14:32.159,HH,B,3258743868,JASSM,3,129,76,2,2,1,225,9,2,0,1,26,0,0,0,0,-120267.28777467164,-4814309.646559057,4173480.5922532086,2.50566,2.4536,-0.614263,-54.0,44.5,49.5,0.0,0.0,0.0,0.0,0.0,0.0,2,0,41.10331910288235,-91.43102035748116,12000.000331862431,-40.09575744924561,-0.0058199419938071,-0.0030546835945931,,10456.756926878135,13162.46325448802,150,1,2025-09-08,2025-09-26 20:14:32.310,HH,B,704880424,AMBUSH51,1,1,48,2,1,1,225,2,1,0,0,9,1,225,2,1,-151195.30377196864,-4792987.5473947,4196288.4199490985,-2.07544,-0.0388699,-0.0366032,119.483,-4.9512,1.64425,-0.210373,-7.29725,6.60214,0.0785373,0.00264756,0.0127114,4,0,41.37892146785493,-91.80680232669997,10904.015222930677,88.70364917331703,1.7014138064293851,12.437920941790283,181.094,10456.756926878135,13162.46325448802,150,False,23.708500459342133,False,130.01386002624614,174.26240922508867,False,44.27215806650849,False,False
1,1970-07-23 09:33:44.732274105,2025-09-08,2025-09-26 20:14:33.227,HH,B,3260056218,JASSM,3,129,76,2,2,1,225,9,2,0,1,26,0,0,0,0,-120326.90886842164,-4814260.641187963,4173535.036589146,2.50576,2.4536,-0.614263,-54.0,44.5,49.5,0.0,0.0,0.0,0.0,0.0,0.0,2,0,41.10396933007673,-91.43174404160212,12000.000726217058,-40.09623321580215,-0.0049713210919119,0.0024351416258972,,10456.756926878135,13162.46325448802,150,1,2025-09-08,2025-09-26 20:14:33.410,HH,B,706192722,AMBUSH51,1,1,48,2,1,1,225,2,1,0,0,9,1,225,2,1,-151063.21660569776,-4792994.02072251,4196288.888740534,-2.00774,-0.0509564,-0.0223132,119.272,-6.71519,-0.439737,-0.330507,-7.3378,6.69298,0.0421664,0.00916606,0.0232829,4,0,41.378910907594815,-91.80522247732854,10910.712010285892,89.77709562180793,1.68118244053095,16.328204746372712,180.556,10456.756926878135,13162.46325448802,150,False,23.606137333600543,False,131.32493287222312,174.36898160913924,False,43.0682764345435,False,False
1,1970-07-23 09:33:44.744820736,2025-09-08,2025-09-26 20:14:34.482,HH,B,3261368570,JASSM,3,129,76,2,2,1,225,9,2,0,1,26,0,0,0,0,-120386.52996217164,-4814211.634352026,4173589.479948521,2.50576,2.4536,-0.614263,-54.0,44.5,49.5,0.0,0.0,0.0,0.0,0.0,0.0,2,0,41.10461955469369,-91.43246774043502,11999.999983533113,-40.09670899824359,-0.0041226985128908,0.0024334937167855,,10456.756926878135,13162.46325448802,150,1,2025-09-08,2025-09-26 20:14:34.544,HH,B,707544788,AMBUSH51,1,1,48,2,1,1,225,2,1,0,0,9,1,225,2,1,-150928.9093471809,-4793002.485272043,4196286.610864343,-1.96293,-0.0674226,0.00790552,119.051,-8.41565,-3.52915,-0.246858,-7.22848,6.61271,0.0522926,0.0146443,0.0220741,4,0,41.37887035425686,-91.80361536786374,10916.188464800009,91.70153360803832,1.245593865087822,18.93797503947877,180.434,10456.756926878135,13162.46325448802,150,False,23.501719388876584,False,132.9875337620807,174.47536225011106,False,41.517349699760246,False,False
1,1970-07-23 09:33:44.754331037,2025-09-08,2025-09-26 20:14:35.433,HH,B,3262680926,JASSM,3,129,76,2,2,1,225,9,2,0,1,26,0,0,0,0,-120446.15105592164,-4814162.626539526,4173643.922819615,2.50576,2.4536,-0.614263,-54.0,44.5,49.5,0.0,0.0,0.0,0.0,0.0,0.0,2,0,41.10526977715628,-91.43319145383543,12000.000363771233,-40.09718479647516,-0.0032740740033664,0.0024318444145653,,10456.756926878135,13162.46325448802,150,1,2025-09-08,2025-09-26 20:14:35.310,HH,B,708459420,AMBUSH51,1,1,48,2,1,1,225,2,1,0,0,9,1,225,2,1,-150837.83767504885,-4793009.681683294,4196282.926751721,-1.9301,-0.0808484,0.0252332,118.781,-9.95634,-5.63899,-0.308817,-7.36122,6.68684,0.0310373,0.00916814,0.0231809,4,0,41.37881973375392,-91.8025250659602,10918.85157254439,92.95584349164716,1.1662658037059817,20.85777337336208,180.312,10456.756926878135,13162.46325448802,150,False,23.41361955182993,False,134.24470541513313,174.54185597563162,False,40.328650504299354,False,False
1,1970-07-23 09:33:44.765370980,2025-09-08,2025-09-26 20:14:36.537,HH,B,3263993272,JASSM,3,129,76,2,2,1,225,9,2,0,1,26,0,0,0,0,-120505.76824342164,-4814113.618238744,4173698.363737584,2.50576,2.4536,-0.614263,-54.0,44.5,49.5,0.0,0.0,0.0,0.0,0.0,0.0,2,0,41.10591998522163,-91.43391513519708,11999.999672328366,-40.097660579854754,-0.0024254795476629,0.0024301747411297,,10456.756926878135,13162.46325448802,150,1,2025-09-08,2025-09-26 20:14:36.445,HH,B,709811486,AMBUSH51,1,1,48,2,1,1,225,2,1,0,0,9,1,225,2,1,-150702.7702875435,-4793022.433841545,4196274.48244909,-1.92843,-0.109811,0.0550726,118.284,-12.5234,-8.95524,-0.136754,-7.59655,6.97709,0.00104134,0.015129,0.0294352,4,0,41.37871215103237,-91.80090727418644,10921.461440379602,95.3365550954418,1.276454051603692,21.071044921829,180.141,10456.756926878135,13162.46325448802,150,False,23.306173373302745,False,136.27086857087366,174.64352024319703,False,38.4066149174964,False,False
1,1970-07-23 09:33:44.776288976,2025-09-08,2025-09-26 20:14:37.628,HH,B,3265306070,JASSM,3,129,76,2,2,1,225,9,2,0,1,26,0,0,0,0,-120565.40886842164,-4814064.591871557,4173752.82321024,2.50576,2.4536,-0.614263,-54.0,44.5,49.5,0.0,0.0,0.0,0.0,0.0,0.0,2,0,41.10657041787251,-91.4346391149896,12000.000396202526,-40.09813656565445,-0.0015765719538743,0.0024285212435568,,10456.756926878135,13162.46325448802,150,1,2025-09-08,2025-09-26 20:14:37.510,HH,B,711084018,AMBUSH51,1,1,48,2,1,1,225,2,1,0,0,9,1,225,2,1,-150577.63651685062,-4793037.252551258,4196263.16240087,-1.93702,-0.130222,0.0845842,117.738,-15.0551,-12.0676,-0.119707,-7.60455,6.80711,-0.00624491,0.00303871,0.0304297,4,0,41.37857098345062,-91.79940734187424,10923.6968521633,97.37682546697856,1.0265626875520943,20.70134306321808,180.055,10456.756926878135,13162.46325448802,150,False,23.201154841280285,False,138.21521455584346,174.73341479420856,False,36.55388525812495,False,False
1,1970-07-23 09:33:44.790088178,2025-09-08,2025-09-26 20:14:39.008,HH,B,3266618428,JASSM,3,129,76,2,2,1,225,9,2,0,1,26,0,0,0,0,-120625.02996217164,-4814015.581129369,4173807.263151646,2.50576,2.45351,-0.614263,-54.0,44.5,49.5,0.0,0.0,0.0,0.0,0.0,0.0,2,0,41.10722062393715,-91.43536287210073,12000.000986947663,-40.09500181814212,-0.0033929743995996,-0.0007383029226717,,10456.756926878135,13162.46325448802,150,1,2025-09-08,2025-09-26 20:14:38.877,HH,B,712714450,AMBUSH51,1,1,48,2,1,1,225,2,1,0,0,9,1,225,2,1,-150416.3803041682,-4793060.105304345,4196243.979568527,-1.97365,-0.152392,0.112516,116.962,-17.9774,-15.9115,-0.188907,-7.67196,6.96069,-0.0291918,0.00362336,0.0332219,4,0,41.37833567250697,-91.79747302546956,10925.8671323101,99.41405285701032,0.9050107859847196,18.7621884557575,179.774,10456.756926878135,13162.46325448802,150,False,23.078299990425027,False,140.55935931472717,174.8481113252161,False,34.32809917221591,False,False
1,1970-07-23 09:33:44.796374625,2025-09-08,2025-09-26 20:14:39.637,HH,B,3267692170,JASSM,3,129,76,2,2,1,225,9,2,0,1,26,0,0,0,0,-120673.81121217164,-4813975.480543432,4173851.80367899,2.50576,2.45351,-0.614168,-54.0,44.5,49.5,0.0,0.0,0.0,0.0,0.0,0.0,2,0,41.107752604051576,-91.43595505211906,12000.000031034231,-40.09865424042633,-0.0071197438288781,-0.0007393225093191,,10456.756926878135,13162.46325448802,150,1,2025-09-08,2025-09-26 20:14:39.644,HH,B,713629082,AMBUSH51,1,1,48,2,1,1,225,2,1,0,0,9,1,225,2,1,-150327.80265848336,-4793074.621190527,4196231.015700829,-1.98724,-0.168025,0.132194,116.441,-19.6108,-17.8804,-0.0798132,-7.57769,6.84919,-0.0230873,0.0065237,0.0179274,4,0,41.37817834416002,-91.79640978106612,10926.632109031392,100.84779321654872,0.8143740654766004,18.113989357402247,179.725,10456.756926878135,13162.46325448802,150,False,22.9959789493144,False,141.81190091407998,174.90572352874509,False,33.13431026150231,False,False
1,1970-07-23 09:33:44.806251379,2025-09-08,2025-09-26 20:14:40.625,HH,B,3268885216,JASSM,3,129,76,2,2,1,225,9,2,0,1,26,0,0,0,0,-120728.01043092164,-4813930.923414526,4173901.2929368014,2.50576,2.45351,-0.614168,-54.0,44.5,49.5,0.0,0.0,0.0,0.0,0.0,0.0,2,0,41.10834369374596,-91.43661301559057,11999.999690417046,-40.09908683878981,-0.0063482782141371,-0.0007408274420603,,10456.756926878135,13162.46325448802,150,1,2025-09-08,2025-09-26 20:14:40.743,HH,B,714941380,AMBUSH51,1,1,48,2,1,1,225,2,1,0,0,9,1,225,2,1,-150199.4417339317,-4793097.928089906,4196209.92517772,-2.0133,-0.188219,0.151201,115.665,-22.059,-20.25,-0.291729,-7.60045,7.15904,-0.0214145,0.00779079,0.0222239,4,0,41.37792127190199,-91.79486815610022,10928.340279796175,102.42486925913788,0.9362253407801484,16.808475554241085,179.725,10456.756926878135,13162.46325448802,150,False,22.889528299157252,False,143.4799077595051,174.98996832728602,False,31.548600393368023,False,False
1,1970-07-23 09:33:44.816289685,2025-09-08,2025-09-26 20:14:41.628,HH,B,3270137460,JASSM,3,129,76,2,2,1,225,9,2,0,1,26,0,0,0,0,-120784.90105592164,-4813884.154859838,4173953.2367844586,2.50576,2.45351,-0.614168,-54.0,44.5,49.5,0.0,0.0,0.0,0.0,0.0,0.0,2,0,41.10896410462871,-91.43730366433044,11999.999999232376,-40.09954093261557,-0.00553852420587,-0.0007423900004563,,10456.756926878135,13162.46325448802,150,1,2025-09-08,2025-09-26 20:14:41.644,HH,B,716015080,AMBUSH51,1,1,48,2,1,1,225,2,1,0,0,9,1,225,2,1,-150095.6530905156,-4793118.647770238,4196190.911006887,-2.03386,-0.207794,0.167673,114.845,-23.7613,-22.1957,-0.122292,-7.76411,6.9126,-0.00843577,0.00764306,0.037098,4,0,41.37768900859447,-91.79362095428202,10930.087448087816,103.8690790327957,1.1219953154900877,15.834308148753882,179.689,10456.756926878135,13162.46325448802,150,False,22.79129520671783,False,144.77966820931317,175.05376174706169,False,30.313071303549574,False,False
1,1970-07-23 09:33:44.826328676,2025-09-08,2025-09-26 20:14:42.632,HH,B,3271330508,JASSM,3,129,76,2,2,1,225,9,2,0,1,26,0,0,0,0,-120839.10418092164,-4813839.596266088,4174002.7245774274,2.50576,2.45351,-0.614168,-54.0,44.5,49.5,0.0,0.0,0.0,0.0,0.0,0.0,2,0,41.10955518464879,-91.43796169889178,12000.000895224,-40.09997358824695,-0.0047670374054395,-0.0007438666663164,,10456.756926878135,13162.46325448802,150,1,2025-09-08,2025-09-26 20:14:42.776,HH,B,717367144,AMBUSH51,1,1,48,2,1,1,225,2,1,0,0,9,1,225,2,1,-149967.24077296373,-4793146.582851248,4196165.319043598,-2.05205,-0.228237,0.186745,113.947,-26.0128,-23.9067,-0.0952546,-7.51474,6.82397,-0.00957802,0.0145007,0.0190218,4,0,41.377373992866254,-91.79207700932776,10933.434021705005,105.45499046360156,1.2354815233530416,15.03136533857502,179.64,10456.756926878135,13162.46325448802,150,False,22.682398939011282,False,146.17024915584082,175.13353499725355,False,28.99728547833145,True,False
1,1970-07-23 09:33:44.837346121,2025-09-08,2025-09-26 20:14:43.734,HH,B,3272583206,JASSM,3,129,76,2,2,1,225,9,2,0,1,26,0,0,0,0,-120896.01433717164,-4813792.808668432,4174054.685514928,2.50576,2.45351,-0.614168,-54.0,44.5,49.5,0.0,0.0,0.0,0.0,0.0,0.0,2,0,41.11017581293538,-91.43865261103312,12000.000383925446,-40.100427866307065,-0.0039569954771153,-0.0007454373332745,,10456.756926878135,13162.46325448802,150,1,2025-09-08,2025-09-26 20:14:43.609,HH,B,718361310,AMBUSH51,1,1,48,2,1,1,225,2,1,0,0,9,1,225,2,1,-149871.62059626757,-4793169.12748021,4196144.35221623,-2.07091,-0.244208,0.199053,113.171,-27.4394,-25.5306,-0.177692,-7.79448,6.87334,-0.00752863,0.00656116,0.0286508,4,0,41.37711614407276,-91.7909266945164,10936.078871144724,106.58336331934755,1.418036035056396,14.152352522002474,179.725,10456.756926878135,13162.46325448802,150,False,22.586216307297995,False,147.27233039515636,175.18805104553533,False,27.949837040595483,True,False
1,1970-07-23 09:33:44.847228458,2025-09-08,2025-09-26 20:14:44.722,HH,B,3273835910,JASSM,3,129,76,2,2,1,225,9,2,0,1,26,0,0,0,0,-120952.92449342164,-4813746.020094213,4174106.645964146,2.50576,2.45351,-0.614168,-54.0,44.5,49.5,0.0,0.0,0.0,0.0,0.0,0.0,2,0,41.1107964394775,-91.4393435364786,12000.00058782032,-40.1008821587757,-0.0031469516085467,-0.0007470093957324,,10456.756926878135,13162.46325448802,150,1,2025-09-08,2025-09-26 20:14:44.743,HH,B,719713376,AMBUSH51,1,1,48,2,1,1,225,2,1,0,0,9,1,225,2,1,-149745.24178348813,-4793201.172426491,4196114.450624107,-2.08411,-0.26347,0.214333,112.092,-29.2905,-27.5694,-0.226762,-7.60427,7.06493,-0.0102792,0.00445351,0.0200268,4,0,41.37674717596606,-91.7894055276025,10940.36478882531,107.96155270825588,1.6136424931887867,13.658981620390238,179.689,10456.756926878135,13162.46325448802,150,False,22.473515493917162,False,148.69146420878263,175.2611282495144,False,26.603370514571722,True,False
1,1970-07-23 09:33:44.858229640,2025-09-08,2025-09-26 20:14:45.822,HH,B,3275088602,JASSM,3,129,76,2,2,1,225,9,2,0,1,26,0,0,0,0,-121009.83464967164,-4813699.230543432,4174158.6054368014,2.50576,2.45351,-0.614168,-54.0,44.5,49.5,0.0,0.0,0.0,0.0,0.0,0.0,2,0,41.11141706096432,-91.44003447522884,12000.000453588254,-40.10133646565354,-0.0023369083320377,-0.0007485807211133,,10456.756926878135,13162.46325448802,150,1,2025-09-08,2025-09-26 20:14:45.976,HH,B,721184740,AMBUSH51,1,1,48,2,1,1,225,2,1,0,0,9,1,225,2,1,-149607.36711999722,-4793238.8084188495,4196079.271986919,-2.08562,-0.281958,0.2303,110.919,-31.4038,-29.3844,-0.233934,-7.62151,6.98925,0.0116669,0.00657572,0.0188783,4,0,41.37631144314064,-91.78774501296996,10946.090755524465,109.33741225657435,1.741787115328396,13.846462720959403,179.518,10456.756926878135,13162.46325448802,150,False,22.353576140593354,False,150.12415724628525,175.3391504289709,False,25.24477278949866,True,False
1,1970-07-23 09:33:44.869230803,2025-09-08,2025-09-26 20:14:46.923,HH,B,3276281650,JASSM,3,129,76,2,2,1,225,9,2,0,1,26,0,0,0,0,-121064.03386842164,-4813654.668043432,4174208.0898118014,2.50576,2.45351,-0.614168,-54.0,44.5,49.5,0.0,0.0,0.0,0.0,0.0,0.0,2,0,41.11200812564704,-91.44069251347496,11999.999821917476,-40.10176914501523,-0.0015654434532568,-0.0007500837294987,,10456.756926878135,13162.46325448802,150,1,2025-09-08,2025-09-26 20:14:46.944,HH,B,722337972,AMBUSH51,1,1,48,2,1,1,225,2,1,0,0,9,1,225,2,1,-149501.02606053517,-4793269.801257334,4196049.961804125,-2.07186,-0.297654,0.245071,109.881,-32.8715,-31.211,-0.292092,-7.5297,6.97288,0.012185,0.0055375,0.0208548,4,0,41.37594896688715,-91.7864635621318,10950.62735586522,110.55436020449471,1.794916533400719,14.883951178382294,179.188,10456.756926878135,13162.46325448802,150,False,22.251157226086118,False,151.35802342253362,175.3953281801436,False,24.067787659231108,True,False
1,1970-07-23 09:33:44.880367726,2025-09-08,2025-09-26 20:14:48.036,HH,B,3277594002,JASSM,3,129,76,2,2,1,225,9,2,0,1,26,0,0,0,0,-121123.65496217164,-4813605.648512182,4174262.5219407086,2.50576,2.45341,-0.614072,-54.0,44.5,49.5,0.0,0.0,0.0,0.0,0.0,0.0,2,0,41.11265829208261,-91.44141639264583,12000.000224112564,-40.101894944033866,-0.0078003560042177,-0.0039161510939473,,10456.756926878135,13162.46325448802,150,1,2025-09-08,2025-09-26 20:14:48.076,HH,B,723690038,AMBUSH51,1,1,48,2,1,1,225,2,1,0,0,9,1,225,2,1,-149377.08902737935,-4793308.266438032,4196013.374390831,-2.0678,-0.317047,0.263779,108.503,-34.7977,-33.1261,-0.190816,-7.49001,6.94261,0.011022,0.0065133,0.0199269,4,0,41.37549616612489,-91.78496921934271,10956.427191898672,112.07403645780438,1.8315685729462343,15.44445071115972,179.066,10456.756926878135,13162.46325448802,150,False,22.133522687992905,False,152.81538574024327,175.458873383594,False,22.671548056303962,True,False
1,1970-07-23 09:33:44.890330214,2025-09-08,2025-09-26 20:14:49.033,HH,B,3278906352,JASSM,3,129,76,2,2,1,225,9,2,0,1,26,0,0,0,0,-121183.27214967164,-4813556.628004369,4174316.953093053,2.50576,2.45341,-0.614072,-54.0,44.5,49.5,0.0,0.0,0.0,0.0,0.0,0.0,2,0,41.11330845363377,-91.44214023992564,12000.00045297715,-40.1023709066951,-0.0069517562690767,-0.0039178118842088,,10456.756926878135,13162.46325448802,150,1,2025-09-08,2025-09-26 20:14:49.143,HH,B,724962570,AMBUSH51,1,1,48,2,1,1,225,2,1,0,0,9,1,225,2,1,-149261.40338818528,-4793346.596465136,4195976.447115608,-2.02544,-0.335219,0.280871,107.074,-36.5238,-35.454,-0.127954,-7.42925,6.80187,0.0903613,0.0185433,0.0256215,4,0,41.37504032700004,-91.78357348329726,10961.799017906726,113.476770111553,1.8718230048437496,18.19638936934466,178.809,10456.756926878135,13162.46325448802,150,False,22.018913523935925,False,154.37504148999992,175.5145771402312,False,21.16931877983222,True,False
1,1970-07-23 09:33:44.900229110,2025-09-08,2025-09-26 20:14:50.022,HH,B,3280099398,JASSM,3,129,76,2,2,1,225,9,2,0,1,26,0,0,0,0,-121237.47527467164,-4813512.063062963,4174366.435026646,2.50585,2.45341,-0.614072,-54.0,44.5,49.5,0.0,0.0,0.0,0.0,0.0,0.0,2,0,41.11389950340142,-91.4427983631426,12000.000902053089,-40.10280365817858,-0.0061802707892862,0.0015858512985887,,10456.756926878135,13162.46325448802,150,1,2025-09-08,2025-09-26 20:14:50.176,HH,B,726195336,AMBUSH51,1,1,48,2,1,1,225,2,1,0,0,9,1,225,2,1,-149152.45957846154,-4793385.16539754,4195938.480555624,-1.97425,-0.354839,0.302181,105.399,-38.5258,-37.952,-0.243293,-7.28518,6.82021,0.0345597,0.00540643,0.0364094,4,0,41.37457478509195,-91.78225818645836,10966.02951424438,115.10408558441706,1.7870042414805325,21.50442187436644,178.393,10456.756926878135,13162.46325448802,150,False,21.911080411297654,False,156.12114411513542,175.56396170973414,False,19.473159264949615,True,False
1,1970-07-23 09:33:44.910269810,2025-09-08,2025-09-26 20:14:51.026,HH,B,3281292558,JASSM,3,129,76,2,2,1,225,9,2,0,1,26,0,0,0,0,-121291.67839967164,-4813467.492750463,4174415.92086649,2.50585,2.45341,-0.614072,-54.0,44.5,49.5,0.0,0.0,0.0,0.0,0.0,0.0,2,0,41.11449060760729,-91.44345649977504,12000.000299544196,-40.1032364236148,-0.0054087400465902,0.0015843454322904,,10456.756926878135,13162.46325448802,150,1,2025-09-08,2025-09-26 20:14:50.876,HH,B,727030434,AMBUSH51,1,1,48,2,1,1,225,2,1,0,0,9,1,225,2,1,-149079.09728046533,-4793412.543922419,4195911.066791876,-1.96012,-0.37314,0.324444,104.128,-39.9025,-39.9127,-0.22499,-7.48738,6.94749,0.0395927,0.0100815,0.0406267,4,0,41.37424044652689,-91.78137195971804,10968.33751657211,116.71337857691124,1.5966035130628808,22.684840417686097,178.308,10456.756926878135,13162.46325448802,150,False,21.822459653862946,False,157.43167255801444,175.59222797590303,False,18.193255825453708,True,False
1,1970-07-23 09:33:44.920328578,2025-09-08,2025-09-26 20:14:52.032,HH,B,3282485802,JASSM,3,129,76,2,2,1,225,9,2,0,1,26,0,0,0,0,-121345.88933717164,-4813422.918531713,4174465.409636021,2.50585,2.45341,-0.614072,-54.0,44.5,49.5,0.0,0.0,0.0,0.0,0.0,0.0,2,0,41.11508174979937,-91.44411474232184,12000.000645539098,-40.103669263835336,-0.0046371317347941,0.0015828668872351,,10456.756926878135,13162.46325448802,150,1,2025-09-08,2025-09-26 20:14:52.075,HH,B,728462032,AMBUSH51,1,1,48,2,1,1,225,2,1,0,0,9,1,225,2,1,-148954.9665951439,-4793461.882831585,4195861.0218402445,-1.95746,-0.402544,0.35622,101.707,-42.319,-43.1495,-0.173486,-7.39655,6.70958,0.00139712,0.00284521,0.0399339,4,0,41.37363208590055,-91.7798713465795,10971.729860368689,119.12458652678568,1.4207587980065874,23.46339421323617,178.308,10456.756926878135,13162.46325448802,150,False,21.7026645181414,False,159.71003724869394,175.64224150465364,False,15.967679802009226,True,False
1,1970-07-23 09:33:44.930347378,2025-09-08,2025-09-26 20:14:53.034,HH,B,3283678854,JASSM,3,129,76,2,2,1,225,9,2,0,1,26,0,0,0,0,-121400.08855592164,-4813378.350660619,4174514.88961649,2.50585,2.45341,-0.614072,-54.0,44.5,49.5,0.0,0.0,0.0,0.0,0.0,0.0,2,0,41.11567279277724,-91.44477285536932,12000.000778567288,-40.10410202403458,-0.0038656650451896,0.0015813683856538,,10456.756926878135,13162.46325448802,150,1,2025-09-08,2025-09-26 20:14:53.142,HH,B,729734564,AMBUSH51,1,1,48,2,1,1,225,2,1,0,0,9,1,225,2,1,-148848.43432255072,-4793507.61661903,4195813.367400705,-1.97037,-0.429106,0.385458,99.4498,-44.3503,-46.2109,-0.116533,-7.46309,6.85695,0.000845762,0.0132149,0.0476175,4,0,41.37305803451585,-91.77858224600187,10972.789579045915,121.31029941023402,1.2053329697915196,23.325194054049373,177.77,10456.756926878135,13162.46325448802,150,False,21.59105008750042,False,161.7937755179316,175.67856784788785,False,13.927113941126498,True,False
1,1970-07-23 09:33:44.940348387,2025-09-08,2025-09-26 20:14:54.034,HH,B,3284931560,JASSM,3,129,76,2,2,1,225,9,2,0,1,26,0,0,0,0,-121456.99871217164,-4813331.553297338,4174566.84274149,2.50585,2.45341,-0.614072,-54.0,44.5,49.5,0.0,0.0,0.0,0.0,0.0,0.0,2,0,41.1162933843528,-91.44546389872228,12000.000503121297,-40.10455644398201,-0.0030556188800946,0.0015798015063834,,10456.756926878135,13162.46325448802,150,1,2025-09-08,2025-09-26 20:14:54.176,HH,B,730967330,AMBUSH51,1,1,48,2,1,1,225,2,1,0,0,9,1,225,2,1,-148746.37897440235,-4793554.749976863,4195763.286827473,-1.97401,-0.455191,0.414159,97.2125,-46.4318,-49.326,-0.248662,-7.39904,7.13795,-0.000854084,0.0112903,0.0360598,4,0,41.37245843745542,-91.77734610936632,10972.382354533844,123.44186532343744,0.9602306338750656,23.738641264729253,178.479,10456.756926878135,13162.46325448802,150,False,21.477708116441757,False,163.89785480551777,175.70738852574118,False,11.861321817331408,True,False
1,1970-07-23 09:33:44.950264515,2025-09-08,2025-09-26 20:14:55.026,HH,B,3286064954,JASSM,3,129,76,2,2,1,225,9,2,0,1,26,0,0,0,0,-121508.49089967164,-4813289.212477026,4174613.84664774,2.50585,2.45341,-0.614072,-54.0,44.5,49.5,0.0,0.0,0.0,0.0,0.0,0.0,2,0,41.11685486126925,-91.44608916408453,12000.000313902085,-40.10496761416916,-0.0023227135881691,0.0015784025157093,,10456.756926878135,13162.46325448802,150,1,2025-09-08,2025-09-26 20:14:55.143,HH,B,732120562,AMBUSH51,1,1,48,2,1,1,225,2,1,0,0,9,1,225,2,1,-148654.2624743739,-4793600.033279041,4195714.343192183,-2.0015,-0.482483,0.439514,95.1185,-48.3669,-52.0922,-0.18399,-7.42376,7.20827,-0.0323813,0.0118438,0.0326185,4,0,41.37187567184355,-91.77622936094974,10970.653997709103,125.47433067348132,0.8632234155822108,22.84327309847846,178.858,10456.756926878135,13162.46325448802,150,False,21.37348853372036,False,165.80903148520682,175.72900907519946,False,9.981959038161701,True,False
1,1970-07-23 09:33:44.960265356,2025-09-08,2025-09-26 20:14:56.026,HH,B,3287257676,JASSM,3,129,76,2,2,1,225,9,2,0,1,26,0,0,0,0,-121562.67449342164,-4813244.654371557,4174663.310514928,2.50585,2.45341,-0.614072,-54.0,44.5,49.5,0.0,0.0,0.0,0.0,0.0,0.0,2,0,41.117445728102176,-91.44674712373902,12000.0002160796,-40.1054002889003,-0.0015514647302102,0.0015769013726781,,10456.756926878135,13162.46325448802,150,1,2025-09-08,2025-09-26 20:14:55.942,HH,B,733074962,AMBUSH51,1,1,48,2,1,1,225,2,1,0,0,9,1,225,2,1,-148578.9564954263,-4793639.14360317,4195671.789387004,-2.02661,-0.506769,0.463566,93.3787,-49.9715,-54.1917,-0.22915,-7.47703,7.24613,-0.025765,0.00868336,0.0322461,4,0,41.37136965042121,-91.77531565096622,10968.87925555234,127.32815579015592,0.6830478501006906,22.03715880270149,179.31,10456.756926878135,13162.46325448802,150,False,21.2766776590861,False,167.32969000676212,175.74155014748607,False,8.481208230492076,True,False
1,1970-07-23 09:33:44.970309166,2025-09-08,2025-09-26 20:14:57.030,HH,B,3288450724,JASSM,3,129,76,2,2,1,225,9,2,0,1,26,0,0,0,0,-121616.87371217164,-4813200.083082494,4174712.7875657086,2.50585,2.45341,-0.613976,-54.0,44.5,49.5,0.0,0.0,0.0,0.0,0.0,0.0,2,0,41.11803675615735,-91.44740528503633,12000.00075371063,-40.109095934752965,-0.0052012760807652,0.0015755736297716,,10456.756926878135,13162.46325448802,150,1,2025-09-08,2025-09-26 20:14:56.909,HH,B,734228194,AMBUSH51,1,1,48,2,1,1,225,2,1,0,0,9,1,225,2,1,-148489.29200861423,-4793688.519160376,4195617.430842166,-2.0699,-0.532432,0.486266,91.2343,-51.7707,-56.8559,-0.106929,-7.283,7.11817,-0.041975,0.00196096,0.0351319,4,0,41.37072551478223,-91.774226704509,10965.67902210736,129.1701456867747,0.5765545956616683,20.249557109984387,180.019,10456.756926878135,13162.46325448802,150,False,21.168392521871375,False,169.17351220469783,175.75369327336372,False,6.671858066027394,True,False
1,1970-07-23 09:33:44.979370771,2025-09-08,2025-09-26 20:14:57.937,HH,B,3289643770,JASSM,3,129,76,2,2,1,225,9,2,0,1,26,0,0,0,0,-121671.07293092164,-4813155.510816869,4174762.263151646,2.50585,2.45331,-0.613976,-54.0,44.5,49.5,0.0,0.0,0.0,0.0,0.0,0.0,2,0,41.11862777623817,-91.4480634584348,11999.999510896056,-40.105917138954695,-0.0070949771236836,-0.0015900849523352,,10456.756926878135,13162.46325448802,150,1,2025-09-08,2025-09-26 20:14:58.042,HH,B,735580258,AMBUSH51,1,1,48,2,1,1,225,2,1,0,0,9,1,225,2,1,-148387.76277411007,-4793747.653145038,4195551.832535718,-2.13131,-0.558851,0.513319,89.123,-53.6318,-59.2363,-0.186917,-7.32756,7.00793,-0.0374039,0.00288058,0.0305504,4,0,41.36994962939674,-91.77299249805417,10961.224876336995,131.1893898602119,0.2719999593921391,17.471528969064362,181.009,10456.756926878135,13162.46325448802,150,False,21.049865431252268,False,170.9299012242839,175.76358766001562,False,4.948410154044297,True,False
1,1970-07-23 09:33:44.993195898,2025-09-08,2025-09-26 20:14:59.319,HH,B,3290837132,JASSM,3,129,76,2,2,1,225,9,2,0,1,26,0,0,0,0,-121725.28777467164,-4813110.926344213,4174811.751432896,2.50585,2.45331,-0.613976,-54.0,44.5,49.5,0.0,0.0,0.0,0.0,0.0,0.0,2,0,41.11921894844888,-91.4487218331966,12000.000267198457,-40.106350101886825,-0.0063233018918907,-0.0015915666616441,,10456.756926878135,13162.46325448802,150,1,2025-09-08,2025-09-26 20:14:59.375,HH,B,737170924,AMBUSH51,1,1,48,2,1,1,225,2,1,0,0,9,1,225,2,1,-148270.76495486248,-4793819.9885078985,4195470.95979251,-2.20491,-0.585216,0.530044,86.8049,-55.5078,-61.723,-0.135869,-7.36814,7.16073,-0.0512773,0.014817,0.0162422,4,0,41.36899493500723,-91.771568740436,10954.970958317386,132.8095250615571,0.3821468523579752,14.016610299590427,181.791,10456.756926878135,13162.46325448802,150,False,20.917663562083888,False,172.7716986059929,175.76968812355145,False,3.170223493801519,True,False
1,1970-07-23 09:33:45.000264463,2025-09-08,2025-09-26 20:15:00.026,HH,B,3292030186,JASSM,3,129,76,2,2,1,225,9,2,0,1,26,0,0,0,0,-121779.48699342164,-4813066.352125463,4174861.226042271,2.50585,2.45331,-0.613976,-54.0,44.5,49.5,0.0,0.0,0.0,0.0,0.0,0.0,2,0,41.1198099658213,-91.4493800308022,11999.999678476071,-40.10678295345099,-0.005551833952116,-0.0015930599448533,,10456.756926878135,13162.46325448802,150,1,2025-09-08,2025-09-26 20:15:00.075,HH,B,738006022,AMBUSH51,1,1,48,2,1,1,225,2,1,0,0,9,1,225,2,1,-148210.36481867632,-4793859.108859026,4195427.274808549,-2.24316,-0.599961,0.53971,85.8095,-56.5382,-62.6975,-0.0623998,-7.43067,7.02928,-0.0421539,0.0148981,0.024319,4,0,41.36847843690265,-91.7708330853016,10951.92682031278,133.7231470910317,0.4168558621211136,12.262062768382872,182.414,10456.756926878135,13162.46325448802,150,False,20.826010267966204,False,173.58514034150963,175.7658043139554,False,2.3707975652950295,True,False
1,1970-07-23 09:33:45.010232237,2025-09-08,2025-09-26 20:15:01.023,HH,B,3293282562,JASSM,3,129,76,2,2,1,225,9,2,0,1,26,0,0,0,0,-121836.38543092164,-4813019.560621557,4174913.1601243024,2.50585,2.45331,-0.613976,-54.0,44.5,49.5,0.0,0.0,0.0,0.0,0.0,0.0,2,0,41.12043036729922,-91.4500710197597,11999.999937975304,-40.10723737517257,-0.0047419807933816,-0.0015945987013171,,10456.756926878135,13162.46325448802,150,1,2025-09-08,2025-09-26 20:15:00.876,HH,B,738960422,AMBUSH51,1,1,48,2,1,1,225,2,1,0,0,9,1,225,2,1,-148142.1932125205,-4793904.582731621,4195376.910626762,-2.28424,-0.613245,0.542985,84.7703,-57.6148,-63.4901,-0.19533,-7.44552,7.27028,-0.0476259,0.00158437,0.00880404,4,0,41.367880481298585,-91.77000230269158,10949.449138981436,134.34867258359333,0.68252556605206,10.306639360684548,182.976,10456.756926878135,13162.46325448802,150,False,20.725554941548165,False,174.37210527331126,175.76050909843607,False,1.581453531589855,True,False
1,1970-07-23 09:33:45.020288973,2025-09-08,2025-09-26 20:15:02.028,HH,B,3294416418,JASSM,3,129,76,2,2,1,225,9,2,0,1,26,0,0,0,0,-121887.89324342164,-4812977.196852026,4174960.17867899,2.50585,2.45331,-0.613976,-54.0,44.5,49.5,0.0,0.0,0.0,0.0,0.0,0.0,2,0,41.12099205154789,-91.45069655644312,12000.000853681146,-40.10764875776174,-0.0040088044444263,-0.0015960319354097,,10456.756926878135,13162.46325448802,150,1,2025-09-08,2025-09-26 20:15:01.944,HH,B,740232954,AMBUSH51,1,1,48,2,1,1,225,2,1,0,0,9,1,225,2,1,-148051.76981620077,-4793967.037362696,4195308.047908806,-2.34847,-0.627209,0.549642,83.7486,-59.2176,-64.043,-0.0690584,-7.50825,7.21901,-0.0534848,0.00737259,0.0189199,4,0,41.36706072249647,-91.7688995804859,10946.96615365786,135.12166244523786,0.8121816825087487,7.051974739754898,183.636,10456.756926878135,13162.46325448802,150,True,20.61158796324726,False,175.17875659198555,175.7545782091444,False,0.6553533452023498,True,False
1,1970-07-23 09:33:45.030331140,2025-09-08,2025-09-26 20:15:03.033,HH,B,3295609428,JASSM,3,129,76,2,2,1,225,9,2,0,1,26,0,0,0,0,-121942.09246217164,-4812932.621656713,4175009.6488938336,2.50585,2.45331,-0.613976,-54.0,44.5,49.5,0.0,0.0,0.0,0.0,0.0,0.0,2,0,41.121583033441325,-91.45135478977149,11999.999749507751,-40.108081648224776,-0.0032373549672834,-0.0015975095113209,,10456.756926878135,13162.46325448802,150,1,2025-09-08,2025-09-26 20:15:02.942,HH,B,741425952,AMBUSH51,1,1,48,2,1,1,225,2,1,0,0,9,1,225,2,1,-147968.87051787955,-4794026.086899706,4195243.743575636,-2.3961,-0.639342,0.553882,83.0933,-60.2365,-64.571,-0.0798968,-7.56211,7.22393,-0.0273026,0.00254353,0.00685244,4,0,41.36629060150796,-91.76788797917156,10946.56660908926,135.73788637572764,0.988461969986003,4.696994886496023,184.161,10456.756926878135,13162.46325448802,150,True,20.50033458152502,False,175.71897309564758,175.74593219166096,False,0.04817020494137395,True,False
1,1970-07-23 09:33:45.040325961,2025-09-08,2025-09-26 20:15:04.032,HH,B,3296802040,JASSM,3,129,76,2,2,1,225,9,2,0,1,26,0,0,0,0,-121996.27214967164,-4812888.060621557,4175059.102507115,2.50585,2.45331,-0.613976,-54.0,44.5,49.5,0.0,0.0,0.0,0.0,0.0,0.0,2,0,41.12217381811619,-91.45201279827556,12000.000379125222,-40.10851439596225,-0.0024661683251286,-0.0015989988078384,,10456.756926878135,13162.46325448802,150,1,2025-09-08,2025-09-26 20:15:03.975,HH,B,742658718,AMBUSH51,1,1,48,2,1,1,225,2,1,0,0,9,1,225,2,1,-147882.69955320138,-4794088.904830783,4195176.131938708,-2.45318,-0.643229,0.554255,82.6881,-61.0797,-64.786,-0.15867,-7.38471,7.16676,-0.0949615,0.000510786,0.0148086,4,0,41.36547633245654,-91.76683595008058,10948.029827724522,135.9010631965532,1.0892419704130845,1.5468044496462952,184.443,10456.756926878135,13162.46325448802,150,True,20.385925839469152,False,176.03477625230914,175.7358090111198,False,0.39737170931013616,True,False
1,1970-07-23 09:33:45.050207663,2025-09-08,2025-09-26 20:15:05.020,HH,B,3297995096,JASSM,3,129,76,2,2,1,225,9,2,0,1,26,0,0,0,0,-122050.47527467164,-4812843.482496557,4175108.57321024,2.50585,2.45331,-0.613976,-54.0,44.625,49.5,0.0,0.0,0.0,0.0,0.0,0.0,2,0,41.12276481242552,-91.45267110257592,12000.000919231225,-40.10894734336926,-0.0016946806833302,-0.0016004619769562,,10456.756926878135,13162.46325448802,150,1,2025-09-08,2025-09-26 20:15:04.976,HH,B,743851716,AMBUSH51,1,1,48,2,1,1,225,2,1,0,0,9,1,225,2,1,-147800.82677036984,-4794149.517753867,4195111.422133032,-2.4744,-0.646906,0.553651,82.5566,-61.4393,-64.9257,-0.0521588,-7.30187,6.84613,0.0770517,-0.0045409,-0.00471983,4,0,41.3646939729997,-91.76583607860462,10950.692068150283,136.02202530655845,1.227570471504413,0.4442777282932719,184.846,10456.756926878135,13162.46325448802,150,True,20.274516839055032,False,176.14657620601105,175.70138162470113,False,0.5816810838960037,True,False
1,1970-07-23 09:33:45.059265293,2025-09-08,2025-09-26 20:15:05.926,HH,B,3299128490,JASSM,3,129,76,2,2,1,225,9,2,0,1,26,0,0,0,0,-122101.96355592164,-4812801.132887182,4175155.5688157086,2.50585,2.45331,-0.61388,-54.0,44.625,49.5,0.0,0.0,0.0,0.0,0.0,0.0,2,0,41.12332624590126,-91.45329644695124,12000.000315341234,-40.11261917924972,-0.0053805117700412,-0.0016016986844325,,10456.756926878135,13162.46325448802,150,1,2025-09-08,2025-09-26 20:15:06.075,HH,B,745164016,AMBUSH51,1,1,48,2,1,1,225,2,1,0,0,9,1,225,2,1,-147710.29421640528,-4794217.186937105,4195039.62558156,-2.39069,-0.640818,0.544659,82.1842,-62.0467,-65.1739,-0.44229,-7.2896,7.09371,0.0112258,0.00503608,0.010764,4,0,41.36382338078932,-91.76473024051126,10954.70712340512,135.47141280666577,1.4527452973319186,5.045550662140238,184.809,10456.756926878135,13162.46325448802,150,True,20.15828984250681,False,176.41141153822005,175.6899120261006,False,0.9345581265108788,True,False
1,1970-07-23 09:33:45.069992326,2025-09-08,2025-09-26 20:15:06.999,HH,B,3300261884,JASSM,3,129,76,2,2,1,225,9,2,0,1,26,0,0,0,0,-122153.45183717164,-4812758.781324682,4175202.56539774,2.50595,2.45331,-0.61388,-54.0,44.625,49.5,0.0,0.0,0.0,0.0,0.0,0.0,2,0,41.12388769410415,-91.45392180257538,12000.00041621924,-40.1130304665554,-0.0046476173534004,0.0038883031806877,,10456.756926878135,13162.46325448802,150,1,2025-09-08,2025-09-26 20:15:06.943,HH,B,746197948,AMBUSH51,1,1,48,2,1,1,225,2,1,0,0,9,1,225,2,1,-147639.29591914426,-4794270.936555943,4194982.901816399,-2.45204,-0.658733,0.553937,81.8276,-63.721,-64.1729,-0.129715,-7.37286,7.07868,-0.0808509,0.00845242,0.0228418,4,0,41.363133750068975,-91.76386278004924,10958.63152738732,136.49007823581312,1.568413886950887,2.0933768979430543,184.919,10456.756926878135,13162.46325448802,150,True,20.057359068519517,False,176.23807416070838,175.6780975727507,False,1.7010435894128129,True,False
