Subject_cm,Timestamp,SampleDate_cm,SampleTime_cm,Configuration_cm,Scenario_cm,DisTime_cm,MarkingTxt_cm,Application_cm,EntId_cm,Site_cm,ExerciseId_cm,ForceId_cm,Category_cm,Country_cm,Domain_cm,Kind_cm,Extra_cm,Specific_cm,Subcategory_cm,AltCategory_cm,AltCountry_cm,AltDomain_cm,AltKind_cm,ECEF_X_cm,ECEF_Y_cm,ECEF_Z_cm,OriPhi_cm,OriPsi_cm,OriTheta_cm,LinVelX_cm,LinVelY_cm,LinVelZ_cm,LinAccX_cm,LinAccY_cm,LinAccZ_cm,AngVelX_cm,AngVelY_cm,AngVelZ_cm,DrAlg_cm,Appearance_cm,Latitude_cm,Longitude_cm,Altitude_cm,Heading_cm,Pitch_cm,Roll_cm,CalibratedAirspeed_cm,CM_Altitude_Lead_cm,CM_Altitude_Wing_cm,CM_Airspeed_cm,Subject_ac,SampleDate_ac,SampleTime_ac,Configuration_ac,Scenario_ac,DisTime_ac,MarkingTxt_ac,Application_ac,EntId_ac,Site_ac,ExerciseId_ac,ForceId_ac,Category_ac,Country_ac,Domain_ac,Kind_ac,Extra_ac,Specific_ac,Subcategory_ac,AltCategory_ac,AltCountry_ac,AltDomain_ac,AltKind_ac,ECEF_X_ac,ECEF_Y_ac,ECEF_Z_ac,OriPhi_ac,OriPsi_ac,OriTheta_ac,LinVelX_ac,LinVelY_ac,LinVelZ_ac,LinAccX_ac,LinAccY_ac,LinAccZ_ac,AngVelX_ac,AngVelY_ac,AngVelZ_ac,DrAlg_ac,Appearance_ac,Latitude_ac,Longitude_ac,Altitude_ac,Heading_ac,Pitch_ac,Roll_ac,CalibratedAirspeed_ac,CM_Altitude_Lead_ac,CM_Altitude_Wing_ac,CM_Airspeed_ac,Bank_Angle_Condition,distance_nm,Distance_Condition,angle_between_vel,angle_between_pos,Cone_Condition,angle_between_pos_nose,Nose_Cone_Condition,Intercept_Criteria
1,1970-07-23 10:27:58.412632380,2025-09-12,2025-09-26 14:37:21.263,AA,C,3958823794,JASSM,3,140,76,2,2,1,225,9,2,0,1,26,0,0,0,0,-180689.1253679556,-4778165.430635299,4211934.269011021,-2.36693,-0.400848,0.381002,79.5,-33.625,-34.5,0.0,0.0,0.0,0.0,0.0,0.0,2,0,41.56661091887338,-92.16564156369408,10997.374758259508,119.79784401771084,-0.004083840368286,0.0045550441454062,,10375.88117203898,11905.596102039404,150,1,2025-09-12,2025-09-26 14:37:21.248,AA,C,2345231142,AMBUSH51,1,1,48,2,1,1,225,2,1,0,0,9,1,225,2,1,-144304.92970295076,-4793307.674654245,4195922.385515725,2.36825,2.7894,-0.365848,-91.4937,35.6814,37.1739,-0.105697,-7.4002,6.51615,-0.0467021,-0.00294092,-0.00517964,4,0,41.375809103045086,-91.72439731765932,10375.28961406128,-62.36162862879334,0.8391509597498185,1.0787148814795569,173.456,10375.88117203898,11905.596102039404,150,True,22.878232628982655,False,178.15885708558892,179.55262989332718,False,1.8285992090778145,True,False
1,1970-07-23 10:27:58.419340877,2025-09-12,2025-09-26 14:37:21.934,AA,C,3960076438,JASSM,3,140,76,2,2,1,225,9,2,0,1,26,0,0,0,0,-180605.64196951807,-4778200.823213424,4211897.944792271,-2.36693,-0.400848,0.381002,79.5,-33.625,-34.5,0.0,0.0,0.0,0.0,0.0,0.0,2,0,41.56617401291515,-92.16462591070764,10997.377858026854,119.7985178908357,-0.0032072956365652,0.0045535343178734,,10375.88117203898,11905.596102039404,150,1,2025-09-12,2025-09-26 14:37:22.048,AA,C,2346185542,AMBUSH51,1,1,48,2,1,1,225,2,1,0,0,9,1,225,2,1,-144378.07435832566,-4793278.984345678,4195952.200244077,2.3252,2.79094,-0.364165,-91.3611,35.759,37.1918,0.0497527,-7.27079,6.26143,-0.044222,0.000435885,-0.0119665,4,0,41.376167942861656,-91.72528116497688,10374.76605288497,-62.48889832333117,0.8310186046543988,-1.3580376528048068,173.065,10375.88117203898,11905.596102039404,150,True,22.780629812925987,False,178.22845617631418,179.55117353734732,False,1.7683914696085485,True,False
1,1970-07-23 10:27:58.430665096,2025-09-12,2025-09-26 14:37:23.066,AA,C,3961269486,JASSM,3,140,76,2,2,1,225,9,2,0,1,26,0,0,0,0,-180526.1292742056,-4778234.530244674,4211863.345182896,-2.36693,-0.400848,0.381002,79.5,-33.625,-34.5,0.0,0.0,0.0,0.0,0.0,0.0,2,0,41.56575787135845,-92.1636585787172,10997.373341921935,119.7991596981718,-0.0023724385707624,0.004552089224767,,10375.88117203898,11905.596102039404,150,1,2025-09-12,2025-09-26 14:37:22.915,AA,C,2347219474,AMBUSH51,1,1,48,2,1,1,225,2,1,0,0,9,1,225,2,1,-144457.16967403813,-4793248.035850967,4195984.2489819145,2.29645,2.79385,-0.363133,-91.3456,35.4515,37.1136,-0.145504,-7.36866,6.71175,-0.0209401,-0.000646025,0.00351725,4,0,41.37655422338367,-91.7262369010766,10373.97534185014,-62.64099336979262,0.9014149150586444,-2.9485566360790667,173.029,10375.88117203898,11905.596102039404,150,True,22.681904166556663,False,178.09313164072793,179.54959361908809,False,1.885505185178931,True,False
1,1970-07-23 10:27:58.452602951,2025-09-12,2025-09-26 14:37:25.260,AA,C,3962581836,JASSM,3,140,76,2,2,1,225,9,2,0,1,26,0,0,0,0,-180438.66638358065,-4778271.608369674,4211825.286589146,-2.36693,-0.400848,0.381098,79.5,-33.625,-34.5,0.0,0.0,0.0,0.0,0.0,0.0,2,0,41.56530011021473,-92.16259454055124,10997.376694579423,119.80370768302303,-0.0053801597914607,0.0045502691988745,,10375.88117203898,11905.596102039404,150,1,2025-09-12,2025-09-26 14:37:25.282,AA,C,2350042904,AMBUSH51,1,1,48,2,1,1,225,2,1,0,0,9,1,225,2,1,-144674.102805799,-4793164.419677416,4196070.668053184,2.266,2.80588,-0.354141,-91.6816,34.7606,35.9458,-0.0704342,-7.1169,6.41335,0.00963627,0.00598691,-0.00130557,4,0,41.37759610389514,-91.72885778143836,10371.73235036237,-63.462451219529015,1.0040167471378172,-4.465086708511518,172.369,10375.88117203898,11905.596102039404,150,True,22.49377781194434,False,177.3909274987551,179.54647691575792,False,2.6347286678443913,True,False
1,1970-07-23 10:27:58.452621365,2025-09-12,2025-09-26 14:37:25.262,AA,C,3963834536,JASSM,3,140,76,2,2,1,225,9,2,0,1,26,0,0,0,0,-180355.17810233065,-4778306.998994674,4211788.954557896,-2.36693,-0.400848,0.381098,79.5,-33.625,-34.5,0.0,0.0,0.0,0.0,0.0,0.0,2,0,41.56486313739452,-92.16157887103851,10997.37225457224,119.80438154975732,-0.0045035575697626,0.0045488048675846,,10375.88117203898,11905.596102039404,150,1,2025-09-12,2025-09-26 14:37:25.282,AA,C,2350042904,AMBUSH51,1,1,48,2,1,1,225,2,1,0,0,9,1,225,2,1,-144674.102805799,-4793164.419677416,4196070.668053184,2.266,2.80588,-0.354141,-91.6816,34.7606,35.9458,-0.0704342,-7.1169,6.41335,0.00963627,0.00598691,-0.00130557,4,0,41.37759610389514,-91.72885778143836,10371.73235036237,-63.462451219529015,1.0040167471378172,-4.465086708511518,172.369,10375.88117203898,11905.596102039404,150,True,22.441295630447097,False,177.3909274987551,179.54543638462556,False,2.634728970545598,True,False
1,1970-07-23 10:27:58.461219846,2025-09-12,2025-09-26 14:37:26.121,AA,C,3965087232,JASSM,3,140,76,2,2,1,225,9,2,0,1,26,0,0,0,0,-180271.68982108065,-4778342.389619674,4211752.624479771,-2.36693,-0.400848,0.381098,79.5,-33.625,-34.5,0.0,0.0,0.0,0.0,0.0,0.0,2,0,41.56442616872039,-92.16056321521172,10997.376969435702,119.80505540159255,-0.0036269618176354,0.0045473519084758,,10375.88117203898,11905.596102039404,150,1,2025-09-12,2025-09-26 14:37:26.281,AA,C,2351235902,AMBUSH51,1,1,48,2,1,1,225,2,1,0,0,9,1,225,2,1,-144765.8183814034,-4793129.661907159,4196106.4126187945,2.27703,2.80979,-0.348365,-91.8849,34.5138,35.5085,-0.191168,-7.09248,6.52246,0.00909324,-0.00289099,0.00390424,4,0,41.37802769690439,-91.72996565549371,10370.53702824175,-63.84689492527675,0.9244915941512496,-3.762364976775384,172.332,10375.88117203898,11905.596102039404,150,True,22.3327957912904,False,177.10554043729027,179.54320299895153,False,2.935908381236185,True,False
1,1970-07-23 10:27:58.475022779,2025-09-12,2025-09-26 14:37:27.502,AA,C,3966280522,JASSM,3,140,76,2,2,1,225,9,2,0,1,26,0,0,0,0,-180192.16150076807,-4778376.100557174,4211718.015104771,-2.36693,-0.400848,0.381098,79.5,-33.625,-34.5,0.0,0.0,0.0,0.0,0.0,0.0,2,0,41.56400990731689,-92.15959574650816,10997.378013036456,119.80569727756036,-0.0027919392733763,0.004545958656574,,10375.88117203898,11905.596102039404,150,1,2025-09-12,2025-09-26 14:37:27.547,AA,C,2352747034,AMBUSH51,1,1,48,2,1,1,225,2,1,0,0,9,1,225,2,1,-144881.84808221745,-4793086.196774579,4196150.957982556,2.34062,2.81489,-0.345722,-92.1058,34.3063,35.4008,-0.126636,-7.20297,6.60208,0.0405394,0.00246238,-0.000654347,4,0,41.37856611680649,-91.73136706902348,10368.81616290821,-64.14804500674532,1.017238562053193,-0.0244691231332309,172.369,10375.88117203898,11905.596102039404,150,True,22.21216838657761,False,176.94016516967758,179.54035486697018,False,3.1034831561825014,True,False
1,1970-07-23 10:27:58.482341440,2025-09-12,2025-09-26 14:37:28.234,AA,C,3967532978,JASSM,3,140,76,2,2,1,225,9,2,0,1,26,0,0,0,0,-180108.68982108062,-4778411.481416549,4211681.688932896,-2.36693,-0.400848,0.381098,79.5,-33.625,-34.5,0.0,0.0,0.0,0.0,0.0,0.0,2,0,41.563573001893886,-92.15858032059162,10997.378384211905,119.80637096550154,-0.0019155154876665,0.0045445001911014,,10375.88117203898,11905.596102039404,150,1,2025-09-12,2025-09-26 14:37:28.348,AA,C,2353701434,AMBUSH51,1,1,48,2,1,1,225,2,1,0,0,9,1,225,2,1,-144955.63318821604,-4793058.611404906,4196179.128446676,2.36543,2.81098,-0.347636,-92.1425,34.4173,35.4938,-0.14169,-7.21103,6.7904,0.0324313,0.00568523,0.00459499,4,0,41.37890711410048,-91.73225824221358,10367.521595622567,-63.92315658283594,0.9433095463502352,1.324689953983938,172.369,10375.88117203898,11905.596102039404,150,True,22.114820526600127,False,177.00045362564413,179.5379016116873,False,3.051323182382024,True,False
1,1970-07-23 10:27:58.492322906,2025-09-12,2025-09-26 14:37:29.232,AA,C,3968785678,JASSM,3,140,76,2,2,1,225,9,2,0,1,26,0,0,0,0,-180025.20153983062,-4778446.868135299,4211645.352995396,-2.36693,-0.400752,0.381098,79.5,-33.625,-34.5,0.0,0.0,0.0,0.0,0.0,0.0,2,0,41.56313599048992,-92.1575647069341,10997.375239595627,119.80340045055377,-0.0046053595379973,0.0025000773247536,,10375.88117203898,11905.596102039404,150,1,2025-09-12,2025-09-26 14:37:29.148,AA,C,2354655832,AMBUSH51,1,1,48,2,1,1,225,2,1,0,0,9,1,225,2,1,-145029.3193744667,-4793030.860991181,4196207.504169134,2.39468,2.8066,-0.351103,-92.0715,34.6916,35.7249,-0.164939,-7.10865,6.60196,0.0229604,0.000294404,-0.00233131,4,0,41.37925048979962,-91.73314830306369,10366.262300209755,-63.61679018773761,0.9136576748752052,2.919583506687094,172.674,10375.88117203898,11905.596102039404,150,True,22.017433180439976,False,177.1913479006145,179.53541061206838,False,2.871330672724468,True,False
1,1970-07-23 10:27:58.503282187,2025-09-12,2025-09-26 14:37:30.328,AA,C,3970098028,JASSM,3,140,76,2,2,1,225,9,2,0,1,26,0,0,0,0,-179937.73767264312,-4778483.938447799,4211607.288542271,-2.36693,-0.400752,0.381098,79.5,-33.625,-34.5,0.0,0.0,0.0,0.0,0.0,0.0,2,0,41.56267818012847,-92.15650074662793,10997.377404740408,119.80410632657248,-0.0036870248626493,0.0024984988007386,,10375.88117203898,11905.596102039404,150,1,2025-09-12,2025-09-26 14:37:30.348,AA,C,2356087432,AMBUSH51,1,1,48,2,1,1,225,2,1,0,0,9,1,225,2,1,-145140.59624864912,-4792988.729744747,4196250.291033701,2.37316,2.80103,-0.353212,-92.0684,34.976,36.1731,-0.246735,-7.24599,6.91147,-0.0626269,0.00200465,0.00656116,4,0,41.3797699202887,-91.73449252358031,10363.67589996253,-63.32180888887795,0.7849140893952997,1.5807177226922515,173.065,10375.88117203898,11905.596102039404,150,True,21.894609207214057,False,177.4397799532349,179.53169363369744,False,2.6243876359365133,True,False
1,1970-07-23 10:27:58.512300580,2025-09-12,2025-09-26 14:37:31.230,AA,C,3971171772,JASSM,3,140,76,2,2,1,225,9,2,0,1,26,0,0,0,0,-179866.17614920562,-4778514.266572799,4211576.142057896,-2.36693,-0.400752,0.381098,79.5,-33.625,-34.5,0.0,0.0,0.0,0.0,0.0,0.0,2,0,41.56230359428783,-92.15563024365622,10997.371752214138,119.80468385010856,-0.0029356561473862,0.0024972021490722,,10375.88117203898,11905.596102039404,150,1,2025-09-12,2025-09-26 14:37:31.148,AA,C,2357041830,AMBUSH51,1,1,48,2,1,1,225,2,1,0,0,9,1,225,2,1,-145214.28924283214,-4792960.368661394,4196279.0325263385,2.31101,2.79045,-0.350572,-92.2067,35.3824,36.0826,0.0648394,-6.4774,6.15949,-0.128024,-0.0113236,0.00562281,4,0,41.38011937881364,-91.7353829105201,10361.716807372832,-63.0317827949163,0.2740700602790472,-2.1863158864718413,173.456,10375.88117203898,11905.596102039404,150,True,21.80452344850596,False,177.5092057177921,179.52895384294848,False,2.5961922665344366,True,False
1,1970-07-23 10:27:58.522289755,2025-09-12,2025-09-26 14:37:32.228,AA,C,3972305164,JASSM,3,140,76,2,2,1,225,9,2,0,1,26,0,0,0,0,-179790.63903983062,-4778546.280244674,4211543.267057896,-2.36693,-0.400752,0.381098,79.5,-33.5,-34.5,0.0,0.0,0.0,0.0,0.0,0.0,2,0,41.56190819947101,-92.15471139067202,10997.375311012309,119.80529344617432,-0.0021425491405335,0.0024958406943325,,10375.88117203898,11905.596102039404,150,1,2025-09-12,2025-09-26 14:37:32.349,AA,C,2358473428,AMBUSH51,1,1,48,2,1,1,225,2,1,0,0,9,1,225,2,1,-145325.203468533,-4792917.741552418,4196320.888351357,2.15536,2.78733,-0.335391,-93.2852,35.8863,34.6667,0.0792286,-6.54047,6.33254,-0.114043,-0.00203794,-0.0252241,4,0,41.38063551035712,-91.7367230156291,10355.87764285078,-63.53347372811445,-0.4556118779410395,-11.163890965561876,174.532,10375.88117203898,11905.596102039404,150,False,21.689455541041347,False,176.83949527362805,179.56980701610897,False,3.3946545770952086,True,False
1,1970-07-23 10:27:58.531281898,2025-09-12,2025-09-26 14:37:33.128,AA,C,3973378906,JASSM,3,140,76,2,2,1,225,9,2,0,1,26,0,0,0,0,-179719.07849295562,-4778576.608369674,4211512.118620396,-2.36693,-0.400752,0.381194,79.5,-33.5,-34.5,0.0,0.0,0.0,0.0,0.0,0.0,2,0,41.56153358666375,-92.15384092005996,10997.37290254422,119.80971310113864,-0.0053170972401383,0.0024943031102647,,10375.88117203898,11905.596102039404,150,1,2025-09-12,2025-09-26 14:37:33.150,AA,C,2359427828,AMBUSH51,1,1,48,2,1,1,225,2,1,0,0,9,1,225,2,1,-145400.25811355503,-4792889.043635641,4196348.047274128,2.07791,2.79288,-0.314438,-94.3324,35.7894,33.2653,0.12812,-6.21292,6.0686,-0.0785518,-0.00546468,-0.0339688,4,0,41.380976022589245,-91.73762981155208,10349.768107957863,-64.60027864654201,-1.0834628110274738,-15.48576380303187,175.131,10375.88117203898,11905.596102039404,150,False,21.59900092123035,False,175.9517344283743,179.56388536687533,False,4.308461267072364,True,False
1,1970-07-23 10:27:58.540278339,2025-09-12,2025-09-26 14:37:34.027,AA,C,3974512452,JASSM,3,140,76,2,2,1,225,9,2,0,1,26,0,0,0,0,-179643.53064139312,-4778608.625947799,4211479.237761021,-2.36693,-0.400752,0.381194,79.5,-33.5,-34.5,0.0,0.0,0.0,0.0,0.0,0.0,2,0,41.56113811714709,-92.15292195851582,10997.380116413891,119.81032276003756,-0.0045238753917722,0.0024929909112081,,10375.88117203898,11905.596102039404,150,1,2025-09-12,2025-09-26 14:37:33.947,AA,C,2360382226,AMBUSH51,1,1,48,2,1,1,225,2,1,0,0,9,1,225,2,1,-145476.15134963044,-4792860.372628817,4196373.831079611,2.02717,2.79537,-0.290784,-95.5995,35.7481,31.3954,-0.0903172,-6.19852,5.99153,-0.0461965,-0.00451801,-0.025324,4,0,41.381306930819925,-91.7385466233356,10340.808680368176,-65.66321025871595,-1.9356779579043109,-18.32217896393436,175.9,10375.88117203898,11905.596102039404,150,False,21.5059401748628,False,174.80641801091497,179.5559745595777,False,5.481997979419313,True,False
1,1970-07-23 10:27:58.550260339,2025-09-12,2025-09-26 14:37:35.026,AA,C,3975645790,JASSM,3,140,76,2,2,1,225,9,2,0,1,26,0,0,0,0,-179567.99743826812,-4778640.633760299,4211446.358854771,-2.36693,-0.400752,0.381194,79.5,-33.5,-34.5,0.0,0.0,0.0,0.0,0.0,0.0,2,0,41.56074270838736,-92.15200318795826,10997.3729900146,119.81093228746954,-0.0037308040785511,0.0024916709170358,,10375.88117203898,11905.596102039404,150,1,2025-09-12,2025-09-26 14:37:34.981,AA,C,2361614992,AMBUSH51,1,1,48,2,1,1,225,2,1,0,0,9,1,225,2,1,-145575.7441789214,-4792823.446361252,4196404.98222537,2.00624,2.79693,-0.260685,-96.9754,34.4199,30.6441,-0.00588217,-5.9139,5.8401,-0.00939909,-0.0118105,-0.0364114,4,0,41.38171888616031,-91.73974949499863,10324.952600927949,-66.95707758224913,-3.080428815621145,-19.44044212717905,177.086,10375.88117203898,11905.596102039404,150,False,21.399339762900997,False,173.92276479652963,179.54288146466533,False,6.346335007581795,True,False
1,1970-07-23 10:27:58.560670699,2025-09-12,2025-09-26 14:37:36.067,AA,C,3976779088,JASSM,3,140,76,2,2,1,225,9,2,0,1,26,0,0,0,0,-179492.46716483062,-4778672.641572799,4211413.481901646,-2.36693,-0.400752,0.381194,79.5,-33.5,-34.5,0.0,0.0,0.0,0.0,0.0,0.0,2,0,41.56034730475421,-92.1510844636786,10997.374398111437,119.81154177943782,-0.0029377616955352,0.0024903486839371,,10375.88117203898,11905.596102039404,150,1,2025-09-12,2025-09-26 14:37:36.048,AA,C,2362887524,AMBUSH51,1,1,48,2,1,1,225,2,1,0,0,9,1,225,2,1,-145681.58403610034,-4792784.346304979,4196433.919233598,2.16394,2.80367,-0.230863,-99.117,36.1877,26.1668,-0.111517,-6.27449,6.04972,0.165978,-0.00452217,-0.0322128,4,0,41.38212767612404,-91.74102778452855,10299.4191071168,-68.44522461208057,-4.004698864238693,-10.218918938431615,178.76,10375.88117203898,11905.596102039404,150,False,21.289909354942292,False,171.69495134625177,179.52348156441397,False,8.668037838974707,True,False
1,1970-07-23 10:27:58.568277609,2025-09-12,2025-09-26 14:37:36.827,AA,C,3977852830,JASSM,3,140,76,2,2,1,225,9,2,0,1,26,0,0,0,0,-179420.90564139312,-4778702.965791549,4211382.333464146,-2.36693,-0.400752,0.381194,79.5,-33.5,-34.5,0.0,0.0,0.0,0.0,0.0,0.0,2,0,41.559972687912776,-92.15021402502416,10997.37732729519,119.8121192337878,-0.0021863987783735,0.0024891103952249,,10375.88117203898,11905.596102039404,150,1,2025-09-12,2025-09-26 14:37:36.914,AA,C,2363921456,AMBUSH51,1,1,48,2,1,1,225,2,1,0,0,9,1,225,2,1,-145767.7957712761,-4792752.618371576,4196455.932178667,2.31364,2.81392,-0.221011,-100.17,36.3764,25.5028,-0.421676,-6.70124,6.59001,0.151314,-0.00645088,-0.0064488,4,0,41.382449408200046,-91.74206898399832,10275.54519243577,-69.2516948843929,-3.985613106422948,-1.4542897517469755,179.884,10375.88117203898,11905.596102039404,150,True,21.19480417982903,False,171.2186748738503,179.50516695043837,False,9.168207828657291,True,False
1,1970-07-23 10:27:58.578260339,2025-09-12,2025-09-26 14:37:37.826,AA,C,3978986226,JASSM,3,140,76,2,2,1,225,9,2,0,1,26,0,0,0,0,-179345.36853201812,-4778734.973604049,4211349.450651646,-2.36693,-0.400657,0.381194,79.5,-33.5,-34.5,0.0,0.0,0.0,0.0,0.0,0.0,2,0,41.55957723200778,-92.14929524071128,10997.373168527263,119.80908470263576,-0.0049597248869392,0.0004443641815827,,10375.88117203898,11905.596102039404,150,1,2025-09-12,2025-09-26 14:37:37.785,AA,C,2364955388,AMBUSH51,1,1,48,2,1,1,225,2,1,0,0,9,1,225,2,1,-145854.65621821414,-4792720.658727652,4196477.368950091,2.37119,2.8065,-0.22802,-101.028,36.9153,25.4671,-0.290238,-7.13286,6.75707,0.00982353,-0.0022252,0.0168414,4,0,41.3827685014877,-91.74311802833516,10249.904610415508,-68.67426700207378,-4.0030344695018965,1.708429090840651,181.253,10375.88117203898,11905.596102039404,150,True,21.09697580522839,False,171.1205892000147,179.48523572474477,False,9.294882321222799,True,False
1,1970-07-23 10:27:58.588240669,2025-09-12,2025-09-26 14:37:38.824,AA,C,3980179242,JASSM,3,140,76,2,2,1,225,9,2,0,1,26,0,0,0,0,-179265.85681326812,-4778768.665010299,4211314.839323521,-2.36693,-0.400657,0.381194,79.5,-33.5,-34.5,0.0,0.0,0.0,0.0,0.0,0.0,2,0,41.55916097511226,-92.14832812420045,10997.375398449076,119.8097262837326,-0.0041248860207055,0.0004429295571703,,10375.88117203898,11905.596102039404,150,1,2025-09-12,2025-09-26 14:37:38.815,AA,C,2366188154,AMBUSH51,1,1,48,2,1,1,225,2,1,0,0,9,1,225,2,1,-145959.74601169617,-4792682.120822876,4196503.375977445,2.32529,2.80171,-0.23329,-101.914,37.2211,25.8374,0.0270935,-6.98544,6.67779,-0.100918,-0.00249151,-0.00771589,4,0,41.3831542649319,-91.74438720512237,10219.361354108083,-68.2710501436848,-3.9834511894348816,-1.0129687715309388,183.294,10375.88117203898,11905.596102039404,150,True,20.98609721539438,False,171.18898510688004,179.46081791630036,False,9.254220874383664,True,False
1,1970-07-23 10:27:58.597810167,2025-09-12,2025-09-26 14:37:39.781,AA,C,3981253014,JASSM,3,140,76,2,2,1,225,9,2,0,1,26,0,0,0,0,-179194.29333670562,-4778798.987275924,4211283.686979771,-2.36693,-0.400657,0.381194,79.5,-33.5,-34.5,0.0,0.0,0.0,0.0,0.0,0.0,2,0,41.55878632311454,-92.14745769487652,10997.376262363849,119.81030371843585,-0.0033735013496515,0.0004416394290286,,10375.88117203898,11905.596102039404,150,1,2025-09-12,2025-09-26 14:37:39.748,AA,C,2367301620,AMBUSH51,1,1,48,2,1,1,225,2,1,0,0,9,1,225,2,1,-146054.33688222553,-4792647.088044799,4196527.263635646,2.21552,2.80872,-0.229437,-102.985,37.3279,25.7556,-0.096217,-7.37231,6.92579,-0.108261,0.00649458,-0.0133585,4,0,41.38350676281707,-91.7455297272384,10192.06504821468,-68.70377187266432,-3.855788819287396,-7.180524501918888,184.589,10375.88117203898,11905.596102039404,150,True,20.886136514945136,False,170.99230039813656,179.43868671705988,False,9.47344154563308,True,False
1,1970-07-23 10:27:58.611402944,2025-09-12,2025-09-26 14:37:41.140,AA,C,3982446060,JASSM,3,140,76,2,2,1,225,9,2,0,1,26,0,0,0,0,-179114.78064139312,-4778832.676729049,4211249.071745396,-2.36693,-0.400657,0.381194,79.5,-33.5,-34.5,0.0,0.0,0.0,0.0,0.0,0.0,2,0,41.55837003627372,-92.14649059113329,10997.373559340542,119.81094528103388,-0.0025386481712031,0.0004401962370153,,10375.88117203898,11905.596102039404,150,1,2025-09-12,2025-09-26 14:37:41.048,AA,C,2368852518,AMBUSH51,1,1,48,2,1,1,225,2,1,0,0,9,1,225,2,1,-146190.3841483489,-4792598.199789694,4196560.502059779,2.11122,2.82022,-0.217038,-104.948,36.4359,24.7042,-0.112921,-7.21035,6.85439,-0.0476259,-0.00365873,-0.0144508,4,0,41.38399726869925,-91.74717246413871,10154.075859117254,-69.6643487319331,-3.8860792263597617,-12.945513482577896,186.764,10375.88117203898,11905.596102039404,150,False,20.757609185341902,False,170.08888193910403,179.40576601503076,False,10.39809218328613,True,False
1,1970-07-23 10:27:58.616238877,2025-09-12,2025-09-26 14:37:41.623,AA,C,3983519800,JASSM,3,140,76,2,2,1,225,9,2,0,1,26,0,0,0,0,-179043.22009451812,-4778862.997041549,4211217.919401646,-2.36684,-0.400657,0.381194,79.5,-33.5,-34.5,0.0,0.0,0.0,0.0,0.0,0.0,2,0,41.557995381312,-92.14562021898692,10997.377506470904,119.81152266877989,-0.0017872922061991,0.0059303743081211,,10375.88117203898,11905.596102039404,150,1,2025-09-12,2025-09-26 14:37:41.480,AA,C,2369369484,AMBUSH51,1,1,48,2,1,1,225,2,1,0,0,9,1,225,2,1,-146235.2268209392,-4792582.546720678,4196570.962484514,2.09019,2.82642,-0.210042,-105.621,35.956,24.3114,-0.129201,-7.22549,6.94254,-0.0405227,0.00610134,-0.0370148,4,0,41.38415285367876,-91.74771376694903,10141.616675545052,-70.1956747086056,-3.912831926101169,-14.039098919702688,187.473,10375.88117203898,11905.596102039404,150,False,20.6869234896133,False,169.73925734727436,179.39346099231165,False,10.753889726726634,True,False
1,1970-07-23 10:27:58.626377623,2025-09-12,2025-09-26 14:37:42.637,AA,C,3984712848,JASSM,3,140,76,2,2,1,225,9,2,0,1,26,0,0,0,0,-178963.70642264312,-4778896.686494674,4211183.302214146,-2.36684,-0.400657,0.38129,79.5,-33.5,-34.5,0.0,0.0,0.0,0.0,0.0,0.0,2,0,41.55757906602648,-92.14465312713456,10997.378913134698,119.81600651609033,-0.0048782029161453,0.0059287286729597,,10375.88117203898,11905.596102039404,150,1,2025-09-12,2025-09-26 14:37:42.547,AA,C,2370642016,AMBUSH51,1,1,48,2,1,1,225,2,1,0,0,9,1,225,2,1,-146349.58767138913,-4792544.176369563,4196595.896117711,2.05718,2.8453,-0.19489,-107.544,34.66,22.6426,-0.00152051,-7.60062,7.10372,-0.020859,0.00290763,-0.018302,4,0,41.38452864237869,-91.74909368395171,10109.878408272863,-71.558961704464,-3.744287859488067,-15.622333724061733,189.05,10375.88117203898,11905.596102039404,150,False,20.572063740385722,False,168.498550517701,179.3617150556354,False,12.015765014440602,True,False
1,1970-07-23 10:27:58.636361169,2025-09-12,2025-09-26 14:37:43.636,AA,C,3985965546,JASSM,3,140,76,2,2,1,225,9,2,0,1,26,0,0,0,0,-178880.21716483062,-4778932.057588424,4211146.954557896,-2.36684,-0.400657,0.38129,79.5,-33.5,-34.5,0.0,0.0,0.0,0.0,0.0,0.0,2,0,41.55714194569381,-92.14363769648692,10997.379088188514,119.81668012194164,-0.0040016033512287,0.0059272807968142,,10375.88117203898,11905.596102039404,150,1,2025-09-12,2025-09-26 14:37:43.656,AA,C,2371954314,AMBUSH51,1,1,48,2,1,1,225,2,1,0,0,9,1,225,2,1,-146468.41662119026,-4792506.933675022,4196619.440086946,2.10758,2.86284,-0.18134,-109.551,33.0238,21.0324,-0.0822619,-7.76446,7.32579,0.101311,0.0161818,-0.0171972,4,0,41.384887513870495,-91.75052657694728,10078.244171691123,-72.8047496263164,-3.558253719719559,-12.466920357435086,190.773,10375.88117203898,11905.596102039404,150,False,20.453171534398738,False,167.21531771540396,179.32566066100924,False,13.32321156093996,True,False
1,1970-07-23 10:27:58.647319279,2025-09-12,2025-09-26 14:37:44.731,AA,C,3987218246,JASSM,3,140,76,2,2,1,225,9,2,0,1,26,0,0,0,0,-178796.72888358062,-4778967.426729049,4211110.604948521,-2.36684,-0.400657,0.38129,79.5,-33.5,-34.5,0.0,0.0,0.0,0.0,0.0,0.0,2,0,41.55670481464223,-92.14262229209002,10997.375213895648,119.8173537045604,-0.0031250110236755,0.0059258267144719,,10375.88117203898,11905.596102039404,150,1,2025-09-12,2025-09-26 14:37:44.682,AA,C,2373187080,AMBUSH51,1,1,48,2,1,1,225,2,1,0,0,9,1,225,2,1,-146582.45704310673,-4792473.584069794,4196640.635077249,2.19093,2.88767,-0.173586,-111.056,31.0224,20.8306,-0.247579,-8.29674,7.7098,0.0656792,0.0124222,-0.0119166,4,0,41.38520822605066,-91.75190087263395,10050.74135307982,-74.0883991012307,-2.8372550486800123,-7.368825045071746,191.909,10375.88117203898,11905.596102039404,150,True,20.33771640420737,False,166.51642129921407,179.28886806249818,False,14.036668204953214,True,False
1,1970-07-23 10:27:58.657322378,2025-09-12,2025-09-26 14:37:45.732,AA,C,3988411296,JASSM,3,140,76,2,2,1,225,9,2,0,1,26,0,0,0,0,-178717.21521170562,-4779001.112275924,4211075.985807896,-2.36684,-0.400657,0.38129,79.5,-33.5,-34.5,0.0,0.0,0.0,0.0,0.0,0.0,2,0,41.556288484201005,-92.141655240465,10997.376574054422,119.81799520628564,-0.0022901496094441,0.0059244406154992,,10375.88117203898,11905.596102039404,150,1,2025-09-12,2025-09-26 14:37:45.681,AA,C,2374380078,AMBUSH51,1,1,48,2,1,1,225,2,1,0,0,9,1,225,2,1,-146694.79437461612,-4792442.867439516,4196661.47393632,2.3032,2.90318,-0.183787,-112.126,29.4857,21.3744,-0.168044,-8.59774,7.99539,0.134266,0.0176341,0.00132638,4,0,41.38551116935049,-91.75325388063912,10028.823400366498,-74.2549694632953,-1.7976604006609789,-0.7717856366558817,193.253,10375.88117203898,11905.596102039404,150,True,20.226134419788607,False,166.238274883269,179.2521334742771,False,14.331842359914665,True,False
1,1970-07-23 10:27:58.667298511,2025-09-12,2025-09-26 14:37:46.729,AA,C,3989663992,JASSM,3,140,76,2,2,1,225,9,2,0,1,26,0,0,0,0,-178633.72595389312,-4779036.479463424,4211039.634245396,-2.36684,-0.400561,0.38129,79.5,-33.5,-34.5,0.0,0.0,0.0,0.0,0.0,0.0,2,0,41.55585133429541,-92.14063985196628,10997.373141064249,119.81502498137574,-0.0049799838070152,0.0038790803401684,,10375.88117203898,11905.596102039404,150,1,2025-09-12,2025-09-26 14:37:46.614,AA,C,2375493544,AMBUSH51,1,1,48,2,1,1,225,2,1,0,0,9,1,225,2,1,-146799.0975426191,-4792415.740974145,4196681.468079036,2.38507,2.91163,-0.189143,-112.665,28.5649,22.7643,-0.27151,-8.30276,7.75686,0.0677868,0.0194733,0.0111822,4,0,41.3857885059745,-91.75450962793184,10013.308031911803,-74.35292272059824,-1.2387451872953958,4.011374286761842,193.987,10375.88117203898,11905.596102039404,150,True,20.116606712375567,False,166.47385594082664,179.21795023049125,False,14.111207795941603,True,False
1,1970-07-23 10:27:58.678256872,2025-09-12,2025-09-26 14:37:47.825,AA,C,3990916954,JASSM,3,140,76,2,2,1,225,9,2,0,1,26,0,0,0,0,-178550.22009451812,-4779071.854463424,4211003.274870396,-2.36684,-0.400561,0.38129,79.5,-33.5,-34.5,0.0,0.0,0.0,0.0,0.0,0.0,2,0,41.555414079876506,-92.1396242748996,10997.375254338514,119.81569866144773,-0.0041032049104715,0.0038775656871699,,10375.88117203898,11905.596102039404,150,1,2025-09-12,2025-09-26 14:37:47.914,AA,C,2377044442,AMBUSH51,1,1,48,2,1,1,225,2,1,0,0,9,1,225,2,1,-146945.7361437241,-4792378.6174316695,4196711.911805081,2.43909,2.90867,-0.21802,-112.835,27.9697,25.2453,-0.170547,-8.43934,7.72443,0.0509382,0.0148877,0.00958842,4,0,41.38618812287029,-91.75627471842814,9999.061523131408,-73.02469035600352,-0.2383085364797264,7.055233396005361,194.744,10375.88117203898,11905.596102039404,150,True,19.983652579963007,False,167.20382100365725,179.17228203160798,False,13.40101579549652,True,False
1,1970-07-23 10:27:58.688258410,2025-09-12,2025-09-26 14:37:48.825,AA,C,3992169388,JASSM,3,140,76,2,2,1,225,9,2,0,1,26,0,0,0,0,-178466.74841483062,-4779107.211885299,4210966.931120396,-2.36684,-0.400561,0.38129,79.5,-33.5,-34.5,0.0,0.0,0.0,0.0,0.0,0.0,2,0,41.55497701892011,-92.13860912858416,10997.376283034442,119.81637204996171,-0.0032267973987305,0.0038760714778069,,10375.88117203898,11905.596102039404,150,1,2025-09-12,2025-09-26 14:37:48.914,AA,C,2378237442,AMBUSH51,1,1,48,2,1,1,225,2,1,0,0,9,1,225,2,1,-147059.19841780068,-4792349.654960465,4196738.237467129,2.47398,2.90927,-0.227696,-112.661,28.1153,27.4901,-0.207558,-8.05316,7.4091,0.00892055,0.00889766,0.00962379,4,0,41.38651742673538,-91.7576405688,9993.468814455166,-72.64112301844374,0.1636172146905617,9.061737031907544,195.013,10375.88117203898,11905.596102039404,150,True,19.868317826659222,False,168.05516197294526,179.13888605283717,False,12.563172420859761,True,False
1,1970-07-23 10:27:58.699217473,2025-09-12,2025-09-26 14:37:49.921,AA,C,3993422086,JASSM,3,140,76,2,2,1,225,9,2,0,1,26,0,0,0,0,-178383.25915701812,-4779142.577119674,4210930.575651646,-2.36684,-0.400561,0.38129,79.5,-33.5,-34.5,0.0,0.0,0.0,0.0,0.0,0.0,2,0,41.55453982736336,-92.13759378200906,10997.374267292384,119.81704556549784,-0.0023501904535963,0.0038745513264428,,10375.88117203898,11905.596102039404,150,1,2025-09-12,2025-09-26 14:37:49.948,AA,C,2379470206,AMBUSH51,1,1,48,2,1,1,225,2,1,0,0,9,1,225,2,1,-147174.40722609014,-4792319.896933375,4196766.917811077,2.45647,2.89796,-0.247743,-112.198,28.8131,29.2387,-0.263387,-7.97296,7.38179,-0.0586301,0.00293884,0.0141553,4,0,41.386867026122026,-91.7590275869574,9991.165660633247,-71.3710435868398,0.4820400572750738,7.913017249898793,195.196,10375.88117203898,11905.596102039404,150,True,19.751542911508487,False,168.9254653089129,179.10653242652,False,11.718727361165906,True,False
1,1970-07-23 10:27:58.709359292,2025-09-12,2025-09-26 14:37:50.935,AA,C,3994615134,JASSM,3,140,76,2,2,1,225,9,2,0,1,26,0,0,0,0,-178303.74646170562,-4779176.256807174,4210895.952604771,-2.36684,-0.400561,0.38129,79.5,-33.5,-34.5,0.0,0.0,0.0,0.0,0.0,0.0,2,0,41.554123462908535,-92.13662680923522,10997.37596755502,119.81768698755724,-0.001515342298303,0.0038731139388746,,10375.88117203898,11905.596102039404,150,1,2025-09-12,2025-09-26 14:37:51.014,AA,C,2380742738,AMBUSH51,1,1,48,2,1,1,225,2,1,0,0,9,1,225,2,1,-147294.53358523274,-4792288.599297645,4196798.539989324,2.393,2.88963,-0.263883,-111.846,28.8402,30.7708,-0.0916749,-7.63456,7.00732,-0.0779797,0.00706258,0.00917438,4,0,41.38724473009672,-91.76047392339336,9991.83529579094,-70.38027279113534,0.7743801889103623,4.166247796098874,195.551,10375.88117203898,11905.596102039404,150,True,19.634126970020912,False,169.48168693872586,179.07425600387182,False,11.175653512169447,True,False
1,1970-07-23 10:27:58.720660366,2025-09-12,2025-09-26 14:37:52.066,AA,C,3995867832,JASSM,3,140,76,2,2,1,225,9,2,0,1,26,0,0,0,0,-178220.25720389312,-4779211.618135299,4210859.597136021,-2.36684,-0.400561,0.381386,79.5,-33.5,-34.5,0.0,0.0,0.0,0.0,0.0,0.0,2,0,41.55368627708507,-92.13561149111972,10997.373941415028,119.82220291643895,-0.0045643879996323,0.0038714388090782,,10375.88117203898,11905.596102039404,150,1,2025-09-12,2025-09-26 14:37:52.082,AA,C,2382015270,AMBUSH51,1,1,48,2,1,1,225,2,1,0,0,9,1,225,2,1,-147413.04420715227,-4792257.260152653,4196831.179645216,2.33622,2.88967,-0.266281,-111.757,28.9611,31.5594,-0.18243,-7.29101,6.74799,-0.0285967,-0.0079718,0.0037794,4,0,41.38762982839,-91.76190099238678,9994.49599153811,-70.28190420988489,0.870485993352981,0.9150420900871076,195.661,10375.88117203898,11905.596102039404,150,True,19.5147378023687,False,169.7776990989004,179.0432253328144,False,10.905183111383298,True,False
1,1970-07-23 10:27:58.730327401,2025-09-12,2025-09-26 14:37:53.032,AA,C,3997180418,JASSM,3,140,76,2,2,1,225,9,2,0,1,26,0,0,0,0,-178132.77673514312,-4779248.670869674,4210821.501432896,-2.36684,-0.400561,0.381386,79.5,-33.5,-34.5,0.0,0.0,0.0,0.0,0.0,0.0,2,0,41.553228160999566,-92.13454764989037,10997.374507816838,119.82290858215823,-0.0036458771292241,0.0038699099887809,,10375.88117203898,11905.596102039404,150,1,2025-09-12,2025-09-26 14:37:53.113,AA,C,2383248036,AMBUSH51,1,1,48,2,1,1,225,2,1,0,0,9,1,225,2,1,-147529.21148890088,-4792226.77670328,4196863.421425008,2.29701,2.88715,-0.269324,-111.778,28.9141,31.6177,-0.135247,-7.27053,6.64193,-0.0238634,0.00114745,0.0104352,4,0,41.38800756228149,-91.76329977279234,9998.229668803053,-70.06026604010964,0.8884813415061165,-1.3663899194043816,195.697,10375.88117203898,11905.596102039404,150,True,19.39416441767706,False,169.77611702166143,179.0120355677759,False,10.943773623961453,True,False
1,1970-07-23 10:27:58.742278786,2025-09-12,2025-09-26 14:37:54.227,AA,C,3998552186,JASSM,3,140,76,2,2,1,225,9,2,0,1,26,0,0,0,0,-178041.35193045562,-4779287.391572799,4210781.688932896,-2.36684,-0.400561,0.381386,79.5,-33.5,-34.5,0.0,0.0,0.0,0.0,0.0,0.0,2,0,41.55274940052584,-92.13343585923216,10997.376189196357,119.82364604679807,-0.0026859638007188,0.0038683306543673,,10375.88117203898,11905.596102039404,150,1,2025-09-12,2025-09-26 14:37:54.115,AA,C,2384441034,AMBUSH51,1,1,48,2,1,1,225,2,1,0,0,9,1,225,2,1,-147640.27545989884,-4792197.75268486,4196894.251357366,2.31015,2.88971,-0.268482,-111.867,28.9504,31.4194,-0.0166008,-7.36552,6.80703,0.112432,0.00312193,0.00272038,4,0,41.388368001468606,-91.76463707420072,10002.112533257958,-70.19290997901658,0.9602300369344194,-0.5765028522031638,195.783,10375.88117203898,11905.596102039404,150,True,19.274022496164072,False,169.71308426123076,178.9810756854333,False,11.05025196400624,True,False
1,1970-07-23 10:27:58.752259953,2025-09-12,2025-09-26 14:37:55.225,AA,C,3999804886,JASSM,3,140,76,2,2,1,225,9,2,0,1,26,0,0,0,0,-177957.86267264312,-4779322.750947799,4210745.329557896,-2.36684,-0.400465,0.381386,79.5,-33.5,-34.5,0.0,0.0,0.0,0.0,0.0,0.0,2,0,41.55231217176853,-92.13242058499108,10997.376280901688,119.82067596724303,-0.0053757903991126,0.0018225029242035,,10375.88117203898,11905.596102039404,150,1,2025-09-12,2025-09-26 14:37:55.315,AA,C,2385872634,AMBUSH51,1,1,48,2,1,1,225,2,1,0,0,9,1,225,2,1,-147774.48136211897,-4792162.146806493,4196931.903904502,2.44695,2.89015,-0.267555,-111.68,29.5749,31.9836,-0.232924,-7.20509,6.67582,0.054161,-0.0053128,0.00757232,4,0,41.38880939240612,-91.76625323929426,10006.364629267617,-70.24937478599122,0.94303839351464,7.267214750604314,195.661,10375.88117203898,11905.596102039404,150,True,19.145635679962055,False,170.12080871806546,178.94394897862583,False,10.689182699549074,True,False
1,1970-07-23 10:27:58.763215696,2025-09-12,2025-09-26 14:37:56.321,AA,C,4001057584,JASSM,3,140,76,2,2,1,225,9,2,0,1,26,0,0,0,0,-177874.37341483062,-4779358.108369674,4210708.970182896,-2.36684,-0.400465,0.381386,79.5,-33.5,-34.5,0.0,0.0,0.0,0.0,0.0,0.0,2,0,41.551874945664416,-92.13140532530316,10997.37648399296,119.82134938986236,-0.0044991953974861,0.0018210018904881,,10375.88117203898,11905.596102039404,150,1,2025-09-12,2025-09-26 14:37:56.414,AA,C,2387184932,AMBUSH51,1,1,48,2,1,1,225,2,1,0,0,9,1,225,2,1,-147897.69001317414,-4792128.554822179,4196967.3700032495,2.50859,2.86961,-0.284658,-111.099,30.557,33.1363,-0.147047,-7.13178,6.55517,0.0256631,-0.00497574,0.0217828,4,0,41.38922603877164,-91.76773732260918,10010.004119014551,-68.76103390229,0.7865212889989577,10.500453348393364,195.71,10375.88117203898,11905.596102039404,150,False,19.02311257034231,False,170.89070896727102,178.9099803321226,False,9.955555736128087,True,False
1,1970-07-23 10:27:58.774356362,2025-09-12,2025-09-26 14:37:57.435,AA,C,4002429588,JASSM,3,140,76,2,2,1,225,9,2,0,1,26,0,0,0,0,-177782.93200858062,-4779396.832979049,4210669.145964146,-2.36684,-0.400465,0.381386,79.5,-33.5,-34.5,0.0,0.0,0.0,0.0,0.0,0.0,2,0,41.55139605616144,-92.13029338053438,10997.37735128408,119.82208693710014,-0.0035391027765623,0.0018193505077512,,10375.88117203898,11905.596102039404,150,1,2025-09-12,2025-09-26 14:37:57.414,AA,C,2388377930,AMBUSH51,1,1,48,2,1,1,225,2,1,0,0,9,1,225,2,1,-148007.7655779058,-4792096.940075396,4197000.388435065,2.47828,2.85602,-0.286224,-110.564,32.1673,33.8882,-0.0897005,-6.92294,6.43816,-0.034439,-0.00709795,0.0137517,4,0,41.38961679238194,-91.76906382128966,10012.209576086943,-68.18397818703295,0.3058538849146231,8.550368661882944,195.966,10375.88117203898,11905.596102039404,150,True,18.902467127536394,False,171.73449421986686,178.88035388510102,False,9.168127359556351,True,False
1,1970-07-23 10:27:58.785317450,2025-09-12,2025-09-26 14:37:58.531,AA,C,4003741938,JASSM,3,140,76,2,2,1,225,9,2,0,1,26,0,0,0,0,-177695.46716483062,-4779433.872041549,4210631.052214146,-2.36684,-0.400465,0.381386,79.5,-33.5,-34.5,0.0,0.0,0.0,0.0,0.0,0.0,2,0,41.55093798193548,-92.1292298075462,10997.376960941354,119.82279239305112,-0.0026207624138461,0.0018177703380586,,10375.88117203898,11905.596102039404,150,1,2025-09-12,2025-09-26 14:37:58.447,AA,C,2389610696,AMBUSH51,1,1,48,2,1,1,225,2,1,0,0,9,1,225,2,1,-148122.52660369573,-4792062.719267226,4197035.941205002,2.43582,2.84829,-0.297264,-110.163,33.0753,34.9221,-0.113114,-7.27906,6.73582,-0.0700547,-0.00295132,0.00418096,4,0,41.39003928041795,-91.77044726548904,10013.864765415134,-67.43419483167185,0.434875381841011,5.994925136524747,196.467,10375.88117203898,11905.596102039404,150,True,18.78115571630953,False,172.41081671712766,178.850828774833,False,8.523367051152547,True,False
1,1970-07-23 10:27:58.796400643,2025-09-12,2025-09-26 14:37:59.640,AA,C,4004994638,JASSM,3,140,76,2,2,1,225,9,2,0,1,26,0,0,0,0,-177611.97888358062,-4779469.225557174,4210594.688932896,-2.36684,-0.400465,0.381386,79.5,-33.5,-34.5,0.0,0.0,0.0,0.0,0.0,0.0,2,0,41.55050072433336,-92.12821460428984,10997.37457896463,119.8234657599456,-0.001744174318875,0.0018162613872291,,10375.88117203898,11905.596102039404,150,1,2025-09-12,2025-09-26 14:37:59.747,AA,C,2391161594,AMBUSH51,1,1,48,2,1,1,225,2,1,0,0,9,1,225,2,1,-148265.34250203628,-4792018.75218926,4197081.64364063,2.36302,2.83701,-0.297759,-109.89,34.094,35.3958,-0.0777656,-6.69729,6.18582,-0.0499416,-0.00380853,0.00525246,4,0,41.39058308508096,-91.77216944611492,10015.702881273215,-66.98799489385537,0.0085988704913363,1.635995270438606,196.761,10375.88117203898,11905.596102039404,150,True,18.64556272837972,False,172.9253237843667,178.81648129613123,False,8.064962629760148,True,False
1,1970-07-23 10:27:58.808593403,2025-09-12,2025-09-26 14:38:00.859,AA,C,4006366642,JASSM,3,140,76,2,2,1,225,9,2,0,1,26,0,0,0,0,-177520.53747733062,-4779507.946260299,4210554.862761021,-2.36684,-0.400465,0.381482,79.5,-33.5,-34.5,0.0,0.0,0.0,0.0,0.0,0.0,2,0,41.55002181401007,-92.12710270835676,10997.378490192626,119.82804583927592,-0.0047095897490739,0.0018144338073974,,10375.88117203898,11905.596102039404,150,1,2025-09-12,2025-09-26 14:38:00.848,AA,C,2392473894,AMBUSH51,1,1,48,2,1,1,225,2,1,0,0,9,1,225,2,1,-148385.50193210843,-4791981.007038351,4197120.156452316,2.34213,2.83619,-0.297182,-109.98,34.7445,35.2692,-0.100385,-7.0856,6.57908,-0.0181168,-0.00597235,-0.00217734,4,0,41.39104548842712,-91.7736187186915,10015.538062120557,-66.981909466119,-0.0453202499136014,0.4257320149477997,196.993,10375.88117203898,11905.596102039404,150,True,18.517996192137467,False,173.06355966596738,178.7863326191369,False,7.982953194643377,True,False
1,1970-07-23 10:27:58.818214576,2025-09-12,2025-09-26 14:38:01.821,AA,C,4007678992,JASSM,3,140,76,2,2,1,225,9,2,0,1,26,0,0,0,0,-177433.07165701812,-4779544.981416549,4210516.765104771,-2.36684,-0.400465,0.381482,79.5,-33.5,-34.5,0.0,0.0,0.0,0.0,0.0,0.0,2,0,41.54956370737358,-92.12603917046393,10997.376070602444,119.82875125288572,-0.003791241212188,0.0018129163823963,,10375.88117203898,11905.596102039404,150,1,2025-09-12,2025-09-26 14:38:01.680,AA,C,2393468058,AMBUSH51,1,1,48,2,1,1,225,2,1,0,0,9,1,225,2,1,-148477.17976108886,-4791951.76863331,4197149.78467594,2.33234,2.83189,-0.296825,-110.117,34.8092,35.5902,-0.146811,-6.99212,6.47436,-0.00386054,0.00171753,-0.00314274,4,0,41.39140254108992,-91.77472464433984,10014.86538816843,-66.8341376004247,-0.2287849992088245,-0.207842325031888,197.213,10375.88117203898,11905.596102039404,150,True,18.40940352226788,False,173.1574826693453,178.76266446301125,False,7.908165252779442,True,False
1,1970-07-23 10:27:58.830198520,2025-09-12,2025-09-26 14:38:03.019,AA,C,4008991342,JASSM,3,140,76,2,2,1,225,9,2,0,1,26,0,0,0,0,-177345.60681326812,-4779582.014619674,4210478.667448521,-2.36684,-0.400465,0.381482,79.5,-33.5,-34.5,0.0,0.0,0.0,0.0,0.0,0.0,2,0,41.54910560229787,-92.12497566014537,10997.374329246117,119.82945664181804,-0.0028729064423497,0.0018114041584242,,10375.88117203898,11905.596102039404,150,1,2025-09-12,2025-09-26 14:38:03.048,AA,C,2395098490,AMBUSH51,1,1,48,2,1,1,225,2,1,0,0,9,1,225,2,1,-148627.7057602649,-4791903.7844874775,4197197.877471181,2.16362,2.83224,-0.296001,-110.641,34.9732,34.7567,0.0927815,-7.22948,6.44626,-0.16281,-0.00822979,0.000275679,4,0,41.39198489065258,-91.776540483819,10012.625983886002,-66.88303254713516,-0.2458236214356039,-9.868648465250546,197.665,10375.88117203898,11905.596102039404,150,True,18.266533312779096,False,172.8354194303828,178.72448603498339,False,8.296646924321674,True,False
1,1970-07-23 10:27:58.840318968,2025-09-12,2025-09-26 14:38:04.031,AA,C,4010244042,JASSM,3,140,76,2,2,1,225,9,2,0,1,26,0,0,0,0,-177262.11657889312,-4779617.364229049,4210442.300261021,-2.36684,-0.400369,0.381482,79.5,-33.5,-34.5,0.0,0.0,0.0,0.0,0.0,0.0,2,0,41.54866830442442,-92.1239604925772,10997.37423209279,119.8264867113416,-0.0055627242938733,-0.0002348899733525,,10375.88117203898,11905.596102039404,150,1,2025-09-12,2025-09-26 14:38:03.914,AA,C,2396132422,AMBUSH51,1,1,48,2,1,1,225,2,1,0,0,9,1,225,2,1,-148723.80872598445,-4791873.898934173,4197227.516591858,2.08723,2.83934,-0.283389,-111.396,34.2646,33.5936,0.054968,-6.86961,6.24152,-0.0158469,0.00244782,-0.0360952,4,0,41.39234502109147,-91.77769954137634,10010.736517725869,-67.67513965266369,-0.4634374127491913,-14.124274101751697,198.41,10375.88117203898,11905.596102039404,150,False,18.158309894420167,False,172.10956445537062,178.69677869178238,False,9.057397972439107,True,False
1,1970-07-23 10:27:58.851280530,2025-09-12,2025-09-26 14:38:05.128,AA,C,4011556394,JASSM,3,140,76,2,2,1,225,9,2,0,1,26,0,0,0,0,-177174.65173514312,-4779654.397432174,4210404.200651646,-2.36674,-0.400369,0.381482,79.5,-33.5,-34.5,0.0,0.0,0.0,0.0,0.0,0.0,2,0,41.548210166899366,-92.12289701160766,10997.378759047862,119.8271920684224,-0.0046443829364728,0.005255000006458,,10375.88117203898,11905.596102039404,150,1,2025-09-12,2025-09-26 14:38:05.079,AA,C,2397524254,AMBUSH51,1,1,48,2,1,1,225,2,1,0,0,9,1,225,2,1,-148854.4191717898,-4791834.592118093,4197265.40644136,2.09894,2.86026,-0.256362,-112.566,32.7573,32.033,-0.234262,-7.36733,6.66677,0.0610374,0.00408525,-0.00564361,4,0,41.39281050651236,-91.77927431403047,10006.211089690572,-69.5945178095054,-0.6916176449454307,-13.114487432502692,198.704,10375.88117203898,11905.596102039404,150,False,18.028344445512456,False,170.95424974171186,178.6557117953783,False,10.249416436206586,True,False
1,1970-07-23 10:27:58.862258441,2025-09-12,2025-09-26 14:38:06.225,AA,C,4012928396,JASSM,3,140,76,2,2,1,225,9,2,0,1,26,0,0,0,0,-177083.21032889312,-4779693.110322799,4210364.366667271,-2.36674,-0.400369,0.381482,79.5,-33.5,-34.5,0.0,0.0,0.0,0.0,0.0,0.0,2,0,41.54773119895359,-92.12178519763654,10997.374631513469,119.82792947568552,-0.0036842951319229,0.0052533532506736,,10375.88117203898,11905.596102039404,150,1,2025-09-12,2025-09-26 14:38:06.181,AA,C,2398836554,AMBUSH51,1,1,48,2,1,1,225,2,1,0,0,9,1,225,2,1,-148978.7375096257,-4791798.729626844,4197299.247131261,2.182,2.87405,-0.251158,-113.508,31.8647,30.3503,-0.0057956,-7.63131,6.94359,0.122717,0.0181813,-0.011074,4,0,41.39322930965351,-91.78077266819136,10000.90382714541,-70.33678713183,-0.3380578913422712,-8.150897141460641,199.119,10375.88117203898,11905.596102039404,150,True,17.90027445082504,False,169.97451105379022,178.61181430061106,False,11.284876491590971,True,False
1,1970-07-23 10:27:58.878622289,2025-09-12,2025-09-26 14:38:07.862,AA,C,4014240748,JASSM,3,140,76,2,2,1,225,9,2,0,1,26,0,0,0,0,-176995.74548514312,-4779730.139619674,4210326.265104771,-2.36674,-0.400369,0.381482,79.5,-33.5,-34.5,0.0,0.0,0.0,0.0,0.0,0.0,2,0,41.54727305138163,-92.12072174911356,10997.37633131472,119.82863479817648,-0.0027659597956735,0.0052517792060957,,10375.88117203898,11905.596102039404,150,1,2025-09-12,2025-09-26 14:38:07.848,AA,C,2400824884,AMBUSH51,1,1,48,2,1,1,225,2,1,0,0,9,1,225,2,1,-149169.62825322515,-4791745.933293676,4197349.631836798,2.36001,2.88152,-0.248747,-114.049,31.2919,30.0718,-0.31547,-7.39393,6.64931,0.0803099,0.00658196,0.0201204,4,0,41.393848187636,-91.78307258480784,9994.935368578948,-70.72280119752483,-0.1277144570490626,2.156110943941469,199.229,10375.88117203898,11905.596102039404,150,True,17.737716332645643,False,169.6291459033737,178.5424040390643,False,11.69727018592603,True,False
1,1970-07-23 10:27:58.884998173,2025-09-12,2025-09-26 14:38:08.499,AA,C,4015553100,JASSM,3,140,76,2,2,1,225,9,2,0,1,26,0,0,0,0,-176908.27966483062,-4779767.166963424,4210288.161589146,-2.36674,-0.400369,0.381482,79.5,-33.5,-34.5,0.0,0.0,0.0,0.0,0.0,0.0,2,0,41.54681489264927,-92.11965830478124,10997.374281476112,119.82934011149854,-0.0018476167168642,0.0052502080298786,,10375.88117203898,11905.596102039404,150,1,2025-09-12,2025-09-26 14:38:08.514,AA,C,2401620216,AMBUSH51,1,1,48,2,1,1,225,2,1,0,0,9,1,225,2,1,-149244.47791741096,-4791725.496068784,4197369.282764283,2.3988,2.87755,-0.254213,-113.984,31.3198,30.4543,-0.184628,-7.39532,6.59004,0.0585719,-0.000741732,0.00535233,4,0,41.394088557064805,-91.78397431283878,9993.02347458163,-70.34424775358359,-0.07385369661061,4.321436846131546,199.376,10375.88117203898,11905.596102039404,150,True,17.640628341265177,False,169.77583749910062,178.51181407995597,False,11.577204383191086,True,False
1,1970-07-23 10:27:58.896643498,2025-09-12,2025-09-26 14:38:09.664,AA,C,4016865450,JASSM,3,140,76,2,2,1,225,9,2,0,1,26,0,0,0,0,-176820.81384451812,-4779804.194307174,4210250.058073521,-2.36674,-0.400369,0.381578,79.5,-33.5,-34.5,0.0,0.0,0.0,0.0,0.0,0.0,2,0,41.54635672404603,-92.11859487546404,10997.377613194118,119.83388813395555,-0.0048546376832298,0.0052484428526392,,10375.88117203898,11905.596102039404,150,1,2025-09-12,2025-09-26 14:38:09.714,AA,C,2403051816,AMBUSH51,1,1,48,2,1,1,225,2,1,0,0,9,1,225,2,1,-149381.03537684947,-4791687.503230719,4197406.221802495,2.32277,2.87136,-0.260734,-113.78,31.787,31.1246,-0.138708,-7.21728,6.52144,-0.186699,0.00275575,0.0120664,4,0,41.39453861958594,-91.78561972704338,9990.164480314708,-69.83790659674409,-0.0673778537694433,-0.1261208708584365,199.412,10375.88117203898,11905.596102039404,150,True,17.50847840199157,False,170.16605230106742,178.46056054763278,False,11.239950395757912,True,False
1,1970-07-23 10:27:58.906280124,2025-09-12,2025-09-26 14:38:10.628,AA,C,4018118308,JASSM,3,140,76,2,2,1,225,9,2,0,1,26,0,0,0,0,-176737.31384451812,-4779839.541963424,4210213.679167271,-2.36674,-0.400369,0.381578,79.5,-33.5,-34.5,0.0,0.0,0.0,0.0,0.0,0.0,2,0,41.54591930451457,-92.11757967786266,10997.377160057396,119.83456143640316,-0.0039779257211356,0.0052469878696087,,10375.88117203898,11905.596102039404,150,1,2025-09-12,2025-09-26 14:38:10.579,AA,C,2404085748,AMBUSH51,1,1,48,2,1,1,225,2,1,0,0,9,1,225,2,1,-149480.83453703276,-4791659.766007902,4197433.219133218,2.21826,2.86595,-0.264741,-113.965,31.5289,30.9232,0.0486242,-7.40406,6.53712,-0.0583992,0.0138474,-0.00507561,4,0,41.39486735909471,-91.78682223543449,9988.156014314074,-69.4663896923581,-0.1271330641937323,-6.195267373908871,199.852,10375.88117203898,11905.596102039404,150,True,17.399605082983836,False,169.99421462845743,178.42140415881218,False,11.451147543160278,True,False
1,1970-07-23 10:27:58.917239330,2025-09-12,2025-09-26 14:38:11.723,AA,C,4019430500,JASSM,3,140,76,2,2,1,225,9,2,0,1,26,0,0,0,0,-176649.85876639312,-4779876.561494674,4210175.577604771,-2.36674,-0.400369,0.381578,79.5,-33.5,-34.5,0.0,0.0,0.0,0.0,0.0,0.0,2,0,41.54546117400072,-92.1165164099418,10997.377064514329,119.83526661395068,-0.0030596965999008,0.0052454787683044,,10375.88117203898,11905.596102039404,150,1,2025-09-12,2025-09-26 14:38:11.613,AA,C,2405318512,AMBUSH51,1,1,48,2,1,1,225,2,1,0,0,9,1,225,2,1,-149598.68654153025,-4791627.447298888,4197464.611640457,2.17748,2.88136,-0.245769,-114.382,31.0342,29.961,-0.155528,-7.28778,6.41922,-0.00702513,-0.00985266,-0.019775,4,0,41.3952496582084,-91.78824212097622,9985.804633766067,-70.84453602725189,-0.2468588403635639,-8.304179652124976,199.999,10375.88117203898,11905.596102039404,150,True,17.27824912311843,False,169.46386966314287,178.374107014246,False,12.03749747496399,True,False
1,1970-07-23 10:27:58.928376555,2025-09-12,2025-09-26 14:38:12.837,AA,C,4020742850,JASSM,3,140,76,2,2,1,225,9,2,0,1,26,0,0,0,0,-176562.39294608062,-4779913.584932174,4210137.470182896,-2.36674,-0.400273,0.381578,79.5,-33.5,-34.5,0.0,0.0,0.0,0.0,0.0,0.0,2,0,41.54500297322438,-92.1154530267161,10997.378211443614,119.8323288803857,-0.0057077680731457,0.0031986365485847,,10375.88117203898,11905.596102039404,150,1,2025-09-12,2025-09-26 14:38:12.681,AA,C,2406591044,AMBUSH51,1,1,48,2,1,1,225,2,1,0,0,9,1,225,2,1,-149720.29872005025,-4791594.890413117,4197495.79995961,2.21801,2.88408,-0.241808,-114.848,30.3433,29.0308,-0.213027,-7.55146,6.44199,0.0609541,-0.00520669,-0.0081861,4,0,41.39563127920477,-91.78970703102456,9982.721566027436,-71.11463735101431,-0.2900185862689093,-5.943130198097537,199.889,10375.88117203898,11905.596102039404,150,True,17.1551955848911,False,168.87991344927377,178.3224651385124,False,12.676914094840903,True,False
1,1970-07-23 10:27:58.938371072,2025-09-12,2025-09-26 14:38:13.837,AA,C,4021995550,JASSM,3,140,76,2,2,1,225,9,2,0,1,26,0,0,0,0,-176478.90271170562,-4779948.922822799,4210101.093229771,-2.36674,-0.400273,0.381578,79.5,-33.5,-34.5,0.0,0.0,0.0,0.0,0.0,0.0,2,0,41.54456559510218,-92.11443799268136,10997.374108695602,119.83300205642853,-0.0048311691475839,0.0031971406413181,,10375.88117203898,11905.596102039404,150,1,2025-09-12,2025-09-26 14:38:13.814,AA,C,2407943110,AMBUSH51,1,1,48,2,1,1,225,2,1,0,0,9,1,225,2,1,-149851.32294732388,-4791560.619756031,4197528.746533077,2.31546,2.89235,-0.234778,-114.989,29.8237,28.7794,-0.0863113,-7.37657,6.29481,0.0859358,0.00342362,-0.0020213,4,0,41.396033195059,-91.79128503483304,9979.969937300875,-71.72457259968921,-0.2260574680142621,-0.2447680717942431,199.742,10375.88117203898,11905.596102039404,150,True,17.0296911248381,False,168.6244116284965,178.26514294424308,False,12.98679033156729,True,False
1,1970-07-23 10:27:58.949361871,2025-09-12,2025-09-26 14:38:14.936,AA,C,4023248412,JASSM,3,140,76,2,2,1,225,9,2,0,1,26,0,0,0,0,-176395.40173514312,-4779984.266572799,4210064.712370396,-2.36674,-0.400273,0.381578,79.5,-33.5,-34.5,0.0,0.0,0.0,0.0,0.0,0.0,2,0,41.544128149096096,-92.11342284115136,10997.379815295417,119.83367530457174,-0.0039544556910622,0.0031956424503986,,10375.88117203898,11905.596102039404,150,1,2025-09-12,2025-09-26 14:38:14.880,AA,C,2409215642,AMBUSH51,1,1,48,2,1,1,225,2,1,0,0,9,1,225,2,1,-149973.13409353208,-4791528.818950795,4197559.520532625,2.43915,2.88861,-0.239427,-114.76,30.0935,29.2752,-0.36048,-7.44314,6.63669,0.129963,0.00732057,0.00960507,4,0,41.396407445925696,-91.79275207529322,9977.88114623504,-71.38858954012336,-0.1959833163823618,6.790132551011431,199.522,10375.88117203898,11905.596102039404,150,True,16.909311304422722,False,168.90396022215367,178.21072338662586,False,12.761815418033208,True,False
1,1970-07-23 10:27:58.960295987,2025-09-12,2025-09-26 14:38:16.029,AA,C,4024560600,JASSM,3,140,76,2,2,1,225,9,2,0,1,26,0,0,0,0,-176307.94665701812,-4780021.280244674,4210026.604948521,-2.36674,-0.400273,0.381578,79.5,-33.5,-34.5,0.0,0.0,0.0,0.0,0.0,0.0,2,0,41.54366997548764,-92.11235963450592,10997.373626904207,119.8343804166071,-0.0030362258144082,0.003194069915522,,10375.88117203898,11905.596102039404,150,1,2025-09-12,2025-09-26 14:38:16.079,AA,C,2410647240,AMBUSH51,1,1,48,2,1,1,225,2,1,0,0,9,1,225,2,1,-150110.8745835453,-4791491.913279592,4197595.312214376,2.53333,2.87596,-0.254201,-113.869,31.1475,30.603,-0.0095413,-7.37138,6.18872,0.0377035,0.00497574,0.0242316,4,0,41.39684295016545,-91.79441133660588,9975.356986317189,-70.2910744480737,-0.1307298271046404,12.005979251757337,199.303,10375.88117203898,11905.596102039404,150,False,16.777185228844427,False,169.79480083292535,178.15041445563256,False,11.933591719398674,True,False
1,1970-07-23 10:27:58.970275562,2025-09-12,2025-09-26 14:38:17.027,AA,C,4025813298,JASSM,3,140,76,2,2,1,225,9,2,0,1,26,0,0,0,0,-176224.45642264312,-4780056.616182174,4209990.226042271,-2.36674,-0.400273,0.381578,79.5,-33.5,-34.5,0.0,0.0,0.0,0.0,0.0,0.0,2,0,41.54323256845383,-92.11134464302626,10997.375425520988,119.83505354668355,-0.0021596264956449,0.0031925722616977,,10375.88117203898,11905.596102039404,150,1,2025-09-12,2025-09-26 14:38:16.847,AA,C,2411561872,AMBUSH51,1,1,48,2,1,1,225,2,1,0,0,9,1,225,2,1,-150198.0100844583,-4791467.3667719625,4197619.068206679,2.56061,2.86208,-0.262711,-113.225,32.5947,31.5009,-0.316168,-7.65843,6.68598,0.0320547,0.00626779,0.025195,4,0,41.39713309746132,-91.79546145667616,9973.231417871692,-69.4099557583793,-0.3556886349786819,13.362322643692696,199.339,10375.88117203898,11905.596102039404,150,False,16.675424648798703,False,170.61510090109854,178.11198717034793,False,11.169210779467528,True,False
1,1970-07-23 10:27:58.992593411,2025-09-12,2025-09-26 14:38:19.259,AA,C,4028259044,JASSM,3,140,76,2,2,1,225,9,2,0,1,26,0,0,0,0,-176061.45153983062,-4780125.602510299,4209919.196745396,-2.36674,-0.400273,0.381674,79.5,-33.5,-34.5,0.0,0.0,0.0,0.0,0.0,0.0,2,0,41.54237854891996,-92.10936303202456,10997.377684687184,119.84021057689924,-0.0043733920482155,0.0031894792773897,,10375.88117203898,11905.596102039404,150,1,2025-09-12,2025-09-26 14:38:19.314,AA,C,2414504604,AMBUSH51,1,1,48,2,1,1,225,2,1,0,0,9,1,225,2,1,-150473.96013082867,-4791383.400139029,4197701.149395159,2.62139,2.82972,-0.297097,-110.825,36.2588,35.3727,-0.347352,-7.73842,6.77597,0.0302841,0.00689197,0.024344,4,0,41.39813519556657,-91.7987894899126,9966.062055195029,-66.7566811340005,-0.2842709083025742,16.317687683146676,198.887,10375.88117203898,11905.596102039404,150,False,16.41422795884824,False,173.35547998136497,178.0076904417528,False,8.556098950788694,True,False
1,1970-07-23 10:27:59.000214278,2025-09-12,2025-09-26 14:38:20.021,AA,C,4029392670,JASSM,3,140,76,2,2,1,225,9,2,0,1,26,0,0,0,0,-175985.89734061187,-4780157.575166549,4209886.272917271,-2.36674,-0.400273,0.381674,79.5,-33.5,-34.5,0.0,0.0,0.0,0.0,0.0,0.0,2,0,41.54198270272699,-92.10844455692728,10997.37498430996,119.84081968326107,-0.0035801212359907,0.0031881827913832,,10375.88117203898,11905.596102039404,150,1,2025-09-12,2025-09-26 14:38:20.088,AA,C,2415419236,AMBUSH51,1,1,48,2,1,1,225,2,1,0,0,9,1,225,2,1,-150558.5641309138,-4791355.117246267,4197728.838411197,2.63331,2.81138,-0.309542,-109.888,37.569,36.7582,-0.105997,-7.52456,6.27248,-0.0248517,0.0120851,0.0268615,4,0,41.39847455381445,-91.79981081155984,9963.101871086325,-65.5477752330328,-0.5085427232528341,16.678239175868573,198.777,10375.88117203898,11905.596102039404,150,False,16.317023979241675,False,174.35023799925924,177.97817670335212,False,7.6015407601132985,True,False
1,1970-07-23 10:27:59.011364329,2025-09-12,2025-09-26 14:38:21.136,AA,C,4030645136,JASSM,3,140,76,2,2,1,225,9,2,0,1,26,0,0,0,0,-175902.42224295562,-4780192.901338424,4209849.895964146,-2.36674,-0.400273,0.381674,79.5,-33.5,-34.5,0.0,0.0,0.0,0.0,0.0,0.0,2,0,41.54154532908511,-92.10742980370438,10997.377348833552,119.84149263297408,-0.0027036758600561,0.0031867337460704,,10375.88117203898,11905.596102039404,150,1,2025-09-12,2025-09-26 14:38:21.113,AA,C,2416652000,AMBUSH51,1,1,48,2,1,1,225,2,1,0,0,9,1,225,2,1,-150672.19279610433,-4791314.894062705,4197768.090204252,2.55798,2.79195,-0.328163,-108.687,39.3299,38.5301,-0.150515,-7.76874,6.55991,-0.189988,0.0117502,0.0230644,4,0,41.398957560726274,-91.8011833705674,9958.106865298936,-64.04661997512413,-0.5168543250689077,11.99964609301023,198.777,10375.88117203898,11905.596102039404,150,False,16.196897368175758,False,175.64117044241672,177.94361816682664,False,6.365167053619886,True,False
1,1970-07-23 10:27:59.030274962,2025-09-12,2025-09-26 14:38:23.027,AA,C,4032971576,JASSM,3,140,76,2,2,1,225,9,2,0,1,26,0,0,0,0,-175747.36902029935,-4780258.512666549,4209782.323698521,-2.36674,-0.400177,0.381674,79.5,-33.5,-34.5,0.0,0.0,0.0,0.0,0.0,0.0,2,0,41.54073291128946,-92.10554496018432,10997.37312768718,119.83909986863873,-0.0046421169969795,0.0011381711811004,,10375.88117203898,11905.596102039404,150,1,2025-09-12,2025-09-26 14:38:23.093,AA,C,2418998232,AMBUSH51,1,1,48,2,1,1,225,2,1,0,0,9,1,225,2,1,-150884.3636910245,-4791236.948217733,4197845.436686475,2.26482,2.78981,-0.332328,-108.163,39.7349,39.6345,-0.00198235,-7.43713,6.54245,-0.100446,0.00438485,-0.0180315,4,0,41.39990366620555,-91.80374737901164,9950.613137045098,-63.79689116888435,-0.4298382230985197,-4.839216060330247,199.034,10375.88117203898,11905.596102039404,150,True,15.971671994580635,False,176.22777359576574,177.88554065902517,False,5.825489371344563,True,False
1,1970-07-23 10:27:59.033401626,2025-09-12,2025-09-26 14:38:23.340,AA,C,4031778532,JASSM,3,140,76,2,2,1,225,9,2,0,1,26,0,0,0,0,-175826.88366873687,-4780224.866182174,4209816.976042271,-2.36674,-0.400177,0.381674,79.5,-33.5,-34.5,0.0,0.0,0.0,0.0,0.0,0.0,2,0,41.54114953686981,-92.106511542655,10997.373837973442,119.83845887446432,-0.0054769721654089,0.0011395938474636,,10375.88117203898,11905.596102039404,150,1,2025-09-12,2025-09-26 14:38:23.415,AA,C,2419395898,AMBUSH51,1,1,48,2,1,1,225,2,1,0,0,9,1,225,2,1,-150920.97030811524,-4791223.221341074,4197859.131414603,2.24218,2.79291,-0.328431,-108.214,39.6878,39.5682,-0.176973,-7.32782,6.58126,-0.0497044,-0.000159166,-0.00954681,4,0,41.40007091459635,-91.80418986927202,9949.396972719029,-64.07407346586135,-0.4666444382783429,-6.076232708493803,199.107,10375.88117203898,11905.596102039404,150,True,15.999486597463664,False,176.18281833493225,177.8845117893051,False,5.871550682235191,True,False
1,1970-07-23 10:27:59.040276600,2025-09-12,2025-09-26 14:38:24.027,AA,C,4034104972,JASSM,3,140,76,2,2,1,225,9,2,0,1,26,0,0,0,0,-175671.82995779935,-4780290.477510299,4209749.403776646,-2.36674,-0.400177,0.381674,79.5,-33.5,-34.5,0.0,0.0,0.0,0.0,0.0,0.0,2,0,41.54033710407489,-92.1046267162758,10997.377811836552,119.83970880195348,-0.0038490005301641,0.0011368157308033,,10375.88117203898,11905.596102039404,150,1,2025-09-12,2025-09-26 14:38:23.847,AA,C,2419912864,AMBUSH51,1,1,48,2,1,1,225,2,1,0,0,9,1,225,2,1,-150967.17997190016,-4791206.384256471,4197875.987352982,2.22457,2.79473,-0.325851,-108.396,39.3139,39.4078,-0.0999097,-7.53761,6.4885,-0.0343371,-0.00384806,-0.00776998,4,0,41.4002762036456,-91.8047482569694,9948.134356459752,-64.24915900928356,-0.4993427229784563,-7.050127071677951,198.997,10375.88117203898,11905.596102039404,150,True,15.874217040701145,False,175.99498275645973,177.86184545862844,False,6.070701162939834,True,False
