Subject_cm,Timestamp,SampleDate_cm,SampleTime_cm,Configuration_cm,Scenario_cm,DisTime_cm,MarkingTxt_cm,Application_cm,EntId_cm,Site_cm,ExerciseId_cm,ForceId_cm,Category_cm,Country_cm,Domain_cm,Kind_cm,Extra_cm,Specific_cm,Subcategory_cm,AltCategory_cm,AltCountry_cm,AltDomain_cm,AltKind_cm,ECEF_X_cm,ECEF_Y_cm,ECEF_Z_cm,OriPhi_cm,OriPsi_cm,OriTheta_cm,LinVelX_cm,LinVelY_cm,LinVelZ_cm,LinAccX_cm,LinAccY_cm,LinAccZ_cm,AngVelX_cm,AngVelY_cm,AngVelZ_cm,DrAlg_cm,Appearance_cm,Latitude_cm,Longitude_cm,Altitude_cm,Heading_cm,Pitch_cm,Roll_cm,CalibratedAirspeed_cm,CM_Altitude_Lead_cm,CM_Altitude_Wing_cm,CM_Airspeed_cm,Subject_ac,SampleDate_ac,SampleTime_ac,Configuration_ac,Scenario_ac,DisTime_ac,MarkingTxt_ac,Application_ac,EntId_ac,Site_ac,ExerciseId_ac,ForceId_ac,Category_ac,Country_ac,Domain_ac,Kind_ac,Extra_ac,Specific_ac,Subcategory_ac,AltCategory_ac,AltCountry_ac,AltDomain_ac,AltKind_ac,ECEF_X_ac,ECEF_Y_ac,ECEF_Z_ac,OriPhi_ac,OriPsi_ac,OriTheta_ac,LinVelX_ac,LinVelY_ac,LinVelZ_ac,LinAccX_ac,LinAccY_ac,LinAccZ_ac,AngVelX_ac,AngVelY_ac,AngVelZ_ac,DrAlg_ac,Appearance_ac,Latitude_ac,Longitude_ac,Altitude_ac,Heading_ac,Pitch_ac,Roll_ac,CalibratedAirspeed_ac,CM_Altitude_Lead_ac,CM_Altitude_Wing_ac,CM_Airspeed_ac,Bank_Angle_Condition,distance_nm,Distance_Condition,angle_between_vel,angle_between_pos,Cone_Condition,angle_between_pos_nose,Nose_Cone_Condition,Intercept_Criteria
1,1970-07-23 10:27:58.412649782,2025-09-12,2025-09-26 14:37:21.264,AA,C,3959122002,JASSM,3,138,76,2,2,1,225,9,2,0,1,26,0,0,0,0,-163274.96374686187,-4785547.248994674,4204309.079557896,-2.36559,-0.397301,0.382249,74.0,-31.0,-32.125,0.0,0.0,0.0,0.0,0.0,0.0,2,0,41.47496100658201,-91.95407932475274,10997.377768377886,119.85334259140124,-0.0041042923450253,0.0050459584934286,,10375.88117203898,11905.596102039404,150,1,2025-09-12,2025-09-26 14:37:21.248,AA,C,2345231142,AMBUSH51,1,1,48,2,1,1,225,2,1,0,0,9,1,225,2,1,-144304.92970295076,-4793307.674654245,4195922.385515725,2.36825,2.7894,-0.365848,-91.4937,35.6814,37.1739,-0.105697,-7.4002,6.51615,-0.0467021,-0.00294092,-0.00517964,4,0,41.375809103045086,-91.72439731765932,10375.28961406128,-62.36162862879334,0.8391509597498185,1.0787148814795569,173.456,10375.88117203898,11905.596102039404,150,True,11.91652418243707,False,178.2835414182647,179.37914736753828,False,1.7557624082310812,True,False
1,1970-07-23 10:27:58.424223409,2025-09-12,2025-09-26 14:37:22.422,AA,C,3960494004,JASSM,3,138,76,2,2,1,225,9,2,0,1,26,0,0,0,0,-163189.82116873687,-4785582.983369674,4204271.958464146,-2.36559,-0.397301,0.382249,74.0,-31.0,-32.125,0.0,0.0,0.0,0.0,0.0,0.0,2,0,41.47451515825745,-91.95304655297612,10997.37367468949,119.8540265856755,-0.0032112369169067,0.0050444629234194,,10375.88117203898,11905.596102039404,150,1,2025-09-12,2025-09-26 14:37:22.481,AA,C,2346702508,AMBUSH51,1,1,48,2,1,1,225,2,1,0,0,9,1,225,2,1,-144418.20247204334,-4793263.269728278,4195968.46912138,2.30846,2.793,-0.363824,-91.3242,35.6774,37.0961,-0.0278688,-7.40196,6.36912,-0.022588,-0.000321452,-0.00443479,4,0,41.37636406057366,-91.72576605022086,10374.351959294254,-62.580554138959606,0.8963095062529586,-2.276615521305912,173.065,10375.88117203898,11905.596102039404,150,True,11.793064157072633,False,178.3019991674211,179.37354538723287,False,1.7584883503023254,True,False
1,1970-07-23 10:27:58.434219467,2025-09-12,2025-09-26 14:37:23.421,AA,C,3961866008,JASSM,3,138,76,2,2,1,225,9,2,0,1,26,0,0,0,0,-163104.67859061187,-4785618.717744674,4204234.837370396,-2.36559,-0.397301,0.382249,74.0,-31.0,-32.125,0.0,0.0,0.0,0.0,0.0,0.0,2,0,41.47406930062576,-91.9520137953534,10997.37467021469,119.85471056453116,-0.0023181814192319,0.0050429673130239,,10375.88117203898,11905.596102039404,150,1,2025-09-12,2025-09-26 14:37:23.415,AA,C,2347815974,AMBUSH51,1,1,48,2,1,1,225,2,1,0,0,9,1,225,2,1,-144503.27302781594,-4793230.046442917,4196002.903473028,2.28777,2.79719,-0.361473,-91.3189,35.5261,36.7126,-0.137244,-7.25918,6.52447,-0.00899545,-0.00477809,-0.0110864,4,0,41.37677890234725,-91.72679397113448,10373.582543461043,-62.83450501937072,0.9626936972922914,-3.3810958490318987,172.723,10375.88117203898,11905.596102039404,150,True,11.68707573733834,False,178.1219108375847,179.36842891155555,False,1.9658309959651754,True,False
1,1970-07-23 10:27:58.445342694,2025-09-12,2025-09-26 14:37:24.534,AA,C,3963178358,JASSM,3,138,76,2,2,1,225,9,2,0,1,26,0,0,0,0,-163023.23816092435,-4785652.899385299,4204199.327604771,-2.36559,-0.397301,0.382249,74.0,-30.875,-32.125,0.0,0.0,0.0,0.0,0.0,0.0,2,0,41.473642796025736,-91.95102595665428,10997.37698443525,119.85536478864648,-0.0014639447831426,0.0050415152354559,,10375.88117203898,11905.596102039404,150,1,2025-09-12,2025-09-26 14:37:24.454,AA,C,2349048738,AMBUSH51,1,1,48,2,1,1,225,2,1,0,0,9,1,225,2,1,-144597.80389146405,-4793193.569209753,4196040.6250747405,2.27173,2.8015,-0.356041,-91.5146,34.9675,36.4637,-0.12105,-7.47672,6.52692,-0.0134042,-0.00107671,-0.00307616,4,0,41.37723358537481,-91.7279360590861,10372.642154348574,-63.21928658080349,0.9108052635788098,-4.219784692128493,172.589,10375.88117203898,11905.596102039404,150,True,11.577772923673788,False,177.84785948165154,179.42208213918315,False,2.2498264219776334,True,False
1,1970-07-23 10:27:58.456320266,2025-09-12,2025-09-26 14:37:25.632,AA,C,3964490710,JASSM,3,138,76,2,2,1,225,9,2,0,1,26,0,0,0,0,-162941.79724295562,-4785687.077119674,4204163.817839146,-2.36559,-0.397205,0.382249,74.0,-30.875,-32.125,0.0,0.0,0.0,0.0,0.0,0.0,2,0,41.47321630627736,-91.95003812665745,10997.374317338754,119.85238111974674,-0.0041793723116218,0.0029912372970488,,10375.88117203898,11905.596102039404,150,1,2025-09-12,2025-09-26 14:37:25.418,AA,C,2350201970,AMBUSH51,1,1,48,2,1,1,225,2,1,0,0,9,1,225,2,1,-144686.3277608864,-4793159.780647536,4196075.452830072,2.26574,2.8065,-0.353407,-91.7134,34.8242,35.763,-1.04159e-05,-7.21394,6.39359,0.00546468,-0.0027183,-0.00716245,4,0,41.37765380582863,-91.72900545356248,10371.601747983865,-63.51569478125438,0.9984004281536412,-4.468762115612612,172.418,10375.88117203898,11905.596102039404,150,True,11.47233415945934,False,177.49854700091885,179.41541687941393,False,2.6483266946430777,True,False
1,1970-07-23 10:27:58.468240741,2025-09-12,2025-09-26 14:37:26.824,AA,C,3965743408,JASSM,3,138,76,2,2,1,225,9,2,0,1,26,0,0,0,0,-162864.05944998687,-4785719.702119674,4204129.921354771,-2.36559,-0.397205,0.382249,74.0,-30.875,-32.125,0.0,0.0,0.0,0.0,0.0,0.0,2,0,41.4728091840806,-91.94909522490752,10997.376447830877,119.8530055727468,-0.0033639774918926,0.0029898056938839,,10375.88117203898,11905.596102039404,150,1,2025-09-12,2025-09-26 14:37:26.714,AA,C,2351752870,AMBUSH51,1,1,48,2,1,1,225,2,1,0,0,9,1,225,2,1,-144805.04171398203,-4793114.938421732,4196121.508232893,2.29915,2.81347,-0.347573,-91.9718,34.2721,35.5204,-0.26389,-7.26871,6.87361,0.0573006,0.004208,-0.0126927,4,0,41.37821014093764,-91.7304394055204,10369.960554500276,-64.0181825817899,1.0356221582032004,-2.42615129682777,172.418,10375.88117203898,11905.596102039404,150,True,11.350945601737626,False,177.16787854171412,179.40657712504597,False,2.9602792388605836,True,False
1,1970-07-23 10:27:58.476284896,2025-09-12,2025-09-26 14:37:27.628,AA,C,3966817152,JASSM,3,138,76,2,2,1,225,9,2,0,1,26,0,0,0,0,-162797.42468436187,-4785747.665010299,4204100.866667271,-2.36559,-0.397205,0.382249,74.0,-30.875,-32.125,0.0,0.0,0.0,0.0,0.0,0.0,2,0,41.47246022105066,-91.94828700500558,10997.376812513345,119.85354082634984,-0.0026650520416708,0.0029885933052668,,10375.88117203898,11905.596102039404,150,1,2025-09-12,2025-09-26 14:37:27.547,AA,C,2352747034,AMBUSH51,1,1,48,2,1,1,225,2,1,0,0,9,1,225,2,1,-144881.84808221745,-4793086.196774579,4196150.957982556,2.34062,2.81489,-0.345722,-92.1058,34.3063,35.4008,-0.126636,-7.20297,6.60208,0.0405394,0.00246238,-0.000654347,4,0,41.37856611680649,-91.73136706902348,10368.81616290821,-64.14804500674532,1.017238562053193,-0.0244691231332309,172.369,10375.88117203898,11905.596102039404,150,True,11.262259736808023,False,177.10124268945123,179.399738532819,False,3.0497265114683803,True,False
1,1970-07-23 10:27:58.485804781,2025-09-12,2025-09-26 14:37:28.580,AA,C,3967950544,JASSM,3,138,76,2,2,1,225,9,2,0,1,26,0,0,0,0,-162727.08972342435,-4785777.180635299,4204070.196745396,-2.36559,-0.397205,0.382345,74.0,-30.875,-32.125,0.0,0.0,0.0,0.0,0.0,0.0,2,0,41.4720918618582,-91.94743391447264,10997.37650051416,119.85795318631284,-0.0058480976838772,0.0029870418912825,,10375.88117203898,11905.596102039404,150,1,2025-09-12,2025-09-26 14:37:28.749,AA,C,2354178634,AMBUSH51,1,1,48,2,1,1,225,2,1,0,0,9,1,225,2,1,-144993.10058142047,-4793044.543110465,4196193.538656563,2.38167,2.80833,-0.34965,-92.1242,34.4101,35.7107,-0.211445,-6.96764,6.75053,0.0377826,-0.012986,-0.00537522,4,0,41.37908134015999,-91.73271079723852,10366.945066609784,-63.74114203899432,0.9218496956567128,2.206110370252761,172.589,10375.88117203898,11905.596102039404,150,True,11.150271516774659,False,177.24103380195754,179.38996667414995,False,2.917110335840453,True,False
1,1970-07-23 10:27:58.496199622,2025-09-12,2025-09-26 14:37:29.619,AA,C,3969083940,JASSM,3,138,76,2,2,1,225,9,2,0,1,26,0,0,0,0,-162656.75427420562,-4785806.694307174,4204039.526823521,-2.36559,-0.397205,0.382345,74.0,-30.875,-32.125,0.0,0.0,0.0,0.0,0.0,0.0,2,0,41.47172350804768,-91.9465808285533,10997.374822174885,119.858518144929,-0.0051103575532549,0.0029858131038805,,10375.88117203898,11905.596102039404,150,1,2025-09-12,2025-09-26 14:37:29.548,AA,C,2355133032,AMBUSH51,1,1,48,2,1,1,225,2,1,0,0,9,1,225,2,1,-145066.8330901286,-4793016.739935639,4196221.872675709,2.40128,2.80408,-0.351643,-92.0562,34.734,35.932,-0.0975183,-7.27649,6.63184,0.00563737,-0.00521085,0.0141845,4,0,41.37942473615406,-91.73360143519996,10365.470778658431,-63.50021909723928,0.8386427995703302,3.249428086575584,173.029,10375.88117203898,11905.596102039404,150,True,11.061078094685564,False,177.44262100376997,179.38220721775784,False,2.7430216657890893,True,False
1,1970-07-23 10:27:58.508201277,2025-09-12,2025-09-26 14:37:30.820,AA,C,3970276972,JASSM,3,138,76,2,2,1,225,9,2,0,1,26,0,0,0,0,-162582.71765311187,-4785837.762666549,4204007.241667271,-2.36559,-0.397205,0.382345,74.0,-30.875,-32.125,0.0,0.0,0.0,0.0,0.0,0.0,2,0,41.47133574530273,-91.94568286156388,10997.377915137584,119.85911282170824,-0.0043337864989034,0.0029845036847836,,10375.88117203898,11905.596102039404,150,1,2025-09-12,2025-09-26 14:37:30.748,AA,C,2356564630,AMBUSH51,1,1,48,2,1,1,225,2,1,0,0,9,1,225,2,1,-145176.81664964807,-4792974.82557923,4196264.435761657,2.34984,2.79649,-0.353476,-92.1035,35.2549,36.1186,-0.0889634,-6.74287,6.46387,-0.0684734,-0.0116961,0.00732473,4,0,41.37994159347533,-91.73493013829238,10362.839106709403,-63.14071146065685,0.6219214100668409,0.1571669011268185,173.285,10375.88117203898,11905.596102039404,150,True,10.947298497414453,False,177.65937653255497,179.37109288412492,False,2.583462349970114,True,False
1,1970-07-23 10:27:58.514262119,2025-09-12,2025-09-26 14:37:31.426,AA,C,3971350728,JASSM,3,138,76,2,2,1,225,9,2,0,1,26,0,0,0,0,-162516.08337576812,-4785865.721650924,4203978.183073521,-2.36559,-0.397205,0.382345,74.0,-30.875,-32.125,0.0,0.0,0.0,0.0,0.0,0.0,2,0,41.47098675503658,-91.94487468569,10997.373397251298,119.85964803059812,-0.0036348640361458,0.0029833326032705,,10375.88117203898,11905.596102039404,150,1,2025-09-12,2025-09-26 14:37:31.548,AA,C,2357519030,AMBUSH51,1,1,48,2,1,1,225,2,1,0,0,9,1,225,2,1,-145250.89765344956,-4792946.452783136,4196292.875191023,2.25607,2.78583,-0.343665,-92.5565,35.7076,35.5982,-0.0780777,-6.38405,6.12934,-0.137793,-0.00966332,-0.00271622,4,0,41.38028900861014,-91.73582516831564,10360.226791604053,-63.13838419977659,-0.1810719391701818,-5.424333979685429,173.799,10375.88117203898,11905.596102039404,150,True,10.86013981423299,False,177.45317943627683,179.36192638566413,False,2.8727561841708895,True,False
1,1970-07-23 10:27:58.524609209,2025-09-12,2025-09-26 14:37:32.460,AA,C,3972424470,JASSM,3,138,76,2,2,1,225,9,2,0,1,26,0,0,0,0,-162449.45007498687,-4785893.680635299,4203949.124479771,-2.36559,-0.397205,0.382345,74.0,-30.875,-32.125,0.0,0.0,0.0,0.0,0.0,0.0,2,0,41.47063775887373,-91.94406653016232,10997.372077905107,119.86018322231142,-0.0029359490208178,0.002982156969236,,10375.88117203898,11905.596102039404,150,1,2025-09-12,2025-09-26 14:37:32.349,AA,C,2358473428,AMBUSH51,1,1,48,2,1,1,225,2,1,0,0,9,1,225,2,1,-145325.203468533,-4792917.741552418,4196320.888351357,2.15536,2.78733,-0.335391,-93.2852,35.8863,34.6667,0.0792286,-6.54047,6.33254,-0.114043,-0.00203794,-0.0252241,4,0,41.38063551035712,-91.7367230156291,10355.87764285078,-63.53347372811445,-0.4556118779410395,-11.163890965561876,174.532,10375.88117203898,11905.596102039404,150,False,10.772899345176812,False,176.90514873499694,179.35084228996578,False,3.4759168131507754,True,False
1,1970-07-23 10:27:58.532261860,2025-09-12,2025-09-26 14:37:33.226,AA,C,3973498212,JASSM,3,138,76,2,2,1,225,9,2,0,1,26,0,0,0,0,-162382.81628592435,-4785921.639619674,4203920.065886021,-2.36559,-0.397205,0.382345,74.0,-30.875,-32.125,0.0,0.0,0.0,0.0,0.0,0.0,2,0,41.47028875711069,-91.94325837746436,10997.373834893478,119.86071840844788,-0.0022370302179051,0.0029809835743597,,10375.88117203898,11905.596102039404,150,1,2025-09-12,2025-09-26 14:37:33.150,AA,C,2359427828,AMBUSH51,1,1,48,2,1,1,225,2,1,0,0,9,1,225,2,1,-145400.25811355503,-4792889.043635641,4196348.047274128,2.07791,2.79288,-0.314438,-94.3324,35.7894,33.2653,0.12812,-6.21292,6.0686,-0.0785518,-0.00546468,-0.0339688,4,0,41.380976022589245,-91.73762981155208,10349.768107957863,-64.60027864654201,-1.0834628110274738,-15.48576380303187,175.131,10375.88117203898,11905.596102039404,150,False,10.685490749179252,False,176.0070054468397,179.3371703473983,False,4.408444139528104,True,False
1,1970-07-23 10:27:58.544601804,2025-09-12,2025-09-26 14:37:34.460,AA,C,3974631728,JASSM,3,138,76,2,2,1,225,9,2,0,1,26,0,0,0,0,-162312.47351248687,-4785951.153291549,4203889.390104771,-2.36559,-0.397205,0.382345,74.0,-30.875,-32.125,0.0,0.0,0.0,0.0,0.0,0.0,2,0,41.46992033418897,-91.94240525123944,10997.375815173164,119.86128337356176,-0.0014992140082568,0.0029797543455772,,10375.88117203898,11905.596102039404,150,1,2025-09-12,2025-09-26 14:37:34.348,AA,C,2360859426,AMBUSH51,1,1,48,2,1,1,225,2,1,0,0,9,1,225,2,1,-145515.091630819,-4792845.776476998,4196386.333271271,2.01491,2.79422,-0.281737,-96.2628,35.6803,30.503,-0.0121058,-6.09158,5.82946,-0.0267471,-0.00356302,-0.0235596,4,0,41.38147112130236,-91.7390169952661,10334.918021124904,-65.98956392810362,-2.343326579753273,-19.03136714270867,176.316,10375.88117203898,11905.596102039404,150,False,10.572415388040838,False,174.2822218466528,179.30979603411052,False,6.191223632962658,True,False
1,1970-07-23 10:27:58.550259813,2025-09-12,2025-09-26 14:37:35.025,AA,C,3975705510,JASSM,3,138,76,2,2,1,225,9,2,0,1,26,0,0,0,0,-162245.83728201812,-4785979.112275924,4203860.327604771,-2.36559,-0.397109,0.382345,74.0,-30.875,-32.125,0.0,0.0,0.0,0.0,0.0,0.0,2,0,41.46957129486406,-91.9415970871675,10997.375289531998,119.85818094658067,-0.0043699119302842,0.0009292451539058,,10375.88117203898,11905.596102039404,150,1,2025-09-12,2025-09-26 14:37:34.981,AA,C,2361614992,AMBUSH51,1,1,48,2,1,1,225,2,1,0,0,9,1,225,2,1,-145575.7441789214,-4792823.446361252,4196404.98222537,2.00624,2.79693,-0.260685,-96.9754,34.4199,30.6441,-0.00588217,-5.9139,5.8401,-0.00939909,-0.0118105,-0.0364114,4,0,41.38171888616031,-91.73974949499863,10324.952600927949,-66.95707758224913,-3.080428815621145,-19.44044212717905,177.086,10375.88117203898,11905.596102039404,150,False,10.4945769392448,False,173.98699589729893,179.29051169457153,False,6.448007420775728,True,False
1,1970-07-23 10:27:58.560264045,2025-09-12,2025-09-26 14:37:36.026,AA,C,3976838742,JASSM,3,138,76,2,2,1,225,9,2,0,1,26,0,0,0,0,-162175.51159842435,-4786008.618135299,4203829.657682896,-2.36559,-0.397109,0.382345,74.0,-30.875,-32.125,0.0,0.0,0.0,0.0,0.0,0.0,2,0,41.46920294216873,-91.9407441872768,10997.378992232954,119.85874575385668,-0.0036322716856118,0.000927963240592,,10375.88117203898,11905.596102039404,150,1,2025-09-12,2025-09-26 14:37:36.048,AA,C,2362887524,AMBUSH51,1,1,48,2,1,1,225,2,1,0,0,9,1,225,2,1,-145681.58403610034,-4792784.346304979,4196433.919233598,2.16394,2.80367,-0.230863,-99.117,36.1877,26.1668,-0.111517,-6.27449,6.04972,0.165978,-0.00452217,-0.0322128,4,0,41.38212767612404,-91.74102778452855,10299.4191071168,-68.44522461208057,-4.004698864238693,-10.218918938431615,178.76,10375.88117203898,11905.596102039404,150,False,10.388351619874022,False,171.7196683541457,179.24808655706713,False,8.86581766293459,True,False
1,1970-07-23 10:27:58.570692157,2025-09-12,2025-09-26 14:37:37.069,AA,C,3977912484,JASSM,3,138,76,2,2,1,225,9,2,0,1,26,0,0,0,0,-162108.87780936187,-4786036.573213424,4203800.595182896,-2.36559,-0.397109,0.382345,74.0,-30.875,-32.125,0.0,0.0,0.0,0.0,0.0,0.0,2,0,41.46885391390356,-91.93993607179952,10997.375479469254,119.85928090019743,-0.002933352282378,0.0009267421135592,,10375.88117203898,11905.596102039404,150,1,2025-09-12,2025-09-26 14:37:37.081,AA,C,2364120290,AMBUSH51,1,1,48,2,1,1,225,2,1,0,0,9,1,225,2,1,-145784.5140637146,-4792746.444595876,4196460.081769692,2.33385,2.81399,-0.222432,-100.373,36.6882,25.2352,-0.382199,-6.85789,6.65688,0.102229,-0.00375859,0.0172845,4,0,41.38251111827614,-91.74227090387252,10270.605749125798,-69.19571214253743,-3.926295970793572,-0.2993684186638221,180.092,10375.88117203898,11905.596102039404,150,True,10.286584408393054,False,171.1095395809481,179.19999899832212,False,9.542469573394818,True,False
1,1970-07-23 10:27:58.578259797,2025-09-12,2025-09-26 14:37:37.825,AA,C,3978986226,JASSM,3,138,76,2,2,1,225,9,2,0,1,26,0,0,0,0,-162042.24450858062,-4786064.528291549,4203771.534636021,-2.36559,-0.397109,0.382441,74.0,-30.875,-32.125,0.0,0.0,0.0,0.0,0.0,0.0,2,0,41.468504893012,-91.9391279708291,10997.379367756406,119.8636635685635,-0.0061550928914184,0.0009252484324111,,10375.88117203898,11905.596102039404,150,1,2025-09-12,2025-09-26 14:37:37.785,AA,C,2364955388,AMBUSH51,1,1,48,2,1,1,225,2,1,0,0,9,1,225,2,1,-145854.65621821414,-4792720.658727652,4196477.368950091,2.37119,2.8065,-0.22802,-101.028,36.9153,25.4671,-0.290238,-7.13286,6.75707,0.00982353,-0.0022252,0.0168414,4,0,41.3827685014877,-91.74311802833516,10249.904610415508,-68.67426700207378,-4.0030344695018965,1.708429090840651,181.253,10375.88117203898,11905.596102039404,150,True,10.204012465576513,False,171.14105838123282,179.16361134748385,False,9.551897311047918,True,False
1,1970-07-23 10:27:58.588639982,2025-09-12,2025-09-26 14:37:38.863,AA,C,3980119620,JASSM,3,138,76,2,2,1,225,9,2,0,1,26,0,0,0,0,-161971.90857108062,-4786094.034150924,4203740.856901646,-2.36559,-0.397109,0.382441,74.0,-30.875,-32.125,0.0,0.0,0.0,0.0,0.0,0.0,2,0,41.46813647132696,-91.93827497627976,10997.37529603109,119.86422842666242,-0.0054173475469423,0.0009240178290601,,10375.88117203898,11905.596102039404,150,1,2025-09-12,2025-09-26 14:37:38.848,AA,C,2366227920,AMBUSH51,1,1,48,2,1,1,225,2,1,0,0,9,1,225,2,1,-145962.12859877452,-4792681.229840379,4196503.9586044,2.32327,2.80216,-0.232928,-101.956,37.3471,25.739,-0.149023,-7.16312,6.839,-0.0955794,-0.00122651,-0.014819,4,0,41.3831630661053,-91.7444159862862,10218.6113166233,-68.30349047559382,-3.979897342670162,-1.120272105010207,183.294,10375.88117203898,11905.596102039404,150,True,10.097463604974386,False,171.1677211142234,179.107831018242,False,9.590845951071858,True,False
1,1970-07-23 10:27:58.598226668,2025-09-12,2025-09-26 14:37:39.822,AA,C,3981431970,JASSM,3,138,76,2,2,1,225,9,2,0,1,26,0,0,0,0,-161890.46765311187,-4786128.200166549,4203705.335417271,-2.36559,-0.397109,0.382441,74.0,-30.875,-32.125,0.0,0.0,0.0,0.0,0.0,0.0,2,0,41.46770986245964,-91.9372873182025,10997.378484689634,119.86488245460244,-0.0045631173887018,0.0009225835690719,,10375.88117203898,11905.596102039404,150,1,2025-09-12,2025-09-26 14:37:39.814,AA,C,2367381152,AMBUSH51,1,1,48,2,1,1,225,2,1,0,0,9,1,225,2,1,-146062.24035276927,-4792644.221353775,4196529.232023214,2.20695,2.80931,-0.228889,-103.068,37.1777,25.8459,-0.0199657,-7.32755,6.89252,-0.110158,0.00178203,-0.0105226,4,0,41.38353566969344,-91.74562516852288,10189.873594805964,-68.74921353655839,-3.854119741728904,-7.66060552898639,184.76,10375.88117203898,11905.596102039404,150,True,9.98804999474341,False,171.03023995407324,179.05402695836182,False,9.774911974948793,True,False
1,1970-07-23 10:27:58.609360936,2025-09-12,2025-09-26 14:37:40.936,AA,C,3982684670,JASSM,3,138,76,2,2,1,225,9,2,0,1,26,0,0,0,0,-161812.72790701812,-4786160.811494674,4203671.427214146,-2.36549,-0.397109,0.382441,74.0,-30.875,-32.125,0.0,0.0,0.0,0.0,0.0,0.0,2,0,41.467302638169386,-91.9363445582085,10997.378777270986,119.86550674583644,-0.0037477115120214,0.0064126904211047,,10375.88117203898,11905.596102039404,150,1,2025-09-12,2025-09-26 14:37:41.048,AA,C,2368852518,AMBUSH51,1,1,48,2,1,1,225,2,1,0,0,9,1,225,2,1,-146190.3841483489,-4792598.199789694,4196560.502059779,2.11122,2.82022,-0.217038,-104.948,36.4359,24.7042,-0.112921,-7.21035,6.85439,-0.0476259,-0.00365873,-0.0144508,4,0,41.38399726869925,-91.74717246413871,10154.075859117254,-69.6643487319331,-3.8860792263597617,-12.945513482577896,186.764,10375.88117203898,11905.596102039404,150,False,9.865158126976151,False,170.12182906150088,178.9825154596061,False,10.740608866455567,True,False
1,1970-07-23 10:27:58.620322316,2025-09-12,2025-09-26 14:37:42.032,AA,C,3983997056,JASSM,3,138,76,2,2,1,225,9,2,0,1,26,0,0,0,0,-161731.28454764312,-4786194.975557174,4203635.901823521,-2.36549,-0.397109,0.382441,74.0,-30.875,-32.125,0.0,0.0,0.0,0.0,0.0,0.0,2,0,41.46687599844871,-91.93535689703708,10997.377578862292,119.86616076501294,-0.0028934556931011,0.0064112543582164,,10375.88117203898,11905.596102039404,150,1,2025-09-12,2025-09-26 14:37:42.214,AA,C,2370244350,AMBUSH51,1,1,48,2,1,1,225,2,1,0,0,9,1,225,2,1,-146313.19383242168,-4792556.201103453,4196588.063478399,2.06476,2.83968,-0.199283,-106.955,35.1387,23.094,-0.0743767,-7.53568,7.12343,-0.033147,0.0100815,-0.0161797,4,0,41.38441085096021,-91.74865460917822,10119.741490455152,-71.15781078624603,-3.800205490824676,-15.277003139092034,188.341,10375.88117203898,11905.596102039404,150,False,9.743936882680233,False,168.90681016522024,178.90593235616095,False,12.012115223623724,True,False
1,1970-07-23 10:27:58.632598041,2025-09-12,2025-09-26 14:37:43.259,AA,C,3985369028,JASSM,3,138,76,2,2,1,225,9,2,0,1,26,0,0,0,0,-161646.14294608062,-4786230.688447799,4203598.763151646,-2.36549,-0.397109,0.382441,74.0,-30.875,-32.125,0.0,0.0,0.0,0.0,0.0,0.0,2,0,41.46642999066212,-91.93432440225595,10997.374858890014,119.86684446663428,-0.0020004168470926,0.006409764994173,,10375.88117203898,11905.596102039404,150,1,2025-09-12,2025-09-26 14:37:43.247,AA,C,2371477116,AMBUSH51,1,1,48,2,1,1,225,2,1,0,0,9,1,225,2,1,-146425.3227116119,-4792520.109959686,4196611.175508647,2.07288,2.85641,-0.186758,-108.792,33.5425,21.641,0.151232,-7.77009,7.23746,0.0817289,0.0125824,-0.0110136,4,0,41.3847611800978,-91.75000704926862,10089.497471452434,-72.32909815790947,-3.609674684376804,-14.552397211816018,189.954,10375.88117203898,11905.596102039404,150,False,9.627358475450192,False,167.73498923107917,178.82842554756382,False,13.238799696551576,True,False
1,1970-07-23 10:27:58.649056720,2025-09-12,2025-09-26 14:37:44.905,AA,C,3986741020,JASSM,3,138,76,2,2,1,225,9,2,0,1,26,0,0,0,0,-161561.00036795562,-4786266.401338424,4203561.622526646,-2.36549,-0.397013,0.382441,74.0,-30.875,-32.125,0.0,0.0,0.0,0.0,0.0,0.0,2,0,41.465983960599154,-91.93329190994908,10997.37290379087,119.8638908162595,-0.0046770057992895,0.0043584753416352,,10375.88117203898,11905.596102039404,150,1,2025-09-12,2025-09-26 14:37:45.014,AA,C,2373584746,AMBUSH51,1,1,48,2,1,1,225,2,1,0,0,9,1,225,2,1,-146620.3003486257,-4792462.967981842,4196647.557877241,2.21199,2.89297,-0.178317,-111.483,30.3766,20.9611,-0.163446,-8.49036,8.0931,0.0963992,0.0284781,0.0101585,4,0,41.38531122124533,-91.75235675959634,10042.48546314643,-74.09327301134081,-2.4336135980775926,-6.108982004319584,192.374,10375.88117203898,11905.596102039404,150,True,9.466128231777732,False,166.44050436210915,178.6837851887393,False,14.623811291117118,True,False
1,1970-07-23 10:27:58.653216642,2025-09-12,2025-09-26 14:37:45.321,AA,C,3987993726,JASSM,3,138,76,2,2,1,225,9,2,0,1,26,0,0,0,0,-161483.26062186187,-4786299.008760299,4203527.710417271,-2.36549,-0.397013,0.382441,74.0,-30.875,-32.125,0.0,0.0,0.0,0.0,0.0,0.0,2,0,41.465576700365816,-91.93234920153364,10997.373092869526,119.86451505206608,-0.0038615992585921,0.0043570549360677,,10375.88117203898,11905.596102039404,150,1,2025-09-12,2025-09-26 14:37:45.348,AA,C,2373982412,AMBUSH51,1,1,48,2,1,1,225,2,1,0,0,9,1,225,2,1,-146656.71874920753,-4792453.004197891,4196654.299468283,2.25542,2.89843,-0.182205,-111.836,30.0017,20.9865,-0.153216,-8.61871,8.04285,0.145522,0.0203721,-0.00574348,4,0,41.38540937113563,-91.7527953905326,10035.334980939482,-74.1396192852998,-2.0558421634542325,-3.5623674489459667,192.875,10375.88117203898,11905.596102039404,150,True,9.397294471578936,False,166.31870969421647,178.6506667461188,False,14.77206535336278,True,False
1,1970-07-23 10:27:58.665342919,2025-09-12,2025-09-26 14:37:46.534,AA,C,3989365728,JASSM,3,138,76,2,2,1,225,9,2,0,1,26,0,0,0,0,-161398.11706717435,-4786334.719697799,4203490.567839146,-2.36549,-0.397013,0.382441,74.0,-30.875,-32.125,0.0,0.0,0.0,0.0,0.0,0.0,2,0,41.46513065116547,-91.93131672541078,10997.371750564156,119.86519872381588,-0.00296853851302,0.0043555047650516,,10375.88117203898,11905.596102039404,150,1,2025-09-12,2025-09-26 14:37:46.614,AA,C,2375493544,AMBUSH51,1,1,48,2,1,1,225,2,1,0,0,9,1,225,2,1,-146799.0975426191,-4792415.740974145,4196681.468079036,2.38507,2.91163,-0.189143,-112.665,28.5649,22.7643,-0.27151,-8.30276,7.75686,0.0677868,0.0194733,0.0111822,4,0,41.3857885059745,-91.75450962793184,10013.308031911803,-74.35292272059824,-1.2387451872953958,4.011374286761842,193.987,10375.88117203898,11905.596102039404,150,True,9.26593036535115,False,166.56251289451464,178.53873623683654,False,14.595334952569626,True,False
1,1970-07-23 10:27:58.676660779,2025-09-12,2025-09-26 14:37:47.666,AA,C,3990618446,JASSM,3,138,76,2,2,1,225,9,2,0,1,26,0,0,0,0,-161320.37634451812,-4786367.325166549,4203456.653776646,-2.36549,-0.397013,0.382441,74.0,-30.875,-32.125,0.0,0.0,0.0,0.0,0.0,0.0,2,0,41.46472337334208,-91.93037403082522,10997.371706029948,119.8658229399014,-0.0021531241059971,0.004354087187601,,10375.88117203898,11905.596102039404,150,1,2025-09-12,2025-09-26 14:37:47.613,AA,C,2376686542,AMBUSH51,1,1,48,2,1,1,225,2,1,0,0,9,1,225,2,1,-146912.63986062584,-4792386.997568268,4196704.735225597,2.42632,2.90891,-0.213163,-112.855,27.8847,24.7266,-0.260451,-8.53164,7.82811,0.0529938,0.011565,0.00469278,4,0,41.38609586126375,-91.7558763354968,10001.616727915232,-73.23843239670872,-0.4170715178959651,6.3277262514472525,194.598,10375.88117203898,11905.596102039404,150,True,9.154875783300096,False,167.08965552354806,178.44915256743457,False,14.118395584215214,True,False
1,1970-07-23 10:27:58.686280091,2025-09-12,2025-09-26 14:37:48.628,AA,C,3991930780,JASSM,3,138,76,2,2,1,225,9,2,0,1,26,0,0,0,0,-161238.93591483062,-4786401.481416549,4203421.126432896,-2.36549,-0.397013,0.382536,74.0,-30.875,-32.125,0.0,0.0,0.0,0.0,0.0,0.0,2,0,41.46429671493968,-91.92938648611428,10997.375461026131,119.87032452519684,-0.0052194202498081,0.0043523919714997,,10375.88117203898,11905.596102039404,150,1,2025-09-12,2025-09-26 14:37:48.580,AA,C,2377839776,AMBUSH51,1,1,48,2,1,1,225,2,1,0,0,9,1,225,2,1,-147020.88488316472,-4792359.448317993,4196729.2108737165,2.46636,2.91065,-0.222391,-112.751,27.9952,26.81,-0.217969,-8.19802,7.55411,0.0365862,0.0083151,0.0124222,4,0,41.38640522529582,-91.75717934679668,9995.092270306985,-72.91625605027518,0.0135534238908062,8.642088046806588,194.976,10375.88117203898,11905.596102039404,150,True,9.04391480495786,False,167.88008054532517,178.36609452874004,False,13.382338025075,True,False
1,1970-07-23 10:27:58.702620172,2025-09-12,2025-09-26 14:37:50.262,AA,C,3993243096,JASSM,3,138,76,2,2,1,225,9,2,0,1,26,0,0,0,0,-161157.49646170562,-4786435.637666549,4203385.597136021,-2.36549,-0.397013,0.382536,74.0,-30.875,-32.125,0.0,0.0,0.0,0.0,0.0,0.0,2,0,41.46387003466089,-91.92839896602754,10997.379709996074,119.87097841216212,-0.0043652060398983,0.0043509570015536,,10375.88117203898,11905.596102039404,150,1,2025-09-12,2025-09-26 14:37:50.348,AA,C,2379947406,AMBUSH51,1,1,48,2,1,1,225,2,1,0,0,9,1,225,2,1,-147219.92975024873,-4792308.238090463,4196778.6738064205,2.43406,2.89213,-0.257818,-112.02,28.7557,29.8812,0.00254668,-7.79087,7.21292,-0.0336359,0.0100253,0.0163961,4,0,41.387007427027896,-91.75957560794008,9991.421092892037,-70.7281565709337,0.6380890946430011,6.551717829070383,195.319,10375.88117203898,11905.596102039404,150,True,8.881840296814852,False,169.26194479274673,178.22592613342906,False,12.109206338377662,True,False
1,1970-07-23 10:27:58.708217762,2025-09-12,2025-09-26 14:37:50.821,AA,C,3994495830,JASSM,3,138,76,2,2,1,225,9,2,0,1,26,0,0,0,0,-161079.75427420562,-4786468.239229049,4203351.679167271,-2.36549,-0.397013,0.382536,74.0,-30.875,-32.125,0.0,0.0,0.0,0.0,0.0,0.0,2,0,41.463462730052434,-91.9274562920163,10997.374592103366,119.87160259911217,-0.003549779613879,0.0043495976132219,,10375.88117203898,11905.596102039404,150,1,2025-09-12,2025-09-26 14:37:50.681,AA,C,2380345072,AMBUSH51,1,1,48,2,1,1,225,2,1,0,0,9,1,225,2,1,-147256.50180980552,-4792298.631651621,4196788.337917464,2.41764,2.88962,-0.261753,-111.932,28.7431,30.3957,-0.118252,-7.64387,7.0979,-0.0699631,-0.00171753,0.0154099,4,0,41.3871231301087,-91.76001596888622,9991.51310652342,-70.46866067008197,0.6901482741371693,5.576965440183097,195.465,10375.88117203898,11905.596102039404,150,True,8.812443656503829,False,169.43824429848965,178.19323873173164,False,11.951534491091286,True,False
1,1970-07-23 10:27:58.720659247,2025-09-12,2025-09-26 14:37:52.065,AA,C,3995808180,JASSM,3,138,76,2,2,1,225,9,2,0,1,26,0,0,0,0,-160998.31237967435,-4786502.393525924,4203316.145964146,-2.36549,-0.397013,0.382536,74.0,-30.875,-32.125,0.0,0.0,0.0,0.0,0.0,0.0,2,0,41.46303601892004,-91.926468768831,10997.37445509689,119.87225647731564,-0.00269553973821,0.0043481608404388,,10375.88117203898,11905.596102039404,150,1,2025-09-12,2025-09-26 14:37:52.082,AA,C,2382015270,AMBUSH51,1,1,48,2,1,1,225,2,1,0,0,9,1,225,2,1,-147413.04420715227,-4792257.260152653,4196831.179645216,2.33622,2.88967,-0.266281,-111.757,28.9611,31.5594,-0.18243,-7.29101,6.74799,-0.0285967,-0.0079718,0.0037794,4,0,41.38762982839,-91.76190099238678,9994.49599153811,-70.28190420988489,0.870485993352981,0.9150420900871076,195.661,10375.88117203898,11905.596102039404,150,True,8.673056986715947,False,169.90184417488297,178.08433992093308,False,11.583385360550624,True,False
1,1970-07-23 10:27:58.730326596,2025-09-12,2025-09-26 14:37:53.032,AA,C,3997120530,JASSM,3,138,76,2,2,1,225,9,2,0,1,26,0,0,0,0,-160916.87097342435,-4786536.545869674,4203280.614714146,-2.36549,-0.397013,0.382536,74.0,-30.875,-32.125,0.0,0.0,0.0,0.0,0.0,0.0,2,0,41.46260932398389,-91.92548126521692,10997.37845841827,119.8729103370268,-0.0018413164082504,0.0043467429812457,,10375.88117203898,11905.596102039404,150,1,2025-09-12,2025-09-26 14:37:53.113,AA,C,2383248036,AMBUSH51,1,1,48,2,1,1,225,2,1,0,0,9,1,225,2,1,-147529.21148890088,-4792226.77670328,4196863.421425008,2.29701,2.88715,-0.269324,-111.778,28.9141,31.6177,-0.135247,-7.27053,6.64193,-0.0238634,0.00114745,0.0104352,4,0,41.38800756228149,-91.76329977279234,9998.229668803053,-70.06026604010964,0.8884813415061165,-1.3663899194043816,195.697,10375.88117203898,11905.596102039404,150,True,8.556393706504895,False,169.90077235192922,177.99821472705054,False,11.679545353991989,True,False
1,1970-07-23 10:27:58.741280595,2025-09-12,2025-09-26 14:37:54.128,AA,C,3998432892,JASSM,3,138,76,2,2,1,225,9,2,0,1,26,0,0,0,0,-160835.42859061187,-4786570.696260299,4203245.079557896,-2.36549,-0.396918,0.382536,74.0,-30.875,-32.125,0.0,0.0,0.0,0.0,0.0,0.0,2,0,41.46218260602263,-91.92449376365862,10997.373752376096,119.8699271143626,-0.0045567139167411,0.0022950269621951,,10375.88117203898,11905.596102039404,150,1,2025-09-12,2025-09-26 14:37:54.115,AA,C,2384441034,AMBUSH51,1,1,48,2,1,1,225,2,1,0,0,9,1,225,2,1,-147640.27545989884,-4792197.75268486,4196894.251357366,2.31015,2.88971,-0.268482,-111.867,28.9504,31.4194,-0.0166008,-7.36552,6.80703,0.112432,0.00312193,0.00272038,4,0,41.388368001468606,-91.76463707420072,10002.112533257958,-70.19290997901658,0.9602300369344194,-0.5765028522031638,195.783,10375.88117203898,11905.596102039404,150,True,8.442652529952694,False,169.83656154903738,177.91197085143452,False,11.850542501190931,True,False
1,1970-07-23 10:27:58.752258818,2025-09-12,2025-09-26 14:37:55.225,AA,C,3999745232,JASSM,3,138,76,2,2,1,225,9,2,0,1,26,0,0,0,0,-160753.98864920562,-4786604.846650924,4203209.544401646,-2.36549,-0.396918,0.382536,74.0,-30.875,-32.125,0.0,0.0,0.0,0.0,0.0,0.0,2,0,41.46175587906433,-91.9235063042381,10997.37390419879,119.87058093384088,-0.0037024949702694,0.0022935349622964,,10375.88117203898,11905.596102039404,150,1,2025-09-12,2025-09-26 14:37:55.315,AA,C,2385872634,AMBUSH51,1,1,48,2,1,1,225,2,1,0,0,9,1,225,2,1,-147774.48136211897,-4792162.146806493,4196931.903904502,2.44695,2.89015,-0.267555,-111.68,29.5749,31.9836,-0.232924,-7.20509,6.67582,0.054161,-0.0053128,0.00757232,4,0,41.38880939240612,-91.76625323929426,10006.364629267617,-70.24937478599122,0.94303839351464,7.267214750604314,195.661,10375.88117203898,11905.596102039404,150,True,8.315718465688773,False,170.24415407201062,177.8072858255981,False,11.564810450255443,True,False
1,1970-07-23 10:27:58.765404988,2025-09-12,2025-09-26 14:37:56.540,AA,C,4000997932,JASSM,3,138,76,2,2,1,225,9,2,0,1,26,0,0,0,0,-160676.24743826812,-4786637.444307174,4203175.624479771,-2.36549,-0.396918,0.382536,74.0,-30.875,-32.125,0.0,0.0,0.0,0.0,0.0,0.0,2,0,41.461348544109576,-91.92256370470622,10997.377047421747,119.8712050453972,-0.002887081867855,0.0022921272741368,,10375.88117203898,11905.596102039404,150,1,2025-09-12,2025-09-26 14:37:56.414,AA,C,2387184932,AMBUSH51,1,1,48,2,1,1,225,2,1,0,0,9,1,225,2,1,-147897.69001317414,-4792128.554822179,4196967.3700032495,2.50859,2.86961,-0.284658,-111.099,30.557,33.1363,-0.147047,-7.13178,6.55517,0.0256631,-0.00497574,0.0217828,4,0,41.38922603877164,-91.76773732260918,10010.004119014551,-68.76103390229,0.7865212889989577,10.500453348393364,195.71,10375.88117203898,11905.596102039404,150,False,8.196972151152531,False,171.01535850530303,177.70984857108996,False,10.897682475360076,True,False
1,1970-07-23 10:27:58.773356311,2025-09-12,2025-09-26 14:37:57.335,AA,C,4002250632,JASSM,3,138,76,2,2,1,225,9,2,0,1,26,0,0,0,0,-160598.50720389312,-4786670.040010299,4203141.702604771,-2.36549,-0.396918,0.382536,74.0,-30.875,-32.125,0.0,0.0,0.0,0.0,0.0,0.0,2,0,41.460941199666536,-91.92162112943132,10997.375471766289,119.87182913585092,-0.0020716759400908,0.0022907133963176,,10375.88117203898,11905.596102039404,150,1,2025-09-12,2025-09-26 14:37:57.414,AA,C,2388377930,AMBUSH51,1,1,48,2,1,1,225,2,1,0,0,9,1,225,2,1,-148007.7655779058,-4792096.940075396,4197000.388435065,2.47828,2.85602,-0.286224,-110.564,32.1673,33.8882,-0.0897005,-6.92294,6.43816,-0.034439,-0.00709795,0.0137517,4,0,41.38961679238194,-91.76906382128966,10012.209576086943,-68.18397818703295,0.3058538849146231,8.550368661882944,195.966,10375.88117203898,11905.596102039404,150,True,8.085088646072933,False,171.85449581491997,177.62309675359876,False,10.195741575955157,True,False
1,1970-07-23 10:27:58.784335957,2025-09-12,2025-09-26 14:37:58.433,AA,C,4003622634,JASSM,3,138,76,2,2,1,225,9,2,0,1,26,0,0,0,0,-160513.36316092435,-4786705.739229049,4203104.550261021,-2.36549,-0.396918,0.382632,74.0,-30.875,-32.125,0.0,0.0,0.0,0.0,0.0,0.0,2,0,41.46049505785457,-91.92058879923168,10997.376963132165,119.87636046611637,-0.0050989882943299,0.0022889592091729,,10375.88117203898,11905.596102039404,150,1,2025-09-12,2025-09-26 14:37:58.447,AA,C,2389610696,AMBUSH51,1,1,48,2,1,1,225,2,1,0,0,9,1,225,2,1,-148122.52660369573,-4792062.719267226,4197035.941205002,2.43582,2.84829,-0.297264,-110.163,33.0753,34.9221,-0.113114,-7.27906,6.73582,-0.0700547,-0.00295132,0.00418096,4,0,41.39003928041795,-91.77044726548904,10013.864765415134,-67.43419483167185,0.434875381841011,5.994925136524747,196.467,10375.88117203898,11905.596102039404,150,True,7.9653928622554275,False,172.53174717783352,177.5329831197445,False,9.61531258953849,True,False
1,1970-07-23 10:27:58.795807968,2025-09-12,2025-09-26 14:37:59.580,AA,C,4004934986,JASSM,3,138,76,2,2,1,225,9,2,0,1,26,0,0,0,0,-160431.92126639312,-4786739.885713424,4203069.011198521,-2.36549,-0.396918,0.382632,74.0,-30.875,-32.125,0.0,0.0,0.0,0.0,0.0,0.0,2,0,41.46006829456023,-91.91960136922523,10997.377283216252,119.87701424433268,-0.0042447535015086,0.0022875302284516,,10375.88117203898,11905.596102039404,150,1,2025-09-12,2025-09-26 14:37:59.428,AA,C,2390763928,AMBUSH51,1,1,48,2,1,1,225,2,1,0,0,9,1,225,2,1,-148227.97814431056,-4792030.360796848,4197069.656280411,2.37846,2.83918,-0.299139,-109.901,33.8226,35.401,0.0843509,-6.84024,6.17997,-0.0516372,-0.00959674,-0.00319059,4,0,41.39043998026524,-91.77171883703144,10015.41477725192,-67.01285782968905,0.1489251570316447,2.557216771051119,196.687,10375.88117203898,11905.596102039404,150,True,7.852999695326439,False,172.9599066503639,177.4506738645729,False,9.292195617802177,True,False
1,1970-07-23 10:27:58.806273774,2025-09-12,2025-09-26 14:38:00.627,AA,C,4006247336,JASSM,3,138,76,2,2,1,225,9,2,0,1,26,0,0,0,0,-160350.47937186187,-4786774.030244674,4203033.470182896,-2.36549,-0.396918,0.382632,74.0,-30.875,-32.125,0.0,0.0,0.0,0.0,0.0,0.0,2,0,41.45964152121717,-91.91861395294808,10997.373217522534,119.8776680079258,-0.0033905183857804,0.0022860995821337,,10375.88117203898,11905.596102039404,150,1,2025-09-12,2025-09-26 14:38:00.524,AA,C,2392076226,AMBUSH51,1,1,48,2,1,1,225,2,1,0,0,9,1,225,2,1,-148349.5843925774,-4791992.349480943,4197108.641350114,2.34668,2.83658,-0.2972,-109.943,34.4024,35.4587,-0.162693,-7.15561,6.58141,-0.0183103,0.00688157,0.00129725,4,0,41.39090689452826,-91.77318548409497,10015.727025952288,-66.9957773552908,-0.0294244473685896,0.692878558905754,196.956,10375.88117203898,11905.596102039404,150,True,7.731085082208237,False,173.14374296930563,177.35562325483616,False,9.236567874946658,True,False
1,1970-07-23 10:27:58.818595355,2025-09-12,2025-09-26 14:38:01.859,AA,C,4007500036,JASSM,3,138,76,2,2,1,225,9,2,0,1,26,0,0,0,0,-160272.73913748687,-4786806.622041549,4202999.546354771,-2.36549,-0.396918,0.382632,74.0,-30.875,-32.125,0.0,0.0,0.0,0.0,0.0,0.0,2,0,41.4592341543806,-91.91767142867148,10997.375578993664,119.87829204357782,-0.0025751181657129,0.0022847484877965,,10375.88117203898,11905.596102039404,150,1,2025-09-12,2025-09-26 14:38:01.680,AA,C,2393468058,AMBUSH51,1,1,48,2,1,1,225,2,1,0,0,9,1,225,2,1,-148477.17976108886,-4791951.76863331,4197149.78467594,2.33234,2.83189,-0.296825,-110.117,34.8092,35.5902,-0.146811,-6.99212,6.47436,-0.00386054,0.00171753,-0.00314274,4,0,41.39140254108992,-91.77472464433984,10014.86538816843,-66.8341376004247,-0.2287849992088245,-0.207842325031888,197.213,10375.88117203898,11905.596102039404,150,True,7.607842467944935,False,173.27057746211895,177.255075125925,False,9.230103633095757,True,False
1,1970-07-23 10:27:58.828355428,2025-09-12,2025-09-26 14:38:02.835,AA,C,4008812386,JASSM,3,138,76,2,2,1,225,9,2,0,1,26,0,0,0,0,-160191.29724295562,-4786840.764619674,4202964.005339146,-2.36549,-0.396918,0.382632,74.0,-30.875,-32.125,0.0,0.0,0.0,0.0,0.0,0.0,2,0,41.45880737604088,-91.91668403848053,10997.375814751504,119.8789457790844,-0.0017208892277142,0.0022833275621556,,10375.88117203898,11905.596102039404,150,1,2025-09-12,2025-09-26 14:38:02.723,AA,C,2394700824,AMBUSH51,1,1,48,2,1,1,225,2,1,0,0,9,1,225,2,1,-148591.5975776555,-4791915.22146852,4197186.465344046,2.22109,2.83277,-0.295621,-110.401,34.8994,35.2782,0.00658295,-7.00853,6.49151,-0.192581,-0.0113361,-0.00257682,4,0,41.39184647586422,-91.7761049243925,10013.250986663694,-66.91849710404202,-0.2403784436143366,-6.566924805416917,197.482,10375.88117203898,11905.596102039404,150,True,7.489991925450896,False,173.1399290491333,177.15845695060852,False,9.477262401408115,True,False
1,1970-07-23 10:27:58.838408341,2025-09-12,2025-09-26 14:38:03.840,AA,C,4010065086,JASSM,3,138,76,2,2,1,225,9,2,0,1,26,0,0,0,0,-160113.55652029935,-4786873.354463424,4202930.077604771,-2.36549,-0.396822,0.382632,74.0,-30.875,-32.125,0.0,0.0,0.0,0.0,0.0,0.0,2,0,41.458399978716365,-91.9157415333016,10997.373538709668,119.87593298517004,-0.0044751068020221,0.0002311822413561,,10375.88117203898,11905.596102039404,150,1,2025-09-12,2025-09-26 14:38:03.914,AA,C,2396132422,AMBUSH51,1,1,48,2,1,1,225,2,1,0,0,9,1,225,2,1,-148723.80872598445,-4791873.898934173,4197227.516591858,2.08723,2.83934,-0.283389,-111.396,34.2646,33.5936,0.054968,-6.86961,6.24152,-0.0158469,0.00244782,-0.0360952,4,0,41.39234502109147,-91.77769954137634,10010.736517725869,-67.67513965266369,-0.4634374127491913,-14.124274101751697,198.41,10375.88117203898,11905.596102039404,150,False,7.364601130740532,False,172.21362642213398,177.0412825628506,False,10.551920299603257,True,False
1,1970-07-23 10:27:58.849317293,2025-09-12,2025-09-26 14:38:04.931,AA,C,4011317784,JASSM,3,138,76,2,2,1,225,9,2,0,1,26,0,0,0,0,-160035.81628592435,-4786905.944307174,4202896.149870396,-2.36549,-0.396822,0.382632,74.0,-30.875,-32.125,0.0,0.0,0.0,0.0,0.0,0.0,2,0,41.45799257354384,-91.91479904575677,10997.37554550516,119.87655698122684,-0.0036596996716092,0.0002297662369007,,10375.88117203898,11905.596102039404,150,1,2025-09-12,2025-09-26 14:38:04.980,AA,C,2397404954,AMBUSH51,1,1,48,2,1,1,225,2,1,0,0,9,1,225,2,1,-148844.29159966062,-4791837.573719153,4197262.553983963,2.09345,2.8599,-0.256398,-112.509,33.1762,31.7629,-0.1197,-7.12186,6.58127,0.0425388,0.000225745,-0.0260875,4,0,41.392775384990586,-91.77915222945704,10006.584167277686,-69.5793864197414,-0.7046740317751752,-13.434310450442004,198.74,10375.88117203898,11905.596102039404,150,False,7.246823044408562,False,171.09145599905847,176.91940334294893,False,11.806452335565396,True,False
1,1970-07-23 10:27:58.860280970,2025-09-12,2025-09-26 14:38:06.028,AA,C,4012630134,JASSM,3,138,76,2,2,1,225,9,2,0,1,26,0,0,0,0,-159954.37439139312,-4786940.084932174,4202860.604948521,-2.3654,-0.396822,0.382632,74.0,-30.875,-32.125,0.0,0.0,0.0,0.0,0.0,0.0,2,0,41.457565755743694,-91.91381169400884,10997.376042378604,119.87721067527669,-0.0028054638186149,0.0057197500243326,,10375.88117203898,11905.596102039404,150,1,2025-09-12,2025-09-26 14:38:06.146,AA,C,2398796786,AMBUSH51,1,1,48,2,1,1,225,2,1,0,0,9,1,225,2,1,-148976.469459035,-4791799.37063201,4197298.645749459,2.1799,2.8735,-0.250848,-113.496,31.8863,30.3609,-0.029578,-7.59963,6.90626,0.13348,0.0086584,-0.0199581,4,0,41.39322185618562,-91.78074533712456,10001.002652931094,-70.32899415327823,-0.3723359799079726,-8.278571139175437,199.046,10375.88117203898,11905.596102039404,150,True,7.120923058874687,False,170.08883239842228,176.77194604123935,False,12.948190705143755,True,False
1,1970-07-23 10:27:58.878595242,2025-09-12,2025-09-26 14:38:07.859,AA,C,4013942486,JASSM,3,138,76,2,2,1,225,9,2,0,1,26,0,0,0,0,-159872.93200858062,-4786974.223604049,4202825.060026646,-2.3654,-0.396822,0.382632,74.0,-30.875,-32.125,0.0,0.0,0.0,0.0,0.0,0.0,2,0,41.45713894116507,-91.9128243501495,10997.376355826103,119.87786435856886,-0.001951230457447,0.0057182737390909,,10375.88117203898,11905.596102039404,150,1,2025-09-12,2025-09-26 14:38:07.848,AA,C,2400824884,AMBUSH51,1,1,48,2,1,1,225,2,1,0,0,9,1,225,2,1,-149169.62825322515,-4791745.933293676,4197349.631836798,2.36001,2.88152,-0.248747,-114.049,31.2919,30.0718,-0.31547,-7.39393,6.64931,0.0803099,0.00658196,0.0201204,4,0,41.393848187636,-91.78307258480784,9994.935368578948,-70.72280119752483,-0.1277144570490626,2.156110943941469,199.229,10375.88117203898,11905.596102039404,150,True,6.961511673304377,False,169.73401842513945,176.54893130018593,False,13.518708125256104,True,False
1,1970-07-23 10:27:58.881234601,2025-09-12,2025-09-26 14:38:08.123,AA,C,4015195186,JASSM,3,138,76,2,2,1,225,9,2,0,1,26,0,0,0,0,-159795.19177420562,-4787006.809541549,4202791.130339146,-2.3654,-0.396822,0.382728,74.0,-30.875,-32.125,0.0,0.0,0.0,0.0,0.0,0.0,2,0,41.45673152209172,-91.91188190067656,10997.377652845606,119.8823362727982,-0.0050560631395627,0.0057166578726807,,10375.88117203898,11905.596102039404,150,1,2025-09-12,2025-09-26 14:38:08.113,AA,C,2401143018,AMBUSH51,1,1,48,2,1,1,225,2,1,0,0,9,1,225,2,1,-149198.8983893276,-4791737.891596379,4197357.364982942,2.37772,2.87954,-0.25078,-114.043,31.2247,30.2856,-0.29112,-7.41173,6.69204,0.0720666,0.00268085,0.00640095,4,0,41.393942809107074,-91.7834252253267,9994.170573364732,-70.56278538198237,-0.1282214795928533,3.142269539896624,199.266,10375.88117203898,11905.596102039404,150,True,6.896304734415616,False,169.78891074218333,176.49404808660623,False,13.510366048124805,True,False
1,1970-07-23 10:27:58.894216518,2025-09-12,2025-09-26 14:38:09.421,AA,C,4016448012,JASSM,3,138,76,2,2,1,225,9,2,0,1,26,0,0,0,0,-159717.44323904935,-4787039.397432174,4202757.194792271,-2.3654,-0.396822,0.382728,74.0,-30.875,-32.125,0.0,0.0,0.0,0.0,0.0,0.0,2,0,41.456324045769,-91.91093936297922,10997.37458467234,119.88296028149894,-0.0042405720622645,0.0057152990864505,,10375.88117203898,11905.596102039404,150,1,2025-09-12,2025-09-26 14:38:09.414,AA,C,2402693916,AMBUSH51,1,1,48,2,1,1,225,2,1,0,0,9,1,225,2,1,-149348.03655609078,-4791696.740785085,4197397.225063168,2.37575,2.87414,-0.258965,-113.794,31.7129,31.043,-0.208537,-7.29863,6.53711,-0.151452,-0.00395625,0.00886021,4,0,41.394429052064176,-91.78522209296794,9990.840796468488,-70.01692357349201,-0.0248077049065671,2.950800640452558,199.449,10375.88117203898,11905.596102039404,150,True,6.763899132412561,False,170.2226594153526,176.30801177808354,False,13.265337737081335,True,False
1,1970-07-23 10:27:58.904214159,2025-09-12,2025-09-26 14:38:10.421,AA,C,4017760234,JASSM,3,138,76,2,2,1,225,9,2,0,1,26,0,0,0,0,-159636.00866873687,-4787073.530244674,4202721.651823521,-2.3654,-0.396822,0.382728,74.0,-30.875,-32.125,0.0,0.0,0.0,0.0,0.0,0.0,2,0,41.45589725295826,-91.90995215252158,10997.378927367312,119.88361386046944,-0.0033864238065682,0.005713884640837,,10375.88117203898,11905.596102039404,150,1,2025-09-12,2025-09-26 14:38:10.514,AA,C,2404006214,AMBUSH51,1,1,48,2,1,1,225,2,1,0,0,9,1,225,2,1,-149472.09604621388,-4791662.167402875,4197430.835936189,2.22324,2.86522,-0.264846,-113.947,31.6774,30.844,0.0128357,-7.28828,6.55102,-0.0709826,-0.00122443,-0.0143363,4,0,41.39483860704697,-91.7867169525586,9988.222641802353,-69.4344597147457,-0.1522300161959613,-5.920800599363519,199.889,10375.88117203898,11905.596102039404,150,True,6.643121004706132,False,170.11994235683903,176.143285715736,False,13.541228764517193,True,False
1,1970-07-23 10:27:58.914314893,2025-09-12,2025-09-26 14:38:11.431,AA,C,4019072586,JASSM,3,138,76,2,2,1,225,9,2,0,1,26,0,0,0,0,-159554.56677420562,-4787107.665010299,4202686.102995396,-2.3654,-0.396822,0.382728,74.0,-30.875,-32.125,0.0,0.0,0.0,0.0,0.0,0.0,2,0,41.455470401948816,-91.90896486666452,10997.37939861716,119.88426748382514,-0.0025321933204536,0.0057124600598928,,10375.88117203898,11905.596102039404,150,1,2025-09-12,2025-09-26 14:38:11.613,AA,C,2405318512,AMBUSH51,1,1,48,2,1,1,225,2,1,0,0,9,1,225,2,1,-149598.68654153025,-4791627.447298888,4197464.611640457,2.17748,2.88136,-0.245769,-114.382,31.0342,29.961,-0.155528,-7.28778,6.41922,-0.00702513,-0.00985266,-0.019775,4,0,41.3952496582084,-91.78824212097622,9985.804633766067,-70.84453602725189,-0.2468588403635639,-8.304179652124976,199.999,10375.88117203898,11905.596102039404,150,True,6.521210796944555,False,169.56972740767267,175.96656360604734,False,14.272775758275033,True,False
1,1970-07-23 10:27:58.924279560,2025-09-12,2025-09-26 14:38:12.427,AA,C,4020325474,JASSM,3,138,76,2,2,1,225,9,2,0,1,26,0,0,0,0,-159476.81384451812,-4787140.250947799,4202652.163542271,-2.3654,-0.396726,0.382728,74.0,-30.875,-32.125,0.0,0.0,0.0,0.0,0.0,0.0,2,0,41.45506288779278,-91.90802231372108,10997.375819735056,119.88125494925382,-0.0052862831678366,0.0036598880368776,,10375.88117203898,11905.596102039404,150,1,2025-09-12,2025-09-26 14:38:12.313,AA,C,2406153612,AMBUSH51,1,1,48,2,1,1,225,2,1,0,0,9,1,225,2,1,-149678.9751110494,-4791605.847214207,4197485.297687428,2.199,2.88212,-0.242635,-114.74,30.5968,29.2949,-0.389009,-7.44509,6.55416,0.0595206,0.0111967,-0.00698352,4,0,41.39550288198211,-91.78920929468536,9983.714637028565,-71.00541133846286,-0.3376394429584189,-7.059622665102326,199.852,10375.88117203898,11905.596102039404,150,True,6.427799576773358,False,169.16328035605233,175.83719436082404,False,14.812698474175376,True,False
1,1970-07-23 10:27:58.936645434,2025-09-12,2025-09-26 14:38:13.664,AA,C,4021637636,JASSM,3,138,76,2,2,1,225,9,2,0,1,26,0,0,0,0,-159395.38318045562,-4787174.377900924,4202616.618620396,-2.3654,-0.396726,0.382728,74.0,-30.875,-32.125,0.0,0.0,0.0,0.0,0.0,0.0,2,0,41.4546360907983,-91.90703519054289,10997.37559632152,119.88190845418728,-0.0044321771144021,0.003658419117996,,10375.88117203898,11905.596102039404,150,1,2025-09-12,2025-09-26 14:38:13.814,AA,C,2407943110,AMBUSH51,1,1,48,2,1,1,225,2,1,0,0,9,1,225,2,1,-149851.32294732388,-4791560.619756031,4197528.746533077,2.31546,2.89235,-0.234778,-114.989,29.8237,28.7794,-0.0863113,-7.37657,6.29481,0.0859358,0.00342362,-0.0020213,4,0,41.396033195059,-91.79128503483304,9979.969937300875,-71.72457259968921,-0.2260574680142621,-0.2447680717942431,199.742,10375.88117203898,11905.596102039404,150,True,6.28148285544213,False,168.7313877853174,175.57782057051364,False,15.496092418465711,True,False
1,1970-07-23 10:27:58.946374196,2025-09-12,2025-09-26 14:38:14.637,AA,C,4022890336,JASSM,3,138,76,2,2,1,225,9,2,0,1,26,0,0,0,0,-159317.64294608062,-4787206.957979049,4202582.683073521,-2.3654,-0.396726,0.382728,74.0,-30.875,-32.125,0.0,0.0,0.0,0.0,0.0,0.0,2,0,41.45422861949267,-91.9060928158624,10997.375828910785,119.88253232912102,-0.0036167746948776,0.0036570090900024,,10375.88117203898,11905.596102039404,150,1,2025-09-12,2025-09-26 14:38:14.513,AA,C,2408778210,AMBUSH51,1,1,48,2,1,1,225,2,1,0,0,9,1,225,2,1,-149931.79699692712,-4791539.643922065,4197549.046289842,2.3875,2.89056,-0.236225,-114.895,29.9243,29.0266,-0.182052,-7.46971,6.3908,0.142796,-0.00195888,8.42641e-05,4,0,41.39628003772616,-91.79225421493716,9978.603615162136,-71.5963038772089,-0.2421785237394648,3.8580271040414047,199.522,10375.88117203898,11905.596102039404,150,True,6.188322265723654,False,168.85831548100415,175.4342999109781,False,15.511850718415834,True,False
1,1970-07-23 10:27:58.957856316,2025-09-12,2025-09-26 14:38:15.785,AA,C,4024202686,JASSM,3,138,76,2,2,1,225,9,2,0,1,26,0,0,0,0,-159236.20056326812,-4787241.088838424,4202547.130339146,-2.3654,-0.396726,0.382728,74.0,-30.875,-32.125,0.0,0.0,0.0,0.0,0.0,0.0,2,0,41.45380173224844,-91.9051055763274,10997.376377984738,119.8831859002696,-0.0027625397798997,0.0036555291533685,,10375.88117203898,11905.596102039404,150,1,2025-09-12,2025-09-26 14:38:15.680,AA,C,2410170042,AMBUSH51,1,1,48,2,1,1,225,2,1,0,0,9,1,225,2,1,-150064.5061073029,-4791504.58099559,4197583.0265540695,2.5117,2.88303,-0.250314,-114.183,30.7591,30.0343,-0.287758,-7.65391,6.37789,0.0574941,0.00171753,0.0126677,4,0,41.39669329612828,-91.79385267491016,9976.2915915924,-70.7216121072825,0.003477803299223,10.868356645984994,199.522,10375.88117203898,11905.596102039404,150,False,6.063884835950935,False,169.54984787058265,175.21292681068306,False,15.049436064647127,True,False
1,1970-07-23 10:27:58.968293711,2025-09-12,2025-09-26 14:38:16.829,AA,C,4025515376,JASSM,3,138,76,2,2,1,225,9,2,0,1,26,0,0,0,0,-159154.73669608062,-4787275.227510299,4202511.567839146,-2.3654,-0.396726,0.382728,74.0,-30.875,-32.125,0.0,0.0,0.0,0.0,0.0,0.0,2,0,41.45337472836804,-91.90411808978412,10997.377817709264,119.88383962940505,-0.0019080819970608,0.0036540524996396,,10375.88117203898,11905.596102039404,150,1,2025-09-12,2025-09-26 14:38:16.847,AA,C,2411561872,AMBUSH51,1,1,48,2,1,1,225,2,1,0,0,9,1,225,2,1,-150198.0100844583,-4791467.3667719625,4197619.068206679,2.56061,2.86208,-0.262711,-113.225,32.5947,31.5009,-0.316168,-7.65843,6.68598,0.0320547,0.00626779,0.025195,4,0,41.39713309746132,-91.79546145667616,9973.231417871692,-69.4099557583793,-0.3556886349786819,13.362322643692696,199.339,10375.88117203898,11905.596102039404,150,False,5.938241791496543,False,170.71918065571833,174.9908379028746,False,14.136853782698857,True,False
1,1970-07-23 10:27:58.990281697,2025-09-12,2025-09-26 14:38:19.028,AA,C,4028139740,JASSM,3,138,76,2,2,1,225,9,2,0,1,26,0,0,0,0,-158991.87243826812,-4787343.473604049,4202440.466276646,-2.3654,-0.396726,0.382824,74.0,-30.875,-32.25,0.0,0.0,0.0,0.0,0.0,0.0,2,0,41.4525210266839,-91.90214392682336,10997.373957212068,119.88899463508086,-0.0041199278831113,0.0036509534944996,,10375.88117203898,11905.596102039404,150,1,2025-09-12,2025-09-26 14:38:19.014,AA,C,2414146704,AMBUSH51,1,1,48,2,1,1,225,2,1,0,0,9,1,225,2,1,-150441.47565941914,-4791393.964782669,4197690.815754004,2.60793,2.83506,-0.291505,-111.23,35.5859,34.9252,-0.327183,-7.48205,6.51071,0.0525465,0.0149002,0.0321441,4,0,41.398008657777744,-91.79839745771208,9967.120712262264,-67.19026147475022,-0.2952867881328354,15.637087136586386,198.997,10375.88117203898,11905.596102039404,150,False,5.697781166861712,False,172.992949244455,174.6534765273297,False,12.24475519603125,True,False
1,1970-07-23 10:27:59.000213700,2025-09-12,2025-09-26 14:38:20.021,AA,C,4029392670,JASSM,3,138,76,2,2,1,225,9,2,0,1,26,0,0,0,0,-158914.11657889312,-4787376.055635299,4202406.520964146,-2.3654,-0.396726,0.382824,74.0,-30.875,-32.25,0.0,0.0,0.0,0.0,0.0,0.0,2,0,41.45211344075323,-91.9012014257962,10997.378526712206,119.88961856757024,-0.0033043661057342,0.0036496036018368,,10375.88117203898,11905.596102039404,150,1,2025-09-12,2025-09-26 14:38:20.088,AA,C,2415419236,AMBUSH51,1,1,48,2,1,1,225,2,1,0,0,9,1,225,2,1,-150558.5641309138,-4791355.117246267,4197728.838411197,2.63331,2.81138,-0.309542,-109.888,37.569,36.7582,-0.105997,-7.52456,6.27248,-0.0248517,0.0120851,0.0268615,4,0,41.39847455381445,-91.79981081155984,9963.101871086325,-65.5477752330328,-0.5085427232528341,16.678239175868573,198.777,10375.88117203898,11905.596102039404,150,False,5.580999046721076,False,174.38799732796224,174.46596083629728,False,11.075879520547925,True,False
1,1970-07-23 10:27:59.011363677,2025-09-12,2025-09-26 14:38:21.136,AA,C,4030704788,JASSM,3,138,76,2,2,1,225,9,2,0,1,26,0,0,0,0,-158832.68982108062,-4787410.172822799,4202370.970182896,-2.3654,-0.396726,0.382824,74.0,-30.875,-32.25,0.0,0.0,0.0,0.0,0.0,0.0,2,0,41.45168660286908,-91.90021444262044,10997.374061634477,119.89027194168422,-0.0024503012804598,0.00364818837941,,10375.88117203898,11905.596102039404,150,1,2025-09-12,2025-09-26 14:38:21.113,AA,C,2416652000,AMBUSH51,1,1,48,2,1,1,225,2,1,0,0,9,1,225,2,1,-150672.19279610433,-4791314.894062705,4197768.090204252,2.55798,2.79195,-0.328163,-108.687,39.3299,38.5301,-0.150515,-7.76874,6.55991,-0.189988,0.0117502,0.0230644,4,0,41.398957560726274,-91.8011833705674,9958.106865298936,-64.04661997512413,-0.5168543250689077,11.99964609301023,198.777,10375.88117203898,11905.596102039404,150,False,5.462877703420289,False,175.6697293088562,174.28646296025883,False,10.006459715932568,True,False
1,1970-07-23 10:27:59.033234449,2025-09-12,2025-09-26 14:38:23.323,AA,C,4033329490,JASSM,3,138,76,2,2,1,225,9,2,0,1,26,0,0,0,0,-158669.80310233062,-4787478.420869674,4202299.852995396,-2.3654,-0.39663,0.382824,74.0,-30.875,-32.25,0.0,0.0,0.0,0.0,0.0,0.0,2,0,41.45083272136033,-91.89824011273596,10997.37605703288,119.887942645303,-0.0043114351261935,0.0015935809673173,,10375.88117203898,11905.596102039404,150,1,2025-09-12,2025-09-26 14:38:23.415,AA,C,2419395898,AMBUSH51,1,1,48,2,1,1,225,2,1,0,0,9,1,225,2,1,-150920.97030811524,-4791223.221341074,4197859.131414603,2.24218,2.79291,-0.328431,-108.214,39.6878,39.5682,-0.176973,-7.32782,6.58126,-0.0497044,-0.000159166,-0.00954681,4,0,41.40007091459635,-91.80418986927202,9949.396972719029,-64.07407346586135,-0.4666444382783429,-6.076232708493803,199.107,10375.88117203898,11905.596102039404,150,True,5.2120673648985,False,176.21862292186094,173.90525910594073,False,9.829026135079816,True,False
1,1970-07-23 10:27:59.033440745,2025-09-12,2025-09-26 14:38:23.344,AA,C,4032017140,JASSM,3,138,76,2,2,1,225,9,2,0,1,26,0,0,0,0,-158751.24548514312,-4787444.297822799,4202335.411589146,-2.3654,-0.39663,0.382824,74.0,-30.875,-32.25,0.0,0.0,0.0,0.0,0.0,0.0,2,0,41.45125966074431,-91.89922725914414,10997.375051635294,119.8872891741058,-0.0051656649870358,0.0015950530954256,,10375.88117203898,11905.596102039404,150,1,2025-09-12,2025-09-26 14:38:23.415,AA,C,2419395898,AMBUSH51,1,1,48,2,1,1,225,2,1,0,0,9,1,225,2,1,-150920.97030811524,-4791223.221341074,4197859.131414603,2.24218,2.79291,-0.328431,-108.214,39.6878,39.5682,-0.176973,-7.32782,6.58126,-0.0497044,-0.000159166,-0.00954681,4,0,41.40007091459635,-91.80418986927202,9949.396972719029,-64.07407346586135,-0.4666444382783429,-6.076232708493803,199.107,10375.88117203898,11905.596102039404,150,True,5.263041244391865,False,176.21862292186094,173.96391608025792,False,9.77058937409595,True,False
1,1970-07-23 10:27:59.044357174,2025-09-12,2025-09-26 14:38:24.435,AA,C,4034641842,JASSM,3,138,76,2,2,1,225,9,2,0,1,26,0,0,0,0,-158588.35974295562,-4787512.543916549,4202264.292448521,-2.3654,-0.39663,0.382824,74.0,-30.875,-32.25,0.0,0.0,0.0,0.0,0.0,0.0,2,0,41.45040576049277,-91.8972529675978,10997.377397376604,119.88859611012458,-0.0034571911466442,0.0015921019077575,,10375.88117203898,11905.596102039404,150,1,2025-09-12,2025-09-26 14:38:24.580,AA,C,2420787730,AMBUSH51,1,1,48,2,1,1,225,2,1,0,0,9,1,225,2,1,-151046.68543062487,-4791177.558219014,4197904.810563674,2.20866,2.80051,-0.322455,-108.742,38.8983,38.8437,-0.103475,-7.47012,6.49319,-0.0125491,0.0014637,-0.0111426,4,0,41.40062735332731,-91.80570893853408,9945.930133285923,-64.60859296990438,-0.4106672502678472,-7.853526083908961,199.034,10375.88117203898,11905.596102039404,150,True,5.086179458006752,False,175.66886981065423,173.69641834813916,False,10.568346283620977,True,False
1,1970-07-23 10:27:59.055801830,2025-09-12,2025-09-26 14:38:25.580,AA,C,4035954202,JASSM,3,138,76,2,2,1,225,9,2,0,1,26,0,0,0,0,-158506.91638358062,-4787546.665010299,4202228.731901646,-2.3654,-0.39663,0.382824,74.0,-30.875,-32.25,0.0,0.0,0.0,0.0,0.0,0.0,2,0,41.449978802751936,-91.89626583617762,10997.37859388782,119.88924956032918,-0.0026029534010413,0.0015906326045051,,10375.88117203898,11905.596102039404,150,1,2025-09-12,2025-09-26 14:38:25.779,AA,C,2422219328,AMBUSH51,1,1,48,2,1,1,225,2,1,0,0,9,1,225,2,1,-151178.12502599714,-4791131.216834426,4197951.382429072,2.25985,2.81097,-0.311172,-109.245,38.0042,38.1417,0.000127837,-7.4077,6.3148,0.0888383,-0.0014845,-0.0108638,4,0,41.40119275891024,-91.80729667914444,9943.186439974892,-65.46978828614853,-0.4536011199421469,-4.727402348971629,198.997,10375.88117203898,11905.596102039404,150,True,4.9575472825690925,False,175.10254686939743,173.46177662586055,False,11.344061494964475,True,False
