Subject_cm,Timestamp,SampleDate_cm,SampleTime_cm,Configuration_cm,Scenario_cm,DisTime_cm,MarkingTxt_cm,Application_cm,EntId_cm,Site_cm,ExerciseId_cm,ForceId_cm,Category_cm,Country_cm,Domain_cm,Kind_cm,Extra_cm,Specific_cm,Subcategory_cm,AltCategory_cm,AltCountry_cm,AltDomain_cm,AltKind_cm,ECEF_X_cm,ECEF_Y_cm,ECEF_Z_cm,OriPhi_cm,OriPsi_cm,OriTheta_cm,LinVelX_cm,LinVelY_cm,LinVelZ_cm,LinAccX_cm,LinAccY_cm,LinAccZ_cm,AngVelX_cm,AngVelY_cm,AngVelZ_cm,DrAlg_cm,Appearance_cm,Latitude_cm,Longitude_cm,Altitude_cm,Heading_cm,Pitch_cm,Roll_cm,CalibratedAirspeed_cm,CM_Altitude_Lead_cm,CM_Altitude_Wing_cm,CM_Airspeed_cm,Subject_ac,SampleDate_ac,SampleTime_ac,Configuration_ac,Scenario_ac,DisTime_ac,MarkingTxt_ac,Application_ac,EntId_ac,Site_ac,ExerciseId_ac,ForceId_ac,Category_ac,Country_ac,Domain_ac,Kind_ac,Extra_ac,Specific_ac,Subcategory_ac,AltCategory_ac,AltCountry_ac,AltDomain_ac,AltKind_ac,ECEF_X_ac,ECEF_Y_ac,ECEF_Z_ac,OriPhi_ac,OriPsi_ac,OriTheta_ac,LinVelX_ac,LinVelY_ac,LinVelZ_ac,LinAccX_ac,LinAccY_ac,LinAccZ_ac,AngVelX_ac,AngVelY_ac,AngVelZ_ac,DrAlg_ac,Appearance_ac,Latitude_ac,Longitude_ac,Altitude_ac,Heading_ac,Pitch_ac,Roll_ac,CalibratedAirspeed_ac,CM_Altitude_Lead_ac,CM_Altitude_Wing_ac,CM_Airspeed_ac,Bank_Angle_Condition,distance_nm,Distance_Condition,angle_between_vel,angle_between_pos,Cone_Condition,angle_between_pos_nose,Nose_Cone_Condition,Intercept_Criteria
1,1970-07-23 11:27:26.899329646,2025-09-16,2025-09-26 17:44:49.932,AA,D,2494727830,JASSM,3,124,76,2,2,1,225,9,2,0,1,26,0,0,0,0,-171305.56286795562,-4793410.872041549,4194623.352018833,-2.29541,0.0350898,-0.0800546,90.0,3.125,7.25,0.0,0.0,0.0,0.0,0.0,0.0,2,0,41.36113772215921,-92.04674931113313,10000.00054238077,83.87915846735049,-0.0051871873466388,0.0066288575475706,,9126.688510607357,11112.197839541188,150,1,2025-09-16,2025-09-26 17:44:49.943,AA,D,2887175998,AMBUSH51,1,1,48,2,1,1,225,2,1,0,0,9,1,225,2,1,-151657.22649580476,-4795467.519646008,4192561.170775276,-2.84826,-0.385649,0.370512,103.866,-41.7045,-44.0389,-0.0860638,-6.86638,6.42475,-0.00504856,0.00488628,-0.0655959,4,0,41.33891616227813,-91.8113820693829,8963.65713908983,119.03335549877036,0.1986179523540883,-27.962911308982992,196.993,9126.688510607357,11112.197839541188,150,False,10.6829542890935,False,35.0281994285435,166.7789926702891,False,158.14504545215325,False,False
1,1970-07-23 11:27:26.908399335,2025-09-16,2025-09-26 17:44:50.839,AA,D,2496033928,JASSM,3,124,76,2,2,1,225,9,2,0,1,26,0,0,0,0,-171206.98376639312,-4793407.438447799,4194631.247526646,-2.29541,0.0348022,-0.079767,90.0,3.125,7.25,0.0,0.0,0.0,0.0,0.0,0.0,2,0,41.36123239404397,-92.0455739584446,10000.001004241009,83.90316297679608,-0.0029260157690884,0.005311976538779,,9126.688510607357,11112.197839541188,150,1,2025-09-16,2025-09-26 17:44:50.941,AA,D,2888368996,AMBUSH51,1,1,48,2,1,1,225,2,1,0,0,9,1,225,2,1,-151552.10730028775,-4795507.332634417,4192518.169395638,-2.81348,-0.337368,0.341606,106.221,-38.3887,-41.8042,-0.175582,-7.58579,7.00378,0.118628,0.0178796,-0.0212543,4,0,41.338408764802026,-91.81011235153584,8960.313061716663,116.03276957606532,-0.4760102626465595,-26.92701411672904,196.59,9126.688510607357,11112.197839541188,150,False,10.691722175866571,False,32.887788457072304,166.59164304033064,False,160.4925166101165,False,False
1,1970-07-23 11:27:26.919571768,2025-09-16,2025-09-26 17:44:51.957,AA,D,2497286708,JASSM,3,124,76,2,2,1,225,9,2,0,1,26,0,0,0,0,-171112.42859061187,-4793404.144502486,4194638.818815708,-2.29541,0.0348022,-0.079767,90.0,3.125,7.25,0.0,0.0,0.0,0.0,0.0,0.0,2,0,41.36132318019675,-92.04444657979684,10000.000735844098,83.9039079539626,-0.0020749966333354,0.0053123844557818,,9126.688510607357,11112.197839541188,150,1,2025-09-16,2025-09-26 17:44:51.941,AA,D,2889561996,AMBUSH51,1,1,48,2,1,1,225,2,1,0,0,9,1,225,2,1,-151444.52172197233,-4795544.777207322,4192477.3800277496,-2.59081,-0.322412,0.321479,108.246,-36.4065,-39.4407,-0.172361,-7.73216,7.15325,0.235381,0.00939076,-0.0446589,4,0,41.33793083624612,-91.80881410748016,8955.74674677961,114.64176787155525,-0.2533389381972832,-14.439245250208556,196.92,9126.688510607357,11112.197839541188,150,False,10.703759748317752,False,31.145079043034993,166.41748308252323,False,162.4093668607187,False,False
1,1970-07-23 11:27:26.930002793,2025-09-16,2025-09-26 17:44:53.000,AA,D,2498539656,JASSM,3,124,76,2,2,1,225,9,2,0,1,26,0,0,0,0,-171017.86071951812,-4793400.848604049,4194646.391081333,-2.29541,0.0348022,-0.079767,90.0,3.125,7.25,0.0,0.0,0.0,0.0,0.0,0.0,2,0,41.36141397620073,-92.04331904729293,10000.00128885356,83.90465303414481,-0.0012238628058253,0.0053128010970755,,9126.688510607357,11112.197839541188,150,1,2025-09-16,2025-09-26 17:44:52.974,AA,D,2890794760,AMBUSH51,1,1,48,2,1,1,225,2,1,0,0,9,1,225,2,1,-151331.50255754852,-4795582.060562141,4192437.202518961,-2.41731,-0.315775,0.301827,109.275,-36.085,-37.7787,-0.202309,-7.95389,7.20509,0.13317,0.0111509,0.00938452,4,0,41.33745900424435,-91.80745108874174,8951.69471621768,113.5807944757979,0.2685634943808936,-4.615376694575351,196.81,9126.688510607357,11112.197839541188,150,True,10.718732753725913,False,30.298552990112594,166.24777738712584,False,163.4079277060546,False,False
1,1970-07-23 11:27:26.941569932,2025-09-16,2025-09-26 17:44:54.156,AA,D,2499793184,JASSM,3,124,76,2,2,1,225,9,2,0,1,26,0,0,0,0,-170923.24939139312,-4793397.549775924,4194653.965300083,-2.29541,0.0348981,-0.079767,90.0,3.125,7.25,0.0,0.0,0.0,0.0,0.0,0.0,2,0,41.36150480097124,-92.04219099411728,9999.999679743209,83.90176850560007,-0.0044719562495983,0.0057510794605434,,9126.688510607357,11112.197839541188,150,1,2025-09-16,2025-09-26 17:44:54.141,AA,D,2892186592,AMBUSH51,1,1,48,2,1,1,225,2,1,0,0,9,1,225,2,1,-151202.44576208625,-4795623.8176040985,4192393.429330474,-2.30934,-0.32602,0.305602,109.715,-36.3768,-37.0572,-0.201988,-7.38418,6.92466,0.0640397,0.00526286,0.00135759,4,0,41.336939280990826,-91.80589498592175,8949.62898427481,114.126429211845,0.5227418343087629,1.7503523078834902,197.03,9126.688510607357,11112.197839541188,150,True,10.742785569959223,False,30.054385514956,166.0699943644403,False,163.81147267758135,False,False
1,1970-07-23 11:27:26.951346839,2025-09-16,2025-09-26 17:44:55.134,AA,D,2501104260,JASSM,3,124,76,2,2,1,225,9,2,0,1,26,0,0,0,0,-170824.2940691275,-4793394.098604049,4194661.887175083,-2.29541,0.0348981,-0.079767,90.0,3.125,7.25,0.0,0.0,0.0,0.0,0.0,0.0,2,0,41.36159978855979,-92.04101114441238,10000.000550817063,83.90254816012492,-0.0035813347799419,0.0057514615071831,,9126.688510607357,11112.197839541188,150,1,2025-09-16,2025-09-26 17:44:55.141,AA,D,2893379592,AMBUSH51,1,1,48,2,1,1,225,2,1,0,0,9,1,225,2,1,-151092.4678434796,-4795660.211994343,4192356.034819333,-2.26903,-0.327836,0.307135,109.663,-36.8716,-37.3602,-0.174419,-7.20416,6.59698,0.0372042,-4.47328e-05,0.00271206,4,0,41.33649093341731,-91.80456864126242,8949.671942758258,114.25940546855752,0.5340093449675789,4.092320234793871,196.956,9126.688510607357,11112.197839541188,150,True,10.753823548320616,False,30.300049244791136,165.9047134849472,False,163.72657389606167,False,False
1,1970-07-23 11:27:26.961370620,2025-09-16,2025-09-26 17:44:56.137,AA,D,2502356962,JASSM,3,124,76,2,2,1,225,9,2,0,1,26,0,0,0,0,-170729.74475272125,-4793390.800752486,4194669.454557896,-2.29541,0.0348981,-0.079767,90.0,3.125,7.25,0.0,0.0,0.0,0.0,0.0,0.0,2,0,41.361690525598775,-92.03988382469691,10000.001434042722,83.90329310377207,-0.0027303695877161,0.0057518166614056,,9126.688510607357,11112.197839541188,150,1,2025-09-16,2025-09-26 17:44:56.141,AA,D,2894572590,AMBUSH51,1,1,48,2,1,1,225,2,1,0,0,9,1,225,2,1,-150982.53399592967,-4795697.110217704,4192318.130914021,-2.24032,-0.332149,0.316217,109.504,-37.4162,-38.0304,-0.153993,-7.0294,6.54159,0.014224,-0.00190686,0.0142323,4,0,41.336036126366366,-91.80324265148722,8949.8626543293,114.79752212163976,0.3415297026805631,5.817293080512492,197.115,9126.688510607357,11112.197839541188,150,True,10.767298050421724,False,30.69870992879591,165.74085546630104,False,163.49363168486045,False,False
1,1970-07-23 11:27:26.973128566,2025-09-16,2025-09-26 17:44:57.312,AA,D,2503611842,JASSM,3,124,76,2,2,1,225,9,2,0,1,26,0,0,0,0,-170635.03112967435,-4793387.495088424,4194677.034636021,-2.29541,0.0348981,-0.0796711,90.0,3.125,7.25,0.0,0.0,0.0,0.0,0.0,0.0,2,0,41.3617814185431,-92.03875454368432,10000.00084627366,83.90815202571143,-0.0055194741931957,0.0057519162132668,,9126.688510607357,11112.197839541188,150,1,2025-09-16,2025-09-26 17:44:57.440,AA,D,2896123488,AMBUSH51,1,1,48,2,1,1,225,2,1,0,0,9,1,225,2,1,-150839.9003807795,-4795745.516452333,4192268.1531363223,-2.2483,-0.345786,0.324441,109.183,-38.1101,-38.9099,-0.157812,-7.37165,6.70893,-0.010196,0.00234795,0.00164055,4,0,41.33543744757216,-91.80152207429276,8949.700846349175,115.65388303873785,0.5445532530262976,5.612627869694078,197.518,9126.688510607357,11112.197839541188,150,True,10.799616371105682,False,31.23737353921966,165.54614319935544,False,163.15253418295205,False,False
1,1970-07-23 11:27:26.983415638,2025-09-16,2025-09-26 17:44:58.341,AA,D,2504924078,JASSM,3,124,76,2,2,1,225,9,2,0,1,26,0,0,0,0,-170535.988405065,-4793384.038057174,4194684.959440708,-2.29541,0.0348981,-0.0796711,90.0,3.125,7.25,0.0,0.0,0.0,0.0,0.0,0.0,2,0,41.36187644399158,-92.03757364307008,10000.000752087244,83.90893237895361,-0.0046280681891682,0.0057523518380583,,9126.688510607357,11112.197839541188,150,1,2025-09-16,2025-09-26 17:44:58.474,AA,D,2897356254,AMBUSH51,1,1,48,2,1,1,225,2,1,0,0,9,1,225,2,1,-150727.92629487318,-4795784.623143867,4192227.809737464,-2.28171,-0.352247,0.333636,108.876,-38.7201,-39.4442,-0.244045,-7.00358,6.53891,-0.0875941,-0.00297005,0.00478017,4,0,41.33495337904935,-91.80017094775432,8949.902991118228,116.27610031483488,0.4263494851502024,3.823627099486358,197.714,9126.688510607357,11112.197839541188,150,True,10.81232070514847,False,31.63872331946731,165.3719474420589,False,162.92304463740527,False,False
1,1970-07-23 11:27:26.993456346,2025-09-16,2025-09-26 17:44:59.345,AA,D,2506234362,JASSM,3,124,76,2,2,1,225,9,2,0,1,26,0,0,0,0,-170437.09265311187,-4793380.583955611,4194692.872526646,-2.29541,0.0348981,-0.0796711,90.0,3.125,7.25,0.0,0.0,0.0,0.0,0.0,0.0,2,0,41.36197132969184,-92.03639449233836,10000.000395880792,83.90971157732501,-0.0037379842659902,0.0057528001245431,,9126.688510607357,11112.197839541188,150,1,2025-09-16,2025-09-26 17:44:59.507,AA,D,2898589020,AMBUSH51,1,1,48,2,1,1,225,2,1,0,0,9,1,225,2,1,-150615.39207041392,-4795824.496211292,4192186.5882089455,-2.34442,-0.357623,0.336719,108.777,-39.0579,-39.8438,-0.0949592,-7.40644,6.73225,-0.0267034,-0.00180075,0.00487587,4,0,41.33445891147411,-91.79881286859548,8950.054133663996,116.60708071310752,0.5105126116928889,0.3343574220914643,198.129,9126.688510607357,11112.197839541188,150,True,10.825608227092502,False,31.878452803420657,165.19527057774604,False,162.8608229551642,False,False
1,1970-07-23 11:27:27.015469162,2025-09-16,2025-09-26 17:45:01.546,AA,D,2508859062,JASSM,3,124,76,2,2,1,225,9,2,0,1,26,0,0,0,0,-170238.98986990875,-4793373.663057174,4194708.719206333,-2.29541,0.0348981,-0.0796711,90.0,3.125,7.25,0.0,0.0,0.0,0.0,0.0,0.0,2,0,41.36216134452807,-92.03403246991108,10000.000876847196,83.91127243735944,-0.001955017460686,0.0057536792611099,,9126.688510607357,11112.197839541188,150,1,2025-09-16,2025-09-26 17:45:01.507,AA,D,2900975016,AMBUSH51,1,1,48,2,1,1,225,2,1,0,0,9,1,225,2,1,-150397.58854632234,-4795902.387778444,4192106.883770359,-2.38193,-0.360199,0.331671,109.007,-39.2479,-39.6161,-0.171977,-7.49979,6.93619,-0.0302799,0.00094563,-0.00243326,4,0,41.3334981008469,-91.79618417353142,8952.3095026614,116.50120998750208,0.8152232033231016,-1.7675582579960964,198.533,9126.688510607357,11112.197839541188,150,True,10.84817828801156,False,31.809142904799646,164.84851143893007,False,163.2685264215343,False,False
1,1970-07-23 11:27:27.015526970,2025-09-16,2025-09-26 17:45:01.552,AA,D,2507487826,JASSM,3,124,76,2,2,1,225,9,2,0,1,26,0,0,0,0,-170342.48571951812,-4793377.279268111,4194700.440886021,-2.29541,0.0348981,-0.0796711,90.0,3.125,7.25,0.0,0.0,0.0,0.0,0.0,0.0,2,0,41.36206208089662,-92.03526647486709,10000.000474294611,83.91045698754134,-0.0028865016807775,0.0057532207138231,,9126.688510607357,11112.197839541188,150,1,2025-09-16,2025-09-26 17:45:01.507,AA,D,2900975016,AMBUSH51,1,1,48,2,1,1,225,2,1,0,0,9,1,225,2,1,-150397.58854632234,-4795902.387778444,4192106.883770359,-2.38193,-0.360199,0.331671,109.007,-39.2479,-39.6161,-0.171977,-7.49979,6.93619,-0.0302799,0.00094563,-0.00243326,4,0,41.3334981008469,-91.79618417353142,8952.3095026614,116.50120998750208,0.8152232033231016,-1.7675582579960964,198.533,9126.688510607357,11112.197839541188,150,True,10.902128214638966,False,31.809142904799646,164.92517306138086,False,163.19253406597326,False,False
1,1970-07-23 11:27:27.026349222,2025-09-16,2025-09-26 17:45:02.634,AA,D,2510111802,JASSM,3,124,76,2,2,1,225,9,2,0,1,26,0,0,0,0,-170144.43737967435,-4793370.358369674,4194716.280729771,-2.29541,0.0349939,-0.0796711,90.0,3.125,7.25,0.0,0.0,0.0,0.0,0.0,0.0,2,0,41.36225201491733,-92.03290509582818,10000.000586013604,83.90838741176255,-0.0052036472989983,0.0061914789560992,,9126.688510607357,11112.197839541188,150,1,2025-09-16,2025-09-26 17:45:02.473,AA,D,2902128248,AMBUSH51,1,1,48,2,1,1,225,2,1,0,0,9,1,225,2,1,-150292.15553706937,-4795940.2186969,4192068.692950793,-2.43073,-0.356971,0.331023,109.208,-39.2933,-39.1646,0.00953984,-7.13007,6.58111,-0.05615,0.000448368,-0.00710003,4,0,41.33303487880252,-91.79491167172624,8954.571108278344,116.35266462810692,0.718047293034044,-4.625607559355576,198.875,9126.688510607357,11112.197839541188,150,True,10.859931523401817,False,31.63678447676463,164.68283069402494,False,163.59565132496954,False,False
1,1970-07-23 11:27:27.037369032,2025-09-16,2025-09-26 17:45:03.736,AA,D,2511424116,JASSM,3,124,76,2,2,1,225,9,2,0,1,26,0,0,0,0,-170045.38855154935,-4793366.894502486,4194724.201628208,-2.29541,0.0349939,-0.0796711,90.0,3.125,7.25,0.0,0.0,0.0,0.0,0.0,0.0,2,0,41.362346995865735,-92.0317241082353,9999.999804420662,83.9091678297675,-0.0043121874787758,0.0061918677476566,,9126.688510607357,11112.197839541188,150,1,2025-09-16,2025-09-26 17:45:03.907,AA,D,2903838214,AMBUSH51,1,1,48,2,1,1,225,2,1,0,0,9,1,225,2,1,-150134.43804755074,-4795995.967017307,4192012.528041125,-2.4605,-0.346027,0.321351,109.844,-38.6277,-38.3851,-0.108967,-7.16695,6.64222,-0.00698144,0.00462412,-0.0168601,4,0,41.33235344679123,-91.79300848238638,8957.982365736756,115.5422169512276,0.6849366619340685,-6.542450073390539,199.205,9126.688510607357,11112.197839541188,150,True,10.89960816380314,False,31.07515979953391,164.47143274828773,False,164.367339994247,False,False
1,1970-07-23 11:27:27.048387337,2025-09-16,2025-09-26 17:45:04.838,AA,D,2512736920,JASSM,3,124,76,2,2,1,225,9,2,0,1,26,0,0,0,0,-169946.30261404935,-4793363.428682174,4194732.124479771,-2.29541,0.0349939,-0.0796711,90.0,3.125,7.25,0.0,0.0,0.0,0.0,0.0,0.0,2,0,41.36244199731434,-92.03054267501818,10000.000288442585,83.9099485437254,-0.0034203942022435,0.0061922537200158,,9126.688510607357,11112.197839541188,150,1,2025-09-16,2025-09-26 17:45:04.974,AA,D,2905110746,AMBUSH51,1,1,48,2,1,1,225,2,1,0,0,9,1,225,2,1,-150017.62804701985,-4796036.449048273,4191972.1067384807,-2.46858,-0.340902,0.313818,110.438,-38.1964,-37.4379,-0.0997427,-7.45056,6.88516,-0.00161766,0.00429331,-0.00384598,4,0,41.33186147955114,-91.79159925406658,8961.080746007874,115.03955892692002,0.7886767958786378,-7.103223732181442,199.657,9126.688510607357,11112.197839541188,150,True,10.915574926904409,False,30.53516957593361,164.30010504206086,False,165.0659302280763,False,False
1,1970-07-23 11:27:27.060406057,2025-09-16,2025-09-26 17:45:06.040,AA,D,2514109974,JASSM,3,124,76,2,2,1,225,9,2,0,1,26,0,0,0,0,-169842.6691911978,-4793359.802705611,4194740.409636021,-2.29541,0.0349939,-0.0796711,90.0,3.125,7.25,0.0,0.0,0.0,0.0,0.0,0.0,2,0,41.36254134347645,-92.02930701747071,10000.000695939005,83.91076509175073,-0.0024876732568237,0.0061926550679638,,9126.688510607357,11112.197839541188,150,1,2025-09-16,2025-09-26 17:45:06.041,AA,D,2906383278,AMBUSH51,1,1,48,2,1,1,225,2,1,0,0,9,1,225,2,1,-149898.6499013154,-4796076.799859331,4191932.224836012,-2.49276,-0.328932,0.306768,111.109,-37.3574,-36.6053,-0.0431837,-7.40262,6.61063,-0.0319236,0.0023958,-0.011049,4,0,41.33137432275986,-91.79016422009607,8964.866563191606,114.29548630970942,0.6035720932221237,-8.707178981830634,200.06,9126.688510607357,11112.197839541188,150,True,10.930375008417274,False,29.90351412172706,164.12832640781582,False,165.87039920048468,False,False
1,1970-07-23 11:27:27.070431166,2025-09-16,2025-09-26 17:45:07.043,AA,D,2515363222,JASSM,3,124,76,2,2,1,225,9,2,0,1,26,0,0,0,0,-169748.0783708853,-4793356.491182174,4194747.971159458,-2.29541,0.0349939,-0.0795753,90.0,3.125,7.25,0.0,0.0,0.0,0.0,0.0,0.0,2,0,41.3626320162657,-92.0281791755732,9999.999628144637,83.91562304725649,-0.0052779179550861,0.0061927799535217,,9126.688510607357,11112.197839541188,150,1,2025-09-16,2025-09-26 17:45:07.173,AA,D,2907735342,AMBUSH51,1,1,48,2,1,1,225,2,1,0,0,9,1,225,2,1,-149773.0846291686,-4796118.334659383,4191891.5909941066,-2.50681,-0.321016,0.290757,111.788,-36.715,-35.1291,-0.234314,-7.83036,7.00924,-0.0106953,0.00759937,-0.00656948,4,0,41.33087625443223,-91.78865015174064,8969.441018047108,113.33565019348713,0.930985553000844,-9.65856885773034,200.207,9126.688510607357,11112.197839541188,150,True,10.95358627564839,False,29.122462669213633,163.96400845276088,False,166.79018630299927,False,False
1,1970-07-23 11:27:27.081466086,2025-09-16,2025-09-26 17:45:08.146,AA,D,2516674982,JASSM,3,124,76,2,2,1,225,9,2,0,1,26,0,0,0,0,-169649.07104666656,-4793353.025361861,4194755.884245396,-2.29541,0.0349939,-0.0795753,90.0,3.125,7.25,0.0,0.0,0.0,0.0,0.0,0.0,2,0,41.36272689881722,-92.02699867055117,10000.001026625749,83.91640315224042,-0.0043868339154552,0.0061932224141479,,9126.688510607357,11112.197839541188,150,1,2025-09-16,2025-09-26 17:45:08.175,AA,D,2908928342,AMBUSH51,1,1,48,2,1,1,225,2,1,0,0,9,1,225,2,1,-149660.03569035087,-4796154.669083673,4191856.865839344,-2.49813,-0.310783,0.278461,112.456,-35.7044,-33.8879,-0.217385,-7.47042,6.8632,0.0367048,-0.00223144,-0.0202577,4,0,41.33044667429975,-91.78728742068157,8974.983601354967,112.43854548103732,1.0148775593387225,-9.34126979588667,200.207,9126.688510607357,11112.197839541188,150,True,10.967165348963661,False,28.31407675636659,163.81162461720007,False,167.74230058347135,False,False
1,1970-07-23 11:27:27.092467621,2025-09-16,2025-09-26 17:45:09.246,AA,D,2518045930,JASSM,3,124,76,2,2,1,225,9,2,0,1,26,0,0,0,0,-169545.59655936187,-4793349.400361861,4194764.153776646,-2.29541,0.0349939,-0.0795753,90.0,3.125,7.25,0.0,0.0,0.0,0.0,0.0,0.0,2,0,41.36282606216332,-92.025764899227,9999.999730758176,83.9172184584016,-0.0034555441461691,0.0061936974940875,,9126.688510607357,11112.197839541188,150,1,2025-09-16,2025-09-26 17:45:09.244,AA,D,2910200874,AMBUSH51,1,1,48,2,1,1,225,2,1,0,0,9,1,225,2,1,-149540.4249375155,-4796191.884098571,4191821.696606065,-2.46319,-0.302668,0.267475,112.968,-34.7468,-32.7659,-0.102948,-7.54561,6.66649,0.0289338,0.0100233,-0.0136185,4,0,41.33001006097246,-91.78584606861762,8981.236485163436,111.67498190643344,1.1274874411203302,-7.479056198950438,200.024,9126.688510607357,11112.197839541188,150,True,10.982068174589674,False,27.587033884040512,163.65728846109693,False,168.61627032598506,False,False
1,1970-07-23 11:27:27.103927370,2025-09-16,2025-09-26 17:45:10.392,AA,D,2519300532,JASSM,3,124,76,2,2,1,225,9,2,0,1,26,0,0,0,0,-169450.9033220572,-4793346.082979049,4194771.720182896,-2.29541,0.0349939,-0.0795753,90.0,3.125,7.25,0.0,0.0,0.0,0.0,0.0,0.0,2,0,41.36291678956107,-92.02463582729035,10000.000457333415,83.91796457806723,-0.0026032882406328,0.0061941232972746,,9126.688510607357,11112.197839541188,150,1,2025-09-16,2025-09-26 17:45:10.307,AA,D,2911473406,AMBUSH51,1,1,48,2,1,1,225,2,1,0,0,9,1,225,2,1,-149418.66031769564,-4796229.17210782,4191786.882503891,-2.35246,-0.295166,0.261248,113.28,-34.6364,-31.8092,-0.276366,-7.19894,6.55863,0.14887,0.00425586,-0.0227919,4,0,41.3295757949628,-91.78437900436217,8988.282014420007,111.13140053601424,1.0741614756351885,-1.2573460227411049,199.425,9126.688510607357,11112.197839541188,150,True,11.002711133913905,False,27.193829177893864,163.51223071219874,False,169.1163608751763,False,False
1,1970-07-23 11:27:27.115373604,2025-09-16,2025-09-26 17:45:11.537,AA,D,2520670226,JASSM,3,124,76,2,2,1,225,9,2,0,1,26,0,0,0,0,-169347.52331717435,-4793342.459932174,4194779.979948521,-2.29541,0.0349939,-0.0795753,90.0,3.125,7.25,0.0,0.0,0.0,0.0,0.0,0.0,2,0,41.36301583016083,-92.02340317592956,10000.00161756644,83.91877914720952,-0.0016728500197344,0.0061945910363849,,9126.688510607357,11112.197839541188,150,1,2025-09-16,2025-09-26 17:45:11.440,AA,D,2912825470,AMBUSH51,1,1,48,2,1,1,225,2,1,0,0,9,1,225,2,1,-149290.662591108,-4796267.872468467,4191750.6676756847,-2.26761,-0.29397,0.267205,113.32,-34.48,-32.2937,-0.242089,-7.16333,6.45239,0.0203326,-0.00635102,0.0156534,4,0,41.32912480586248,-91.78283704785213,8995.301788001896,111.33440934339328,0.7923989861189146,3.589847108918258,199.058,9126.688510607357,11112.197839541188,150,True,11.022432339061382,False,27.29562292715552,163.35889291651762,False,169.1969376744211,False,False
1,1970-07-23 11:27:27.126749742,2025-09-16,2025-09-26 17:45:12.674,AA,D,2521925100,JASSM,3,124,76,2,2,1,225,9,2,0,1,26,0,0,0,0,-169252.80944998687,-4793339.138643111,4194787.546354771,-2.29541,0.0350898,-0.0795753,90.0,3.125,7.25,0.0,0.0,0.0,0.0,0.0,0.0,2,0,41.36310656193172,-92.02227385279448,10000.000641801293,83.91589536292342,-0.0049200333038959,0.0066318665371108,,9126.688510607357,11112.197839541188,150,1,2025-09-16,2025-09-26 17:45:12.641,AA,D,2914257070,AMBUSH51,1,1,48,2,1,1,225,2,1,0,0,9,1,225,2,1,-149154.5383884838,-4796309.493697616,4191711.42508884,-2.24436,-0.299423,0.275545,113.102,-35.0572,-33.0905,-0.139698,-7.28767,6.67118,-0.0541215,0.000675153,-0.00605973,4,0,41.32863748240041,-91.7811970460579,9002.341819204028,111.889222617807,0.6825377363158199,5.012592281469348,199.474,9126.688510607357,11112.197839541188,150,True,11.051458569624868,False,27.755578232343957,163.20636948085073,False,168.89990258026265,False,False
1,1970-07-23 11:27:27.136428950,2025-09-16,2025-09-26 17:45:13.642,AA,D,2523236182,JASSM,3,124,76,2,2,1,225,9,2,0,1,26,0,0,0,0,-169153.85327322906,-4793335.667939986,4194795.449675083,-2.29541,0.0350898,-0.0795753,90.0,3.125,7.25,0.0,0.0,0.0,0.0,0.0,0.0,2,0,41.36320133622968,-92.02109394329982,9999.998660494952,83.91667508170997,-0.0040294116108669,0.0066322536406584,,9126.688510607357,11112.197839541188,150,1,2025-09-16,2025-09-26 17:45:13.740,AA,D,2915569368,AMBUSH51,1,1,48,2,1,1,225,2,1,0,0,9,1,225,2,1,-149029.6340820346,-4796348.680761628,4191674.365337599,-2.32179,-0.307528,0.282332,112.847,-35.612,-33.4968,-0.171057,-7.19669,6.80919,-0.0581121,-0.00182988,0.0259377,4,0,41.32817727838057,-91.7796918726961,9008.98657454616,112.47978319129264,0.738167422604661,0.7111347356124738,199.254,9126.688510607357,11112.197839541188,150,True,11.072103611609824,False,28.090776675822575,163.0533941654951,False,168.7121039950226,False,False
1,1970-07-23 11:27:27.147446511,2025-09-16,2025-09-26 17:45:14.744,AA,D,2524553992,JASSM,3,124,76,2,2,1,225,9,2,0,1,26,0,0,0,0,-169054.38916190094,-4793332.178682174,4194803.394011021,-2.29541,0.0350898,-0.0795753,90.0,3.125,7.25,0.0,0.0,0.0,0.0,0.0,0.0,2,0,41.36329659223152,-92.01990797428044,10000.00092557969,83.91745880628979,-0.0031342178844672,0.0066326500943609,,9126.688510607357,11112.197839541188,150,1,2025-09-16,2025-09-26 17:45:14.907,AA,D,2916961200,AMBUSH51,1,1,48,2,1,1,225,2,1,0,0,9,1,225,2,1,-148898.81090660728,-4796389.704226529,4191635.5428105,-2.36225,-0.309497,0.277426,112.847,-35.6138,-33.4568,-0.261719,-7.51467,6.85168,-0.0210525,0.00613255,-0.0148877,4,0,41.32769532318734,-91.77811540469484,9015.891419875366,112.3527721875904,1.0121210728673482,-1.5776993208091297,199.584,9126.688510607357,11112.197839541188,150,True,11.095968866806802,False,28.078609481067563,162.89721053370707,False,168.8785133326362,False,False
1,1970-07-23 11:27:27.158466659,2025-09-16,2025-09-26 17:45:15.846,AA,D,2525860698,JASSM,3,124,76,2,2,1,225,9,2,0,1,26,0,0,0,0,-168955.76306326812,-4793328.717744674,4194811.269011021,-2.29541,0.0350898,-0.0795753,90.0,3.125,7.25,0.0,0.0,0.0,0.0,0.0,0.0,2,0,41.36339102378169,-92.01873199441748,10000.000363773384,83.91823593119732,-0.0022465678075999,0.0066330334291263,,9126.688510607357,11112.197839541188,150,1,2025-09-16,2025-09-26 17:45:15.707,AA,D,2917915598,AMBUSH51,1,1,48,2,1,1,225,2,1,0,0,9,1,225,2,1,-148808.63951581408,-4796418.123262669,4191608.888754007,-2.38526,-0.309541,0.27538,112.895,-35.6166,-33.1299,-0.131163,-7.10884,6.49228,-0.00528159,-0.00477809,0.00788233,4,0,41.327362975713264,-91.77702876697734,9021.236316791144,112.2705283873906,1.0958649416299415,-2.8970934761769955,199.4,9126.688510607357,11112.197839541188,150,True,11.096965130538576,False,27.96704322390404,162.7651572370136,False,169.10675202897625,False,False
1,1970-07-23 11:27:27.168345264,2025-09-16,2025-09-26 17:45:16.834,AA,D,2526934440,JASSM,3,124,76,2,2,1,225,9,2,0,1,26,0,0,0,0,-168874.72046072906,-4793325.872041549,4194817.740690708,-2.29541,0.0350898,-0.0794794,90.0,3.125,7.125,0.0,0.0,0.0,0.0,0.0,0.0,2,0,41.36346862586469,-92.01776567164512,10000.000698077867,83.92298713401358,-0.0051587830276952,0.0066331239670551,,9126.688510607357,11112.197839541188,150,1,2025-09-16,2025-09-26 17:45:16.841,AA,D,2919267664,AMBUSH51,1,1,48,2,1,1,225,2,1,0,0,9,1,225,2,1,-148680.62356097923,-4796458.392821299,4191570.9352193633,-2.37264,-0.301781,0.277001,113.082,-35.0224,-33.3908,-0.163936,-6.83676,6.31386,0.0179233,-0.0025893,-0.00211909,4,0,41.32689081948823,-91.77548612019557,9028.399198916912,112.0430367421948,0.7237357608242933,-2.298914499335733,199.584,9126.688510607357,11112.197839541188,150,True,11.128867259473108,False,27.7869929413519,162.6885544461435,False,169.40370489645744,False,False
1,1970-07-23 11:27:27.177392836,2025-09-16,2025-09-26 17:45:17.739,AA,D,2528126766,JASSM,3,124,76,2,2,1,225,9,2,0,1,26,0,0,0,0,-168784.72729666656,-4793322.711885299,4194824.925261021,-2.29541,0.0350898,-0.0794794,90.0,3.125,7.125,0.0,0.0,0.0,0.0,0.0,0.0,2,0,41.3635547774507,-92.01669262298412,10000.000611518031,83.92369624105015,-0.0043488308587224,0.0066335371643993,,9126.688510607357,11112.197839541188,150,1,2025-09-16,2025-09-26 17:45:17.741,AA,D,2920341362,AMBUSH51,1,1,48,2,1,1,225,2,1,0,0,9,1,225,2,1,-148577.42272398266,-4796490.023181596,4191540.732297283,-2.37762,-0.299508,0.272577,113.338,-34.7015,-33.2336,-0.16263,-7.38355,6.79122,-0.054831,0.0114693,0.00269125,4,0,41.32651778247701,-91.77424283113942,9032.981693109245,111.77386909131468,0.8088825154381929,-2.6230351308790225,199.474,9126.688510607357,11112.197839541188,150,True,11.141831239568054,False,27.59844554535453,162.559087105449,False,169.72770876560136,False,False
1,1970-07-23 11:27:27.187157525,2025-09-16,2025-09-26 17:45:18.715,AA,D,2529260400,JASSM,3,124,76,2,2,1,225,9,2,0,1,26,0,0,0,0,-168699.16412527984,-4793319.706025924,4194831.755339146,-2.29541,0.0350898,-0.0794794,90.0,3.125,7.125,0.0,0.0,0.0,0.0,0.0,0.0,2,0,41.36363668081055,-92.01567239399417,9999.999513076797,83.92437044418055,-0.0035787495003532,0.006633931958932,,9126.688510607357,11112.197839541188,150,1,2025-09-16,2025-09-26 17:45:18.741,AA,D,2921534362,AMBUSH51,1,1,48,2,1,1,225,2,1,0,0,9,1,225,2,1,-148464.24823063478,-4796524.633163838,4191507.8315748055,-2.43503,-0.30011,0.272797,113.526,-34.4135,-32.7133,-0.0527412,-7.09688,6.39198,-0.0291294,-0.0014845,-0.00533569,4,0,41.326110631941575,-91.77287943214338,9038.3032907076,111.80682728091344,0.8253561147313326,-5.902494666711631,199.327,9126.688510607357,11112.197839541188,150,True,11.162842846029939,False,27.3157528083341,162.4290581796657,False,170.1302737020078,False,False
1,1970-07-23 11:27:27.196442458,2025-09-16,2025-09-26 17:45:19.644,AA,D,2530395760,JASSM,3,124,76,2,2,1,225,9,2,0,1,26,0,0,0,0,-168613.47058279935,-4793316.695283736,4194838.595182896,-2.29541,0.0350898,-0.0794794,90.0,3.125,7.125,0.0,0.0,0.0,0.0,0.0,0.0,2,0,41.36371869736747,-92.01465060806238,10000.000073413396,83.92504567729526,-0.0028074951564961,0.0066343248135028,,9126.688510607357,11112.197839541188,150,1,2025-09-16,2025-09-26 17:45:19.707,AA,D,2922687594,AMBUSH51,1,1,48,2,1,1,225,2,1,0,0,9,1,225,2,1,-148355.29085450136,-4796557.111143665,4191476.8638322777,-2.4526,-0.285629,0.269387,113.994,-33.6188,-32.3025,-0.137012,-6.71592,6.19467,-0.0173428,-0.00452633,-0.00528159,4,0,41.32572842026306,-91.77156716384496,9042.891249224482,111.1157081404562,0.3810025121636503,-7.13858995024392,199.657,9126.688510607357,11112.197839541188,150,True,11.181286730473419,False,26.873075258254858,162.30442455504232,False,170.71276639609547,False,False
1,1970-07-23 11:27:27.207484242,2025-09-16,2025-09-26 17:45:20.748,AA,D,2531646608,JASSM,3,124,76,2,2,1,225,9,2,0,1,26,0,0,0,0,-168519.06036551422,-4793313.376924361,4194846.130339146,-2.29541,0.0351857,-0.0794794,90.0,3.125,7.125,0.0,0.0,0.0,0.0,0.0,0.0,2,0,41.36380905129126,-92.01352488453163,10000.00079117346,83.92215960650685,-0.0060572582006298,0.0070711347792911,,9126.688510607357,11112.197839541188,150,1,2025-09-16,2025-09-26 17:45:20.873,AA,D,2924079426,AMBUSH51,1,1,48,2,1,1,225,2,1,0,0,9,1,225,2,1,-148220.6185456557,-4796595.515778487,4191439.1458597695,-2.45603,-0.272879,0.266336,114.686,-32.2824,-31.8931,-0.0908413,-6.80264,6.37383,0.0131899,0.00580382,-0.00424545,4,0,41.32527008401594,-91.76994585134756,9045.500517545212,110.50644075496145,-0.010639249821156,-7.530765354932559,199.804,9126.688510607357,11112.197839541188,150,True,11.209865953304542,False,26.240175509766512,162.1647445379325,False,171.52115991512048,False,False
1,1970-07-23 11:27:27.216367338,2025-09-16,2025-09-26 17:45:21.636,AA,D,2532780272,JASSM,3,124,76,2,2,1,225,9,2,0,1,26,0,0,0,0,-168433.4948137564,-4793310.369111861,4194852.958464146,-2.29541,0.0351857,-0.0794794,90.0,3.125,7.125,0.0,0.0,0.0,0.0,0.0,0.0,2,0,41.36389092547852,-92.01250462000128,10000.002205280503,83.92283383651511,-0.0052871563714573,0.0070714774049863,,9126.688510607357,11112.197839541188,150,1,2025-09-16,2025-09-26 17:45:21.673,AA,D,2925033824,AMBUSH51,1,1,48,2,1,1,225,2,1,0,0,9,1,225,2,1,-148128.9810971142,-4796620.874746938,4191413.692672553,-2.41601,-0.264411,0.261036,114.995,-31.5345,-31.6512,-0.0598803,-6.87569,6.24391,0.0867369,-0.00219607,-0.0066319,4,0,41.3249642235914,-91.76884293139608,9045.836713318042,109.96539129636746,-0.1440414150172511,-5.363274709750312,199.95,9126.688510607357,11112.197839541188,150,True,11.218314925542108,False,25.897567260153156,162.05368593953185,False,171.99246400705007,False,False
1,1970-07-23 11:27:27.226405199,2025-09-16,2025-09-26 17:45:22.640,AA,D,2533972694,JASSM,3,124,76,2,2,1,225,9,2,0,1,26,0,0,0,0,-168343.49432547516,-4793307.203096236,4194860.139128208,-2.29541,0.0351857,-0.0794794,90.0,3.125,7.125,0.0,0.0,0.0,0.0,0.0,0.0,2,0,41.36397703797388,-92.01143147248548,9999.99913884583,83.92354301481765,-0.0044771397601735,0.0070718422638046,,9126.688510607357,11112.197839541188,150,1,2025-09-16,2025-09-26 17:45:22.474,AA,D,2925988224,AMBUSH51,1,1,48,2,1,1,225,2,1,0,0,9,1,225,2,1,-148037.012108077,-4796645.490753918,4191388.496060035,-2.37522,-0.255703,0.251883,115.256,-30.9107,-31.5004,-0.31684,-7.0185,6.54023,0.00258514,0.00169464,-0.0023105,4,0,41.32466456093434,-91.7677363389578,9044.878864739205,109.25340141569768,-0.1384270998037686,-3.150916320131846,200.366,9126.688510607357,11112.197839541188,150,True,11.224615006292218,False,25.629319070851395,161.94097107534512,False,172.3883696679139,False,False
1,1970-07-23 11:27:27.237923406,2025-09-16,2025-09-26 17:45:23.792,AA,D,2535226132,JASSM,3,124,76,2,2,1,225,9,2,0,1,26,0,0,0,0,-168248.88849051422,-4793303.874971236,4194867.686979771,-2.29541,0.0351857,-0.0794794,90.0,3.125,7.125,0.0,0.0,0.0,0.0,0.0,0.0,2,0,41.36406754501187,-92.01030340874564,9999.999638545629,83.92428848524253,-0.0036256745617792,0.007072224696049,,9126.688510607357,11112.197839541188,150,1,2025-09-16,2025-09-26 17:45:23.680,AA,D,2927419822,AMBUSH51,1,1,48,2,1,1,225,2,1,0,0,9,1,225,2,1,-147898.97815023872,-4796682.162938112,4191350.864556693,-2.3622,-0.260482,0.252106,115.727,-30.7669,-31.1598,-0.183995,-7.29766,6.87057,0.0236054,-0.00252688,-0.00600772,4,0,41.324217662089886,-91.76607560144107,9043.179174998942,109.44459759793564,0.0481812999498018,-2.3368137527675006,200.476,9126.688510607357,11112.197839541188,150,True,11.254858617243666,False,25.398807914288028,161.80775085977837,False,172.74643026493467,False,False
1,1970-07-23 11:27:27.246468099,2025-09-16,2025-09-26 17:45:24.646,AA,D,2536359622,JASSM,3,124,76,2,2,1,225,9,2,0,1,26,0,0,0,0,-168163.3359392447,-4793300.864229049,4194874.511198521,-2.29541,0.0351857,-0.0794794,90.0,3.125,7.125,0.0,0.0,0.0,0.0,0.0,0.0,2,0,41.3641493789531,-92.00928329257675,9999.99845535648,83.9249626206762,-0.0028556907535416,0.0070725680217105,,9126.688510607357,11112.197839541188,150,1,2025-09-16,2025-09-26 17:45:24.772,AA,D,2928732120,AMBUSH51,1,1,48,2,1,1,225,2,1,0,0,9,1,225,2,1,-147770.76979219052,-4796716.051625714,4191316.498884774,-2.3363,-0.252025,0.247799,115.98,-30.7294,-30.9484,-0.106263,-7.07128,6.41316,0.0445674,-0.00488004,-0.00285562,4,0,41.32380754961768,-91.76453316306034,9042.456209180067,108.94507657291298,-0.1261107369364143,-0.9723194183126485,200.439,9126.688510607357,11112.197839541188,150,True,11.284124931196187,False,25.277255033244845,161.68816409677922,False,172.98181368077596,False,False
1,1970-07-23 11:27:27.256484983,2025-09-16,2025-09-26 17:45:25.648,AA,D,2537551832,JASSM,3,124,76,2,2,1,225,9,2,0,1,26,0,0,0,0,-168073.35132010406,-4793297.697236861,4194881.688932896,-2.29541,0.0351857,-0.0794794,90.0,3.125,7.125,0.0,0.0,0.0,0.0,0.0,0.0,2,0,41.36423544411425,-92.00821032643412,10000.000581396713,83.92567168276797,-0.0020458177068359,0.0070729306507712,,9126.688510607357,11112.197839541188,150,1,2025-09-16,2025-09-26 17:45:25.840,AA,D,2930004652,AMBUSH51,1,1,48,2,1,1,225,2,1,0,0,9,1,225,2,1,-147647.68475477,-4796748.430844169,4191283.450079744,-2.28983,-0.255723,0.247352,116.134,-30.8738,-31.0403,-0.160322,-7.40091,6.84825,0.0448004,0.0134708,0.0118812,4,0,41.32341434696724,-91.76305243702012,9041.266654344954,109.06719280799727,0.0429340326340105,1.7417910049101246,200.586,9126.688510607357,11112.197839541188,150,True,11.308239416314715,False,25.322992796466377,161.56727041922812,False,173.05452278366496,False,False
1,1970-07-23 11:27:27.266342690,2025-09-16,2025-09-26 17:45:26.634,AA,D,2538744880,JASSM,3,124,76,2,2,1,225,9,2,0,1,26,0,0,0,0,-167983.3035753531,-4793294.526338424,4194888.870573521,-2.29541,0.0351857,-0.0794794,90.0,3.125,7.125,0.0,0.0,0.0,0.0,0.0,0.0,2,0,41.36432156202246,-92.0071366054639,10000.000308844295,83.92638124489812,-0.0012353768075776,0.0070732959252255,,9126.688510607357,11112.197839541188,150,1,2025-09-16,2025-09-26 17:45:26.640,AA,D,2930959052,AMBUSH51,1,1,48,2,1,1,225,2,1,0,0,9,1,225,2,1,-147554.55449775854,-4796773.15592374,4191258.384815719,-2.27507,-0.25741,0.249361,116.195,-31.2742,-31.2043,-0.174543,-7.35204,6.80235,0.0111468,0.00167384,0.00961547,4,0,41.32311508052325,-91.76193199896402,9040.800030006894,109.21604662487005,0.0339854400640026,2.6113638734383424,200.732,9126.688510607357,11112.197839541188,150,True,11.3153088261856,False,25.479081434466373,161.4565280581768,False,172.99954610590598,False,False
1,1970-07-23 11:27:27.276384247,2025-09-16,2025-09-26 17:45:27.638,AA,D,2539878874,JASSM,3,124,76,2,2,1,225,9,2,0,1,26,0,0,0,0,-167897.71281607574,-4793291.511689986,4194895.695768833,-2.29541,0.0351857,-0.0793835,90.0,3.125,7.125,0.0,0.0,0.0,0.0,0.0,0.0,2,0,41.36440340565796,-92.00611602684263,10000.000091074304,83.93116828625227,-0.0041066935906287,0.0070734765357271,,9126.688510607357,11112.197839541188,150,1,2025-09-16,2025-09-26 17:45:27.742,AA,D,2932271350,AMBUSH51,1,1,48,2,1,1,225,2,1,0,0,9,1,225,2,1,-147425.82166745988,-4796807.728267908,4191223.3881859984,-2.28211,-0.260701,0.255755,116.217,-31.4103,-31.9125,-0.194013,-7.20147,6.48644,-0.0207321,-0.012341,0.00913485,4,0,41.322696682395545,-91.7603831028296,9040.38007636813,109.6095203232768,-0.0810273654039306,2.2549822570660485,200.842,9126.688510607357,11112.197839541188,150,True,11.345094983772608,False,25.745450695193345,161.33636787611408,False,172.87234955144214,False,False
1,1970-07-23 11:27:27.285445981,2025-09-16,2025-09-26 17:45:28.544,AA,D,2541012344,JASSM,3,124,76,2,2,1,225,9,2,0,1,26,0,0,0,0,-167812.16174061722,-4793288.498018111,4194902.517057896,-2.29541,0.0351857,-0.0793835,90.0,3.125,7.125,0.0,0.0,0.0,0.0,0.0,0.0,2,0,41.36448519979447,-92.0050959190292,10000.001015821428,83.93184242064562,-0.0033367242023164,0.0070738738163469,,9126.688510607357,11112.197839541188,150,1,2025-09-16,2025-09-26 17:45:28.579,AA,D,2933265516,AMBUSH51,1,1,48,2,1,1,225,2,1,0,0,9,1,225,2,1,-147329.13470544372,-4796833.906358661,4191196.739082752,-2.30123,-0.264162,0.260035,116.146,-31.7372,-32.0318,-0.23093,-7.11531,6.57034,-0.0383277,-0.00529407,-0.00682123,4,0,41.32237870236279,-91.75921971358744,9039.803879780686,109.92040724507096,-0.1072943274390583,1.209500928547173,200.916,9126.688510607357,11112.197839541188,150,True,11.356686634271986,False,25.886975049527905,161.22677041715028,False,172.83278754127076,False,False
1,1970-07-23 11:27:27.294465811,2025-09-16,2025-09-26 17:45:29.446,AA,D,2542145870,JASSM,3,124,76,2,2,1,225,9,2,0,1,26,0,0,0,0,-167726.6062868399,-4793285.482393111,4194909.338346958,-2.29541,0.0351857,-0.0793835,90.0,3.125,7.125,0.0,0.0,0.0,0.0,0.0,0.0,2,0,41.36456699740716,-92.00407575720568,10000.00054345326,83.93251659182928,-0.0025667150997451,0.0070742794301612,,9126.688510607357,11112.197839541188,150,1,2025-09-16,2025-09-26 17:45:29.306,AA,D,2934140382,AMBUSH51,1,1,48,2,1,1,225,2,1,0,0,9,1,225,2,1,-147243.94114089644,-4796857.073344164,4191172.995924399,-2.31804,-0.263736,0.260488,116.175,-31.669,-32.3831,-0.239437,-7.20592,6.48591,-0.027675,0.0028785,0.00133054,4,0,41.322096142935,-91.75819459146967,9038.981515693831,109.92394038423768,-0.1414360809631611,0.2400009178264263,201.062,9126.688510607357,11112.197839541188,150,True,11.361773995567509,False,25.978211429470136,161.12070049414237,False,172.86035066552404,False,False
1,1970-07-23 11:27:27.304345192,2025-09-16,2025-09-26 17:45:30.434,AA,D,2543279264,JASSM,3,124,76,2,2,1,225,9,2,0,1,26,0,0,0,0,-167641.0608232779,-4793282.466768111,4194916.157682896,-2.29541,0.0352816,-0.0793835,90.0,3.125,7.125,0.0,0.0,0.0,0.0,0.0,0.0,2,0,41.36464877070628,-92.00305571209796,10000.000482859235,83.92956049586017,-0.0058964282009041,0.0075105330165751,,9126.688510607357,11112.197839541188,150,1,2025-09-16,2025-09-26 17:45:30.506,AA,D,2935571980,AMBUSH51,1,1,48,2,1,1,225,2,1,0,0,9,1,225,2,1,-147104.02459748974,-4796895.073749915,4191134.028922961,-2.34984,-0.262412,0.26187,116.447,-31.7766,-32.3623,-0.149753,-7.4372,6.47963,-0.0346866,0.00382309,-0.000702201,4,0,41.32163253223532,-91.75651103194215,9037.5820892959,109.93286529482504,-0.2476660253546928,-1.6014489505030094,201.282,9126.688510607357,11112.197839541188,150,True,11.398245109263996,False,25.955860129767093,160.99564098534887,False,173.00356991642306,False,False
1,1970-07-23 11:27:27.315932107,2025-09-16,2025-09-26 17:45:31.593,AA,D,2544531652,JASSM,3,124,76,2,2,1,225,9,2,0,1,26,0,0,0,0,-167546.53408987945,-4793279.133760299,4194923.691862583,-2.29541,0.0352816,-0.0793835,90.0,3.125,7.125,0.0,0.0,0.0,0.0,0.0,0.0,2,0,41.36473911587397,-92.0019285715782,10000.000506133134,83.93030536609052,-0.0050456778629974,0.0075109181004535,,9126.688510607357,11112.197839541188,150,1,2025-09-16,2025-09-26 17:45:31.573,AA,D,2936844512,AMBUSH51,1,1,48,2,1,1,225,2,1,0,0,9,1,225,2,1,-146980.35059667454,-4796928.395975529,4191099.836922173,-2.42351,-0.260056,0.259441,116.7,-31.3053,-32.0824,-0.0569808,-7.28441,6.52032,-0.0841236,-0.000725087,-0.00398746,4,0,41.32122600460042,-91.75502302963972,9036.242298350406,109.74314709688878,-0.2468782926976563,-5.856464744562004,201.502,9126.688510607357,11112.197839541188,150,True,11.42083676894986,False,25.692731126641302,160.86990240680737,False,173.3988291998202,False,False
1,1970-07-23 11:27:27.325416315,2025-09-16,2025-09-26 17:45:32.541,AA,D,2545783852,JASSM,3,124,76,2,2,1,225,9,2,0,1,26,0,0,0,0,-167452.02127249664,-4793275.799775924,4194931.224089146,-2.29541,0.0352816,-0.0793835,90.0,3.125,7.125,0.0,0.0,0.0,0.0,0.0,0.0,2,0,41.36482943972348,-92.00080159448858,9999.999710277025,83.93105012965718,-0.0041950529215975,0.0075113061378989,,9126.688510607357,11112.197839541188,150,1,2025-09-16,2025-09-26 17:45:32.373,AA,D,2937798912,AMBUSH51,1,1,48,2,1,1,225,2,1,0,0,9,1,225,2,1,-146886.68906683946,-4796953.243519172,4191074.242192285,-2.47455,-0.254152,0.255697,116.992,-30.7805,-31.4737,-0.0697709,-7.47347,6.35776,-0.0303091,-0.0070605,-0.0110261,4,0,41.32092245011478,-91.75389628093016,9034.926827715297,109.3639643770574,-0.3392302356704687,-8.86477477941098,201.356,9126.688510607357,11112.197839541188,150,True,11.426237307377477,False,25.300871150988197,160.75576970041203,False,173.90294445687988,False,False
1,1970-07-23 11:27:27.336826615,2025-09-16,2025-09-26 17:45:33.682,AA,D,2547036952,JASSM,3,124,76,2,2,1,225,9,2,0,1,26,0,0,0,0,-167357.4406755728,-4793272.462861861,4194938.761198521,-2.29541,0.0352816,-0.0793835,90.0,3.125,7.125,0.0,0.0,0.0,0.0,0.0,0.0,2,0,41.36491981699625,-91.99967380629587,10000.001089025583,83.9317954305824,-0.0033438181705775,0.0075116941284242,,9126.688510607357,11112.197839541188,150,1,2025-09-16,2025-09-26 17:45:33.772,AA,D,2939469110,AMBUSH51,1,1,48,2,1,1,225,2,1,0,0,9,1,225,2,1,-146722.44713929875,-4796995.417489958,4191031.0107249194,-2.50777,-0.236745,0.24161,117.538,-29.2708,-30.0367,-0.156688,-7.56664,6.31591,-0.00511306,0.00584127,-0.0155202,4,0,41.32040958045566,-91.75192098477402,9032.765380808958,108.11623339356638,-0.4985933130692139,-11.004968372880349,201.026,9126.688510607357,11112.197839541188,150,False,11.471733633187181,False,24.322645854002012,160.6255134704786,False,175.01681041096742,False,False
1,1970-07-23 11:27:27.349966051,2025-09-16,2025-09-26 17:45:34.996,AA,D,2548231860,JASSM,3,124,76,2,2,1,225,9,2,0,1,26,0,0,0,0,-167267.25213797516,-4793269.279268111,4194945.947721958,-2.29541,0.0352816,-0.0793835,90.0,3.125,7.125,0.0,0.0,0.0,0.0,0.0,0.0,2,0,41.36500599289133,-91.99859838721916,10000.00142114537,83.93250612452849,-0.002532112299031,0.0075120698707591,,9126.688510607357,11112.197839541188,150,1,2025-09-16,2025-09-26 17:45:34.906,AA,D,2940821174,AMBUSH51,1,1,48,2,1,1,225,2,1,0,0,9,1,225,2,1,-146588.28435609955,-4797028.173220779,4190997.623736684,-2.47982,-0.22431,0.225676,117.861,-28.1237,-28.4486,-0.20163,-7.66457,6.26631,0.0531249,0.000462932,-0.0255715,4,0,41.320013703407525,-91.75030808347182,9031.012564112943,106.97609123905308,-0.3895163676602496,-9.559538090041077,200.586,9126.688510607357,11112.197839541188,150,True,11.502012878730126,False,23.42520971380339,160.51489505012398,False,176.0087848095124,False,False
1,1970-07-23 11:27:27.357342557,2025-09-16,2025-09-26 17:45:35.734,AA,D,2549542520,JASSM,3,124,76,2,2,1,225,9,2,0,1,26,0,0,0,0,-167168.32702811187,-4793265.786104049,4194953.828581333,-2.29541,0.0352816,-0.0793835,90.0,3.125,7.125,0.0,0.0,0.0,0.0,0.0,0.0,2,0,41.365100499765816,-91.99741878942004,9999.999779096508,83.93328566670027,-0.0016417773447568,0.0075124767065682,,9126.688510607357,11112.197839541188,150,1,2025-09-16,2025-09-26 17:45:35.606,AA,D,2941656274,AMBUSH51,1,1,48,2,1,1,225,2,1,0,0,9,1,225,2,1,-146505.74162300126,-4797047.711374817,4190977.7645800295,-2.44616,-0.212167,0.219046,117.931,-27.4077,-27.8705,-0.197366,-7.51205,5.88881,0.0268345,-0.00157189,-0.0100025,4,0,41.31977839167133,-91.74931599054123,9029.902924405254,106.23840408915326,-0.6331146377953916,-7.7774362314484815,200.439,9126.688510607357,11112.197839541188,150,True,11.498453557500834,False,23.02051276595353,160.4103104548358,False,176.52426081719554,False,False
1,1970-07-23 11:27:27.369193159,2025-09-16,2025-09-26 17:45:36.919,AA,D,2550854300,JASSM,3,124,76,2,2,1,225,9,2,0,1,26,0,0,0,0,-167069.31714041656,-4793262.289033736,4194961.715300083,-2.29541,0.0352816,-0.0793835,90.0,3.125,7.125,0.0,0.0,0.0,0.0,0.0,0.0,2,0,41.36519507490705,-91.99623817767952,9999.999019503315,83.93406588040789,-0.000750679745678,0.00751288326182,,9126.688510607357,11112.197839541188,150,1,2025-09-16,2025-09-26 17:45:37.006,AA,D,2943326472,AMBUSH51,1,1,48,2,1,1,225,2,1,0,0,9,1,225,2,1,-146341.43969110434,-4797085.497705655,4190940.041670077,-2.33211,-0.208446,0.204915,117.777,-29.0812,-25.0744,-0.213798,-7.99207,6.49341,0.0952236,-0.00198801,-0.0112591,4,0,41.31932875057702,-91.74734164509124,9028.899545948429,105.50097649523217,-0.2400378738816151,-1.282214271224042,199.632,9126.688510607357,11112.197839541188,150,True,11.540912034774514,False,22.61220063526425,160.29642620608996,False,176.5339437546989,False,False
1,1970-07-23 11:27:27.379999550,2025-09-16,2025-09-26 17:45:37.999,AA,D,2552167230,JASSM,3,124,76,2,2,1,225,9,2,0,1,26,0,0,0,0,-166970.22058279935,-4793258.788057174,4194969.607878208,-2.29541,0.0352816,-0.0792876,90.0,3.125,7.125,0.0,0.0,0.0,0.0,0.0,0.0,2,0,41.36528971867562,-91.99505652939963,9999.998993195284,83.93895934954487,-0.0035004779248061,0.0075131675736533,,9126.688510607357,11112.197839541188,150,1,2025-09-16,2025-09-26 17:45:38.172,AA,D,2944718304,AMBUSH51,1,1,48,2,1,1,225,2,1,0,0,9,1,225,2,1,-146204.38298641707,-4797116.29053837,4190908.787649351,-2.24989,-0.213122,0.208048,117.253,-26.9058,-26.672,-0.271686,-7.5625,6.21068,0.0714029,-0.00176122,0.0149605,4,0,41.31895940993937,-91.74569497902208,9026.744751288788,105.81138770857643,-0.1659464415147196,3.4821995031360355,198.777,9126.688510607357,11112.197839541188,150,True,11.567891585327116,False,22.571717582774447,160.18867922057493,False,177.14655958600346,False,False
1,1970-07-23 11:27:27.389466443,2025-09-16,2025-09-26 17:45:38.946,AA,D,2553362070,JASSM,3,124,76,2,2,1,225,9,2,0,1,26,0,0,0,0,-166880.0371111197,-4793255.600557174,4194976.790495396,-2.29541,0.0353774,-0.0792876,90.0,3.125,7.125,0.0,0.0,0.0,0.0,0.0,0.0,2,0,41.3653758472035,-91.99398116025029,9999.999743343866,83.9360397655187,-0.0067884539502914,0.0079489874002368,,9126.688510607357,11112.197839541188,150,1,2025-09-16,2025-09-26 17:45:38.939,AA,D,2945632936,AMBUSH51,1,1,48,2,1,1,225,2,1,0,0,9,1,225,2,1,-146114.62059119297,-4797136.957886162,4190888.2778667673,-2.2142,-0.217391,0.208925,116.887,-27.4461,-26.8789,-0.0825255,-7.42816,6.31111,0.0369212,0.00501735,0.00195264,4,0,41.31871425948626,-91.74461635792576,9026.483320392716,106.01061765582725,-0.0223702758868595,5.577494108147456,198.557,9126.688510607357,11112.197839541188,150,True,11.572811808482788,False,22.849114019390363,160.09447247428255,False,176.93654179582174,False,False
1,1970-07-23 11:27:27.399444687,2025-09-16,2025-09-26 17:45:39.944,AA,D,2554612462,JASSM,3,124,76,2,2,1,225,9,2,0,1,26,0,0,0,0,-166785.66064627594,-4793252.264619674,4194984.305143833,-2.29541,0.0353774,-0.0792876,90.0,3.125,7.125,0.0,0.0,0.0,0.0,0.0,0.0,2,0,41.36546595789345,-91.99285578991623,10000.000290896169,83.93678347663241,-0.0059390589370761,0.007949376851431,,9126.688510607357,11112.197839541188,150,1,2025-09-16,2025-09-26 17:45:39.939,AA,D,2946825936,AMBUSH51,1,1,48,2,1,1,225,2,1,0,0,9,1,225,2,1,-145997.97568199827,-4797164.67812407,4190860.887061546,-2.21232,-0.223624,0.216058,116.431,-28.1775,-27.5609,-0.192569,-7.34024,6.29494,-0.042957,-0.00204418,0.00828597,4,0,41.31838555417805,-91.74321440422644,9026.676728277142,106.54868157862931,-0.0397817312593465,5.760018894779694,198.105,9126.688510607357,11112.197839541188,150,True,11.590980379499062,False,23.355545842637426,159.99021032584852,False,176.5342642390411,False,False
1,1970-07-23 11:27:27.410466609,2025-09-16,2025-09-26 17:45:41.046,AA,D,2555866836,JASSM,3,124,76,2,2,1,225,9,2,0,1,26,0,0,0,0,-166690.9835222525,-4793248.915986861,4194991.843229771,-2.29541,0.0353774,-0.0792876,90.0,3.125,7.125,0.0,0.0,0.0,0.0,0.0,0.0,2,0,41.36555635349318,-91.99172683218038,9999.99929228184,83.93752955985258,-0.0050869576840197,0.0079497764186702,,9126.688510607357,11112.197839541188,150,1,2025-09-16,2025-09-26 17:45:41.039,AA,D,2948138234,AMBUSH51,1,1,48,2,1,1,225,2,1,0,0,9,1,225,2,1,-145870.23777124562,-4797195.489133537,4190830.385443338,-2.25624,-0.236776,0.222848,116.078,-28.7347,-28.0951,-0.20337,-7.32254,6.71336,-0.0285863,0.00574764,0.00753487,4,0,41.3180194493701,-91.74167897514026,9026.921088411817,107.33389679472036,0.2394756588625304,3.4089705428894272,198.142,9126.688510607357,11112.197839541188,150,True,11.615413191419345,False,23.747792386178844,159.882630903073,False,176.24973518951379,False,False
1,1970-07-23 11:27:27.421946143,2025-09-16,2025-09-26 17:45:42.194,AA,D,2557059884,JASSM,3,124,76,2,2,1,225,9,2,0,1,26,0,0,0,0,-166600.93530447906,-4793245.730439986,4194999.012175083,-2.29541,0.0353774,-0.0792876,90.0,3.125,7.125,0.0,0.0,0.0,0.0,0.0,0.0,2,0,41.365642319005545,-91.99065306824112,9999.999801236809,83.93823916893575,-0.0042765171696548,0.0079501561996547,,9126.688510607357,11112.197839541188,150,1,2025-09-16,2025-09-26 17:45:42.273,AA,D,2949609598,AMBUSH51,1,1,48,2,1,1,225,2,1,0,0,9,1,225,2,1,-145726.70120073765,-4797231.372792181,4190795.119186199,-2.32614,-0.239434,0.227036,115.897,-29.2542,-28.4623,-0.0515897,-6.95404,6.44957,-0.0504617,0.00247695,-0.0103936,4,0,41.317593837936855,-91.73995320689004,9028.165737361964,107.61209000927722,0.1872408162821368,-0.5606179240735886,198.337,9126.688510607357,11112.197839541188,150,True,11.651418910690396,False,24.04756836268929,159.77333782854504,False,176.0487709478618,False,False
1,1970-07-23 11:27:27.430383798,2025-09-16,2025-09-26 17:45:43.038,AA,D,2558251188,JASSM,3,124,76,2,2,1,225,9,2,0,1,26,0,0,0,0,-166511.01843436187,-4793242.548799361,4195006.169401646,-2.29541,0.0353774,-0.0792876,90.0,3.125,7.125,0.0,0.0,0.0,0.0,0.0,0.0,2,0,41.36572814500475,-91.98958086802077,9999.999937274686,83.93894774582958,-0.0034672594705218,0.0079505313133595,,9126.688510607357,11112.197839541188,150,1,2025-09-16,2025-09-26 17:45:43.040,AA,D,2950524232,AMBUSH51,1,1,48,2,1,1,225,2,1,0,0,9,1,225,2,1,-145637.61761094604,-4797253.552874454,4190773.2313701264,-2.37805,-0.239022,0.226035,116.076,-28.8701,-28.6374,-0.0287631,-7.35045,6.69714,-0.0717337,0.00365873,-0.00697727,4,0,41.31733021117778,-91.73888218165789,9028.720382404905,107.5550463400646,0.2101166993717496,-3.5403993667567883,198.41,9126.688510607357,11112.197839541188,150,True,11.656558852849312,False,23.968139682308788,159.6746036305636,False,176.26461779393568,False,False
1,1970-07-23 11:27:27.439421012,2025-09-16,2025-09-26 17:45:43.942,AA,D,2559446050,JASSM,3,124,76,2,2,1,225,9,2,0,1,26,0,0,0,0,-166420.8331316275,-4793239.356416549,4195013.347136021,-2.29541,0.0353774,-0.0792876,90.0,3.125,7.125,0.0,0.0,0.0,0.0,0.0,0.0,2,0,41.36581421878048,-91.98850546460147,9999.9993515406,83.93965844081333,-0.002655586089375,0.0079509091327896,,9126.688510607357,11112.197839541188,150,1,2025-09-16,2025-09-26 17:45:43.872,AA,D,2951518396,AMBUSH51,1,1,48,2,1,1,225,2,1,0,0,9,1,225,2,1,-145540.57353139785,-4797277.486351823,4190749.719255534,-2.41447,-0.233106,0.221003,116.411,-28.8568,-27.9406,-0.111763,-7.24012,6.56051,-0.0196065,-0.00711876,-0.0158677,4,0,41.3170466147759,-91.737715542496,9029.48498362719,107.11976339533992,0.1634105802376999,-5.7038184734444055,198.74,9126.688510607357,11112.197839541188,150,True,11.666066706315753,False,23.681051123660815,159.5753702780251,False,176.59078854375994,False,False
1,1970-07-23 11:27:27.449461379,2025-09-16,2025-09-26 17:45:44.946,AA,D,2560579914,JASSM,3,124,76,2,2,1,225,9,2,0,1,26,0,0,0,0,-166335.25171072906,-4793236.326143111,4195020.157682896,-2.29541,0.0353774,-0.0792876,90.0,3.25,7.125,0.0,0.0,0.0,0.0,0.0,0.0,2,0,41.36589588917301,-91.98748495733336,9999.998902336332,83.9403328580547,-0.0018853482207531,0.007951267561018,,9126.688510607357,11112.197839541188,150,1,2025-09-16,2025-09-26 17:45:44.939,AA,D,2952790928,AMBUSH51,1,1,48,2,1,1,225,2,1,0,0,9,1,225,2,1,-145416.80842202014,-4797307.462386904,4190720.18517992,-2.46565,-0.222477,0.218243,116.96,-28.0238,-27.3873,-0.0305096,-7.1583,6.47477,-0.0542068,0.00618249,-0.0120082,4,0,41.31669122104837,-91.73622788276278,9030.098698784084,106.6022547853932,-0.1661797431072545,-8.76906298982873,198.667,9126.688510607357,11112.197839541188,150,True,11.693011261854375,False,23.227219009184804,159.42843548999895,False,177.2058154113279,False,False
1,1970-07-23 11:27:27.459936373,2025-09-16,2025-09-26 17:45:45.993,AA,D,2561770676,JASSM,3,124,76,2,2,1,225,9,2,0,1,26,0,0,0,0,-166245.37573416656,-4793233.143525924,4195027.309050083,-2.29541,0.0353774,-0.0792876,90.0,3.25,7.125,0.0,0.0,0.0,0.0,0.0,0.0,2,0,41.36598164344961,-91.98641323742656,9999.999779392894,83.94104112110222,-0.0010764596880642,0.0079516393045065,,9126.688510607357,11112.197839541188,150,1,2025-09-16,2025-09-26 17:45:46.072,AA,D,2954142994,AMBUSH51,1,1,48,2,1,1,225,2,1,0,0,9,1,225,2,1,-145282.8742778618,-4797338.567211328,4190689.485517101,-2.52489,-0.211196,0.210826,117.797,-26.8555,-26.1701,-0.141392,-7.2317,6.43092,-0.04381,-0.00179243,-0.0178671,4,0,41.31632305371992,-91.73461849139268,9030.218158422344,105.8634960032324,-0.3442670272183862,-12.297711401823474,199.046,9126.688510607357,11112.197839541188,150,False,11.723317792038811,False,22.363652892432537,159.33091287883968,False,178.12254150404272,False,False
1,1970-07-23 11:27:27.469382544,2025-09-16,2025-09-26 17:45:46.938,AA,D,2562904688,JASSM,3,124,76,2,2,1,225,9,2,0,1,26,0,0,0,0,-166159.78308279935,-4793230.111299361,4195034.119596958,-2.29541,0.0353774,-0.0792876,90.0,3.25,7.125,0.0,0.0,0.0,0.0,0.0,0.0,2,0,41.36606330921028,-91.98539259165358,10000.001333757487,83.94171563212468,-0.0003061209091841,0.0079520009516761,,9126.688510607357,11112.197839541188,150,1,2025-09-16,2025-09-26 17:45:47.040,AA,D,2955296226,AMBUSH51,1,1,48,2,1,1,225,2,1,0,0,9,1,225,2,1,-145169.44173451906,-4797363.784706248,4190664.854213284,-2.55651,-0.190093,0.203021,118.375,-27.4406,-23.9104,0.0454515,-6.77988,6.13966,-0.0273733,-0.0107993,-0.0278103,4,0,41.31602716787943,-91.73325587394578,9030.519329516994,104.7377344217196,-0.9184577829173018,-14.345147846125146,199.412,9126.688510607357,11112.197839541188,150,False,11.743968568460984,False,21.713822535413826,159.24434272226546,False,178.08227634509456,False,False
1,1970-07-23 11:27:27.479937830,2025-09-16,2025-09-26 17:45:47.993,AA,D,2564097118,JASSM,3,124,76,2,2,1,225,9,2,0,1,26,0,0,0,0,-166069.7812517447,-4793226.921846236,4195041.279753208,-2.29541,0.0354733,-0.0791918,90.0,3.25,7.125,0.0,0.0,0.0,0.0,0.0,0.0,2,0,41.36614916991542,-91.98431936648502,10000.00187337155,83.94290712416469,-0.0072374451098356,0.0083871732349426,,9126.688510607357,11112.197839541188,150,1,2025-09-16,2025-09-26 17:45:47.905,AA,D,2956330158,AMBUSH51,1,1,48,2,1,1,225,2,1,0,0,9,1,225,2,1,-145065.29195211787,-4797384.719078439,4190643.143948542,-2.56497,-0.183198,0.188608,119.44,-23.7617,-23.9381,-0.153567,-7.43428,6.76232,-0.0285156,0.00475312,-0.0140659,4,0,41.31577478368177,-91.73200557809172,9027.296602131695,103.86593241232336,-0.651367200483194,-14.894554321952748,199.852,9126.688510607357,11112.197839541188,150,False,11.756863846893186,False,20.505037429277934,159.1597230544617,False,179.51035800373265,False,False
1,1970-07-23 11:27:27.488464128,2025-09-16,2025-09-26 17:45:48.846,AA,D,2565290270,JASSM,3,124,76,2,2,1,225,9,2,0,1,26,0,0,0,0,-165979.7248552603,-4793223.729463424,4195048.442839146,-2.29551,0.0354733,-0.0791918,90.0,3.25,7.125,0.0,0.0,0.0,0.0,0.0,0.0,2,0,41.36623506904441,-91.98324548823992,10000.00109649022,83.9436168171121,-0.0064269336319059,0.002896082698911,,9126.688510607357,11112.197839541188,150,1,2025-09-16,2025-09-26 17:45:48.772,AA,D,2957364090,AMBUSH51,1,1,48,2,1,1,225,2,1,0,0,9,1,225,2,1,-144960.97143793636,-4797404.700145328,4190622.958212888,-2.56845,-0.171153,0.177391,120.201,-22.3524,-22.4853,-0.173826,-7.48995,6.56187,-0.012547,0.00652787,-0.0163587,4,0,41.315538384171134,-91.7307535980104,9025.021323559213,102.93501206407754,-0.7245452025299921,-15.208840271960131,200.085,9126.688510607357,11112.197839541188,150,False,11.769582888937432,False,19.514821696023667,159.07985537424207,False,178.5687787133081,False,False
1,1970-07-23 11:27:27.498343258,2025-09-16,2025-09-26 17:45:49.834,AA,D,2566425684,JASSM,3,124,76,2,2,1,225,9,2,0,1,26,0,0,0,0,-165894.0263689322,-4793220.690400924,4195055.259245396,-2.29551,0.0354733,-0.0791918,90.0,3.25,7.125,0.0,0.0,0.0,0.0,0.0,0.0,2,0,41.366316808689824,-91.98222357378802,10000.001281972529,83.94429216992071,-0.0056556432123212,0.0028964523167182,,9126.688510607357,11112.197839541188,150,1,2025-09-16,2025-09-26 17:45:49.872,AA,D,2958676390,AMBUSH51,1,1,48,2,1,1,225,2,1,0,0,9,1,225,2,1,-144828.60151223833,-4797428.2330061095,4190599.1437789225,-2.55226,-0.154487,0.160134,120.623,-20.5394,-20.6228,-0.228536,-7.69912,6.35786,0.0326497,0.0070709,-0.0355085,4,0,41.315261375695485,-91.72916565745032,9021.554685472676,101.57135225874455,-0.764087133130667,-14.423834941038916,199.632,9126.688510607357,11112.197839541188,150,False,11.799762871796224,False,18.308643007222603,159.01199417836847,False,177.31589439569095,False,False
1,1970-07-23 11:27:27.509937173,2025-09-16,2025-09-26 17:45:50.993,AA,D,2567676640,JASSM,3,124,76,2,2,1,225,9,2,0,1,26,0,0,0,0,-165799.60681326812,-4793217.341768111,4195062.768034458,-2.29551,0.0354733,-0.0791918,90.0,3.25,7.125,0.0,0.0,0.0,0.0,0.0,0.0,2,0,41.36640684913385,-91.98109766181796,10000.002355462384,83.94503625286303,-0.0048058635902216,0.0028968526638434,,9126.688510607357,11112.197839541188,150,1,2025-09-16,2025-09-26 17:45:50.840,AA,D,2959829622,AMBUSH51,1,1,48,2,1,1,225,2,1,0,0,9,1,225,2,1,-144711.83415361066,-4797447.335276313,4190580.024769244,-2.52724,-0.143892,0.143537,120.852,-19.3466,-18.7581,-0.223935,-7.97203,6.51135,0.0269655,0.0100399,-0.0153725,4,0,41.31503960562312,-91.72776549596188,9018.514161299216,100.46331027990487,-0.57709012661653,-13.068771123473423,199.156,9126.688510607357,11112.197839541188,150,False,11.816539943494337,False,17.294893944820807,158.94101495214542,False,176.22489938242404,False,False
1,1970-07-23 11:27:27.519934063,2025-09-16,2025-09-26 17:45:51.993,AA,D,2568869974,JASSM,3,124,76,2,2,1,225,9,2,0,1,26,0,0,0,0,-165709.53674490875,-4793214.145479049,4195069.929167271,-2.29551,0.0354733,-0.0791918,90.0,3.25,7.125,0.0,0.0,0.0,0.0,0.0,0.0,2,0,41.36649273103279,-91.98002361348156,9999.999154725368,83.94574606185984,-0.0039952301770769,0.0028972340784853,,9126.688510607357,11112.197839541188,150,1,2025-09-16,2025-09-26 17:45:52.007,AA,D,2961221454,AMBUSH51,1,1,48,2,1,1,225,2,1,0,0,9,1,225,2,1,-144571.79626931346,-4797468.447061716,4190559.4018680686,-2.50137,-0.130503,0.132598,121.024,-17.4678,-17.0555,-0.147951,-7.66796,6.12875,0.0254717,0.0023646,-0.0290295,4,0,41.31479988237765,-91.7260869550537,9015.445817688464,99.4909579563381,-0.7264836020792679,-11.68139581558897,198.814,9126.688510607357,11112.197839541188,150,False,11.84790480983278,False,16.141240983795022,158.88526405255823,False,175.0256453487946,False,False
