Subject_cm,Timestamp,SampleDate_cm,SampleTime_cm,Configuration_cm,Scenario_cm,DisTime_cm,MarkingTxt_cm,Application_cm,EntId_cm,Site_cm,ExerciseId_cm,ForceId_cm,Category_cm,Country_cm,Domain_cm,Kind_cm,Extra_cm,Specific_cm,Subcategory_cm,AltCategory_cm,AltCountry_cm,AltDomain_cm,AltKind_cm,ECEF_X_cm,ECEF_Y_cm,ECEF_Z_cm,OriPhi_cm,OriPsi_cm,OriTheta_cm,LinVelX_cm,LinVelY_cm,LinVelZ_cm,LinAccX_cm,LinAccY_cm,LinAccZ_cm,AngVelX_cm,AngVelY_cm,AngVelZ_cm,DrAlg_cm,Appearance_cm,Latitude_cm,Longitude_cm,Altitude_cm,Heading_cm,Pitch_cm,Roll_cm,CalibratedAirspeed_cm,CM_Altitude_Lead_cm,CM_Altitude_Wing_cm,CM_Airspeed_cm,Subject_ac,SampleDate_ac,SampleTime_ac,Configuration_ac,Scenario_ac,DisTime_ac,MarkingTxt_ac,Application_ac,EntId_ac,Site_ac,ExerciseId_ac,ForceId_ac,Category_ac,Country_ac,Domain_ac,Kind_ac,Extra_ac,Specific_ac,Subcategory_ac,AltCategory_ac,AltCountry_ac,AltDomain_ac,AltKind_ac,ECEF_X_ac,ECEF_Y_ac,ECEF_Z_ac,OriPhi_ac,OriPsi_ac,OriTheta_ac,LinVelX_ac,LinVelY_ac,LinVelZ_ac,LinAccX_ac,LinAccY_ac,LinAccZ_ac,AngVelX_ac,AngVelY_ac,AngVelZ_ac,DrAlg_ac,Appearance_ac,Latitude_ac,Longitude_ac,Altitude_ac,Heading_ac,Pitch_ac,Roll_ac,CalibratedAirspeed_ac,CM_Altitude_Lead_ac,CM_Altitude_Wing_ac,CM_Airspeed_ac,Bank_Angle_Condition,distance_nm,Distance_Condition,angle_between_vel,angle_between_pos,Cone_Condition,angle_between_pos_nose,Nose_Cone_Condition,Intercept_Criteria
1,1970-07-23 10:27:38.408261118,2025-09-12,2025-09-26 14:04:00.826,HH,C,1572671368,JASSM,3,101,76,2,2,1,225,9,2,0,1,26,0,0,0,0,-155737.68884451812,-4777403.618135299,4213782.065886021,-2.71093,-1.01118,0.751842,35.125,-56.0,-61.75,0.0,0.0,0.0,0.0,0.0,0.0,2,0,41.58883960301532,-91.86711322646876,10997.37475085598,155.9383327968709,-0.0041250432942305,-0.0006568359573263,,9720.794529171932,12053.737931086003,150,1,2025-09-12,2025-09-26 14:04:00.923,HH,C,3574615352,HAWK11,1,1,73,2,1,1,225,2,1,0,0,12,1,225,2,1,-143824.82458670562,-4792357.094697799,4197790.638151646,2.33827,2.74496,-0.437472,-100.125,32.75,33.375,-0.046875,-6.73438,7.0,0.00976562,0.00976562,0.00195312,4,0,41.39416221405153,-91.71900436120607,12053.191488636345,-57.79976079338032,2.0941881564222715,-1.536730647262869,181.265,9720.794529171932,12053.737931086003,150,True,13.439238616081898,False,137.85595103496306,174.24282081436039,False,36.42560970133516,False,False
1,1970-07-23 10:27:38.419777879,2025-09-12,2025-09-26 14:04:01.977,HH,C,1574043150,JASSM,3,101,76,2,2,1,225,9,2,0,1,26,0,0,0,0,-155697.28454764312,-4777468.133760299,4213710.894011021,-2.71093,-1.01118,0.751842,35.125,-56.0,-61.75,0.0,0.0,0.0,0.0,0.0,0.0,2,0,41.58798326821479,-91.86660397940652,10997.378477173052,155.93867082240092,-0.003187824630558,-0.0006581913126425,,9720.794529171932,12053.737931086003,150,1,2025-09-12,2025-09-26 14:04:02.126,HH,C,3575967416,HAWK11,1,1,73,2,1,1,225,2,1,0,0,12,1,225,2,1,-143939.30310233062,-4792319.516572799,4197828.628386021,2.34325,2.74621,-0.438814,-100.5,32.75,33.5,-0.078125,-6.85938,7.0625,0.0117188,0.00976562,-0.0078125,4,0,41.39462173522787,-91.72038527640431,12051.617718802696,-57.792866462288856,2.1954804894456106,-1.2203298606703052,181.461,9720.794529171932,12053.737931086003,150,True,13.328756907950023,False,137.81821044072413,174.39106213933974,False,36.61395785892824,False,False
1,1970-07-23 10:27:38.430322079,2025-09-12,2025-09-26 14:04:03.032,HH,C,1575295848,JASSM,3,101,76,2,2,1,225,9,2,0,1,26,0,0,0,0,-155660.38708670562,-4777527.047822799,4213645.894011021,-2.71093,-1.01118,0.751842,35.125,-56.0,-61.75,0.0,0.0,0.0,0.0,0.0,0.0,2,0,41.5872012314998,-91.86613894429412,10997.370079778126,155.93897949614686,-0.0023319285637606,-0.0006594394729699,,9720.794529171932,12053.737931086003,150,1,2025-09-12,2025-09-26 14:04:03.130,HH,C,3576961582,HAWK11,1,1,73,2,1,1,225,2,1,0,0,12,1,225,2,1,-144023.16247733062,-4792291.907197799,4197856.741667271,2.3492,2.74515,-0.438719,-100.75,32.25,34.25,-0.203125,-6.9375,7.0625,-0.00195312,-0.00390625,0.0,4,0,41.39496074620292,-91.72139688533431,12050.88448730014,-57.7583500992652,2.154042233138324,-0.9039777355332832,181.546,9720.794529171932,12053.737931086003,150,True,13.23764813188518,False,137.8723599763016,174.49659343793294,False,36.675503931762435,False,False
1,1970-07-23 10:27:38.441179360,2025-09-12,2025-09-26 14:04:04.117,HH,C,1576608198,JASSM,3,101,76,2,2,1,225,9,2,0,1,26,0,0,0,0,-155621.73278983062,-4777588.768525924,4213577.804167271,-2.71083,-1.01118,0.751842,35.125,-56.0,-61.75,0.0,0.0,0.0,0.0,0.0,0.0,2,0,41.586381981863234,-91.8656517784466,10997.381012494125,155.93930285437452,-0.0014353024811384,0.0048443960285954,,9720.794529171932,12053.737931086003,150,1,2025-09-12,2025-09-26 14:04:04.219,HH,C,3578472714,HAWK11,1,1,73,2,1,1,225,2,1,0,0,12,1,225,2,1,-144151.30114920562,-4792249.712861861,4197899.727995396,2.34833,2.74515,-0.441403,-101.25,33.0,34.125,-0.09375,-6.89062,7.17188,0.0,0.0,0.0,5,0,41.39547897776462,-91.72294266528704,12049.818424678217,-57.65148161883943,2.265004019302368,-0.9490736909362756,181.668,9720.794529171932,12053.737931086003,150,True,13.123058939552992,False,137.9510338293738,174.67064526534662,False,36.766325540245326,False,False
1,1970-07-23 10:27:38.451200785,2025-09-12,2025-09-26 14:04:05.120,HH,C,1577860898,JASSM,3,101,76,2,2,1,225,9,2,0,1,26,0,0,0,0,-155584.83630545562,-4777647.680635299,4213512.804167271,-2.71083,-1.01118,0.751842,35.125,-56.0,-61.75,0.0,0.0,0.0,0.0,0.0,0.0,2,0,41.58559995254856,-91.86518677877542,10997.377453240682,155.9396114948376,-0.0005794204485214,0.0048431439981785,,9720.794529171932,12053.737931086003,150,1,2025-09-12,2025-09-26 14:04:05.327,HH,C,3579864546,HAWK11,1,1,73,2,1,1,225,2,1,0,0,12,1,225,2,1,-144269.76013358062,-4792210.576143111,4197940.407682896,2.49703,2.74362,-0.445717,-101.25,33.125,35.125,-0.328125,-7.20312,7.35938,0.175781,0.0078125,-0.00195312,4,0,41.3959651645487,-91.72437174455948,12050.563375622984,-57.42237549029134,2.386889174000869,7.542604718752888,181.962,9720.794529171932,12053.737931086003,150,True,13.01524984000684,False,138.33610731080935,174.83245032748388,False,36.55118778798728,False,False
1,1970-07-23 10:27:38.462220682,2025-09-12,2025-09-26 14:04:06.222,HH,C,1579173248,JASSM,3,101,76,2,2,1,225,9,2,0,1,26,0,0,0,0,-155546.18200858062,-4777709.397432174,4213444.706511021,-2.71083,-1.01118,0.751842,35.125,-56.0,-61.75,0.0,0.0,0.0,0.0,0.0,0.0,2,0,41.58478066938381,-91.86469963852504,10997.371797658892,155.9399348258523,0.0003172321421679,0.0048418340187709,,9720.794529171932,12053.737931086003,150,1,2025-09-12,2025-09-26 14:04:06.175,HH,C,3580301978,HAWK11,1,1,73,2,1,1,225,2,1,0,0,12,1,225,2,1,-144306.22693045562,-4792198.498018111,4197953.083464146,2.55216,2.74391,-0.450319,-101.125,33.5,35.625,-0.25,-7.26562,7.375,0.142578,0.0136719,0.0078125,4,0,41.39611604118471,-91.724811692057,12051.051842351362,-57.24834779706633,2.5857798963420087,10.7159206822334,182.157,9720.794529171932,12053.737931086003,150,False,12.944202055538451,False,138.6503311660457,174.86749460488767,False,36.27357215238894,False,False
1,1970-07-23 10:27:38.473258488,2025-09-12,2025-09-26 14:04:07.325,HH,C,1580485584,JASSM,3,101,76,2,2,1,225,9,2,0,1,26,0,0,0,0,-155507.52771170562,-4777771.112275924,4213376.612761021,-2.71083,-1.01118,0.751842,35.125,-56.0,-61.75,0.0,0.0,0.0,0.0,0.0,0.0,2,0,41.583961421990566,-91.86421251135182,10997.374976713934,155.94025814295705,0.0012138499736229,0.0048405389729334,,9720.794529171932,12053.737931086003,150,1,2025-09-12,2025-09-26 14:04:07.222,HH,C,3582131244,HAWK11,1,1,73,2,1,1,225,2,1,0,0,12,1,225,2,1,-144459.95544608062,-4792144.927705611,4198009.952604771,2.73269,2.70192,-0.488094,-99.0,35.875,38.625,-0.3125,-7.34375,7.42188,0.105469,0.0195312,0.0351562,4,0,41.396791017826125,-91.72666730156604,12054.04014217895,-54.199395366469474,2.6524341963705846,20.110935379669183,182.328,9720.794529171932,12053.737931086003,150,False,12.814936000608943,False,140.8801476143788,175.08207507349437,False,34.26468726664806,False,False
1,1970-07-23 10:27:38.484280799,2025-09-12,2025-09-26 14:04:08.428,HH,C,1581797950,JASSM,3,101,76,2,2,1,225,9,2,0,1,26,0,0,0,0,-155468.87341483062,-4777832.827119674,4213308.515104771,-2.71083,-1.01118,0.751938,35.125,-56.0,-61.75,0.0,0.0,0.0,0.0,0.0,0.0,2,0,41.58314214612328,-91.86372539649336,10997.374768501611,155.94287405755577,-0.0028795181800532,0.0048392178026501,,9720.794529171932,12053.737931086003,150,1,2025-09-12,2025-09-26 14:04:08.327,HH,C,3583364008,HAWK11,1,1,73,2,1,1,225,2,1,0,0,12,1,225,2,1,-144562.00818045562,-4792106.001924361,4198051.462370396,2.79204,2.67277,-0.507844,-96.75,38.375,41.125,-0.3125,-7.20312,7.29688,0.015625,0.00585938,0.0332031,4,0,41.39728445075679,-91.72790038147326,12055.910507780234,-52.35423764260744,2.4745504084000367,22.79621412387635,182.573,9720.794529171932,12053.737931086003,150,False,12.708797968963816,False,143.01705510631126,175.21429293957186,False,32.26058635430618,False,False
1,1970-07-23 10:27:38.495320744,2025-09-12,2025-09-26 14:04:09.532,HH,C,1583110302,JASSM,3,101,76,2,2,1,225,9,2,0,1,26,0,0,0,0,-155430.21911795562,-4777894.540010299,4213240.417448521,-2.71083,-1.01109,0.751938,35.125,-56.0,-61.75,0.0,0.0,0.0,0.0,0.0,0.0,2,0,41.58232287973446,-91.8632382947104,10997.374888623282,155.93955286694006,-0.0036574520844981,0.0010871504235966,,9720.794529171932,12053.737931086003,150,1,2025-09-12,2025-09-26 14:04:09.625,HH,C,3584994440,HAWK11,1,1,73,2,1,1,225,2,1,0,0,12,1,225,2,1,-144693.83239920562,-4792049.796846236,4198110.796354771,2.83451,2.63787,-0.521266,-94.125,42.0,45.0,-0.1875,-7.46875,7.53125,0.00976562,0.00976562,0.03125,4,0,41.397995621684814,-91.7294953473022,12056.16358012621,-50.54978651972681,1.8710876226959927,24.314185477413044,182.609,9720.794529171932,12053.737931086003,150,False,12.58349804520744,False,146.02675285542733,175.38500674914215,False,29.423827211695805,True,False
1,1970-07-23 10:27:38.506298695,2025-09-12,2025-09-26 14:04:10.629,HH,C,1584363040,JASSM,3,101,76,2,2,1,225,9,2,0,1,26,0,0,0,0,-155393.32068045562,-4777953.450166549,4213175.409636021,-2.71083,-1.01109,0.751938,35.125,-56.0,-61.75,0.0,0.0,0.0,0.0,0.0,0.0,2,0,41.58154079955733,-91.8627733306452,10997.373580493908,155.93986145918075,-0.0028015255472576,0.0010858770365727,,9720.794529171932,12053.737931086003,150,1,2025-09-12,2025-09-26 14:04:10.720,HH,C,3586306740,HAWK11,1,1,73,2,1,1,225,2,1,0,0,12,1,225,2,1,-144796.65857108062,-4792001.014619674,4198162.288542271,2.81505,2.60815,-0.539865,-91.625,44.75,48.125,-0.1875,-7.54688,7.625,-0.0351562,0.015625,0.0429688,4,0,41.39861489646768,-91.73074126788252,12055.5194448717,-48.74362575153534,1.6968316603255609,22.39369049848424,182.695,9720.794529171932,12053.737931086003,150,False,12.47303631684208,False,148.49312700099273,175.50899491686377,False,27.084948578551966,True,False
1,1970-07-23 10:27:38.517156581,2025-09-12,2025-09-26 14:04:11.715,HH,C,1585675352,JASSM,3,101,76,2,2,1,225,9,2,0,1,26,0,0,0,0,-155354.66736014312,-4778015.159150924,4213107.311979771,-2.71083,-1.01109,0.751938,35.125,-56.0,-61.75,0.0,0.0,0.0,0.0,0.0,0.0,2,0,41.5807215520348,-91.86228626614928,10997.374202301467,155.94018471415563,-0.0019049192601646,0.0010845546725615,,9720.794529171932,12053.737931086003,150,1,2025-09-12,2025-09-26 14:04:11.719,HH,C,3587380438,HAWK11,1,1,73,2,1,1,225,2,1,0,0,12,1,225,2,1,-144878.80505545562,-4791958.828096236,4198207.163542271,2.80201,2.58715,-0.553767,-89.625,46.875,50.75,-0.09375,-7.54688,7.67188,-0.0195312,0.00976562,0.0371094,4,0,41.399153977048506,-91.73173779575244,12055.213196473876,-47.44543345312964,1.629010767377188,21.05885273346141,182.854,9720.794529171932,12053.737931086003,150,False,12.369739380315071,False,150.4720080410298,175.59935417166858,False,25.201745937685452,True,False
1,1970-07-23 10:27:38.527205701,2025-09-12,2025-09-26 14:04:12.720,HH,C,1586928066,JASSM,3,101,76,2,2,1,225,9,2,0,1,26,0,0,0,0,-155317.76989920562,-4778074.065400924,4213042.308073521,-2.71083,-1.01109,0.751938,35.125,-56.0,-61.75,0.0,0.0,0.0,0.0,0.0,0.0,2,0,41.57993951721237,-91.86182133827614,10997.381446747731,155.94049327261718,-0.0010490416443876,0.0010832923693872,,9720.794529171932,12053.737931086003,150,1,2025-09-12,2025-09-26 14:04:12.720,HH,C,3588692736,HAWK11,1,1,73,2,1,1,225,2,1,0,0,12,1,225,2,1,-144976.95349295562,-4791904.567354049,4198264.983854771,2.78283,2.56597,-0.5623,-87.375,49.375,53.5,0.09375,-7.3125,7.375,-0.0292969,0.0117188,0.0273438,4,0,41.39984937270741,-91.7329298604323,12054.488883057473,-46.343768969342136,1.3386514460053731,19.34601083075188,183.098,9720.794529171932,12053.737931086003,150,False,12.256498502540975,False,152.64734460687578,175.70729723512864,False,23.137404129646985,True,False
1,1970-07-23 10:27:38.538218135,2025-09-12,2025-09-26 14:04:13.821,HH,C,1588240402,JASSM,3,101,76,2,2,1,225,9,2,0,1,26,0,0,0,0,-155279.11560233062,-4778135.772432174,4212974.206511021,-2.71083,-1.01109,0.751938,35.125,-56.0,-61.75,0.0,0.0,0.0,0.0,0.0,0.0,2,0,41.57912025098179,-91.8613342869064,10997.37869914744,155.94081650865786,-0.0001524185799236,0.0010819715488014,,9720.794529171932,12053.737931086003,150,1,2025-09-12,2025-09-26 14:04:13.737,HH,C,3589368770,HAWK11,1,1,73,2,1,1,225,2,1,0,0,12,1,225,2,1,-145026.11169608062,-4791875.640596236,4198295.794401646,2.77162,2.55379,-0.571024,-86.25,50.625,54.875,-0.125,-7.59375,7.59375,-0.0351562,0.0136719,0.0351562,4,0,41.40022056406215,-91.73352755507428,12053.840403293014,-45.57179106966242,1.347551042424395,18.34696299158126,183.624,9720.794529171932,12053.737931086003,150,False,12.170586596373068,False,153.72609351835956,175.74933460378054,False,22.10248342965042,True,False
1,1970-07-23 10:27:38.551849405,2025-09-12,2025-09-26 14:04:15.184,HH,C,1589433490,JASSM,3,101,76,2,2,1,225,9,2,0,1,26,0,0,0,0,-155243.97400076812,-4778191.872041549,4212912.292448521,-2.71083,-1.01109,0.751938,35.125,-56.0,-61.75,0.0,0.0,0.0,0.0,0.0,0.0,2,0,41.57837542418288,-91.86089150676706,10997.37846708678,155.9411103591578,0.0006627327200577,0.0010807670384888,,9720.794529171932,12053.737931086003,150,1,2025-09-12,2025-09-26 14:04:15.125,HH,C,3591516168,HAWK11,1,1,73,2,1,1,225,2,1,0,0,12,1,225,2,1,-145178.06286795562,-4791781.098604049,4198398.554167271,2.70968,2.51621,-0.601992,-82.75,53.0,59.125,-0.15625,-7.51562,7.54688,-0.0449219,0.0175781,0.0253906,4,0,41.40144919742208,-91.73537696677742,12055.558285204255,-43.06200629990586,1.6002645557628494,13.671099716727923,184.357,9720.794529171932,12053.737931086003,150,False,12.017747694636748,False,156.66443169585435,175.91245001624543,False,19.356094991342484,True,False
1,1970-07-23 10:27:38.559274997,2025-09-12,2025-09-26 14:04:15.927,HH,C,1590686146,JASSM,3,101,76,2,2,1,225,9,2,0,1,26,0,0,0,0,-155207.07751639312,-4778250.772432174,4212847.284636021,-2.71083,-1.01109,0.752034,35.125,-56.0,-61.75,0.0,0.0,0.0,0.0,0.0,0.0,2,0,41.57759339189155,-91.86042662652464,10997.37690378479,155.94371323600635,-0.0034743641467888,0.0010794594373209,,9720.794529171932,12053.737931086003,150,1,2025-09-12,2025-09-26 14:04:16.126,HH,C,3592748932,HAWK11,1,1,73,2,1,1,225,2,1,0,0,12,1,225,2,1,-145263.52771170562,-4791724.385713424,4198461.394011021,2.679,2.49838,-0.619057,-81.125,54.0,61.25,-0.25,-7.53125,7.64062,-0.0253906,0.0136719,0.0175781,4,0,41.40219531047602,-91.73641847897616,12058.773253700603,-41.79983039666085,1.8532557843747304,11.365625548415888,185.726,9720.794529171932,12053.737931086003,150,False,11.905106487941296,False,158.02535400753536,175.99033991870837,False,18.095990271185762,True,False
1,1970-07-23 10:27:38.568313499,2025-09-12,2025-09-26 14:04:16.831,HH,C,1591819550,JASSM,3,101,76,2,2,1,225,9,2,0,1,26,0,0,0,0,-155173.69372733062,-4778304.063447799,4212788.464323521,-2.71083,-1.01109,0.752034,35.125,-56.0,-61.75,0.0,0.0,0.0,0.0,0.0,0.0,2,0,41.5768858112437,-91.86000601514348,10997.37176455844,155.94399236601976,-0.0026999808250648,0.0010783425529498,,9720.794529171932,12053.737931086003,150,1,2025-09-12,2025-09-26 14:04:16.719,HH,C,3593464732,HAWK11,1,1,73,2,1,1,225,2,1,0,0,12,1,225,2,1,-145311.22693045562,-4791691.392549361,4198498.304167271,2.66318,2.48956,-0.625097,-80.25,54.625,62.25,-0.3125,-7.48438,7.5,-0.0410156,0.00585938,0.0078125,4,0,41.40263210747734,-91.73700025863018,12061.261322071732,-41.26333436342976,1.876242644425082,10.182275300385356,185.97,9720.794529171932,12053.737931086003,150,False,11.823406513648518,False,158.73711630507503,176.02561526956063,False,17.4297125721106,True,False
1,1970-07-23 10:27:38.578576201,2025-09-12,2025-09-26 14:04:17.857,HH,C,1593012788,JASSM,3,101,76,2,2,1,225,9,2,0,1,26,0,0,0,0,-155138.54724295562,-4778360.168916549,4212726.542448521,-2.71083,-1.01109,0.752034,35.125,-56.0,-61.75,0.0,0.0,0.0,0.0,0.0,0.0,2,0,41.57614089242047,-91.85956320476092,10997.38119924753,155.94428622372416,-0.0018847315342496,0.0010771768377178,,9720.794529171932,12053.737931086003,150,1,2025-09-12,2025-09-26 14:04:17.625,HH,C,3594220298,HAWK11,1,1,73,2,1,1,225,2,1,0,0,12,1,225,2,1,-145361.68591483062,-4791655.760713424,4198538.538542271,2.6395,2.48227,-0.633055,-79.375,55.0,63.375,-0.125,-7.54688,7.5625,-0.0488281,0.00585938,0.015625,4,0,41.40310653764151,-91.73761597150435,12064.680149951546,-40.71811369406304,2.033312398918395,8.598455513069853,186.202,9720.794529171932,12053.737931086003,150,True,11.736558394121078,False,159.4144957338634,176.06175488232824,False,16.807884802909715,True,False
1,1970-07-23 10:27:38.593768112,2025-09-12,2025-09-26 14:04:19.376,HH,C,1594205634,JASSM,3,101,76,2,2,1,225,9,2,0,1,26,0,0,0,0,-155103.41247733062,-4778416.252900924,4212664.636198521,-2.71083,-1.01109,0.752034,35.125,-56.0,-61.75,0.0,0.0,0.0,0.0,0.0,0.0,2,0,41.57539620294539,-91.85912055327378,10997.37711502208,155.94457997166154,-0.0010697385623737,0.0010760037357237,,9720.794529171932,12053.737931086003,150,1,2025-09-12,2025-09-26 14:04:19.421,HH,C,3596526762,HAWK11,1,1,73,2,1,1,225,2,1,0,0,12,1,225,2,1,-145512.18005545562,-4791546.139619674,4198663.804167271,2.58198,2.46386,-0.646477,-77.375,56.375,65.625,-0.125,-7.20312,7.25,-0.03125,-0.00585938,0.00195312,4,0,41.40457697581746,-91.73945360485315,12078.083325369716,-39.57989820033108,2.1388562096189125,4.714460677113611,187.009,9720.794529171932,12053.737931086003,150,True,11.571321054361334,False,160.9967994218002,176.1969093058175,False,15.394315287829945,True,False
1,1970-07-23 10:27:38.598275793,2025-09-12,2025-09-26 14:04:19.827,HH,C,1595339028,JASSM,3,101,76,2,2,1,225,9,2,0,1,26,0,0,0,0,-155070.02868826812,-4778469.541963424,4212605.815886021,-2.71083,-1.01109,0.752034,35.125,-56.0,-61.75,0.0,0.0,0.0,0.0,0.0,0.0,2,0,41.57468862890648,-91.85869997116096,10997.37904077295,155.94485907013936,-0.000295365820603,0.0010748910399986,,9720.794529171932,12053.737931086003,150,1,2025-09-12,2025-09-26 14:04:19.719,HH,C,3596924428,HAWK11,1,1,73,2,1,1,225,2,1,0,0,12,1,225,2,1,-145538.48864920562,-4791526.778291549,4198686.270964146,2.5699,2.46261,-0.649929,-77.25,56.5,65.875,0.078125,-7.10938,7.29688,-0.0351562,0.00390625,0.015625,4,0,41.40483904165443,-91.7397749303408,12081.1757864593,-39.41603909078594,2.263578908797193,3.985527903152156,187.082,9720.794529171932,12053.737931086003,150,True,11.504360025189895,False,161.12887054659515,176.20749297229804,False,15.279083609612648,True,False
1,1970-07-23 10:27:38.607314166,2025-09-12,2025-09-26 14:04:20.731,HH,C,1596472424,JASSM,3,101,76,2,2,1,225,9,2,0,1,26,0,0,0,0,-155036.64587576812,-4778522.829072799,4212546.995573521,-2.71083,-1.01099,0.752034,35.125,-56.0,-61.75,0.0,0.0,0.0,0.0,0.0,0.0,2,0,41.573981064710175,-91.85827941068418,10997.380071057749,155.9414895744354,-0.001197744702479,-0.0026822342019743,,9720.794529171932,12053.737931086003,150,1,2025-09-12,2025-09-26 14:04:20.625,HH,C,3598117426,HAWK11,1,1,73,2,1,1,225,2,1,0,0,12,1,225,2,1,-145615.17028983062,-4791469.952119674,4198752.558073521,2.53509,2.46031,-0.656831,-76.75,56.5,66.625,-0.046875,-7.23438,7.29688,-0.0292969,0.00585938,0.0078125,4,0,41.405610642240426,-91.74071165466404,12090.96833229334,-39.09604421322718,2.519125666205456,1.9248018766445727,187.485,9720.794529171932,12053.737931086003,150,True,11.397508226004113,False,161.47740045907665,176.26737096287175,False,15.018527982684072,True,False
1,1970-07-23 10:27:38.617237397,2025-09-12,2025-09-26 14:04:21.723,HH,C,1597665650,JASSM,3,101,76,2,2,1,225,9,2,0,1,26,0,0,0,0,-155001.49939139312,-4778578.928682174,4212485.065886021,-2.71074,-1.01099,0.752034,35.125,-56.0,-61.75,0.0,0.0,0.0,0.0,0.0,0.0,2,0,41.57323612123908,-91.85783664225616,10997.37462466299,155.9417833874757,-0.00038247967862,0.0028080114588656,,9720.794529171932,12053.737931086003,150,1,2025-09-12,2025-09-26 14:04:21.625,HH,C,3599230892,HAWK11,1,1,73,2,1,1,225,2,1,0,0,12,1,225,2,1,-145686.38708670562,-4791416.915986861,4198815.116667271,2.50902,2.4606,-0.661433,-76.375,56.625,67.125,-0.140625,-6.98438,7.04688,-0.015625,-0.00390625,0.00976562,4,0,41.40633551060587,-91.74158173521172,12101.590536202704,-38.94939399959762,2.739330136588096,0.4475643355849195,187.644,9720.794529171932,12053.737931086003,150,True,11.292090992068957,False,161.7535779666439,176.3204803531152,False,14.814833157441976,True,False
1,1970-07-23 10:27:38.628259979,2025-09-12,2025-09-26 14:04:22.825,HH,C,1598918168,JASSM,3,101,76,2,2,1,225,9,2,0,1,26,0,0,0,0,-154964.60681326812,-4778637.815400924,4212420.061979771,-2.71074,-1.01099,0.75213,35.125,-56.0,-61.75,0.0,0.0,0.0,0.0,0.0,0.0,2,0,41.57245418304044,-91.85737188780938,10997.37898677274,155.94438505154616,-0.0045164357335448,0.0028066498462073,,9720.794529171932,12053.737931086003,150,1,2025-09-12,2025-09-26 14:04:22.717,HH,C,3600582958,HAWK11,1,1,73,2,1,1,225,2,1,0,0,12,1,225,2,1,-145772.30896170562,-4791352.532197799,4198890.954557896,2.50499,2.45226,-0.655873,-76.25,57.125,67.25,0.015625,-6.625,6.625,0.0078125,-0.00585938,0.00195312,4,0,41.40721484482152,-91.74263164156672,12114.224207140907,-38.83607971759383,2.2594996379098613,-0.0706338780414809,187.522,9720.794529171932,12053.737931086003,150,True,11.17231559203782,False,161.9488491984043,176.387470016813,False,14.685647836507853,True,False
1,1970-07-23 10:27:38.638294573,2025-09-12,2025-09-26 14:04:23.829,HH,C,1600111214,JASSM,3,101,76,2,2,1,225,9,2,0,1,26,0,0,0,0,-154929.46618826812,-4778693.903291549,4212358.142057896,-2.71074,-1.01099,0.75213,35.125,-56.0,-61.75,0.0,0.0,0.0,0.0,0.0,0.0,2,0,41.57170937042861,-91.85692921496413,10997.375192051732,155.94467879240295,-0.0037013160995905,0.002805459806959,,9720.794529171932,12053.737931086003,150,1,2025-09-12,2025-09-26 14:04:23.932,HH,C,3601895256,HAWK11,1,1,73,2,1,1,225,2,1,0,0,12,1,225,2,1,-145856.55310233062,-4791288.842744674,4198965.431120396,2.52656,2.45168,-0.660091,-76.125,57.375,67.5,0.125,-6.8125,6.89062,0.0585938,0.00390625,0.00585938,4,0,41.40808115344582,-91.7436612781218,12125.494803436017,-38.67221753833605,2.43973602022217,1.1519865663303055,187.155,9720.794529171932,12053.737931086003,150,True,11.056102710729379,False,162.10887787844533,176.45433325804885,False,14.602047644916595,True,False
1,1970-07-23 10:27:38.648317542,2025-09-12,2025-09-26 14:04:24.831,HH,C,1601304250,JASSM,3,101,76,2,2,1,225,9,2,0,1,26,0,0,0,0,-154894.32556326812,-4778749.991182174,4212296.222136021,-2.71074,-1.01099,0.75213,35.125,-56.0,-61.75,0.0,0.0,0.0,0.0,0.0,0.0,2,0,41.5709645560157,-91.85648655228836,10997.375627750602,155.94497252218974,-0.0028861963596333,0.0028042697518579,,9720.794529171932,12053.737931086003,150,1,2025-09-12,2025-09-26 14:04:24.625,HH,C,3602849656,HAWK11,1,1,73,2,1,1,225,2,1,0,0,12,1,225,2,1,-145916.40857108062,-4791243.156221236,4199018.981901646,2.70623,2.4466,-0.668432,-75.375,57.875,67.75,-0.390625,-6.76562,6.8125,0.226562,0.0,0.0078125,4,0,41.408703535357205,-91.74439300926252,12133.815844072751,-38.20450387712781,2.689919482155297,11.287697501478048,187.278,9720.794529171932,12053.737931086003,150,False,10.959047717406618,False,162.56087567779014,176.4968963170272,False,14.195963168894753,True,False
1,1970-07-23 10:27:38.661397642,2025-09-12,2025-09-26 14:04:26.139,HH,C,1602497308,JASSM,3,101,76,2,2,1,225,9,2,0,1,26,0,0,0,0,-154859.18493826812,-4778806.079072799,4212234.298307896,-2.71074,-1.01099,0.75213,35.125,-56.0,-61.75,0.0,0.0,0.0,0.0,0.0,0.0,2,0,41.57021971350312,-91.85604389978178,10997.371790099534,155.94526624090727,-0.0020710524988666,0.0028030689611935,,9720.794529171932,12053.737931086003,150,1,2025-09-12,2025-09-26 14:04:26.331,HH,C,3604917520,HAWK11,1,1,73,2,1,1,225,2,1,0,0,12,1,225,2,1,-146044.47302420562,-4791139.372041549,4199138.538542271,2.8881,2.38083,-0.695564,-71.5,60.75,69.75,0.046875,-7.0625,7.17188,0.0371094,0.00195312,0.0332031,4,0,41.4101046671089,-91.74596083585408,12147.601126984013,-34.91575034886564,2.28001218706698,19.47492976463852,186.52,9720.794529171932,12053.737931086003,150,False,10.803274302243448,False,165.11178439507805,176.59907663195708,False,11.751155923889609,True,False
1,1970-07-23 10:27:38.667232503,2025-09-12,2025-09-26 14:04:26.723,HH,C,1603630702,JASSM,3,101,76,2,2,1,225,9,2,0,1,26,0,0,0,0,-154825.80017264312,-4778859.362275924,4212175.472136021,-2.71074,-1.01099,0.75213,35.125,-56.0,-61.75,0.0,0.0,0.0,0.0,0.0,0.0,2,0,41.5695121232853,-91.85562337539778,10997.37443995984,155.94554527267275,-0.001296672296781,0.0028019425313164,,9720.794529171932,12053.737931086003,150,1,2025-09-12,2025-09-26 14:04:26.719,HH,C,3605354952,HAWK11,1,1,73,2,1,1,225,2,1,0,0,12,1,225,2,1,-146070.05114920562,-4791117.358369674,4199163.716276646,2.90526,2.36847,-0.701509,-70.5,61.375,70.25,-0.09375,-7.14062,7.14062,0.0136719,0.0,0.0253906,4,0,41.41040092137087,-91.74627445145212,12150.015234599676,-34.275059170801434,2.2617058139788297,20.027921522668763,186.52,9720.794529171932,12053.737931086003,150,False,10.734664840615675,False,165.73888972020845,176.60587436108295,False,11.135432673547133,True,False
1,1970-07-23 10:27:38.679257026,2025-09-12,2025-09-26 14:04:27.925,HH,C,1605002700,JASSM,3,101,76,2,2,1,225,9,2,0,1,26,0,0,0,0,-154785.38903983062,-4778923.860322799,4212104.261198521,-2.71074,-1.01099,0.75213,35.125,-56.0,-61.75,0.0,0.0,0.0,0.0,0.0,0.0,2,0,41.5686555780183,-91.85511435688775,10997.375687116308,155.9458830179843,-0.000359284508978,0.0028005673261753,,9720.794529171932,12053.737931086003,150,1,2025-09-12,2025-09-26 14:04:27.827,HH,C,3606707018,HAWK11,1,1,73,2,1,1,225,2,1,0,0,12,1,225,2,1,-146148.47693045562,-4791045.748994674,4199245.030729771,2.92041,2.33347,-0.718191,-67.125,63.375,72.0,-0.03125,-7.3125,7.34375,-0.0273438,0.0175781,0.0273438,4,0,41.41136151777164,-91.74723755294409,12156.241130050998,-32.47841176340335,2.2377376200248187,19.65964490161453,186.202,9720.794529171932,12053.737931086003,150,False,10.607518505964046,False,167.84121788535768,176.64784966109727,False,9.095060754651083,True,False
1,1970-07-23 10:27:38.689279132,2025-09-12,2025-09-26 14:04:28.927,HH,C,1606255404,JASSM,3,101,76,2,2,1,225,9,2,0,1,26,0,0,0,0,-154748.49060233062,-4778982.748994674,4212039.241667271,-2.71074,-1.01099,0.75213,35.125,-56.0,-61.75,0.0,0.0,0.0,0.0,0.0,0.0,2,0,41.56787351247376,-91.85464959716585,10997.377675490066,155.94619139159562,0.0004965964870249,0.0027993220696378,,9720.794529171932,12053.737931086003,150,1,2025-09-12,2025-09-26 14:04:28.736,HH,C,3599708092,HAWK11,1,1,73,2,1,1,225,2,1,0,0,12,1,225,2,1,-145716.48669608062,-4791394.648408736,4198841.542448521,2.50384,2.45609,-0.657886,-76.375,56.5,67.375,-0.046875,-6.54688,6.64062,-0.0136719,-0.0195312,0.00390625,4,0,41.40664089411632,-91.74194942445015,12106.414495965,-38.90705188592844,2.454923198778117,-0.005344691855874,185.567,9720.794529171932,12053.737931086003,150,True,10.916972677462804,False,161.7752801537605,176.231032205352,False,14.728032017707395,True,False
1,1970-07-23 10:27:38.700295169,2025-09-12,2025-09-26 14:04:30.029,HH,C,1607567754,JASSM,3,101,76,2,2,1,225,9,2,0,1,26,0,0,0,0,-154709.83532889312,-4779044.440400924,4211971.122526646,-2.71074,-1.01099,0.752226,35.125,-56.0,-61.75,0.0,0.0,0.0,0.0,0.0,0.0,2,0,41.56705418925025,-91.85416272141327,10997.373637739083,155.94880912742525,-0.003599565810992,0.0027979651759322,,9720.794529171932,12053.737931086003,150,1,2025-09-12,2025-09-26 14:04:29.921,HH,C,3609132782,HAWK11,1,1,73,2,1,1,225,2,1,0,0,12,1,225,2,1,-146279.30114920562,-4790913.652314986,4199395.015104771,2.8836,2.27135,-0.735544,-61.875,66.0,75.125,-0.109375,-7.04688,7.0625,-0.0351562,0.0175781,0.0175781,4,0,41.41313590520464,-91.74884880338944,12166.677505816671,-29.687882159676324,1.7121861190821583,15.280662872689028,185.115,9720.794529171932,12053.737931086003,150,False,10.374846954334435,False,171.06511194783874,176.69165181203374,False,6.028458491715667,True,False
1,1970-07-23 10:27:38.711314564,2025-09-12,2025-09-26 14:04:31.131,HH,C,1608880106,JASSM,3,101,76,2,2,1,225,9,2,0,1,26,0,0,0,0,-154671.18005545562,-4779106.131807174,4211903.005339146,-2.71074,-1.01099,0.752226,35.125,-56.0,-61.75,0.0,0.0,0.0,0.0,0.0,0.0,2,0,41.56623487699833,-91.85367585796256,10997.378970520424,155.9491321568961,-0.0027029282168258,0.0027966937146842,,9720.794529171932,12053.737931086003,150,1,2025-09-12,2025-09-26 14:04:31.015,HH,C,3610445080,HAWK11,1,1,73,2,1,1,225,2,1,0,0,12,1,225,2,1,-146346.29333670562,-4790839.192354049,4199478.966276646,2.85608,2.24258,-0.747145,-59.375,67.5,76.375,0.015625,-7.29688,7.21875,-0.0527344,0.00585938,0.0234375,4,0,41.41413331087982,-91.74967641022084,12170.78194129656,-28.30267012167412,1.692639267901809,12.632453355706756,185.163,9720.794529171932,12053.737931086003,150,False,10.250957329941041,False,172.5979509749984,176.70231718639212,False,4.563729966875293,True,False
1,1970-07-23 10:27:38.726564361,2025-09-12,2025-09-26 14:04:32.656,HH,C,1610192460,JASSM,3,101,76,2,2,1,225,9,2,0,1,26,0,0,0,0,-154632.52478201812,-4779167.821260299,4211834.884245396,-2.71074,-1.01089,0.752226,35.125,-56.0,-61.75,0.0,0.0,0.0,0.0,0.0,0.0,2,0,41.56541554792287,-91.8531890075702,10997.376127343456,155.94581189272324,-0.0034808710849235,-0.0009565507815266,,9720.794529171932,12053.737931086003,150,1,2025-09-12,2025-09-26 14:04:32.656,HH,C,3603287088,HAWK11,1,1,73,2,1,1,225,2,1,0,0,12,1,225,2,1,-145944.48474295562,-4791221.385713424,4199044.288542271,2.77909,2.43836,-0.672651,-74.75,58.5,68.0,-0.296875,-6.71875,6.79688,0.130859,0.0078125,0.0292969,4,0,41.40899876498198,-91.74473636807431,12137.290490204534,-37.76277706142102,2.667550519285638,15.1896104101307,185.799,9720.794529171932,12053.737931086003,150,False,10.572704682788691,False,162.99577823291193,176.40292090988007,False,13.67280390818998,True,False
1,1970-07-23 10:27:38.733323478,2025-09-12,2025-09-26 14:04:33.332,HH,C,1611504804,JASSM,3,101,76,2,2,1,225,9,2,0,1,26,0,0,0,0,-154593.87048514312,-4779229.508760299,4211766.765104771,-2.71074,-1.01089,0.752226,35.125,-55.875,-61.75,0.0,0.0,0.0,0.0,0.0,0.0,2,0,41.56459624128624,-91.85270218193035,10997.377940143962,155.94613488669046,-0.0025842464516497,-0.0009578842562527,,9720.794529171932,12053.737931086003,150,1,2025-09-12,2025-09-26 14:04:33.217,HH,C,3612870844,HAWK11,1,1,73,2,1,1,225,2,1,0,0,12,1,225,2,1,-146463.22693045562,-4790700.656221236,4199636.925261021,2.77842,2.20749,-0.769771,-56.125,67.75,79.25,-0.09375,-7.4375,7.34375,-0.046875,0.00585938,0.00976562,4,0,41.416002318577625,-91.75112417190618,12181.690792006784,-26.402817899970405,2.14320270101419,6.863736642874169,186.08,9720.794529171932,12053.737931086003,150,True,10.014138730476182,False,174.38375516556175,176.69678349910646,False,3.45808872686435,True,False
1,1970-07-23 10:27:38.744233690,2025-09-12,2025-09-26 14:04:34.423,HH,C,1612757508,JASSM,3,101,76,2,2,1,225,9,2,0,1,26,0,0,0,0,-154556.97204764312,-4779288.391572799,4211701.739714146,-2.71074,-1.01089,0.752226,35.125,-55.875,-61.75,0.0,0.0,0.0,0.0,0.0,0.0,2,0,41.56381416095453,-91.85223748265592,10997.37700739443,155.9464431956104,-0.0017283614767779,-0.0009591531282551,,9720.794529171932,12053.737931086003,150,1,2025-09-12,2025-09-26 14:04:34.515,HH,C,3614620576,HAWK11,1,1,73,2,1,1,225,2,1,0,0,12,1,225,2,1,-146543.82653983062,-4790600.250947799,4199753.577604771,2.73365,2.1958,-0.788179,-54.375,68.125,80.25,-0.203125,-7.6875,7.5,-0.0410156,0.00976562,0.00195312,4,0,41.4173722854179,-91.75212392454137,12194.013742353129,-25.49313536430779,2.8607609079190777,3.867396440795617,186.923,9720.794529171932,12053.737931086003,150,True,9.869267811825548,False,175.25801764217076,176.6864177197223,False,3.0865139081747257,True,False
1,1970-07-23 10:27:38.753293064,2025-09-12,2025-09-26 14:04:35.329,HH,C,1613890902,JASSM,3,101,76,2,2,1,225,9,2,0,1,26,0,0,0,0,-154523.58728201812,-4779341.665010299,4211642.905729771,-2.71074,-1.01089,0.752226,35.125,-55.875,-61.75,0.0,0.0,0.0,0.0,0.0,0.0,2,0,41.56310656170363,-91.85181704511888,10997.373255404877,155.94672213457605,-0.0009539867744166,-0.0009602981870358,,9720.794529171932,12053.737931086003,150,1,2025-09-12,2025-09-26 14:04:35.217,HH,C,3615535208,HAWK11,1,1,73,2,1,1,225,2,1,0,0,12,1,225,2,1,-146585.40271170562,-4790548.186494674,4199815.436979771,2.70287,2.19139,-0.795081,-53.875,67.75,81.0,0.0,-7.59375,7.42188,-0.046875,0.00585938,0.015625,4,0,41.41809195346423,-91.75263974818688,12203.36716960974,-25.15448878842446,3.1324235309986355,1.942060653315404,187.278,9720.794529171932,12053.737931086003,150,True,9.773908298788777,False,175.373939043759,176.67107024126432,False,3.3438690226804817,True,False
1,1970-07-23 10:27:38.764313585,2025-09-12,2025-09-26 14:04:36.431,HH,C,1615143608,JASSM,3,101,76,2,2,1,225,9,2,0,1,26,0,0,0,0,-154486.68884451812,-4779400.547822799,4211577.878386021,-2.71074,-1.01089,0.752226,35.125,-55.875,-61.75,0.0,0.0,0.0,0.0,0.0,0.0,2,0,41.56232446444084,-91.8513523671901,10997.376955493362,155.94703042025827,-9.808956823918876e-05,-0.0009615724524852,,9720.794529171932,12053.737931086003,150,1,2025-09-12,2025-09-26 14:04:36.421,HH,C,3616887274,HAWK11,1,1,73,2,1,1,225,2,1,0,0,12,1,225,2,1,-146645.25232108062,-4790471.614229049,4199907.431120396,2.6836,2.18401,-0.802464,-53.25,67.25,82.0,-0.15625,-7.54688,7.39062,-0.0195312,0.00390625,-0.0078125,4,0,41.41915747279784,-91.7533828985758,12219.239330947205,-24.69957527002005,3.377017649352392,0.5607870478870327,188.035,9720.794529171932,12053.737931086003,150,True,9.65054517292451,False,175.4418753046444,176.64851341027966,False,3.7663132348349158,True,False
1,1970-07-23 10:27:38.775175322,2025-09-12,2025-09-26 14:04:37.517,HH,C,1616455950,JASSM,3,101,76,2,2,1,225,9,2,0,1,26,0,0,0,0,-154448.03357108062,-4779462.231416549,4211509.753386021,-2.71074,-1.01089,0.752322,35.125,-55.875,-61.75,0.0,0.0,0.0,0.0,0.0,0.0,2,0,41.56150513363243,-91.85086557776825,10997.37566493323,155.94964696490837,-0.004191004903096,-0.000962973446595,,9720.794529171932,12053.737931086003,150,1,2025-09-12,2025-09-26 14:04:37.515,HH,C,3618279106,HAWK11,1,1,73,2,1,1,225,2,1,0,0,12,1,225,2,1,-146707.41638358062,-4790392.940400924,4200003.755339146,2.65609,2.18822,-0.805148,-52.875,66.75,82.25,-0.078125,-7.1875,6.85938,0.00390625,-0.00195312,0.0,4,0,41.42026428820876,-91.75415449740848,12239.525656128126,-24.780272370781308,3.59129809959278,-0.846534623664005,188.5,9720.794529171932,12053.737931086003,150,True,9.521954689172993,False,175.39567870292203,176.62272568832327,False,4.042880636619093,True,False
1,1970-07-23 10:27:38.786974473,2025-09-12,2025-09-26 14:04:38.697,HH,C,1617768302,JASSM,3,101,76,2,2,1,225,9,2,0,1,26,0,0,0,0,-154409.37829764312,-4779523.913057174,4211441.628386021,-2.71064,-1.01089,0.752322,35.125,-55.875,-61.75,0.0,0.0,0.0,0.0,0.0,0.0,2,0,41.56068581230053,-91.85037880139951,10997.37470106322,155.94996990134177,-0.0032943728041966,0.0045272056605143,,9720.794529171932,12053.737931086003,150,1,2025-09-12,2025-09-26 14:04:38.827,HH,C,3619551638,HAWK11,1,1,73,2,1,1,225,2,1,0,0,12,1,225,2,1,-146763.19177420562,-4790321.694307174,4200090.698698521,2.68025,2.17557,-0.79882,-52.625,67.125,81.875,0.0,-6.625,6.29688,0.0136719,0.00390625,0.0,4,0,41.42126476073096,-91.7548470599484,12257.243787275973,-24.49293612261408,3.041922192805471,0.0332876656284349,189.49,9720.794529171932,12053.737931086003,150,True,9.400661655067543,False,175.62699963336516,176.59579062522067,False,3.810689260721279,True,False
1,1970-07-23 10:27:38.797231113,2025-09-12,2025-09-26 14:04:39.723,HH,C,1619080654,JASSM,3,101,76,2,2,1,225,9,2,0,1,26,0,0,0,0,-154370.72302420562,-4779585.594697799,4211373.501432896,-2.71064,-1.01089,0.752322,35.125,-55.875,-61.75,0.0,0.0,0.0,0.0,0.0,0.0,2,0,41.559866475639446,-91.84989203732752,10997.374604973218,155.95029282438892,-0.0023977285673198,0.0045259072960817,,9720.794529171932,12053.737931086003,150,1,2025-09-12,2025-09-26 14:04:39.719,HH,C,3620863936,HAWK11,1,1,73,2,1,1,225,2,1,0,0,12,1,225,2,1,-146821.07849295562,-4790246.908174361,4200180.940886021,2.68667,2.17221,-0.799971,-52.25,67.375,81.625,-0.09375,-6.875,6.54688,0.0,0.0,0.00585938,4,0,41.42230816756371,-91.7555661688599,12273.584683564402,-24.343836683830222,3.042540744865993,0.2714881589933395,189.6,9720.794529171932,12053.737931086003,150,True,9.27653220109847,False,175.85298574907497,176.56764134109412,False,3.66166334759292,True,False
1,1970-07-23 10:27:38.808235151,2025-09-12,2025-09-26 14:04:40.823,HH,C,1620393004,JASSM,3,101,76,2,2,1,225,9,2,0,1,26,0,0,0,0,-154332.06775076812,-4779647.274385299,4211305.374479771,-2.71064,-1.01089,0.752322,35.125,-55.875,-61.75,0.0,0.0,0.0,0.0,0.0,0.0,2,0,41.559047148454816,-91.84940528630705,10997.374835457227,155.95061573354883,-0.0015010950750584,0.0045246131456456,,9720.794529171932,12053.737931086003,150,1,2025-09-12,2025-09-26 14:04:40.826,HH,C,3622176234,HAWK11,1,1,73,2,1,1,225,2,1,0,0,12,1,225,2,1,-146877.98669608062,-4790172.810518111,4200269.917448521,2.69079,2.16569,-0.804189,-52.0,67.625,81.375,-0.09375,-7.03125,6.75,0.00390625,0.0078125,-0.0078125,4,0,41.42333910967786,-91.75627335426648,12288.806276848132,-24.004062539706965,3.145841277805075,0.2576252005799294,189.881,9720.794529171932,12053.737931086003,150,True,9.153313629631699,False,176.0341044939018,176.53821591015176,False,3.519858437154784,True,False
1,1970-07-23 10:27:38.819253592,2025-09-12,2025-09-26 14:04:41.925,HH,C,1621705356,JASSM,3,101,76,2,2,1,225,9,2,0,1,26,0,0,0,0,-154293.41247733062,-4779708.954072799,4211237.245573521,-2.71064,-1.01089,0.752322,35.125,-55.875,-61.75,0.0,0.0,0.0,0.0,0.0,0.0,2,0,41.55822780594099,-91.84891854758207,10997.37593387402,155.95093862932347,-0.0006044494445586,0.0045233136163468,,9720.794529171932,12053.737931086003,150,1,2025-09-12,2025-09-26 14:04:41.922,HH,C,3623488534,HAWK11,1,1,73,2,1,1,225,2,1,0,0,12,1,225,2,1,-146935.04919608062,-4790097.447236861,4200359.882292271,2.69626,2.15601,-0.79,-51.625,68.25,81.0,-0.09375,-5.89062,5.64062,0.0078125,-0.0234375,0.0,4,0,41.42438421771728,-91.75698286880544,12303.081271187595,-24.01070556764116,2.246344884436412,0.173627162255592,189.954,9720.794529171932,12053.737931086003,150,True,9.029291150512545,False,176.38106400247918,176.50638540242332,False,3.205243808819053,True,False
1,1970-07-23 10:27:38.830292666,2025-09-12,2025-09-26 14:04:43.029,HH,C,1623077358,JASSM,3,101,76,2,2,1,225,9,2,0,1,26,0,0,0,0,-154252.99939139312,-4779773.436494674,4211166.019011021,-2.71064,-1.01089,0.752322,35.125,-55.875,-61.75,0.0,0.0,0.0,0.0,0.0,0.0,2,0,41.55737121772198,-91.84840968882254,10997.378385122449,155.9512761936342,0.0003329560824606,0.0045219607190433,,9720.794529171932,12053.737931086003,150,1,2025-09-12,2025-09-26 14:04:42.921,HH,C,3624641766,HAWK11,1,1,73,2,1,1,225,2,1,0,0,12,1,225,2,1,-146984.39294608062,-4790030.913057174,4200437.102995396,2.70575,2.14508,-0.789425,-51.375,69.25,80.25,0.03125,-6.48438,6.09375,0.0234375,0.0,0.00976562,4,0,41.42529219710288,-91.75759692665495,12310.827972085775,-23.626985270365992,2.0279741521012395,0.2871042348553629,190.113,9720.794529171932,12053.737931086003,150,True,8.91210580621876,False,176.76824238298985,176.4753756615869,False,2.636367871236763,True,False
1,1970-07-23 10:27:38.839172706,2025-09-12,2025-09-26 14:04:43.917,HH,C,1624151100,JASSM,3,101,76,2,2,1,225,9,2,0,1,26,0,0,0,0,-154221.37243826812,-4779823.897432174,4211110.276823521,-2.71064,-1.0108,0.752322,35.125,-55.875,-61.75,0.0,0.0,0.0,0.0,0.0,0.0,2,0,41.55670086611001,-91.8480114704188,10997.37624765457,155.9478975149856,-0.0006081294031904,0.0007683714743124,,9720.794529171932,12053.737931086003,150,1,2025-09-12,2025-09-26 14:04:43.827,HH,C,3625715464,HAWK11,1,1,73,2,1,1,225,2,1,0,0,12,1,225,2,1,-147030.23864920562,-4789968.214814986,4200508.956511021,2.71841,2.14489,-0.784439,-51.0,69.875,79.875,-0.09375,-6.625,6.23438,0.00390625,-0.00390625,-0.00585938,4,0,41.42614176909353,-91.75816779110048,12316.09823366358,-23.742273136500213,1.7672694522207693,1.0006646495561389,190.382,9720.794529171932,12053.737931086003,150,True,8.811128077997145,False,177.06803518458142,176.44897637477462,False,2.3437126429353525,True,False
1,1970-07-23 10:27:38.849216979,2025-09-12,2025-09-26 14:04:44.921,HH,C,1625284494,JASSM,3,101,76,2,2,1,225,9,2,0,1,26,0,0,0,0,-154187.98767264312,-4779877.163057174,4211051.435026646,-2.71064,-1.0108,0.752418,35.125,-55.875,-61.75,0.0,0.0,0.0,0.0,0.0,0.0,2,0,41.555993244540176,-91.84759112810016,10997.374703852913,155.95047170026962,-0.0048262596275115,0.0007671101865189,,9720.794529171932,12053.737931086003,150,1,2025-09-12,2025-09-26 14:04:44.827,HH,C,3626987996,HAWK11,1,1,73,2,1,1,225,2,1,0,0,12,1,225,2,1,-147084.75622733062,-4789892.636689986,4200594.333464146,2.70546,2.13722,-0.783289,-50.75,70.625,79.5,0.0,-6.79688,6.39062,-0.00585938,0.0,0.00585938,4,0,41.42715765008207,-91.75884702996456,12319.716773931856,-23.488733501918176,1.5767101079142587,-0.0436971279087911,190.663,9720.794529171932,12053.737931086003,150,True,8.696610327463883,False,177.3139000332721,176.4194050929199,False,2.0295410986160842,True,False
1,1970-07-23 10:27:38.859262492,2025-09-12,2025-09-26 14:04:45.926,HH,C,1626477542,JASSM,3,101,76,2,2,1,225,9,2,0,1,26,0,0,0,0,-154152.84607108062,-4779933.231416549,4210989.495573521,-2.71064,-1.0108,0.752418,35.125,-55.875,-61.75,0.0,0.0,0.0,0.0,0.0,0.0,2,0,41.55524837737366,-91.8471486757626,10997.37389222115,155.95076519970297,-0.0040111229117963,0.0007659108731674,,9720.794529171932,12053.737931086003,150,1,2025-09-12,2025-09-26 14:04:45.922,HH,C,3627982162,HAWK11,1,1,73,2,1,1,225,2,1,0,0,12,1,225,2,1,-147126.62536795562,-4789834.143525924,4200659.917448521,2.70911,2.12629,-0.78396,-50.625,70.875,79.375,0.03125,-6.65625,6.32812,0.0,-0.00585938,0.00585938,4,0,41.42794061454556,-91.75936886021442,12321.428418484122,-23.069939175736728,1.4269444905299196,-0.2659512855830822,190.968,9720.794529171932,12053.737931086003,150,True,8.595313340020429,False,177.40378797258367,176.39053128702994,False,1.9561846335501991,True,False
1,1970-07-23 10:27:38.869861966,2025-09-12,2025-09-26 14:04:46.986,HH,C,1627670588,JASSM,3,101,76,2,2,1,225,9,2,0,1,26,0,0,0,0,-154117.70446951812,-4779989.299775924,4210927.556120396,-2.71064,-1.0108,0.752418,35.125,-55.875,-61.75,0.0,0.0,0.0,0.0,0.0,0.0,2,0,41.55450350840806,-91.84670623358448,10997.377311155931,155.95105868807582,-0.0031959860902744,0.0007647115439528,,9720.794529171932,12053.737931086003,150,1,2025-09-12,2025-09-26 14:04:47.125,HH,C,3629692128,HAWK11,1,1,73,2,1,1,225,2,1,0,0,12,1,225,2,1,-147199.64294608062,-4789731.341768111,4200774.032682896,2.68619,2.13118,-0.784631,-50.625,71.25,79.125,-0.09375,-7.29688,6.84375,-0.015625,0.00390625,0.0078125,4,0,41.42930902254213,-91.76027922567224,12321.911969946625,-23.23488792206758,1.546019512835233,-1.3850978472068134,191.323,9720.794529171932,12053.737931086003,150,True,8.45480244491207,False,177.43715348066408,176.3550427307084,False,1.7969433836361397,True,False
1,1970-07-23 10:27:38.879387366,2025-09-12,2025-09-26 14:04:47.938,HH,C,1628863634,JASSM,3,101,76,2,2,1,225,9,2,0,1,26,0,0,0,0,-154082.56286795562,-4780045.364229049,4210865.616667271,-2.71064,-1.0108,0.752418,35.125,-55.875,-61.75,0.0,0.0,0.0,0.0,0.0,0.0,2,0,41.553758660949086,-91.84626380307311,10997.375375162956,155.95135216438803,-0.0023808709054629,0.00076352066574,,9720.794529171932,12053.737931086003,150,1,2025-09-12,2025-09-26 14:04:48.015,HH,C,3630646526,HAWK11,1,1,73,2,1,1,225,2,1,0,0,12,1,225,2,1,-147240.15075858062,-4789674.333955611,4200837.436979771,2.6697,2.12706,-0.788658,-50.75,71.125,79.25,-0.078125,-7.28125,6.9375,-0.0136719,-0.00195312,0.00390625,4,0,41.43006868269183,-91.76078427516232,12322.454154360612,-22.987333945195697,1.6870771785023018,-2.490126389895213,191.787,9720.794529171932,12053.737931086003,150,True,8.355097401939025,False,177.37873255447164,176.3249498731542,False,1.88089648045397,True,False
1,1970-07-23 10:27:38.889195659,2025-09-12,2025-09-26 14:04:48.919,HH,C,1630056680,JASSM,3,101,76,2,2,1,225,9,2,0,1,26,0,0,0,0,-154047.42126639312,-4780101.430635299,4210803.675261021,-2.71064,-1.0108,0.752418,35.125,-55.875,-61.75,0.0,0.0,0.0,0.0,0.0,0.0,2,0,41.55301378688564,-91.84582138196616,10997.378211892776,155.95164563014131,-0.0015657327325039,0.0007623201782907,,9720.794529171932,12053.737931086003,150,1,2025-09-12,2025-09-26 14:04:48.921,HH,C,3631839524,HAWK11,1,1,73,2,1,1,225,2,1,0,0,12,1,225,2,1,-147291.04333670562,-4789603.344697799,4200916.894011021,2.65523,2.12974,-0.79,-51.0,70.875,79.5,0.09375,-7.14062,6.78125,0.00585938,-0.00585938,-0.00585938,4,0,41.43101795793437,-91.76141858530424,12324.260718078289,-23.05426982012739,1.8031602744255828,-3.212352767392741,192.215,9720.794529171932,12053.737931086003,150,True,8.242620769257115,False,177.25472746652585,176.29216556627594,False,2.034087839222494,True,False
1,1970-07-23 10:27:38.899213380,2025-09-12,2025-09-26 14:04:49.921,HH,C,1631249728,JASSM,3,101,76,2,2,1,225,9,2,0,1,26,0,0,0,0,-154012.27966483062,-4780157.495088424,4210741.731901646,-2.71064,-1.0108,0.752418,35.125,-55.875,-61.75,0.0,0.0,0.0,0.0,0.0,0.0,2,0,41.55226890952278,-91.8453789717708,10997.376235967206,155.95193908433555,-0.0007505933131989,0.0007611185484524,,9720.794529171932,12053.737931086003,150,1,2025-09-12,2025-09-26 14:04:50.126,HH,C,3633271124,HAWK11,1,1,73,2,1,1,225,2,1,0,0,12,1,225,2,1,-147352.02771170562,-4789517.612275924,4201012.235807896,2.67296,2.12638,-0.78118,-51.25,71.5,79.125,-0.15625,-6.70312,6.375,0.00390625,0.0117188,-0.00390625,4,0,41.43216029989775,-91.7621789458185,12325.07638172983,-23.14145457987357,1.2883250876450862,-2.3343610504564136,192.52,9720.794529171932,12053.737931086003,150,True,8.117256374789417,False,177.20153187043417,176.2559651464215,False,1.7137672361914098,True,False
1,1970-07-23 10:27:38.908271979,2025-09-12,2025-09-26 14:04:50.827,HH,C,1632383122,JASSM,3,101,76,2,2,1,225,9,2,0,1,26,0,0,0,0,-153978.89489920562,-4780210.754854049,4210682.886198521,-2.71064,-1.0108,0.752418,35.125,-55.875,-61.75,0.0,0.0,0.0,0.0,0.0,0.0,2,0,41.551561286436296,-91.84495868913528,10997.375726022248,155.95221785714116,2.37789259665143e-05,0.000759983517368,,9720.794529171932,12053.737931086003,150,1,2025-09-12,2025-09-26 14:04:50.717,HH,C,3633986922,HAWK11,1,1,73,2,1,1,225,2,1,0,0,12,1,225,2,1,-147383.21911795562,-4789474.514619674,4201059.774870396,2.68715,2.12523,-0.780604,-51.5,71.625,79.0,-0.078125,-6.95312,6.53125,0.0898438,0.0,0.00195312,4,0,41.4327318289193,-91.76256757790831,12324.685752699075,-23.11276528871788,1.2395627726403886,-1.5670911890070356,192.716,9720.794529171932,12053.737931086003,150,True,8.032421675365233,False,177.09043666625615,176.229507466825,False,1.618802318556788,True,False
1,1970-07-23 10:27:38.918318369,2025-09-12,2025-09-26 14:04:51.831,HH,C,1633576168,JASSM,3,101,76,2,2,1,225,9,2,0,1,26,0,0,0,0,-153943.75329764312,-4780266.817354049,4210620.942839146,-2.71064,-1.0108,0.752418,35.125,-55.875,-61.75,0.0,0.0,0.0,0.0,0.0,0.0,2,0,41.55081641721801,-91.84451629949966,10997.377206727411,155.9525112892719,0.0008389076811958,0.00075878609003,,9720.794529171932,12053.737931086003,150,1,2025-09-12,2025-09-26 14:04:51.827,HH,C,3635179922,HAWK11,1,1,73,2,1,1,225,2,1,0,0,12,1,225,2,1,-147434.55505545562,-4789402.843721236,4201138.724089146,2.77641,2.12006,-0.78396,-51.25,71.875,79.125,-0.09375,-6.96875,6.65625,0.0488281,0.00585938,0.00390625,4,0,41.43368164353655,-91.76320748941826,12323.76765515064,-22.8421297294548,1.3289421464273814,3.344087658955605,193.07,9720.794529171932,12053.737931086003,150,True,7.9198051494027135,False,177.25261487233252,176.19660619393204,False,1.6637000033703695,True,False
1,1970-07-23 10:27:38.929334044,2025-09-12,2025-09-26 14:04:52.933,HH,C,1634828854,JASSM,3,101,76,2,2,1,225,9,2,0,1,26,0,0,0,0,-153906.85486014312,-4780325.680635299,4210555.901823521,-2.71064,-1.0108,0.752513,35.125,-55.875,-61.75,0.0,0.0,0.0,0.0,0.0,0.0,2,0,41.55003431325019,-91.84405180513988,10997.376519644771,155.95511330140172,-0.0032946250603912,0.0007574984714441,,9720.794529171932,12053.737931086003,150,1,2025-09-12,2025-09-26 14:04:53.015,HH,C,3636571754,HAWK11,1,1,73,2,1,1,225,2,1,0,0,12,1,225,2,1,-147493.56677420562,-4789318.925752486,4201230.675261021,2.84218,2.09992,-0.788562,-50.25,72.375,79.375,0.015625,-6.84375,6.5,0.0488281,0.00390625,0.0175781,4,0,41.434790660312494,-91.76394366745932,12321.557493918272,-21.99043233759777,1.2415050395366425,6.315187755124395,193.449,9720.794529171932,12053.737931086003,150,True,7.794281861095433,False,177.79002578174922,176.1574342979719,False,1.921033502815339,True,False
1,1970-07-23 10:27:38.947754149,2025-09-12,2025-09-26 14:04:54.775,HH,C,1636021912,JASSM,3,101,76,2,2,1,225,9,2,0,1,26,0,0,0,0,-153871.71228201812,-4780381.741182174,4210493.954557896,-2.71064,-1.0108,0.752513,35.125,-55.875,-61.75,0.0,0.0,0.0,0.0,0.0,0.0,2,0,41.549289425876985,-91.84360942538464,10997.37330232239,155.95540671822337,-0.0024794794926287,0.0007563352282161,,9720.794529171932,12053.737931086003,150,1,2025-09-12,2025-09-26 14:04:54.717,HH,C,3638719150,HAWK11,1,1,73,2,1,1,225,2,1,0,0,12,1,225,2,1,-147582.29528983062,-4789186.370088424,4201375.132292271,2.94927,2.06263,-0.795081,-47.625,73.375,80.375,-0.0625,-7.25,6.8125,0.0351562,0.0,0.0214844,4,0,41.43653794668375,-91.76505296284644,12316.036009161802,-20.46193473860028,1.0079839694813055,10.960480427674012,193.95,9720.794529171932,12053.737931086003,150,False,7.629494927344497,False,179.2002850152413,176.0968312343037,False,3.114208853004595,True,False
1,1970-07-23 10:27:38.949293082,2025-09-12,2025-09-26 14:04:54.929,HH,C,1637214960,JASSM,3,101,76,2,2,1,225,9,2,0,1,26,0,0,0,0,-153836.57068045562,-4780437.801729049,4210432.009245396,-2.71064,-1.0108,0.752513,35.125,-55.875,-61.75,0.0,0.0,0.0,0.0,0.0,0.0,2,0,41.548544549671625,-91.8431670674776,10997.378642846425,155.9557001162334,-0.0016643492256331,0.000755169260964,,9720.794529171932,12053.737931086003,150,1,2025-09-12,2025-09-26 14:04:55.015,HH,C,3639156584,HAWK11,1,1,73,2,1,1,225,2,1,0,0,12,1,225,2,1,-147599.33825858062,-4789159.801729049,4201404.052214146,2.96979,2.05093,-0.79767,-47.0,73.625,80.625,-0.203125,-7.23438,6.73438,0.0449219,-0.00390625,0.0195312,4,0,41.43688806464629,-91.76526645093163,12314.802555925457,-19.971757689976474,0.9725081378990316,11.66545934674229,193.718,9720.794529171932,12053.737931086003,150,False,7.557643033095229,False,179.5152733955912,176.0615283208081,False,3.4554010575476957,True,False
1,1970-07-23 10:27:38.958210070,2025-09-12,2025-09-26 14:04:55.821,HH,C,1638348354,JASSM,3,101,76,2,2,1,225,9,2,0,1,26,0,0,0,0,-153803.18591483062,-4780491.055635299,4210373.159636021,-2.71054,-1.0107,0.752513,35.125,-55.875,-61.75,0.0,0.0,0.0,0.0,0.0,0.0,2,0,41.54783692668981,-91.84274683534096,10997.375348133824,155.95233675614566,-0.0025646069112808,0.0024923613945559,,9720.794529171932,12053.737931086003,150,1,2025-09-12,2025-09-26 14:04:55.717,HH,C,3639912150,HAWK11,1,1,73,2,1,1,225,2,1,0,0,12,1,225,2,1,-147628.90857108062,-4789112.475557174,4201455.536589146,3.00545,2.03415,-0.798916,-45.75,74.25,81.0,-0.203125,-7.25,6.8125,0.0273438,0.0078125,0.0136719,4,0,41.4375116662327,-91.76563732057878,12312.481497741186,-19.32049248761896,0.7974840353114556,13.030566418579369,193.754,9720.794529171932,12053.737931086003,150,False,7.4704178254840405,False,179.56832846990716,176.01642013432715,False,4.099085262878252,True,False
1,1970-07-23 10:27:38.969200706,2025-09-12,2025-09-26 14:04:56.920,HH,C,1639660706,JASSM,3,101,76,2,2,1,225,9,2,0,1,26,0,0,0,0,-153764.52966483062,-4780552.719697799,4210305.015104771,-2.71054,-1.0107,0.752513,35.125,-55.875,-61.75,0.0,0.0,0.0,0.0,0.0,0.0,2,0,41.5470175425785,-91.84226025911568,10997.37406013116,155.95265947290278,-0.0016679470715966,0.0024910184723383,,9720.794529171932,12053.737931086003,150,1,2025-09-12,2025-09-26 14:04:56.920,HH,C,3641343748,HAWK11,1,1,73,2,1,1,225,2,1,0,0,12,1,225,2,1,-147682.23474295562,-4789022.331025924,4201553.667448521,3.05109,1.99743,-0.806682,-42.875,75.125,82.0,-0.40625,-7.42188,6.89062,0.0,0.00195312,0.0136719,4,0,41.438700463794135,-91.76630792189128,12307.984687443712,-17.795385929383972,0.7147067546468565,14.152119880652188,193.95,9720.794529171932,12053.737931086003,150,False,7.339593427134477,False,178.18398482506467,175.93665164713002,False,5.6406177430834825,True,False
1,1970-07-23 10:27:38.981255077,2025-09-12,2025-09-26 14:04:58.125,HH,C,1641032708,JASSM,3,101,76,2,2,1,225,9,2,0,1,26,0,0,0,0,-153724.11657889312,-4780617.184541549,4210233.774870396,-2.71054,-1.0107,0.752513,35.125,-55.875,-61.75,0.0,0.0,0.0,0.0,0.0,0.0,2,0,41.54616093602612,-91.84175158293536,10997.37684242994,155.95299684164078,-0.0007305535333323,0.0024896217789886,,9720.794529171932,12053.737931086003,150,1,2025-09-12,2025-09-26 14:04:58.015,HH,C,3642656046,HAWK11,1,1,73,2,1,1,225,2,1,0,0,12,1,225,2,1,-147728.18982108062,-4788938.526338424,4201644.979948521,3.0577,1.96522,-0.810805,-40.375,76.0,83.125,-0.28125,-7.46875,6.95312,-0.0273438,0.0175781,0.00585938,4,0,41.43980687609589,-91.76688810489532,12303.719651769785,-16.512906170213814,0.5315658769589802,13.20992046455543,193.534,9720.794529171932,12053.737931086003,150,False,7.212610187489641,False,176.84000571613012,175.843572835379,False,7.072928585838341,True,False
1,1970-07-23 10:27:38.991270845,2025-09-12,2025-09-26 14:04:59.127,HH,C,1642285720,JASSM,3,101,76,2,2,1,225,9,2,0,1,26,0,0,0,0,-153687.20837576812,-4780676.057588424,4210168.710417271,-2.71054,-1.0107,0.752513,35.125,-55.875,-61.75,0.0,0.0,0.0,0.0,0.0,0.0,2,0,41.54537860602378,-91.84128703453906,10997.37611651775,155.95330493856503,0.0001255539916969,0.0024883411269902,,9720.794529171932,12053.737931086003,150,1,2025-09-12,2025-09-26 14:04:59.015,HH,C,3643928578,HAWK11,1,1,73,2,1,1,225,2,1,0,0,12,1,225,2,1,-147770.37732108062,-4788856.184541549,4201735.044401646,3.03345,1.93981,-0.814831,-38.0,76.625,84.0,-0.1875,-7.39062,6.95312,-0.0390625,0.0117188,0.0214844,4,0,41.44089685036172,-91.76742273434084,12300.063979094832,-15.489450976349518,0.451963297592196,10.771826468028566,193.449,9720.794529171932,12053.737931086003,150,False,7.092337795722009,False,175.60593198010903,175.73987333700651,False,8.406391920051366,True,False
1,1970-07-23 10:27:39.003275000,2025-09-12,2025-09-26 14:05:00.327,HH,C,1643657410,JASSM,3,101,76,2,2,1,225,9,2,0,1,26,0,0,0,0,-153646.80407889312,-4780740.504854049,4210097.483854771,-2.71054,-1.0107,0.752609,35.125,-55.875,-61.75,0.0,0.0,0.0,0.0,0.0,0.0,2,0,41.54452219017646,-91.84077849603902,10997.376903454797,155.95593788226589,-0.0039296239646335,0.0024868899773564,,9720.794529171932,12053.737931086003,150,1,2025-09-12,2025-09-26 14:05:00.217,HH,C,3645320410,HAWK11,1,1,73,2,1,1,225,2,1,0,0,12,1,225,2,1,-147813.40466483062,-4788766.911104049,4201833.239714146,3.00708,1.91623,-0.821447,-36.125,76.875,85.0,-0.109375,-7.48438,7.0625,-0.0410156,-0.00195312,0.00585938,4,0,41.44208277985383,-91.76796997816903,12297.096904946611,-14.496480938146142,0.5546210091112503,8.283701745213673,193.217,9720.794529171932,12053.737931086003,150,True,6.961888599459266,False,174.62596680245267,175.61181911394254,False,9.547746100642005,True,False
1,1970-07-23 10:27:39.017431048,2025-09-12,2025-09-26 14:05:01.743,HH,C,1644969762,JASSM,3,101,76,2,2,1,225,9,2,0,1,26,0,0,0,0,-153608.14782889312,-4780802.163057174,4210029.335417271,-2.71054,-1.0107,0.752609,35.125,-55.875,-61.75,0.0,0.0,0.0,0.0,0.0,0.0,2,0,41.54370280590666,-91.84029197176926,10997.373444349088,155.95626054352783,-0.0030329721344572,0.0024855848843305,,9720.794529171932,12053.737931086003,150,1,2025-09-12,2025-09-26 14:05:01.515,HH,C,3646831542,HAWK11,1,1,73,2,1,1,225,2,1,0,0,12,1,225,2,1,-147857.73474295562,-4788668.848604049,4201941.788542271,2.97372,1.8961,-0.82672,-34.375,77.0,86.0,-0.3125,-7.42188,7.03125,-0.0351562,0.0,-0.00976562,4,0,41.4433906296042,-91.76853605812758,12295.11647748853,-13.660938846969264,0.6366854343199755,5.534219490987663,192.985,9720.794529171932,12053.737931086003,150,True,6.827050118628516,False,173.70733078558766,175.45814885178146,False,10.652292519684588,True,False
1,1970-07-23 10:27:39.031830262,2025-09-12,2025-09-26 14:05:03.183,HH,C,1646282282,JASSM,3,101,76,2,2,1,225,9,2,0,1,26,0,0,0,0,-153569.48669608062,-4780863.829072799,4209961.179167271,-2.71054,-1.0107,0.752609,35.125,-55.875,-61.75,0.0,0.0,0.0,0.0,0.0,0.0,2,0,41.5428833211756,-91.8398053983217,10997.3768952385,155.9565832321755,-0.0021362116754812,0.0024842817379822,,9720.794529171932,12053.737931086003,150,1,2025-09-12,2025-09-26 14:05:02.939,HH,C,3648104074,HAWK11,1,1,73,2,1,1,225,2,1,0,0,12,1,225,2,1,-147893.81677420562,-4788586.018525924,4202034.372526646,2.9696,1.87913,-0.834102,-33.25,77.125,86.5,-0.125,-7.48438,7.09375,0.0507812,0.00585938,0.0,4,0,41.44450162123822,-91.76899794258436,12295.296368279503,-12.919022524753307,0.879251610133081,4.590151786673762,192.141,9720.794529171932,12053.737931086003,150,True,6.704873095945517,False,173.128040958183,175.3100098103572,False,11.387822888233918,True,False
1,1970-07-23 10:27:39.036411227,2025-09-12,2025-09-26 14:05:03.641,HH,C,1647594464,JASSM,3,101,76,2,2,1,225,9,2,0,1,26,0,0,0,0,-153530.83532889312,-4780925.475557174,4209893.040495396,-2.71054,-1.0107,0.752609,35.125,-55.875,-61.75,0.0,0.0,0.0,0.0,0.0,0.0,2,0,41.542064067296494,-91.83931896158262,10997.376545366142,155.9569058249327,-0.0012397018403197,0.0024829884669856,,9720.794529171932,12053.737931086003,150,1,2025-09-12,2025-09-26 14:05:03.832,HH,C,3649535672,HAWK11,1,1,73,2,1,1,225,2,1,0,0,12,1,225,2,1,-147932.60583670562,-4788493.637666549,4202138.497526646,3.10372,1.84739,-0.836787,-31.5,77.125,87.375,-0.0625,-7.1875,6.73438,0.0625,0.00195312,0.0175781,4,0,41.4457468197607,-91.7694957293496,12297.276452452934,-11.6979683596939,0.7393889601871332,10.943988857830984,192.068,9720.794529171932,12053.737931086003,150,False,6.574909126718453,False,172.22673699769828,175.13486284311188,False,12.486624040324005,True,False
1,1970-07-23 10:27:39.045189064,2025-09-12,2025-09-26 14:05:04.518,HH,C,1648668206,JASSM,3,101,76,2,2,1,225,9,2,0,1,26,0,0,0,0,-153499.20739920562,-4780975.922822799,4209837.278776646,-2.71054,-1.0107,0.752609,35.125,-55.875,-61.75,0.0,0.0,0.0,0.0,0.0,0.0,2,0,41.541393632632136,-91.83892092458096,10997.376521588085,155.95716978929315,-0.0005060549505517,0.0024819114014957,,9720.794529171932,12053.737931086003,150,1,2025-09-12,2025-09-26 14:05:04.515,HH,C,3650410538,HAWK11,1,1,73,2,1,1,225,2,1,0,0,12,1,225,2,1,-147954.96130545562,-4788436.483369674,4202202.554167271,-3.13038,1.82314,-0.831993,-29.875,77.875,87.375,-0.015625,-6.85938,6.35938,0.0371094,0.00195312,0.0292969,4,0,41.446515049360926,-91.76978407450952,12297.592650859468,-10.847139738667217,0.2684929211244943,12.734330176584512,191.714,9720.794529171932,12053.737931086003,150,False,6.484368426593926,False,171.4399880697638,175.00926085980512,False,13.354027645564667,True,False
