Subject_cm,Timestamp,SampleDate_cm,SampleTime_cm,Configuration_cm,Scenario_cm,DisTime_cm,MarkingTxt_cm,Application_cm,EntId_cm,Site_cm,ExerciseId_cm,ForceId_cm,Category_cm,Country_cm,Domain_cm,Kind_cm,Extra_cm,Specific_cm,Subcategory_cm,AltCategory_cm,AltCountry_cm,AltDomain_cm,AltKind_cm,ECEF_X_cm,ECEF_Y_cm,ECEF_Z_cm,OriPhi_cm,OriPsi_cm,OriTheta_cm,LinVelX_cm,LinVelY_cm,LinVelZ_cm,LinAccX_cm,LinAccY_cm,LinAccZ_cm,AngVelX_cm,AngVelY_cm,AngVelZ_cm,DrAlg_cm,Appearance_cm,Latitude_cm,Longitude_cm,Altitude_cm,Heading_cm,Pitch_cm,Roll_cm,CalibratedAirspeed_cm,CM_Altitude_Lead_cm,CM_Altitude_Wing_cm,CM_Airspeed_cm,Subject_ac,SampleDate_ac,SampleTime_ac,Configuration_ac,Scenario_ac,DisTime_ac,MarkingTxt_ac,Application_ac,EntId_ac,Site_ac,ExerciseId_ac,ForceId_ac,Category_ac,Country_ac,Domain_ac,Kind_ac,Extra_ac,Specific_ac,Subcategory_ac,AltCategory_ac,AltCountry_ac,AltDomain_ac,AltKind_ac,ECEF_X_ac,ECEF_Y_ac,ECEF_Z_ac,OriPhi_ac,OriPsi_ac,OriTheta_ac,LinVelX_ac,LinVelY_ac,LinVelZ_ac,LinAccX_ac,LinAccY_ac,LinAccZ_ac,AngVelX_ac,AngVelY_ac,AngVelZ_ac,DrAlg_ac,Appearance_ac,Latitude_ac,Longitude_ac,Altitude_ac,Heading_ac,Pitch_ac,Roll_ac,CalibratedAirspeed_ac,CM_Altitude_Lead_ac,CM_Altitude_Wing_ac,CM_Airspeed_ac,Bank_Angle_Condition,distance_nm,Distance_Condition,angle_between_vel,angle_between_pos,Cone_Condition,angle_between_pos_nose,Nose_Cone_Condition,Intercept_Criteria
1,1970-07-23 09:33:44.431369415,2025-09-08,2025-09-26 20:14:03.136,HH,B,3224070148,JASSM,3,127,76,2,2,1,225,9,2,0,1,26,0,0,0,0,-103391.16863404664,-4799048.826246557,4191350.101042271,2.29982,3.002,-0.133073,-83.25,11.75,11.25,0.0,0.0,0.0,0.0,0.0,0.0,2,0,41.31707782977465,-91.23419484828496,12000.00065311679,-79.82099673961129,-0.0044466471937194,0.0013147031526418,,10456.756926878135,13162.46325448802,150,1,2025-09-08,2025-09-26 20:14:03.211,HH,B,4290363362,HAWK11,1,1,73,2,1,1,225,2,1,0,0,12,1,225,2,1,-148809.93591483062,-4787707.241182174,4203396.507292271,-2.66079,-0.833239,0.686936,62.0,-61.5,-72.75,0.078125,-7.20312,7.17188,0.0136719,0.00195312,0.00195312,4,0,41.4587517306509,-91.78027536118164,13163.53658784896,147.4871913968286,-0.190337909882611,-3.849199852548347,170.731,10456.756926878135,13162.46325448802,150,True,26.035367333195595,False,134.04299772738693,171.00818186223927,False,36.96563049152005,False,False
1,1970-07-23 09:33:44.439624369,2025-09-08,2025-09-26 20:14:03.962,HH,B,3225143890,JASSM,3,127,76,2,2,1,225,9,2,0,1,26,0,0,0,0,-103466.24675904664,-4799038.313551244,4191360.2172532086,2.29972,3.00248,-0.132593,-83.25,11.625,11.25,0.0,0.0,0.0,0.0,0.0,0.0,2,0,41.31719903725466,-91.23509349359207,12000.00094972226,-79.86020406515092,-0.0017570150043123,-0.0005384025907087,,10456.756926878135,13162.46325448802,150,1,2025-09-08,2025-09-26 20:14:03.916,HH,B,4291277994,HAWK11,1,1,73,2,1,1,225,2,1,0,0,12,1,225,2,1,-148762.61364920562,-4787753.727510299,4203340.815886021,-2.65427,-0.828925,0.684155,62.5,-61.75,-72.75,-0.1875,-6.875,6.96875,0.0,-0.0175781,-0.0117188,4,0,41.45810811653943,-91.77969232046864,13153.195905813942,147.2412097274912,-0.1536053006227175,-3.631392510963016,171.134,10456.756926878135,13162.46325448802,150,True,25.957238856374342,False,134.15938449993666,171.00262864639683,False,36.84416312840232,False,False
1,1970-07-23 09:33:44.450312982,2025-09-08,2025-09-26 20:14:05.031,HH,B,3226412308,JASSM,3,127,76,2,2,1,225,9,2,0,1,26,0,0,0,0,-103554.94011842164,-4799025.893629369,4191372.166471959,2.29972,3.00248,-0.132498,-83.25,11.625,11.25,0.0,0.0,0.0,0.0,0.0,0.0,2,0,41.317342210551125,-91.23615511051742,11999.999919654403,-79.86500223974097,-0.0046058044394414,-0.0005387733877399,,10456.756926878135,13162.46325448802,150,1,2025-09-08,2025-09-26 20:14:05.415,HH,B,4292948192,HAWK11,1,1,73,2,1,1,225,2,1,0,0,12,1,225,2,1,-148674.35388358062,-4787838.666963424,4203237.132292271,-2.63145,-0.81857,0.693263,63.375,-61.0,-74.0,0.15625,-6.84375,6.76562,0.0195312,0.0136719,0.015625,4,0,41.45691945223322,-91.77860558656708,13129.99399077753,147.12692637593358,-0.8369261721407556,-2.7000409526963574,172.662,10456.756926878135,13162.46325448802,150,True,25.839664018752437,False,134.37443144690425,171.100280424741,False,36.73079450671553,False,False
1,1970-07-23 09:33:44.460351981,2025-09-08,2025-09-26 20:14:06.035,HH,B,3227665076,JASSM,3,127,76,2,2,1,225,9,2,0,1,26,0,0,0,0,-103642.53972779664,-4799013.626051244,4191383.968229771,2.29972,3.00248,-0.132498,-83.25,11.625,11.25,0.0,0.0,0.0,0.0,0.0,0.0,2,0,41.31748361278401,-91.23720364055129,12000.00077670342,-79.8656945106335,-0.0038056979574101,-0.0005393969276,,10456.756926878135,13162.46325448802,150,1,2025-09-08,2025-09-26 20:14:06.013,HH,B,4293703758,HAWK11,1,1,73,2,1,1,225,2,1,0,0,12,1,225,2,1,-148634.05310233062,-4787877.188447799,4203189.829557896,-2.62378,-0.814064,0.691634,63.75,-61.125,-74.25,0.125,-6.90625,6.76562,0.00585938,-0.00585938,0.00585938,4,0,41.4563785275988,-91.77810947704846,13118.845833304971,146.9092280051944,-0.8624156274719736,-2.422163032702849,173.151,10456.756926878135,13162.46325448802,150,True,25.76050031972923,False,134.4542309389534,171.13608818438712,False,36.687134761823955,False,False
1,1970-07-23 09:33:44.473614413,2025-09-08,2025-09-26 20:14:07.361,HH,B,3228977358,JASSM,3,127,76,2,2,1,225,9,2,0,1,26,0,0,0,0,-103734.29754029664,-4799000.775465307,4191396.3285813336,2.29972,3.00248,-0.132498,-83.25,11.625,11.25,0.0,0.0,0.0,0.0,0.0,0.0,2,0,41.31763171005436,-91.23830194754328,12000.000867113213,-79.86641964785645,-0.0029676128872239,-0.0005400432716741,,10456.756926878135,13162.46325448802,150,1,2025-09-08,2025-09-26 20:14:06.915,HH,B,4294896758,HAWK11,1,1,73,2,1,1,225,2,1,0,0,12,1,225,2,1,-148569.69763358062,-4787938.627900924,4203114.403776646,-2.63375,-0.811763,0.691346,64.25,-61.5,-74.5,0.0625,-7.0625,7.03125,-0.0195312,0.0,0.00390625,4,0,41.45551592375752,-91.77731729391576,13101.106698867698,146.8149790880954,-0.9014281947918416,-3.076039501620629,174.275,10456.756926878135,13162.46325448802,150,True,25.660235847501387,False,134.544220677125,171.20260364556287,False,36.663261349879875,False,False
1,1970-07-23 09:33:44.482252864,2025-09-08,2025-09-26 20:14:08.225,HH,B,3230289708,JASSM,3,127,76,2,2,1,225,9,2,0,1,26,0,0,0,0,-103826.06316529664,-4798987.921949682,4191408.688932896,2.29972,3.00238,-0.132498,-83.25,11.625,11.25,0.0,0.0,0.0,0.0,0.0,0.0,2,0,41.31777981323968,-91.23940035349436,11999.998642367453,-79.86351913907858,-0.0061895227901682,-0.0012664362906504,,10456.756926878135,13162.46325448802,150,1,2025-09-08,2025-09-26 20:14:08.237,HH,B,366894,HAWK11,1,1,73,2,1,1,225,2,1,0,0,12,1,225,2,1,-148546.50427420562,-4787960.651338424,4203087.360807896,-2.64228,-0.811284,0.687703,64.5,-61.625,-74.5,-0.171875,-7.35938,7.23438,-0.0253906,0.00585938,0.00585938,4,0,41.455206697547,-91.77703184439969,13094.72707927979,146.68604541458342,-0.7356662746287651,-3.5805487150093924,175.778,10456.756926878135,13162.46325448802,150,True,25.592306074489812,False,134.62648027490133,171.2154928230651,False,36.5935847148919,False,False
1,1970-07-23 09:33:44.493271180,2025-09-08,2025-09-26 20:14:09.327,HH,B,3231542408,JASSM,3,127,76,2,2,1,225,9,2,0,1,26,0,0,0,0,-103913.65496217164,-4798975.652418432,4191420.487761021,2.29972,3.00238,-0.132498,-83.25,11.625,11.25,0.0,0.0,0.0,0.0,0.0,0.0,2,0,41.31792117870548,-91.24044880482658,12000.000578947089,-79.86421136401127,-0.0053894861543608,-0.0012670142591993,,10456.756926878135,13162.46325448802,150,1,2025-09-08,2025-09-26 20:14:09.509,HH,B,3031258,HAWK11,1,1,73,2,1,1,225,2,1,0,0,12,1,225,2,1,-148400.15661795562,-4788099.926729049,4202920.864714146,-2.66213,-0.801409,0.665268,66.25,-63.125,-73.375,-0.078125,-7.28125,7.1875,0.00195312,0.00195312,-0.00585938,4,0,41.453281582665646,-91.77523063173165,13064.25121323158,145.6265117973865,0.1162712478462353,-5.066099858551843,176.548,10456.756926878135,13162.46325448802,150,True,25.43085384979285,False,135.3332546092734,171.38695992216242,False,36.05403247251429,False,False
1,1970-07-23 09:33:44.504815401,2025-09-08,2025-09-26 20:14:10.481,HH,B,3232854764,JASSM,3,127,76,2,2,1,225,9,2,0,1,26,0,0,0,0,-104005.42058717164,-4798962.797926244,4191432.8461594586,2.29972,3.00238,-0.132498,-83.25,11.625,11.25,0.0,0.0,0.0,0.0,0.0,0.0,2,0,41.318069253997066,-91.24154722074904,12000.000486826204,-79.86493657944078,-0.0045513298505333,-0.0012676038510092,,10456.756926878135,13162.46325448802,150,1,2025-09-08,2025-09-26 20:14:10.617,HH,B,4264024,HAWK11,1,1,73,2,1,1,225,2,1,0,0,12,1,225,2,1,-148331.67419608062,-4788164.600557174,4202845.296354771,-2.65388,-0.79652,0.657215,67.125,-63.625,-72.875,0.015625,-7.5,7.125,0.00976562,0.0,-0.0117188,4,0,41.45239949582128,-91.77438798577472,13053.862904208005,145.1920786266791,0.3867731287108624,-4.767616742751856,176.976,10456.756926878135,13162.46325448802,150,True,25.328190662997535,False,135.70654992377555,171.45615823834368,False,35.74960858341089,False,False
1,1970-07-23 09:33:44.515352639,2025-09-08,2025-09-26 20:14:11.535,HH,B,3234167108,JASSM,3,127,76,2,2,1,225,9,2,0,1,26,0,0,0,0,-104097.18425904664,-4798949.942457494,4191445.204557896,2.29972,3.00238,-0.132498,-83.25,11.625,11.25,0.0,0.0,0.0,0.0,0.0,0.0,2,0,41.31821732485559,-91.2426456185881,12000.002371138107,-79.86566178507094,-0.0037131895489638,-0.0012682024073838,,10456.756926878135,13162.46325448802,150,1,2025-09-08,2025-09-26 20:14:11.617,HH,B,5536556,HAWK11,1,1,73,2,1,1,225,2,1,0,0,12,1,225,2,1,-148259.40857108062,-4788232.694307174,4202766.919401646,-2.64813,-0.796903,0.646381,67.75,-64.0,-72.375,0.09375,-7.70312,7.375,0.0175781,0.0136719,-0.00195312,4,0,41.45147879516586,-91.7734988696146,13045.499983631504,144.87194516226796,0.9196606297277558,-4.428327943492546,177.318,10456.756926878135,13162.46325448802,150,True,25.22284545130065,False,135.9978454585036,171.52940008950142,False,35.53183803186157,False,False
1,1970-07-23 09:33:44.526372289,2025-09-08,2025-09-26 20:14:12.637,HH,B,3235479462,JASSM,3,127,76,2,2,1,225,9,2,0,1,26,0,0,0,0,-104188.94793092164,-4798937.085035619,4191457.5610032086,2.29972,3.00238,-0.132498,-83.25,11.625,11.25,0.0,0.0,0.0,0.0,0.0,0.0,2,0,41.31836538363002,-91.24374402190446,11999.99969958055,-79.86638699645817,-0.0028750491765103,-0.0012687992826983,,10456.756926878135,13162.46325448802,150,1,2025-09-08,2025-09-26 20:14:12.710,HH,B,6809088,HAWK11,1,1,73,2,1,1,225,2,1,0,0,12,1,225,2,1,-148187.23474295562,-4788300.604463424,4202690.079557896,-2.62608,-0.793643,0.640916,68.375,-64.5,-71.75,-0.234375,-7.42188,7.0,0.0117188,-0.00585938,0.0,4,0,41.450569529918425,-91.77261094318116,13040.039360703344,144.57742140078986,1.1032555944969291,-3.2821794505237327,177.526,10456.756926878135,13162.46325448802,150,True,25.117809810298613,False,136.29069224409426,171.60178980043685,False,35.31255841766957,False,False
1,1970-07-23 09:33:44.537999872,2025-09-08,2025-09-26 20:14:13.799,HH,B,3236791810,JASSM,3,127,76,2,2,1,225,9,2,0,1,26,0,0,0,0,-104280.71160279664,-4798924.227613744,4191469.917448521,2.29972,3.00238,-0.132498,-83.25,11.625,11.25,0.0,0.0,0.0,0.0,0.0,0.0,2,0,41.31851343191914,-91.24484243019226,12000.001514431313,-79.86711221326817,-0.0020369088256438,-0.0012693961177028,,10456.756926878135,13162.46325448802,150,1,2025-09-08,2025-09-26 20:14:13.915,HH,B,8002086,HAWK11,1,1,73,2,1,1,225,2,1,0,0,12,1,225,2,1,-148118.33044608062,-4788365.129854049,4202617.433073521,-2.52052,-0.798725,0.641396,68.5,-64.625,-71.625,-0.171875,-7.09375,6.76562,0.224609,0.00585938,0.00976562,4,0,41.44970808933815,-91.7717633772529,13035.622976132136,144.7891513558438,1.2073691256838164,2.9442028983022106,177.99,10456.756926878135,13162.46325448802,150,True,25.015444308456,False,136.3442749936468,171.66984252814575,False,35.32742417769486,False,False
1,1970-07-23 09:33:44.548274079,2025-09-08,2025-09-26 20:14:14.827,HH,B,3238104164,JASSM,3,127,76,2,2,1,225,9,2,0,1,26,0,0,0,0,-104372.47527467164,-4798911.368238744,4191482.272917271,2.29972,3.00238,-0.132498,-83.25,11.625,11.25,0.0,0.0,0.0,0.0,0.0,0.0,2,0,41.31866147472432,-91.2459408439576,12000.000888801296,-79.86783743583493,-0.0011987672420541,-0.0012699977689519,,10456.756926878135,13162.46325448802,150,1,2025-09-08,2025-09-26 20:14:14.805,HH,B,9274618,HAWK11,1,1,73,2,1,1,225,2,1,0,0,12,1,225,2,1,-148046.38708670562,-4788433.571260299,4202540.638151646,-2.32187,-0.812626,0.640916,67.125,-65.375,-72.375,0.09375,-7.25,6.78125,0.144531,0.00195312,0.0234375,4,0,41.44879590723744,-91.77087805701188,13031.598999417856,145.31415514270887,1.5736848476201737,14.815206257625851,177.611,10456.756926878135,13162.46325448802,150,False,24.910544774492852,False,135.50554697986266,171.74387728853247,False,36.24039502340936,False,False
1,1970-07-23 09:33:44.558331990,2025-09-08,2025-09-26 20:14:15.833,HH,B,3239357050,JASSM,3,127,76,2,2,1,225,9,2,0,1,26,0,0,0,0,-104460.08269654664,-4798899.090894994,4191494.067839146,2.29972,3.00238,-0.132402,-83.25,11.625,11.25,0.0,0.0,0.0,0.0,0.0,0.0,2,0,41.318802798578815,-91.24698951203628,12000.001455795877,-79.87262703460591,-0.0040575255713972,-0.0012704089828547,,10456.756926878135,13162.46325448802,150,1,2025-09-08,2025-09-26 20:14:15.711,HH,B,10427850,HAWK11,1,1,73,2,1,1,225,2,1,0,0,12,1,225,2,1,-147982.51208670562,-4788497.301729049,4202468.813932896,-2.2493,-0.85577,0.66431,64.375,-66.25,-74.0,-0.03125,-7.39062,6.9375,0.0625,0.0117188,0.0566406,4,0,41.44794380614829,-91.7700909496364,13027.41144126888,147.68995300744467,1.4528264336639134,20.537653558143717,177.734,10456.756926878135,13162.46325448802,150,False,24.813275538306048,False,133.91290985925164,171.81454070892215,False,37.9028958411192,False,False
1,1970-07-23 09:33:44.569335154,2025-09-08,2025-09-26 20:14:16.933,HH,B,3240669212,JASSM,3,127,76,2,2,1,225,9,2,0,1,26,0,0,0,0,-104551.83269654664,-4798886.231519994,4191506.419401646,2.29972,3.00238,-0.132402,-83.25,11.75,11.25,0.0,0.0,0.0,0.0,0.0,0.0,2,0,41.31895079625613,-91.24808777236096,12000.000404409651,-79.87335216000477,-0.0032195090355005,-0.0012710677881217,,10456.756926878135,13162.46325448802,150,1,2025-09-08,2025-09-26 20:14:17.305,HH,B,12296882,HAWK11,1,1,73,2,1,1,225,2,1,0,0,12,1,225,2,1,-147885.90661795562,-4788601.323213424,4202350.501432896,-2.23837,-0.912239,0.690675,59.0,-67.75,-76.75,-0.328125,-7.57812,7.03125,0.00390625,0.00390625,0.0332031,4,0,41.44654429250968,-91.76889773723748,13018.825945372855,150.62935586158383,1.383312399864565,23.26529377818835,177.905,10456.756926878135,13162.46325448802,150,False,24.686197183308956,False,130.967452069808,171.99748293546986,False,41.03131289330507,False,False
1,1970-07-23 09:33:44.580350327,2025-09-08,2025-09-26 20:14:18.035,HH,B,3241921912,JASSM,3,127,76,2,2,1,225,9,2,0,1,26,0,0,0,0,-104639.42644654664,-4798873.954176244,4191518.210417271,2.29972,3.00229,-0.132402,-83.25,11.75,11.25,0.0,0.0,0.0,0.0,0.0,0.0,2,0,41.31909207591394,-91.24913628655707,12000.00014716234,-79.87041863098918,-0.0064795279886445,-0.0019969322453993,,10456.756926878135,13162.46325448802,150,1,2025-09-08,2025-09-26 20:14:18.015,HH,B,13092214,HAWK11,1,1,73,2,1,1,225,2,1,0,0,12,1,225,2,1,-147847.41833670562,-4788646.661104049,4202298.601042271,-2.25783,-0.941289,0.702563,56.625,-68.625,-77.75,-0.078125,-8.0,7.32812,0.0136719,0.0253906,0.0410156,4,0,41.44593139248288,-91.7684209297515,13014.63920198144,152.0770441934998,1.3803330704199626,23.253115562709024,177.905,10456.756926878135,13162.46325448802,150,False,24.60677904873952,False,129.6480080118746,172.04777405986567,False,42.40113486008092,False,False
1,1970-07-23 09:33:44.591610374,2025-09-08,2025-09-26 20:14:19.161,HH,B,3243234262,JASSM,3,127,76,2,2,1,225,9,2,0,1,26,0,0,0,0,-104731.19011842164,-4798861.091871557,4191530.561979771,2.29972,3.00229,-0.132402,-83.25,11.75,11.25,0.0,0.0,0.0,0.0,0.0,0.0,2,0,41.319240068731176,-91.25023472051338,12000.00138063924,-79.87114387517174,-0.0056413875143508,-0.0019975316764823,,10456.756926878135,13162.46325448802,150,1,2025-09-08,2025-09-26 20:14:19.117,HH,B,14444280,HAWK11,1,1,73,2,1,1,225,2,1,0,0,12,1,225,2,1,-147785.68005545562,-4788726.125947799,4202208.726042271,-2.27307,-1.01367,0.71378,51.5,-70.875,-79.0,-0.015625,-8.8125,8.45312,0.0429688,0.03125,0.0390625,4,0,41.44486345715448,-91.76765362468704,13010.114312179112,155.19189468454178,2.18439209435153,25.17497208063025,178.332,10456.756926878135,13162.46325448802,150,False,24.504250348170984,False,126.90532980296095,172.14894476816679,False,45.24708811145537,False,False
1,1970-07-23 09:33:44.602252027,2025-09-08,2025-09-26 20:14:20.225,HH,B,3244546614,JASSM,3,127,76,2,2,1,225,9,2,0,1,26,0,0,0,0,-104822.95379029664,-4798848.227613744,4191542.9125657086,2.29972,3.00229,-0.132402,-83.25,11.75,11.25,0.0,0.0,0.0,0.0,0.0,0.0,2,0,41.31938805606418,-91.25133315994783,12000.000173662867,-79.87186912511046,-0.004803245805959,-0.0019981359238407,,10456.756926878135,13162.46325448802,150,1,2025-09-08,2025-09-26 20:14:20.305,HH,B,15915644,HAWK11,1,1,73,2,1,1,225,2,1,0,0,12,1,225,2,1,-147725.88708670562,-4788815.313447799,4202110.138151646,-2.27892,-1.08136,0.72356,45.25,-73.25,-80.25,0.015625,-8.78125,8.28125,0.0527344,0.03125,0.046875,4,0,41.44367850938254,-91.76690601200976,13010.725869768918,158.09802559055134,2.823313037773551,27.520819496008023,178.161,10456.756926878135,13162.46325448802,150,False,24.40049745992767,False,123.63867168444627,172.267206501071,False,48.6352022303937,False,False
1,1970-07-23 09:33:44.612311036,2025-09-08,2025-09-26 20:14:21.231,HH,B,3245799314,JASSM,3,127,76,2,2,1,225,9,2,0,1,26,0,0,0,0,-104910.54754029664,-4798835.947340307,4191554.7016282086,2.29972,3.00229,-0.132402,-83.25,11.75,11.25,0.0,0.0,0.0,0.0,0.0,0.0,2,0,41.31952931035097,-91.25238168892255,12000.00112145167,-79.87256142342306,-0.0040031905361033,-0.0019987142021068,,10456.756926878135,13162.46325448802,150,1,2025-09-08,2025-09-26 20:14:21.414,HH,B,17148410,HAWK11,1,1,73,2,1,1,225,2,1,0,0,12,1,225,2,1,-147682.86755545562,-4788891.700166549,4202027.194792271,-2.26789,-1.16535,0.728641,39.0,-75.25,-80.875,-0.28125,-9.5625,8.82812,0.0605469,0.0527344,0.0429688,4,0,41.4426722065794,-91.76636363649293,13015.12470479702,161.5809957577271,3.794469887104995,31.549683469817552,178.125,10456.756926878135,13162.46325448802,150,False,24.31118562530741,False,120.48154034018734,172.36966331282315,False,51.899256133838065,False,False
1,1970-07-23 09:33:44.623331690,2025-09-08,2025-09-26 20:14:22.333,HH,B,3247111664,JASSM,3,127,76,2,2,1,225,9,2,0,1,26,0,0,0,0,-105002.31121217164,-4798823.081129369,4191567.050261021,2.29972,3.00229,-0.132402,-83.25,11.75,11.25,0.0,0.0,0.0,0.0,0.0,0.0,2,0,41.3196772755899,-91.25348013857904,11999.999641183444,-79.87328668429281,-0.0031650487743142,-0.0019993167299045,,10456.756926878135,13162.46325448802,150,1,2025-09-08,2025-09-26 20:14:22.415,HH,B,18420942,HAWK11,1,1,73,2,1,1,225,2,1,0,0,12,1,225,2,1,-147645.56872733062,-4788973.751924361,4201940.185026646,-2.27403,-1.26688,0.732476,31.0,-77.0,-81.375,-0.1875,-9.65625,9.0625,0.0488281,0.0488281,0.046875,4,0,41.4416036992492,-91.76588756852966,13025.060690961667,165.8106297289375,4.809226755384754,35.39919814336494,177.318,10456.756926878135,13162.46325448802,150,False,24.22140542368446,False,116.5093244165849,172.48260262645942,False,55.98925478459933,False,False
1,1970-07-23 09:33:44.634350098,2025-09-08,2025-09-26 20:14:23.435,HH,B,3248424342,JASSM,3,127,76,2,2,1,225,9,2,0,1,26,0,0,0,0,-105094.09636842164,-4798810.211012182,4191579.401823521,2.29972,3.00229,-0.132402,-83.25,11.75,11.25,0.0,0.0,0.0,0.0,0.0,0.0,2,0,41.31982527055211,-91.25457885061648,12000.00052993654,-79.87401212054162,-0.0023267096502703,-0.0019999248113645,,10456.756926878135,13162.46325448802,150,1,2025-09-08,2025-09-26 20:14:23.509,HH,B,19693474,HAWK11,1,1,73,2,1,1,225,2,1,0,0,12,1,225,2,1,-147617.48669608062,-4789056.514619674,4201853.380339146,-2.27969,-1.35307,0.752513,22.625,-77.875,-82.25,-0.25,-8.70312,7.9375,0.03125,0.03125,0.0605469,4,0,41.44053065108768,-91.76552141887312,13037.89612735663,169.6233985502173,4.476555766253878,38.724111779347226,175.742,10456.756926878135,13162.46325448802,150,False,24.136352465334376,False,112.33848620569634,172.60043453709184,False,60.27870064856543,False,False
1,1970-07-23 09:33:44.645372153,2025-09-08,2025-09-26 20:14:24.537,HH,B,3249736364,JASSM,3,127,76,2,2,1,225,9,2,0,1,26,0,0,0,0,-105185.83855592164,-4798797.345777807,4191591.746550084,2.29972,3.00229,-0.132402,-83.25,11.75,11.25,0.0,0.0,0.0,0.0,0.0,0.0,2,0,41.31997318541174,-91.25567705356332,12000.000807399178,-79.87473722279675,-0.0014887628503146,-0.0020005321980912,,10456.756926878135,13162.46325448802,150,1,2025-09-08,2025-09-26 20:14:24.507,HH,B,20806940,HAWK11,1,1,73,2,1,1,225,2,1,0,0,12,1,225,2,1,-147599.71911795562,-4789129.140596236,4201775.019011021,-2.29963,-1.42305,0.778016,15.875,-77.125,-83.625,-0.046875,-7.96875,7.23438,0.03125,0.0273438,0.0683594,4,0,41.43957300560494,-91.76528229760196,13044.93494902186,172.71847722840704,3.495958998784355,40.5754328276246,174.324,10456.756926878135,13162.46325448802,150,False,24.058955352953532,False,108.97842924690727,172.7074654888467,False,63.73987898137463,False,False
1,1970-07-23 09:33:44.656248805,2025-09-08,2025-09-26 20:14:25.624,HH,B,3250989066,JASSM,3,127,76,2,2,1,225,9,2,0,1,26,0,0,0,0,-105273.43035279664,-4798785.061598119,4191603.5317063336,2.29972,3.00229,-0.132402,-83.25,11.75,11.25,0.0,0.0,0.0,0.0,0.0,0.0,2,0,41.32011439717217,-91.25672557900572,12000.0005007166,-79.87542952685236,-0.0006887246576383,-0.0020011103704761,,10456.756926878135,13162.46325448802,150,1,2025-09-08,2025-09-26 20:14:25.710,HH,B,22318072,HAWK11,1,1,73,2,1,1,225,2,1,0,0,12,1,225,2,1,-147585.76013358062,-4789225.625947799,4201667.333464146,-2.40106,-1.53369,0.798725,6.75,-75.875,-85.125,-0.21875,-8.20312,7.35938,-0.0859375,0.0234375,0.0625,4,0,41.43827482717892,-91.76507991662793,13047.2515883737,177.2835922514807,2.729025195389987,39.50995547518877,173.591,10456.756926878135,13162.46325448802,150,False,23.979435728552424,False,104.40862442143549,172.8636086142849,False,68.46024769255037,False,False
1,1970-07-23 09:33:44.666291311,2025-09-08,2025-09-26 20:14:26.629,HH,B,3252242264,JASSM,3,127,76,2,2,1,225,9,2,0,1,26,0,0,0,0,-105361.05925904664,-4798772.771559057,4191615.3207688336,2.29972,3.00229,-0.132306,-83.25,11.75,11.25,0.0,0.0,0.0,0.0,0.0,0.0,2,0,41.320255655744624,-91.25777455337,12000.000316664276,-79.88021930113771,-0.0035473376639387,-0.0020015624874238,,10456.756926878135,13162.46325448802,150,1,2025-09-08,2025-09-26 20:14:26.636,HH,B,21204606,HAWK11,1,1,73,2,1,1,225,2,1,0,0,12,1,225,2,1,-147594.94568045562,-4789154.195283736,4201747.479948521,-2.31545,-1.45297,0.782714,13.625,-76.875,-84.0,-0.3125,-8.29688,7.26562,0.0117188,0.0371094,0.0566406,4,0,41.439238974131655,-91.765216014727,13046.369138380434,173.96248654599313,3.3781390209308864,40.94946873510237,172.943,10456.756926878135,13162.46325448802,150,False,23.954762328217686,False,107.85488516800316,172.72159723920538,False,64.87613916375923,False,False
1,1970-07-23 09:33:44.677310949,2025-09-08,2025-09-26 20:14:27.731,HH,B,3253554456,JASSM,3,127,76,2,2,1,225,9,2,0,1,26,0,0,0,0,-105452.81121217164,-4798759.902418432,4191627.663542271,2.29972,3.00219,-0.132306,-83.25,11.75,11.25,0.0,0.0,0.0,0.0,0.0,0.0,2,0,41.32040354883258,-91.25887288833174,12000.000318247035,-79.87731858713255,-0.0067693810680567,-0.0027269586958091,,10456.756926878135,13162.46325448802,150,1,2025-09-08,2025-09-26 20:14:27.508,HH,B,24465468,HAWK11,1,1,73,2,1,1,225,2,1,0,0,12,1,225,2,1,-147584.37536795562,-4789358.727510299,4201511.878386021,-2.81706,-1.62449,0.821159,-3.25,-73.625,-86.625,-0.3125,-7.20312,6.3125,-0.361328,0.00195312,-0.0136719,4,0,41.43643414512327,-91.76501434370626,13036.831439584425,-179.10634199640342,1.5069478909262028,19.577619749278835,172.674,10456.756926878135,13162.46325448802,150,False,23.846478102753522,False,99.36031747502004,173.0850244181091,False,73.72560237769707,False,False
1,1970-07-23 09:33:44.688329443,2025-09-08,2025-09-26 20:14:28.832,HH,B,3254866706,JASSM,3,127,76,2,2,1,225,9,2,0,1,26,0,0,0,0,-105544.56707154664,-4798747.031324682,4191640.0063157086,2.29972,3.00219,-0.132306,-83.25,11.75,11.25,0.0,0.0,0.0,0.0,0.0,0.0,2,0,41.3205514425282,-91.25997127538882,12000.000205409724,-79.87804381922685,-0.0059313091087535,-0.0027275705905945,,10456.756926878135,13162.46325448802,150,1,2025-09-08,2025-09-26 20:14:28.710,HH,B,25897068,HAWK11,1,1,73,2,1,1,225,2,1,0,0,12,1,225,2,1,-147589.80310233062,-4789446.674775924,4201406.731901646,2.96844,-1.59745,0.817228,-4.375,-73.375,-86.125,-0.046875,-7.64062,6.78125,-0.390625,-0.00976562,0.0,4,0,41.43520035742867,-91.76504682371026,13025.164733641976,179.83711319966486,1.740812594926043,-10.09912322662805,172.369,10456.756926878135,13162.46325448802,150,False,23.77637667669698,False,98.78486498472357,173.24172118372513,False,74.4579145739443,False,False
1,1970-07-23 09:33:44.700331947,2025-09-08,2025-09-26 20:14:30.033,HH,B,3256238468,JASSM,3,127,76,2,2,1,225,9,2,0,1,26,0,0,0,0,-105640.48504029664,-4798733.575269994,4191652.9086594586,2.29972,3.00219,-0.132306,-83.25,11.75,11.25,0.0,0.0,0.0,0.0,0.0,0.0,2,0,41.320706038152366,-91.26111949164697,12000.001462093302,-79.8788019543365,-0.0050552206260333,-0.0027282146655723,,10456.756926878135,13162.46325448802,150,1,2025-09-08,2025-09-26 20:14:30.210,HH,B,27686566,HAWK11,1,1,73,2,1,1,225,2,1,0,0,12,1,225,2,1,-147592.96325858062,-4789555.911104049,4201278.036589146,2.63826,-1.50119,0.824994,1.625,-73.0,-86.0,-0.140625,-8.51562,7.64062,-0.128906,0.0332031,-0.0820312,4,0,41.43368140806323,-91.76504436138724,13014.548945802868,176.09893943881798,1.1507899300364353,-33.15000518448653,173.456,10456.756926878135,13162.46325448802,150,False,23.69777875061055,False,101.82189989836569,173.43715169715165,False,71.61601948564248,False,False
1,1970-07-23 09:33:44.710774102,2025-09-08,2025-09-26 20:14:31.077,HH,B,3257491168,JASSM,3,127,76,2,2,1,225,9,2,0,1,26,0,0,0,0,-105728.07879029664,-4798721.286207494,4191664.688932896,2.29972,3.00219,-0.132306,-83.25,11.75,11.25,0.0,0.0,0.0,0.0,0.0,0.0,2,0,41.320847196067135,-91.2621680651702,11999.99987338466,-79.8794943001747,-0.0042551651074107,-0.0027287917981426,,10456.756926878135,13162.46325448802,150,1,2025-09-08,2025-09-26 20:14:31.117,HH,B,28720498,HAWK11,1,1,73,2,1,1,225,2,1,0,0,12,1,225,2,1,-147589.79724295562,-4789620.151338424,4201202.284636021,2.61697,-1.39583,0.836978,7.125,-72.875,-85.75,-0.421875,-8.6875,8.03125,-0.107422,0.0273438,-0.0703125,4,0,41.43278859748836,-91.76498286540608,13007.784125594171,172.13504640354668,0.0049492873192101,-38.87038867540248,172.943,10456.756926878135,13162.46325448802,150,False,23.632097982977392,False,104.61951203635392,173.54608624785538,False,68.92731977160149,False,False
1,1970-07-23 09:33:44.721592897,2025-09-08,2025-09-26 20:14:32.159,HH,B,3258743868,JASSM,3,127,76,2,2,1,225,9,2,0,1,26,0,0,0,0,-105815.67058717164,-4798708.996168432,4191676.4692063336,2.29972,3.00219,-0.132306,-83.25,11.75,11.25,0.0,0.0,0.0,0.0,0.0,0.0,2,0,41.32098835048321,-91.26321662016676,11999.999860881471,-79.88018663572772,-0.0034551255872377,-0.0027293778985857,,10456.756926878135,13162.46325448802,150,1,2025-09-08,2025-09-26 20:14:32.305,HH,B,30152096,HAWK11,1,1,73,2,1,1,225,2,1,0,0,12,1,225,2,1,-147575.63513358062,-4789707.790986861,4201099.470182896,2.61429,-1.28528,0.818858,16.75,-72.0,-85.25,-0.28125,-9.60938,8.89062,-0.0371094,0.0703125,-0.0488281,4,0,41.43157596163635,-91.76478134077554,12998.968507591671,167.73251260525123,0.1953720233622027,-43.69918858214809,174.153,10456.756926878135,13162.46325448802,150,False,23.555039168671296,False,109.52877119205336,173.69604977464243,False,64.16762726958792,False,False
1,1970-07-23 09:33:44.732272181,2025-09-08,2025-09-26 20:14:33.227,HH,B,3260056218,JASSM,3,127,76,2,2,1,225,9,2,0,1,26,0,0,0,0,-105907.43425904664,-4798696.120191869,4191688.810026646,2.29982,3.00219,-0.132306,-83.25,11.75,11.25,0.0,0.0,0.0,0.0,0.0,0.0,2,0,41.32113621749482,-91.26431512137977,12000.001652754718,-79.88091195165144,-0.0026169812351304,0.0027614803792499,,10456.756926878135,13162.46325448802,150,1,2025-09-08,2025-09-26 20:14:33.305,HH,B,31345096,HAWK11,1,1,73,2,1,1,225,2,1,0,0,12,1,225,2,1,-147554.39685233062,-4789780.395479049,4201015.147917271,2.68974,-1.15998,0.800642,25.875,-71.125,-83.875,-0.34375,-10.0156,9.1875,-0.0195312,0.0507812,-0.0644531,4,0,41.430578862572894,-91.76450079346316,12992.805800038532,162.6878505862356,-0.1744184962014935,-44.57933280631924,173.945,10456.756926878135,13162.46325448802,150,False,23.476063004686633,False,114.23346550585914,173.81371802018856,False,59.580641103735395,False,False
1,1970-07-23 09:33:44.744819871,2025-09-08,2025-09-26 20:14:34.481,HH,B,3261368570,JASSM,3,127,76,2,2,1,225,9,2,0,1,26,0,0,0,0,-105999.19793092164,-4798683.243238744,4191701.1488938336,2.29982,3.00219,-0.132306,-83.25,11.75,11.25,0.0,0.0,0.0,0.0,0.0,0.0,2,0,41.32128406662022,-91.26541362781563,12000.001294439957,-79.88163727316196,-0.0017788380144422,0.0027608739224297,,10456.756926878135,13162.46325448802,150,1,2025-09-08,2025-09-26 20:14:34.507,HH,B,32776694,HAWK11,1,1,73,2,1,1,225,2,1,0,0,12,1,225,2,1,-147517.34607108062,-4789865.411104049,4200916.665495396,2.78111,-1.03851,0.768045,36.625,-69.25,-81.625,-0.125,-9.70312,9.20312,0.0371094,0.0625,-0.0449219,4,0,41.42941526270031,-91.76402671822822,12985.227018427018,157.4218173820974,-0.2103018278171236,-44.24655261322479,173.689,10456.756926878135,13162.46325448802,150,False,23.386036762989963,False,119.88067115564272,173.9497931025506,False,54.06939543381897,False,False
1,1970-07-23 09:33:44.754330136,2025-09-08,2025-09-26 20:14:35.433,HH,B,3262680926,JASSM,3,127,76,2,2,1,225,9,2,0,1,26,0,0,0,0,-106090.96160279664,-4798670.364332494,4191713.487761021,2.29982,3.00219,-0.132306,-83.25,11.75,11.25,0.0,0.0,0.0,0.0,0.0,0.0,2,0,41.32143191686056,-91.2665121397319,12000.00061131116,-79.88236260042858,-0.0009406923963135,0.0027602561519788,,10456.756926878135,13162.46325448802,150,1,2025-09-08,2025-09-26 20:14:35.210,HH,B,33691326,HAWK11,1,1,73,2,1,1,225,2,1,0,0,12,1,225,2,1,-147486.39294608062,-4789919.126924361,4200854.921354771,2.86202,-0.961039,0.738804,43.375,-67.5,-79.625,-0.328125,-9.6875,9.0,0.0332031,0.0449219,-0.0742188,4,0,41.4286846822972,-91.76363704577724,12980.915299171724,153.78050301423167,-0.0667361754994394,-42.63921919854997,173.505,10456.756926878135,13162.46325448802,150,False,23.30696099441113,False,123.55483786925689,174.02815046408085,False,50.47348735200823,False,False
1,1970-07-23 09:33:44.765370324,2025-09-08,2025-09-26 20:14:36.537,HH,B,3263993272,JASSM,3,127,76,2,2,1,225,9,2,0,1,26,0,0,0,0,-106182.72527467164,-4798657.485426244,4191725.824675084,2.29982,3.00219,-0.132306,-83.25,11.75,11.25,0.0,0.0,0.0,0.0,0.0,0.0,2,0,41.321579743413416,-91.2676106566134,12000.000183620808,-79.88308793311153,-0.0001025491185636,0.0027596514165344,,10456.756926878135,13162.46325448802,150,1,2025-09-08,2025-09-26 20:14:37.210,HH,B,35997790,HAWK11,1,1,73,2,1,1,225,2,1,0,0,12,1,225,2,1,-147387.47302420562,-4790047.034150924,4200707.145964146,3.02702,-0.794027,0.666323,57.875,-63.375,-73.5,-0.28125,-9.5,8.6875,0.0546875,0.0488281,-0.0566406,4,0,41.42694457817856,-91.76240787851232,12967.125497231413,145.38760979095903,-0.0870089490154245,-39.37004872084232,172.809,10456.756926878135,13162.46325448802,150,False,23.174963503701424,False,131.80812931559205,174.22543681268027,False,42.41785403629667,False,False
1,1970-07-23 09:33:44.776288250,2025-09-08,2025-09-26 20:14:37.628,HH,B,3265306070,JASSM,3,127,76,2,2,1,225,9,2,0,1,26,0,0,0,0,-106274.52019654664,-4798644.600660619,4191738.165495396,2.29982,3.0021,-0.13221,-83.25,11.75,11.25,0.0,0.0,0.0,0.0,0.0,0.0,2,0,41.321727616574336,-91.26870955294989,11999.999975619316,-79.88428463610994,-0.0069832450058806,0.0020348905290589,,10456.756926878135,13162.46325448802,150,1,2025-09-08,2025-09-26 20:14:37.509,HH,B,36435224,HAWK11,1,1,73,2,1,1,225,2,1,0,0,12,1,225,2,1,-147365.84802420562,-4790069.782197799,4200680.862761021,3.06183,-0.768141,0.652229,60.375,-62.5,-72.375,-0.3125,-9.46875,8.78125,0.0546875,0.0390625,-0.0527344,4,0,41.426635829609175,-91.7621410941907,12964.367000963137,143.96465644668282,-0.0543978001505011,-38.28284205446037,172.686,10456.756926878135,13162.46325448802,150,False,23.10823834087048,False,133.26594305115523,174.24884654309554,False,40.98346003823296,False,False
1,1970-07-23 09:33:44.790087513,2025-09-08,2025-09-26 20:14:39.008,HH,B,3266618428,JASSM,3,127,76,2,2,1,225,9,2,0,1,26,0,0,0,0,-106366.28386842164,-4798631.718824682,4191750.501432896,2.29982,3.0021,-0.13221,-83.25,11.75,11.25,0.0,0.0,0.0,0.0,0.0,0.0,2,0,41.3218754329519,-91.2698080805365,11999.999189996144,-79.8850099800533,-0.0061450993063975,0.0020342684489949,,10456.756926878135,13162.46325448802,150,1,2025-09-08,2025-09-26 20:14:39.013,HH,B,38145188,HAWK11,1,1,73,2,1,1,225,2,1,0,0,12,1,225,2,1,-147270.01794608062,-4790156.416963424,4200579.560026646,-3.10133,-0.676773,0.592692,69.625,-58.75,-67.25,-0.203125,-9.4375,8.57812,0.0410156,0.046875,-0.0429688,4,0,41.42545430800172,-91.76096408937865,12950.236109467483,138.52487664204605,0.2765229259009377,-34.47095712660348,172.332,10456.756926878135,13162.46325448802,150,False,22.987855727417752,False,138.947388368937,174.37039818522766,False,35.4238739758488,False,False
1,1970-07-23 09:33:44.796373435,2025-09-08,2025-09-26 20:14:39.637,HH,B,3267751822,JASSM,3,127,76,2,2,1,225,9,2,0,1,26,0,0,0,0,-106445.53386842164,-4798620.593824682,4191761.1547532086,2.29982,3.0021,-0.13221,-83.25,11.75,11.25,0.0,0.0,0.0,0.0,0.0,0.0,2,0,41.32200307985064,-91.27075680754557,12000.00168287298,-79.88563641428058,-0.0054212509279281,0.0020337347177842,,10456.756926878135,13162.46325448802,150,1,2025-09-08,2025-09-26 20:14:39.710,HH,B,38980288,HAWK11,1,1,73,2,1,1,225,2,1,0,0,12,1,225,2,1,-147218.70349295562,-4790195.036104049,4200533.556120396,-3.05828,-0.641683,0.564121,73.875,-56.5,-64.75,-0.25,-9.23438,8.46875,0.0449219,0.0390625,-0.0410156,4,0,41.424923479701576,-91.76033670567368,12941.454872329748,136.19401590590226,0.5576274013767392,-33.12081965189338,172.075,10456.756926878135,13162.46325448802,150,False,22.90876473172683,False,141.68681679565813,174.41738378763756,False,32.73116218188908,False,False
1,1970-07-23 09:33:44.806249206,2025-09-08,2025-09-26 20:14:40.624,HH,B,3268944414,JASSM,3,127,76,2,2,1,225,9,2,0,1,26,0,0,0,0,-106528.92449342164,-4798608.885816869,4191772.362761021,2.29982,3.0021,-0.13221,-83.25,11.75,11.25,0.0,0.0,0.0,0.0,0.0,0.0,2,0,41.32213738496639,-91.27175510775788,11999.999434731102,-79.8862955828815,-0.0046595833125505,0.0020331757390727,,10456.756926878135,13162.46325448802,150,1,2025-09-08,2025-09-26 20:14:40.319,HH,B,39377954,HAWK11,1,1,73,2,1,1,225,2,1,0,0,12,1,225,2,1,-147193.26013358062,-4790214.166963424,4200511.786589146,-3.0346,-0.625672,0.548782,75.625,-55.75,-63.375,-0.21875,-9.29688,8.34375,0.03125,0.0371094,-0.0390625,4,0,41.42466740389256,-91.76002563873077,12939.317422902792,135.03868865524925,0.7680824868365048,-32.261944634676375,171.941,10456.756926878135,13162.46325448802,150,False,22.845591268666332,False,142.86585495873157,174.43380160977497,False,31.568956940622225,False,False
1,1970-07-23 09:33:44.816288947,2025-09-08,2025-09-26 20:14:41.628,HH,B,3270137460,JASSM,3,127,76,2,2,1,225,9,2,0,1,26,0,0,0,0,-106612.34636842164,-4798597.172926244,4191783.574675084,2.29982,3.0021,-0.13221,-83.25,11.75,11.25,0.0,0.0,0.0,0.0,0.0,0.0,2,0,41.32227173270217,-91.2727537863084,11999.999036138472,-79.88695500306143,-0.0038976300208096,0.0020326156599407,,10456.756926878135,13162.46325448802,150,1,2025-09-08,2025-09-26 20:14:41.710,HH,B,41366284,HAWK11,1,1,73,2,1,1,225,2,1,0,0,12,1,225,2,1,-147060.31286795562,-4790302.423799361,4200411.415495396,-2.97333,-0.554342,0.478986,83.25,-51.5,-56.5,-0.203125,-9.09375,8.39062,0.015625,0.0351562,-0.0507812,4,0,41.42348927272273,-91.75840457718672,12928.418858424626,129.7502095795201,1.5948578999330472,-30.871857794186194,171.416,10456.756926878135,13162.46325448802,150,False,22.710698692534034,False,148.4620210743614,174.544974359935,False,26.087132684677314,True,False
1,1970-07-23 09:33:44.826328045,2025-09-08,2025-09-26 20:14:42.632,HH,B,3271330508,JASSM,3,127,76,2,2,1,225,9,2,0,1,26,0,0,0,0,-106695.76629029664,-4798585.459059057,4191794.786589146,2.29982,3.0021,-0.13221,-83.25,11.75,11.25,0.0,0.0,0.0,0.0,0.0,0.0,2,0,41.322406077829214,-91.27375244591084,11999.99983284096,-79.8876144124956,-0.0031356927248383,0.0020320466096258,,10456.756926878135,13162.46325448802,150,1,2025-09-08,2025-09-26 20:14:42.710,HH,B,42559284,HAWK11,1,1,73,2,1,1,225,2,1,0,0,12,1,225,2,1,-146974.65271170562,-4790352.030244674,4200356.265104771,-2.94016,-0.5135,0.442458,87.25,-48.75,-52.5,-0.125,-8.79688,7.76562,0.0214844,0.0214844,-0.0351562,4,0,41.42283760351349,-91.75736279144964,12924.22223091374,126.79447514014016,1.7960472060596484,-30.099419592810328,170.67,10456.756926878135,13162.46325448802,150,False,22.60945867099186,False,151.64064146513326,174.59772873314145,False,22.963953424312127,True,False
1,1970-07-23 09:33:44.836348582,2025-09-08,2025-09-26 20:14:43.634,HH,B,3272523554,JASSM,3,127,76,2,2,1,225,9,2,0,1,26,0,0,0,0,-106779.18816529664,-4798573.745191869,4191805.997526646,2.29982,3.0021,-0.13221,-83.25,11.75,11.25,0.0,0.0,0.0,0.0,0.0,0.0,2,0,41.32254040743057,-91.274751132924,12000.00232874582,-79.88827384179547,-0.0023737394176075,0.0020314874175014,,10456.756926878135,13162.46325448802,150,1,2025-09-08,2025-09-26 20:14:43.304,HH,B,43314850,HAWK11,1,1,73,2,1,1,225,2,1,0,0,12,1,225,2,1,-146917.85778983062,-4790382.134736861,4200323.050261021,-2.92214,-0.488861,0.415901,89.5,-47.0,-50.0,-0.15625,-8.875,8.20312,0.0078125,0.0390625,-0.0507812,4,0,41.42244471488792,-91.75667309250254,12921.867372459412,124.82186128837547,2.0695590894016616,-29.72080176093693,170.352,10456.756926878135,13162.46325448802,150,False,22.52765953310961,False,153.55724376845697,174.6235326571927,False,21.07545939558025,True,False
1,1970-07-23 09:33:44.846245775,2025-09-08,2025-09-26 20:14:44.624,HH,B,3273716600,JASSM,3,127,76,2,2,1,225,9,2,0,1,26,0,0,0,0,-106862.61004029664,-4798562.029371557,4191817.206511021,2.29982,3.0021,-0.13221,-83.25,11.75,11.25,0.0,0.0,0.0,0.0,0.0,0.0,2,0,41.32267472676666,-91.27574982455738,11999.999490231574,-79.88893327591188,-0.0016117860251307,0.002030929899437,,10456.756926878135,13162.46325448802,150,1,2025-09-08,2025-09-26 20:14:44.616,HH,B,44706682,HAWK11,1,1,73,2,1,1,225,2,1,0,0,12,1,225,2,1,-146811.05700858062,-4790434.647432174,4200266.763151646,-2.88475,-0.4438,0.370936,93.125,-44.0,-45.125,-0.140625,-8.67188,7.98438,0.0273438,0.0214844,-0.046875,4,0,41.42177192126916,-91.75537766145732,12920.767424245074,121.31999915436856,2.337019701300742,-28.703325924384416,169.644,10456.756926878135,13162.46325448802,150,False,22.415092049043206,False,156.9574803019223,174.67248285343183,False,17.73471470762137,True,False
1,1970-07-23 09:33:44.856266794,2025-09-08,2025-09-26 20:14:45.626,HH,B,3274849994,JASSM,3,127,76,2,2,1,225,9,2,0,1,26,0,0,0,0,-106941.86004029664,-4798550.898512182,4191827.855925084,2.29982,3.0021,-0.13221,-83.25,11.75,11.25,0.0,0.0,0.0,0.0,0.0,0.0,2,0,41.32280233308145,-91.27669857630508,12000.000044435745,-79.88955973645548,-0.0008879351223247,0.0020303882840872,,10456.756926878135,13162.46325448802,150,1,2025-09-08,2025-09-26 20:14:45.506,HH,B,45740614,HAWK11,1,1,73,2,1,1,225,2,1,0,0,12,1,225,2,1,-146729.68786795562,-4790470.207002486,4200228.677214146,-2.79405,-0.417818,0.348789,95.375,-41.375,-42.125,-0.25,-7.78125,7.28125,0.171875,0.00976562,-0.03125,4,0,41.421318171321744,-91.75439234740544,12919.410226162056,119.43518366837095,2.2919500538690603,-24.10724116722873,168.935,10456.756926878135,13162.46325448802,150,False,22.321773863517542,False,159.28746055858585,174.69939022988456,False,15.434343455924067,True,False
1,1970-07-23 09:33:44.865266068,2025-09-08,2025-09-26 20:14:46.526,HH,B,3275983390,JASSM,3,127,76,2,2,1,225,9,2,0,1,26,0,0,0,0,-107021.11004029664,-4798539.767652807,4191838.503386021,2.29982,3.002,-0.13221,-83.25,11.75,11.25,0.0,0.0,0.0,0.0,0.0,0.0,2,0,41.3229299183736,-91.277647331754,11999.99971378872,-79.88656014180344,-0.0042241245516124,0.0013058067148355,,10456.756926878135,13162.46325448802,150,1,2025-09-08,2025-09-26 20:14:46.710,HH,B,47410812,HAWK11,1,1,73,2,1,1,225,2,1,0,0,12,1,225,2,1,-146594.30896170562,-4790524.457002486,4200169.665495396,-2.55945,-0.396151,0.32645,97.5,-38.75,-39.5,-0.109375,-7.20312,6.8125,0.101562,0.00390625,-0.00390625,4,0,41.42062183358128,-91.75275484549744,12914.533267201426,117.70265824721687,2.392412244465327,-11.147609757206858,168.263,10456.756926878135,13162.46325448802,150,False,22.19627220484377,False,161.4721026647345,174.74291480186864,False,13.292488730795677,True,False
1,1970-07-23 09:33:44.875307484,2025-09-08,2025-09-26 20:14:47.530,HH,B,3277116784,JASSM,3,127,76,2,2,1,225,9,2,0,1,26,0,0,0,0,-107100.36004029664,-4798528.635816869,4191849.150846959,2.29982,3.002,-0.13221,-83.25,11.75,11.25,0.0,0.0,0.0,0.0,0.0,0.0,2,0,41.32305750164407,-91.27859609116383,12000.000323853916,-79.88718661055862,-0.003500274755282,0.00130531828739,,10456.756926878135,13162.46325448802,150,1,2025-09-08,2025-09-26 20:14:47.616,HH,B,48404978,HAWK11,1,1,73,2,1,1,225,2,1,0,0,12,1,225,2,1,-146512.43982108062,-4790554.414033736,4200135.604948521,-2.60451,-0.391261,0.318685,98.25,-37.5,-38.5,-0.109375,-7.42188,7.10938,-0.105469,-0.00390625,0.0,4,0,41.42022865112155,-91.75176563954746,12908.111193190098,117.20134036677824,2.523874251418941,-13.839740180033967,167.994,10456.756926878135,13162.46325448802,150,False,22.103756916639213,False,162.3662872075587,174.7612806307511,False,12.413363990885337,True,False
1,1970-07-23 09:33:44.885368464,2025-09-08,2025-09-26 20:14:48.536,HH,B,3278309828,JASSM,3,127,76,2,2,1,225,9,2,0,1,26,0,0,0,0,-107183.78191529664,-4798516.917066869,4191860.3578782086,2.29982,3.002,-0.132114,-83.25,11.75,11.25,0.0,0.0,0.0,0.0,0.0,0.0,2,0,41.323191791811766,-91.27959479936588,12000.000312679877,-79.89194309472678,-0.0063974659644255,0.0013051317179228,,10456.756926878135,13162.46325448802,150,1,2025-09-08,2025-09-26 20:14:48.507,HH,B,49359376,HAWK11,1,1,73,2,1,1,225,2,1,0,0,12,1,225,2,1,-146432.50818045562,-4790583.111299361,4200104.153776646,-2.64957,-0.386084,0.30833,99.25,-36.375,-36.875,-0.140625,-7.5,7.03125,-0.00585938,0.0,-0.0273438,4,0,41.419860210909576,-91.7508000560682,12904.405046084115,116.58356826285444,2.748196664767693,-16.54144846511915,168.177,10456.756926878135,13162.46325448802,150,False,22.01038291199544,False,163.489912286133,174.77620953166613,False,11.31019257654699,True,False
1,1970-07-23 09:33:44.894266353,2025-09-08,2025-09-26 20:14:49.426,HH,B,3279443678,JASSM,3,127,76,2,2,1,225,9,2,0,1,26,0,0,0,0,-107263.06316529664,-4798505.779371557,4191871.0082688336,2.29982,3.002,-0.132114,-83.25,11.75,11.25,0.0,0.0,0.0,0.0,0.0,0.0,2,0,41.32331940948181,-91.2805439408838,12000.001425665389,-79.89256981902324,-0.0056733304912044,0.0013045912764837,,10456.756926878135,13162.46325448802,150,1,2025-09-08,2025-09-26 20:14:49.412,HH,B,50393308,HAWK11,1,1,73,2,1,1,225,2,1,0,0,12,1,225,2,1,-146346.61560233062,-4790612.748018111,4200072.130339146,-2.65407,-0.353487,0.28743,100.25,-34.875,-35.25,0.0,-7.375,7.0,-0.0351562,0.015625,-0.0449219,4,0,41.4194833944628,-91.7497629138246,12901.323420508315,114.4733791820794,2.3312380784294424,-17.44140881738633,167.908,10456.756926878135,13162.46325448802,150,False,21.91602994480898,False,164.73132436224216,174.79087143463124,False,10.084965236720853,True,False
1,1970-07-23 09:33:44.904328059,2025-09-08,2025-09-26 20:14:50.432,HH,B,3280636490,JASSM,3,127,76,2,2,1,225,9,2,0,1,26,0,0,0,0,-107346.46746217164,-4798494.060621557,4191882.2113938336,2.29982,3.002,-0.132114,-83.25,11.75,11.25,0.0,0.0,0.0,0.0,0.0,0.0,2,0,41.32345365867964,-91.28154244729828,11999.999215155298,-79.89322914100156,-0.0049115352172408,0.0013040196949897,,10456.756926878135,13162.46325448802,150,1,2025-09-08,2025-09-26 20:14:50.616,HH,B,51864674,HAWK11,1,1,73,2,1,1,225,2,1,0,0,12,1,225,2,1,-146221.96521170562,-4790653.415986861,4200028.999479771,-2.68629,-0.332203,0.260489,101.875,-32.5,-32.5,-0.078125,-7.71875,7.1875,0.03125,0.0,-0.0136719,4,0,41.41897301891398,-91.74825865068104,12898.355935487329,112.5484588803406,2.574284562446898,-19.69953067356762,168.446,10456.756926878135,13162.46325448802,150,False,21.797011163998494,False,166.76878712152833,174.81100990415248,False,8.074578579622257,True,False
1,1970-07-23 09:33:44.914368102,2025-09-08,2025-09-26 20:14:51.436,HH,B,3281829292,JASSM,3,127,76,2,2,1,225,9,2,0,1,26,0,0,0,0,-107429.87175904664,-4798482.341871557,4191893.413542271,2.29982,3.002,-0.132114,-83.25,11.75,11.25,0.0,0.0,0.0,0.0,0.0,0.0,2,0,41.32358789261271,-91.28254095781124,11999.99859536744,-79.89388846745119,-0.0041497411191353,0.0013034546441697,,10456.756926878135,13162.46325448802,150,1,2025-09-08,2025-09-26 20:14:51.506,HH,B,52978140,HAWK11,1,1,73,2,1,1,225,2,1,0,0,12,1,225,2,1,-146125.51989920562,-4790682.857393111,4199998.823698521,-2.59981,-0.312644,0.246779,103.125,-30.75,-30.5,-0.078125,-7.125,6.90625,0.123047,-0.0078125,-0.0136719,4,0,41.41861172448709,-91.7470955161114,12898.024284232702,111.22925532345936,2.3415829797768253,-15.08251493660443,168.177,10456.756926878135,13162.46325448802,150,False,21.695176605006697,False,168.27165615052897,174.8191146030095,False,6.5874616003135165,True,False
1,1970-07-23 09:33:44.927588001,2025-09-08,2025-09-26 20:14:52.758,HH,B,3282962686,JASSM,3,127,76,2,2,1,225,9,2,0,1,26,0,0,0,0,-107509.11980592164,-4798471.206129369,4191904.058073521,2.29982,3.002,-0.132114,-83.25,11.75,11.25,0.0,0.0,0.0,0.0,0.0,0.0,2,0,41.32371543919792,-91.28348971404012,12000.00038844456,-79.89451494228489,-0.0034259072625235,0.0013029080684411,,10456.756926878135,13162.46325448802,150,1,2025-09-08,2025-09-26 20:14:52.710,HH,B,54489270,HAWK11,1,1,73,2,1,1,225,2,1,0,0,12,1,225,2,1,-145994.80700858062,-4790719.568330611,4199959.729948521,-2.46587,-0.300852,0.250135,104.0,-29.125,-29.75,-0.21875,-6.75,6.64062,0.0722656,0.0,-0.00390625,4,0,41.41815320012256,-91.7455202956088,12893.650992490062,110.91570896858484,1.73701732754973,-7.585915613670697,167.908,10456.756926878135,13162.46325448802,150,True,21.576164820984943,False,169.2278097261694,174.83003200862183,False,5.621654134403185,True,False
1,1970-07-23 09:33:44.933326372,2025-09-08,2025-09-26 20:14:53.332,HH,B,3284036452,JASSM,3,127,76,2,2,1,225,9,2,0,1,26,0,0,0,0,-107584.20183717164,-4798460.655348119,4191914.1410813336,2.29982,3.002,-0.132114,-83.25,11.75,11.25,0.0,0.0,0.0,0.0,0.0,0.0,2,0,41.323836262965,-91.28438859833292,11999.999877207116,-79.89510848756599,-0.0027401266387589,0.0013024006694668,,10456.756926878135,13162.46325448802,150,1,2025-09-08,2025-09-26 20:14:53.319,HH,B,54886938,HAWK11,1,1,73,2,1,1,225,2,1,0,0,12,1,225,2,1,-145959.74450858062,-4790728.952119674,4199949.356901646,-2.44402,-0.301331,0.248984,104.25,-28.875,-29.5,-0.046875,-6.95312,6.76562,0.0507812,0.0078125,-0.00195312,4,0,41.418033725677454,-91.7450979299836,12891.585942123784,110.88670765290264,1.802139365430245,-6.32759684330125,168.092,10456.756926878135,13162.46325448802,150,True,21.514896230342305,False,169.4428171709868,174.82530074069913,False,5.40176399270471,True,False
1,1970-07-23 09:33:44.945993110,2025-09-08,2025-09-26 20:14:54.599,HH,B,3285229498,JASSM,3,127,76,2,2,1,225,9,2,0,1,26,0,0,0,0,-107667.62371217164,-4798448.931715307,4191925.3442063336,2.29982,3.002,-0.132114,-83.25,11.75,11.25,0.0,0.0,0.0,0.0,0.0,0.0,2,0,41.32397050546268,-91.28538733161864,12000.000881409993,-79.89576796614453,-0.0019781706866649,0.0013018307779036,,10456.756926878135,13162.46325448802,150,1,2025-09-08,2025-09-26 20:14:54.507,HH,B,56716202,HAWK11,1,1,73,2,1,1,225,2,1,0,0,12,1,225,2,1,-145798.16052420562,-4790771.637666549,4199903.116667271,-2.49406,-0.287238,0.237192,105.125,-27.875,-28.5,-0.03125,-7.0,6.79688,-0.0371094,0.00585938,-0.00585938,4,0,41.417496990526125,-91.74315169891943,12884.096869862698,109.8577487476789,1.7018976771847258,-9.42088539611631,168.532,10456.756926878135,13162.46325448802,150,True,21.37624212062026,False,170.27624586232398,174.83632015588077,False,4.57856115529349,True,False
1,1970-07-23 09:33:44.952207765,2025-09-08,2025-09-26 20:14:55.220,HH,B,3286362894,JASSM,3,127,76,2,2,1,225,9,2,0,1,26,0,0,0,0,-107746.87371217164,-4798437.794019994,4191935.985807896,2.29982,3.002,-0.132114,-83.25,11.75,11.25,0.0,0.0,0.0,0.0,0.0,0.0,2,0,41.32409802012079,-91.28633612277837,12000.001663360428,-79.89639446882249,-0.001254320742158,0.0013012957578829,,10456.756926878135,13162.46325448802,150,1,2025-09-08,2025-09-26 20:14:55.159,HH,B,56994568,HAWK11,1,1,73,2,1,1,225,2,1,0,0,12,1,225,2,1,-145774.65075858062,-4790777.672822799,4199896.552214146,-2.50058,-0.284553,0.236137,105.375,-27.625,-28.5,0.15625,-7.03125,6.96875,-0.0292969,0.00195312,-0.00585938,4,0,41.417421040737686,-91.74286859710728,12882.931600459202,109.71116873081586,1.635149860602572,-9.834763797423,168.764,10456.756926878135,13162.46325448802,150,True,21.319437297119144,False,170.40056980253186,174.82860628982218,False,4.440942764952703,True,False
1,1970-07-23 09:33:44.962246724,2025-09-08,2025-09-26 20:14:56.224,HH,B,3287496288,JASSM,3,127,76,2,2,1,225,9,2,0,1,26,0,0,0,0,-107826.12371217164,-4798426.654371557,4191946.626432896,2.29982,3.0019,-0.132114,-83.25,11.75,11.25,0.0,0.0,0.0,0.0,0.0,0.0,2,0,41.32422553195844,-91.2872849181608,11999.998864952944,-79.89339481878407,-0.0045905131664633,0.0005772016393612,,10456.756926878135,13162.46325448802,150,1,2025-09-08,2025-09-26 20:14:56.022,HH,B,58505700,HAWK11,1,1,73,2,1,1,225,2,1,0,0,12,1,225,2,1,-145639.42810233062,-4790811.242158736,4199860.202604771,-2.5141,-0.265858,0.224153,106.25,-26.375,-27.125,0.0625,-6.79688,6.65625,-0.0214844,-0.0234375,-0.0117188,4,0,41.41700048378236,-91.74124068944148,12876.478522195875,108.49686839086036,1.3483140914297782,-10.88529661156517,168.849,10456.756926878135,13162.46325448802,150,False,21.198733837086095,False,171.4406058959024,174.83220678978319,False,3.405551054704648,True,False
1,1970-07-23 09:33:44.971995099,2025-09-08,2025-09-26 20:14:57.199,HH,B,3288629962,JASSM,3,127,76,2,2,1,225,9,2,0,1,26,0,0,0,0,-107905.39324342164,-4798415.511793432,4191957.269987584,2.29982,3.0019,-0.132114,-83.25,11.75,11.25,0.0,0.0,0.0,0.0,0.0,0.0,2,0,41.32435307056655,-91.28823395112494,11999.999625126688,-79.89402148428037,-0.0038664829695487,0.0005767043965833,,10456.756926878135,13162.46325448802,150,1,2025-09-08,2025-09-26 20:14:57.210,HH,B,59937298,HAWK11,1,1,73,2,1,1,225,2,1,0,0,12,1,225,2,1,-145511.22302420562,-4790841.238252486,4199827.694792271,-2.5513,-0.262407,0.197788,107.375,-25.25,-25.375,-0.109375,-8.01562,8.0625,-0.0195312,0.0234375,-0.0175781,4,0,41.416625820902304,-91.73969794742628,12870.11094155678,107.26251076414486,2.241007217993908,-13.096751779290678,170.096,10456.756926878135,13162.46325448802,150,False,21.082445982320788,False,172.61083403441515,174.83134435845233,False,2.2590919756526193,True,False
1,1970-07-23 09:33:44.981346695,2025-09-08,2025-09-26 20:14:58.134,HH,B,3289763074,JASSM,3,127,76,2,2,1,225,9,2,0,1,26,0,0,0,0,-107984.62371217164,-4798404.374098119,4191967.9067063336,2.29982,3.0019,-0.132114,-83.25,11.75,11.25,0.0,0.0,0.0,0.0,0.0,0.0,2,0,41.32448053136434,-91.28918252028504,11999.998785912743,-79.89464784510952,-0.0031428107090331,0.0005762144795398,,10456.756926878135,13162.46325448802,150,1,2025-09-08,2025-09-26 20:14:58.117,HH,B,60891698,HAWK11,1,1,73,2,1,1,225,2,1,0,0,12,1,225,2,1,-145425.06677420562,-4790860.912080611,4199808.208464146,-2.57277,-0.254641,0.184461,108.125,-24.625,-23.375,-0.03125,-7.57812,7.79688,-0.0234375,0.0,-0.0253906,4,0,41.41639283150914,-91.73866138048048,12869.767606487309,106.4062071139234,2.4433998455111183,-14.446771377619166,169.961,10456.756926878135,13162.46325448802,150,False,20.990419617739743,False,173.62322139538668,174.8241912509375,False,1.4405680078979848,True,False
1,1970-07-23 09:33:44.993195215,2025-09-08,2025-09-26 20:14:59.319,HH,B,3290837132,JASSM,3,127,76,2,2,1,225,9,2,0,1,26,0,0,0,0,-108059.72527467164,-4798393.816480932,4191977.989714146,2.29982,3.0019,-0.132114,-83.25,11.75,11.25,0.0,0.0,0.0,0.0,0.0,0.0,2,0,41.32460134865484,-91.29008166053674,12000.00154164072,-79.89524156842475,-0.0024568497871015,0.0005757442000239,,10456.756926878135,13162.46325448802,150,1,2025-09-08,2025-09-26 20:14:59.322,HH,B,62442596,HAWK11,1,1,73,2,1,1,225,2,1,0,0,12,1,225,2,1,-145284.71130545562,-4790891.333955611,4199779.628386021,-2.59435,-0.239685,0.152056,109.375,-23.125,-20.375,0.046875,-7.375,7.8125,-0.00390625,0.0,-0.00976562,4,0,41.41604429773997,-91.73697333527018,12872.08123748686,104.46924566416244,3.087835756681048,-15.91978589607772,170.805,10456.756926878135,13162.46325448802,150,False,20.870504697834605,False,175.28807064073635,174.81487974520746,False,1.387254994037632,True,False
1,1970-07-23 09:33:44.999284632,2025-09-08,2025-09-26 20:14:59.928,HH,B,3291970212,JASSM,3,127,76,2,2,1,225,9,2,0,1,26,0,0,0,0,-108138.95183717164,-4798382.677809057,4191988.624479771,2.29982,3.0019,-0.132018,-83.25,11.75,11.25,0.0,0.0,0.0,0.0,0.0,0.0,2,0,41.32472878734522,-91.29103019054035,12000.000363795678,-79.89996489224806,-0.0053924110889632,0.0005755097642484,,10456.756926878135,13162.46325448802,150,1,2025-09-08,2025-09-26 20:15:00.022,HH,B,63198162,HAWK11,1,1,73,2,1,1,225,2,1,0,0,12,1,225,2,1,-145214.45935233062,-4790905.761689986,4199766.786589146,-2.59252,-0.229905,0.146303,110.125,-22.375,-19.0,0.0625,-6.95312,7.45312,0.0195312,-0.0078125,-0.0136719,4,0,41.41588446795516,-91.7361287164285,12874.453724500054,103.8510900571904,2.9044471116112964,-15.931037427116008,171.025,10456.756926878135,13162.46325448802,150,False,20.787980919374206,False,176.05741622041182,174.8020806552872,False,2.0260149788938535,True,False
1,1970-07-23 09:33:45.009247359,2025-09-08,2025-09-26 20:15:00.924,HH,B,3293103604,JASSM,3,127,76,2,2,1,225,9,2,0,1,26,0,0,0,0,-108218.20183717164,-4798371.534254369,4191999.263151646,2.29982,3.0019,-0.132018,-83.25,11.75,11.25,0.0,0.0,0.0,0.0,0.0,0.0,2,0,41.32485627048208,-91.2919790052714,12000.00026751012,-79.90059141988687,-0.0046685574488453,0.0005749544049419,,10456.756926878135,13162.46325448802,150,1,2025-09-08,2025-09-26 20:15:01.022,HH,B,64391160,HAWK11,1,1,73,2,1,1,225,2,1,0,0,12,1,225,2,1,-145103.80114920562,-4790927.104463424,4199747.962370396,-2.57143,-0.211689,0.13058,111.125,-20.875,-17.375,-0.0625,-6.9375,7.375,0.00390625,0.00390625,-0.0253906,4,0,41.415650400183736,-91.73479881432569,12877.840997767544,102.48774358305712,2.752023314530259,-14.93388773894918,171.636,10456.756926878135,13162.46325448802,150,False,20.683178010741795,False,177.19053706781955,174.78526890481933,False,2.997340043313982,True,False
1,1970-07-23 09:33:45.018307021,2025-09-08,2025-09-26 20:15:01.830,HH,B,3294237000,JASSM,3,127,76,2,2,1,225,9,2,0,1,26,0,0,0,0,-108297.45183717164,-4798360.390699682,4192009.899870396,2.29982,3.0019,-0.132018,-83.25,11.75,11.25,0.0,0.0,0.0,0.0,0.0,0.0,2,0,41.32498373259562,-91.29292782370072,11999.999286226704,-79.90121795156101,-0.0039447061393259,0.0005744120704529,,10456.756926878135,13162.46325448802,150,1,2025-09-08,2025-09-26 20:15:01.616,HH,B,65186492,HAWK11,1,1,73,2,1,1,225,2,1,0,0,12,1,225,2,1,-145029.37927420562,-4790940.309541549,4199736.444792271,-2.56453,-0.199513,0.12291,111.875,-20.0,-16.25,0.0,-6.65625,7.15625,0.0136719,-0.00195312,-0.0136719,4,0,41.41550751633549,-91.73390482539176,12879.777172124315,101.69657809505496,2.537101820059996,-14.663096999446568,171.819,10456.756926878135,13162.46325448802,150,False,20.598766598178273,False,177.85488488793644,174.76790358768443,False,3.7339365791088155,True,False
1,1970-07-23 09:33:45.027351123,2025-09-08,2025-09-26 20:15:02.735,HH,B,3295310744,JASSM,3,127,76,2,2,1,225,9,2,0,1,26,0,0,0,0,-108372.53191529664,-4798349.833082494,4192019.9770188336,2.29982,3.0019,-0.132018,-83.25,11.75,11.25,0.0,0.0,0.0,0.0,0.0,0.0,2,0,41.32510448390341,-91.29382672137648,12000.000670365202,-79.90181152061645,-0.0032589413249841,0.0005738952373965,,10456.756926878135,13162.46325448802,150,1,2025-09-08,2025-09-26 20:15:02.818,HH,B,66379492,HAWK11,1,1,73,2,1,1,225,2,1,0,0,12,1,225,2,1,-144917.13513358062,-4790958.851533736,4199720.147917271,-2.54698,-0.187337,0.113515,112.75,-18.375,-15.0,0.203125,-6.65625,7.15625,0.0273438,0.00585938,-0.0117188,4,0,41.41530742772635,-91.7325570027796,12881.654852564943,100.83249790626186,2.386737516439416,-13.777290436529167,172.87,10456.756926878135,13162.46325448802,150,False,20.496005541344267,False,178.7799704196573,174.74530392986713,False,4.706491334022646,True,False
1,1970-07-23 09:33:45.038794388,2025-09-08,2025-09-26 20:15:03.879,HH,B,3296384486,JASSM,3,127,76,2,2,1,225,9,2,0,1,26,0,0,0,0,-108447.60808717164,-4798339.275465307,4192030.052214146,2.29982,3.0019,-0.132018,-83.25,11.75,11.25,0.0,0.0,0.0,0.0,0.0,0.0,2,0,41.325225215514,-91.29472557575107,12000.000609126462,-79.90240506250784,-0.0025732132153623,0.0005733847715438,,10456.756926878135,13162.46325448802,150,1,2025-09-08,2025-09-26 20:15:04.022,HH,B,67970156,HAWK11,1,1,73,2,1,1,225,2,1,0,0,12,1,225,2,1,-144766.18005545562,-4790981.611299361,4199700.470182896,-2.52512,-0.169121,0.0939563,113.875,-16.5,-13.375,0.015625,-6.78125,7.23438,0.00976562,0.00585938,-0.0117188,4,0,41.41506637389565,-91.73074514036068,12883.6975430977,99.30497750579907,2.368285168210482,-12.696355360406471,173.652,10456.756926878135,13162.46325448802,150,False,20.37243601909311,False,178.9870287817359,174.71374965751292,False,5.972473309561966,True,False
1,1970-07-23 09:33:45.054814531,2025-09-08,2025-09-26 20:15:05.481,HH,B,3297637180,JASSM,3,127,76,2,2,1,225,9,2,0,1,26,0,0,0,0,-108535.20183717164,-4798326.956129369,4192041.807096959,2.29982,3.0019,-0.132018,-83.25,11.75,11.25,0.0,0.0,0.0,0.0,0.0,0.0,2,0,41.32536607539858,-91.29577430222774,12000.00045133328,-79.90309757148013,-0.0017731509313996,0.0005727820314815,,10456.756926878135,13162.46325448802,150,1,2025-09-08,2025-09-26 20:15:05.616,HH,B,69918722,HAWK11,1,1,73,2,1,1,225,2,1,0,0,12,1,225,2,1,-144579.34411795562,-4791006.110322799,4199679.593229771,-2.45859,-0.151001,0.0794794,115.125,-14.375,-11.625,0.0625,-6.42188,6.875,0.0644531,-0.0117188,-0.0078125,4,0,41.41481329381903,-91.72850395470934,12884.763879017586,97.99728183583272,2.154323199638478,-9.02567798172792,174.947,10456.756926878135,13162.46325448802,150,True,20.2231930607128,False,177.8936965865782,174.66760740023537,False,7.395855515835643,True,False
1,1970-07-23 09:33:45.057292727,2025-09-08,2025-09-26 20:15:05.729,HH,B,3298830228,JASSM,3,127,76,2,2,1,225,9,2,0,1,26,0,0,0,0,-108618.62175904664,-4798315.222730932,4192053.001432896,2.29982,3.00181,-0.132018,-83.25,11.75,11.25,0.0,0.0,0.0,0.0,0.0,0.0,2,0,41.325500217947095,-91.29677306154603,12000.000520458318,-79.90012181179512,-0.0050813594759706,-0.0001526571442172,,10456.756926878135,13162.46325448802,150,1,2025-09-08,2025-09-26 20:15:05.616,HH,B,69918722,HAWK11,1,1,73,2,1,1,225,2,1,0,0,12,1,225,2,1,-144579.34411795562,-4791006.110322799,4199679.593229771,-2.45859,-0.151001,0.0794794,115.125,-14.375,-11.625,0.0625,-6.42188,6.875,0.0644531,-0.0117188,-0.0078125,4,0,41.41481329381903,-91.72850395470934,12884.763879017586,97.99728183583272,2.154323199638478,-9.02567798172792,174.947,10456.756926878135,13162.46325448802,150,True,20.177630162853255,False,177.8936965865782,174.65540467211164,False,7.408032373127722,True,False
