Subject_cm,Timestamp,SampleDate_cm,SampleTime_cm,Configuration_cm,Scenario_cm,DisTime_cm,MarkingTxt_cm,Application_cm,EntId_cm,Site_cm,ExerciseId_cm,ForceId_cm,Category_cm,Country_cm,Domain_cm,Kind_cm,Extra_cm,Specific_cm,Subcategory_cm,AltCategory_cm,AltCountry_cm,AltDomain_cm,AltKind_cm,ECEF_X_cm,ECEF_Y_cm,ECEF_Z_cm,OriPhi_cm,OriPsi_cm,OriTheta_cm,LinVelX_cm,LinVelY_cm,LinVelZ_cm,LinAccX_cm,LinAccY_cm,LinAccZ_cm,AngVelX_cm,AngVelY_cm,AngVelZ_cm,DrAlg_cm,Appearance_cm,Latitude_cm,Longitude_cm,Altitude_cm,Heading_cm,Pitch_cm,Roll_cm,CalibratedAirspeed_cm,CM_Altitude_Lead_cm,CM_Altitude_Wing_cm,CM_Airspeed_cm,Subject_ac,SampleDate_ac,SampleTime_ac,Configuration_ac,Scenario_ac,DisTime_ac,MarkingTxt_ac,Application_ac,EntId_ac,Site_ac,ExerciseId_ac,ForceId_ac,Category_ac,Country_ac,Domain_ac,Kind_ac,Extra_ac,Specific_ac,Subcategory_ac,AltCategory_ac,AltCountry_ac,AltDomain_ac,AltKind_ac,ECEF_X_ac,ECEF_Y_ac,ECEF_Z_ac,OriPhi_ac,OriPsi_ac,OriTheta_ac,LinVelX_ac,LinVelY_ac,LinVelZ_ac,LinAccX_ac,LinAccY_ac,LinAccZ_ac,AngVelX_ac,AngVelY_ac,AngVelZ_ac,DrAlg_ac,Appearance_ac,Latitude_ac,Longitude_ac,Altitude_ac,Heading_ac,Pitch_ac,Roll_ac,CalibratedAirspeed_ac,CM_Altitude_Lead_ac,CM_Altitude_Wing_ac,CM_Airspeed_ac,Bank_Angle_Condition,distance_nm,Distance_Condition,angle_between_vel,angle_between_pos,Cone_Condition,angle_between_pos_nose,Nose_Cone_Condition,Intercept_Criteria
1,1970-07-23 10:27:51.516430865,2025-09-12,2025-09-26 14:25:51.643,AH,C,3136576212,JASSM,3,124,76,2,2,1,225,9,2,0,1,26,0,0,0,0,-155778.10388358062,-4777339.082979049,4213853.257292271,-2.71093,-1.01118,0.751746,35.125,-56.0,-61.75,0.0,0.0,0.0,0.0,0.0,0.0,2,0,41.58969618140279,-91.86762262331696,10997.372111078892,155.9357006304593,-6.941420481228775e-05,-0.0006553706983869,,10022.661867135384,12264.339701119052,150,1,2025-09-12,2025-09-26 14:25:51.537,AH,C,843112684,HAWK11,1,1,73,2,1,1,225,2,1,0,0,12,1,225,2,1,-143219.10583670562,-4792302.185518111,4197970.802214146,2.37479,2.73327,-0.418297,-115.5,33.75,34.875,-0.265625,-7.0,6.75,0.00195312,0.0,-0.00195312,4,0,41.39581290871486,-91.71178868601916,12264.339701119052,-58.12704378561773,0.8785875805987038,0.2651749762255336,182.194,10022.661867135384,12264.339701119052,150,True,13.573114219300413,False,135.62481975487108,172.85920640649886,False,37.28862339004167,False,False
1,1970-07-23 10:27:51.526471419,2025-09-12,2025-09-26 14:25:52.647,AH,C,3137769276,JASSM,3,124,76,2,2,1,225,9,2,0,1,26,0,0,0,0,-155742.96325858062,-4777395.196260299,4213791.358854771,-2.71093,-1.01118,0.751842,35.125,-56.0,-61.75,0.0,0.0,0.0,0.0,0.0,0.0,2,0,41.58895140356347,-91.86717970502056,10997.379441119449,155.93828866964006,-0.0042474014395578,-0.0006566533103863,,10022.661867135384,12264.339701119052,150,1,2025-09-12,2025-09-26 14:25:52.826,AH,C,844464748,HAWK11,1,1,73,2,1,1,225,2,1,0,0,12,1,225,2,1,-143349.41638358062,-4792263.897432174,4198010.235807896,2.38572,2.73039,-0.419256,-115.625,33.875,35.125,-0.0625,-6.98438,6.76562,0.0117188,0.0,0.00976562,4,0,41.39628366126011,-91.71335894135508,12265.284734723296,-57.981802314912144,0.8143447304766379,0.8267700176962607,182.353,10022.661867135384,12264.339701119052,150,True,13.464161889080241,False,135.71645842122706,173.02769912596972,False,37.3682974425137,False,False
1,1970-07-23 10:27:51.537488079,2025-09-12,2025-09-26 14:25:53.748,AH,C,3139081500,JASSM,3,124,76,2,2,1,225,9,2,0,1,26,0,0,0,0,-155704.31286795562,-4777456.911104049,4213723.272917271,-2.71093,-1.01118,0.751842,35.125,-56.0,-61.75,0.0,0.0,0.0,0.0,0.0,0.0,2,0,41.58813221909915,-91.8666925619444,10997.373887152042,155.93861202392696,-0.003350845853277,-0.0006579590897793,,10022.661867135384,12264.339701119052,150,1,2025-09-12,2025-09-26 14:25:53.734,AH,C,845816814,HAWK11,1,1,73,2,1,1,225,2,1,0,0,12,1,225,2,1,-143481.46130545562,-4792224.647432174,4198050.567839146,2.4002,2.7279,-0.423187,-115.75,34.375,35.5,-0.234375,-7.03125,6.79688,0.0117188,0.00390625,0.0,4,0,41.39676586961449,-91.71495028082433,12265.950638803411,-57.73247423434754,0.8866044922245514,1.601784030578726,182.267,10022.661867135384,12264.339701119052,150,True,13.34940587232602,False,135.95106612059774,173.19834076312296,False,37.30522085560039,False,False
1,1970-07-23 10:27:51.548253336,2025-09-12,2025-09-26 14:25:54.825,AH,C,3140334468,JASSM,3,124,76,2,2,1,225,9,2,0,1,26,0,0,0,0,-155667.40759451812,-4777515.838838424,4213658.261198521,-2.71093,-1.01118,0.751842,35.125,-56.0,-61.75,0.0,0.0,0.0,0.0,0.0,0.0,2,0,41.58735002378543,-91.86622742576289,10997.371988622805,155.9389207656663,-0.0024947744761629,-0.0006592044976778,,10022.661867135384,12264.339701119052,150,1,2025-09-12,2025-09-26 14:25:54.826,AH,C,847089346,HAWK11,1,1,73,2,1,1,225,2,1,0,0,12,1,225,2,1,-143604.29919608062,-4792187.773408736,4198088.382292271,2.40864,2.72377,-0.427693,-115.75,34.625,35.875,-0.25,-7.10938,6.75,0.00390625,0.00195312,0.0078125,4,0,41.39721857027506,-91.71643081192556,12266.33129250436,-57.39927708349308,0.9238494570712265,1.993191029688212,182.108,10022.661867135384,12264.339701119052,150,True,13.241231477163382,False,136.13783527148775,173.35847410586948,False,37.28143151393289,False,False
1,1970-07-23 10:27:51.559269315,2025-09-12,2025-09-26 14:25:55.926,AH,C,3141646558,JASSM,3,124,76,2,2,1,225,9,2,0,1,26,0,0,0,0,-155628.76111014312,-4777577.545869674,4213590.183073521,-2.71083,-1.01118,0.751842,35.125,-56.0,-61.75,0.0,0.0,0.0,0.0,0.0,0.0,2,0,41.58653093352236,-91.86574035660692,10997.37460340879,155.93924406066498,-0.0015983237489179,0.0048446282582808,,10022.661867135384,12264.339701119052,150,1,2025-09-12,2025-09-26 14:25:56.029,AH,C,848481178,HAWK11,1,1,73,2,1,1,225,2,1,0,0,12,1,225,2,1,-143740.35388358062,-4792146.462861861,4198130.722136021,2.40068,2.71515,-0.434404,-115.875,35.25,36.125,-0.078125,-6.9375,6.6875,-0.00195312,0.0,0.00390625,4,0,41.397725830106594,-91.71807083339996,12266.600676840477,-56.810008414899805,0.8908771679608121,1.3402861824971803,181.95,10022.661867135384,12264.339701119052,150,True,13.124316208322343,False,136.3654846096719,173.53959686481923,False,37.23419416618682,False,False
1,1970-07-23 10:27:51.570295411,2025-09-12,2025-09-26 14:25:57.029,AH,C,3142899518,JASSM,3,124,76,2,2,1,225,9,2,0,1,26,0,0,0,0,-155591.85681326812,-4777636.471650924,4213525.171354771,-2.71083,-1.01118,0.751842,35.125,-56.0,-61.75,0.0,0.0,0.0,0.0,0.0,0.0,2,0,41.58574874560853,-91.86527525587196,10997.377544985737,155.93955276911583,-0.0007422664064437,0.0048433789802736,,10022.661867135384,12264.339701119052,150,1,2025-09-12,2025-09-26 14:25:56.826,AH,C,849435576,HAWK11,1,1,73,2,1,1,225,2,1,0,0,12,1,225,2,1,-143833.26599295562,-4792117.973604049,4198159.851042271,2.45734,2.71495,-0.43613,-115.875,35.625,36.5,-0.109375,-7.125,6.8125,0.259766,-0.00195312,0.00390625,4,0,41.39807533105674,-91.71919092281028,12266.573108765562,-56.73512291295887,0.9562576523371064,4.583499426212215,182.194,10022.661867135384,12264.339701119052,150,True,13.029854116004355,False,136.5850999046623,173.65755749253907,False,37.134110929587166,False,False
1,1970-07-23 10:27:51.580998540,2025-09-12,2025-09-26 14:25:58.099,AH,C,3144152202,JASSM,3,124,76,2,2,1,225,9,2,0,1,26,0,0,0,0,-155554.95935233062,-4777695.381807174,4213460.171354771,-2.71083,-1.01118,0.751842,35.125,-56.0,-61.75,0.0,0.0,0.0,0.0,0.0,0.0,2,0,41.58496672653408,-91.86481025435027,10997.37289404376,155.93986140694807,0.0001136082360891,0.0048421392365344,,10022.661867135384,12264.339701119052,150,1,2025-09-12,2025-09-26 14:25:58.058,AH,C,850469508,HAWK11,1,1,73,2,1,1,225,2,1,0,0,12,1,225,2,1,-143932.66833670562,-4792086.702119674,4198191.981901646,2.69511,2.71505,-0.446005,-115.0,36.625,37.625,-0.234375,-7.25,7.0,0.222656,0.0195312,0.0078125,4,0,41.39846047435193,-91.72038955187368,12266.69924163889,-56.34785289210712,1.3690724221475596,18.21693692115059,182.035,10022.661867135384,12264.339701119052,150,False,12.931841842393196,False,137.3691974630813,173.7858655963323,False,36.48045412164982,False,False
1,1970-07-23 10:27:51.590448824,2025-09-12,2025-09-26 14:25:59.044,AH,C,3145404656,JASSM,3,124,76,2,2,1,225,9,2,0,1,26,0,0,0,0,-155518.06970389312,-4777754.282197799,4213395.183073521,-2.71083,-1.01118,0.751842,35.125,-56.0,-61.75,0.0,0.0,0.0,0.0,0.0,0.0,2,0,41.58418484113108,-91.86434536144776,10997.375096884496,155.94016996792163,0.0009693294217311,0.0048408882596695,,10022.661867135384,12264.339701119052,150,1,2025-09-12,2025-09-26 14:25:59.030,AH,C,852060174,HAWK11,1,1,73,2,1,1,225,2,1,0,0,12,1,225,2,1,-144085.54528983062,-4792034.772432174,4198244.733854771,2.96471,2.66337,-0.481574,-112.0,40.5,41.125,-0.234375,-7.96875,7.64062,0.123047,0.0273438,0.0351562,4,0,41.39909811675032,-91.72223440209808,12264.708198505596,-53.02302543287103,1.0446237742232576,32.409123351584554,182.194,10022.661867135384,12264.339701119052,150,False,12.806312092353004,False,140.08105768211064,173.99429743774866,False,33.97366806577088,False,False
1,1970-07-23 10:27:51.601790973,2025-09-12,2025-09-26 14:26:00.179,AH,C,3146657354,JASSM,3,124,76,2,2,1,225,9,2,0,1,26,0,0,0,0,-155481.17224295562,-4777813.190400924,4213330.183073521,-2.71083,-1.01118,0.751938,35.125,-56.0,-61.75,0.0,0.0,0.0,0.0,0.0,0.0,2,0,41.58340282974204,-91.8638803831276,10997.374982638588,155.9427711916862,-0.0031648167195335,0.0048396259126434,,10022.661867135384,12264.339701119052,150,1,2025-09-12,2025-09-26 14:26:00.028,AH,C,853332706,HAWK11,1,1,73,2,1,1,225,2,1,0,0,12,1,225,2,1,-144203.99060233062,-4791989.004854049,4198291.050261021,3.0531,2.63356,-0.499598,-108.375,44.375,45.375,-0.296875,-8.21875,7.85938,0.0488281,0.0234375,0.0507812,4,0,41.3996617994924,-91.72366576108884,12261.378140587036,-51.21360146480991,0.7999515535284841,36.698224300853305,181.986,10022.661867135384,12264.339701119052,150,False,12.693993757845167,False,143.17122136327325,174.14434622714435,False,31.03470731076401,False,False
1,1970-07-23 10:27:51.611496505,2025-09-12,2025-09-26 14:26:01.149,AH,C,3147850402,JASSM,3,124,76,2,2,1,225,9,2,0,1,26,0,0,0,0,-155446.03259451812,-4777869.293916549,4213268.276823521,-2.71083,-1.01109,0.751938,35.125,-56.0,-61.75,0.0,0.0,0.0,0.0,0.0,0.0,2,0,41.58265804219712,-91.86343756635269,10997.37717327863,155.93942061078204,-0.0040242641466497,0.0010876918259988,,10022.661867135384,12264.339701119052,150,1,2025-09-12,2025-09-26 14:26:01.035,AH,C,854446172,HAWK11,1,1,73,2,1,1,225,2,1,0,0,12,1,225,2,1,-144304.94958670562,-4791944.733369674,4198335.546354771,3.08599,2.61084,-0.503529,-105.125,48.75,49.25,-0.390625,-8.65625,8.28125,-0.0078125,0.0488281,0.0488281,4,0,41.400207410672095,-91.72488771791885,12256.492783730371,-50.20977812487167,0.2139620504733756,37.96545387626811,181.901,10022.661867135384,12264.339701119052,150,False,12.589778302042998,False,146.1912132226041,174.26371617804347,False,28.126851169485082,True,False
1,1970-07-23 10:27:51.622269794,2025-09-12,2025-09-26 14:26:02.226,AH,C,3149103108,JASSM,3,124,76,2,2,1,225,9,2,0,1,26,0,0,0,0,-155409.13415701812,-4777928.202119674,4213203.272917271,-2.71083,-1.01109,0.751938,35.125,-56.0,-61.75,0.0,0.0,0.0,0.0,0.0,0.0,2,0,41.58187600082476,-91.86297259823992,10997.377581193654,155.9397292077509,-0.0031683725472566,0.0010864334000753,,10022.661867135384,12264.339701119052,150,1,2025-09-12,2025-09-26 14:26:02.326,AH,C,856076602,HAWK11,1,1,73,2,1,1,225,2,1,0,0,12,1,225,2,1,-144446.92419608062,-4791872.963838424,4198408.120573521,3.06748,2.58131,-0.51839,-100.125,54.25,56.0,-0.265625,-9.01562,8.625,-0.0175781,0.03125,0.0410156,4,0,41.40109875021735,-91.72660956821,12247.935746898998,-48.53710125431356,-0.1025404511759996,36.07963574716084,181.95,10022.661867135384,12264.339701119052,150,False,12.454090354545727,False,150.72089439756235,174.4267087029094,False,23.76610546679855,True,False
1,1970-07-23 10:27:51.633288747,2025-09-12,2025-09-26 14:26:03.328,AH,C,3150415452,JASSM,3,124,76,2,2,1,225,9,2,0,1,26,0,0,0,0,-155370.48083670562,-4777989.913057174,4213135.171354771,-2.71083,-1.01109,0.751938,35.125,-56.0,-61.75,0.0,0.0,0.0,0.0,0.0,0.0,2,0,41.581056716241086,-91.86248552794598,10997.372393879525,155.94005246871436,-0.0022717314248365,0.0010850960903102,,10022.661867135384,12264.339701119052,150,1,2025-09-12,2025-09-26 14:26:03.237,AH,C,857110534,HAWK11,1,1,73,2,1,1,225,2,1,0,0,12,1,225,2,1,-144532.26208670562,-4791824.061494674,4198458.352995396,3.07371,2.54085,-0.543509,-96.125,57.375,59.625,-0.296875,-8.45312,8.01562,-0.00585938,0.0195312,0.0351562,4,0,41.40171339950587,-91.72764663539526,12242.964504116471,-46.08067942675297,-0.2728052507973574,35.25472477272604,181.778,10022.661867135384,12264.339701119052,150,False,12.345594503761415,False,153.53749321483897,174.50575940690658,False,21.03006063162795,True,False
1,1970-07-23 10:27:51.644314418,2025-09-12,2025-09-26 14:26:04.431,AH,C,3151727802,JASSM,3,124,76,2,2,1,225,9,2,0,1,26,0,0,0,0,-155331.82653983062,-4778051.623994674,4213067.069792271,-2.71083,-1.01109,0.751938,35.125,-56.0,-61.75,0.0,0.0,0.0,0.0,0.0,0.0,2,0,41.58023742966638,-91.86199845826626,10997.37224759343,155.94037572403926,-0.0013750867796561,0.001083766828834,,10022.661867135384,12264.339701119052,150,1,2025-09-12,2025-09-26 14:26:04.421,AH,C,858422834,HAWK11,1,1,73,2,1,1,225,2,1,0,0,12,1,225,2,1,-144636.06872733062,-4791756.651338424,4198526.895964146,3.09481,2.4977,-0.562683,-91.5,61.75,64.125,-0.359375,-8.59375,8.20312,0.0,0.0332031,0.0292969,4,0,41.402558410761976,-91.72891102820418,12233.57506266058,-43.75141513290239,-0.7206886429733944,35.144333146695,181.449,10022.661867135384,12264.339701119052,150,False,12.220076884949435,False,157.0201885673338,174.59652189858454,False,17.63293699264825,True,False
1,1970-07-23 10:27:51.654459154,2025-09-12,2025-09-26 14:26:05.445,AH,C,3153040152,JASSM,3,124,76,2,2,1,225,9,2,0,1,26,0,0,0,0,-155293.17126639312,-4778113.332979049,4212998.968229771,-2.71083,-1.01109,0.751938,35.125,-56.0,-61.75,0.0,0.0,0.0,0.0,0.0,0.0,2,0,41.57941815275938,-91.86151138996117,10997.372351600288,155.9406989732211,-0.0004784494895653,0.0010824498491866,,10022.661867135384,12264.339701119052,150,1,2025-09-12,2025-09-26 14:26:05.326,AH,C,859576066,HAWK11,1,1,73,2,1,1,225,2,1,0,0,12,1,225,2,1,-144722.28552420562,-4791694.530244674,4198590.558073521,3.10938,2.44871,-0.589336,-86.75,65.375,67.625,-0.265625,-8.67188,8.23438,-0.0136719,0.03125,0.0449219,4,0,41.40334216210657,-91.72996341078655,12225.308302273526,-40.95309980594004,-0.9189873862792336,34.410006165969044,181.497,10022.661867135384,12264.339701119052,150,False,12.102439486062043,False,160.10533241714242,174.65844663285725,False,14.600341296204508,True,False
1,1970-07-23 10:27:51.665467621,2025-09-12,2025-09-26 14:26:06.546,AH,C,3154293072,JASSM,3,124,76,2,2,1,225,9,2,0,1,26,0,0,0,0,-155256.26794608062,-4778172.247041549,4212933.948698521,-2.71083,-1.01109,0.751938,35.125,-56.0,-61.75,0.0,0.0,0.0,0.0,0.0,0.0,2,0,41.57863596394825,-91.8610464075574,10997.372045330205,155.94100755992858,0.0003775882399101,0.0010811761073268,,10022.661867135384,12264.339701119052,150,1,2025-09-12,2025-09-26 14:26:06.528,AH,C,860848598,HAWK11,1,1,73,2,1,1,225,2,1,0,0,12,1,225,2,1,-144811.94177420562,-4791622.436494674,4198664.733854771,3.13105,2.39857,-0.616564,-81.75,68.375,71.75,-0.328125,-8.8125,8.28125,-0.0136719,0.0292969,0.0351562,4,0,41.40425557407017,-91.73106050970549,12215.588206722909,-38.12110145745866,-1.0180529955727062,33.97407482752003,181.534,10022.661867135384,12264.339701119052,150,False,11.979468323837542,False,163.28867643729404,174.71310193640406,False,11.478636803162113,True,False
1,1970-07-23 10:27:51.676487153,2025-09-12,2025-09-26 14:26:07.648,AH,C,3155605408,JASSM,3,124,76,2,2,1,225,9,2,0,1,26,0,0,0,0,-155217.61364920562,-4778233.954072799,4212865.847136021,-2.71083,-1.01109,0.752034,35.125,-56.0,-61.75,0.0,0.0,0.0,0.0,0.0,0.0,2,0,41.5778166942488,-91.86055937577494,10997.377442170531,155.9436251389121,-0.0037187513226176,0.0010798063113708,,10022.661867135384,12264.339701119052,150,1,2025-09-12,2025-09-26 14:26:07.732,AH,C,862359730,HAWK11,1,1,73,2,1,1,225,2,1,0,0,12,1,225,2,1,-144910.69177420562,-4791532.775361861,4198757.903776646,3.13133,2.32877,-0.65453,-75.125,71.875,76.125,-0.375,-8.9375,8.42188,-0.0371094,0.0253906,0.0429688,4,0,41.4054000474796,-91.7322726282784,12204.559336930037,-34.23779048060872,-0.970033958342667,31.548268452679224,181.827,10022.661867135384,12264.339701119052,150,False,11.839459261997499,False,167.1479061040854,174.7571479717793,False,7.666072647918699,True,False
1,1970-07-23 10:27:51.687247916,2025-09-12,2025-09-26 14:26:08.724,AH,C,3156917554,JASSM,3,124,76,2,2,1,225,9,2,0,1,26,0,0,0,0,-155178.96521170562,-4778295.649385299,4212797.753386021,-2.71083,-1.01109,0.752034,35.125,-56.0,-61.75,0.0,0.0,0.0,0.0,0.0,0.0,2,0,41.57699754377364,-91.86007243104604,10997.376688321718,155.94394829074375,-0.0028222615257271,0.0010785197767181,,10022.661867135384,12264.339701119052,150,1,2025-09-12,2025-09-26 14:26:08.732,AH,C,863672028,HAWK11,1,1,73,2,1,1,225,2,1,0,0,12,1,225,2,1,-144989.93982108062,-4791451.465791549,4198843.731901646,3.09816,2.27748,-0.68358,-69.625,74.0,80.0,-0.421875,-9.0,8.51562,-0.0859375,0.0214844,0.0273438,4,0,41.40644878387395,-91.73324878165344,12196.702931609829,-31.40430308402982,-0.7397236295018303,27.78214560417939,181.693,10022.661867135384,12264.339701119052,150,False,11.709631253810661,False,170.26149009236383,174.77054722830374,False,4.617028949173417,True,False
1,1970-07-23 10:27:51.698267148,2025-09-12,2025-09-26 14:26:09.826,AH,C,3158229906,JASSM,3,124,76,2,2,1,225,9,2,0,1,26,0,0,0,0,-155140.30993826812,-4778357.354463424,4212729.647917271,-2.71083,-1.01109,0.752034,35.125,-56.0,-61.75,0.0,0.0,0.0,0.0,0.0,0.0,2,0,41.57617825526624,-91.85958541294356,10997.378948224294,155.94427148603904,-0.0019256214201835,0.0010772363733856,,10022.661867135384,12264.339701119052,150,1,2025-09-12,2025-09-26 14:26:09.622,AH,C,864626428,HAWK11,1,1,73,2,1,1,225,2,1,0,0,12,1,225,2,1,-145044.45153983062,-4791390.832979049,4198909.395964146,3.03009,2.24268,-0.704672,-66.0,74.625,82.875,-0.234375,-9.09375,8.53125,-0.123047,0.0332031,0.0253906,4,0,41.40724286619394,-91.73392196001129,12194.11581265838,-29.47506692717193,-0.4458943028610446,22.586315049080383,181.901,10022.661867135384,12264.339701119052,150,False,11.599757169104983,False,172.22896811209102,174.76188643957803,False,2.8698395083632877,True,False
1,1970-07-23 10:27:51.710208574,2025-09-12,2025-09-26 14:26:11.020,AH,C,3159542256,JASSM,3,124,76,2,2,1,225,9,2,0,1,26,0,0,0,0,-155101.65564139312,-4778419.057588424,4212661.538542271,-2.71083,-1.01109,0.752034,35.125,-56.0,-61.75,0.0,0.0,0.0,0.0,0.0,0.0,2,0,41.57535894975078,-91.8590984196068,10997.373109057671,155.94459465967023,-0.0010289714446035,0.0010759383972138,,10022.661867135384,12264.339701119052,150,1,2025-09-12,2025-09-26 14:26:11.122,AH,C,866574992,HAWK11,1,1,73,2,1,1,225,2,1,0,0,12,1,225,2,1,-145147.20544608062,-4791267.770479049,4199048.560026646,2.88072,2.20308,-0.745227,-60.625,74.625,87.625,-0.390625,-9.0625,8.46875,-0.105469,0.0195312,0.00390625,4,0,41.40889572515282,-91.73519411212192,12201.076170996128,-26.880845977041968,0.7999900891827072,12.531264664774495,181.901,10022.661867135384,12264.339701119052,150,False,11.431784879049724,False,174.81401345059177,174.74343280954935,False,2.5964255455479055,True,False
1,1970-07-23 10:27:51.718496401,2025-09-12,2025-09-26 14:26:11.849,AH,C,3160675650,JASSM,3,124,76,2,2,1,225,9,2,0,1,26,0,0,0,0,-155068.27185233062,-4778472.346650924,4212602.718229771,-2.71083,-1.01109,0.752034,35.125,-56.0,-61.75,0.0,0.0,0.0,0.0,0.0,0.0,2,0,41.57465137562618,-91.85867783797713,10997.37523580984,155.94487375762202,-0.0002545986976741,0.0010748257007358,,10022.661867135384,12264.339701119052,150,1,2025-09-12,2025-09-26 14:26:11.732,AH,C,867131724,HAWK11,1,1,73,2,1,1,225,2,1,0,0,12,1,225,2,1,-145174.74060233062,-4791232.479463424,4199089.698698521,2.83758,2.19714,-0.755486,-59.5,74.125,88.875,-0.15625,-8.90625,8.40625,-0.113281,0.015625,0.0292969,4,0,41.40937836847543,-91.73553586150396,12205.602046937096,-26.38958541406493,1.2080165314912796,9.8357262642268,181.815,10022.661867135384,12264.339701119052,150,True,11.352776458431823,False,175.1378075097069,174.71743645295305,False,3.2322545122380237,True,False
1,1970-07-23 10:27:51.728268814,2025-09-12,2025-09-26 14:26:12.826,AH,C,3161809044,JASSM,3,124,76,2,2,1,225,9,2,0,1,26,0,0,0,0,-155034.88806326812,-4778525.633760299,4212543.897917271,-2.71083,-1.01099,0.752034,35.125,-56.0,-61.75,0.0,0.0,0.0,0.0,0.0,0.0,2,0,41.57394381153331,-91.85825726628651,10997.37638937266,155.9415042691558,-0.0011569741839976,-0.0026822940706196,,10022.661867135384,12264.339701119052,150,1,2025-09-12,2025-09-26 14:26:13.028,AH,C,868762156,HAWK11,1,1,73,2,1,1,225,2,1,0,0,12,1,225,2,1,-145253.29724295562,-4791131.820283736,4199211.769011021,2.76174,2.19695,-0.774277,-57.25,73.0,91.125,-0.171875,-8.04688,7.64062,-0.0371094,0.0195312,0.00585938,4,0,41.41078691920753,-91.73651087617264,12228.792118269394,-25.88986287224758,2.163082255388366,5.49778201272363,181.901,10022.661867135384,12264.339701119052,150,True,11.211407210336253,False,175.43076847077364,174.67640926454015,False,4.611656455763155,True,False
1,1970-07-23 10:27:51.738310774,2025-09-12,2025-09-26 14:26:13.831,AH,C,3162942438,JASSM,3,124,76,2,2,1,225,9,2,0,1,26,0,0,0,0,-155001.50427420562,-4778578.920869674,4212485.075651646,-2.71074,-1.01099,0.752034,35.125,-56.0,-61.75,0.0,0.0,0.0,0.0,0.0,0.0,2,0,41.57323623266617,-91.8578367037754,10997.37710873993,155.94178334665295,-0.0003826001882116,0.0028080148586321,,10022.661867135384,12264.339701119052,150,1,2025-09-12,2025-09-26 14:26:14.028,AH,C,869955154,HAWK11,1,1,73,2,1,1,225,2,1,0,0,12,1,225,2,1,-145309.32849295562,-4791058.847627486,4199302.811979771,2.72799,2.19676,-0.791151,-56.125,72.125,92.0,-0.375,-8.17188,7.64062,-0.0273438,0.00976562,0.015625,4,0,41.411825401758485,-91.7372067651682,12251.075606845878,-25.43999463743914,3.0200358509949767,3.576824555335421,181.778,10022.661867135384,12264.339701119052,150,True,11.095536236498631,False,175.3249854489823,174.63412626225062,False,5.354615104744011,True,False
1,1970-07-23 10:27:51.746468644,2025-09-12,2025-09-26 14:26:14.646,AH,C,3164016182,JASSM,3,124,76,2,2,1,225,9,2,0,1,26,0,0,0,0,-154969.87829764312,-4778629.401338424,4212429.349089146,-2.71074,-1.01099,0.75213,35.125,-56.0,-61.75,0.0,0.0,0.0,0.0,0.0,0.0,2,0,41.57256590402976,-91.85743829463338,10997.375882397668,155.94434098613198,-0.0046387045181414,0.0028068246167796,,10022.661867135384,12264.339701119052,150,1,2025-09-12,2025-09-26 14:26:14.826,AH,C,870909554,HAWK11,1,1,73,2,1,1,225,2,1,0,0,12,1,225,2,1,-145353.45349295562,-4791000.936494674,4199376.556120396,2.707,2.19676,-0.800546,-55.375,71.5,92.625,-0.171875,-7.85938,7.4375,-0.0429688,0.00976562,0.0078125,4,0,41.41265967067346,-91.73775495834686,12271.97924888748,-25.1932089076653,3.499414557655293,2.387878100893983,181.815,10022.661867135384,12264.339701119052,150,True,10.996034050170438,False,175.17314844495831,174.59349020027247,False,5.890945990124763,True,False
1,1970-07-23 10:27:51.756488517,2025-09-12,2025-09-26 14:26:15.648,AH,C,3165149574,JASSM,3,124,76,2,2,1,225,9,2,0,1,26,0,0,0,0,-154936.49450858062,-4778682.686494674,4212370.524870396,-2.71074,-1.01099,0.75213,35.125,-56.0,-61.75,0.0,0.0,0.0,0.0,0.0,0.0,2,0,41.5718583205051,-91.85701775075556,10997.374993445965,155.9446200437667,-0.0038643291591814,0.0028056912933152,,10022.661867135384,12264.339701119052,150,1,2025-09-12,2025-09-26 14:26:15.732,AH,C,872023020,HAWK11,1,1,73,2,1,1,225,2,1,0,0,12,1,225,2,1,-145404.84997733062,-4790933.904268111,4199463.548307896,2.67066,2.20193,-0.811284,-54.75,70.625,93.125,-0.125,-7.9375,7.54688,-0.0253906,0.00976562,0.0,4,0,41.41363629666038,-91.73839335302895,12299.750646201122,-25.09265188829168,4.141246846451534,0.5267434380747896,181.815,10022.661867135384,12264.339701119052,150,True,10.884671524682917,False,174.8842223889611,174.5462200539174,False,6.438164298523252,True,False
1,1970-07-23 10:27:51.766266898,2025-09-12,2025-09-26 14:26:16.626,AH,C,3166282970,JASSM,3,124,76,2,2,1,225,9,2,0,1,26,0,0,0,0,-154903.11071951812,-4778735.969697799,4212311.700651646,-2.71074,-1.01099,0.75213,35.125,-56.0,-61.75,0.0,0.0,0.0,0.0,0.0,0.0,2,0,41.57115074701166,-91.85659721681436,10997.373131115475,155.94489909090692,-0.0030899645801801,0.0028045621888972,,10022.661867135384,12264.339701119052,150,1,2025-09-12,2025-09-26 14:26:16.826,AH,C,873295552,HAWK11,1,1,73,2,1,1,225,2,1,0,0,12,1,225,2,1,-145462.47107108062,-4790858.999971236,4199562.647917271,2.64104,2.20769,-0.823364,-54.25,69.75,93.125,-0.203125,-7.6875,7.3125,-0.0195312,0.00195312,-0.00195312,4,0,41.41474033667371,-91.73910899487517,12334.911139773138,-24.9714925815229,4.860245438627017,-0.920714052914579,182.023,10022.661867135384,12264.339701119052,150,True,10.764951813293468,False,174.64091429866033,174.49269211092658,False,6.81941965072668,True,False
1,1970-07-23 10:27:51.775328799,2025-09-12,2025-09-26 14:26:17.532,AH,C,3167416564,JASSM,3,124,76,2,2,1,225,9,2,0,1,26,0,0,0,0,-154869.72107108062,-4778789.262666549,4212252.864714146,-2.71074,-1.01099,0.75213,35.125,-56.0,-61.75,0.0,0.0,0.0,0.0,0.0,0.0,2,0,41.57044303584757,-91.85617661808256,10997.373066964825,155.94517817713788,-0.0023154531183719,0.0028034281495433,,10022.661867135384,12264.339701119052,150,1,2025-09-12,2025-09-26 14:26:17.732,AH,C,874210184,HAWK11,1,1,73,2,1,1,225,2,1,0,0,12,1,225,2,1,-145503.66833670562,-4790805.876924361,4199634.015104771,2.6163,2.2167,-0.82787,-54.125,68.75,93.25,-0.203125,-7.5,7.09375,-0.0273438,-0.00195312,0.0,4,0,41.41553058919269,-91.73962051315588,12362.231761665586,-25.16092777216371,5.253268198768626,-1.975094823277648,182.389,10022.661867135384,12264.339701119052,150,True,10.666131271776544,False,174.260820357477,174.44607902306183,False,7.191979646725628,True,False
1,1970-07-23 10:27:51.784468131,2025-09-12,2025-09-26 14:26:18.446,AH,C,3168549756,JASSM,3,124,76,2,2,1,225,9,2,0,1,26,0,0,0,0,-154836.34314139312,-4778842.536104049,4212194.050261021,-2.71074,-1.01099,0.75213,35.125,-56.0,-61.75,0.0,0.0,0.0,0.0,0.0,0.0,2,0,41.56973558199951,-91.85575617646502,10997.37660847486,155.94545715521642,-0.001541223128077,0.0028022985772516,,10022.661867135384,12264.339701119052,150,1,2025-09-12,2025-09-26 14:26:18.326,AH,C,875124816,HAWK11,1,1,73,2,1,1,225,2,1,0,0,12,1,225,2,1,-145544.53747733062,-4790753.500947799,4199704.399870396,2.61697,2.20711,-0.813777,-54.0,69.0,92.5,-0.1875,-6.03125,5.71875,0.00390625,-0.00195312,0.0,4,0,41.41630982177841,-91.74012785066928,12389.237800605111,-25.20866717769252,4.365320070983335,-2.342549071900473,182.634,10022.661867135384,12264.339701119052,150,True,10.568000831780715,False,174.51697124568037,174.3994028497812,False,6.969847362114303,True,False
1,1970-07-23 10:27:51.794505007,2025-09-12,2025-09-26 14:26:19.450,AH,C,3169683152,JASSM,3,124,76,2,2,1,225,9,2,0,1,26,0,0,0,0,-154802.95935233062,-4778895.817354049,4212135.222136021,-2.71074,-1.01099,0.75213,35.125,-56.0,-61.75,0.0,0.0,0.0,0.0,0.0,0.0,2,0,41.56902798898752,-91.85533567081409,10997.372904924468,155.9457361718834,-0.0007668451223704,0.0028011629435483,,10022.661867135384,12264.339701119052,150,1,2025-09-12,2025-09-26 14:26:19.458,AH,C,875920148,HAWK11,1,1,73,2,1,1,225,2,1,0,0,12,1,225,2,1,-145580.47302420562,-4790707.084932174,4199765.571745396,2.62455,2.20644,-0.811859,-54.0,69.25,91.875,0.046875,-6.46875,6.15625,0.0117188,-0.0078125,-0.00585938,4,0,41.41699230889947,-91.74057408463496,12410.541179810873,-25.236705477797443,4.256519806444629,-1.9385860572878333,183.172,10022.661867135384,12264.339701119052,150,True,10.476269912188316,False,174.72692874826257,174.35539137218356,False,6.756257519018874,True,False
1,1970-07-23 10:27:51.804267503,2025-09-12,2025-09-26 14:26:20.426,AH,C,3170816552,JASSM,3,124,76,2,2,1,225,9,2,0,1,26,0,0,0,0,-154769.57458670562,-4778949.098604049,4212076.395964146,-2.71074,-1.01099,0.75213,35.125,-56.0,-61.75,0.0,0.0,0.0,0.0,0.0,0.0,2,0,41.56832040768892,-91.85491516264386,10997.377193567285,155.94601518632123,7.524365416222749e-06,0.0028000407229135,,10022.661867135384,12264.339701119052,150,1,2025-09-12,2025-09-26 14:26:20.129,AH,C,877232448,HAWK11,1,1,73,2,1,1,225,2,1,0,0,12,1,225,2,1,-145640.07263358062,-4790629.875947799,4199866.280729771,2.63001,2.20606,-0.807929,-54.0,69.75,90.75,-0.203125,-6.75,6.40625,0.0078125,0.0,-0.00390625,4,0,41.41812053901253,-91.74131427112842,12443.704193945689,-25.32861608520314,4.051281241321799,-1.647996609610952,183.905,10022.661867135384,12264.339701119052,150,True,10.354768958314736,False,175.11185037395074,174.29850688702433,False,6.341062932303536,True,False
1,1970-07-23 10:27:51.812423639,2025-09-12,2025-09-26 14:26:21.242,AH,C,3171890294,JASSM,3,124,76,2,2,1,225,9,2,0,1,26,0,0,0,0,-154737.94763358062,-4778999.575166549,4212020.663542271,-2.71074,-1.01099,0.75213,35.125,-56.0,-61.75,0.0,0.0,0.0,0.0,0.0,0.0,2,0,41.56765005240896,-91.85451680372483,10997.378679992384,155.94627950075022,0.00074114739779,0.002798966011808,,10022.661867135384,12264.339701119052,150,1,2025-09-12,2025-09-26 14:26:21.232,AH,C,878544746,HAWK11,1,1,73,2,1,1,225,2,1,0,0,12,1,225,2,1,-145699.05114920562,-4790553.444307174,4199965.380339146,2.63663,2.20376,-0.807257,-54.0,69.5,90.625,-0.078125,-6.82812,6.54688,0.0,0.0,0.0,5,0,41.41923338747404,-91.74204677688266,12475.24928768575,-25.266022411567523,3.976206804449393,-1.359794138062393,184.589,10022.661867135384,12264.339701119052,150,True,10.236680018339273,False,175.0399448304943,174.24263028642758,False,6.426150126286717,True,False
1,1970-07-23 10:27:51.825017803,2025-09-12,2025-09-26 14:26:22.501,AH,C,3173202638,JASSM,3,124,76,2,2,1,225,9,2,0,1,26,0,0,0,0,-154699.29333670562,-4779061.264619674,4211952.546354771,-2.71074,-1.01099,0.752226,35.125,-56.0,-61.75,0.0,0.0,0.0,0.0,0.0,0.0,2,0,41.566830753208365,-91.85402994378047,10997.375575779257,155.94889722469523,-0.0033550411283209,0.0027976204317311,,10022.661867135384,12264.339701119052,150,1,2025-09-12,2025-09-26 14:26:22.622,AH,C,880135410,HAWK11,1,1,73,2,1,1,225,2,1,0,0,12,1,225,2,1,-145770.53357108062,-4790460.595674361,4200085.229948521,2.63011,2.20241,-0.807066,-53.875,69.5,89.875,-0.046875,-6.89062,6.64062,0.0,-0.00195312,0.00390625,4,0,41.420581670555706,-91.74293468755856,12512.40772372241,-25.224440005031937,3.943377090682728,-1.7859407737517556,185.909,10022.661867135384,12264.339701119052,150,True,10.093142602091005,False,175.18884777437523,174.1729536623492,False,6.291236774318993,True,False
1,1970-07-23 10:27:51.835323472,2025-09-12,2025-09-26 14:26:23.532,AH,C,3174514988,JASSM,3,124,76,2,2,1,225,9,2,0,1,26,0,0,0,0,-154660.63806326812,-4779122.956025924,4211884.427214146,-2.71074,-1.01099,0.752226,35.125,-56.0,-61.75,0.0,0.0,0.0,0.0,0.0,0.0,2,0,41.56601142721215,-91.85354308368464,10997.378053014883,155.9492202505145,-0.0024583914906905,0.002796343605865,,10022.661867135384,12264.339701119052,150,1,2025-09-12,2025-09-26 14:26:23.622,AH,C,881447710,HAWK11,1,1,73,2,1,1,225,2,1,0,0,12,1,225,2,1,-145830.19763358062,-4790383.445283736,4200184.151823521,2.628,2.20021,-0.805819,-53.875,69.375,89.375,-0.03125,-6.89062,6.64062,0.0,0.00195312,-0.00976562,4,0,41.42169745439974,-91.74367569719864,12541.87260942359,-25.18019523841204,3.840925759550367,-1.9949294988777448,186.752,10022.661867135384,12264.339701119052,150,True,9.964999634521304,False,175.22136728823344,174.10968515455346,False,6.229844355941051,True,False
1,1970-07-23 10:27:51.845426921,2025-09-12,2025-09-26 14:26:24.542,AH,C,3175767688,JASSM,3,124,76,2,2,1,225,9,2,0,1,26,0,0,0,0,-154623.73962576812,-4779181.840791549,4211819.403776646,-2.71074,-1.01089,0.752226,35.125,-56.0,-61.75,0.0,0.0,0.0,0.0,0.0,0.0,2,0,41.56522935196738,-91.85307836337364,10997.3777238009,155.94588530223268,-0.0032771015348593,-0.0009568491717686,,10022.661867135384,12264.339701119052,150,1,2025-09-12,2025-09-26 14:26:24.622,AH,C,882362342,HAWK11,1,1,73,2,1,1,225,2,1,0,0,12,1,225,2,1,-145871.01794608062,-4790330.526338424,4200251.729948521,2.62186,2.20251,-0.804669,-54.0,69.375,89.0,-0.3125,-6.90625,6.57812,-0.015625,-0.0117188,0.00390625,4,0,41.42246095545867,-91.74418273570228,12561.485638869268,-25.292242079895743,3.825443825944608,-2.258888757645059,187.632,10022.661867135384,12264.339701119052,150,True,9.862861518004074,False,175.2493942490319,174.05666548550082,False,6.135735411393218,True,False
1,1970-07-23 10:27:51.857786863,2025-09-12,2025-09-26 14:26:25.778,AH,C,3177020388,JASSM,3,124,76,2,2,1,225,9,2,0,1,26,0,0,0,0,-154586.84118826812,-4779240.723604049,4211754.378386021,-2.71074,-1.01089,0.752226,35.125,-55.875,-61.75,0.0,0.0,0.0,0.0,0.0,0.0,2,0,41.56444727324229,-91.85261365502691,10997.373015354033,155.9461936210291,-0.0024212166544878,-0.0009581180296192,,10022.661867135384,12264.339701119052,150,1,2025-09-12,2025-09-26 14:26:25.826,AH,C,884072306,HAWK11,1,1,73,2,1,1,225,2,1,0,0,12,1,225,2,1,-145948.45544608062,-4790230.829072799,4200378.372526646,2.62042,2.19858,-0.806107,-54.125,69.375,88.125,-0.21875,-6.85938,6.59375,0.00195312,0.0,-0.00390625,4,0,41.42389472080914,-91.7451443829023,12597.029652492269,-25.116028228841323,3.828255202638684,-2.491834663010125,189.123,10022.661867135384,12264.339701119052,150,True,9.715687902935516,False,175.39751082258962,173.98854700355398,False,5.90657252796873,True,False
1,1970-07-23 10:27:51.866487332,2025-09-12,2025-09-26 14:26:26.648,AH,C,3178332738,JASSM,3,124,76,2,2,1,225,9,2,0,1,26,0,0,0,0,-154548.18689139312,-4779302.411104049,4211686.257292271,-2.71074,-1.01089,0.752226,35.125,-55.875,-61.75,0.0,0.0,0.0,0.0,0.0,0.0,2,0,41.56362795088085,-91.85212684392296,10997.376626257988,155.94651659917224,-0.0015245798611543,-0.0009594568871621,,10022.661867135384,12264.339701119052,150,1,2025-09-12,2025-09-26 14:26:26.528,AH,C,884867640,HAWK11,1,1,73,2,1,1,225,2,1,0,0,12,1,225,2,1,-145984.42810233062,-4790184.367158736,4200436.929167271,2.61525,2.19714,-0.797574,-54.25,69.625,87.875,-0.125,-6.26562,6.01562,-0.0175781,-0.0195312,-0.015625,4,0,41.424559793555765,-91.745591171961,12612.587008346318,-25.29025028692118,3.3683845034526154,-2.858581658296996,189.636,10022.661867135384,12264.339701119052,150,True,9.61760220261566,False,175.48509889564312,173.93543375495724,False,5.787465613818217,True,False
1,1970-07-23 10:27:51.877425193,2025-09-12,2025-09-26 14:26:27.742,AH,C,3179585438,JASSM,3,124,76,2,2,1,225,9,2,0,1,26,0,0,0,0,-154511.28845389312,-4779361.293916549,4211621.229948521,-2.71074,-1.01089,0.752226,35.125,-55.875,-61.75,0.0,0.0,0.0,0.0,0.0,0.0,2,0,41.56284585494112,-91.85166215852335,10997.377216868685,155.94682489298756,-0.0006686827328115,-0.0009607311409633,,10022.661867135384,12264.339701119052,150,1,2025-09-12,2025-09-26 14:26:27.826,AH,C,886259472,HAWK11,1,1,73,2,1,1,225,2,1,0,0,12,1,225,2,1,-146048.23083670562,-4790101.468721236,4200538.563932896,2.62282,2.17336,-0.776098,-54.5,71.375,85.875,-0.125,-4.8125,4.64062,-0.00585938,-0.0195312,-0.00390625,4,0,41.42572730923002,-91.74638381716652,12634.152774276028,-24.98725819553549,1.8376245761856704,-3.375551387717689,190.614,10022.661867135384,12264.339701119052,150,True,9.48807818066273,False,176.16502033541357,173.87084694955163,False,4.739686859252226,True,False
1,1970-07-23 10:27:51.889243853,2025-09-12,2025-09-26 14:26:28.924,AH,C,3180957440,JASSM,3,124,76,2,2,1,225,9,2,0,1,26,0,0,0,0,-154470.87536795562,-4779425.782197799,4211550.009245396,-2.71074,-1.01089,0.752226,35.125,-55.875,-61.75,0.0,0.0,0.0,0.0,0.0,0.0,2,0,41.561989284046334,-91.85115322503944,10997.37663446206,155.947162537564,0.0002687185732235,-0.000962118070634,,10022.661867135384,12264.339701119052,150,1,2025-09-12,2025-09-26 14:26:28.920,AH,C,887730836,HAWK11,1,1,73,2,1,1,225,2,1,0,0,12,1,225,2,1,-146115.17028983062,-4790011.809541549,4200641.726042271,2.62004,2.15553,-0.749829,-54.75,74.25,83.25,-0.1875,-4.73438,4.5,-0.0136719,-0.0214844,0.00585938,4,0,41.4269447872029,-91.74721643863626,12642.656792870122,-24.98367194547581,0.1624941337901406,-4.240887677289081,191.164,10022.661867135384,12264.339701119052,150,True,9.350208371085692,False,176.7058415714747,173.8046823539737,False,3.4099857825499105,True,False
1,1970-07-23 10:27:51.899284652,2025-09-12,2025-09-26 14:26:29.928,AH,C,3182210140,JASSM,3,124,76,2,2,1,225,9,2,0,1,26,0,0,0,0,-154433.97693045562,-4779484.661104049,4211484.981901646,-2.71074,-1.01089,0.752322,35.125,-55.875,-61.75,0.0,0.0,0.0,0.0,0.0,0.0,2,0,41.5612072072579,-91.85068856463052,10997.377413363089,155.94976439929786,-0.0038649639073468,-0.0009634387434193,,10022.661867135384,12264.339701119052,150,1,2025-09-12,2025-09-26 14:26:29.827,AH,C,888764768,HAWK11,1,1,73,2,1,1,225,2,1,0,0,12,1,225,2,1,-146162.82263358062,-4789946.199189986,4200712.786589146,2.62138,2.14144,-0.730462,-55.125,76.75,81.25,-0.046875,-4.73438,4.5625,0.0,-0.0253906,-0.00976562,4,0,41.42780604921288,-91.74780982808696,12639.16855681962,-24.92073624692125,-1.0945875939484797,-4.709054463394067,191.897,10022.661867135384,12264.339701119052,150,True,9.241090276687311,False,176.43688761376492,173.7523222093676,False,2.687488359969255,True,False
1,1970-07-23 10:27:51.909509887,2025-09-12,2025-09-26 14:26:30.950,AH,C,3183463046,JASSM,3,124,76,2,2,1,225,9,2,0,1,26,0,0,0,0,-154397.07263358062,-4779543.549775924,4211419.940886021,-2.71064,-1.01089,0.752322,35.125,-55.875,-61.75,0.0,0.0,0.0,0.0,0.0,0.0,2,0,41.56042497928357,-91.85022384148132,10997.37659569362,155.95007270351644,-0.0030089293158698,0.0045267914920323,,10022.661867135384,12264.339701119052,150,1,2025-09-12,2025-09-26 14:26:31.028,AH,C,890275900,HAWK11,1,1,73,2,1,1,225,2,1,0,0,12,1,225,2,1,-146233.91833670562,-4789846.550752486,4200815.142057896,2.61822,2.14556,-0.717328,-56.0,78.75,79.875,-0.140625,-6.20312,5.9375,-0.0078125,-0.015625,-0.00195312,4,0,41.42907676862796,-91.7486958169677,12621.6927172375,-25.40181684930644,-1.698906689688979,-4.72211249838516,192.63,10022.661867135384,12264.339701119052,150,True,9.104126050292425,False,175.71392011954734,173.69555155101492,False,2.401432509888358,True,False
1,1970-07-23 10:27:51.920445475,2025-09-12,2025-09-26 14:26:32.044,AH,C,3184775314,JASSM,3,124,76,2,2,1,225,9,2,0,1,26,0,0,0,0,-154358.42028983062,-4779605.225557174,4211351.817839146,-2.71064,-1.01089,0.752322,35.125,-55.875,-61.75,0.0,0.0,0.0,0.0,0.0,0.0,2,0,41.55960570263005,-91.84973711867312,10997.372486397624,155.95039559752465,-0.0021123518590077,0.0045254923375362,,10022.661867135384,12264.339701119052,150,1,2025-09-12,2025-09-26 14:26:32.178,AH,C,891349600,HAWK11,1,1,73,2,1,1,225,2,1,0,0,12,1,225,2,1,-146284.37732108062,-4789775.937471236,4200885.753386021,2.61553,2.13866,-0.709179,-56.75,79.75,79.125,0.0,-6.40625,5.75,0.0,-0.00390625,0.00585938,4,0,41.429964258333975,-91.749324614252,12605.154070956332,-25.329733000293064,-2.247649081036052,-5.137162220778777,193.327,10022.661867135384,12264.339701119052,150,True,8.990437230005316,False,175.17423717645806,173.64570772593524,False,2.342656767563767,True,False
1,1970-07-23 10:27:51.932464245,2025-09-12,2025-09-26 14:26:33.246,AH,C,3186147192,JASSM,3,124,76,2,2,1,225,9,2,0,1,26,0,0,0,0,-154318.01111014312,-4779669.704072799,4211280.601042271,-2.71064,-1.01089,0.752322,35.125,-55.875,-61.75,0.0,0.0,0.0,0.0,0.0,0.0,2,0,41.5587492065534,-91.84922828658364,10997.37791701062,155.9507331533355,-0.0011750419299254,0.0045241424682266,,10022.661867135384,12264.339701119052,150,1,2025-09-12,2025-09-26 14:26:33.232,AH,C,892940264,HAWK11,1,1,73,2,1,1,225,2,1,0,0,12,1,225,2,1,-146360.95739920562,-4789668.505830611,4200990.913542271,2.61314,2.14192,-0.701509,-57.75,80.5,78.5,-0.203125,-7.25,6.39062,-0.00585938,0.00585938,-0.0136719,4,0,41.43129921793047,-91.75027905194528,12575.065250882928,-25.64566547978828,-2.5839303790179566,-5.140048581362499,194.207,10022.661867135384,12264.339701119052,150,True,8.84376752133256,False,174.60142113745314,173.58980741957214,False,2.2775549102103625,True,False
1,1970-07-23 10:27:51.954243669,2025-09-12,2025-09-26 14:26:35.424,AH,C,3188772160,JASSM,3,124,76,2,2,1,225,9,2,0,1,26,0,0,0,0,-154240.69177420562,-4779793.073213424,4211144.327604771,-2.71064,-1.01089,0.752322,35.125,-55.875,-61.75,0.0,0.0,0.0,0.0,0.0,0.0,2,0,41.55711035597336,-91.84825472135168,10997.378215971896,155.9513789940849,0.0006184305444484,0.0045215519417305,,10022.661867135384,12264.339701119052,150,1,2025-09-12,2025-09-26 14:26:35.326,AH,C,895366028,HAWK11,1,1,73,2,1,1,225,2,1,0,0,12,1,225,2,1,-146480.76794608062,-4789504.517549361,4201151.294401646,2.59885,2.15802,-0.718574,-59.75,79.625,79.25,-0.328125,-8.40625,7.5625,-0.00585938,0.0234375,-0.0078125,4,0,41.43333547319211,-91.75177087133426,12529.079534622288,-25.85868913875216,-1.3980199033834138,-5.349428355583448,195.306,10022.661867135384,12264.339701119052,150,True,8.597567948020048,False,174.1950514044696,173.4931944198198,False,1.387526174797983,True,False
1,1970-07-23 10:27:51.954649176,2025-09-12,2025-09-26 14:26:35.464,AH,C,3187459544,JASSM,3,124,76,2,2,1,225,9,2,0,1,26,0,0,0,0,-154279.35583670562,-4779731.381807174,4211212.470182896,-2.71064,-1.01089,0.752322,35.125,-55.875,-61.75,0.0,0.0,0.0,0.0,0.0,0.0,2,0,41.557929861749535,-91.84874155308472,10997.371833576532,155.95105604374197,-0.0002783951148755,0.0045228418054536,,10022.661867135384,12264.339701119052,150,1,2025-09-12,2025-09-26 14:26:35.326,AH,C,895366028,HAWK11,1,1,73,2,1,1,225,2,1,0,0,12,1,225,2,1,-146480.76794608062,-4789504.517549361,4201151.294401646,2.59885,2.15802,-0.718574,-59.75,79.625,79.25,-0.328125,-8.40625,7.5625,-0.00585938,0.0234375,-0.0078125,4,0,41.43333547319211,-91.75177087133426,12529.079534622288,-25.85868913875216,-1.3980199033834138,-5.349428355583448,195.306,10022.661867135384,12264.339701119052,150,True,8.651028032989352,False,174.1950514044696,173.5338492458668,False,1.3640004294420085,True,False
1,1970-07-23 10:27:51.965784827,2025-09-12,2025-09-26 14:26:36.578,AH,C,3190084246,JASSM,3,124,76,2,2,1,225,9,2,0,1,26,0,0,0,0,-154202.04431326812,-4779854.737275924,4211076.210417271,-2.71064,-1.0108,0.752322,35.125,-55.875,-61.75,0.0,0.0,0.0,0.0,0.0,0.0,2,0,41.55629117894993,-91.84776811127628,10997.379196974209,155.9480589492796,-0.0001597927554512,0.0007676918536578,,10022.661867135384,12264.339701119052,150,1,2025-09-12,2025-09-26 14:26:36.528,AH,C,896797626,HAWK11,1,1,73,2,1,1,225,2,1,0,0,12,1,225,2,1,-146552.59997733062,-4789410.069307174,4201246.663542271,2.60039,2.16224,-0.724135,-60.875,78.625,80.0,-0.28125,-8.09375,7.15625,0.00976562,0.0117188,-0.0078125,4,0,41.43452795371431,-91.75266391926,12509.332944574682,-25.883855493898515,-1.0308062840385377,-5.101310103547954,195.685,10022.661867135384,12264.339701119052,150,True,8.462129096760117,False,173.99086796652733,173.44409329785597,False,0.7267287965987099,True,False
1,1970-07-23 10:27:51.976302237,2025-09-12,2025-09-26 14:26:37.630,AH,C,3191336946,JASSM,3,124,76,2,2,1,225,9,2,0,1,26,0,0,0,0,-154165.14587576812,-4779913.608369674,4211011.175261021,-2.71064,-1.0108,0.752418,35.125,-55.875,-61.75,0.0,0.0,0.0,0.0,0.0,0.0,2,0,41.55550908171438,-91.84730353550908,10997.377783854095,155.9506624744455,-0.0042964221356267,0.0007663291246981,,10022.661867135384,12264.339701119052,150,1,2025-09-12,2025-09-26 14:26:37.528,AH,C,898030392,HAWK11,1,1,73,2,1,1,225,2,1,0,0,12,1,225,2,1,-146615.38513358062,-4789328.924775924,4201330.634245396,2.98321,2.1608,-0.751459,-59.875,77.875,81.25,-0.1875,-8.57812,7.57812,0.443359,0.0253906,0.0234375,4,0,41.43556599420096,-91.75344400521244,12496.876272618823,-25.14622813062713,0.3523616316256949,16.77316438946411,196.333,10022.661867135384,12264.339701119052,150,False,8.339673761305997,False,174.645815526862,173.39581947485595,False,1.2500455751305783,True,False
1,1970-07-23 10:27:51.986460731,2025-09-12,2025-09-26 14:26:38.646,AH,C,3192649296,JASSM,3,124,76,2,2,1,225,9,2,0,1,26,0,0,0,0,-154126.48962576812,-4779975.282197799,4210943.040495396,-2.71064,-1.0108,0.752418,35.125,-55.875,-61.75,0.0,0.0,0.0,0.0,0.0,0.0,2,0,41.55468972549011,-91.84681684044172,10997.37377967106,155.95098531883357,-0.0033997691720107,0.0007650131129836,,10022.661867135384,12264.339701119052,150,1,2025-09-12,2025-09-26 14:26:38.528,AH,C,899263158,HAWK11,1,1,73,2,1,1,225,2,1,0,0,12,1,225,2,1,-146674.36950858062,-4789248.618135299,4201415.311979771,-2.94131,2.07864,-0.784919,-54.875,78.375,83.375,-0.234375,-9.15625,8.10938,0.142578,0.0371094,0.0664062,4,0,41.436604505600585,-91.75417838251217,12487.73751387199,-21.273252944861284,0.7113713384042838,34.08671962598887,196.553,10022.661867135384,12264.339701119052,150,False,8.215808554240121,False,177.07541160055763,173.3311305482067,False,3.7555075445341384,True,False
1,1970-07-23 10:27:51.997473870,2025-09-12,2025-09-26 14:26:39.747,AH,C,3193902254,JASSM,3,124,76,2,2,1,225,9,2,0,1,26,0,0,0,0,-154089.58337576812,-4780034.165010299,4210877.989714146,-2.71064,-1.0108,0.752418,35.125,-55.875,-61.75,0.0,0.0,0.0,0.0,0.0,0.0,2,0,41.553907450556906,-91.84635218953832,10997.3760512335,155.95129353556325,-0.002543699412521,0.000763753013201,,10022.661867135384,12264.339701119052,150,1,2025-09-12,2025-09-26 14:26:39.826,AH,C,900575456,HAWK11,1,1,73,2,1,1,225,2,1,0,0,12,1,225,2,1,-146730.92614920562,-4789160.831025924,4201508.620573521,-2.85023,1.99849,-0.791246,-47.5,80.25,85.625,0.140625,-8.875,7.75,-0.0351562,0.0234375,0.0410156,4,0,41.43774620721041,-91.75488650595736,12478.774599142196,-18.12073451924769,-0.1092951084811898,36.06507296421398,197.005,10022.661867135384,12264.339701119052,150,False,8.08963433404631,False,178.75345040655668,173.2376087943312,False,7.392849866222399,True,False
1,1970-07-23 10:27:52.008464053,2025-09-12,2025-09-26 14:26:40.846,AH,C,3195214346,JASSM,3,124,76,2,2,1,225,9,2,0,1,26,0,0,0,0,-154050.93493826812,-4780095.823213424,4210809.868620396,-2.71064,-1.0108,0.752418,35.125,-55.875,-61.75,0.0,0.0,0.0,0.0,0.0,0.0,2,0,41.55308827386661,-91.8458656180746,10997.374081929243,155.95161628774173,-0.0016472444011524,0.0007624438108995,,10022.661867135384,12264.339701119052,150,1,2025-09-12,2025-09-26 14:26:40.732,AH,C,901768454,HAWK11,1,1,73,2,1,1,225,2,1,0,0,12,1,225,2,1,-146775.33825858062,-4789078.711885299,4201595.397917271,-2.86509,1.96254,-0.787699,-41.25,82.375,87.0,-0.046875,-8.10938,7.1875,-0.0449219,0.0292969,0.0390625,4,0,41.438812322402136,-91.7554474194558,12468.65920198882,-16.811453545393036,-0.7642725899047892,33.74113294078043,197.347,10022.661867135384,12264.339701119052,150,False,7.968345021749468,False,175.94442346884964,173.11607898367066,False,10.512204753992451,True,False
1,1970-07-23 10:27:52.021022889,2025-09-12,2025-09-26 14:26:42.102,AH,C,3196526698,JASSM,3,124,76,2,2,1,225,9,2,0,1,26,0,0,0,0,-154012.27966483062,-4780157.495088424,4210741.731901646,-2.71064,-1.0108,0.752418,35.125,-55.875,-61.75,0.0,0.0,0.0,0.0,0.0,0.0,2,0,41.55226890952278,-91.8453789717708,10997.376235967206,155.95193908433555,-0.0007505933131989,0.0007611185484524,,10022.661867135384,12264.339701119052,150,1,2025-09-12,2025-09-26 14:26:42.028,AH,C,903359120,HAWK11,1,1,73,2,1,1,225,2,1,0,0,12,1,225,2,1,-146825.64294608062,-4788966.119111861,4201713.567839146,-2.89002,1.88421,-0.799204,-33.625,84.125,89.0,-0.265625,-8.70312,7.60938,-0.0546875,0.0195312,0.0351562,4,0,41.44027053042127,-91.7560899521935,12452.24749345393,-13.605619505100089,-1.0124463876567882,29.06352715203337,197.653,10022.661867135384,12264.339701119052,150,False,7.824995002710437,False,172.39228887431392,172.92817891290028,False,14.343970034809383,True,False
1,1970-07-23 10:27:52.030256988,2025-09-12,2025-09-26 14:26:43.025,AH,C,3197839048,JASSM,3,124,76,2,2,1,225,9,2,0,1,26,0,0,0,0,-153973.62341483062,-4780219.163057174,4210673.595182896,-2.71064,-1.0108,0.752418,35.125,-55.875,-61.75,0.0,0.0,0.0,0.0,0.0,0.0,2,0,41.551449566494746,-91.8448923275712,10997.373845951406,155.95226187430492,0.000146039555886,0.0007598098011987,,10022.661867135384,12264.339701119052,150,1,2025-09-12,2025-09-26 14:26:43.028,AH,C,904552118,HAWK11,1,1,73,2,1,1,225,2,1,0,0,12,1,225,2,1,-146856.44958670562,-4788880.668916549,4201803.749479771,-2.99174,1.84385,-0.806011,-28.5,84.875,90.625,-0.140625,-8.70312,7.64062,-0.142578,0.0195312,0.0292969,4,0,41.44138191941709,-91.75648950208524,12440.329509131789,-11.952158697925148,-1.0159780986993907,21.54277193884964,198.215,10022.661867135384,12264.339701119052,150,False,7.70519119246497,False,170.0144669744898,172.74292634820605,False,16.96819297346983,True,False
1,1970-07-23 10:27:52.041319060,2025-09-12,2025-09-26 14:26:44.131,AH,C,3199091746,JASSM,3,124,76,2,2,1,225,9,2,0,1,26,0,0,0,0,-153936.72497733062,-4780278.028291549,4210608.554167271,-2.71064,-1.0108,0.752418,35.125,-55.875,-61.75,0.0,0.0,0.0,0.0,0.0,0.0,2,0,41.550667452480106,-91.8444278233938,10997.374176143156,155.95256997397158,0.0010019247486573,0.0007585499894041,,10022.661867135384,12264.339701119052,150,1,2025-09-12,2025-09-26 14:26:44.028,AH,C,905824650,HAWK11,1,1,73,2,1,1,225,2,1,0,0,12,1,225,2,1,-146884.29724295562,-4788790.418916549,4201900.704557896,-2.98906,1.79744,-0.812722,-24.25,84.75,92.0,0.0,-8.14062,7.14062,0.0136719,0.00390625,0.0175781,4,0,41.442568112347175,-91.75685545621614,12431.106253660586,-10.077959489767505,-1.0193829958323322,19.73865155880095,198.728,10022.661867135384,12264.339701119052,150,False,7.584839731861232,False,168.09237838367105,172.52652952681655,False,19.17063261032774,True,False
1,1970-07-23 10:27:52.052302534,2025-09-12,2025-09-26 14:26:45.230,AH,C,3200404098,JASSM,3,124,76,2,2,1,225,9,2,0,1,26,0,0,0,0,-153898.06872733062,-4780339.696260299,4210540.413542271,-2.71064,-1.0108,0.752513,35.125,-55.875,-61.75,0.0,0.0,0.0,0.0,0.0,0.0,2,0,41.549848078891095,-91.84394120321438,10997.373290745025,155.95518666064632,-0.003090825254534,0.0007572066180904,,10022.661867135384,12264.339701119052,150,1,2025-09-12,2025-09-26 14:26:45.335,AH,C,907335782,HAWK11,1,1,73,2,1,1,225,2,1,0,0,12,1,225,2,1,-146911.43396170562,-4788680.258760299,4202018.729948521,-2.95368,1.75372,-0.810709,-19.25,85.875,92.875,0.0625,-7.96875,7.0625,0.00390625,0.0175781,0.0410156,4,0,41.444015091923376,-91.7572202272591,12418.65124701832,-8.40063598907211,-1.4329970857018142,19.912415993851265,199.18,10022.661867135384,12264.339701119052,150,False,7.448861893028102,False,165.77149340130447,172.2390444066012,False,21.76727487601478,True,False
1,1970-07-23 10:27:52.062442178,2025-09-12,2025-09-26 14:26:46.244,AH,C,3201716448,JASSM,3,124,76,2,2,1,225,9,2,0,1,26,0,0,0,0,-153859.41247733062,-4780401.362275924,4210472.274870396,-2.71064,-1.0108,0.752513,35.125,-55.875,-61.75,0.0,0.0,0.0,0.0,0.0,0.0,2,0,41.549028727931415,-91.84345459607648,10997.37698140723,155.95550941069817,-0.0021941908136446,0.0007559325857422,,10022.661867135384,12264.339701119052,150,1,2025-09-12,2025-09-26 14:26:46.326,AH,C,908528782,HAWK11,1,1,73,2,1,1,225,2,1,0,0,12,1,225,2,1,-146928.33239920562,-4788593.680635299,4202112.013151646,-2.91437,1.70531,-0.815215,-15.375,86.25,93.625,-0.125,-8.20312,7.14062,-0.00585938,0.0273438,0.0195312,4,0,41.44515665670797,-91.7574539785684,12409.675070700743,-6.476195144308536,-1.4454277318004216,20.10124452854858,199.364,10022.661867135384,12264.339701119052,150,False,7.331758711040634,False,164.00996984949654,171.97616784735925,False,23.80255815631252,True,False
1,1970-07-23 10:27:52.073464113,2025-09-12,2025-09-26 14:26:47.346,AH,C,3202969148,JASSM,3,124,76,2,2,1,225,9,2,0,1,26,0,0,0,0,-153822.51403983062,-4780460.223604049,4210407.229948521,-2.71054,-1.0108,0.752513,35.125,-55.875,-61.75,0.0,0.0,0.0,0.0,0.0,0.0,2,0,41.54824660477536,-91.8429901280612,10997.373661767697,155.95581747174282,-0.0013383029255938,0.0062461768262153,,10022.661867135384,12264.339701119052,150,1,2025-09-12,2025-09-26 14:26:47.326,AH,C,909721780,HAWK11,1,1,73,2,1,1,225,2,1,0,0,12,1,225,2,1,-146941.62927420562,-4788506.817354049,4202206.060026646,-2.9603,1.6682,-0.819529,-11.75,86.375,94.25,-0.015625,-8.15625,7.04688,-0.146484,0.00585938,0.03125,4,0,41.44630572850661,-91.757644789749,12401.39320319773,-5.00321918794014,-1.3579144857842986,15.883420585858394,199.62,10022.661867135384,12264.339701119052,150,False,7.217879023912327,False,162.37855072672022,171.69264324915451,False,25.731070212166426,True,False
1,1970-07-23 10:27:52.083493373,2025-09-12,2025-09-26 14:26:48.349,AH,C,3204221846,JASSM,3,124,76,2,2,1,225,9,2,0,1,26,0,0,0,0,-153785.61462576812,-4780519.084932174,4210342.185026646,-2.71054,-1.0107,0.752513,35.125,-55.875,-61.75,0.0,0.0,0.0,0.0,0.0,0.0,2,0,41.54746447982399,-91.84252565954912,10997.374929163929,155.95248344939932,-0.0021570334508787,0.0024917532803742,,10022.661867135384,12264.339701119052,150,1,2025-09-12,2025-09-26 14:26:48.232,AH,C,910556878,HAWK11,1,1,73,2,1,1,225,2,1,0,0,12,1,225,2,1,-146949.22302420562,-4788446.413057174,4202272.218229771,-3.03287,1.63609,-0.825473,-9.875,86.0,95.0,-0.1875,-8.39062,7.32812,-0.0976562,-0.00390625,0.0234375,4,0,41.4471102054815,-91.75775772474545,12397.161540189069,-3.7268261566806538,-1.1226899750969854,10.348826545678332,199.926,10022.661867135384,12264.339701119052,150,False,7.123525172726501,False,161.5373189901493,171.46362225130704,False,26.829613312985163,True,False
1,1970-07-23 10:27:52.094505654,2025-09-12,2025-09-26 14:26:49.450,AH,C,3205474546,JASSM,3,124,76,2,2,1,225,9,2,0,1,26,0,0,0,0,-153748.71618826812,-4780577.944307174,4210277.138151646,-2.71054,-1.0107,0.752513,35.125,-55.875,-61.75,0.0,0.0,0.0,0.0,0.0,0.0,2,0,41.54668235119959,-91.8420612146766,10997.371894622776,155.95279148560562,-0.0013011442658782,0.0024904698610276,,10022.661867135384,12264.339701119052,150,1,2025-09-12,2025-09-26 14:26:49.420,AH,C,912107778,HAWK11,1,1,73,2,1,1,225,2,1,0,0,12,1,225,2,1,-146959.32458670562,-4788334.504854049,4202396.331511021,-3.06959,1.62554,-0.83391,-7.125,85.375,95.875,-0.203125,-7.85938,6.8125,-0.0273438,0.00390625,-0.00390625,4,0,41.44861176878816,-91.7579195380804,12392.389003822982,-3.2870676555326463,-0.666600988975494,7.7923342550728,200.109,10022.661867135384,12264.339701119052,150,True,6.992878553311048,False,160.302445361633,171.06078219816564,False,28.50080882846042,True,False
1,1970-07-23 10:27:52.105261213,2025-09-12,2025-09-26 14:26:50.526,AH,C,3206786964,JASSM,3,124,76,2,2,1,225,9,2,0,1,26,0,0,0,0,-153710.05798514312,-4780639.610322799,4210208.991667271,-2.71054,-1.0107,0.752513,35.125,-55.875,-61.75,0.0,0.0,0.0,0.0,0.0,0.0,2,0,41.54586293959169,-91.8415746316282,10997.378209203918,155.95311419951994,-0.0004044545745767,0.0024891334527474,,10022.661867135384,12264.339701119052,150,1,2025-09-12,2025-09-26 14:26:50.326,AH,C,913340542,HAWK11,1,1,73,2,1,1,225,2,1,0,0,12,1,225,2,1,-146965.74841483062,-4788246.848604049,4202494.716276646,-3.09471,1.60272,-0.839471,-5.75,85.0,96.25,-0.09375,-7.78125,6.76562,-0.0839844,0.00585938,0.0234375,4,0,41.44979607683603,-91.7580284939907,12391.08612483448,-2.3949592735263834,-0.3958621264187861,5.374226078070566,200.182,10022.661867135384,12264.339701119052,150,True,6.877422890396891,False,159.68355018775577,170.7077608200071,False,29.488043209143257,True,False
1,1970-07-23 10:27:52.117262570,2025-09-12,2025-09-26 14:26:51.726,AH,C,3208158900,JASSM,3,124,76,2,2,1,225,9,2,0,1,26,0,0,0,0,-153669.64587576812,-4780704.069307174,4210137.751432896,-2.71054,-1.0107,0.752513,35.125,-55.875,-61.75,0.0,0.0,0.0,0.0,0.0,0.0,2,0,41.54500636459961,-91.8410659874938,10997.3742293581,155.95345153930216,0.0005329031505865,0.0024877413647218,,10022.661867135384,12264.339701119052,150,1,2025-09-12,2025-09-26 14:26:51.732,AH,C,915010740,HAWK11,1,1,73,2,1,1,225,2,1,0,0,12,1,225,2,1,-146972.90857108062,-4788127.928682174,4202629.511198521,3.07937,1.60033,-0.84599,-5.125,84.375,96.625,-0.140625,-7.73438,6.8125,0.00195312,0.00585938,-0.0175781,4,0,41.4514119697126,-91.75815772904946,12392.08251397794,-2.28657611750505,-0.0253066740020658,-0.9798638114907056,200.402,10022.661867135384,12264.339701119052,150,True,6.73773344461048,False,159.395180713376,170.22443762647552,False,30.28074232092193,False,False
1,1970-07-23 10:27:52.128305513,2025-09-12,2025-09-26 14:26:52.830,AH,C,3209471604,JASSM,3,124,76,2,2,1,225,9,2,0,1,26,0,0,0,0,-153630.97986014312,-4780765.745088424,4210069.587370396,-2.71054,-1.0107,0.752609,35.125,-55.875,-61.75,0.0,0.0,0.0,0.0,0.0,0.0,2,0,41.54418677339381,-91.84057933228551,10997.376118946888,155.95606996763033,-0.0035625765552278,0.0024863573186684,,10022.661867135384,12264.339701119052,150,1,2025-09-12,2025-09-26 14:26:52.732,AH,C,916124206,HAWK11,1,1,73,2,1,1,225,2,1,0,0,12,1,225,2,1,-146977.30896170562,-4788048.616182174,4202720.056120396,3.0833,1.61087,-0.851455,-4.875,84.0,96.75,-0.21875,-7.60938,6.60938,0.00390625,0.0136719,0.0117188,4,0,41.4524940905312,-91.75823944142644,12394.12834741282,-2.6701682798924526,0.3080964214704481,-0.3021198722680961,200.561,10022.661867135384,12264.339701119052,150,True,6.6286872353395365,False,159.27827902218658,169.8627865125049,False,30.769518824468623,False,False
1,1970-07-23 10:27:52.138442318,2025-09-12,2025-09-26 14:26:53.844,AH,C,3210783602,JASSM,3,124,76,2,2,1,225,9,2,0,1,26,0,0,0,0,-153592.33337576812,-4780827.387666549,4210001.456511021,-2.71054,-1.0107,0.752609,35.125,-55.875,-61.75,0.0,0.0,0.0,0.0,0.0,0.0,2,0,41.543367597959815,-91.84009293596944,10997.375423660174,155.95639254189493,-0.0026661536874232,0.0024850536458216,,10022.661867135384,12264.339701119052,150,1,2025-09-12,2025-09-26 14:26:53.826,AH,C,917436506,HAWK11,1,1,73,2,1,1,225,2,1,0,0,12,1,225,2,1,-146982.38122733062,-4787956.788057174,4202825.325651646,3.09998,1.60186,-0.856728,-4.625,83.75,96.5,-0.15625,-7.42188,6.40625,-0.0136719,-0.00390625,-0.00585938,4,0,41.4537499189287,-91.75833378235502,12397.452701976528,-2.316445139188588,0.5942740874895039,0.267158530188976,200.745,10022.661867135384,12264.339701119052,150,True,6.51101109335256,False,159.17189384361703,169.4414234902693,False,31.29909526767476,False,False
1,1970-07-23 10:27:52.150442212,2025-09-12,2025-09-26 14:26:55.044,AH,C,3212155606,JASSM,3,124,76,2,2,1,225,9,2,0,1,26,0,0,0,0,-153551.92028983062,-4780891.846650924,4209930.210417271,-2.71054,-1.0107,0.752609,35.125,-55.875,-61.75,0.0,0.0,0.0,0.0,0.0,0.0,2,0,41.54251097676378,-91.8395843192533,10997.374915270477,155.95672984696768,-0.0017287560642574,0.0024836910422447,,10022.661867135384,12264.339701119052,150,1,2025-09-12,2025-09-26 14:26:55.028,AH,C,918947636,HAWK11,1,1,73,2,1,1,225,2,1,0,0,12,1,225,2,1,-146988.11364920562,-4787850.778291549,4202947.054167271,3.06902,1.60416,-0.860467,-4.5,83.375,96.375,-0.078125,-7.48438,6.39062,-0.0234375,0.00195312,-0.00195312,4,0,41.45520107394249,-91.7584412246885,12401.731339519314,-2.3924869423231105,0.8137810002448603,-1.408255348789644,200.708,10022.661867135384,12264.339701119052,150,True,6.381325657529041,False,159.11633727934455,168.94465397182793,False,31.85795079584109,False,False
1,1970-07-23 10:27:52.161786035,2025-09-12,2025-09-26 14:26:56.178,AH,C,3213467956,JASSM,3,124,76,2,2,1,225,9,2,0,1,26,0,0,0,0,-153513.26403983062,-4780953.500947799,4209862.061979771,-2.71054,-1.0107,0.752609,35.125,-55.875,-61.75,0.0,0.0,0.0,0.0,0.0,0.0,2,0,41.54169161045487,-91.83909782663557,10997.374433622692,155.95705247440645,-0.0008321256563668,0.0024823943686207,,10022.661867135384,12264.339701119052,150,1,2025-09-12,2025-09-26 14:26:56.232,AH,C,920299702,HAWK11,1,1,73,2,1,1,225,2,1,0,0,12,1,225,2,1,-146993.33044608062,-4787755.864229049,4203056.286589146,3.0509,1.60474,-0.865549,-4.75,83.0,96.125,0.109375,-7.4375,6.53125,-0.0195312,0.00390625,0.00195312,4,0,41.45650197609536,-91.75853843411166,12406.111731499885,-2.3999260281935872,1.1069151651771527,-2.421517929773617,200.561,10022.661867135384,12264.339701119052,150,True,6.262157454530439,False,159.23248504183022,168.47573854790326,False,32.21563306723746,False,False
