Subject_cm,Timestamp,SampleDate_cm,SampleTime_cm,Configuration_cm,Scenario_cm,DisTime_cm,MarkingTxt_cm,Application_cm,EntId_cm,Site_cm,ExerciseId_cm,ForceId_cm,Category_cm,Country_cm,Domain_cm,Kind_cm,Extra_cm,Specific_cm,Subcategory_cm,AltCategory_cm,AltCountry_cm,AltDomain_cm,AltKind_cm,ECEF_X_cm,ECEF_Y_cm,ECEF_Z_cm,OriPhi_cm,OriPsi_cm,OriTheta_cm,LinVelX_cm,LinVelY_cm,LinVelZ_cm,LinAccX_cm,LinAccY_cm,LinAccZ_cm,AngVelX_cm,AngVelY_cm,AngVelZ_cm,DrAlg_cm,Appearance_cm,Latitude_cm,Longitude_cm,Altitude_cm,Heading_cm,Pitch_cm,Roll_cm,CalibratedAirspeed_cm,CM_Altitude_Lead_cm,CM_Altitude_Wing_cm,CM_Airspeed_cm,Subject_ac,SampleDate_ac,SampleTime_ac,Configuration_ac,Scenario_ac,DisTime_ac,MarkingTxt_ac,Application_ac,EntId_ac,Site_ac,ExerciseId_ac,ForceId_ac,Category_ac,Country_ac,Domain_ac,Kind_ac,Extra_ac,Specific_ac,Subcategory_ac,AltCategory_ac,AltCountry_ac,AltDomain_ac,AltKind_ac,ECEF_X_ac,ECEF_Y_ac,ECEF_Z_ac,OriPhi_ac,OriPsi_ac,OriTheta_ac,LinVelX_ac,LinVelY_ac,LinVelZ_ac,LinAccX_ac,LinAccY_ac,LinAccZ_ac,AngVelX_ac,AngVelY_ac,AngVelZ_ac,DrAlg_ac,Appearance_ac,Latitude_ac,Longitude_ac,Altitude_ac,Heading_ac,Pitch_ac,Roll_ac,CalibratedAirspeed_ac,CM_Altitude_Lead_ac,CM_Altitude_Wing_ac,CM_Airspeed_ac,Bank_Angle_Condition,distance_nm,Distance_Condition,angle_between_vel,angle_between_pos,Cone_Condition,angle_between_pos_nose,Nose_Cone_Condition,Intercept_Criteria
1,1970-07-23 09:33:35.683110654,2025-09-08,2025-09-26 19:59:28.311,HH,A,2180468468,JASSM,3,113,76,2,2,1,225,9,2,0,1,26,0,0,0,0,-187663.7659929556,-4786640.110322799,4202523.300261021,-2.30145,-0.153206,0.128279,96.25,-14.75,-12.375,0.0,0.0,0.0,0.0,0.0,0.0,2,0,41.45108661714249,-92.24517354150572,11999.998908344389,99.8216378490633,-0.0063259712011207,0.0071759802540139,,11336.471106829373,12851.681693794117,150,1,2025-09-08,2025-09-26 19:59:28.384,HH,A,3921456384,AMBUSH51,1,1,48,2,1,1,225,2,1,0,0,9,1,225,2,1,-141256.902735179,-4795230.294957813,4194285.738097894,2.37197,2.75231,-0.39348,-94.4715,36.1726,37.8364,-0.123782,-7.11136,6.7579,-0.015102,0.000670992,-0.00456378,4,0,41.35386525413398,-91.68731927770123,11335.396288152486,-59.82196646079375,0.5273729736924309,0.5396206723526029,179.139,11336.471106829373,12851.681693794117,150,True,25.75665905562527,False,162.21400697982702,176.8151368626761,False,14.631855544398405,True,False
1,1970-07-23 09:33:35.692394248,2025-09-08,2025-09-26 19:59:29.239,HH,A,2181602312,JASSM,3,113,76,2,2,1,225,9,2,0,1,26,0,0,0,0,-187572.2933367056,-4786654.247041549,4202511.364714146,-2.30145,-0.153206,0.128279,96.25,-14.75,-12.375,0.0,0.0,0.0,0.0,0.0,0.0,2,0,41.45094330863456,-92.24407367838234,12000.003204381565,99.82236593594855,-0.0054892362032271,0.0071754000990801,,11336.471106829373,12851.681693794117,150,1,2025-09-08,2025-09-26 19:59:29.185,HH,A,3922410782,AMBUSH51,1,1,48,2,1,1,225,2,1,0,0,9,1,225,2,1,-141332.54260902945,-4795201.098670853,4194315.91795836,2.37089,2.7498,-0.394661,-94.6212,36.3245,38.0497,-0.068987,-7.03053,6.68552,0.00745997,0.000406756,0.00345691,4,0,41.35422939947733,-91.6882325493,11334.431728086522,-59.68029861825355,0.4827912170385455,0.4235548220202446,179.383,11336.471106829373,12851.681693794117,150,True,25.6616380315818,False,162.13123631459752,176.83510647155487,False,14.73460176573133,True,False
1,1970-07-23 09:33:35.702392078,2025-09-08,2025-09-26 19:59:30.239,HH,A,2182794908,JASSM,3,113,76,2,2,1,225,9,2,0,1,26,0,0,0,0,-187476.0823992056,-4786669.114229049,4202498.808073521,-2.30145,-0.153206,0.128279,96.25,-14.75,-12.375,0.0,0.0,0.0,0.0,0.0,0.0,2,0,41.45079255708448,-92.24291684845056,12000.001940926952,99.82313173146198,-0.0046091575400633,0.0071747815471911,,11336.471106829373,12851.681693794117,150,1,2025-09-08,2025-09-26 19:59:30.351,HH,A,3923802614,AMBUSH51,1,1,48,2,1,1,225,2,1,0,0,9,1,225,2,1,-141442.36947633064,-4795158.522720162,4194359.765830223,2.36802,2.74656,-0.39272,-94.8878,36.6708,38.1571,-0.107894,-7.05167,6.69838,0.00521501,0.00308448,0.000102989,4,0,41.35475939377258,-91.68955867573617,11332.645443099676,-59.6372674228951,0.2847015368678776,0.1884735362891483,179.762,11336.471106829373,12851.681693794117,150,True,25.543692723349277,False,162.06001898621494,176.86686255989287,False,14.840932022016062,True,False
1,1970-07-23 09:33:35.711493017,2025-09-08,2025-09-26 19:59:31.149,HH,A,2183928304,JASSM,3,113,76,2,2,1,225,9,2,0,1,26,0,0,0,0,-187384.64685233065,-4786683.241182174,4202486.874479771,-2.30145,-0.153206,0.128279,96.25,-14.75,-12.375,0.0,0.0,0.0,0.0,0.0,0.0,2,0,41.45064928964929,-92.24181744334436,11999.999226946553,99.82385951090268,-0.0037727641152735,0.0071742057434979,,11336.471106829373,12851.681693794117,150,1,2025-09-08,2025-09-26 19:59:31.151,HH,A,3924757014,AMBUSH51,1,1,48,2,1,1,225,2,1,0,0,9,1,225,2,1,-141518.36163738515,-4795128.910917988,4194390.16025785,2.36201,2.74692,-0.394332,-95.0897,36.8244,38.3019,-0.200862,-7.05902,6.81581,-0.00971118,0.00893719,0.00367329,4,0,41.35512737856863,-91.69047632466236,11331.15819136683,-59.58654791869693,0.3645670809870544,-0.1475932291313882,180.178,11336.471106829373,12851.681693794117,150,True,25.448456372030634,False,162.01536990409838,176.88755005016145,False,14.906987203459913,True,False
1,1970-07-23 09:33:35.721511870,2025-09-08,2025-09-26 19:59:32.151,HH,A,2185061794,JASSM,3,113,76,2,2,1,225,9,2,0,1,26,0,0,0,0,-187293.2034929556,-4786697.368135299,4202474.940886021,-2.30145,-0.153206,0.128279,96.25,-14.75,-12.375,0.0,0.0,0.0,0.0,0.0,0.0,2,0,41.45050601352354,-92.24071794970476,12000.000229624722,99.82458734688036,-0.0029363020221626,0.0071736436340484,,11336.471106829373,12851.681693794117,150,1,2025-09-08,2025-09-26 19:59:31.984,HH,A,3925751180,AMBUSH51,1,1,48,2,1,1,225,2,1,0,0,9,1,225,2,1,-141597.52195589113,-4795097.92484637,4194421.947894684,2.3622,2.74498,-0.396386,-95.2574,37.1205,38.3147,-0.0393937,-7.06598,6.75919,0.00606181,-0.000369306,-0.00286186,4,0,41.3555123790832,-91.69143229129872,11329.542338581592,-59.43145103431791,0.3773200792918189,-0.178254804351097,180.837,11336.471106829373,12851.681693794117,150,True,25.351310524167015,False,161.96713803296177,176.90971300017878,False,14.98114774420751,True,False
1,1970-07-23 09:33:35.731145070,2025-09-08,2025-09-26 19:59:33.114,HH,A,2186195090,JASSM,3,113,76,2,2,1,225,9,2,0,1,26,0,0,0,0,-187201.77575858065,-4786711.493135299,4202463.005339146,-2.30145,-0.153206,0.128279,96.25,-14.75,-12.375,0.0,0.0,0.0,0.0,0.0,0.0,2,0,41.45036272170093,-92.23961864855866,11999.998161303272,99.82531505336496,-0.00209997761337,0.0071730523736292,,11336.471106829373,12851.681693794117,150,1,2025-09-08,2025-09-26 19:59:33.218,HH,A,3927222544,AMBUSH51,1,1,48,2,1,1,225,2,1,0,0,9,1,225,2,1,-141715.69938567773,-4795051.695380316,4194469.346765071,2.35798,2.74461,-0.397698,-95.5464,37.2346,38.5056,-0.0559307,-7.21934,6.71276,-0.00815697,-0.00334872,-0.0029971,4,0,41.35608657134079,-91.69285945261508,11327.087465111666,-59.36565769618093,0.4184008448468084,-0.428044860516051,181.082,11336.471106829373,12851.681693794117,150,True,25.230979787882546,False,161.94049646582613,176.94590216530554,False,15.044004907249986,True,False
1,1970-07-23 09:33:35.741558695,2025-09-08,2025-09-26 19:59:34.155,HH,A,2187328484,JASSM,3,113,76,2,2,1,225,9,2,0,1,26,0,0,0,0,-187110.3402117056,-4786725.618135299,4202451.069792271,-2.30145,-0.153206,0.128279,96.25,-14.75,-12.375,0.0,0.0,0.0,0.0,0.0,0.0,2,0,41.45021942118797,-92.23851925887983,11999.999809640394,99.82604281638584,-0.0012635845362402,0.0071724748074529,,11336.471106829373,12851.681693794117,150,1,2025-09-08,2025-09-26 19:59:34.284,HH,A,3928495076,AMBUSH51,1,1,48,2,1,1,225,2,1,0,0,9,1,225,2,1,-141816.78259523213,-4795012.065220622,4194510.110354202,2.36143,2.74538,-0.401371,-95.7182,37.3157,38.6923,-0.0624881,-7.40418,6.89447,0.0111281,0.00368369,-0.00647585,4,0,41.35657970704131,-91.6940802279433,11325.258097003642,-59.2481450311257,0.5981574400611227,-0.2119084348625323,181.778,11336.471106829373,12851.681693794117,150,True,25.1207893760765,False,161.89518399733797,176.97655737941568,False,15.11962465955365,True,False
1,1970-07-23 09:33:35.749472582,2025-09-08,2025-09-26 19:59:34.947,HH,A,2188461876,JASSM,3,113,76,2,2,1,225,9,2,0,1,26,0,0,0,0,-187018.90466483065,-4786739.741182174,4202439.134245396,-2.30145,-0.15311,0.128279,96.25,-14.75,-12.375,0.0,0.0,0.0,0.0,0.0,0.0,2,0,41.45007612179093,-92.23741987495212,12000.001126511614,99.82313429886956,-0.0044841265037839,0.0064693349800881,,11336.471106829373,12851.681693794117,150,1,2025-09-08,2025-09-26 19:59:35.091,HH,A,3929449476,AMBUSH51,1,1,48,2,1,1,225,2,1,0,0,9,1,225,2,1,-141893.43057106546,-4794982.110506067,4194541.057239004,2.35747,2.74774,-0.398217,-95.9022,37.301,38.9036,-0.154946,-7.19815,6.80224,-0.0126698,-0.0103499,0.00306368,4,0,41.35695331048649,-91.695005879237,11324.191337078362,-59.46418508527862,0.5573277390924886,-0.3883668621431111,181.705,11336.471106829373,12851.681693794117,150,True,25.02514469207264,False,161.8720997597057,176.99855854177443,False,15.162901109824633,True,False
1,1970-07-23 09:33:35.759402482,2025-09-08,2025-09-26 19:59:35.940,HH,A,2189595272,JASSM,3,113,76,2,2,1,225,9,2,0,1,26,0,0,0,0,-186927.4691179556,-4786753.864229049,4202427.196745396,-2.30145,-0.15311,0.128279,96.25,-14.75,-12.375,0.0,0.0,0.0,0.0,0.0,0.0,2,0,41.449932798710655,-92.23632049586342,12000.002669341617,99.823862050786,-0.0036477338331088,0.0064687026100001,,11336.471106829373,12851.681693794117,150,1,2025-09-08,2025-09-26 19:59:35.851,HH,A,3930364108,AMBUSH51,1,1,48,2,1,1,225,2,1,0,0,9,1,225,2,1,-141966.9677087094,-4794953.428457434,4194570.678087126,2.34704,2.74417,-0.403669,-96.083,37.1874,39.0622,-0.0296119,-7.15419,6.80809,-0.0023646,0.00669015,0.00803214,4,0,41.35731093252651,-91.6958939519238,11323.159920399814,-59.11151349050434,0.6489363859601172,-1.0618044046479085,182.108,11336.471106829373,12851.681693794117,150,True,24.931364645753597,False,161.8947616986822,177.0194794051996,False,15.158839488238204,True,False
1,1970-07-23 09:33:35.771136766,2025-09-08,2025-09-26 19:59:37.113,HH,A,2190669014,JASSM,3,113,76,2,2,1,225,9,2,0,1,26,0,0,0,0,-186840.84607108065,-4786767.243135299,4202415.886198521,-2.30145,-0.15311,0.128375,96.25,-14.75,-12.5,0.0,0.0,0.0,0.0,0.0,0.0,2,0,41.44979700511361,-92.23527898490858,12000.00333906279,99.8286420589406,-0.0065217367227753,0.0064677644641255,,11336.471106829373,12851.681693794117,150,1,2025-09-08,2025-09-26 19:59:36.984,HH,A,3931716174,AMBUSH51,1,1,48,2,1,1,225,2,1,0,0,9,1,225,2,1,-142076.4416037953,-4794910.733470722,4194615.062042358,2.3503,2.7443,-0.402571,-96.2963,37.2869,39.1348,-0.187756,-6.89104,6.65245,-0.00381477,0.00261843,-0.0154266,4,0,41.35784522959666,-91.6972160324472,11322.26398480329,-59.16164069425904,0.6102131538487936,-0.8727852976920545,182.646,11336.471106829373,12851.681693794117,150,True,24.818835666998364,False,161.949907790586,177.1151750260016,False,15.194521731636076,True,False
1,1970-07-23 09:33:35.778453503,2025-09-08,2025-09-26 19:59:37.845,HH,A,2191862060,JASSM,3,113,76,2,2,1,225,9,2,0,1,26,0,0,0,0,-186744.59997733065,-4786782.106416549,4202403.317839146,-2.30145,-0.15311,0.128375,96.25,-14.75,-12.5,0.0,0.0,0.0,0.0,0.0,0.0,2,0,41.44964611747204,-92.23412177736996,12000.001263453923,99.8294080870769,-0.0056413407923879,0.0064671591543844,,11336.471106829373,12851.681693794117,150,1,2025-09-08,2025-09-26 19:59:37.717,HH,A,3932591038,AMBUSH51,1,1,48,2,1,1,225,2,1,0,0,9,1,225,2,1,-142147.1113624667,-4794883.17242398,4194643.3895144025,2.34019,2.74535,-0.399531,-96.4922,37.5511,38.864,-0.109729,-6.87664,6.55555,-0.0164024,-0.0036504,0.00633229,4,0,41.35818794050403,-91.69806949952236,11320.987898771413,-59.323706736860935,0.5254101308756509,-1.430112614432946,182.719,11336.471106829373,12851.681693794117,150,True,24.72414650778702,False,162.01795053845288,177.13502982919564,False,15.151881226890174,True,False
1,1970-07-23 09:33:35.788492812,2025-09-08,2025-09-26 19:59:38.849,HH,A,2193055108,JASSM,3,113,76,2,2,1,225,9,2,0,1,26,0,0,0,0,-186648.34997733065,-4786796.969697799,4202390.749479771,-2.30145,-0.15311,0.128375,96.25,-14.75,-12.5,0.0,0.0,0.0,0.0,0.0,0.0,2,0,41.44949521909281,-92.23296452850909,12000.00376383512,99.83017414027272,-0.0047609105151244,0.0064665606675806,,11336.471106829373,12851.681693794117,150,1,2025-09-08,2025-09-26 19:59:38.884,HH,A,3933982870,AMBUSH51,1,1,48,2,1,1,225,2,1,0,0,9,1,225,2,1,-142259.10606518335,-4794839.236464669,4194688.241281744,2.33543,2.74244,-0.401521,-96.8056,37.777,38.6827,-0.145069,-6.96101,6.59215,-0.00555207,-0.000799989,-0.00318019,4,0,41.358732304065015,-91.69942215120152,11318.248929441515,-59.13510998503202,0.5004273882509218,-1.7659064053429805,183.453,11336.471106829373,12851.681693794117,150,True,24.60488654274997,False,162.09384878393274,177.1703832736821,False,15.11626653813686,True,False
1,1970-07-23 09:33:35.800310085,2025-09-08,2025-09-26 19:59:40.031,HH,A,2194307806,JASSM,3,113,76,2,2,1,225,9,2,0,1,26,0,0,0,0,-186547.2894304556,-4786812.573213424,4202377.550261021,-2.30145,-0.15311,0.128375,96.25,-14.75,-12.5,0.0,0.0,0.0,0.0,0.0,0.0,2,0,41.449336763779776,-92.231749447685,11999.999403210357,99.83097847348346,-0.0038364770349832,0.006465929557027,,11336.471106829373,12851.681693794117,150,1,2025-09-08,2025-09-26 19:59:40.052,HH,A,3935374702,AMBUSH51,1,1,48,2,1,1,225,2,1,0,0,9,1,225,2,1,-142372.87247614982,-4794794.554918723,4194733.469585982,2.33241,2.74464,-0.397246,-97.1853,38.0952,38.3971,-0.238754,-7.13847,6.75439,-0.00925136,-0.00684412,-0.0017529,4,0,41.35928331415207,-91.7007962426081,11314.62899281877,-59.39026444531272,0.4078754993564598,-1.892421280264008,183.502,11336.471106829373,12851.681693794117,150,True,24.48197359143302,False,162.19299211055144,177.2061125266359,False,15.060365969240483,True,False
1,1970-07-23 09:33:35.809394992,2025-09-08,2025-09-26 19:59:40.939,HH,A,2195620156,JASSM,3,113,76,2,2,1,225,9,2,0,1,26,0,0,0,0,-186441.41638358065,-4786828.918916549,4202363.722136021,-2.30145,-0.15311,0.128375,96.25,-14.75,-12.5,0.0,0.0,0.0,0.0,0.0,0.0,2,0,41.44917075170064,-92.2304765114896,11999.997815134204,99.83182110184262,-0.0028680227782222,0.0064652708912983,,11336.471106829373,12851.681693794117,150,1,2025-09-08,2025-09-26 19:59:40.818,HH,A,3936289336,AMBUSH51,1,1,48,2,1,1,225,2,1,0,0,9,1,225,2,1,-142447.31827618167,-4794765.017933301,4194763.10319916,2.32422,2.74285,-0.396521,-97.4164,38.1025,38.499,-0.106721,-7.04065,6.5861,-0.00908492,0.000791666,0.00512971,4,0,41.35964589906148,-91.70169553121644,11311.611131228958,-59.35246229556759,0.3127264569522403,-2.4009533534044123,184.308,11336.471106829373,12851.681693794117,150,True,24.37975359048036,False,162.21399170232917,177.22748914822301,False,15.060377098419046,True,False
1,1970-07-23 09:33:35.819451471,2025-09-08,2025-09-26 19:59:41.945,HH,A,2196813462,JASSM,3,113,76,2,2,1,225,9,2,0,1,26,0,0,0,0,-186345.14685233065,-4786843.782197799,4202351.147917271,-2.30145,-0.15311,0.128375,96.25,-14.75,-12.5,0.0,0.0,0.0,0.0,0.0,0.0,2,0,41.44901978164479,-92.229319046102,12000.001316351092,99.83258729114333,-0.0019874140614598,0.0064646676607419,,11336.471106829373,12851.681693794117,150,1,2025-09-08,2025-09-26 19:59:42.050,HH,A,3937760700,AMBUSH51,1,1,48,2,1,1,225,2,1,0,0,9,1,225,2,1,-142567.1405631355,-4794718.046603736,4194810.058796887,2.32145,2.74417,-0.395812,-97.9169,37.9852,38.4264,-0.13009,-7.16881,6.74664,-0.00331959,0.00728312,0.00156357,4,0,41.36022108939731,-91.70314277709068,11306.55742830888,-59.43187793924437,0.3340461675834497,-2.5304846767050155,185.115,11336.471106829373,12851.681693794117,150,True,24.25595148677798,False,162.39740423283786,177.26557665203467,False,14.91541933130678,True,False
1,1970-07-23 09:33:35.833135132,2025-09-08,2025-09-26 19:59:43.313,HH,A,2198066150,JASSM,3,113,76,2,2,1,225,9,2,0,1,26,0,0,0,0,-186244.08825858065,-4786859.381807174,4202337.946745396,-2.30145,-0.153015,0.128375,96.25,-14.75,-12.5,0.0,0.0,0.0,0.0,0.0,0.0,2,0,41.44886129744015,-92.2281040081801,11999.99967675887,99.82975540882737,-0.0051199278876087,0.0057609871293282,,11336.471106829373,12851.681693794117,150,1,2025-09-08,2025-09-26 19:59:43.184,HH,A,3939112766,AMBUSH51,1,1,48,2,1,1,225,2,1,0,0,9,1,225,2,1,-142679.1823816366,-4794674.34269567,4194853.593342557,2.31964,2.7442,-0.392791,-98.4438,37.9486,38.3255,-0.160172,-7.23144,6.87948,-0.00317187,0.00228345,0.00881652,4,0,41.36075510898728,-91.70449599481285,11301.56911401024,-59.55494430845732,0.2125337124268924,-2.634514075256112,185.359,11336.471106829373,12851.681693794117,150,True,24.13420510363979,False,162.5719340317572,177.3003188849715,False,14.777263500237982,True,False
1,1970-07-23 09:33:35.840512464,2025-09-08,2025-09-26 19:59:44.051,HH,A,2199318600,JASSM,3,113,76,2,2,1,225,9,2,0,1,26,0,0,0,0,-186143.0472429556,-4786874.979463424,4202324.745573521,-2.30145,-0.153015,0.128375,96.25,-14.75,-12.5,0.0,0.0,0.0,0.0,0.0,0.0,2,0,41.4487028079552,-92.2268891871611,12000.000375085823,99.830559559993,-0.0041956716865539,0.0057602838635115,,11336.471106829373,12851.681693794117,150,1,2025-09-08,2025-09-26 19:59:43.984,HH,A,3940067164,AMBUSH51,1,1,48,2,1,1,225,2,1,0,0,9,1,225,2,1,-142758.19714884943,-4794643.722996844,4194884.133727212,2.31552,2.74325,-0.392228,-98.834,37.8795,38.2764,-0.131171,-7.11871,6.72322,-0.00518172,-0.0106079,-0.0169537,4,0,41.3611294171659,-91.7054502607834,11298.202362851887,-59.54244882948898,0.1553304128407658,-2.891193676178086,185.689,11336.471106829373,12851.681693794117,150,True,24.032079743504884,False,162.70400757960175,177.32294291615946,False,14.668242637819032,True,False
1,1970-07-23 09:33:35.851929934,2025-09-08,2025-09-26 19:59:45.192,HH,A,2200512068,JASSM,3,113,76,2,2,1,225,9,2,0,1,26,0,0,0,0,-186046.76403983065,-4786889.838838424,4202312.167448521,-2.30145,-0.153015,0.128375,96.25,-14.75,-12.5,0.0,0.0,0.0,0.0,0.0,0.0,2,0,41.44855180186076,-92.22573157682874,11999.999838178954,99.83132583817005,-0.003314943616136,0.0057596453533428,,11336.471106829373,12851.681693794117,150,1,2025-09-08,2025-09-26 19:59:45.183,HH,A,3941498762,AMBUSH51,1,1,48,2,1,1,225,2,1,0,0,9,1,225,2,1,-142876.4570204146,-4794598.305909987,4194929.483202885,2.3117,2.74799,-0.389256,-99.3739,37.7891,38.0505,-0.125343,-7.27279,6.88101,-0.00574556,-0.00733306,-0.0127946,4,0,41.3616847506492,-91.7068783670146,11293.402488302128,-59.841567649956,0.2107443120559517,-3.007588339829006,186.483,11336.471106829373,12851.681693794117,150,True,23.909398266790785,False,162.93731162406277,177.3597244389787,False,14.474199238867106,True,False
1,1970-07-23 09:33:35.863162845,2025-09-08,2025-09-26 19:59:46.316,HH,A,2201764346,JASSM,3,113,76,2,2,1,225,9,2,0,1,26,0,0,0,0,-185945.73669608065,-4786905.430635299,4202298.966276646,-2.30145,-0.153015,0.128471,96.25,-14.75,-12.5,0.0,0.0,0.0,0.0,0.0,0.0,2,0,41.44839331903032,-92.22451693347448,11999.998097861504,99.83622047706731,-0.0060571392663452,0.0057586504095974,,11336.471106829373,12851.681693794117,150,1,2025-09-08,2025-09-26 19:59:46.318,HH,A,3942850828,AMBUSH51,1,1,48,2,1,1,225,2,1,0,0,9,1,225,2,1,-142990.11754723758,-4794555.200503385,4194972.679974347,2.30403,2.75284,-0.386741,-99.9216,37.4643,37.9748,-0.0799112,-7.39683,6.95448,1.35239e-05,-0.00253937,-0.000866568,4,0,41.362212600866826,-91.70825076087752,11289.296960983984,-60.12703038287944,0.2900567206731559,-3.3426406797009047,186.923,11336.471106829373,12851.681693794117,150,True,23.786932552147785,False,163.18878433781586,177.39413496249952,False,14.254935999124038,True,False
1,1970-07-23 09:33:35.871494241,2025-09-08,2025-09-26 19:59:47.149,HH,A,2203017084,JASSM,3,113,76,2,2,1,225,9,2,0,1,26,0,0,0,0,-185844.67419608065,-4786921.028291549,4202285.761198521,-2.30145,-0.153015,0.128471,96.25,-14.75,-12.5,0.0,0.0,0.0,0.0,0.0,0.0,2,0,41.44823477027121,-92.2233018731536,12000.004372870604,99.8370247792036,-0.0051326896609349,0.0057580247978107,,11336.471106829373,12851.681693794117,150,1,2025-09-08,2025-09-26 19:59:47.117,HH,A,3943805228,AMBUSH51,1,1,48,2,1,1,225,2,1,0,0,9,1,225,2,1,-143070.2226478503,-4794525.232222659,4195002.931906126,2.29609,2.75632,-0.385451,-100.318,37.1788,37.9112,-0.260207,-7.38073,6.98693,-0.0306586,0.0136081,-0.00835463,4,0,41.36258086440164,-91.70921785689237,11287.00461885807,-60.31093253566033,0.368155931897061,-3.723539292144423,186.923,11336.471106829373,12851.681693794117,150,True,23.68432686318784,False,163.3869942679218,177.41636971916222,False,14.076839069994973,True,False
1,1970-07-23 09:33:35.882371850,2025-09-08,2025-09-26 19:59:48.237,HH,A,2204329396,JASSM,3,113,76,2,2,1,225,9,2,0,1,26,0,0,0,0,-185738.80310233065,-4786937.364229049,4202271.925261021,-2.30145,-0.153015,0.128471,96.25,-14.75,-12.5,0.0,0.0,0.0,0.0,0.0,0.0,2,0,41.44806866967094,-92.22202900791888,12000.0017594321,99.8378673422532,-0.0041642566539926,0.0057573747924935,,11336.471106829373,12851.681693794117,150,1,2025-09-08,2025-09-26 19:59:48.284,HH,A,3945197060,AMBUSH51,1,1,48,2,1,1,225,2,1,0,0,9,1,225,2,1,-143186.80469355773,-4794482.284408814,4195046.7466206085,2.27062,2.7649,-0.381605,-100.855,36.6831,37.6925,-0.142062,-7.28922,6.82901,-0.0182541,0.00455962,-0.0166416,4,0,41.3631114052908,-91.71062511525444,11284.856029223896,-60.79077548498287,0.5344394649357573,-5.002710643879049,187.559,11336.471106829373,12851.681693794117,150,True,23.557657074538984,False,163.73000582661865,177.45076903090842,False,13.765427964067948,True,False
1,1970-07-23 09:33:35.893392027,2025-09-08,2025-09-26 19:59:49.339,HH,A,2205582094,JASSM,3,113,76,2,2,1,225,9,2,0,1,26,0,0,0,0,-185637.7425554556,-4786952.957979049,4202258.716276646,-2.30145,-0.153015,0.128471,96.25,-14.75,-12.5,0.0,0.0,0.0,0.0,0.0,0.0,2,0,41.44791009107804,-92.22081398486722,12000.00131416334,99.8386716145385,-0.0032398249674531,0.0057567423625359,,11336.471106829373,12851.681693794117,150,1,2025-09-08,2025-09-26 19:59:49.417,HH,A,3946549124,AMBUSH51,1,1,48,2,1,1,225,2,1,0,0,9,1,225,2,1,-143302.18996520393,-4794440.600224302,4195089.335581339,2.23629,2.77669,-0.374827,-101.568,36.0322,37.1994,-0.133691,-7.37156,6.97984,-0.0241609,0.0110115,-0.0153746,4,0,41.36362635126715,-91.71201765656976,11283.08089757384,-61.51000461762765,0.7050114783607696,-6.727786497711282,187.999,11336.471106829373,12851.681693794117,150,True,23.434478971204133,False,164.24982101145113,177.48398041816554,False,13.276935117967424,True,False
1,1970-07-23 09:33:35.903433701,2025-09-08,2025-09-26 19:59:50.343,HH,A,2206834884,JASSM,3,113,76,2,2,1,225,9,2,0,1,26,0,0,0,0,-185536.67419608065,-4786968.549775924,4202245.505339146,-2.30145,-0.153015,0.128471,96.25,-14.75,-12.5,0.0,0.0,0.0,0.0,0.0,0.0,2,0,41.44775149990193,-92.21959887526944,11999.996541544431,99.8394759415804,-0.0023153250112882,0.0057561219770382,,11336.471106829373,12851.681693794117,150,1,2025-09-08,2025-09-26 19:59:50.184,HH,A,3947463756,AMBUSH51,1,1,48,2,1,1,225,2,1,0,0,9,1,225,2,1,-143380.2672562325,-4794413.088506894,4195117.592693437,2.22183,2.7838,-0.372015,-102.096,35.3544,36.9107,-0.0931427,-7.41762,6.92175,-0.0113361,0.00929922,-0.0145569,4,0,41.363966867777165,-91.7129597065258,11282.37696066492,-61.8921052966198,0.8614015965421946,-7.413254983567902,188.707,11336.471106829373,12851.681693794117,150,True,23.333343397356973,False,164.66146446956893,177.503702367552,False,12.880319187043268,True,False
1,1970-07-23 09:33:35.915448498,2025-09-08,2025-09-26 19:59:51.544,HH,A,2208206798,JASSM,3,113,76,2,2,1,225,9,2,0,1,26,0,0,0,0,-185425.99450858065,-4786985.625947799,4202231.038542271,-2.30145,-0.152919,0.128471,96.25,-14.75,-12.5,0.0,0.0,0.0,0.0,0.0,0.0,2,0,41.447577805797465,-92.21826821806027,12000.00261035174,99.83672066672632,-0.0053598278033662,0.005051873491537,,11336.471106829373,12851.681693794117,150,1,2025-09-08,2025-09-26 19:59:51.451,HH,A,3948974888,AMBUSH51,1,1,48,2,1,1,225,2,1,0,0,9,1,225,2,1,-143509.2701194521,-4794368.617236228,4195163.767912601,2.20425,2.79941,-0.361387,-102.925,34.3824,36.2787,-0.143787,-7.42039,6.90997,-0.0258961,0.00717285,-0.00279736,4,0,41.36452015218874,-91.71451587413122,11282.535323885008,-62.91316645829504,1.0304657457494777,-8.116417671704793,189.025,11336.471106829373,12851.681693794117,150,True,23.197227897983492,False,165.33929350722462,177.53862108875808,False,12.23280976471085,True,False
1,1970-07-23 09:33:35.926449592,2025-09-08,2025-09-26 19:59:52.644,HH,A,2209519456,JASSM,3,113,76,2,2,1,225,9,2,0,1,26,0,0,0,0,-185320.09607108065,-4787001.959932174,4202217.194792271,-2.30145,-0.152919,0.128471,96.25,-14.75,-12.5,0.0,0.0,0.0,0.0,0.0,0.0,2,0,41.44741161471497,-92.21699505262453,11999.999317078293,99.83756341755576,-0.004391148110494,0.0050511692905495,,11336.471106829373,12851.681693794117,150,1,2025-09-08,2025-09-26 19:59:52.517,HH,A,3950247420,AMBUSH51,1,1,48,2,1,1,225,2,1,0,0,9,1,225,2,1,-143620.19598536816,-4794332.111194679,4195201.946654517,2.19122,2.81241,-0.356523,-103.735,33.3574,35.385,-0.1139,-7.56624,7.10777,0.012287,0.0104935,-0.0125658,4,0,41.364975277085904,-91.71585337908364,11283.637995191306,-63.60049354321402,1.3361168232917178,-8.615726023918373,189.221,11336.471106829373,12851.681693794117,150,True,23.074608241040572,False,166.11635867023267,177.56551264388116,False,11.479584281590434,True,False
1,1970-07-23 09:33:35.937469736,2025-09-08,2025-09-26 19:59:53.746,HH,A,2210891156,JASSM,3,113,76,2,2,1,225,9,2,0,1,26,0,0,0,0,-185209.43591483065,-4787019.030244674,4202202.726042271,-2.30145,-0.152919,0.128471,96.25,-14.75,-12.5,0.0,0.0,0.0,0.0,0.0,0.0,2,0,41.44723790768696,-92.21566464543656,12000.00141230971,99.83844405564872,-0.0033789063039934,0.0050504057808516,,11336.471106829373,12851.681693794117,150,1,2025-09-08,2025-09-26 19:59:53.783,HH,A,3951758552,AMBUSH51,1,1,48,2,1,1,225,2,1,0,0,9,1,225,2,1,-143752.27821534956,-4794290.51635806,4195246.395544739,2.19764,2.82875,-0.346394,-104.51,31.9101,34.6823,-0.14212,-7.40478,7.00365,3.8491e-05,0.002943,-0.00461164,4,0,41.36549921469628,-91.71744533328098,11287.379828957008,-64.63006672866591,1.5663974991943757,-7.951572140763578,189.416,11336.471106829373,12851.681693794117,150,True,22.93732297299124,False,166.92680400963195,177.5963958081481,False,10.69023727969595,True,False
1,1970-07-23 09:33:35.948352232,2025-09-08,2025-09-26 19:59:54.835,HH,A,2212203730,JASSM,3,113,76,2,2,1,225,9,2,0,1,26,0,0,0,0,-185103.5433367056,-4787035.360322799,4202188.880339146,-2.30145,-0.152919,0.128471,96.25,-14.75,-12.5,0.0,0.0,0.0,0.0,0.0,0.0,2,0,41.44707169650914,-92.21439156512176,11999.997090303666,99.83928674444826,-0.0024102810958812,0.0050497008679807,,11336.471106829373,12851.681693794117,150,1,2025-09-08,2025-09-26 19:59:54.850,HH,A,3953031084,AMBUSH51,1,1,48,2,1,1,225,2,1,0,0,9,1,225,2,1,-143862.9224340634,-4794257.148351371,4195282.44149411,2.18197,2.83464,-0.340399,-105.089,30.9389,33.9016,-0.0845302,-7.16404,6.69035,-0.0201703,-0.00709587,-0.0104061,4,0,41.36592129650038,-91.71877839097657,11291.577577260256,-65.09890074682363,1.5588099458637912,-8.748552349562638,189.49,11336.471106829373,12851.681693794117,150,True,22.815335816762286,False,167.5918752646882,177.61949216835416,False,10.044437115073384,True,False
1,1970-07-23 09:33:35.961139740,2025-09-08,2025-09-26 19:59:56.113,HH,A,2213575504,JASSM,3,113,76,2,2,1,225,9,2,0,1,26,0,0,0,0,-184992.8753679556,-4787052.428682174,4202174.409636021,-2.30145,-0.152919,0.128567,96.25,-14.75,-12.5,0.0,0.0,0.0,0.0,0.0,0.0,2,0,41.44689795961133,-92.21306107935818,12000.00220844998,99.84425808431207,-0.0050642440957105,0.0050487186460419,,11336.471106829373,12851.681693794117,150,1,2025-09-08,2025-09-26 19:59:56.117,HH,A,3954542216,AMBUSH51,1,1,48,2,1,1,225,2,1,0,0,9,1,225,2,1,-143996.4720719987,-4794218.295601825,4195324.216538058,2.15599,2.84655,-0.327877,-105.896,30.1731,32.2618,-0.0712485,-7.13998,6.62573,-0.0203576,-0.00142001,-0.0213521,4,0,41.36641057164553,-91.72038692839068,11296.399016261035,-66.06456039708311,1.5312443567497926,-10.038906926203502,189.526,11336.471106829373,12851.681693794117,150,False,22.67777197005046,False,168.56766779190843,177.6457177688384,False,9.10035667907434,True,False
1,1970-07-23 09:33:35.970408789,2025-09-08,2025-09-26 19:59:57.040,HH,A,2214828204,JASSM,3,113,76,2,2,1,225,9,2,0,1,26,0,0,0,0,-184891.81482108065,-4787068.012666549,4202161.192839146,-2.30145,-0.152919,0.128567,96.25,-14.75,-12.5,0.0,0.0,0.0,0.0,0.0,0.0,2,0,41.44673929170326,-92.21184610450824,12000.001083355442,99.84506230609088,-0.0041398164801136,0.0050480979586542,,11336.471106829373,12851.681693794117,150,1,2025-09-08,2025-09-26 19:59:57.018,HH,A,3955615914,AMBUSH51,1,1,48,2,1,1,225,2,1,0,0,9,1,225,2,1,-144093.0725173233,-4794190.961182308,4195353.260001281,2.13905,2.84961,-0.317292,-106.526,29.5875,31.1333,-0.00614215,-6.79065,6.28751,-0.0221011,-0.0119457,-0.0166728,4,0,41.36675196691972,-91.72155017019372,11299.24092021734,-66.61935623505885,1.2346014533074667,-10.967287961018398,189.49,11336.471106829373,12851.681693794117,150,False,22.566931267197717,False,169.26702860957232,177.66186266623808,False,8.421159034593593,True,False
1,1970-07-23 09:33:35.981448689,2025-09-08,2025-09-26 19:59:58.144,HH,A,2216080904,JASSM,3,113,76,2,2,1,225,9,2,0,1,26,0,0,0,0,-184790.75232108065,-4787083.594697799,4202147.976042271,-2.30145,-0.152919,0.128567,96.25,-14.75,-12.5,0.0,0.0,0.0,0.0,0.0,0.0,2,0,41.44658062303336,-92.2106311131379,12000.00043118518,99.84586653627191,-0.0032153743304349,0.0050474919945172,,11336.471106829373,12851.681693794117,150,1,2025-09-08,2025-09-26 19:59:58.050,HH,A,3956848680,AMBUSH51,1,1,48,2,1,1,225,2,1,0,0,9,1,225,2,1,-144203.3529389772,-4794160.330794051,4195384.67021599,2.14272,2.85323,-0.301658,-107.17,29.2097,29.6836,0.0174583,-6.82058,6.13089,0.0702482,0.00489668,-0.0173137,4,0,41.36712648246047,-91.72287795130994,11300.120990223026,-67.40619458489132,0.7624763230151395,-10.707238421831413,189.795,11336.471106829373,12851.681693794117,150,False,22.44843795635165,False,170.02562645533033,177.67885141441403,False,7.6930871960338685,True,False
1,1970-07-23 09:33:35.993119356,2025-09-08,2025-09-26 19:59:59.311,HH,A,2217393254,JASSM,3,113,76,2,2,1,225,9,2,0,1,26,0,0,0,0,-184684.8792742056,-4787099.918916549,4202134.128386021,-2.30145,-0.152919,0.128567,96.25,-14.75,-12.5,0.0,0.0,0.0,0.0,0.0,0.0,2,0,41.44641437335188,-92.20935829464176,12000.00301262933,99.8467090408163,-0.0022469262915445,0.0050468427187034,,11336.471106829373,12851.681693794117,150,1,2025-09-08,2025-09-26 19:59:59.417,HH,A,3958479112,AMBUSH51,1,1,48,2,1,1,225,2,1,0,0,9,1,225,2,1,-144349.5351816681,-4794120.020532936,4195424.218956197,2.42948,2.86739,-0.287083,-107.617,29.3814,29.0313,-0.340453,-7.11324,6.70357,0.225338,0.00877075,-0.00384598,4,0,41.36760706729689,-91.724637910295,11297.49166903553,-68.5476708784639,0.7549042463865525,5.942762523337313,190.027,11336.471106829373,12851.681693794117,150,True,22.3069662949556,False,170.29054242882404,177.7005255193681,False,7.465727476774918,True,False
1,1970-07-23 09:33:36.002349197,2025-09-08,2025-09-26 20:00:00.234,HH,A,2218645954,JASSM,3,113,76,2,2,1,225,9,2,0,1,26,0,0,0,0,-184583.8167742056,-4787115.498994674,4202120.907682896,-2.30145,-0.152823,0.128567,96.25,-14.75,-12.5,0.0,0.0,0.0,0.0,0.0,0.0,2,0,41.44625566367549,-92.20814331629548,12000.000253592225,99.84387726814695,-0.0053793989125444,0.004342138325007,,11336.471106829373,12851.681693794117,150,1,2025-09-08,2025-09-26 20:00:00.416,HH,A,3959672110,AMBUSH51,1,1,48,2,1,1,225,2,1,0,0,9,1,225,2,1,-144456.89846736164,-4794089.585696992,4195453.534778113,2.64578,2.85241,-0.311743,-106.961,30.525,30.5503,-0.275821,-7.76921,7.20095,0.215386,0.0154619,0.0291814,4,0,41.367966762248514,-91.72593082407234,11294.11223036056,-66.95830809266478,1.1302589032151502,18.10907248320193,190.113,11336.471106829373,12851.681693794117,150,False,22.190197745045452,False,169.29298582459995,177.71618820236782,False,8.475934322317553,True,False
1,1970-07-23 09:33:36.013468055,2025-09-08,2025-09-26 20:00:01.346,HH,A,2219899002,JASSM,3,113,76,2,2,1,225,9,2,0,1,26,0,0,0,0,-184482.7269304556,-4787131.081025924,4202107.683073521,-2.30145,-0.152823,0.128567,96.25,-14.75,-12.5,0.0,0.0,0.0,0.0,0.0,0.0,2,0,41.44609690946155,-92.20692801618723,11999.99667973645,99.84468169501706,-0.0044547074453874,0.0043414696852433,,11336.471106829373,12851.681693794117,150,1,2025-09-08,2025-09-26 20:00:01.417,HH,A,3960865110,AMBUSH51,1,1,48,2,1,1,225,2,1,0,0,9,1,225,2,1,-144563.3180894159,-4794057.23316033,4195485.331704087,2.78159,2.83205,-0.315893,-105.625,33.1324,33.2849,-0.326403,-7.26392,6.82766,0.00701889,0.00808415,0.0341665,4,0,41.36835476893897,-91.72721317513428,11291.3297659184,-66.02102075630498,0.4925957195205157,25.54385399938093,190.418,11336.471106829373,12851.681693794117,150,False,22.07352117589115,False,167.31167621836977,177.73650045006613,False,10.482151620142607,True,False
1,1970-07-23 09:33:36.024487979,2025-09-08,2025-09-26 20:00:02.448,HH,A,2221211004,JASSM,3,113,76,2,2,1,225,9,2,0,1,26,0,0,0,0,-184376.88122733065,-4787147.397432174,4202093.835417271,-2.30145,-0.152823,0.128567,96.25,-14.75,-12.5,0.0,0.0,0.0,0.0,0.0,0.0,2,0,41.44593065902803,-92.20565554698018,12000.000077618695,99.84552396032588,-0.0034865102479216,0.0043407560883789,,11336.471106829373,12851.681693794117,150,1,2025-09-08,2025-09-26 20:00:02.417,HH,A,3962058108,AMBUSH51,1,1,48,2,1,1,225,2,1,0,0,9,1,225,2,1,-144668.17520157056,-4794022.014871385,4195519.347741025,2.77703,2.79374,-0.332337,-104.044,36.3287,35.5818,-0.128636,-7.09123,6.58603,-0.00219607,0.00223352,0.0329285,4,0,41.36877506536626,-91.72847791704486,11286.197087079796,-63.89621930625872,-0.3422321005669931,24.585989299599834,191.042,11336.471106829373,12851.681693794117,150,False,21.95460700166173,False,165.26068893380278,177.76176521671348,False,12.577337295433171,True,False
1,1970-07-23 09:33:36.035374917,2025-09-08,2025-09-26 20:00:03.537,HH,A,2222583006,JASSM,3,113,76,2,2,1,225,9,2,0,1,26,0,0,0,0,-184266.1956804556,-4787164.456025924,4202079.352995396,-2.30145,-0.152823,0.128567,96.25,-14.75,-12.5,0.0,0.0,0.0,0.0,0.0,0.0,2,0,41.44575680417186,-92.20432490226796,11999.997060170124,99.84640472984796,-0.0024740452171844,0.0043400219055691,,11336.471106829373,12851.681693794117,150,1,2025-09-08,2025-09-26 20:00:03.450,HH,A,3963290874,AMBUSH51,1,1,48,2,1,1,225,2,1,0,0,9,1,225,2,1,-144774.83263929377,-4793982.402441338,4195557.058796101,2.77304,2.7722,-0.351695,-102.328,39.6449,37.9737,-0.193453,-7.57618,7.02582,-0.0147545,0.00586208,0.0286571,4,0,41.36924610238764,-91.72976575753675,11278.40298298548,-62.2908761563272,-0.3863757259411273,23.933537551156988,191.579,11336.471106829373,12851.681693794117,150,False,21.83138973085106,False,163.11125805773787,177.7937645246093,False,14.775632003468985,True,False
1,1970-07-23 09:33:36.047508178,2025-09-08,2025-09-26 20:00:04.750,HH,A,2223835706,JASSM,3,113,76,2,2,1,225,9,2,0,1,26,0,0,0,0,-184165.1331804556,-4787180.032197799,4202066.130339146,-2.30145,-0.152823,0.128663,96.25,-14.75,-12.5,0.0,0.0,0.0,0.0,0.0,0.0,2,0,41.445598051395855,-92.2031099502546,12000.003071741428,99.85129961945492,-0.0052158265990536,0.0043391105337058,,11336.471106829373,12851.681693794117,150,1,2025-09-08,2025-09-26 20:00:04.817,HH,A,3964921306,AMBUSH51,1,1,48,2,1,1,225,2,1,0,0,9,1,225,2,1,-144913.37423481664,-4793925.105932761,4195611.354600644,2.7525,2.73867,-0.373904,-100.176,43.2193,41.6699,-0.176436,-7.74794,7.14248,-0.0224756,0.0155223,0.0282576,4,0,41.369928533668045,-91.7314407228468,11265.428938241468,-60.12014380392035,-0.7439705032595422,22.052864239447512,192.508,11336.471106829373,12851.681693794117,150,False,21.69377080309042,False,160.38821713238477,177.8482818340397,False,17.555418119921054,True,False
1,1970-07-23 09:33:36.056427921,2025-09-08,2025-09-26 20:00:05.642,HH,A,2225088806,JASSM,3,113,76,2,2,1,225,9,2,0,1,26,0,0,0,0,-184064.0394304556,-4787195.610322799,4202052.899870396,-2.30145,-0.152823,0.128663,96.25,-14.75,-12.5,0.0,0.0,0.0,0.0,0.0,0.0,2,0,41.44543922861337,-92.2018946298028,11999.999422567076,99.85210404932782,-0.0042910991996057,0.0043384983141363,,11336.471106829373,12851.681693794117,150,1,2025-09-08,2025-09-26 20:00:05.517,HH,A,3965756404,AMBUSH51,1,1,48,2,1,1,225,2,1,0,0,9,1,225,2,1,-144983.0602395771,-4793894.007898262,4195641.123130081,2.74731,2.72223,-0.389642,-98.9555,44.8545,43.6532,-0.188298,-7.9273,7.29126,-0.0191529,0.0157262,0.0295476,4,0,41.370301928258286,-91.73228406204365,11258.631340552314,-58.86533355376323,-0.7053446183667409,21.38903683355198,192.936,11336.471106829373,12851.681693794117,150,False,21.59660354349911,False,159.0045753422326,177.87776118219466,False,18.9670167697515,True,False
1,1970-07-23 09:33:36.068310737,2025-09-08,2025-09-26 20:00:06.831,HH,A,2226400756,JASSM,3,113,76,2,2,1,225,9,2,0,1,26,0,0,0,0,-183958.19763358065,-4787211.918916549,4202039.048307896,-2.30145,-0.152823,0.128663,96.25,-14.75,-12.5,0.0,0.0,0.0,0.0,0.0,0.0,2,0,41.44527294174606,-92.200622236571,11999.999189397262,99.85294625339183,-0.0033229422679741,0.0043378661544367,,11336.471106829373,12851.681693794117,150,1,2025-09-08,2025-09-26 20:00:06.750,HH,A,3967227770,AMBUSH51,1,1,48,2,1,1,225,2,1,0,0,9,1,225,2,1,-145104.40112722883,-4793836.275977599,4195697.208978951,2.71673,2.69601,-0.415328,-96.8145,47.3881,47.0771,-0.213373,-8.05057,7.41325,-0.0400462,0.0122765,0.0304048,4,0,41.37100209706525,-91.73375384717072,11247.205702522191,-56.85026528898041,-0.5941540397063633,19.02562793921504,193.669,11336.471106829373,12851.681693794117,150,False,21.465205666917896,False,156.70362747829273,177.9407205638272,False,21.32685758453582,True,False
1,1970-07-23 09:33:36.078486137,2025-09-08,2025-09-26 20:00:07.848,HH,A,2227713106,JASSM,3,113,76,2,2,1,225,9,2,0,1,26,0,0,0,0,-183852.32263358065,-4787228.231416549,4202025.190886021,-2.30145,-0.152727,0.128663,96.25,-14.75,-12.5,0.0,0.0,0.0,0.0,0.0,0.0,2,0,41.44510658561753,-92.19934945123885,11999.99868424947,99.8501528204601,-0.0064113928666978,0.0036326901763655,,11336.471106829373,12851.681693794117,150,1,2025-09-08,2025-09-26 20:00:07.783,HH,A,3968460534,AMBUSH51,1,1,48,2,1,1,225,2,1,0,0,9,1,225,2,1,-145203.58984868348,-4793785.937222086,4195747.266521409,2.68159,2.67491,-0.432862,-95.1207,49.2993,49.7355,-0.161261,-7.8556,7.1549,-0.063274,0.0108742,0.0130568,4,0,41.37162157203112,-91.734956468884,11239.26166355514,-55.3598140088534,-0.6129349868623204,16.49881371167142,194.194,11336.471106829373,12851.681693794117,150,False,21.34657540520819,False,154.93774313353467,177.99887740327983,False,23.14893020926447,True,False
1,1970-07-23 09:33:36.089227621,2025-09-08,2025-09-26 20:00:08.922,HH,A,2229025470,JASSM,3,113,76,2,2,1,225,9,2,0,1,26,0,0,0,0,-183746.44763358065,-4787244.543916549,4202011.331511021,-2.30145,-0.152727,0.128663,96.25,-14.75,-12.5,0.0,0.0,0.0,0.0,0.0,0.0,2,0,41.44494020222827,-92.19807667240896,11999.9999278432,99.8509952742452,-0.0054429298463911,0.00363198023441,,11336.471106829373,12851.681693794117,150,1,2025-09-08,2025-09-26 20:00:08.983,HH,A,3969892134,AMBUSH51,1,1,48,2,1,1,225,2,1,0,0,9,1,225,2,1,-145315.53698957176,-4793726.424116951,4195807.593658389,2.58867,2.65415,-0.453446,-93.5424,50.7601,51.9138,-0.126226,-7.51085,6.99572,-0.0904174,0.0130901,0.0199685,4,0,41.37236263321784,-91.73631478672822,11231.969014482076,-53.7715963998327,-0.4705224329754534,10.650040223528418,194.622,11336.471106829373,12851.681693794117,150,False,21.219618302192465,False,153.47222540463807,178.0722298390632,False,24.68737635387323,True,False
1,1970-07-23 09:33:36.101138750,2025-09-08,2025-09-26 20:00:10.113,HH,A,2230337810,JASSM,3,113,76,2,2,1,225,9,2,0,1,26,0,0,0,0,-183640.57361014312,-4787260.854463424,4201997.472136021,-2.30145,-0.152727,0.128663,96.25,-14.75,-12.5,0.0,0.0,0.0,0.0,0.0,0.0,2,0,41.444773816154864,-92.19680391264868,12000.002453869378,99.85183771262474,-0.0044744780298083,0.0036312798605203,,11336.471106829373,12851.681693794117,150,1,2025-09-08,2025-09-26 20:00:10.050,HH,A,3971164666,AMBUSH51,1,1,48,2,1,1,225,2,1,0,0,9,1,225,2,1,-145415.48851167937,-4793671.336456665,4195864.208703849,2.50234,2.64808,-0.464974,-92.6533,51.2988,53.4617,-0.0519201,-7.59078,6.99329,-0.0863208,-0.0055375,-0.000656428,4,0,41.37305446286847,-91.73752828877278,11226.631796901722,-53.09731830790608,-0.1902614681416997,5.545370689022963,195.306,11336.471106829373,12851.681693794117,150,True,21.099679750814236,False,152.6282531811584,178.14236827907484,False,25.598768593478486,True,False
1,1970-07-23 09:33:36.111408796,2025-09-08,2025-09-26 20:00:11.140,HH,A,2231590712,JASSM,3,113,76,2,2,1,225,9,2,0,1,26,0,0,0,0,-183539.49548514312,-4787276.422822799,4201984.239714146,-2.30145,-0.152727,0.128663,96.25,-14.75,-12.5,0.0,0.0,0.0,0.0,0.0,0.0,2,0,41.444614968118,-92.1955888141667,12000.000374496109,99.85264198246624,-0.0035498988354098,0.0036306249522166,,11336.471106829373,12851.681693794117,150,1,2025-09-08,2025-09-26 20:00:11.150,HH,A,3972476964,AMBUSH51,1,1,48,2,1,1,225,2,1,0,0,9,1,225,2,1,-145516.63962939754,-4793615.114984839,4195922.947554889,2.41166,2.64711,-0.473412,-92.4209,51.4298,54.271,-0.136699,-7.66977,7.15348,-0.0770184,0.0088727,0.0066527,4,0,41.37376714685574,-91.7387565531427,11223.20792704666,-52.73702953536432,0.1361765257198529,0.3247271249933318,195.453,11336.471106829373,12851.681693794117,150,True,20.981501940152256,False,152.29403625895898,178.21625840775948,False,26.00673687702119,True,False
1,1970-07-23 09:33:36.122427272,2025-09-08,2025-09-26 20:00:12.242,HH,A,2232962512,JASSM,3,113,76,2,2,1,225,9,2,0,1,26,0,0,0,0,-183428.8245867056,-4787293.469697799,4201969.749479771,-2.30145,-0.152727,0.128663,96.25,-14.75,-12.5,0.0,0.0,0.0,0.0,0.0,0.0,2,0,41.4444410104993,-92.1942584036527,12000.00250186549,99.8535225740695,-0.0025375691736934,0.0036298887223897,,11336.471106829373,12851.681693794117,150,1,2025-09-08,2025-09-26 20:00:12.450,HH,A,3974027862,AMBUSH51,1,1,48,2,1,1,225,2,1,0,0,9,1,225,2,1,-145637.2478000064,-4793548.584461704,4195994.201147009,2.35343,2.66038,-0.479438,-92.5783,50.3213,55.1634,-0.0781279,-7.73429,7.09715,0.0209942,-0.00688781,-0.00491749,4,0,41.37462210904243,-91.74022093404626,11223.017599093142,-53.0048679942099,0.847517051450631,-2.665453446766862,195.905,11336.471106829373,12851.681693794117,150,True,20.845986278877877,False,152.34518709176373,178.3067024117586,False,26.037420700110538,True,False
1,1970-07-23 09:33:36.133447853,2025-09-08,2025-09-26 20:00:13.344,HH,A,2234274862,JASSM,3,113,76,2,2,1,225,9,2,0,1,26,0,0,0,0,-183322.95056326807,-4787309.774385299,4201955.886198521,-2.30145,-0.152727,0.128663,96.25,-14.75,-12.5,0.0,0.0,0.0,0.0,0.0,0.0,2,0,41.44427459069449,-92.19298566608693,12000.00011580659,99.85436498941036,-0.0015691207142665,0.0036291962416023,,11336.471106829373,12851.681693794117,150,1,2025-09-08,2025-09-26 20:00:13.183,HH,A,3974902728,AMBUSH51,1,1,48,2,1,1,225,2,1,0,0,9,1,225,2,1,-145705.19633948672,-4793511.568799823,4196034.48990806,2.3878,2.65983,-0.473774,-92.7171,50.4234,54.9481,-0.154225,-7.03795,6.45182,0.0498916,0.00105174,-0.00480513,4,0,41.37510198221193,-91.74104578828,11224.37974555471,-53.20399586562608,0.5901112925373591,-0.7132125620502012,195.649,11336.471106829373,12851.681693794117,150,True,20.745836995145257,False,152.42645081045399,178.35604729439052,False,26.010620880969622,True,False
1,1970-07-23 09:33:36.144487569,2025-09-08,2025-09-26 20:00:14.448,HH,A,2235527734,JASSM,3,113,76,2,2,1,225,9,2,0,1,26,0,0,0,0,-183221.87439139312,-4787325.340791549,4201942.649870396,-2.30145,-0.152727,0.128759,96.25,-14.75,-12.5,0.0,0.0,0.0,0.0,0.0,0.0,2,0,41.44411568714632,-92.1917706104678,12000.002093638805,99.8592599695,-0.0043107284439208,0.0036283462274044,,11336.471106829373,12851.681693794117,150,1,2025-09-08,2025-09-26 20:00:14.583,HH,A,3976572926,AMBUSH51,1,1,48,2,1,1,225,2,1,0,0,9,1,225,2,1,-145834.54399475345,-4793439.768853596,4196111.565048474,2.46464,2.64867,-0.474111,-92.451,51.2528,55.0957,-0.163419,-7.03353,6.3561,0.0492113,0.00198593,0.00505272,4,0,41.37602597693606,-91.74261650948073,11224.520960329848,-52.77145773521647,0.2227363839504087,3.400641521775225,195.942,11336.471106829373,12851.681693794117,150,True,20.61016294766659,False,152.10791898006124,178.45589235147722,False,26.440992494206398,True,False
1,1970-07-23 09:33:36.155386603,2025-09-08,2025-09-26 20:00:15.538,HH,A,2236839914,JASSM,3,113,76,2,2,1,225,9,2,0,1,26,0,0,0,0,-183116.01306326807,-4787341.641572799,4201928.784636021,-2.30145,-0.152727,0.128759,96.25,-14.75,-12.5,0.0,0.0,0.0,0.0,0.0,0.0,2,0,41.4439492469942,-92.1904980391203,11999.998768435167,99.86010226942344,-0.0033423944804941,0.0036277101593535,,11336.471106829373,12851.681693794117,150,1,2025-09-08,2025-09-26 20:00:15.650,HH,A,3977845458,AMBUSH51,1,1,48,2,1,1,225,2,1,0,0,9,1,225,2,1,-145932.2975771211,-4793384.712495902,4196170.204328568,2.51094,2.64206,-0.477834,-91.9993,52.0752,55.6067,-0.171241,-7.10487,6.42029,0.0179919,0.0015927,0.00112456,4,0,41.37673162191242,-91.74380388917426,11223.5296129997,-52.379656479334734,0.1566053663555807,5.881224723790813,196.211,11336.471106829373,12851.681693794117,150,True,20.49141890956552,False,151.6298871605611,178.53140432598357,False,27.00360098942317,True,False
1,1970-07-23 09:33:36.166407112,2025-09-08,2025-09-26 20:00:16.640,HH,A,2238152262,JASSM,3,113,76,2,2,1,225,9,2,0,1,26,0,0,0,0,-183010.13903983065,-4787357.944307174,4201914.917448521,-2.30145,-0.152631,0.128759,96.25,-14.75,-12.5,0.0,0.0,0.0,0.0,0.0,0.0,2,0,41.443782770849744,-92.18922532166684,12000.0007976979,99.85730886493916,-0.0064308501496806,0.0029220104446605,,11336.471106829373,12851.681693794117,150,1,2025-09-08,2025-09-26 20:00:16.650,HH,A,3979038456,AMBUSH51,1,1,48,2,1,1,225,2,1,0,0,9,1,225,2,1,-146024.02014589138,-4793332.046343127,4196226.105217894,2.52816,2.63191,-0.485508,-91.4147,52.8024,56.3689,-0.267714,-7.26266,6.80666,0.0172887,0.000885293,0.0139161,4,0,41.37740564356959,-91.7449184018184,11222.037271286325,-51.70290438101835,0.1407905246439415,6.600207038826959,196.516,11336.471106829373,12851.681693794117,150,True,20.37629493408858,False,151.06378221341734,178.60387466212555,False,27.64954584263512,True,False
1,1970-07-23 09:33:36.176428483,2025-09-08,2025-09-26 20:00:17.642,HH,A,2239345308,JASSM,3,113,76,2,2,1,225,9,2,0,1,26,0,0,0,0,-182913.89001639312,-4787372.762666549,4201902.311979771,-2.30145,-0.152631,0.128759,96.25,-14.75,-12.5,0.0,0.0,0.0,0.0,0.0,0.0,2,0,41.4436314375824,-92.1880683135612,12000.004489570092,99.85807467002029,-0.0055504458042023,0.0029213947471088,,11336.471106829373,12851.681693794117,150,1,2025-09-08,2025-09-26 20:00:17.550,HH,A,3980112156,AMBUSH51,1,1,48,2,1,1,225,2,1,0,0,9,1,225,2,1,-146106.1318419354,-4793284.202920108,4196276.90147551,2.5451,2.62457,-0.492025,-90.8211,53.4737,57.0124,-0.0771893,-7.35927,6.57373,0.0232309,-0.00247695,0.00589537,4,0,41.37801825079434,-91.74591640653136,11220.628112136346,-51.17808061825947,0.1741155167314883,7.37492289552337,196.846,11336.471106829373,12851.681693794117,150,True,20.27234302860075,False,150.54309094210578,178.67009490183833,False,28.244336175830405,True,False
1,1970-07-23 09:33:36.185485256,2025-09-08,2025-09-26 20:00:18.548,HH,A,2240479232,JASSM,3,113,76,2,2,1,225,9,2,0,1,26,0,0,0,0,-182822.40857108065,-4787386.844697799,4201890.327604771,-2.30145,-0.152631,0.128759,96.25,-14.625,-12.5,0.0,0.0,0.0,0.0,0.0,0.0,2,0,41.44348758115627,-92.18696862248508,11999.999716645632,99.8588025357487,-0.0047136505242459,0.0029208010169795,,11336.471106829373,12851.681693794117,150,1,2025-09-08,2025-09-26 20:00:18.550,HH,A,3981305154,AMBUSH51,1,1,48,2,1,1,225,2,1,0,0,9,1,225,2,1,-146196.57838202134,-4793230.430082033,4196334.137328417,2.549,2.6197,-0.502209,-90.0431,54.0486,57.9561,-0.204992,-7.44193,6.82811,-0.000252792,0.00765555,0.0086147,4,0,41.37870807829685,-91.74701612756064,11219.226008408978,-50.608445623199295,0.4497826081840467,7.467906093954177,196.883,11336.471106829373,12851.681693794117,150,True,20.165655800537202,False,149.8580003548235,178.7250627874061,False,28.965552877608843,True,False
1,1970-07-23 09:33:36.195367986,2025-09-08,2025-09-26 20:00:19.536,HH,A,2241671752,JASSM,3,113,76,2,2,1,225,9,2,0,1,26,0,0,0,0,-182726.20153983065,-4787401.655244674,4201877.724089146,-2.30145,-0.152631,0.128759,96.25,-14.625,-12.5,0.0,0.0,0.0,0.0,0.0,0.0,2,0,41.4433362753196,-92.1858121302641,12000.002044447983,99.85956799489064,-0.0038336279739474,0.0029201697538613,,11336.471106829373,12851.681693794117,150,1,2025-09-08,2025-09-26 20:00:19.550,HH,A,3982498154,AMBUSH51,1,1,48,2,1,1,225,2,1,0,0,9,1,225,2,1,-146286.03883580776,-4793175.967021511,4196392.454795576,2.55392,2.60784,-0.513265,-89.1659,54.6519,58.9464,-0.156364,-7.40195,6.81688,0.00275783,0.00712084,0.0210275,4,0,41.37940948201483,-91.74810434722458,11218.404624322226,-49.74530704581766,0.5356374967354326,7.426946733297323,197.262,11336.471106829373,12851.681693794117,150,True,20.05679692036629,False,149.1701435655909,178.80437475891836,False,29.739388004369374,True,False
1,1970-07-23 09:33:36.205408107,2025-09-08,2025-09-26 20:00:20.540,HH,A,2242864796,JASSM,3,113,76,2,2,1,225,9,2,0,1,26,0,0,0,0,-182629.95153983065,-4787416.469697799,4201865.112761021,-2.30145,-0.152631,0.128759,96.25,-14.625,-12.5,0.0,0.0,0.0,0.0,0.0,0.0,2,0,41.44318489166039,-92.18465512813336,11999.997924873218,99.86033378923094,-0.0029532135085111,0.0029195393773853,,11336.471106829373,12851.681693794117,150,1,2025-09-08,2025-09-26 20:00:20.716,HH,A,3983889986,AMBUSH51,1,1,48,2,1,1,225,2,1,0,0,9,1,225,2,1,-146389.7015710484,-4793111.621936401,4196461.720013588,2.55312,2.59719,-0.517478,-88.324,55.2771,60.0978,-0.25458,-7.4086,6.78212,-0.00792186,-0.00899337,0.00253104,4,0,41.38024098079892,-91.74936580713484,11218.08575849531,-49.18663179600807,0.371049570500457,7.084909474917081,197.262,11336.471106829373,12851.681693794117,150,True,19.938831684408836,False,148.4461500493074,178.8991632959801,False,30.567299749700123,False,False
1,1970-07-23 09:33:36.215446179,2025-09-08,2025-09-26 20:00:21.544,HH,A,2243998410,JASSM,3,113,76,2,2,1,225,9,2,0,1,26,0,0,0,0,-182538.4964617056,-4787430.545869674,4201853.130339146,-2.30145,-0.152631,0.128759,96.25,-14.625,-12.5,0.0,0.0,0.0,0.0,0.0,0.0,2,0,41.44304104466237,-92.1835557699092,11999.999344412976,99.86106142820108,-0.002116660055742,0.0029189461705053,,11336.471106829373,12851.681693794117,150,1,2025-09-08,2025-09-26 20:00:21.549,HH,A,3984884150,AMBUSH51,1,1,48,2,1,1,225,2,1,0,0,9,1,225,2,1,-146462.98729339193,-4793065.029241879,4196512.048322979,2.55722,2.58814,-0.525624,-87.6466,55.9098,60.8561,-0.192334,-7.51216,6.88309,-0.00151155,0.00152196,0.0104331,4,0,41.38084455628088,-91.75025803464072,11218.102586272564,-48.54200022064018,0.4328370689459252,7.065708756524121,197.457,11336.471106829373,12851.681693794117,150,True,19.842444826118985,False,147.8824617687768,178.96728294451427,False,31.20883193678513,False,False
1,1970-07-23 09:33:36.225485977,2025-09-08,2025-09-26 20:00:22.548,HH,A,2245250890,JASSM,3,113,76,2,2,1,225,9,2,0,1,26,0,0,0,0,-182437.45153983065,-4787446.096650924,4201839.890104771,-2.30145,-0.152631,0.128759,96.25,-14.625,-12.5,0.0,0.0,0.0,0.0,0.0,0.0,2,0,41.442882101046976,-92.18234114089633,11999.999737160397,99.86186535973916,-0.0011923871558164,0.0029182898292826,,11336.471106829373,12851.681693794117,150,1,2025-09-08,2025-09-26 20:00:22.516,HH,A,3986037382,AMBUSH51,1,1,48,2,1,1,225,2,1,0,0,9,1,225,2,1,-146548.1566130558,-4793010.067610579,4196571.708733083,2.56211,2.57838,-0.532507,-86.8644,56.3778,61.6993,-0.145595,-7.28147,6.62385,0.0063531,0.000920663,0.00905371,4,0,41.38155874202773,-91.75129525856808,11218.666496698212,-47.9194738126797,0.4212779126447567,7.068349054519991,197.494,11336.471106829373,12851.681693794117,150,True,19.733191546688392,False,147.29888258715147,179.0474814917667,False,31.884751580610928,False,False
1,1970-07-23 09:33:36.235384584,2025-09-08,2025-09-26 20:00:23.538,HH,A,2246444426,JASSM,3,113,76,2,2,1,225,9,2,0,1,26,0,0,0,0,-182341.16150076807,-4787460.915010299,4201827.270964146,-2.30145,-0.152631,0.128854,96.25,-14.625,-12.5,0.0,0.0,0.0,0.0,0.0,0.0,2,0,41.442730615595735,-92.18118367463512,11999.999356384506,99.86672224644204,-0.0039777274193186,0.0029175019760211,,11336.471106829373,12851.681693794117,150,1,2025-09-08,2025-09-26 20:00:23.450,HH,A,3987150848,AMBUSH51,1,1,48,2,1,1,225,2,1,0,0,9,1,225,2,1,-146628.76843711128,-4792956.861708294,4196629.50842924,2.56009,2.56961,-0.53859,-86.075,57.1386,62.3122,-0.115729,-7.23708,6.5118,-0.0162609,0.000891535,0.0119437,4,0,41.38225074312359,-91.75227743353604,11219.178758929964,-47.36511939937408,0.4101528100503075,6.700047845500296,197.604,11336.471106829373,12851.681693794117,150,True,19.629278179366942,False,146.7120955055932,179.12392670239794,False,32.565395014904766,False,False
1,1970-07-23 09:33:36.245426121,2025-09-08,2025-09-26 20:00:24.542,HH,A,2247637368,JASSM,3,113,76,2,2,1,225,9,2,0,1,26,0,0,0,0,-182244.92028983065,-4787475.725557174,4201814.657682896,-2.30145,-0.152535,0.128854,96.25,-14.625,-12.5,0.0,0.0,0.0,0.0,0.0,0.0,2,0,41.44257919345563,-92.18002680083409,12000.002021785189,99.8638522437876,-0.0071542939073665,0.002211390534109,,11336.471106829373,12851.681693794117,150,1,2025-09-08,2025-09-26 20:00:24.449,HH,A,3988343848,AMBUSH51,1,1,48,2,1,1,225,2,1,0,0,9,1,225,2,1,-146714.54400721367,-4792899.170135347,4196692.192239597,2.55064,2.56067,-0.544297,-85.3729,57.791,63.031,-0.2498,-7.36381,6.6761,-0.0155015,0.00457211,0.0135707,4,0,41.38300144812495,-91.75332294034126,11219.64280439662,-46.81936481702713,0.3806968728413241,5.898783349815372,197.751,11336.471106829373,12851.681693794117,150,True,19.521997762512427,False,146.1508531800616,179.20439798921043,False,33.22887198462173,False,False
1,1970-07-23 09:33:36.255486594,2025-09-08,2025-09-26 20:00:25.548,HH,A,2248830030,JASSM,3,113,76,2,2,1,225,9,2,0,1,26,0,0,0,0,-182148.70056326807,-4787490.530244674,4201802.046354771,-2.30145,-0.152535,0.128854,96.25,-14.625,-12.5,0.0,0.0,0.0,0.0,0.0,0.0,2,0,41.44242780286167,-92.17887019182582,12000.001486751353,99.86461776650768,-0.0062741585759702,0.0022107704041403,,11336.471106829373,12851.681693794117,150,1,2025-09-08,2025-09-26 20:00:25.616,HH,A,3989735680,AMBUSH51,1,1,48,2,1,1,225,2,1,0,0,9,1,225,2,1,-146812.72600641954,-4792831.89719663,4196765.480424887,2.53726,2.55484,-0.550567,-84.5781,58.2127,63.8729,-0.024937,-7.33606,6.5933,-0.0182104,0.00378772,0.0111738,4,0,41.38387846163823,-91.75452014942212,11220.47536894096,-46.371373553175104,0.4764492058237751,4.961520505234673,197.897,11336.471106829373,12851.681693794117,150,True,19.406708709010783,False,145.57636078050277,179.2931686564425,False,33.92307937349203,False,False
1,1970-07-23 09:33:36.265615117,2025-09-08,2025-09-26 20:00:26.561,HH,A,2249963772,JASSM,3,113,76,2,2,1,225,9,2,0,1,26,0,0,0,0,-182057.2347429556,-4787504.602510299,4201790.058073521,-2.30145,-0.152535,0.128854,96.25,-14.625,-12.5,0.0,0.0,0.0,0.0,0.0,0.0,2,0,41.44228388672037,-92.17777073256266,12000.003098037234,99.8653454614957,-0.0054375091409119,0.0022101862492176,,11336.471106829373,12851.681693794117,150,1,2025-09-08,2025-09-26 20:00:26.382,HH,A,3990650312,AMBUSH51,1,1,48,2,1,1,225,2,1,0,0,9,1,225,2,1,-146877.49937217942,-4792786.765037175,4196814.742792533,2.52992,2.55216,-0.555149,-84.0547,58.488,64.3547,-0.219492,-7.46338,6.80794,-0.00596194,-0.00273702,0.00789482,4,0,41.38446766547472,-91.75531027338464,11221.16236504893,-46.10397914111649,0.5965397142244134,4.463042019841057,198.019,11336.471106829373,12851.681693794117,150,True,19.315223540343037,False,145.21754815861325,179.34721844230793,False,34.36362749002152,False,False
1,1970-07-23 09:33:36.275365143,2025-09-08,2025-09-26 20:00:27.536,HH,A,2251156464,JASSM,3,113,76,2,2,1,225,9,2,0,1,26,0,0,0,0,-181961.01306326807,-4787519.405244674,4201777.442839146,-2.30145,-0.152535,0.128854,96.25,-14.625,-12.5,0.0,0.0,0.0,0.0,0.0,0.0,2,0,41.44213245915324,-92.17661411158907,11999.998748439844,99.8661109876487,-0.0045573547343764,0.0022095548434926,,11336.471106829373,12851.681693794117,150,1,2025-09-08,2025-09-26 20:00:27.449,HH,A,3991922844,AMBUSH51,1,1,48,2,1,1,225,2,1,0,0,9,1,225,2,1,-146967.4118584947,-4792723.54362878,4196883.998275374,2.50732,2.54689,-0.560339,-83.5064,58.903,64.8208,-0.151238,-7.37929,6.75041,-0.023828,0.00175082,0.0113174,4,0,41.38529484408144,-91.75640728493512,11222.609052701851,-45.717667288207934,0.6644241912771589,3.01237368498762,198.093,11336.471106829373,12851.681693794117,150,True,19.205048025313168,False,144.82577903536816,179.41339841924844,False,34.873067833215096,False,False
1,1970-07-23 09:33:36.284424994,2025-09-08,2025-09-26 20:00:28.442,HH,A,2252289864,JASSM,3,113,76,2,2,1,225,9,2,0,1,26,0,0,0,0,-181869.5745867056,-4787533.471650924,4201765.456511021,-2.30145,-0.152535,0.128854,96.25,-14.625,-12.5,0.0,0.0,0.0,0.0,0.0,0.0,2,0,41.44198856330996,-92.17551499172713,12000.00192704267,99.86683845373412,-0.0037209557278357,0.0022089695357053,,11336.471106829373,12851.681693794117,150,1,2025-09-08,2025-09-26 20:00:28.616,HH,A,3993314676,AMBUSH51,1,1,48,2,1,1,225,2,1,0,0,9,1,225,2,1,-147064.20293456904,-4792654.846628008,4196959.434133695,2.48555,2.54202,-0.560343,-83.1922,59.1939,65.1923,-0.0240001,-7.13998,6.45737,-0.00472607,0.00117242,-0.00483842,4,0,41.386195048150185,-91.75758848642305,11224.517419085643,-45.53538280357822,0.5162630252600197,1.6186883075915524,198.459,11336.471106829373,12851.681693794117,150,True,19.09308120694863,False,144.56417769339876,179.46591969551778,False,35.26430277921737,False,False
1,1970-07-23 09:33:36.294425328,2025-09-08,2025-09-26 20:00:29.442,HH,A,2253423650,JASSM,3,113,76,2,2,1,225,9,2,0,1,26,0,0,0,0,-181778.1058367056,-4787547.541963424,4201753.464323521,-2.30145,-0.152535,0.128854,96.25,-14.625,-12.5,0.0,0.0,0.0,0.0,0.0,0.0,2,0,41.44184460102922,-92.1744155131686,12000.003625334492,99.86756615514884,-0.0028842786173441,0.0022083757857372,,11336.471106829373,12851.681693794117,150,1,2025-09-08,2025-09-26 20:00:29.416,HH,A,3994269074,AMBUSH51,1,1,48,2,1,1,225,2,1,0,0,9,1,225,2,1,-147130.66969325847,-4792607.174898577,4197011.785286241,2.47327,2.54194,-0.56307,-83.019,59.356,65.4247,0.00251846,-7.26668,6.4974,-0.00692526,6.34581e-05,0.00329878,4,0,41.38681987868102,-91.75839982254972,11225.801384137314,-45.43429008867657,0.6358759850821095,0.9135466283819302,198.606,11336.471106829373,12851.681693794117,150,True,19.00044622038373,False,144.41286411983148,179.48572314344258,False,35.50662843183406,False,False
1,1970-07-23 09:33:36.303488058,2025-09-08,2025-09-26 20:00:30.348,HH,A,2254557044,JASSM,3,113,76,2,2,1,225,9,2,0,1,26,0,0,0,0,-181686.66736014312,-4787561.604463424,4201741.474089146,-2.30135,-0.152535,0.128854,96.25,-14.625,-12.5,0.0,0.0,0.0,0.0,0.0,0.0,2,0,41.441700681072085,-92.17331640479397,11999.997658725171,99.86829360947472,-0.0020478803465306,0.0077129195848235,,11336.471106829373,12851.681693794117,150,1,2025-09-08,2025-09-26 20:00:30.316,HH,A,3995342774,AMBUSH51,1,1,48,2,1,1,225,2,1,0,0,9,1,225,2,1,-147205.9318954183,-4792552.880325546,4197071.085230805,2.47952,2.52643,-0.551603,-82.9143,60.099,65.1056,-0.0980434,-6.16148,5.49941,0.00737675,0.00248735,0.00279112,4,0,41.3875293988613,-91.75931865555155,11226.533384326276,-45.26174662005665,-0.3482263026668424,0.8023367032759748,198.679,11336.471106829373,12851.681693794117,150,True,18.90223947549885,False,144.30568786338048,179.48880572099833,False,35.724019312684476,False,False
