Subject_cm,Timestamp,SampleDate_cm,SampleTime_cm,Configuration_cm,Scenario_cm,DisTime_cm,MarkingTxt_cm,Application_cm,EntId_cm,Site_cm,ExerciseId_cm,ForceId_cm,Category_cm,Country_cm,Domain_cm,Kind_cm,Extra_cm,Specific_cm,Subcategory_cm,AltCategory_cm,AltCountry_cm,AltDomain_cm,AltKind_cm,ECEF_X_cm,ECEF_Y_cm,ECEF_Z_cm,OriPhi_cm,OriPsi_cm,OriTheta_cm,LinVelX_cm,LinVelY_cm,LinVelZ_cm,LinAccX_cm,LinAccY_cm,LinAccZ_cm,AngVelX_cm,AngVelY_cm,AngVelZ_cm,DrAlg_cm,Appearance_cm,Latitude_cm,Longitude_cm,Altitude_cm,Heading_cm,Pitch_cm,Roll_cm,CalibratedAirspeed_cm,CM_Altitude_Lead_cm,CM_Altitude_Wing_cm,CM_Airspeed_cm,Subject_ac,SampleDate_ac,SampleTime_ac,Configuration_ac,Scenario_ac,DisTime_ac,MarkingTxt_ac,Application_ac,EntId_ac,Site_ac,ExerciseId_ac,ForceId_ac,Category_ac,Country_ac,Domain_ac,Kind_ac,Extra_ac,Specific_ac,Subcategory_ac,AltCategory_ac,AltCountry_ac,AltDomain_ac,AltKind_ac,ECEF_X_ac,ECEF_Y_ac,ECEF_Z_ac,OriPhi_ac,OriPsi_ac,OriTheta_ac,LinVelX_ac,LinVelY_ac,LinVelZ_ac,LinAccX_ac,LinAccY_ac,LinAccZ_ac,AngVelX_ac,AngVelY_ac,AngVelZ_ac,DrAlg_ac,Appearance_ac,Latitude_ac,Longitude_ac,Altitude_ac,Heading_ac,Pitch_ac,Roll_ac,CalibratedAirspeed_ac,CM_Altitude_Lead_ac,CM_Altitude_Wing_ac,CM_Airspeed_ac,Bank_Angle_Condition,distance_nm,Distance_Condition,angle_between_vel,angle_between_pos,Cone_Condition,angle_between_pos_nose,Nose_Cone_Condition,Intercept_Criteria
1,1970-07-23 09:33:42.677187531,2025-09-08,2025-09-26 20:11:07.718,HH,B,3014885168,JASSM,3,122,76,2,2,1,225,9,2,0,1,26,0,0,0,0,-155689.26208670562,-4777721.280244674,4213886.491667271,-2.71093,-1.01118,0.751842,37.25,-59.375,-65.5,0.0,0.0,0.0,0.0,0.0,0.0,2,0,41.58765543115849,-91.8664090422212,11999.997468494586,155.93880021534264,-0.0028290282626931,-0.0006587223125987,,10456.756926878135,13162.46325448802,150,1,2025-09-08,2025-09-26 20:11:07.620,HH,B,4080912548,HAWK11,1,1,73,2,1,1,225,2,1,0,0,12,1,225,2,1,-147122.59607108062,-4791890.209932174,4198720.483854771,2.35993,2.71361,-0.509282,-98.75,24.375,28.125,0.140625,-7.0,6.85938,0.00195312,0.0,0.015625,4,0,41.40262031664886,-91.75856630604112,13168.337262978665,-53.805700866659954,3.9593944501909246,-0.8926959247178314,169.558,10456.756926878135,13162.46325448802,150,True,12.11109057114998,False,133.4926133670384,179.10107577156566,False,46.93842417602624,False,False
1,1970-07-23 09:33:42.688224237,2025-09-08,2025-09-26 20:11:08.822,HH,B,3016197520,JASSM,3,122,76,2,2,1,225,9,2,0,1,26,0,0,0,0,-155648.25525076812,-4777786.756807174,4213814.257292271,-2.71093,-1.01118,0.751842,37.25,-59.375,-65.5,0.0,0.0,0.0,0.0,0.0,0.0,2,0,41.58678636375785,-91.86589224504384,12000.00381301983,155.93914324438828,-0.0018778780702951,-0.0006600983549499,,10456.756926878135,13162.46325448802,150,1,2025-09-08,2025-09-26 20:11:08.821,HH,B,4082383914,HAWK11,1,1,73,2,1,1,225,2,1,0,0,12,1,225,2,1,-147243.92028983062,-4791860.221650924,4198754.847136021,2.35926,2.70508,-0.506789,-98.625,24.375,28.125,0.0625,-6.65625,6.54688,0.0,-0.00976562,0.00585938,4,0,41.40300846100543,-91.76002659843311,13178.301150544945,-53.5966187487273,3.5618466969406253,-1.154866378513118,169.253,10456.756926878135,13162.46325448802,150,True,12.006622153133984,False,133.51656483103096,178.95684505634128,False,47.160325602882025,False,False
1,1970-07-23 09:33:42.698278427,2025-09-08,2025-09-26 20:11:09.827,HH,B,3017390566,JASSM,3,122,76,2,2,1,225,9,2,0,1,26,0,0,0,0,-155610.97693045562,-4777846.278291549,4213748.585417271,-2.71083,-1.01118,0.751842,37.25,-59.375,-65.5,0.0,0.0,0.0,0.0,0.0,0.0,2,0,41.58599628745205,-91.86542244993971,11999.998817240994,155.9394550702533,-0.0010131867577847,0.0048437720950281,,10456.756926878135,13162.46325448802,150,1,2025-09-08,2025-09-26 20:11:10.012,HH,B,4083775746,HAWK11,1,1,73,2,1,1,225,2,1,0,0,12,1,225,2,1,-147359.98083670562,-4791830.712861861,4198787.212370396,2.35341,2.69453,-0.495188,-98.75,25.25,27.25,-0.078125,-6.39062,6.21875,-0.015625,0.0,-0.00976562,4,0,41.40338121155263,-91.76142385256,13184.719539128171,-53.6710449177503,2.715981929648645,-1.7838712804397483,169.204,10456.756926878135,13162.46325448802,150,True,11.909517310294481,False,133.46308456717628,178.78681170410678,False,47.43969085192902,False,False
1,1970-07-23 09:33:42.709202302,2025-09-08,2025-09-26 20:11:10.920,HH,B,3018523960,JASSM,3,122,76,2,2,1,225,9,2,0,1,26,0,0,0,0,-155575.56286795562,-4777902.821260299,4213686.198698521,-2.71083,-1.01118,0.751842,37.25,-59.375,-65.5,0.0,0.0,0.0,0.0,0.0,0.0,2,0,41.58524573810663,-91.86497616024695,11999.995922832117,155.93975128992773,-0.0001917542892403,0.0048425799139167,,10456.756926878135,13162.46325448802,150,1,2025-09-08,2025-09-26 20:11:10.821,HH,B,4084809678,HAWK11,1,1,73,2,1,1,225,2,1,0,0,12,1,225,2,1,-147445.33630545562,-4791808.625947799,4198810.452604771,2.34776,2.69194,-0.489052,-98.875,25.625,26.875,-0.0625,-6.57812,6.23438,0.00585938,-0.0214844,0.0117188,4,0,41.40365382996512,-91.7624515990918,13187.277584326775,-53.81806195873803,2.371358414634644,-2.184312723691061,169.338,10456.756926878135,13162.46325448802,150,True,11.827191801575582,False,133.42428949856537,178.64606933943753,False,47.652096149491264,False,False
1,1970-07-23 09:33:42.718760310,2025-09-08,2025-09-26 20:11:11.876,HH,B,3019776858,JASSM,3,122,76,2,2,1,225,9,2,0,1,26,0,0,0,0,-155536.41443045562,-4777965.329072799,4213617.233854771,-2.71083,-1.01118,0.751842,37.25,-59.375,-65.5,0.0,0.0,0.0,0.0,0.0,0.0,2,0,41.58441603067416,-91.86448282085787,12000.0047898483,155.9400787331909,0.0007163081174337,0.0048412580321815,,10456.756926878135,13162.46325448802,150,1,2025-09-08,2025-09-26 20:11:11.619,HH,B,4085764076,HAWK11,1,1,73,2,1,1,225,2,1,0,0,12,1,225,2,1,-147524.62146170562,-4791787.914033736,4198831.610807896,2.35533,2.68619,-0.485409,-99.0,26.125,26.375,0.0,-6.32812,6.3125,0.0078125,-0.00195312,0.00195312,4,0,41.40390531952383,-91.76340633379156,13188.244621830032,-53.74937158767239,2.0205298705515538,-1.901778958640573,169.424,10456.756926878135,13162.46325448802,150,True,11.742222061079516,False,133.37849922554,178.50541389921983,False,47.860109022611894,False,False
1,1970-07-23 09:33:42.729218671,2025-09-08,2025-09-26 20:11:12.921,HH,B,3021148636,JASSM,3,122,76,2,2,1,225,9,2,0,1,26,0,0,0,0,-155493.55114920562,-4778033.762666549,4213541.722136021,-2.71083,-1.01118,0.751938,37.25,-59.375,-65.5,0.0,0.0,0.0,0.0,0.0,0.0,2,0,41.58350760423464,-91.8639426845765,12000.000717808263,155.94272984156711,-0.0032794871524611,0.004839784124015,,10456.756926878135,13162.46325448802,150,1,2025-09-08,2025-09-26 20:11:12.713,HH,B,4086877542,HAWK11,1,1,73,2,1,1,225,2,1,0,0,12,1,225,2,1,-147617.24841483062,-4791763.162080611,4198856.034636021,2.35965,2.67977,-0.476301,-99.25,25.875,26.75,-0.15625,-6.125,5.84375,-0.00976562,-0.0214844,0.0,4,0,41.40420042869965,-91.76452194087688,13187.37496524244,-53.86804409347023,1.4173018580462402,-1.8281024307874552,169.644,10456.756926878135,13162.46325448802,150,True,11.647004828722471,False,133.38977042996913,178.33291386370993,False,48.054401746335294,False,False
1,1970-07-23 09:33:42.740240027,2025-09-08,2025-09-26 20:11:14.024,HH,B,3022461014,JASSM,3,122,76,2,2,1,225,9,2,0,1,26,0,0,0,0,-155452.54333670562,-4778099.233369674,4213469.479948521,-2.71083,-1.01109,0.751938,37.25,-59.375,-65.5,0.0,0.0,0.0,0.0,0.0,0.0,2,0,41.58263850770512,-91.86342594413188,12000.003094141446,155.9394283244485,-0.0040028825871403,0.0010876656528853,,10456.756926878135,13162.46325448802,150,1,2025-09-08,2025-09-26 20:11:14.009,HH,B,4088587506,HAWK11,1,1,73,2,1,1,225,2,1,0,0,12,1,225,2,1,-147759.95935233062,-4791723.221650924,4198891.821745396,2.35782,2.67028,-0.469398,-99.625,28.125,24.875,-0.046875,-6.48438,6.29688,0.0,0.0,0.00390625,4,0,41.40465338286963,-91.76624144865036,13177.60670723249,-53.78319972883099,0.7993889493640979,-2.1780946994024517,170.401,10456.756926878135,13162.46325448802,150,True,11.535475836741753,False,133.34312308982433,178.0590911890933,False,48.37988616334921,False,False
1,1970-07-23 09:33:42.752258588,2025-09-08,2025-09-26 20:11:15.225,HH,B,3023833016,JASSM,3,122,76,2,2,1,225,9,2,0,1,26,0,0,0,0,-155409.67321951812,-4778167.676729049,4213393.952604771,-2.71083,-1.01109,0.751938,37.25,-59.375,-65.5,0.0,0.0,0.0,0.0,0.0,0.0,2,0,41.58172991388312,-91.86288575178688,12000.000722562656,155.93978684677165,-0.0030084932569911,0.0010861920552367,,10456.756926878135,13162.46325448802,150,1,2025-09-08,2025-09-26 20:11:15.509,HH,B,4090377006,HAWK11,1,1,73,2,1,1,225,2,1,0,0,12,1,225,2,1,-147910.75036795562,-4791680.425752486,4198927.739714146,2.35725,2.66146,-0.459619,-100.375,28.875,24.125,-0.015625,-6.60938,6.375,0.0,-0.00585938,0.00390625,4,0,41.40512269698302,-91.76805855912492,13161.72439305171,-53.83126141820748,0.0825185145203467,-2.4373774891846525,171.501,10456.756926878135,13162.46325448802,150,True,11.419153949973076,False,133.15394628541284,177.75399701562557,False,48.89349039408454,False,False
1,1970-07-23 09:33:42.762296152,2025-09-08,2025-09-26 20:11:16.229,HH,B,3025085716,JASSM,3,122,76,2,2,1,225,9,2,0,1,26,0,0,0,0,-155370.53064139312,-4778230.168916549,4213324.991667271,-2.71083,-1.01109,0.751938,37.25,-59.375,-65.5,0.0,0.0,0.0,0.0,0.0,0.0,2,0,41.58090031539839,-91.86239254218984,12000.002485014296,155.94011418131683,-0.002100561721918,0.0010848448483393,,10456.756926878135,13162.46325448802,150,1,2025-09-08,2025-09-26 20:11:16.323,HH,B,4091331404,HAWK11,1,1,73,2,1,1,225,2,1,0,0,12,1,225,2,1,-147991.32263358062,-4791656.915010299,4198946.714323521,2.35706,2.6559,-0.455496,-100.75,29.5,23.75,0.15625,-6.29688,6.28125,0.00195312,-0.00585938,0.0,4,0,41.40537581506442,-91.76902974629635,13151.188589926443,-53.78030254276549,-0.2839432954887646,-2.5889901940939604,171.99,10456.756926878135,13162.46325448802,150,True,11.334456089195756,False,133.1373649318729,177.58100904603006,False,49.08855944133536,False,False
1,1970-07-23 09:33:42.774775644,2025-09-08,2025-09-26 20:11:17.477,HH,B,3026398066,JASSM,3,122,76,2,2,1,225,9,2,0,1,26,0,0,0,0,-155329.52380545562,-4778295.633760299,4213252.745573521,-2.71083,-1.01109,0.751938,37.25,-59.375,-65.5,0.0,0.0,0.0,0.0,0.0,0.0,2,0,41.58003121999983,-91.86187585729438,11999.999343594096,155.9404570902528,-0.0011494036873186,0.0010834394374325,,10456.756926878135,13162.46325448802,150,1,2025-09-08,2025-09-26 20:11:17.321,HH,B,4092524402,HAWK11,1,1,73,2,1,1,225,2,1,0,0,12,1,225,2,1,-148093.48083670562,-4791627.228486861,4198969.612761021,2.35025,2.65714,-0.454346,-101.375,30.0,23.0,0.015625,-6.84375,6.65625,0.0175781,0.00585938,0.0,4,0,41.40568817631908,-91.7702610889282,13135.621723450571,-53.87294038107344,-0.2884682548735499,-2.9468625596565143,172.772,10456.756926878135,13162.46325448802,150,True,11.23970445532191,False,132.8887197152693,177.35767119642483,False,49.56638953106011,False,False
1,1970-07-23 09:33:42.784266669,2025-09-08,2025-09-26 20:11:18.426,HH,B,3027710418,JASSM,3,122,76,2,2,1,225,9,2,0,1,26,0,0,0,0,-155288.51696951812,-4778361.096650924,4213180.499479771,-2.71083,-1.01109,0.751938,37.25,-59.375,-65.5,0.0,0.0,0.0,0.0,0.0,0.0,2,0,41.579162133805504,-91.86135918701372,11999.997171928837,155.94079998360357,-0.0001982563853724,0.0010820382382484,,10456.756926878135,13162.46325448802,150,1,2025-09-08,2025-09-26 20:11:18.509,HH,B,4093995768,HAWK11,1,1,73,2,1,1,225,2,1,0,0,12,1,225,2,1,-148219.46325858062,-4791590.318330611,4198998.403776646,2.53299,2.66577,-0.465851,-101.625,30.125,23.875,-0.328125,-7.5,7.26562,0.175781,0.0117188,0.00585938,4,0,41.40607888146038,-91.77177972161007,13116.892639256768,-53.75515528801586,0.4979378392036522,7.743210001885354,174.336,10456.756926878135,13162.46325448802,150,True,11.136105951673489,False,133.220882251209,177.07738031102605,False,49.53671133046403,False,False
1,1970-07-23 09:33:42.795236392,2025-09-08,2025-09-26 20:11:19.523,HH,B,3029022768,JASSM,3,122,76,2,2,1,225,9,2,0,1,26,0,0,0,0,-155247.51111014312,-4778426.559541549,4213108.253386021,-2.71083,-1.01109,0.751938,37.25,-59.375,-65.5,0.0,0.0,0.0,0.0,0.0,0.0,2,0,41.57829304496849,-91.86084254228383,12000.000838541042,155.9411428541119,0.0007528876664533,0.0010806289503646,,10456.756926878135,13162.46325448802,150,1,2025-09-08,2025-09-26 20:11:19.415,HH,B,4094950166,HAWK11,1,1,73,2,1,1,225,2,1,0,0,12,1,225,2,1,-148300.68005545562,-4791566.029268111,4199017.913542271,2.66452,2.65034,-0.47889,-101.0,30.75,25.25,-0.078125,-7.54688,7.32812,0.136719,0.0195312,0.0507812,4,0,41.40634009220155,-91.77275892886956,13105.667341212877,-52.67043673433126,0.5189666964485388,14.88727906731864,174.336,10456.756926878135,13162.46325448802,150,False,11.048707958868137,False,134.05910545943394,176.88738676111421,False,48.90161079450797,False,False
1,1970-07-23 09:33:42.806260273,2025-09-08,2025-09-26 20:11:20.626,HH,B,3030275468,JASSM,3,122,76,2,2,1,225,9,2,0,1,26,0,0,0,0,-155208.36755545562,-4778489.045869674,4213039.288542271,-2.71083,-1.01109,0.752034,37.25,-59.375,-65.5,0.0,0.0,0.0,0.0,0.0,0.0,2,0,41.577463446091855,-91.86034937556732,12000.001390459684,155.94376450229302,-0.0033321482902255,0.0010792582458412,,10456.756926878135,13162.46325448802,150,1,2025-09-08,2025-09-26 20:11:20.805,HH,B,4096660132,HAWK11,1,1,73,2,1,1,225,2,1,0,0,12,1,225,2,1,-148444.71521170562,-4791519.802705611,4199056.647917271,2.78782,2.59876,-0.511966,-98.75,33.25,29.0,-0.15625,-8.1875,7.89062,0.0214844,0.0332031,0.0410156,4,0,41.40684996721205,-91.77449670676266,13086.991379642095,-49.4689149378728,0.2147912721942773,20.567006087890224,175.632,10456.756926878135,13162.46325448802,150,False,10.93804066413167,False,136.7066562261214,176.559580788757,False,46.60034613891979,False,False
1,1970-07-23 09:33:42.816295067,2025-09-08,2025-09-26 20:11:21.629,HH,B,3031528168,JASSM,3,122,76,2,2,1,225,9,2,0,1,26,0,0,0,0,-155169.22497733062,-4778551.530244674,4212970.323698521,-2.71083,-1.01109,0.752034,37.25,-59.375,-65.5,0.0,0.0,0.0,0.0,0.0,0.0,2,0,41.57663385644819,-91.85985623392926,12000.002477980488,155.9440917642716,-0.002424235524587,0.0010779535081338,,10456.756926878135,13162.46325448802,150,1,2025-09-08,2025-09-26 20:11:21.711,HH,B,4097813364,HAWK11,1,1,73,2,1,1,225,2,1,0,0,12,1,225,2,1,-148541.71911795562,-4791485.926729049,4199086.931120396,2.80019,2.59607,-0.506022,-97.25,35.375,32.25,-0.203125,-8.10938,7.71875,0.0117188,0.00585938,0.0273438,4,0,41.40723798430458,-91.77566808781924,13076.779193690125,-49.5905478744716,-0.1298708567600477,21.200855363513558,175.925,10456.756926878135,13162.46325448802,150,False,10.843455249214536,False,138.8950326732577,176.33179779547623,False,44.65224261876359,False,False
1,1970-07-23 09:33:42.828321720,2025-09-08,2025-09-26 20:11:22.832,HH,B,3032900168,JASSM,3,122,76,2,2,1,225,9,2,0,1,26,0,0,0,0,-155126.35486014312,-4778619.963838424,4212894.788542271,-2.71083,-1.01109,0.752034,37.25,-59.375,-65.5,0.0,0.0,0.0,0.0,0.0,0.0,2,0,41.57572525060562,-91.85931614545176,12000.000750807883,155.94445017527624,-0.0014298514589122,0.001076519301314,,10456.756926878135,13162.46325448802,150,1,2025-09-08,2025-09-26 20:11:22.711,HH,B,4099006362,HAWK11,1,1,73,2,1,1,225,2,1,0,0,12,1,225,2,1,-148639.81677420562,-4791449.036104049,4199121.450651646,2.82003,2.58409,-0.507844,-95.75,37.5,35.75,-0.140625,-8.1875,7.95312,0.0292969,0.0292969,0.0390625,4,0,41.40767231230113,-91.77685366758058,13068.43453202939,-49.067594736558725,-0.4402662600791313,22.002224515979183,176.438,10456.756926878135,13162.46325448802,150,False,10.7410487521679,False,141.15947639747552,176.0987881716813,False,42.63456657762517,False,False
1,1970-07-23 09:33:42.839199002,2025-09-08,2025-09-26 20:11:23.919,HH,B,3034152868,JASSM,3,122,76,2,2,1,225,9,2,0,1,26,0,0,0,0,-155087.21130545562,-4778682.446260299,4212825.819792271,-2.71083,-1.01109,0.752034,37.25,-59.375,-65.5,0.0,0.0,0.0,0.0,0.0,0.0,2,0,41.5748956418301,-91.85882301931932,11999.999462117732,155.9447774157302,-0.0005219218887391,0.0010752161038955,,10456.756926878135,13162.46325448802,150,1,2025-09-08,2025-09-26 20:11:24.120,HH,B,4100676560,HAWK11,1,1,73,2,1,1,225,2,1,0,0,12,1,225,2,1,-148773.29138358062,-4791393.824189986,4199175.876432896,2.89127,2.54718,-0.530949,-92.625,40.5,40.875,-0.171875,-8.125,7.96875,0.0390625,0.015625,0.0410156,4,0,41.40834343054331,-91.77846869095843,13060.933074305154,-46.81097618847002,-0.6007961118911337,25.013554964483685,176.78,10456.756926878135,13162.46325448802,150,False,10.62408626474866,False,144.65046902208476,175.79148632608891,False,39.470348410902446,False,False
1,1970-07-23 09:33:42.849235631,2025-09-08,2025-09-26 20:11:24.923,HH,B,3035465192,JASSM,3,122,76,2,2,1,225,9,2,0,1,26,0,0,0,0,-155046.20544608062,-4778747.901338424,4212753.569792271,-2.71083,-1.01099,0.752034,37.25,-59.375,-65.5,0.0,0.0,0.0,0.0,0.0,0.0,2,0,41.57402656128614,-91.85830644562472,12000.003738125972,155.94147163440255,-0.0012475340122565,-0.0026821545160412,,10456.756926878135,13162.46325448802,150,1,2025-09-08,2025-09-26 20:11:24.755,HH,B,4100915160,HAWK11,1,1,73,2,1,1,225,2,1,0,0,12,1,225,2,1,-148792.55310233062,-4791385.163057174,4199184.583464146,2.89385,2.55532,-0.515513,-92.75,41.125,42.0,-0.078125,-8.1875,7.875,0.0351562,0.0253906,0.0351562,4,0,41.40845015909229,-91.77870201507908,13059.996585506364,-47.68569649812264,-1.0260759502322645,25.407644341628608,176.915,10456.756926878135,13162.46325448802,150,False,10.557610796646241,False,145.17651321981344,175.7278315573013,False,39.01205590681429,False,False
1,1970-07-23 09:33:42.860257607,2025-09-08,2025-09-26 20:11:26.025,HH,B,3036777550,JASSM,3,122,76,2,2,1,225,9,2,0,1,26,0,0,0,0,-155005.19861014312,-4778813.356416549,4212681.311979771,-2.71074,-1.01099,0.752034,37.25,-59.375,-65.5,0.0,0.0,0.0,0.0,0.0,0.0,2,0,41.57315742588633,-91.85778987408266,11999.996688120798,155.94181442172882,-0.0002963572186697,0.0028078785213459,,10456.756926878135,13162.46325448802,150,1,2025-09-08,2025-09-26 20:11:26.119,HH,B,4103062558,HAWK11,1,1,73,2,1,1,225,2,1,0,0,12,1,225,2,1,-148956.06286795562,-4791305.417939986,4199266.479948521,2.96758,2.47997,-0.562012,-87.25,46.0,48.375,-0.171875,-8.20312,8.04688,0.0175781,0.0371094,0.0429688,4,0,41.40944703885949,-91.78068501016575,13054.080166023465,-43.12787783490518,-1.2435623984650914,27.32523679780532,177.257,10456.756926878135,13162.46325448802,150,False,10.414520912045854,False,150.24911517585792,175.35884367213364,False,34.32082565251695,False,False
1,1970-07-23 09:33:42.871275083,2025-09-08,2025-09-26 20:11:27.127,HH,B,3038030270,JASSM,3,122,76,2,2,1,225,9,2,0,1,26,0,0,0,0,-154966.05505545562,-4778875.836885299,4212612.343229771,-2.71074,-1.01099,0.75213,37.25,-59.375,-65.5,0.0,0.0,0.0,0.0,0.0,0.0,2,0,41.572327821851104,-91.85729678776792,12000.006854396182,155.94443488538073,-0.0043781472109754,0.0028064463010792,,10456.756926878135,13162.46325448802,150,1,2025-09-08,2025-09-26 20:11:27.305,HH,B,4104454390,HAWK11,1,1,73,2,1,1,225,2,1,0,0,12,1,225,2,1,-149056.49060233062,-4791247.958955611,4199326.145964146,3.00689,2.44037,-0.575914,-83.5,49.875,52.625,-0.234375,-8.14062,7.95312,-0.0371094,0.0253906,0.0546875,4,0,41.410172953867225,-91.78190614836154,13049.92503993448,-41.11931321106452,-1.744675086845506,28.302819217729,177.122,10456.756926878135,13162.46325448802,150,False,10.301021550101781,False,153.797228281955,175.12913602202266,False,31.00363322748314,False,False
1,1970-07-23 09:33:42.881953460,2025-09-08,2025-09-26 20:11:28.195,HH,B,3039342622,JASSM,3,122,76,2,2,1,225,9,2,0,1,26,0,0,0,0,-154925.04821951812,-4778941.288057174,4212540.085417271,-2.71074,-1.01099,0.75213,37.25,-59.375,-65.5,0.0,0.0,0.0,0.0,0.0,0.0,2,0,41.57145870497033,-91.8567802448099,12000.001481184194,155.9447776423575,-0.0034269918290304,0.0028050537407653,,10456.756926878135,13162.46325448802,150,1,2025-09-08,2025-09-26 20:11:27.955,HH,B,4104852056,HAWK11,1,1,73,2,1,1,225,2,1,0,0,12,1,225,2,1,-149084.38122733062,-4791231.769502486,4199344.122526646,3.00545,2.41985,-0.586844,-83.625,47.25,55.25,-0.234375,-8.14062,7.95312,-0.0371094,0.0253906,0.0546875,4,0,41.4103854220552,-91.78224537201773,13051.253585315357,-39.95575639479638,-1.808687394360469,27.538792753478432,177.208,10456.756926878135,13162.46325448802,150,False,10.227134617742795,False,153.81726972443727,175.04506815249633,False,31.113837758779816,False,False
1,1970-07-23 09:33:42.895201602,2025-09-08,2025-09-26 20:11:29.520,HH,B,3040654972,JASSM,3,122,76,2,2,1,225,9,2,0,1,26,0,0,0,0,-154884.04040701812,-4779006.739229049,4212467.827604771,-2.71074,-1.01099,0.75213,37.25,-59.375,-65.5,0.0,0.0,0.0,0.0,0.0,0.0,2,0,41.57058958582605,-91.85626370400286,12000.001790867293,155.94512039202155,-0.0024758329084986,0.0028036692260094,,10456.756926878135,13162.46325448802,150,1,2025-09-08,2025-09-26 20:11:29.415,HH,B,4106880154,HAWK11,1,1,73,2,1,1,225,2,1,0,0,12,1,225,2,1,-149219.90857108062,-4791140.030244674,4199441.009245396,2.96557,2.34977,-0.629603,-76.5,54.25,59.75,-0.015625,-8.28125,8.04688,-0.0566406,0.0234375,0.0234375,4,0,41.41155994495725,-91.78389863680152,13046.264200790158,-35.853231331889674,-1.6288534053695682,22.835104235185497,177.501,10456.756926878135,13162.46325448802,150,False,10.07954826257426,False,159.37997034055653,174.75100816773877,False,25.8258936112081,True,False
1,1970-07-23 09:33:42.904173480,2025-09-08,2025-09-26 20:11:30.417,HH,B,3041967324,JASSM,3,122,76,2,2,1,225,9,2,0,1,26,0,0,0,0,-154843.03357108062,-4779072.188447799,4212395.567839146,-2.71074,-1.01099,0.75213,37.25,-59.375,-65.5,0.0,0.0,0.0,0.0,0.0,0.0,2,0,41.56972046254777,-91.85574718949594,11999.998895385928,155.94546311834983,-0.0015246761057345,0.0028022754960591,,10456.756926878135,13162.46325448802,150,1,2025-09-08,2025-09-26 20:11:30.356,HH,B,4107715254,HAWK11,1,1,73,2,1,1,225,2,1,0,0,12,1,225,2,1,-149272.74841483062,-4791101.478486861,4199483.405729771,2.91284,2.32609,-0.64897,-74.375,55.25,61.75,-0.109375,-8.29688,7.96875,-0.166016,0.0175781,0.0292969,4,0,41.41206562059773,-91.78454426977356,13047.507256876155,-34.3386774451504,-1.2773157788278622,18.9659669282298,177.342,10456.756926878135,13162.46325448802,150,False,9.984689199131648,False,160.93422101196907,174.61977524806375,False,24.413292658994212,True,False
1,1970-07-23 09:33:42.918003070,2025-09-08,2025-09-26 20:11:31.800,HH,B,3043220022,JASSM,3,122,76,2,2,1,225,9,2,0,1,26,0,0,0,0,-154803.89001639312,-4779134.663057174,4212326.593229771,-2.71074,-1.01099,0.75213,37.25,-59.375,-65.5,0.0,0.0,0.0,0.0,0.0,0.0,2,0,41.56889084477913,-91.85525415772489,12000.003676370849,155.9457902575314,-0.0006167530977091,0.0028009515333319,,10456.756926878135,13162.46325448802,150,1,2025-09-08,2025-09-26 20:11:31.805,HH,B,4109783118,HAWK11,1,1,73,2,1,1,225,2,1,0,0,12,1,225,2,1,-149397.38903983062,-4791003.589814986,4199593.952604771,2.66357,2.29321,-0.672938,-71.375,56.0,65.875,-0.03125,-7.53125,7.28125,-0.109375,-0.0078125,-0.0117188,4,0,41.41337089988099,-91.78606984239768,13056.23163147673,-32.353852176595595,-0.8810650316248912,3.489802521421425,177.379,10456.756926878135,13162.46325448802,150,True,9.834444204919219,False,163.23625031779954,174.35673585784983,False,22.401612533973612,True,False
1,1970-07-23 09:33:42.926008828,2025-09-08,2025-09-26 20:11:32.600,HH,B,3044532636,JASSM,3,122,76,2,2,1,225,9,2,0,1,26,0,0,0,0,-154762.87536795562,-4779200.122041549,4212254.317839146,-2.71074,-1.01099,0.75213,37.25,-59.375,-65.5,0.0,0.0,0.0,0.0,0.0,0.0,2,0,41.568021554747965,-91.85473757292924,12000.001364313595,155.94613301899432,0.0003345815700334,0.0027995582559302,,10456.756926878135,13162.46325448802,150,1,2025-09-08,2025-09-26 20:11:32.715,HH,B,4110856816,HAWK11,1,1,73,2,1,1,225,2,1,0,0,12,1,225,2,1,-149460.98474295562,-4790951.546846236,4199653.171354771,2.5675,2.30711,-0.663159,-70.875,57.0,66.0,0.0,-6.8125,6.48438,-0.0742188,0.0,0.00195312,4,0,41.41406835414004,-91.78684904383135,13061.640866299942,-33.17939523200596,-1.0364786927312788,-1.5070143922423382,176.829,10456.756926878135,13162.46325448802,150,True,9.726927428457605,False,163.7043432220483,174.20518061860193,False,22.080596376568767,True,False
1,1970-07-23 09:33:42.936294814,2025-09-08,2025-09-26 20:11:33.629,HH,B,3045844822,JASSM,3,122,76,2,2,1,225,9,2,0,1,26,0,0,0,0,-154721.87341483062,-4779265.559541549,4212182.063932896,-2.71074,-1.01099,0.75213,37.25,-59.375,-65.5,0.0,0.0,0.0,0.0,0.0,0.0,2,0,41.567152532662085,-91.85422116234945,11999.999881979838,155.9464756589784,0.0012856205602961,0.0027981656040782,,10456.756926878135,13162.46325448802,150,1,2025-09-08,2025-09-26 20:11:33.711,HH,B,4112089582,HAWK11,1,1,73,2,1,1,225,2,1,0,0,12,1,225,2,1,-149533.59997733062,-4790892.379854049,4199720.745573521,2.58581,2.30557,-0.666611,-70.875,57.125,66.125,-0.15625,-6.64062,6.34375,0.0507812,-0.0175781,0.00195312,4,0,41.4148628972445,-91.78773868041716,13068.361851543064,-33.017989619446986,-0.9025731567784704,-0.5146573915226026,176.793,10456.756926878135,13162.46325448802,150,True,9.612418950147699,False,163.76131001604816,174.03271425017434,False,22.19627976578826,True,False
1,1970-07-23 09:33:42.951596387,2025-09-08,2025-09-26 20:11:35.159,HH,B,3047157076,JASSM,3,122,76,2,2,1,225,9,2,0,1,26,0,0,0,0,-154680.86853201812,-4779330.998994674,4212109.806120396,-2.71074,-1.01099,0.752226,37.25,-59.375,-65.5,0.0,0.0,0.0,0.0,0.0,0.0,2,0,41.56628347073698,-91.8537047297674,12000.000214857391,155.94911300086193,-0.0027561069057307,0.0027967717787429,,10456.756926878135,13162.46325448802,150,1,2025-09-08,2025-09-26 20:11:35.009,HH,B,4113640480,HAWK11,1,1,73,2,1,1,225,2,1,0,0,12,1,225,2,1,-149624.52380545562,-4790817.477510299,4199804.810026646,2.58869,2.31478,-0.66987,-70.625,58.125,65.75,-0.203125,-6.9375,6.875,-0.0175781,0.00390625,0.0078125,4,0,41.41585892930468,-91.78885295729164,13073.588772187106,-33.274125139585465,-0.5257901157038484,-0.0197720749527174,176.829,10456.756926878135,13162.46325448802,150,True,9.48339150114538,False,164.0107004248702,173.82072555520676,False,22.14818831791298,True,False
1,1970-07-23 09:33:42.958196779,2025-09-08,2025-09-26 20:11:35.819,HH,B,3048469428,JASSM,3,122,76,2,2,1,225,9,2,0,1,26,0,0,0,0,-154639.86169608062,-4779396.442354049,4212037.540495396,-2.71074,-1.01089,0.752226,37.25,-59.375,-65.5,0.0,0.0,0.0,0.0,0.0,0.0,2,0,41.56541433082933,-91.85318828612276,11999.998730204496,155.94581237138553,-0.0034795396663071,-0.0009565539581822,,10456.756926878135,13162.46325448802,150,1,2025-09-08,2025-09-26 20:11:35.711,HH,B,4114515346,HAWK11,1,1,73,2,1,1,225,2,1,0,0,12,1,225,2,1,-149676.16638358062,-4790774.757783736,4199852.784636021,2.56501,2.32082,-0.682238,-70.5,58.125,65.875,0.0625,-6.92188,7.0,-0.0566406,-0.00390625,0.0292969,4,0,41.41642723823844,-91.78948592110451,13076.62196179784,-33.13099085704804,0.2195289190970918,-1.160338147425792,177.086,10456.756926878135,13162.46325448802,150,True,9.385508066306915,False,164.08821134935036,173.68153941896486,False,22.21130445518074,True,False
1,1970-07-23 09:33:42.970219170,2025-09-08,2025-09-26 20:11:37.021,HH,B,3049841430,JASSM,3,122,76,2,2,1,225,9,2,0,1,26,0,0,0,0,-154596.98962576812,-4779464.858369674,4211961.989714146,-2.71074,-1.01089,0.752226,37.25,-59.375,-65.5,0.0,0.0,0.0,0.0,0.0,0.0,2,0,41.564505691983314,-91.85264836794194,11999.997452498936,155.9461705903095,-0.0024851487518717,-0.0009580240275634,,10456.756926878135,13162.46325448802,150,1,2025-09-08,2025-09-26 20:11:36.726,HH,B,4115668578,HAWK11,1,1,73,2,1,1,225,2,1,0,0,12,1,225,2,1,-149743.79138358062,-4790718.420869674,4199915.630339146,2.53241,2.3189,-0.679266,-70.625,58.5,65.75,0.015625,-6.28125,6.34375,-0.00976562,-0.0078125,-0.00585938,4,0,41.41717394099842,-91.79031493988228,13079.676525415116,-33.1488461774184,0.0307863193684651,-3.097087906063054,177.428,10456.756926878135,13162.46325448802,150,True,9.27224042762266,False,164.09505472099013,173.50568351671308,False,22.375432751260867,True,False
1,1970-07-23 09:33:42.981253549,2025-09-08,2025-09-26 20:11:38.125,HH,B,3051153782,JASSM,3,122,76,2,2,1,225,9,2,0,1,26,0,0,0,0,-154555.98278983062,-4779530.299775924,4211889.722136021,-2.71074,-1.01089,0.752226,37.25,-59.375,-65.5,0.0,0.0,0.0,0.0,0.0,0.0,2,0,41.563636545566496,-91.8521319533657,11999.998707538649,155.94651320930487,-0.0015339864376589,-0.0009594448022369,,10456.756926878135,13162.46325448802,150,1,2025-09-08,2025-09-26 20:11:38.117,HH,B,4117299010,HAWK11,1,1,73,2,1,1,225,2,1,0,0,12,1,225,2,1,-149839.49255545562,-4790637.723604049,4200003.454557896,2.49512,2.33203,-0.670541,-71.125,59.625,65.125,-0.015625,-6.35938,6.48438,-0.0234375,-0.00585938,0.0,4,0,41.41822890738959,-91.79148854087543,13079.205887174408,-33.91288867696253,-0.0798370262386156,-4.763221520907475,178.063,10456.756926878135,13162.46325448802,150,True,9.139367535101435,False,163.99428791654333,173.2698446283351,False,22.689974265676817,True,False
1,1970-07-23 09:33:42.993954328,2025-09-08,2025-09-26 20:11:39.395,HH,B,3052466132,JASSM,3,122,76,2,2,1,225,9,2,0,1,26,0,0,0,0,-154514.97497733062,-4779595.739229049,4211817.454557896,-2.71074,-1.01089,0.752226,37.25,-59.375,-65.5,0.0,0.0,0.0,0.0,0.0,0.0,2,0,41.56276740854155,-91.85161554169146,12000.000853671978,155.9468558204898,-0.0005828314579894,-0.0009608532980221,,10456.756926878135,13162.46325448802,150,1,2025-09-08,2025-09-26 20:11:39.509,HH,B,4119008976,HAWK11,1,1,73,2,1,1,225,2,1,0,0,12,1,225,2,1,-149941.60193045562,-4790552.371064986,4200094.477995396,2.5326,2.34335,-0.67754,-72.0,60.125,64.25,0.09375,-6.64062,6.76562,0.113281,0.0,-0.00585938,4,0,41.41933195499902,-91.79274048894308,13074.736762244109,-34.125611186183,0.5318357075071248,-2.211497947692925,179.652,10456.756926878135,13162.46325448802,150,True,9.002861923809384,False,163.53895534446258,173.01160887709923,False,23.38273273985032,True,False
1,1970-07-23 09:33:43.003953304,2025-09-08,2025-09-26 20:11:40.395,HH,B,3053778484,JASSM,3,122,76,2,2,1,225,9,2,0,1,26,0,0,0,0,-154473.96716483062,-4779661.176729049,4211745.185026646,-2.71074,-1.01089,0.752226,37.25,-59.375,-65.5,0.0,0.0,0.0,0.0,0.0,0.0,2,0,41.56189826756949,-91.85109914461282,11999.999717012295,155.94719841610677,0.0003683248015718,-0.0009622629418733,,10456.756926878135,13162.46325448802,150,1,2025-09-08,2025-09-26 20:11:40.357,HH,B,4119446408,HAWK11,1,1,73,2,1,1,225,2,1,0,0,12,1,225,2,1,-149968.54333670562,-4790529.794893111,4200118.390104771,2.56453,2.3492,-0.674952,-72.125,60.375,64.25,0.046875,-6.76562,6.875,0.0898438,-0.00390625,-0.0117188,4,0,41.41962261992064,-91.79307084168433,13073.195676214773,-34.42586091550494,0.5490312192677596,-0.1753525967725743,180.08,10456.756926878135,13162.46325448802,150,True,8.925204217892283,False,163.53971310522886,172.9091649139789,False,23.47984238002678,True,False
1,1970-07-23 09:33:43.016352355,2025-09-08,2025-09-26 20:11:41.635,HH,B,3055031184,JASSM,3,122,76,2,2,1,225,9,2,0,1,26,0,0,0,0,-154434.82361014312,-4779723.639619674,4211676.200651646,-2.71064,-1.01089,0.752322,37.25,-59.375,-65.5,0.0,0.0,0.0,0.0,0.0,0.0,2,0,41.56106863292276,-91.85060623629616,12000.003977672655,155.9498190174813,-0.0037133142839703,0.0045278134546318,,10456.756926878135,13162.46325448802,150,1,2025-09-08,2025-09-26 20:11:41.711,HH,B,4121633572,HAWK11,1,1,73,2,1,1,225,2,1,0,0,12,1,225,2,1,-150099.89294608062,-4790418.931611861,4200236.192839146,2.77938,2.32369,-0.705919,-70.875,60.75,66.0,-0.046875,-7.21875,7.34375,0.0859375,0.00195312,0.0234375,4,0,41.42105269059343,-91.79468177788044,13066.391264782447,-32.5242051207538,1.4440142612761218,11.237419679613431,180.947,10456.756926878135,13162.46325448802,150,False,8.768113397946879,False,164.53103276891824,172.57719385612018,False,22.843912885974092,True,False
1,1970-07-23 09:33:43.025981432,2025-09-08,2025-09-26 20:11:42.598,HH,B,3056284150,JASSM,3,122,76,2,2,1,225,9,2,0,1,26,0,0,0,0,-154395.67224295562,-4779786.114229049,4211607.198698521,-2.71064,-1.01089,0.752322,37.25,-59.375,-65.5,0.0,0.0,0.0,0.0,0.0,0.0,2,0,41.56023880926993,-91.8501132425039,12000.003362061692,155.95014607581373,-0.0028051946174364,0.004526493767636,,10456.756926878135,13162.46325448802,150,1,2025-09-08,2025-09-26 20:11:42.415,HH,B,4122468672,HAWK11,1,1,73,2,1,1,225,2,1,0,0,12,1,225,2,1,-150149.36364920562,-4790376.040986861,4200282.255339146,2.8115,2.30318,-0.71589,-69.75,61.25,66.875,-0.015625,-7.26562,7.35938,0.00195312,0.00585938,0.0195312,4,0,41.42160948637823,-91.79528895487562,13064.71846179106,-31.46621888776778,1.4641555323727495,12.337504850848132,181.607,10456.756926878135,13162.46325448802,150,False,8.674297546341593,False,165.2805598962195,172.4214176726787,False,22.25562150191418,True,False
1,1970-07-23 09:33:43.034214083,2025-09-08,2025-09-26 20:11:43.421,HH,B,3057536880,JASSM,3,122,76,2,2,1,225,9,2,0,1,26,0,0,0,0,-154356.52771170562,-4779848.575166549,4211538.208464146,-2.71064,-1.01089,0.752322,37.25,-59.375,-65.5,0.0,0.0,0.0,0.0,0.0,0.0,2,0,41.55940914254648,-91.84962034846828,12000.000498715232,155.95047306260415,-0.0018972467395995,0.00452517937768,,10456.756926878135,13162.46325448802,150,1,2025-09-08,2025-09-26 20:11:43.355,HH,B,4122906104,HAWK11,1,1,73,2,1,1,225,2,1,0,0,12,1,225,2,1,-150174.37536795562,-4790353.750947799,4200306.270964146,2.81207,2.2934,-0.721163,-69.125,61.5,67.375,-0.09375,-7.3125,7.51562,-0.0390625,0.0136719,0.0117188,4,0,41.42189950001462,-91.79559616601291,13063.96413749066,-30.94904970563445,1.5055979805142945,12.015067179922967,182.389,10456.756926878135,13162.46325448802,150,False,8.59970782632924,False,165.69382635490052,172.31841511241592,False,21.948973716038125,True,False
1,1970-07-23 09:33:43.046353068,2025-09-08,2025-09-26 20:11:44.635,HH,B,3058848930,JASSM,3,122,76,2,2,1,225,9,2,0,1,26,0,0,0,0,-154315.52868826812,-4779913.993135299,4211465.950651646,-2.71064,-1.01089,0.752322,37.25,-59.375,-65.5,0.0,0.0,0.0,0.0,0.0,0.0,2,0,41.5585401858541,-91.84910411765064,11999.999897764656,155.9508155253094,-0.000946301192856,0.0045238096071191,,10456.756926878135,13162.46325448802,150,1,2025-09-08,2025-09-26 20:11:44.711,HH,B,4125212568,HAWK11,1,1,73,2,1,1,225,2,1,0,0,12,1,225,2,1,-150306.54138358062,-4790233.008760299,4200439.042448521,2.66433,2.25917,-0.740242,-67.125,62.125,70.25,-0.140625,-7.73438,7.79688,-0.113281,0.00390625,-0.00195312,4,0,41.42348916752063,-91.79722067475558,13065.45895184416,-29.137166578653044,1.7155579544725046,2.292392440103191,182.976,10456.756926878135,13162.46325448802,150,True,8.431232517731257,False,167.23932164164782,171.9724938813611,False,20.77775917184327,True,False
1,1970-07-23 09:33:43.057157396,2025-09-08,2025-09-26 20:11:45.715,HH,B,3060101630,JASSM,3,122,76,2,2,1,225,9,2,0,1,26,0,0,0,0,-154276.38513358062,-4779976.450166549,4211396.962370396,-2.71064,-1.01089,0.752322,37.25,-59.375,-65.5,0.0,0.0,0.0,0.0,0.0,0.0,2,0,41.557710550829086,-91.84861126263048,12000.00252437551,155.95114247524094,-3.839019357239558e-05,0.0045225009350214,,10456.756926878135,13162.46325448802,150,1,2025-09-08,2025-09-26 20:11:45.635,HH,B,4125809068,HAWK11,1,1,73,2,1,1,225,2,1,0,0,12,1,225,2,1,-150340.11755545562,-4790201.897432174,4200474.212370396,2.59971,2.25984,-0.746186,-67.0,61.875,70.875,0.015625,-7.85938,7.90625,-0.148438,0.00976562,0.0,4,0,41.4239053294998,-91.7976335503672,13067.89308027724,-28.993470385127758,2.0260522968930474,-1.379204854953452,183.465,10456.756926878135,13162.46325448802,150,True,8.34818772172904,False,167.35800836845831,171.84480607931087,False,20.79316915649807,True,False
1,1970-07-23 09:33:43.066315660,2025-09-08,2025-09-26 20:11:46.631,HH,B,3061413936,JASSM,3,122,76,2,2,1,225,9,2,0,1,26,0,0,0,0,-154235.37829764312,-4780041.877900924,4211324.686979771,-2.71064,-1.01089,0.752322,37.25,-59.375,-65.5,0.0,0.0,0.0,0.0,0.0,0.0,2,0,41.556841414225566,-91.84809496152614,11999.998266049566,155.95148497307514,0.0009127452344981,0.0045211262604748,,10456.756926878135,13162.46325448802,150,1,2025-09-08,2025-09-26 20:11:46.711,HH,B,4127558800,HAWK11,1,1,73,2,1,1,225,2,1,0,0,12,1,225,2,1,-150439.54919608062,-4790110.590791549,4200579.440886021,2.54737,2.26607,-0.736886,-67.75,61.25,71.75,-0.15625,-6.96875,7.0,-0.0078125,-0.0078125,-0.00390625,4,0,41.42514008634743,-91.7988559504353,13079.479975557442,-29.487712846782657,1.6958903528255311,-4.153139519574817,183.465,10456.756926878135,13162.46325448802,150,True,8.205496803123024,False,167.07835739701522,171.55882398904822,False,21.362816847083167,True,False
1,1970-07-23 09:33:43.077191775,2025-09-08,2025-09-26 20:11:47.719,HH,B,3062666680,JASSM,3,122,76,2,2,1,225,9,2,0,1,26,0,0,0,0,-154196.23376639312,-4780104.334932174,4211255.692839146,-2.71064,-1.0108,0.752418,37.25,-59.375,-65.5,0.0,0.0,0.0,0.0,0.0,0.0,2,0,41.556011735363015,-91.84760212062385,11999.99881043024,155.95046440835745,-0.0048464975520072,0.0007671339441197,,10456.756926878135,13162.46325448802,150,1,2025-09-08,2025-09-26 20:11:47.711,HH,B,4128751798,HAWK11,1,1,73,2,1,1,225,2,1,0,0,12,1,225,2,1,-150507.46130545562,-4790048.815400924,4200650.501432896,2.5233,2.26444,-0.738228,-68.375,61.25,71.75,0.109375,-6.79688,6.90625,0.00390625,0.0,0.015625,4,0,41.4259744547346,-91.79969065867928,13087.086456970408,-29.389987418926083,1.7292029793532615,-5.591648488784821,183.746,10456.756926878135,13162.46325448802,150,True,8.09335213434876,False,166.83056326561717,171.34040775239833,False,21.829008120625335,True,False
1,1970-07-23 09:33:43.088233421,2025-09-08,2025-09-26 20:11:48.823,HH,B,3063919628,JASSM,3,122,76,2,2,1,225,9,2,0,1,26,0,0,0,0,-154157.08142264312,-4780166.801729049,4211186.686979771,-2.71064,-1.0108,0.752418,37.25,-59.375,-65.5,0.0,0.0,0.0,0.0,0.0,0.0,2,0,41.55518191859776,-91.84710919501144,12000.002445173366,155.95079138893084,-0.003938393189189,0.0007658070604898,,10456.756926878135,13162.46325448802,150,1,2025-09-08,2025-09-26 20:11:48.915,HH,B,4130262930,HAWK11,1,1,73,2,1,1,225,2,1,0,0,12,1,225,2,1,-150594.50036795562,-4789970.737275924,4200740.261198521,2.56127,2.26579,-0.728737,-69.0,61.875,71.125,-0.09375,-6.20312,6.26562,0.00390625,-0.00390625,-0.00390625,4,0,41.42702841699817,-91.80076007510011,13096.686352783794,-29.711062468052365,1.2873003091298814,-3.373132673670228,184.198,10456.756926878135,13162.46325448802,150,True,7.9658420982523985,False,166.60852979820845,171.0670108711918,False,22.32073539453836,True,False
1,1970-07-23 09:33:43.099252771,2025-09-08,2025-09-26 20:11:49.925,HH,B,3065231730,JASSM,3,122,76,2,2,1,225,9,2,0,1,26,0,0,0,0,-154116.08142264312,-4780232.215791549,4211114.421354771,-2.71064,-1.0108,0.752418,37.25,-59.375,-65.625,0.0,0.0,0.0,0.0,0.0,0.0,2,0,41.55431292087932,-91.84659302128048,12000.003190130616,155.95113378531832,-0.0029874172826292,0.0007644099152119,,10456.756926878135,13162.46325448802,150,1,2025-09-08,2025-09-26 20:11:50.009,HH,B,4131495696,HAWK11,1,1,73,2,1,1,225,2,1,0,0,12,1,225,2,1,-150665.87927420562,-4789906.364229049,4200812.585417271,2.57383,2.25936,-0.72912,-69.375,62.375,70.75,-0.015625,-6.29688,6.39062,0.0234375,0.0,0.0117188,4,0,41.42788610551539,-91.80163723497787,13100.93301598354,-29.462360184297648,1.171197246668666,-2.893174800663232,184.687,10456.756926878135,13162.46325448802,150,True,7.849573148126692,False,166.47601779123474,170.8374698651051,False,22.673330133929852,True,False
1,1970-07-23 09:33:43.109294014,2025-09-08,2025-09-26 20:11:50.929,HH,B,3066484428,JASSM,3,122,76,2,2,1,225,9,2,0,1,26,0,0,0,0,-154076.93786795562,-4780294.666963424,4211045.425261021,-2.71064,-1.0108,0.752418,37.25,-59.375,-65.625,0.0,0.0,0.0,0.0,0.0,0.0,2,0,41.553483256831605,-91.84610023274617,12000.00117984572,155.9514606639856,-0.0020794902180187,0.0007630710513195,,10456.756926878135,13162.46325448802,150,1,2025-09-08,2025-09-26 20:11:51.120,HH,B,4132847760,HAWK11,1,1,73,2,1,1,225,2,1,0,0,12,1,225,2,1,-150744.77575858062,-4789835.091768111,4200891.706511021,2.5884,2.26022,-0.728737,-69.75,63.0,70.375,-0.078125,-6.82812,6.90625,-0.00585938,-0.0078125,0.0,4,0,41.42882929505258,-91.80260684820412,13103.56061494532,-29.505923464622175,1.1715247963341524,-2.0259918555955974,185.542,10456.756926878135,13162.46325448802,150,True,7.729984953837155,False,166.38012718275277,170.56795379617893,False,23.027018317507146,True,False
1,1970-07-23 09:33:43.120177970,2025-09-08,2025-09-26 20:11:52.017,HH,B,3067796780,JASSM,3,122,76,2,2,1,225,9,2,0,1,26,0,0,0,0,-154035.93005545562,-4780360.090791549,4210973.144011021,-2.71064,-1.0108,0.752418,37.25,-59.375,-65.625,0.0,0.0,0.0,0.0,0.0,0.0,2,0,41.55261409235033,-91.84558398873384,12000.002524051624,155.95180309549391,-0.0011283364376659,0.0007616743572766,,10456.756926878135,13162.46325448802,150,1,2025-09-08,2025-09-26 20:11:52.805,HH,B,4134756558,HAWK11,1,1,73,2,1,1,225,2,1,0,0,12,1,225,2,1,-150856.36169608062,-4789734.216768111,4201003.710417271,2.59013,2.25658,-0.739762,-70.125,61.75,72.0,-0.015625,-7.07812,7.14062,0.0078125,0.0078125,0.00585938,4,0,41.43016436994472,-91.80397827922395,13107.33312646539,-29.05989131099248,1.645889451644667,-2.055744509687833,186.434,10456.756926878135,13162.46325448802,150,True,7.580770083564319,False,166.2879032296111,170.19802760681324,False,23.51291860302617,True,False
1,1970-07-23 09:33:43.131191773,2025-09-08,2025-09-26 20:11:53.119,HH,B,3069109184,JASSM,3,122,76,2,2,1,225,9,2,0,1,26,0,0,0,0,-153994.92028983062,-4780425.514619674,4210900.856901646,-2.71064,-1.0108,0.752418,37.25,-59.375,-65.625,0.0,0.0,0.0,0.0,0.0,0.0,2,0,41.55174488633745,-91.84506773516728,11999.996723369282,155.95214552745574,-0.0001771396916763,0.0007602776968085,,10456.756926878135,13162.46325448802,150,1,2025-09-08,2025-09-26 20:11:53.117,HH,B,4134955392,HAWK11,1,1,73,2,1,1,225,2,1,0,0,12,1,225,2,1,-150867.62536795562,-4789723.873994674,4201014.784636021,2.59003,2.25639,-0.738037,-70.25,63.125,70.625,-0.078125,-7.07812,7.15625,-0.00195312,0.00390625,-0.00585938,4,0,41.43029852477501,-91.804116777201,13106.8179741086,-29.101670663804175,1.556022632455291,-2.06978106967464,186.789,10456.756926878135,13162.46325448802,150,True,7.515198706450367,False,166.26177932232233,170.09317858632951,False,23.62181208999906,True,False
1,1970-07-23 09:33:43.142232846,2025-09-08,2025-09-26 20:11:54.223,HH,B,3070421938,JASSM,3,122,76,2,2,1,225,9,2,0,1,26,0,0,0,0,-153953.89880545562,-4780490.956025924,4210828.550261021,-2.71064,-1.0108,0.752418,37.25,-59.375,-65.625,0.0,0.0,0.0,0.0,0.0,0.0,2,0,41.55087544373486,-91.84455134834604,11999.996391735323,155.95248804191914,0.0007743158717903,0.0007588861244088,,10456.756926878135,13162.46325448802,150,1,2025-09-08,2025-09-26 20:11:53.711,HH,B,4135949558,HAWK11,1,1,73,2,1,1,225,2,1,0,0,12,1,225,2,1,-150926.70153983062,-4789670.742158736,4201073.858854771,2.59617,2.25371,-0.738899,-70.5,63.25,70.75,0.0,-6.85938,6.90625,0.0136719,0.0,0.00195312,4,0,41.431002201360656,-91.80484276692738,13109.01184164117,-28.97876123420379,1.5439639730417314,-1.818278602939705,186.984,10456.756926878135,13162.46325448802,150,True,7.4101020738450485,False,166.21553962706088,169.85169490342497,False,23.90945531043573,True,False
1,1970-07-23 09:33:43.154233158,2025-09-08,2025-09-26 20:11:55.423,HH,B,3071793630,JASSM,3,122,76,2,2,1,225,9,2,0,1,26,0,0,0,0,-153911.03650076812,-4780559.334932174,4210752.997526646,-2.71064,-1.0108,0.752513,37.25,-59.375,-65.625,0.0,0.0,0.0,0.0,0.0,0.0,2,0,41.54996696842232,-91.84401180335978,12000.001308073688,155.95513983352382,-0.003220926316553,0.0007573974222084,,10456.756926878135,13162.46325448802,150,1,2025-09-08,2025-09-26 20:11:55.211,HH,B,4137739056,HAWK11,1,1,73,2,1,1,225,2,1,0,0,12,1,225,2,1,-151032.65466483062,-4789575.697236861,4201179.507292271,2.60249,2.25428,-0.749541,-70.75,63.125,71.125,-0.03125,-7.10938,7.20312,0.0,0.0,-0.00195312,4,0,41.43226073123791,-91.80614477543553,13112.912642263338,-28.700821483001157,2.0884232458024257,-1.4243189502408813,187.632,10456.756926878135,13162.46325448802,150,True,7.2641759420604,False,166.1703321986707,169.46256382998016,False,24.350068271340476,True,False
1,1970-07-23 09:33:43.165282297,2025-09-08,2025-09-26 20:11:56.528,HH,B,3073105836,JASSM,3,122,76,2,2,1,225,9,2,0,1,26,0,0,0,0,-153870.03357108062,-4780624.747041549,4210680.718229771,-2.71064,-1.0108,0.752513,37.25,-59.375,-65.625,0.0,0.0,0.0,0.0,0.0,0.0,2,0,41.549097876157646,-91.84349567827245,12000.001834020406,155.95548216246996,-0.0022698660999509,0.0007560291412765,,10456.756926878135,13162.46325448802,150,1,2025-09-08,2025-09-26 20:11:56.509,HH,B,4139289954,HAWK11,1,1,73,2,1,1,225,2,1,0,0,12,1,225,2,1,-151124.86950858062,-4789493.458955611,4201271.534636021,2.60825,2.25121,-0.751651,-70.875,63.125,71.25,0.078125,-6.95312,7.0,-0.00195312,0.0,0.0078125,4,0,41.433353713636144,-91.80727781911273,13117.676324058371,-28.530124835328056,2.1319507518921887,-1.2080827411570123,188.194,10456.756926878135,13162.46325448802,150,True,7.132531910307235,False,166.14733878263394,169.1027076698395,False,24.734441775799148,True,False
1,1970-07-23 09:33:43.175329688,2025-09-08,2025-09-26 20:11:57.532,HH,B,3074358982,JASSM,3,122,76,2,2,1,225,9,2,0,1,26,0,0,0,0,-153830.87536795562,-4780687.211885299,4210611.692839146,-2.71054,-1.0108,0.752513,37.25,-59.375,-65.625,0.0,0.0,0.0,0.0,0.0,0.0,2,0,41.5482679220425,-91.84300278830068,12000.001461036092,155.95580907483037,-0.0013616309847258,0.0062462095879956,,10456.756926878135,13162.46325448802,150,1,2025-09-08,2025-09-26 20:11:57.805,HH,B,4140761318,HAWK11,1,1,73,2,1,1,225,2,1,0,0,12,1,225,2,1,-151211.89294608062,-4789415.694307174,4201359.038542271,2.64113,2.24517,-0.752609,-70.875,61.875,72.875,0.265625,-6.78125,6.84375,0.0917969,0.00585938,0.0,4,0,41.43439051789599,-91.80834716928594,13123.226531363123,-28.283309361330097,2.057747242022369,0.4488903361292261,188.866,10456.756926878135,13162.46325448802,150,True,7.007616788874517,False,166.1860665134929,168.75004897072333,False,25.06387789062343,True,False
1,1970-07-23 09:33:43.186192191,2025-09-08,2025-09-26 20:11:58.619,HH,B,3075671256,JASSM,3,122,76,2,2,1,225,9,2,0,1,26,0,0,0,0,-153789.86853201812,-4780752.623994674,4210539.407682896,-2.71054,-1.0107,0.752513,37.25,-59.375,-65.625,0.0,0.0,0.0,0.0,0.0,0.0,2,0,41.5473987862814,-91.8424866434728,12000.00018809409,155.95250932641923,-0.0020851428051391,0.0024916491426896,,10456.756926878135,13162.46325448802,150,1,2025-09-08,2025-09-26 20:11:58.711,HH,B,4141795252,HAWK11,1,1,73,2,1,1,225,2,1,0,0,12,1,225,2,1,-151273.74255545562,-4789359.601533736,4201421.306120396,2.71687,2.23549,-0.752322,-70.625,63.875,71.875,-0.140625,-6.96875,6.98438,0.0332031,0.00585938,0.0117188,4,0,41.43513281060445,-91.80910751291508,13125.319139329991,-27.93713717017376,1.8482635096677595,4.421274044049933,188.83,10456.756926878135,13162.46325448802,150,True,6.900706633733689,False,166.52287202867234,168.46211000464803,False,24.998211424936482,True,False
1,1970-07-23 09:33:43.197211603,2025-09-08,2025-09-26 20:11:59.721,HH,B,3076983542,JASSM,3,122,76,2,2,1,225,9,2,0,1,26,0,0,0,0,-153748.86267264312,-4780818.036104049,4210467.120573521,-2.71054,-1.0107,0.752513,37.25,-59.375,-65.625,0.0,0.0,0.0,0.0,0.0,0.0,2,0,41.54652963473101,-91.84197052416133,12000.00050231158,155.95285163419518,-0.0011340240209835,0.0024902231038593,,10456.756926878135,13162.46325448802,150,1,2025-09-08,2025-09-26 20:11:59.619,HH,B,4143028016,HAWK11,1,1,73,2,1,1,225,2,1,0,0,12,1,225,2,1,-151345.65271170562,-4789293.412080611,4201495.249479771,2.80766,2.20385,-0.763443,-69.625,64.25,72.625,-0.015625,-7.0625,7.01562,0.154297,0.00195312,0.0351562,4,0,41.43601206534255,-91.80999192403377,13128.727625776715,-26.475557250241614,1.7898341724041165,8.423785361899268,189.538,10456.756926878135,13162.46325448802,150,True,6.784760599640023,False,167.1351091675782,168.13343715474275,False,24.719346187044714,True,False
1,1970-07-23 09:33:43.209608957,2025-09-08,2025-09-26 20:12:00.960,HH,B,3078355240,JASSM,3,122,76,2,2,1,225,9,2,0,1,26,0,0,0,0,-153705.99939139312,-4780886.407197799,4210391.560026646,-2.71054,-1.0107,0.752513,37.25,-59.375,-65.625,0.0,0.0,0.0,0.0,0.0,0.0,2,0,41.54562114079955,-91.84143104275172,11999.99927329574,155.9532094302156,-0.0001398503715463,0.0024887435327995,,10456.756926878135,13162.46325448802,150,1,2025-09-08,2025-09-26 20:12:00.805,HH,B,4144419848,HAWK11,1,1,73,2,1,1,225,2,1,0,0,12,1,225,2,1,-151426.11267264312,-4789216.836885299,4201581.069792271,3.08714,2.17979,-0.778879,-66.75,65.625,73.875,-0.203125,-7.375,7.26562,0.158203,0.015625,0.0292969,4,0,41.43703164086293,-91.8109824665413,13133.06421612744,-25.192433313372803,2.1279791152385306,23.5194465974957,189.734,10456.756926878135,13162.46325448802,150,False,6.657296238984808,False,168.77781463973977,167.76303188743086,False,23.447306845126697,True,False
1,1970-07-23 09:33:43.225152648,2025-09-08,2025-09-26 20:12:02.515,HH,B,3079667592,JASSM,3,122,76,2,2,1,225,9,2,0,1,26,0,0,0,0,-153664.99157889312,-4780951.819307174,4210319.267057896,-2.71054,-1.0107,0.752609,37.25,-59.375,-65.625,0.0,0.0,0.0,0.0,0.0,0.0,2,0,41.54475194515507,-91.8409149283312,11999.998465095328,155.95584739988973,-0.0041810477804247,0.0024872499961558,,10456.756926878135,13162.46325448802,150,1,2025-09-08,2025-09-26 20:12:02.635,HH,B,4146288880,HAWK11,1,1,73,2,1,1,225,2,1,0,0,12,1,225,2,1,-151527.25818045562,-4789110.639619674,4201699.667448521,-3.08129,2.07787,-0.784823,-60.625,68.125,77.125,0.03125,-8.0,7.95312,-0.0273438,0.015625,0.0351562,4,0,41.4384447357873,-91.81223146925537,13137.368849893805,-21.28458856379348,0.7118519566178914,26.075859627761258,190.675,10456.756926878135,13162.46325448802,150,False,6.507189825657676,False,172.29848751777402,167.32364012610105,False,20.376438480960722,True,False
1,1970-07-23 09:33:43.231171724,2025-09-08,2025-09-26 20:12:03.117,HH,B,3080980006,JASSM,3,122,76,2,2,1,225,9,2,0,1,26,0,0,0,0,-153623.98083670562,-4781017.233369674,4210246.970182896,-2.71054,-1.0107,0.752609,37.25,-59.375,-65.625,0.0,0.0,0.0,0.0,0.0,0.0,2,0,41.54388270966574,-91.84039879190986,11999.999480606684,155.9561897012172,-0.003229840598593,0.0024858713055899,,10456.756926878135,13162.46325448802,150,1,2025-09-08,2025-09-26 20:12:03.415,HH,B,4147481878,HAWK11,1,1,73,2,1,1,225,2,1,0,0,12,1,225,2,1,-151586.36560233062,-4789040.884736861,4201778.190886021,-3.11676,2.06359,-0.784535,-56.625,69.75,79.25,-0.296875,-7.78125,7.6875,-0.0625,0.0175781,0.00976562,4,0,41.43937849525643,-91.81296429766084,13140.98969629468,-20.75558084747404,0.4775859990984619,23.470712745526285,190.797,10456.756926878135,13162.46325448802,150,False,6.390139977708679,False,174.57292908775685,167.0193957694521,False,18.406248761019153,True,False
1,1970-07-23 09:33:43.242193087,2025-09-08,2025-09-26 20:12:04.219,HH,B,3082351944,JASSM,3,122,76,2,2,1,225,9,2,0,1,26,0,0,0,0,-153581.11071951812,-4781085.612275924,4210171.394011021,-2.71054,-1.0107,0.752609,37.25,-59.375,-65.625,0.0,0.0,0.0,0.0,0.0,0.0,2,0,41.54297405741848,-91.83985926966136,12000.0012259963,155.95654750572015,-0.0022355030968821,0.0024844281616432,,10456.756926878135,13162.46325448802,150,1,2025-09-08,2025-09-26 20:12:04.415,HH,B,4148674878,HAWK11,1,1,73,2,1,1,225,2,1,0,0,12,1,225,2,1,-151641.51696951812,-4788969.566377486,4201858.661589146,3.14092,2.0192,-0.78885,-53.0,71.0,81.25,0.046875,-7.85938,7.75,-0.0390625,0.0117188,0.0410156,4,0,41.44033543704742,-91.81365045527116,13144.694958732796,-18.991836891855904,0.0610485414270088,20.21710815413824,191.152,10456.756926878135,13162.46325448802,150,False,6.269779547138308,False,176.5474426402008,166.71946777858577,False,16.69822845414482,True,False
1,1970-07-23 09:33:43.254351663,2025-09-08,2025-09-26 20:12:05.435,HH,B,3083604646,JASSM,3,122,76,2,2,1,225,9,2,0,1,26,0,0,0,0,-153541.96618826812,-4781148.047822799,4210102.384245396,-2.71054,-1.0107,0.752609,37.25,-59.375,-65.625,0.0,0.0,0.0,0.0,0.0,0.0,2,0,41.54214436419948,-91.83936664763203,12000.002776541492,155.95687420096095,-0.001327573690881,0.0024831084586727,,10456.756926878135,13162.46325448802,150,1,2025-09-08,2025-09-26 20:12:05.415,HH,B,4149907642,HAWK11,1,1,73,2,1,1,225,2,1,0,0,12,1,225,2,1,-151694.54528983062,-4788894.821260299,4201943.774870396,3.12779,1.98459,-0.796136,-49.5,72.25,83.0,0.015625,-7.65625,7.60938,-0.0429688,0.0195312,0.0214844,4,0,41.44134448860584,-91.814312554893,13149.899825639231,-17.540649873272738,-0.0103482346804435,18.053131549523464,191.494,10456.756926878135,13162.46325448802,150,False,6.151758638460616,False,178.2809606733101,166.43392443905972,False,15.080991477886366,True,False
1,1970-07-23 09:33:43.264757879,2025-09-08,2025-09-26 20:12:06.475,HH,B,3084916988,JASSM,3,122,76,2,2,1,225,9,2,0,1,26,0,0,0,0,-153500.95739920562,-4781213.454072799,4210030.087370396,-2.71054,-1.0107,0.752609,37.25,-59.375,-65.625,0.0,0.0,0.0,0.0,0.0,0.0,2,0,41.54127516759111,-91.83885057906436,12000.002053697042,155.95721643964058,-0.0003764163369337,0.0024817305011343,,10456.756926878135,13162.46325448802,150,1,2025-09-08,2025-09-26 20:12:06.120,HH,B,4150742742,HAWK11,1,1,73,2,1,1,225,2,1,0,0,12,1,225,2,1,-151728.46716483062,-4788843.987275924,4202002.155729771,3.10909,1.96119,-0.804956,-47.375,72.625,84.125,0.0,-7.73438,7.70312,-0.0566406,0.00585938,0.0195312,4,0,41.44203448618912,-91.81473725001396,13154.353354047817,-16.49596579250489,0.1759862188937132,16.02154589267388,191.42,10456.756926878135,13162.46325448802,150,False,6.0521099142681285,False,178.74466792551505,166.19921007112055,False,14.239602186075755,True,False
1,1970-07-23 09:33:43.274272706,2025-09-08,2025-09-26 20:12:07.427,HH,B,3086170116,JASSM,3,122,76,2,2,1,225,9,2,0,1,26,0,0,0,0,-153461.79919608062,-4781275.907197799,4209961.050261021,-2.71054,-1.0107,0.752609,37.25,-59.375,-65.625,0.0,0.0,0.0,0.0,0.0,0.0,2,0,41.54044518341165,-91.8383578124012,11999.996927224433,155.95754321981929,0.0005318268540024,0.0024804105681056,,10456.756926878135,13162.46325448802,150,1,2025-09-08,2025-09-26 20:12:07.710,HH,B,4152611774,HAWK11,1,1,73,2,1,1,225,2,1,0,0,12,1,225,2,1,-151799.37634451812,-4788729.004854049,4202135.532682896,3.04198,1.90645,-0.812339,-43.625,73.5,86.375,0.015625,-7.42188,7.34375,-0.0507812,0.00976562,0.0234375,4,0,41.44360522798955,-91.81562835151333,13166.862314240478,-14.300965514152413,-0.041592304728397,9.909971115837203,191.811,10456.756926878135,13162.46325448802,150,True,5.899379210668652,False,177.59060995261183,165.84854739925834,False,12.677026414377186,True,False
1,1970-07-23 09:33:43.285332304,2025-09-08,2025-09-26 20:12:08.533,HH,B,3087482044,JASSM,3,122,76,2,2,1,225,9,2,0,1,26,0,0,0,0,-153420.80407889312,-4781341.290010299,4209888.774870396,-2.71054,-1.0107,0.752609,37.25,-59.375,-65.625,0.0,0.0,0.0,0.0,0.0,0.0,2,0,41.53957626389642,-91.8378419435179,11999.997758805686,155.95788531458052,0.0014826744121058,0.0024790293787549,,10456.756926878135,13162.46325448802,150,1,2025-09-08,2025-09-26 20:12:08.617,HH,B,4153446872,HAWK11,1,1,73,2,1,1,225,2,1,0,0,12,1,225,2,1,-151829.28552420562,-4788677.065400924,4202196.200651646,3.03843,1.89418,-0.81464,-42.25,73.875,87.125,-0.171875,-7.3125,7.26562,-0.00390625,0.00976562,0.0078125,4,0,41.444317984261694,-91.81600553058456,13173.26430485428,-13.800528755183365,-0.0416659226048958,9.195516714219774,191.921,10456.756926878135,13162.46325448802,150,True,5.79901871158919,False,176.945571315209,165.61617808319627,False,12.218032225996728,True,False
1,1970-07-23 09:33:43.296192330,2025-09-08,2025-09-26 20:12:09.619,HH,B,3088734746,JASSM,3,122,76,2,2,1,225,9,2,0,1,26,0,0,0,0,-153381.65857108062,-4781403.721650924,4209819.761198521,-2.71054,-1.01061,0.752705,37.25,-59.375,-65.625,0.0,0.0,0.0,0.0,0.0,0.0,2,0,41.53874655872056,-91.8373493628694,12000.002641340829,155.95686036782348,-0.0042752897371418,-0.0012807954902866,,10456.756926878135,13162.46325448802,150,1,2025-09-08,2025-09-26 20:12:09.805,HH,B,4154958004,HAWK11,1,1,73,2,1,1,225,2,1,0,0,12,1,225,2,1,-151881.50134451812,-4788582.278291549,4202306.716276646,3.0253,1.8589,-0.794602,-40.5,75.25,87.5,-0.03125,-5.39062,5.42188,-0.0351562,-0.0253906,0.0253906,4,0,41.44561782082713,-91.81666559215836,13184.337072687831,-12.72800784499137,-1.500213254623047,6.971931399359217,191.335,10456.756926878135,13162.46325448802,150,True,5.664410831743786,False,176.26052476578374,165.31178489953493,False,11.496657392589965,True,False
1,1970-07-23 09:33:43.306232053,2025-09-08,2025-09-26 20:12:10.623,HH,B,3089987444,JASSM,3,122,76,2,2,1,225,9,2,0,1,26,0,0,0,0,-153342.51403983062,-4781466.149385299,4209750.745573521,-2.71054,-1.01061,0.752705,37.25,-59.25,-65.625,0.0,0.0,0.0,0.0,0.0,0.0,2,0,41.537916861270205,-91.83685680800204,11999.999012571245,155.95718699137043,-0.0033673671210496,-0.0012821358574985,,10456.756926878135,13162.46325448802,150,1,2025-09-08,2025-09-26 20:12:10.710,HH,B,4156190770,HAWK11,1,1,73,2,1,1,225,2,1,0,0,12,1,225,2,1,-151922.77966483062,-4788502.534150924,4202396.704557896,2.98791,1.83435,-0.787795,-39.375,77.25,86.875,0.109375,-5.79688,5.76562,-0.0605469,-0.0175781,0.00390625,4,0,41.44669171123193,-91.8171892354678,13186.965984927538,-11.853703561973166,-2.10332329126192,3.8020929615077055,192.007,10456.756926878135,13162.46325448802,150,True,5.544321729858127,False,175.8452946473122,165.00994661444273,False,10.960283551774726,True,False
1,1970-07-23 09:33:43.318435381,2025-09-08,2025-09-26 20:12:11.843,HH,B,3091299794,JASSM,3,122,76,2,2,1,225,9,2,0,1,26,0,0,0,0,-153301.50525076812,-4781531.549775924,4209678.442839146,-2.71054,-1.01061,0.752705,37.25,-59.25,-65.625,0.0,0.0,0.0,0.0,0.0,0.0,2,0,41.53704764823984,-91.836340808897,11999.999177651842,155.95752915553808,-0.0024162056581251,-0.0012835397370875,,10456.756926878135,13162.46325448802,150,1,2025-09-08,2025-09-26 20:12:12.011,HH,B,4157741668,HAWK11,1,1,73,2,1,1,225,2,1,0,0,12,1,225,2,1,-151973.30896170562,-4788400.258760299,4202508.690886021,2.89932,1.82371,-0.780125,-38.875,79.25,86.375,0.0,-6.14062,5.92188,-0.0742188,0.00195312,0.00390625,4,0,41.44804635648499,-91.81783202472916,13182.717854146087,-11.526396699793274,-2.623729525063265,-1.7174375621549345,192.826,10456.756926878135,13162.46325448802,150,True,5.404388984345732,False,175.48064046736872,164.68624401278603,False,10.795064021916325,True,False
1,1970-07-23 09:33:43.328277988,2025-09-08,2025-09-26 20:12:12.827,HH,B,3092552788,JASSM,3,122,76,2,2,1,225,9,2,0,1,26,0,0,0,0,-153262.35095389312,-4781593.991182174,4209609.409636021,-2.71054,-1.01061,0.752705,37.25,-59.25,-65.625,0.0,0.0,0.0,0.0,0.0,0.0,2,0,41.53621774815117,-91.83584815766608,12000.00084530902,155.9578558320072,-0.0015080646350619,-0.0012848773446719,,10456.756926878135,13162.46325448802,150,1,2025-09-08,2025-09-26 20:12:12.711,HH,B,4158656300,HAWK11,1,1,73,2,1,1,225,2,1,0,0,12,1,225,2,1,-152002.87927420562,-4788339.717744674,4202573.854948521,2.85848,1.82611,-0.779933,-39.125,80.125,86.125,0.015625,-6.59375,6.28125,-0.0292969,-0.00195312,-0.00195312,4,0,41.44884070005835,-91.8182084659402,13177.73909525098,-11.624493149826916,-2.612977786511576,-3.9563591225439447,193.473,10456.756926878135,13162.46325448802,150,True,5.302144362685667,False,175.47967856522226,164.42873833413591,False,11.066322167670913,True,False
1,1970-07-23 09:33:43.338309035,2025-09-08,2025-09-26 20:12:13.830,HH,B,3093805636,JASSM,3,122,76,2,2,1,225,9,2,0,1,26,0,0,0,0,-153223.20153983062,-4781656.424775924,4209540.382292271,-2.71045,-1.01061,0.752705,37.25,-59.25,-65.625,0.0,0.0,0.0,0.0,0.0,0.0,2,0,41.53538793095922,-91.83535558047473,12000.001718604237,155.95818245401935,-0.00060001996107,0.0042052497977579,,10456.756926878135,13162.46325448802,150,1,2025-09-08,2025-09-26 20:12:13.915,HH,B,4160048132,HAWK11,1,1,73,2,1,1,225,2,1,0,0,12,1,225,2,1,-152048.63025076812,-4788245.885713424,4202673.745573521,2.82933,1.84212,-0.77955,-39.625,81.25,85.875,-0.03125,-6.67188,6.25,-0.0195312,-0.00390625,0.00585938,4,0,41.45006439628622,-91.81879097357113,13167.621880735209,-12.26692615814774,-2.490811351161512,-4.952515407737311,194.097,10456.756926878135,13162.46325448802,150,True,5.173186667653015,False,175.50640140958868,164.10101138114038,False,11.5009994297337,True,False
