Subject_cm,Timestamp,SampleDate_cm,SampleTime_cm,Configuration_cm,Scenario_cm,DisTime_cm,MarkingTxt_cm,Application_cm,EntId_cm,Site_cm,ExerciseId_cm,ForceId_cm,Category_cm,Country_cm,Domain_cm,Kind_cm,Extra_cm,Specific_cm,Subcategory_cm,AltCategory_cm,AltCountry_cm,AltDomain_cm,AltKind_cm,ECEF_X_cm,ECEF_Y_cm,ECEF_Z_cm,OriPhi_cm,OriPsi_cm,OriTheta_cm,LinVelX_cm,LinVelY_cm,LinVelZ_cm,LinAccX_cm,LinAccY_cm,LinAccZ_cm,AngVelX_cm,AngVelY_cm,AngVelZ_cm,DrAlg_cm,Appearance_cm,Latitude_cm,Longitude_cm,Altitude_cm,Heading_cm,Pitch_cm,Roll_cm,CalibratedAirspeed_cm,CM_Altitude_Lead_cm,CM_Altitude_Wing_cm,CM_Airspeed_cm,Subject_ac,SampleDate_ac,SampleTime_ac,Configuration_ac,Scenario_ac,DisTime_ac,MarkingTxt_ac,Application_ac,EntId_ac,Site_ac,ExerciseId_ac,ForceId_ac,Category_ac,Country_ac,Domain_ac,Kind_ac,Extra_ac,Specific_ac,Subcategory_ac,AltCategory_ac,AltCountry_ac,AltDomain_ac,AltKind_ac,ECEF_X_ac,ECEF_Y_ac,ECEF_Z_ac,OriPhi_ac,OriPsi_ac,OriTheta_ac,LinVelX_ac,LinVelY_ac,LinVelZ_ac,LinAccX_ac,LinAccY_ac,LinAccZ_ac,AngVelX_ac,AngVelY_ac,AngVelZ_ac,DrAlg_ac,Appearance_ac,Latitude_ac,Longitude_ac,Altitude_ac,Heading_ac,Pitch_ac,Roll_ac,CalibratedAirspeed_ac,CM_Altitude_Lead_ac,CM_Altitude_Wing_ac,CM_Airspeed_ac,Bank_Angle_Condition,distance_nm,Distance_Condition,angle_between_vel,angle_between_pos,Cone_Condition,angle_between_pos_nose,Nose_Cone_Condition,Intercept_Criteria
1,1970-07-23 10:27:51.530238737,2025-09-12,2025-09-26 14:25:53.023,AH,C,3137471034,JASSM,3,125,76,2,2,1,225,9,2,0,1,26,0,0,0,0,-163297.16638358062,-4785537.928682174,4204318.759245396,-2.36559,-0.397301,0.382249,74.0,-31.0,-32.125,0.0,0.0,0.0,0.0,0.0,0.0,2,0,41.4750772774318,-91.95434864381356,10997.37427873531,119.8531642231242,-0.0043371791792848,0.0050463555567149,,10022.661867135384,12264.339701119052,150,1,2025-09-12,2025-09-26 14:25:52.924,AH,C,1524050336,AMBUSH51,1,1,48,2,1,1,225,2,1,0,0,9,1,225,2,1,-144593.74995892835,-4793070.105593684,4196021.4398050085,2.29702,2.85146,-0.31465,-100.842,31.2309,34.1673,0.0406602,-7.32811,6.47873,-0.0030075,0.00834214,-0.00222936,4,0,41.377838895081325,-91.72793212546314,10026.924192688031,-66.8030335128142,1.2122981957341463,-1.8953364222811249,182.279,10022.661867135384,12264.339701119052,150,True,11.732023327867767,False,173.5146923032338,179.08355581551405,False,6.271907353774218,True,False
1,1970-07-23 10:27:51.535837174,2025-09-12,2025-09-26 14:25:53.583,AH,C,3138663944,JASSM,3,125,76,2,2,1,225,9,2,0,1,26,0,0,0,0,-163223.13806326812,-4785569.000947799,4204286.483854771,-2.36559,-0.397301,0.382249,74.0,-31.0,-32.125,0.0,0.0,0.0,0.0,0.0,0.0,2,0,41.47468961644783,-91.95345068192724,10997.375596856236,119.85375893588969,-0.0035606924130511,0.005045042598319,,10022.661867135384,12264.339701119052,150,1,2025-09-12,2025-09-26 14:25:53.624,AH,C,1524885436,AMBUSH51,1,1,48,2,1,1,225,2,1,0,0,9,1,225,2,1,-144664.33400568552,-4793048.026335334,4196045.1220892025,2.29558,2.85278,-0.313781,-100.909,31.1327,34.0892,-0.249254,-7.28153,6.70664,0.00775334,-0.00375027,-0.000981,4,0,41.37811744891989,-91.72878306986424,10029.194587029564,-66.88934756736445,1.2310105547420718,-1.9564732155392484,182.267,10022.661867135384,12264.339701119052,150,True,11.643987746426564,False,173.4414137149278,179.08256218352645,False,6.365915136381074,True,False
1,1970-07-23 10:27:51.544292702,2025-09-12,2025-09-26 14:25:54.429,AH,C,3139856990,JASSM,3,125,76,2,2,1,225,9,2,0,1,26,0,0,0,0,-163149.10095389312,-4785600.075166549,4204254.204557896,-2.36559,-0.397301,0.382249,74.0,-31.0,-32.125,0.0,0.0,0.0,0.0,0.0,0.0,2,0,41.47430191224056,-91.95255262484012,10997.376336845213,119.85435370713476,-0.0027841187634002,0.0050437377228795,,10022.661867135384,12264.339701119052,150,1,2025-09-12,2025-09-26 14:25:54.359,AH,C,1525760302,AMBUSH51,1,1,48,2,1,1,225,2,1,0,0,9,1,225,2,1,-144738.3138810852,-4793025.012368614,4196069.807029254,2.35251,2.85432,-0.314541,-100.893,31.2133,33.9695,-0.304491,-7.17353,6.59396,0.111465,0.00349228,-0.0112737,4,0,41.37840771570479,-91.7296749151641,10031.594872907232,-66.91598491094099,1.322501001591195,1.33212688856341,182.353,10022.661867135384,12264.339701119052,150,True,11.554003552541442,False,173.43755604495033,179.0811637408394,False,6.403438267753172,True,False
1,1970-07-23 10:27:51.554431024,2025-09-12,2025-09-26 14:25:55.443,AH,C,3141050036,JASSM,3,125,76,2,2,1,225,9,2,0,1,26,0,0,0,0,-163075.06384451812,-4785631.147432174,4204221.925261021,-2.36559,-0.397301,0.382249,74.0,-31.0,-32.125,0.0,0.0,0.0,0.0,0.0,0.0,2,0,41.473914212629744,-91.95165457925177,10997.376126677354,119.85494846619326,-0.0020075513699984,0.0050424426098692,,10022.661867135384,12264.339701119052,150,1,2025-09-12,2025-09-26 14:25:55.391,AH,C,1526993068,AMBUSH51,1,1,48,2,1,1,225,2,1,0,0,9,1,225,2,1,-144841.63571063703,-4792992.474177175,4196104.748220164,2.41575,2.85594,-0.316579,-100.572,31.4876,34.5497,-0.302778,-7.39466,6.70324,0.0166125,0.00661317,0.0124097,4,0,41.37881859862696,-91.73092064082164,10034.987383046338,-66.89264984407436,1.4678529263822648,4.984827548159815,181.95,10022.661867135384,12264.339701119052,150,True,11.446622042018342,False,173.77987704399632,179.0794828691208,False,6.076665922285856,True,False
1,1970-07-23 10:27:51.568190629,2025-09-12,2025-09-26 14:25:56.819,AH,C,3142243082,JASSM,3,125,76,2,2,1,225,9,2,0,1,26,0,0,0,0,-163001.02673514312,-4785662.219697799,4204189.644011021,-2.36559,-0.397301,0.382249,74.0,-30.875,-32.125,0.0,0.0,0.0,0.0,0.0,0.0,2,0,41.473526492812425,-91.95075654436572,10997.375520871556,119.85554321359342,-0.0012309773683214,0.005041136044749,,10022.661867135384,12264.339701119052,150,1,2025-09-12,2025-09-26 14:25:56.825,AH,C,1528703032,AMBUSH51,1,1,48,2,1,1,225,2,1,0,0,9,1,225,2,1,-144985.14036507567,-4792946.232652505,4196154.517901915,2.41305,2.83905,-0.33469,-99.8818,32.3846,35.4065,-0.183669,-7.21683,6.75493,-0.0226088,-0.00154484,0.00712084,4,0,41.37940386301014,-91.7326512451266,10039.817542700825,-65.50973002481352,1.5202598975502568,4.556641425890597,182.194,10022.661867135384,12264.339701119052,150,True,11.315131839521426,False,174.5654259019972,179.13846072818697,False,5.389026456820488,True,False
1,1970-07-23 10:27:51.574510707,2025-09-12,2025-09-26 14:25:57.451,AH,C,3143436128,JASSM,3,125,76,2,2,1,225,9,2,0,1,26,0,0,0,0,-162926.98962576812,-4785693.291963424,4204157.360807896,-2.36559,-0.397205,0.382249,74.0,-30.875,-32.125,0.0,0.0,0.0,0.0,0.0,0.0,2,0,41.47313875278866,-91.9498585201823,10997.374519531702,119.85250006763177,-0.0040240521317726,0.0029909604920522,,10022.661867135384,12264.339701119052,150,1,2025-09-12,2025-09-26 14:25:57.658,AH,C,1529697198,AMBUSH51,1,1,48,2,1,1,225,2,1,0,0,9,1,225,2,1,-145068.3253336108,-4792918.85313379,4196184.137423509,2.39055,2.83853,-0.332651,-99.6517,32.5461,36.0595,-0.182204,-7.17988,6.59263,-0.0280412,-0.00665686,-0.00234795,4,0,41.379751725186594,-91.73365464163912,10042.878178171764,-65.57538458301578,1.4199580146058002,3.2559908246531264,182.157,10022.661867135384,12264.339701119052,150,True,11.219082756040674,False,174.86261561797204,179.1332789984832,False,5.0831564974367085,True,False
1,1970-07-23 10:27:51.584270299,2025-09-12,2025-09-26 14:25:58.427,AH,C,3144569792,JASSM,3,125,76,2,2,1,225,9,2,0,1,26,0,0,0,0,-162856.63806326812,-4785722.815400924,4204126.685026646,-2.36559,-0.397205,0.382249,74.0,-30.875,-32.125,0.0,0.0,0.0,0.0,0.0,0.0,2,0,41.47277032261681,-91.94900521014988,10997.37288467248,119.85306518631384,-0.0032861374245941,0.0029896737108762,,10022.661867135384,12264.339701119052,150,1,2025-09-12,2025-09-26 14:25:58.358,AH,C,1530532296,AMBUSH51,1,1,48,2,1,1,225,2,1,0,0,9,1,225,2,1,-145137.98377000864,-4792895.753145354,4196209.108087976,2.36466,2.83526,-0.335949,-99.491,32.6997,36.2809,-0.165664,-7.31089,6.55231,-0.0516872,0.00141376,0.014715,4,0,41.38004517292439,-91.73449494838594,10045.383112938867,-65.31677779776307,1.423248224432095,1.7175099885094067,182.157,10022.661867135384,12264.339701119052,150,True,11.133334497896266,False,175.01716033912223,179.12799206204312,False,4.941226385814594,True,False
1,1970-07-23 10:27:51.594312149,2025-09-12,2025-09-26 14:25:59.431,AH,C,3145822222,JASSM,3,125,76,2,2,1,225,9,2,0,1,26,0,0,0,0,-162778.91540701812,-4785755.432588424,4204092.796354771,-2.36559,-0.397205,0.382345,74.0,-30.875,-32.125,0.0,0.0,0.0,0.0,0.0,0.0,2,0,41.47236328806746,-91.9480625055131,10997.378708365946,119.85753689743814,-0.0063916983610065,0.0029879591990559,,10022.661867135384,12264.339701119052,150,1,2025-09-12,2025-09-26 14:25:59.491,AH,C,1531884362,AMBUSH51,1,1,48,2,1,1,225,2,1,0,0,9,1,225,2,1,-145251.1836135326,-4792857.944024862,4196250.108962737,2.33879,2.83193,-0.339316,-99.2917,32.8206,36.4709,-0.0363167,-7.13345,6.53203,-0.0168435,0.000648105,-0.00584959,4,0,41.38052648679105,-91.73586061919066,10049.710777506583,-65.0540195742764,1.4281847044847031,0.1790513356369506,182.194,10022.661867135384,12264.339701119052,150,True,11.016862981518855,False,175.15910533392062,179.12059018941562,False,4.82248640896836,True,False
1,1970-07-23 10:27:51.603447347,2025-09-12,2025-09-26 14:26:00.344,AH,C,3146955616,JASSM,3,125,76,2,2,1,225,9,2,0,1,26,0,0,0,0,-162708.58044608062,-4785784.948213424,4204062.126432896,-2.36559,-0.397205,0.382345,74.0,-30.875,-32.125,0.0,0.0,0.0,0.0,0.0,0.0,2,0,41.47199492720392,-91.94720941752196,10997.379310309569,119.85810186046734,-0.0056539557027738,0.0029867183751389,,10022.661867135384,12264.339701119052,150,1,2025-09-12,2025-09-26 14:26:00.224,AH,C,1532759228,AMBUSH51,1,1,48,2,1,1,225,2,1,0,0,9,1,225,2,1,-145323.97011415608,-4792833.564886496,4196276.600778513,2.32639,2.83314,-0.338687,-99.2383,32.9634,36.3824,-0.273731,-7.14773,6.75929,-0.0141262,0.00221895,-0.000544076,4,0,41.38083723278464,-91.73673876850856,10052.60886286345,-65.12576595745338,1.4509772365054563,-0.5106454448066536,182.023,10022.661867135384,12264.339701119052,150,True,10.92913451035943,False,175.20112213141195,179.11432418807672,False,4.814514841861868,True,False
1,1970-07-23 10:27:51.613469291,2025-09-12,2025-09-26 14:26:01.346,AH,C,3148089010,JASSM,3,125,76,2,2,1,225,9,2,0,1,26,0,0,0,0,-162638.24499686187,-4785814.461885299,4204031.454557896,-2.36559,-0.397205,0.382345,74.0,-30.875,-32.125,0.0,0.0,0.0,0.0,0.0,0.0,2,0,41.471626558552565,-91.94635633414444,10997.37430228726,119.8586668163156,-0.0049162090030475,0.00298547815892,,10022.661867135384,12264.339701119052,150,1,2025-09-12,2025-09-26 14:26:01.358,AH,C,1534111292,AMBUSH51,1,1,48,2,1,1,225,2,1,0,0,9,1,225,2,1,-145435.74572166213,-4792796.097221215,4196317.295154066,2.31961,2.82983,-0.339193,-99.2448,32.8006,36.4766,-0.262578,-7.22822,6.59682,0.00280776,-0.00660485,0.00879571,4,0,41.38131467640467,-91.7380873372843,10057.019051899642,-64.9818445973162,1.3431586716933457,-0.958303925025322,181.901,10022.661867135384,12264.339701119052,150,True,10.818092044308582,False,175.16353529409616,179.10569184437077,False,4.864608917741207,True,False
1,1970-07-23 10:27:51.623262823,2025-09-12,2025-09-26 14:26:02.326,AH,C,3149282056,JASSM,3,125,76,2,2,1,225,9,2,0,1,26,0,0,0,0,-162564.20788748687,-4785845.528291549,4203999.169401646,-2.36559,-0.397205,0.382345,74.0,-30.875,-32.125,0.0,0.0,0.0,0.0,0.0,0.0,2,0,41.47123880578064,-91.94545836478514,10997.373517984071,119.85926149352048,-0.0041396404979084,0.0029841807890407,,10022.661867135384,12264.339701119052,150,1,2025-09-12,2025-09-26 14:26:02.525,AH,C,1535503124,AMBUSH51,1,1,48,2,1,1,225,2,1,0,0,9,1,225,2,1,-145551.9253821381,-4792757.280555831,4196359.558978695,2.32188,2.83493,-0.337522,-99.1225,32.8685,36.2559,0.112803,-7.20816,6.50846,0.0241422,0.00351933,-0.00217526,4,0,41.38180992872451,-91.73948901495147,10061.850977816,-65.24270524544941,1.4769196740929025,-0.7378192504541088,181.827,10022.661867135384,12264.339701119052,150,True,10.702123227424623,False,175.15670353386457,179.09563072302882,False,4.922523073322997,True,False
1,1970-07-23 10:27:51.633289230,2025-09-12,2025-09-26 14:26:03.328,AH,C,3150415452,JASSM,3,125,76,2,2,1,225,9,2,0,1,26,0,0,0,0,-162493.87243826812,-4785875.041963424,4203968.497526646,-2.36559,-0.397205,0.382345,74.0,-30.875,-32.125,0.0,0.0,0.0,0.0,0.0,0.0,2,0,41.47087042409488,-91.94460530123293,10997.375638765752,119.8598264277713,-0.0034018937007457,0.002982940516246,,10022.661867135384,12264.339701119052,150,1,2025-09-12,2025-09-26 14:26:03.258,AH,C,1536377990,AMBUSH51,1,1,48,2,1,1,225,2,1,0,0,9,1,225,2,1,-145624.57660242182,-4792732.811568589,4196386.073738984,2.3919,2.83209,-0.336476,-99.0095,33.1715,36.3046,-0.228834,-7.20075,6.573,0.0892669,-0.00977984,0.00386679,4,0,41.38212136028896,-91.74036561465437,10064.581631544192,-65.18016306567067,1.3252503251617445,3.2217785955851954,181.778,10022.661867135384,12264.339701119052,150,True,10.61443736691465,False,175.30889598889425,179.08724717840767,False,4.80682252017998,True,False
1,1970-07-23 10:27:51.650989467,2025-09-12,2025-09-26 14:26:05.098,AH,C,3151608498,JASSM,3,125,76,2,2,1,225,9,2,0,1,26,0,0,0,0,-162419.83484061187,-4785906.108369674,4203936.210417271,-2.36559,-0.397205,0.382345,74.0,-30.875,-32.125,0.0,0.0,0.0,0.0,0.0,0.0,2,0,41.47048264453189,-91.9437073469037,10997.37807416214,119.86042108610924,-0.0026253147913433,0.0029816339291398,,10022.661867135384,12264.339701119052,150,1,2025-09-12,2025-09-26 14:26:05.125,AH,C,1538604922,AMBUSH51,1,1,48,2,1,1,225,2,1,0,0,9,1,225,2,1,-145807.98340154387,-4792669.6800157605,4196454.270816906,2.4662,2.81275,-0.34984,-98.1138,34.4456,37.4538,-0.079138,-7.02543,6.56713,-0.0198624,0.00193599,0.00799885,4,0,41.38292413666114,-91.74257910642196,10070.878899156913,-63.90569808913037,1.1082630130359432,7.132978896710289,181.497,10022.661867135384,12264.339701119052,150,True,10.457644465807741,False,176.30857754965754,179.07015477137932,False,3.8588036209197347,True,False
1,1970-07-23 10:27:51.652467126,2025-09-12,2025-09-26 14:26:05.246,AH,C,3152801544,JASSM,3,125,76,2,2,1,225,9,2,0,1,26,0,0,0,0,-162345.79773123687,-4785937.172822799,4203903.923307896,-2.36559,-0.397205,0.382345,74.0,-30.875,-32.125,0.0,0.0,0.0,0.0,0.0,0.0,2,0,41.47009486946767,-91.94280940990797,10997.379599829288,119.86101572839664,-0.0018487458816959,0.002980334840553,,10022.661867135384,12264.339701119052,150,1,2025-09-12,2025-09-26 14:26:05.125,AH,C,1538604922,AMBUSH51,1,1,48,2,1,1,225,2,1,0,0,9,1,225,2,1,-145807.98340154387,-4792669.6800157605,4196454.270816906,2.4662,2.81275,-0.34984,-98.1138,34.4456,37.4538,-0.079138,-7.02543,6.56713,-0.0198624,0.00193599,0.00799885,4,0,41.38292413666114,-91.74257910642196,10070.878899156913,-63.90569808913037,1.1082630130359432,7.132978896710289,181.497,10022.661867135384,12264.339701119052,150,True,10.411097212269832,False,176.30857754965754,179.0660483812147,False,3.859473825940092,True,False
1,1970-07-23 10:27:51.663487285,2025-09-12,2025-09-26 14:26:06.348,AH,C,3153994590,JASSM,3,125,76,2,2,1,225,9,2,0,1,26,0,0,0,0,-162271.76013358062,-4785968.235322799,4203871.634245396,-2.36559,-0.397205,0.382345,74.0,-30.875,-32.125,0.0,0.0,0.0,0.0,0.0,0.0,2,0,41.4697070859295,-91.94191147856716,10997.375890809515,119.86161036236788,-0.0010721729238776,0.002979036356712,,10022.661867135384,12264.339701119052,150,1,2025-09-12,2025-09-26 14:26:06.291,AH,C,1539996754,AMBUSH51,1,1,48,2,1,1,225,2,1,0,0,9,1,225,2,1,-145922.87912739717,-4792628.932416059,4196498.234875763,2.39917,2.80405,-0.357835,-97.6535,34.86,38.2725,-0.165891,-7.21899,6.67029,-0.116215,-0.00344234,0.0173199,4,0,41.38344252977982,-91.74396621777603,10074.579037172674,-63.25233026839904,1.094366559928816,3.132285180646707,181.62,10022.661867135384,12264.339701119052,150,True,10.295003334143631,False,176.78663438891883,179.0533870000444,False,3.3628054289663405,True,False
1,1970-07-23 10:27:51.673289554,2025-09-12,2025-09-26 14:26:07.328,AH,C,3155187638,JASSM,3,125,76,2,2,1,225,9,2,0,1,26,0,0,0,0,-162197.72302420562,-4785999.297822799,4203839.345182896,-2.36559,-0.397109,0.382345,74.0,-30.875,-32.125,0.0,0.0,0.0,0.0,0.0,0.0,2,0,41.4693192952574,-91.94101356376656,10997.376070642167,119.85856736783089,-0.0038652523647885,0.000928379316242,,10022.661867135384,12264.339701119052,150,1,2025-09-12,2025-09-26 14:26:07.391,AH,C,1541309052,AMBUSH51,1,1,48,2,1,1,225,2,1,0,0,9,1,225,2,1,-146029.60421949427,-4792590.561675304,4196539.673265887,2.29373,2.79997,-0.360487,-97.6275,35.0627,38.1743,0.129902,-7.02677,6.414,-0.0464212,0.000123795,-0.00310321,4,0,41.38393119706012,-91.74525489567876,10078.04530444737,-62.99129890832267,1.045070517006027,-2.986021753138227,181.827,10022.661867135384,12264.339701119052,150,True,10.18363277006325,False,176.8471317943682,179.04117700517017,False,3.3559007709345714,True,False
1,1970-07-23 10:27:51.683328035,2025-09-12,2025-09-26 14:26:08.332,AH,C,3156380684,JASSM,3,125,76,2,2,1,225,9,2,0,1,26,0,0,0,0,-162123.68542654935,-4786030.360322799,4203807.054167271,-2.36559,-0.397109,0.382345,74.0,-30.875,-32.125,0.0,0.0,0.0,0.0,0.0,0.0,2,0,41.46893148447852,-91.9401156538288,10997.37581460484,119.85916197857028,-0.0030886728288857,0.0009270200460108,,10022.661867135384,12264.339701119052,150,1,2025-09-12,2025-09-26 14:26:08.209,AH,C,1542263452,AMBUSH51,1,1,48,2,1,1,225,2,1,0,0,9,1,225,2,1,-146107.793283938,-4792562.524257503,4196570.031346899,2.25422,2.80612,-0.351689,-97.8604,34.908,37.8083,-0.0865808,-6.90933,6.34664,-0.0322482,-0.00734138,-0.0141949,4,0,41.38428875309565,-91.74619899352584,10080.769881766118,-63.58349985186312,0.929794305736742,-5.136970347211836,181.827,10022.661867135384,12264.339701119052,150,True,10.089608291294486,False,176.63714417349496,179.03075581682126,False,3.6060896288247015,True,False
1,1970-07-23 10:27:51.692450959,2025-09-12,2025-09-26 14:26:09.245,AH,C,3157573730,JASSM,3,125,76,2,2,1,225,9,2,0,1,26,0,0,0,0,-162049.64782889312,-4786061.420869674,4203774.763151646,-2.36559,-0.397109,0.382441,74.0,-30.875,-32.125,0.0,0.0,0.0,0.0,0.0,0.0,2,0,41.468543678297365,-91.93921775538372,10997.374608028738,119.86360411245312,-0.0062327493077963,0.0009253836360696,,10022.661867135384,12264.339701119052,150,1,2025-09-12,2025-09-26 14:26:09.324,AH,C,1543615516,AMBUSH51,1,1,48,2,1,1,225,2,1,0,0,9,1,225,2,1,-146219.74942072516,-4792522.994299533,4196612.239512309,2.21083,2.81325,-0.342268,-98.4456,34.4108,36.8904,0.0417078,-7.15781,6.53359,-0.0274774,0.0011745,0.00202754,4,0,41.38478853758584,-91.74755060677636,10083.459278153488,-64.2390282225406,0.8294898757251662,-7.494280099499886,181.778,10022.661867135384,12264.339701119052,150,True,9.97545838770048,False,176.05802111780022,179.01476744654732,False,4.250118570280113,True,False
1,1970-07-23 10:27:51.703373591,2025-09-12,2025-09-26 14:26:10.337,AH,C,3158826428,JASSM,3,125,76,2,2,1,225,9,2,0,1,26,0,0,0,0,-161971.90857108062,-4786094.034150924,4203740.856901646,-2.36559,-0.397109,0.382441,74.0,-30.875,-32.125,0.0,0.0,0.0,0.0,0.0,0.0,2,0,41.46813647132696,-91.93827497627976,10997.37529603109,119.86422842666242,-0.0054173475469423,0.0009240178290601,,10022.661867135384,12264.339701119052,150,1,2025-09-12,2025-09-26 14:26:10.391,AH,C,1544888048,AMBUSH51,1,1,48,2,1,1,225,2,1,0,0,9,1,225,2,1,-146324.23261376476,-4792486.813435419,4196650.654757549,2.21408,2.82607,-0.332378,-98.9485,33.8065,35.9385,-0.0630883,-7.07704,6.56164,0.0509506,0.00992548,-0.0144549,4,0,41.38524413470527,-91.74881176064076,10085.608630451656,-65.12912891209744,0.9347098370903087,-7.079074452512869,181.901,10022.661867135384,12264.339701119052,150,True,9.863831568879174,False,175.44060830511242,178.99695704342116,False,4.919222468638113,True,False
1,1970-07-23 10:27:51.713287236,2025-09-12,2025-09-26 14:26:11.328,AH,C,3160019476,JASSM,3,125,76,2,2,1,225,9,2,0,1,26,0,0,0,0,-161897.87097342435,-4786125.094697799,4203708.563932896,-2.36559,-0.397109,0.382441,74.0,-30.875,-32.125,0.0,0.0,0.0,0.0,0.0,0.0,2,0,41.46774863755436,-91.93737709977282,10997.377734968826,119.86482300140636,-0.0046407675096427,0.0009227089860677,,10022.661867135384,12264.339701119052,150,1,2025-09-12,2025-09-26 14:26:11.524,AH,C,1546240114,AMBUSH51,1,1,48,2,1,1,225,2,1,0,0,9,1,225,2,1,-146437.3662325518,-4792448.563157287,4196690.900150932,2.27168,2.83821,-0.32237,-99.414,33.2083,35.2342,-0.279539,-7.28096,6.8056,0.0554426,-0.00348604,-0.00741628,4,0,41.38572281066408,-91.75017701016615,10087.293448060747,-66.00002045729198,1.0138758950617204,-3.569970791097479,181.864,10022.661867135384,12264.339701119052,150,True,9.74979461731023,False,174.9076495423261,178.97484311310797,False,5.491952835927754,True,False
1,1970-07-23 10:27:51.723428447,2025-09-12,2025-09-26 14:26:12.342,AH,C,3161212522,JASSM,3,125,76,2,2,1,225,9,2,0,1,26,0,0,0,0,-161823.83386404935,-4786156.151338424,4203676.270964146,-2.36549,-0.397109,0.382441,74.0,-30.875,-32.125,0.0,0.0,0.0,0.0,0.0,0.0,2,0,41.46736081991394,-91.93647924138568,10997.374464932607,119.86541755957828,-0.003864203776509,0.0064128895271859,,10022.661867135384,12264.339701119052,150,1,2025-09-12,2025-09-26 14:26:12.290,AH,C,1547154746,AMBUSH51,1,1,48,2,1,1,225,2,1,0,0,9,1,225,2,1,-146513.8518363003,-4792423.019005129,4196717.713921483,2.30742,2.83526,-0.324569,-99.6432,32.8343,35.2455,-0.214905,-7.4654,6.83041,0.0439807,0.00784072,0.00138047,4,0,41.386041875723,-91.75109990268037,10088.357217850751,-65.79870539836881,0.9860173266230644,-1.572187914546691,181.864,10022.661867135384,12264.339701119052,150,True,9.657763737110209,False,174.7304588301669,178.95684221313564,False,5.671140483977802,True,False
1,1970-07-23 10:27:51.733466003,2025-09-12,2025-09-26 14:26:13.346,AH,C,3162465220,JASSM,3,125,76,2,2,1,225,9,2,0,1,26,0,0,0,0,-161746.09411795562,-4786188.762666549,4203642.360807896,-2.36549,-0.397109,0.382441,74.0,-30.875,-32.125,0.0,0.0,0.0,0.0,0.0,0.0,2,0,41.46695357580564,-91.93553649150424,10997.374150840396,119.86604183979615,-0.0030487912915098,0.0064115128361196,,10022.661867135384,12264.339701119052,150,1,2025-09-12,2025-09-26 14:26:13.390,AH,C,1548467044,AMBUSH51,1,1,48,2,1,1,225,2,1,0,0,9,1,225,2,1,-146622.78223078317,-4792386.956758937,4196755.848691851,2.34512,2.8348,-0.327001,-99.631,32.8793,35.1246,-0.206375,-7.27087,6.69616,0.019336,-0.00142001,-0.0020213,4,0,41.386494025170144,-91.75241418069466,10090.544521829212,-65.68197380613445,1.065743370096433,0.5814914246027579,181.901,10022.661867135384,12264.339701119052,150,True,9.544186869379365,False,174.71122121717977,178.93193004198514,False,5.741941963987936,True,False
1,1970-07-23 10:27:51.744488446,2025-09-12,2025-09-26 14:26:14.448,AH,C,3163717918,JASSM,3,125,76,2,2,1,225,9,2,0,1,26,0,0,0,0,-161668.35486014312,-4786221.372041549,4203608.452604771,-2.36549,-0.397109,0.382441,74.0,-30.875,-32.125,0.0,0.0,0.0,0.0,0.0,0.0,2,0,41.46654634864712,-91.9345937600488,10997.377564244682,119.86666610277108,-0.0022333953579475,0.0064101550619684,,10022.661867135384,12264.339701119052,150,1,2025-09-12,2025-09-26 14:26:14.458,AH,C,1549739576,AMBUSH51,1,1,48,2,1,1,225,2,1,0,0,9,1,225,2,1,-146729.72222193595,-4792351.241915767,4196793.545620183,2.35518,2.83213,-0.329159,-99.5422,33.1897,35.2455,-0.0397585,-7.52696,6.61315,-0.00496742,0.00863343,0.0107369,4,0,41.38694149945315,-91.75370457527129,10092.494405841384,-65.49325113080513,1.0478361265466438,1.1123866178570487,181.827,10022.661867135384,12264.339701119052,150,True,9.431682993905723,False,174.87590104679967,178.9061074711383,False,5.631476782675067,True,False
1,1970-07-23 10:27:51.755788048,2025-09-12,2025-09-26 14:26:15.578,AH,C,3164970616,JASSM,3,125,76,2,2,1,225,9,2,0,1,26,0,0,0,0,-161590.61511404935,-4786253.979463424,4203574.540495396,-2.36549,-0.397109,0.382441,74.0,-30.875,-32.125,0.0,0.0,0.0,0.0,0.0,0.0,2,0,41.46613909912258,-91.93365103534136,10997.371894408889,119.86729035623758,-0.0014179888088966,0.0064087864678743,,10022.661867135384,12264.339701119052,150,1,2025-09-12,2025-09-26 14:26:15.557,AH,C,1551051876,AMBUSH51,1,1,48,2,1,1,225,2,1,0,0,9,1,225,2,1,-146838.50002433808,-4792315.044680547,4196831.882268795,2.33643,2.82683,-0.332004,-99.4582,32.9683,35.5336,-0.244865,-7.23585,6.54438,-0.0302987,-0.00988179,-0.00143665,4,0,41.38739581262018,-91.75501711567368,10094.790883442987,-65.17742471416665,0.9548299050126344,-0.0551706814156159,181.864,10022.661867135384,12264.339701119052,150,True,9.318115962038746,False,174.90743733700114,178.87851312815138,False,5.608116208245094,True,False
1,1970-07-23 10:27:51.765286803,2025-09-12,2025-09-26 14:26:16.528,AH,C,3166223316,JASSM,3,125,76,2,2,1,225,9,2,0,1,26,0,0,0,0,-161512.87536795562,-4786286.586885299,4203540.630339146,-2.36549,-0.397013,0.382441,74.0,-30.875,-32.125,0.0,0.0,0.0,0.0,0.0,0.0,2,0,41.46573185501425,-91.93270832243152,10997.37471038256,119.86427725259404,-0.0041722307320587,0.0043576038623409,,10022.661867135384,12264.339701119052,150,1,2025-09-12,2025-09-26 14:26:16.324,AH,C,1551966508,AMBUSH51,1,1,48,2,1,1,225,2,1,0,0,9,1,225,2,1,-146915.41841727708,-4792289.328227352,4196859.079423746,2.298,2.82567,-0.330908,-99.5064,33.1164,35.3158,-0.146924,-7.13738,6.62211,-0.0595227,-0.0114963,0.00024447,4,0,41.38771837301615,-91.75594528751444,10096.31444956471,-65.17950464519429,0.8666010975846039,-2.2788585199633054,181.864,10022.661867135384,12264.339701119052,150,True,9.223455902486961,False,174.881056784446,178.85644324594384,False,5.689920122125932,True,False
1,1970-07-23 10:27:51.775329581,2025-09-12,2025-09-26 14:26:17.532,AH,C,3167416564,JASSM,3,125,76,2,2,1,225,9,2,0,1,26,0,0,0,0,-161438.82507498687,-4786317.647432174,4203508.327604771,-2.36549,-0.397013,0.382441,74.0,-30.875,-32.125,0.0,0.0,0.0,0.0,0.0,0.0,2,0,41.46534391432802,-91.93181036047667,10997.378740781962,119.864871855656,-0.0033955202884152,0.00435624727508,,10022.661867135384,12264.339701119052,150,1,2025-09-12,2025-09-26 14:26:17.724,AH,C,1553636706,AMBUSH51,1,1,48,2,1,1,225,2,1,0,0,9,1,225,2,1,-147055.33914704694,-4792243.377964143,4196908.519980693,2.16349,2.82162,-0.321441,-100.023,30.3569,37.3818,0.0233537,-6.74539,6.49241,-0.105468,-0.00710211,-0.000242389,4,0,41.38829995586745,-91.75763342552465,10101.0655545538,-65.41844408146562,0.3332588878896944,-10.062603421845058,182.389,10022.661867135384,12264.339701119052,150,False,9.093790853762993,False,174.1955916462257,178.82008357828119,False,6.104867464815581,True,False
1,1970-07-23 10:27:51.785444475,2025-09-12,2025-09-26 14:26:18.544,AH,C,3168669062,JASSM,3,125,76,2,2,1,225,9,2,0,1,26,0,0,0,0,-161361.09802420562,-4786350.247041549,4203474.419401646,-2.36549,-0.397013,0.382441,74.0,-30.875,-32.125,0.0,0.0,0.0,0.0,0.0,0.0,2,0,41.46493671222924,-91.93086782555118,10997.375938998128,119.86549596866078,-0.0025802493666575,0.0043548299788305,,10022.661867135384,12264.339701119052,150,1,2025-09-12,2025-09-26 14:26:18.524,AH,C,1554591104,AMBUSH51,1,1,48,2,1,1,225,2,1,0,0,9,1,225,2,1,-147135.3902078779,-4792216.577694046,4196934.722319709,2.1278,2.82428,-0.30183,-101.113,33.0606,33.0306,-0.118249,-6.4844,6.03739,-0.0410512,-0.0137371,-0.0163212,4,0,41.38862165192339,-91.75859943908505,10098.01193535814,-66.32823214077705,-0.3419578223166169,-12.0604295014143,182.719,10022.661867135384,12264.339701119052,150,False,8.997706258679287,False,173.7297788057512,178.78825546666323,False,7.047615800146073,True,False
1,1970-07-23 10:27:51.796466554,2025-09-12,2025-09-26 14:26:19.646,AH,C,3169921760,JASSM,3,125,76,2,2,1,225,9,2,0,1,26,0,0,0,0,-161283.35827811187,-4786382.850557174,4203440.505339146,-2.36549,-0.397013,0.382536,74.0,-30.875,-32.125,0.0,0.0,0.0,0.0,0.0,0.0,2,0,41.46452944214937,-91.92992514904752,10997.373196543333,119.86996784690994,-0.0056853599032646,0.0043531674933991,,10022.661867135384,12264.339701119052,150,1,2025-09-12,2025-09-26 14:26:19.691,AH,C,1555982936,AMBUSH51,1,1,48,2,1,1,225,2,1,0,0,9,1,225,2,1,-147254.07940794888,-4792177.868730182,4196971.789907008,2.12613,2.82511,-0.273559,-102.335,33.2561,30.7517,-0.211307,-6.144,5.89799,0.0245417,-0.00927425,-0.026591,4,0,41.389080467461056,-91.76003135823817,10092.153321070986,-67.52676484710499,-1.4326173070149864,-12.124324353710342,183.208,10022.661867135384,12264.339701119052,150,False,8.879400912224817,False,172.657724322943,178.73747145698078,False,8.268182852600374,True,False
1,1970-07-23 10:27:51.807414284,2025-09-12,2025-09-26 14:26:20.741,AH,C,3171114808,JASSM,3,125,76,2,2,1,225,9,2,0,1,26,0,0,0,0,-161209.32068045562,-4786413.903291549,4203408.206511021,-2.36549,-0.397013,0.382536,74.0,-30.875,-32.125,0.0,0.0,0.0,0.0,0.0,0.0,2,0,41.46414154998043,-91.92902737521564,10997.379498474622,119.87056231131514,-0.0049087849175813,0.0043518661242722,,10022.661867135384,12264.339701119052,150,1,2025-09-12,2025-09-26 14:26:20.769,AH,C,1557255468,AMBUSH51,1,1,48,2,1,1,225,2,1,0,0,9,1,225,2,1,-147363.68064314092,-4792142.06319225,4197003.561001243,2.29054,2.83829,-0.257178,-103.249,33.4653,29.4602,0.0625982,-6.83952,6.35976,0.157506,0.0036504,-0.0157636,4,0,41.38948789821073,-91.76135367696465,10081.269743953775,-68.7097460769285,-1.5558302659868233,-2.4752122057161525,184.345,10022.661867135384,12264.339701119052,150,True,8.769243977533424,False,172.00460911525397,178.68008095436164,False,9.027198854008766,True,False
1,1970-07-23 10:27:51.817469958,2025-09-12,2025-09-26 14:26:21.746,AH,C,3172367506,JASSM,3,125,76,2,2,1,225,9,2,0,1,26,0,0,0,0,-161131.58093436187,-4786446.504854049,4203374.290495396,-2.36549,-0.397013,0.382536,74.0,-30.875,-32.125,0.0,0.0,0.0,0.0,0.0,0.0,2,0,41.46373426322284,-91.92808472253137,10997.37599710496,119.87118648750412,-0.0040933838157489,0.0043505068603917,,10022.661867135384,12264.339701119052,150,1,2025-09-12,2025-09-26 14:26:21.801,AH,C,1558488234,AMBUSH51,1,1,48,2,1,1,225,2,1,0,0,9,1,225,2,1,-147471.68020119506,-4792106.759434843,4197033.773295363,2.37478,2.84044,-0.262391,-103.787,33.8179,29.4233,-0.138244,-7.1878,6.80806,0.0216996,0.00360047,0.0207383,4,0,41.38988209820664,-91.76265669713663,10068.125344554206,-68.57699596127759,-1.262186439272046,2.3796181119913866,184.87,10022.661867135384,12264.339701119052,150,True,8.65792180869051,False,171.9663216528204,178.61704527385467,False,9.150024879641785,True,False
1,1970-07-23 10:27:51.827505852,2025-09-12,2025-09-26 14:26:22.750,AH,C,3173620204,JASSM,3,125,76,2,2,1,225,9,2,0,1,26,0,0,0,0,-161053.84118826812,-4786479.106416549,4203340.372526646,-2.36549,-0.397013,0.382536,74.0,-30.875,-32.125,0.0,0.0,0.0,0.0,0.0,0.0,2,0,41.46332695554035,-91.9271420816441,10997.372495441963,119.87181065084162,-0.0032779760957187,0.0043491361413041,,10022.661867135384,12264.339701119052,150,1,2025-09-12,2025-09-26 14:26:22.759,AH,C,1559641466,AMBUSH51,1,1,48,2,1,1,225,2,1,0,0,9,1,225,2,1,-147571.07011326865,-4792074.1332509145,4197061.905153587,2.39575,2.82964,-0.274082,-104.022,34.1246,30.0396,-0.0806459,-7.13054,6.73594,-0.0140991,0.00493413,0.00459291,4,0,41.39024788900646,-91.76385590717102,10056.41013255,-67.68126078280552,-1.2284374563858282,3.3979015475216774,186.117,10022.661867135384,12264.339701119052,150,True,8.551491981049102,False,172.24379764878643,178.55710506780648,False,8.937324320740014,True,False
1,1970-07-23 10:27:51.837267514,2025-09-12,2025-09-26 14:26:23.726,AH,C,3174813340,JASSM,3,125,76,2,2,1,225,9,2,0,1,26,0,0,0,0,-160979.79773123687,-4786510.157197799,4203308.069792271,-2.36549,-0.397013,0.382536,74.0,-30.875,-32.125,0.0,0.0,0.0,0.0,0.0,0.0,2,0,41.46293902803331,-91.92624427171202,10997.376957583338,119.87240512497488,-0.0025013491906574,0.0043478487942581,,10022.661867135384,12264.339701119052,150,1,2025-09-12,2025-09-26 14:26:23.591,AH,C,1560635632,AMBUSH51,1,1,48,2,1,1,225,2,1,0,0,9,1,225,2,1,-147658.81852019829,-4792044.761263766,4197087.328569474,2.35317,2.83181,-0.272998,-104.227,34.6883,30.4123,-0.110955,-7.31161,6.90212,-0.0774845,0.00651954,0.00182572,4,0,41.390578159679386,-91.76491487525077,10045.949023847304,-67.8095513424586,-1.1844448735802775,0.994402710990024,186.752,10022.661867135384,12264.339701119052,150,True,8.453901665077659,False,172.48100333996507,178.50330332013286,False,8.773949911761646,True,False
1,1970-07-23 10:27:51.848291997,2025-09-12,2025-09-26 14:26:24.829,AH,C,3176125602,JASSM,3,125,76,2,2,1,225,9,2,0,1,26,0,0,0,0,-160898.36120779935,-4786544.307588424,4203272.538542271,-2.36549,-0.397013,0.382536,74.0,-30.875,-32.125,0.0,0.0,0.0,0.0,0.0,0.0,2,0,41.46251234181681,-91.92525683020844,10997.377623433167,119.87305894230371,-0.0016471696008388,0.0043464180805104,,10022.661867135384,12264.339701119052,150,1,2025-09-12,2025-09-26 14:26:24.823,AH,C,1562106996,AMBUSH51,1,1,48,2,1,1,225,2,1,0,0,9,1,225,2,1,-147787.1694738908,-4792001.948747126,4197124.621988938,2.23254,2.83011,-0.27527,-104.949,34.5,30.6592,-0.0215856,-7.26897,6.8503,-0.144091,0.0140991,0.00171753,4,0,41.39106105751113,-91.7664638100833,10031.256145855788,-67.65159930662047,-1.1607608080867635,-5.946986641775923,187.864,10022.661867135384,12264.339701119052,150,True,8.328067564522195,False,172.402255659488,178.4250351054493,False,8.919551270645883,True,False
1,1970-07-23 10:27:51.860298113,2025-09-12,2025-09-26 14:26:26.029,AH,C,3177437952,JASSM,3,125,76,2,2,1,225,9,2,0,1,26,0,0,0,0,-160816.91980154935,-4786578.457979049,4203237.003386021,-2.36549,-0.396918,0.382536,74.0,-30.875,-32.125,0.0,0.0,0.0,0.0,0.0,0.0,2,0,41.462085621726295,-91.92426934326905,10997.374056296483,119.87007570872406,-0.0043625746063179,0.002294685201475,,10022.661867135384,12264.339701119052,150,1,2025-09-12,2025-09-26 14:26:25.990,AH,C,1563498828,AMBUSH51,1,1,48,2,1,1,225,2,1,0,0,9,1,225,2,1,-147910.97233692353,-4791961.808515576,4197159.707634246,2.12626,2.84265,-0.260042,-106.111,33.8555,29.4539,0.0325139,-7.09041,6.60198,-0.056974,-0.00258514,-0.0306857,4,0,41.39151396981766,-91.76795745654896,10018.012898970226,-68.76246670670379,-1.262216215953873,-11.823064707831504,189.282,10022.661867135384,12264.339701119052,150,False,8.20530418400495,False,171.55297412014272,178.34368600041014,False,9.852464817857928,True,False
1,1970-07-23 10:27:51.869446181,2025-09-12,2025-09-26 14:26:26.944,AH,C,3178690814,JASSM,3,125,76,2,2,1,225,9,2,0,1,26,0,0,0,0,-160739.16931326812,-4786611.059541549,4203203.079557896,-2.36549,-0.396918,0.382536,74.0,-30.875,-32.125,0.0,0.0,0.0,0.0,0.0,0.0,2,0,41.4616782452965,-91.92332662169406,10997.374112594443,119.87069990516896,-0.0035470646658512,0.0022932781197456,,10022.661867135384,12264.339701119052,150,1,2025-09-12,2025-09-26 14:26:27.123,AH,C,1564850894,AMBUSH51,1,1,48,2,1,1,225,2,1,0,0,9,1,225,2,1,-148031.4408741709,-4791924.131173005,4197191.837327767,2.09141,2.85881,-0.239649,-107.541,32.6143,27.9719,-0.0254377,-7.26404,6.7151,0.0154827,0.00446392,-0.0287403,4,0,41.391932869634665,-91.76941038712572,10004.172204854254,-70.22888989541448,-1.4149570976469512,-13.556620390060315,189.917,10022.661867135384,12264.339701119052,150,False,8.087501832210414,False,170.41551955254238,178.25511070028517,False,11.064217797938644,True,False
1,1970-07-23 10:27:51.880469724,2025-09-12,2025-09-26 14:26:28.046,AH,C,3179943580,JASSM,3,125,76,2,2,1,225,9,2,0,1,26,0,0,0,0,-160661.42517264312,-4786643.659150924,4203169.155729771,-2.36549,-0.396918,0.382536,74.0,-30.875,-32.125,0.0,0.0,0.0,0.0,0.0,0.0,2,0,41.46127087147467,-91.9223839885983,10997.374136800276,119.87132403798834,-0.0027316096580848,0.0022918513699554,,10022.661867135384,12264.339701119052,150,1,2025-09-12,2025-09-26 14:26:28.190,AH,C,1566123426,AMBUSH51,1,1,48,2,1,1,225,2,1,0,0,9,1,225,2,1,-148147.64138272798,-4791889.626581441,4197220.763027732,2.17565,2.8747,-0.227701,-108.824,31.433,26.6496,-0.188472,-7.42314,6.92899,0.0764296,-0.00385638,-0.0209131,4,0,41.39231203333471,-91.77081118318252,9990.870392641984,-71.33531762414016,-1.2384492434379366,-8.493321925482485,190.846,10022.661867135384,12264.339701119052,150,True,7.972964686700496,False,169.38834603332566,178.15932280342224,False,12.177063439887839,True,False
1,1970-07-23 10:27:51.891498675,2025-09-12,2025-09-26 14:26:29.149,AH,C,3181315354,JASSM,3,125,76,2,2,1,225,9,2,0,1,26,0,0,0,0,-160576.29577811187,-4786679.352510299,4203132.011198521,-2.36549,-0.396918,0.382632,74.0,-30.875,-32.125,0.0,0.0,0.0,0.0,0.0,0.0,2,0,41.46082482118872,-91.92135182543448,10997.37564753204,119.87585526205297,-0.0057590796444923,0.0022900600405484,,10022.661867135384,12264.339701119052,150,1,2025-09-12,2025-09-26 14:26:29.323,AH,C,1567475492,AMBUSH51,1,1,48,2,1,1,225,2,1,0,0,9,1,225,2,1,-148270.74817382725,-4791854.356461607,4197250.5206545815,2.2645,2.8823,-0.225279,-109.738,30.4657,26.4536,-0.244453,-7.6308,7.0789,0.0700339,0.00587248,0.00907243,4,0,41.392700079514256,-91.77229477906438,9978.023712891549,-71.72795695108168,-1.0218554268391429,-3.297075179806112,191.628,10022.661867135384,12264.339701119052,150,True,7.85035410316309,False,168.9165893850814,178.05036371611845,False,12.735276363142843,True,False
1,1970-07-23 10:27:51.903511523,2025-09-12,2025-09-26 14:26:30.351,AH,C,3182687358,JASSM,3,125,76,2,2,1,225,9,2,0,1,26,0,0,0,0,-160491.15173514312,-4786715.051729049,4203094.856901646,-2.36549,-0.396918,0.382632,74.0,-30.875,-32.125,0.0,0.0,0.0,0.0,0.0,0.0,2,0,41.46037866377896,-91.92031949892622,10997.374223836776,119.87653877061838,-0.0048660127658002,0.0022885651894862,,10022.661867135384,12264.339701119052,150,1,2025-09-12,2025-09-26 14:26:30.357,AH,C,1568708256,AMBUSH51,1,1,48,2,1,1,225,2,1,0,0,9,1,225,2,1,-148385.28929901472,-4791822.632991288,4197277.770394448,2.31272,2.88242,-0.227317,-110.349,29.9829,26.7091,-0.153249,-7.38574,6.8958,0.0381612,0.00363792,0.00178411,4,0,41.3930516574007,-91.77367476092618,9967.81787551644,-71.64788001030685,-0.936446159383708,-0.5341804921228565,192.288,10022.661867135384,12264.339701119052,150,True,7.732881567745182,False,168.78564439446959,177.94238124726803,False,12.959373366590198,True,False
1,1970-07-23 10:27:51.914291058,2025-09-12,2025-09-26 14:26:31.429,AH,C,3183940180,JASSM,3,125,76,2,2,1,225,9,2,0,1,26,0,0,0,0,-160413.40417654935,-4786747.649385299,4203060.931120396,-2.36549,-0.396918,0.382632,74.0,-30.875,-32.125,0.0,0.0,0.0,0.0,0.0,0.0,2,0,41.45997126436578,-91.9193768633862,10997.378460847409,119.87716288906049,-0.0040505310054395,0.0022872073146772,,10022.661867135384,12264.339701119052,150,1,2025-09-12,2025-09-26 14:26:31.357,AH,C,1569901256,AMBUSH51,1,1,48,2,1,1,225,2,1,0,0,9,1,225,2,1,-148495.0859222011,-4791792.543187457,4197303.973240029,2.31736,2.88271,-0.226717,-110.74,30.0693,26.8197,-0.0550938,-7.16253,6.6825,-0.0318529,-0.000712604,-0.000941469,4,0,41.393387308483405,-91.77499747832584,9959.005778894209,-71.68504379798088,-0.946883440718902,-0.2638822869420174,192.826,10022.661867135384,12264.339701119052,150,True,7.6227840853914755,False,168.7862694895094,177.83556119525483,False,13.074991805317243,True,False
1,1970-07-23 10:27:51.925285224,2025-09-12,2025-09-26 14:26:32.528,AH,C,3185312060,JASSM,3,125,76,2,2,1,225,9,2,0,1,26,0,0,0,0,-160328.26794608062,-4786783.342744674,4203023.778776646,-2.36549,-0.396918,0.382632,74.0,-30.875,-32.125,0.0,0.0,0.0,0.0,0.0,0.0,2,0,41.4595251356734,-91.91834465970447,10997.377260694013,119.87784630473332,-0.003157549384224,0.0022857169638155,,10022.661867135384,12264.339701119052,150,1,2025-09-12,2025-09-26 14:26:32.390,AH,C,1571134020,AMBUSH51,1,1,48,2,1,1,225,2,1,0,0,9,1,225,2,1,-148610.49716102323,-4791761.076219028,4197331.521070865,2.28862,2.88079,-0.228599,-111.192,30.0308,26.8695,-0.038236,-7.22136,6.72623,-0.0187846,-0.0018278,0.00199009,4,0,41.393739180924655,-91.77638779089794,9950.158952610398,-71.53389156375563,-0.950628706607244,-1.9378544697730755,193.473,10022.661867135384,12264.339701119052,150,True,7.504975187981825,False,168.72104981077567,177.71811564043404,False,13.263690699836442,True,False
1,1970-07-23 10:27:51.936304310,2025-09-12,2025-09-26 14:26:33.630,AH,C,3186624412,JASSM,3,125,76,2,2,1,225,9,2,0,1,26,0,0,0,0,-160246.82556326812,-4786817.485322799,4202988.237761021,-2.36549,-0.396918,0.382632,74.0,-30.875,-32.125,0.0,0.0,0.0,0.0,0.0,0.0,2,0,41.45909836323117,-91.9173572548486,10997.374281521945,119.87850005372178,-0.0023033167445042,0.0022842983272922,,10022.661867135384,12264.339701119052,150,1,2025-09-12,2025-09-26 14:26:33.657,AH,C,1572645152,AMBUSH51,1,1,48,2,1,1,225,2,1,0,0,9,1,225,2,1,-148751.6543441501,-4791723.139215799,4197365.058464878,2.25787,2.88699,-0.226122,-111.803,29.5029,26.8626,-0.110288,-7.30586,6.90495,-0.0217474,0.00141793,-0.00491541,4,0,41.39416520552999,-91.77808807262178,9940.36315751768,-71.87498081443654,-0.7929958467183675,-3.614766058908612,194.365,10022.661867135384,12264.339701119052,150,True,7.375338123467787,False,168.47671580638226,177.57171763073896,False,13.645840886290026,True,False
1,1970-07-23 10:27:51.947452714,2025-09-12,2025-09-26 14:26:34.745,AH,C,3187996416,JASSM,3,125,76,2,2,1,225,9,2,0,1,26,0,0,0,0,-160161.68152029935,-4786853.180635299,4202951.079557896,-2.36549,-0.396822,0.382632,74.0,-30.875,-32.125,0.0,0.0,0.0,0.0,0.0,0.0,2,0,41.45865216675865,-91.91632498466082,10997.374466924808,119.87554669494234,-0.0049798775040688,0.0002320487313494,,10022.661867135384,12264.339701119052,150,1,2025-09-12,2025-09-26 14:26:34.757,AH,C,1573957452,AMBUSH51,1,1,48,2,1,1,225,2,1,0,0,9,1,225,2,1,-148874.1777646983,-4791690.873865671,4197393.849560568,2.24462,2.88925,-0.224718,-112.4,29.1339,26.4698,-0.0870493,-7.30566,6.73639,-0.000899857,0.0115733,-0.00655075,4,0,41.39452886950832,-91.77956367789776,9932.810230396375,-72.02082871828549,-0.7543676080760908,-4.343170318035696,195.05,10022.661867135384,12264.339701119052,150,True,7.253978075307347,False,168.13824814347984,177.43472424769342,False,14.126891935167343,True,False
1,1970-07-23 10:27:51.959393617,2025-09-12,2025-09-26 14:26:35.939,AH,C,3189308766,JASSM,3,125,76,2,2,1,225,9,2,0,1,26,0,0,0,0,-160080.23962576812,-4786887.321260299,4202915.536589146,-2.36549,-0.396822,0.382632,74.0,-30.875,-32.125,0.0,0.0,0.0,0.0,0.0,0.0,2,0,41.458225375277074,-91.91533761290512,10997.372010109222,119.87620041079091,-0.0041256483109112,0.0002305719051332,,10022.661867135384,12264.339701119052,150,1,2025-09-12,2025-09-26 14:26:35.789,AH,C,1575190216,AMBUSH51,1,1,48,2,1,1,225,2,1,0,0,9,1,225,2,1,-148991.4593583651,-4791660.525438583,4197420.97571649,2.29282,2.8946,-0.21749,-112.958,28.8902,26.245,-0.311561,-7.45031,6.90782,0.0469247,0.00149907,-0.0102521,4,0,41.39487084158275,-91.78097597057818,9925.968655821896,-72.52896018102864,-0.8159298075211999,-1.5068888293394231,195.539,10022.661867135384,12264.339701119052,150,True,7.138094472129183,False,167.90301079044602,177.29634307236867,False,14.505802672124693,True,False
1,1970-07-23 10:27:51.969491794,2025-09-12,2025-09-26 14:26:36.949,AH,C,3190621222,JASSM,3,125,76,2,2,1,225,9,2,0,1,26,0,0,0,0,-159998.79089529935,-4786921.465791549,4202879.991667271,-2.36549,-0.396822,0.382632,74.0,-30.875,-32.125,0.0,0.0,0.0,0.0,0.0,0.0,2,0,41.45779854021645,-91.91435017080477,10997.37900498975,119.87685416767832,-0.0032713474574531,0.0002290957250024,,10022.661867135384,12264.339701119052,150,1,2025-09-12,2025-09-26 14:26:36.957,AH,C,1576582048,AMBUSH51,1,1,48,2,1,1,225,2,1,0,0,9,1,225,2,1,-149122.52337528692,-4791627.03935851,4197451.30255932,2.34287,2.89839,-0.226027,-113.255,28.5376,26.7221,-0.123504,-7.69518,7.0567,0.0429175,0.00424753,0.00634477,4,0,41.39525051745368,-91.78255408896004,9919.415269958568,-72.31519732260644,-0.3270432221105959,1.4060241254943735,195.917,10022.661867135384,12264.339701119052,150,True,7.014742698941945,False,167.9277518998839,177.13729751642418,False,14.62424579187589,True,False
1,1970-07-23 10:27:51.981502897,2025-09-12,2025-09-26 14:26:38.150,AH,C,3191933468,JASSM,3,125,76,2,2,1,225,9,2,0,1,26,0,0,0,0,-159917.35534842435,-4786955.602510299,4202844.448698521,-2.3654,-0.396822,0.382632,74.0,-30.875,-32.125,0.0,0.0,0.0,0.0,0.0,0.0,2,0,41.4573717537199,-91.91336290239416,10997.376782865627,119.87750780403756,-0.0024171794270586,0.0057190810762981,,10022.661867135384,12264.339701119052,150,1,2025-09-12,2025-09-26 14:26:37.989,AH,C,1577814814,AMBUSH51,1,1,48,2,1,1,225,2,1,0,0,9,1,225,2,1,-149240.4859822636,-4791597.228096085,4197479.2014541775,2.38822,2.89563,-0.229663,-113.405,28.6093,27.4586,-0.227748,-7.31512,6.74929,0.0272756,0.00396873,0.00452633,4,0,41.395594348853045,-91.78397435030716,9915.64046461048,-72.05862736524742,-0.2972494411110216,3.9674340891811246,196.516,10022.661867135384,12264.339701119052,150,True,6.898601516640433,False,168.18158933527408,176.98829184043743,False,14.509917833058521,True,False
1,1970-07-23 10:27:51.991264705,2025-09-12,2025-09-26 14:26:39.126,AH,C,3193186168,JASSM,3,125,76,2,2,1,225,9,2,0,1,26,0,0,0,0,-159839.61462576812,-4786988.188447799,4202810.519011021,-2.3654,-0.396822,0.382728,74.0,-30.875,-32.125,0.0,0.0,0.0,0.0,0.0,0.0,2,0,41.45696433917222,-91.912420440343,10997.375615436857,119.88197972942332,-0.0055220084503031,0.0057174362001306,,10022.661867135384,12264.339701119052,150,1,2025-09-12,2025-09-26 14:26:39.023,AH,C,1579047580,AMBUSH51,1,1,48,2,1,1,225,2,1,0,0,9,1,225,2,1,-149356.79085614704,-4791567.443202116,4197507.336094872,2.4276,2.89203,-0.237618,-113.329,28.9983,28.284,-0.264476,-7.36429,6.78465,0.0359724,0.000652266,0.00363376,4,0,41.39593990491837,-91.7853748140013,9912.322859831793,-71.58924631936229,-0.1326720342568827,6.174426458177371,196.748,10022.661867135384,12264.339701119052,150,True,6.7855280285886606,False,168.58967478028404,176.8387443865112,False,14.250097034861854,True,False
1,1970-07-23 10:27:52.001305583,2025-09-12,2025-09-26 14:26:40.130,AH,C,3194319562,JASSM,3,125,76,2,2,1,225,9,2,0,1,26,0,0,0,0,-159769.27819998687,-4787017.670869674,4202779.819792271,-2.3654,-0.396822,0.382728,74.0,-30.875,-32.125,0.0,0.0,0.0,0.0,0.0,0.0,2,0,41.45659571352985,-91.91156775178736,10997.376000603528,119.88254425616978,-0.0047842613367252,0.0057162070162898,,10022.661867135384,12264.339701119052,150,1,2025-09-12,2025-09-26 14:26:40.056,AH,C,1580280344,AMBUSH51,1,1,48,2,1,1,225,2,1,0,0,9,1,225,2,1,-149474.554023534,-4791536.538037824,4197536.8153242525,2.45096,2.8837,-0.245829,-113.132,29.8254,29.2357,-0.14915,-7.19632,6.65885,0.00297421,0.000618977,0.00660069,4,0,41.39630091471379,-91.78679313134306,9909.286259765347,-70.9299139848488,-0.1501081257053904,7.396815085056762,197.042,10022.661867135384,12264.339701119052,150,True,6.67597940704486,False,169.18542302134787,176.68811637135823,False,13.816944154692946,True,False
1,1970-07-23 10:27:52.011431442,2025-09-12,2025-09-26 14:26:41.143,AH,C,3195572260,JASSM,3,125,76,2,2,1,225,9,2,0,1,26,0,0,0,0,-159691.53747733062,-4787050.254854049,4202745.888151646,-2.3654,-0.396822,0.382728,74.0,-30.875,-32.125,0.0,0.0,0.0,0.0,0.0,0.0,2,0,41.45618828267764,-91.91062531298334,10997.37387231138,119.8831681977172,-0.0039688558894064,0.005714854424641,,10022.661867135384,12264.339701119052,150,1,2025-09-12,2025-09-26 14:26:41.057,AH,C,1581473344,AMBUSH51,1,1,48,2,1,1,225,2,1,0,0,9,1,225,2,1,-149586.70785106882,-4791506.202949681,4197566.044621624,2.45984,2.87781,-0.258205,-112.815,30.7166,30.294,-0.208397,-7.43227,6.85206,-0.0218618,-0.000100909,0.00608886,4,0,41.396657870456416,-91.78814424223158,9906.687043865202,-70.18971660165651,0.096631642228024,7.820733642214957,197.494,10022.661867135384,12264.339701119052,150,True,6.564498849365938,False,169.85330443580264,176.5409897624997,False,13.306447799027813,True,False
1,1970-07-23 10:27:52.023145784,2025-09-12,2025-09-26 14:26:42.314,AH,C,3196824958,JASSM,3,125,76,2,2,1,225,9,2,0,1,26,0,0,0,0,-159613.79724295562,-4787082.838838424,4202711.956511021,-2.3654,-0.396822,0.382728,74.0,-30.875,-32.125,0.0,0.0,0.0,0.0,0.0,0.0,2,0,41.45578084397883,-91.90968289181244,10997.376026703783,119.88379212254893,-0.0031534541292847,0.0057134995354033,,10022.661867135384,12264.339701119052,150,1,2025-09-12,2025-09-26 14:26:42.124,AH,C,1582745876,AMBUSH51,1,1,48,2,1,1,225,2,1,0,0,9,1,225,2,1,-149707.62500132155,-4791472.901169715,4197598.546771295,2.32326,2.86464,-0.269561,-112.655,31.3484,30.8128,0.0133227,-7.15027,6.62334,-0.178102,0.00514011,0.0185225,4,0,41.39705292417111,-91.789601163928,9904.571488225472,-69.2176699156018,0.0123623405740281,-0.2005195046162945,197.653,10022.661867135384,12264.339701119052,150,True,6.447830920541895,False,170.23651339727962,176.38248682494677,False,13.09952465565215,True,False
1,1970-07-23 10:27:52.034990643,2025-09-12,2025-09-26 14:26:43.499,AH,C,3198137310,JASSM,3,125,76,2,2,1,225,9,2,0,1,26,0,0,0,0,-159532.35486014312,-4787116.973604049,4202676.407682896,-2.3654,-0.396822,0.382728,74.0,-30.875,-32.125,0.0,0.0,0.0,0.0,0.0,0.0,2,0,41.45535399074675,-91.9086956036482,10997.377727855575,119.8844457459228,-0.0022992198806493,0.0057120772083149,,10022.661867135384,12264.339701119052,150,1,2025-09-12,2025-09-26 14:26:43.457,AH,C,1584336540,AMBUSH51,1,1,48,2,1,1,225,2,1,0,0,9,1,225,2,1,-149857.48257100175,-4791431.587949706,4197639.006588908,2.14317,2.86946,-0.259698,-113.286,30.8066,30.1468,-0.0707536,-7.09395,6.43045,-0.0580288,-0.00547092,-0.0322939,4,0,41.397543954098246,-91.79140682676768,9902.248221495813,-69.81288829019468,-0.1796150472223815,-10.445827499428026,198.362,10022.661867135384,12264.339701119052,150,False,6.312623026609135,False,169.75026211336984,176.18331044135724,False,13.78979967137909,True,False
1,1970-07-23 10:27:52.043244147,2025-09-12,2025-09-26 14:26:44.324,AH,C,3199330356,JASSM,3,125,76,2,2,1,225,9,2,0,1,26,0,0,0,0,-159458.31579764312,-4787148.002900924,4202644.089323521,-2.3654,-0.396726,0.382728,74.0,-30.875,-32.125,0.0,0.0,0.0,0.0,0.0,0.0,2,0,41.45496594044089,-91.90779807473837,10997.374899186218,119.88140340262196,-0.0050922640761153,0.0036595581543912,,10022.661867135384,12264.339701119052,150,1,2025-09-12,2025-09-26 14:26:44.490,AH,C,1585569306,AMBUSH51,1,1,48,2,1,1,225,2,1,0,0,9,1,225,2,1,-149975.65240609966,-4791399.608530659,4197669.610294898,2.15706,2.88093,-0.243272,-114.045,30.2651,28.8106,0.0718442,-7.31647,6.62118,0.0781066,0.00328422,-0.0156409,4,0,41.397918795677775,-91.79283047379232,9899.074468858547,-70.93583915672038,-0.357794881110075,-9.480807487005231,198.85,10022.661867135384,12264.339701119052,150,True,6.200316753086015,False,169.01694900126998,176.00972712818233,False,14.720766940060578,True,False
1,1970-07-23 10:27:52.053351788,2025-09-12,2025-09-26 14:26:45.335,AH,C,3200583054,JASSM,3,125,76,2,2,1,225,9,2,0,1,26,0,0,0,0,-159380.57556326812,-4787180.584932174,4202610.153776646,-2.3654,-0.396726,0.382728,74.0,-30.875,-32.125,0.0,0.0,0.0,0.0,0.0,0.0,2,0,41.45455846377836,-91.90685568973204,10997.376497192809,119.8820272884748,-0.0042768554041706,0.0036581383603887,,10022.661867135384,12264.339701119052,150,1,2025-09-12,2025-09-26 14:26:45.190,AH,C,1586404404,AMBUSH51,1,1,48,2,1,1,225,2,1,0,0,9,1,225,2,1,-150055.65087440348,-4791378.509221236,4197689.47003749,2.23759,2.88802,-0.239265,-114.485,29.7904,28.2657,-0.291397,-7.30663,6.61963,0.100993,0.00235419,-0.00841705,4,0,41.39816347888304,-91.79379405631516,9896.421475754309,-71.37376275494208,-0.225012741497525,-4.767791230734972,199.07,10022.661867135384,12264.339701119052,150,True,6.107294537105095,False,168.62637774558382,175.872861133333,False,15.247543575071198,True,False
1,1970-07-23 10:27:52.064301813,2025-09-12,2025-09-26 14:26:46.430,AH,C,3201835754,JASSM,3,125,76,2,2,1,225,9,2,0,1,26,0,0,0,0,-159302.83532889312,-4787213.165010299,4202576.218229771,-2.3654,-0.396726,0.382728,74.0,-30.875,-32.125,0.0,0.0,0.0,0.0,0.0,0.0,2,0,41.45415099099684,-91.90591331729853,10997.377537945818,119.88265116096024,-0.0034614529736663,0.0036567283259912,,10022.661867135384,12264.339701119052,150,1,2025-09-12,2025-09-26 14:26:46.257,AH,C,1587676936,AMBUSH51,1,1,48,2,1,1,225,2,1,0,0,9,1,225,2,1,-150177.1850468642,-4791346.94884757,4197719.205673272,2.32529,2.89113,-0.242045,-114.805,29.4109,28.2728,-0.054172,-7.5306,6.85943,0.0691018,0.0103416,0.00630732,4,0,41.398529310799695,-91.79525776628608,9892.66822577318,-71.37596859702678,0.0112394413691354,0.2994300931996389,199.327,10022.661867135384,12264.339701119052,150,True,5.9915775742361355,False,168.47131293546562,175.67185944317595,False,15.592673256859179,True,False
1,1970-07-23 10:27:52.075791826,2025-09-12,2025-09-26 14:26:47.579,AH,C,3203088452,JASSM,3,125,76,2,2,1,225,9,2,0,1,26,0,0,0,0,-159225.09411795562,-4787245.743135299,4202542.282682896,-2.3654,-0.396726,0.382728,74.0,-30.875,-32.125,0.0,0.0,0.0,0.0,0.0,0.0,2,0,41.45374352228984,-91.90497094576196,10997.377941500614,119.8832750278081,-0.0026460492938829,0.0036553325785647,,10022.661867135384,12264.339701119052,150,1,2025-09-12,2025-09-26 14:26:47.675,AH,C,1589347136,AMBUSH51,1,1,48,2,1,1,225,2,1,0,0,9,1,225,2,1,-150337.9723003507,-4791305.67575758,4197758.810903833,2.40005,2.88734,-0.247481,-114.801,29.6498,28.9183,-0.0573071,-7.18941,6.56444,0.0300885,0.00946151,0.00238124,4,0,41.39901220435864,-91.79719407084892,9889.47441431699,-71.00552578432021,0.0706392991098588,4.530447276334788,199.816,10022.661867135384,12264.339701119052,150,True,5.854401365094571,False,168.7584060304186,175.40558026969234,False,15.569243113417587,True,False
1,1970-07-23 10:27:52.084472136,2025-09-12,2025-09-26 14:26:48.447,AH,C,3204281500,JASSM,3,125,76,2,2,1,225,9,2,0,1,26,0,0,0,0,-159151.05603201812,-4787276.770479049,4202509.960417271,-2.3654,-0.396726,0.382728,74.0,-30.875,-32.125,0.0,0.0,0.0,0.0,0.0,0.0,2,0,41.45335542790606,-91.90407347370316,10997.37787855995,119.88386916570944,-0.0018694723606758,0.0036539793030393,,10022.661867135384,12264.339701119052,150,1,2025-09-12,2025-09-26 14:26:48.369,AH,C,1590182234,AMBUSH51,1,1,48,2,1,1,225,2,1,0,0,9,1,225,2,1,-150418.32572743497,-4791284.622518551,4197779.086294266,2.42359,2.88389,-0.253661,-114.686,30.0373,29.4409,-0.0537035,-7.42517,6.6938,0.0520804,-0.00304495,0.0137226,4,0,41.399259316873234,-91.7981619101349,9887.88077033396,-70.61668982533779,0.1729608524481926,5.831420918551147,199.889,10022.661867135384,12264.339701119052,150,True,5.763624452760934,False,169.06312266628203,175.25226819413868,False,15.42031102531231,True,False
1,1970-07-23 10:27:52.095487721,2025-09-12,2025-09-26 14:26:49.548,AH,C,3205593850,JASSM,3,125,76,2,2,1,225,9,2,0,1,26,0,0,0,0,-159069.61267264312,-4787310.897432174,4202474.405729771,-2.3654,-0.396726,0.382824,74.0,-30.875,-32.125,0.0,0.0,0.0,0.0,0.0,0.0,2,0,41.45292853354639,-91.90308625052452,10997.374030095396,119.88837081493703,-0.004935331167909,0.0036523121567666,,10022.661867135384,12264.339701119052,150,1,2025-09-12,2025-09-26 14:26:49.557,AH,C,1591613832,AMBUSH51,1,1,48,2,1,1,225,2,1,0,0,9,1,225,2,1,-150556.81725654172,-4791247.567649085,4197815.38438711,2.50692,2.87436,-0.264484,-114.183,30.9797,30.8833,-0.237456,-7.27629,6.54759,0.0531644,-0.0120789,0.0149564,4,0,41.39969891094428,-91.79983031625366,9886.186559612246,-69.80449445907169,0.2126829465922815,10.468747371868538,200.182,10022.661867135384,12264.339701119052,150,False,5.635738484469307,False,169.89539187502496,175.0079498508672,False,14.830909780025994,True,False
1,1970-07-23 10:27:52.105261639,2025-09-12,2025-09-26 14:26:50.526,AH,C,3206786964,JASSM,3,125,76,2,2,1,225,9,2,0,1,26,0,0,0,0,-158995.56970389312,-4787341.924775924,4202442.081511021,-2.3654,-0.396726,0.382824,74.0,-30.875,-32.25,0.0,0.0,0.0,0.0,0.0,0.0,2,0,41.45254041219656,-91.9021887425587,10997.377407875372,119.88896496708982,-0.004158710019695,0.0036510221915745,,10022.661867135384,12264.339701119052,150,1,2025-09-12,2025-09-26 14:26:50.457,AH,C,1592687532,AMBUSH51,1,1,48,2,1,1,225,2,1,0,0,9,1,225,2,1,-150658.21573272138,-4791219.101850382,4197843.2285817005,2.55262,2.86122,-0.2716,-113.617,32.3265,31.9958,-0.217528,-7.30061,6.49285,0.0394096,-0.000785425,0.0160216,4,0,41.40003725569931,-91.801052378867,9884.419276148725,-69.01068151430346,-0.0357062687689904,12.889081463958382,200.219,10022.661867135384,12264.339701119052,150,False,5.532555147638303,False,170.68862373929997,174.89104811350882,False,14.199404568783924,True,False
1,1970-07-23 10:27:52.116280663,2025-09-12,2025-09-26 14:26:51.628,AH,C,3208039596,JASSM,3,125,76,2,2,1,225,9,2,0,1,26,0,0,0,0,-158917.83337576812,-4787374.497041549,4202408.142057896,-2.3654,-0.396726,0.382824,74.0,-30.875,-32.25,0.0,0.0,0.0,0.0,0.0,0.0,2,0,41.45213292044127,-91.90124647834068,10997.37209427353,119.88958874305332,-0.0033433492385661,0.0036496649713593,,10022.661867135384,12264.339701119052,150,1,2025-09-12,2025-09-26 14:26:51.623,AH,C,1594079364,AMBUSH51,1,1,48,2,1,1,225,2,1,0,0,9,1,225,2,1,-150791.0238710839,-4791179.950897637,4197881.513514465,2.57942,2.84415,-0.288884,-112.623,34.2652,33.7423,-0.168787,-7.31948,6.6373,-0.00133054,0.00114329,0.0222447,4,0,41.400503753773336,-91.80265371490356,9881.459531756896,-67.64661437072307,-0.0343320121802732,14.15334759460425,200.402,10022.661867135384,12264.339701119052,150,False,5.40873106840145,False,171.98220631538962,174.65655504697517,False,13.179082066023275,True,False
1,1970-07-23 10:27:52.126323518,2025-09-12,2025-09-26 14:26:52.632,AH,C,3209292582,JASSM,3,125,76,2,2,1,225,9,2,0,1,26,0,0,0,0,-158840.07458670562,-4787407.079072799,4202374.194792271,-2.3654,-0.396726,0.382824,74.0,-30.875,-32.25,0.0,0.0,0.0,0.0,0.0,0.0,2,0,41.451725314535565,-91.90030395352484,10997.37622433484,119.89021268648698,-0.0025277583705067,0.0036483172088158,,10022.661867135384,12264.339701119052,150,1,2025-09-12,2025-09-26 14:26:52.623,AH,C,1595272362,AMBUSH51,1,1,48,2,1,1,225,2,1,0,0,9,1,225,2,1,-150902.6478709522,-4791144.9665876655,4197915.795122815,2.51027,2.83008,-0.29904,-111.885,35.4577,35.3716,-0.223842,-7.49852,6.79373,-0.124059,0.00639679,0.0121288,4,0,41.40092238726518,-91.80400042296966,9878.431929782351,-66.69331422964744,-0.1883720868606346,9.9557045124301,200.488,10022.661867135384,12264.339701119052,150,True,5.296001275899336,False,172.98485016113418,174.45511928828262,False,12.383178102266612,True,False
1,1970-07-23 10:27:52.136471724,2025-09-12,2025-09-26 14:26:53.647,AH,C,3210485340,JASSM,3,125,76,2,2,1,225,9,2,0,1,26,0,0,0,0,-158766.05407889312,-4787438.094697799,4202341.876432896,-2.3654,-0.39663,0.382824,74.0,-30.875,-32.25,0.0,0.0,0.0,0.0,0.0,0.0,2,0,41.45133727625974,-91.89940675189088,10997.377288487023,119.88717035290038,-0.0053209816811937,0.0015953092168105,,10022.661867135384,12264.339701119052,150,1,2025-09-12,2025-09-26 14:26:53.666,AH,C,1596505128,AMBUSH51,1,1,48,2,1,1,225,2,1,0,0,9,1,225,2,1,-151019.24539411167,-4791107.402328448,4197953.177015215,2.38576,2.82192,-0.307373,-111.42,36.1472,36.4037,-0.230715,-7.60474,6.83184,-0.118778,0.00879155,0.00127644,4,0,41.40137634922289,-91.80540753843842,9876.178344093572,-66.04095830102956,-0.1770513386734944,2.6798875660059496,200.745,10022.661867135384,12264.339701119052,150,True,5.182235058605112,False,173.60043996363274,174.24901782630062,False,11.973901391661865,True,False
1,1970-07-23 10:27:52.145501513,2025-09-12,2025-09-26 14:26:54.550,AH,C,3211618734,JASSM,3,125,76,2,2,1,225,9,2,0,1,26,0,0,0,0,-158695.71618826812,-4787467.563447799,4202311.167448521,-2.3654,-0.39663,0.382824,74.0,-30.875,-32.25,0.0,0.0,0.0,0.0,0.0,0.0,2,0,41.450968569634725,-91.89855419863008,10997.375752568609,119.88773472731718,-0.0045832339588696,0.0015940537497004,,10022.661867135384,12264.339701119052,150,1,2025-09-12,2025-09-26 14:26:54.569,AH,C,1597578826,AMBUSH51,1,1,48,2,1,1,225,2,1,0,0,9,1,225,2,1,-151119.5544165511,-4791074.779165015,4197986.091429075,2.29305,2.82535,-0.305608,-111.391,36.0787,36.6541,-0.0688722,-7.59469,6.52509,-0.0561355,-0.00317395,0.00103093,4,0,41.40177379824146,-91.80661821340728,9875.129772782648,-66.24473702881845,-0.1114459022036435,-2.572251001808516,200.708,10022.661867135384,12264.339701119052,150,True,5.08000204075858,False,173.6688902876982,174.06344056743822,False,12.076609127954388,True,False
