Subject_cm,Timestamp,SampleDate_cm,SampleTime_cm,Configuration_cm,Scenario_cm,DisTime_cm,MarkingTxt_cm,Application_cm,EntId_cm,Site_cm,ExerciseId_cm,ForceId_cm,Category_cm,Country_cm,Domain_cm,Kind_cm,Extra_cm,Specific_cm,Subcategory_cm,AltCategory_cm,AltCountry_cm,AltDomain_cm,AltKind_cm,ECEF_X_cm,ECEF_Y_cm,ECEF_Z_cm,OriPhi_cm,OriPsi_cm,OriTheta_cm,LinVelX_cm,LinVelY_cm,LinVelZ_cm,LinAccX_cm,LinAccY_cm,LinAccZ_cm,AngVelX_cm,AngVelY_cm,AngVelZ_cm,DrAlg_cm,Appearance_cm,Latitude_cm,Longitude_cm,Altitude_cm,Heading_cm,Pitch_cm,Roll_cm,CalibratedAirspeed_cm,CM_Altitude_Lead_cm,CM_Altitude_Wing_cm,CM_Airspeed_cm,Subject_ac,SampleDate_ac,SampleTime_ac,Configuration_ac,Scenario_ac,DisTime_ac,MarkingTxt_ac,Application_ac,EntId_ac,Site_ac,ExerciseId_ac,ForceId_ac,Category_ac,Country_ac,Domain_ac,Kind_ac,Extra_ac,Specific_ac,Subcategory_ac,AltCategory_ac,AltCountry_ac,AltDomain_ac,AltKind_ac,ECEF_X_ac,ECEF_Y_ac,ECEF_Z_ac,OriPhi_ac,OriPsi_ac,OriTheta_ac,LinVelX_ac,LinVelY_ac,LinVelZ_ac,LinAccX_ac,LinAccY_ac,LinAccZ_ac,AngVelX_ac,AngVelY_ac,AngVelZ_ac,DrAlg_ac,Appearance_ac,Latitude_ac,Longitude_ac,Altitude_ac,Heading_ac,Pitch_ac,Roll_ac,CalibratedAirspeed_ac,CM_Altitude_Lead_ac,CM_Altitude_Wing_ac,CM_Airspeed_ac,Bank_Angle_Condition,distance_nm,Distance_Condition,angle_between_vel,angle_between_pos,Cone_Condition,angle_between_pos_nose,Nose_Cone_Condition,Intercept_Criteria
1,1970-07-23 09:33:51.218161576,2025-09-08,2025-09-26 20:25:21.816,HA,A,4033866160,JASSM,3,136,76,2,2,1,225,9,2,0,1,26,0,0,0,0,-188183.50232108065,-4786559.776338424,4202591.102995396,-2.30155,-0.153302,0.128183,96.25,-14.75,-12.375,0.0,0.0,0.0,0.0,0.0,0.0,2,0,41.45190065203423,-92.25142292483972,12000.00313968092,99.817046696373,-0.0033568321628582,0.0023903023080967,,11234.154333429517,13311.964484051983,150,1,2025-09-08,2025-09-26 20:25:22.090,HA,A,1480091012,AMBUSH51,1,1,48,2,1,1,225,2,1,0,0,9,1,225,2,1,-144064.50761189975,-4793322.658082413,4196309.622247311,2.2848,2.95303,-0.19601,-113.186,23.738,25.9415,-0.0860787,-7.45736,6.55938,-0.0126615,-0.00154068,0.0011308,4,0,41.37837799093728,-91.72152070345736,11234.154333429517,-75.6107266989106,0.7195604031012587,-1.272768890649267,195.478,11234.154333429517,13311.964484051983,150,True,24.234945741460212,False,173.7813431470293,179.23201812316546,False,5.561702352360251,True,False
1,1970-07-23 09:33:51.229110419,2025-09-08,2025-09-26 20:25:22.911,HA,A,4034999766,JASSM,3,136,76,2,2,1,225,9,2,0,1,26,0,0,0,0,-188092.04919608065,-4786573.913057174,4202579.175261021,-2.30155,-0.153302,0.128183,96.25,-14.75,-12.375,0.0,0.0,0.0,0.0,0.0,0.0,2,0,41.45175745141985,-92.2503232676483,12000.000883166917,99.8177746586157,-0.0025202778929251,0.0023897333358928,,11234.154333429517,13311.964484051983,150,1,2025-09-08,2025-09-26 20:25:22.957,HA,A,1481124944,AMBUSH51,1,1,48,2,1,1,225,2,1,0,0,9,1,225,2,1,-144162.31224149524,-4793302.162002919,4196332.189626973,2.28211,2.95645,-0.196767,-113.084,23.3546,26.1203,-0.284227,-7.60381,6.7555,0.0127697,0.00205667,-0.0102147,4,0,41.37863476630972,-91.7226960924862,11239.898167338952,-75.70836563146467,0.8920214331209626,-1.390428491052248,195.368,11234.154333429517,13311.964484051983,150,True,24.13002820262483,False,173.77445869973195,179.24139846591837,False,5.567117364262531,True,False
1,1970-07-23 09:33:51.237258081,2025-09-08,2025-09-26 20:25:23.725,HA,A,4036192600,JASSM,3,136,76,2,2,1,225,9,2,0,1,26,0,0,0,0,-187995.81872733065,-4786588.790010299,4202566.622526646,-2.30155,-0.153302,0.128183,96.25,-14.75,-12.375,0.0,0.0,0.0,0.0,0.0,0.0,2,0,41.45160673551989,-92.2491661707764,12000.003490980209,99.81854064312924,-0.0016400189386588,0.0023891116518052,,11234.154333429517,13311.964484051983,150,1,2025-09-08,2025-09-26 20:25:23.758,HA,A,1482079342,AMBUSH51,1,1,48,2,1,1,225,2,1,0,0,9,1,225,2,1,-144252.7657015289,-4793283.485646974,4196353.026971989,2.28475,2.95745,-0.19745,-113.058,23.1001,26.1734,-0.0731654,-7.52643,6.67722,0.0114422,0.00200465,0.00192143,4,0,41.37887034256544,-91.72378304449808,11245.82873694884,-75.7181268016838,0.9611433983509066,-1.2278004608377295,195.184,11234.154333429517,13311.964484051983,150,True,24.02663386420525,False,173.7996839679924,179.24988552267214,False,5.544916749064305,True,False
1,1970-07-23 09:33:51.247308552,2025-09-08,2025-09-26 20:25:24.730,HA,A,4037325994,JASSM,3,136,76,2,2,1,225,9,2,0,1,26,0,0,0,0,-187904.3831804556,-4786602.922822799,4202554.692839146,-2.30155,-0.153302,0.128183,96.25,-14.75,-12.375,0.0,0.0,0.0,0.0,0.0,0.0,2,0,41.451463519297455,-92.24806673543206,11999.998262392108,99.81926845426749,-0.0008036221550028,0.002388521392324,,11234.154333429517,13311.964484051983,150,1,2025-09-08,2025-09-26 20:25:24.758,HA,A,1483272342,AMBUSH51,1,1,48,2,1,1,225,2,1,0,0,9,1,225,2,1,-144366.79185355338,-4793259.920364233,4196379.620107866,2.29322,2.9609,-0.195696,-112.966,22.9293,26.3472,-0.111537,-7.35766,6.63453,0.0107411,-0.00207331,-0.00492581,4,0,41.37916962358788,-91.72515328058452,11253.963700878365,-75.92331786275409,1.038294443058843,-0.7075318418567091,194.952,11234.154333429517,13311.964484051983,150,True,23.912647311010307,False,173.74650877665263,179.26146404376553,False,5.605582627501593,True,False
1,1970-07-23 09:33:51.257180365,2025-09-08,2025-09-26 20:25:25.718,HA,A,4038519040,JASSM,3,136,76,2,2,1,225,9,2,0,1,26,0,0,0,0,-187808.1370867056,-4786617.799775924,4202542.136198521,-2.30145,-0.153206,0.128183,96.25,-14.75,-12.375,0.0,0.0,0.0,0.0,0.0,0.0,2,0,41.45131275799615,-92.24690946226384,12000.000530834865,99.81639818129648,-0.0039801590116924,0.007177290010154,,11234.154333429517,13311.964484051983,150,1,2025-09-08,2025-09-26 20:25:25.725,HA,A,1484425574,AMBUSH51,1,1,48,2,1,1,225,2,1,0,0,9,1,225,2,1,-144474.72771720155,-4793237.923745419,4196404.710972821,2.29609,2.96478,-0.195632,-112.845,22.9614,26.2221,-0.098667,-7.35431,6.69659,0.00941365,0.00261427,-0.00117033,4,0,41.37945050797609,-91.72645022954065,11262.256126481418,-76.07324326105561,1.1989031483790658,-0.5026384472729134,194.573,11234.154333429517,13311.964484051983,150,True,23.799465672185377,False,173.77679693946192,179.27221721839484,False,5.591190987814649,True,False
1,1970-07-23 09:33:51.266242204,2025-09-08,2025-09-26 20:25:26.624,HA,A,4039652714,JASSM,3,136,76,2,2,1,225,9,2,0,1,26,0,0,0,0,-187716.67810233065,-4786631.934541549,4202530.204557896,-2.30145,-0.153206,0.128279,96.25,-14.75,-12.375,0.0,0.0,0.0,0.0,0.0,0.0,2,0,41.45116950087137,-92.24580975581635,12000.002771729049,99.8212166872619,-0.0068099763899118,0.0071763081481951,,11234.154333429517,13311.964484051983,150,1,2025-09-08,2025-09-26 20:25:26.658,HA,A,1485539038,AMBUSH51,1,1,48,2,1,1,225,2,1,0,0,9,1,225,2,1,-144580.04744312796,-4793216.581780967,4196429.420449993,2.30616,2.96414,-0.196301,-112.757,22.6071,26.599,-0.226922,-7.34563,6.62042,0.0138765,-0.00154484,0.00415807,4,0,41.37972537873232,-91.72771570918832,11271.144648900165,-76.02139998262022,1.1987254391398123,0.0678677994117589,194.463,11234.154333429517,13311.964484051983,150,True,23.69036686491003,False,173.66900504192773,179.28306768868663,False,5.698498762853154,True,False
1,1970-07-23 09:33:51.276303642,2025-09-08,2025-09-26 20:25:27.630,HA,A,4040845482,JASSM,3,136,76,2,2,1,225,9,2,0,1,26,0,0,0,0,-187620.4534929556,-4786646.803682174,4202517.647917271,-2.30145,-0.153206,0.128279,96.25,-14.75,-12.375,0.0,0.0,0.0,0.0,0.0,0.0,2,0,41.45101875834892,-92.24465275353226,11999.997567123728,99.82198260030516,-0.005929774969874,0.0071757023599798,,11234.154333429517,13311.964484051983,150,1,2025-09-08,2025-09-26 20:25:27.590,HA,A,1486652504,AMBUSH51,1,1,48,2,1,1,225,2,1,0,0,9,1,225,2,1,-144686.20075108565,-4793195.1299709175,4196454.510149672,2.31899,2.96618,-0.19823,-112.545,22.6866,26.6918,-0.11515,-7.26694,6.55742,0.0110677,-0.00505897,-0.00434532,4,0,41.38000330630601,-91.72899119322592,11280.65566274914,-76.0170463850951,1.358944829815066,0.8262170285685202,194.121,11234.154333429517,13311.964484051983,150,True,23.578180418371552,False,173.58576410555534,179.29421773076461,False,5.796529760613103,True,False
1,1970-07-23 09:33:51.286159409,2025-09-08,2025-09-26 20:25:28.615,HA,A,4042038526,JASSM,3,136,76,2,2,1,225,9,2,0,1,26,0,0,0,0,-187524.20544608065,-4786661.676729049,4202505.089323521,-2.30145,-0.153206,0.128279,96.25,-14.75,-12.375,0.0,0.0,0.0,0.0,0.0,0.0,2,0,41.45086797322671,-92.24349547466156,12000.000410902634,99.82274869415107,-0.0050493600196121,0.0071751020734636,,11234.154333429517,13311.964484051983,150,1,2025-09-08,2025-09-26 20:25:28.591,HA,A,1487845504,AMBUSH51,1,1,48,2,1,1,225,2,1,0,0,9,1,225,2,1,-144798.69586081084,-4793172.333791507,4196481.243690172,2.3226,2.9636,-0.199318,-112.381,22.7347,26.9023,-0.169798,-7.24035,6.65097,-0.00134927,-0.00367745,0.00685036,4,0,41.38029917414742,-91.73034291036632,11290.901619185965,-75.87452199543378,1.2941704549844162,1.0068629987017512,193.816,11234.154333429517,13311.964484051983,150,True,23.462415809667238,False,173.463786165097,179.30631680619837,False,5.932262338291085,True,False
1,1970-07-23 09:33:51.296298055,2025-09-08,2025-09-26 20:25:29.629,HA,A,4043231574,JASSM,3,136,76,2,2,1,225,9,2,0,1,26,0,0,0,0,-187427.95935233065,-4786676.549775924,4202492.526823521,-2.30145,-0.153206,0.128279,96.25,-14.75,-12.375,0.0,0.0,0.0,0.0,0.0,0.0,2,0,41.450717149656725,-92.24233822449396,11999.99990934508,99.82351476670638,-0.0041689577133667,0.0071744723482139,,11234.154333429517,13311.964484051983,150,1,2025-09-08,2025-09-26 20:25:29.658,HA,A,1489118036,AMBUSH51,1,1,48,2,1,1,225,2,1,0,0,9,1,225,2,1,-144917.59015021677,-4793148.168207456,4196509.749768547,2.32959,2.96412,-0.20023,-112.131,22.8289,27.0858,-0.207976,-7.2285,6.53047,0.0163691,-0.000889454,-0.00275159,4,0,41.38061398707308,-91.73177155679814,11302.105519307748,-75.8561890380509,1.3519417564438672,1.4135928550465844,193.315,11234.154333429517,13311.964484051983,150,True,23.343045262067907,False,173.33297196078445,179.31952017207283,False,6.079827578420082,True,False
1,1970-07-23 09:33:51.306180388,2025-09-08,2025-09-26 20:25:30.618,HA,A,4044364968,JASSM,3,136,76,2,2,1,225,9,2,0,1,26,0,0,0,0,-187336.5238054556,-4786690.676729049,4202480.595182896,-2.30145,-0.153206,0.128279,96.25,-14.75,-12.375,0.0,0.0,0.0,0.0,0.0,0.0,2,0,41.45057388986343,-92.24123882193383,12000.003788652057,99.82424254337184,-0.0033325665252552,0.0071739095036279,,11234.154333429517,13311.964484051983,150,1,2025-09-08,2025-09-26 20:25:30.490,HA,A,1490112200,AMBUSH51,1,1,48,2,1,1,225,2,1,0,0,9,1,225,2,1,-145011.57260911597,-4793128.777634698,4196532.647482379,2.3418,2.96476,-0.200141,-111.897,23.0409,27.321,-0.277556,-7.08291,6.6048,0.00812368,0.00455754,0.0014533,4,0,41.380867000684766,-91.7329009728928,11311.048440661758,-75.88495005778162,1.3762598433445483,2.119949988265306,193.046,11234.154333429517,13311.964484051983,150,True,23.240218526124124,False,173.16043945769258,179.33018586046308,False,6.268410774747745,True,False
1,1970-07-23 09:33:51.316220329,2025-09-08,2025-09-26 20:25:31.622,HA,A,4045558014,JASSM,3,136,76,2,2,1,225,9,2,0,1,26,0,0,0,0,-187240.27575858065,-4786705.545869674,4202468.030729771,-2.30145,-0.153206,0.128279,96.25,-14.75,-12.375,0.0,0.0,0.0,0.0,0.0,0.0,2,0,41.45042305411809,-92.24008156070408,11999.998912273788,99.82500861877828,-0.0024521500811172,0.0071732928216972,,11234.154333429517,13311.964484051983,150,1,2025-09-08,2025-09-26 20:25:31.558,HA,A,1491384732,AMBUSH51,1,1,48,2,1,1,225,2,1,0,0,9,1,225,2,1,-145130.81164689636,-4793103.817792588,4196562.018582061,2.35107,2.96151,-0.204215,-111.647,23.2805,27.7966,-0.163471,-7.24303,6.61148,0.00155941,-0.00171545,0.00857101,4,0,41.38119228294551,-91.73433404584006,11322.214072007457,-75.59015248440039,1.3981615740921254,2.620906951946682,192.667,11234.154333429517,13311.964484051983,150,True,23.120541001701763,False,172.87671127942366,179.34434180263625,False,6.57057032318622,True,False
1,1970-07-23 09:33:51.326258162,2025-09-08,2025-09-26 20:25:32.625,HA,A,4046810892,JASSM,3,136,76,2,2,1,225,9,2,0,1,26,0,0,0,0,-187139.1995867056,-4786721.159150924,4202454.837370396,-2.30145,-0.153206,0.128279,96.25,-14.75,-12.375,0.0,0.0,0.0,0.0,0.0,0.0,2,0,41.450264659031184,-92.23886625395438,11999.997804727102,99.82581311626856,-0.0015275729195287,0.0071726643867224,,11234.154333429517,13311.964484051983,150,1,2025-09-08,2025-09-26 20:25:32.690,HA,A,1492736798,AMBUSH51,1,1,48,2,1,1,225,2,1,0,0,9,1,225,2,1,-145257.03704580254,-4793077.10052501,4196593.3420014605,2.35123,2.96007,-0.207382,-111.293,23.7475,27.9871,-0.180312,-7.34401,6.59188,-0.011332,0.00989219,0.00041924,4,0,41.3815399208916,-91.7358512049528,11333.818773521976,-75.40224628494227,1.4610289768671798,2.6177262743908485,192.166,11234.154333429517,13311.964484051983,150,True,22.99425758026016,False,172.65562013835887,179.35954171855593,False,6.820182037380435,True,False
1,1970-07-23 09:33:51.337278911,2025-09-08,2025-09-26 20:25:33.727,HA,A,4048063800,JASSM,3,136,76,2,2,1,225,9,2,0,1,26,0,0,0,0,-187038.12341483065,-4786736.772432174,4202441.642057896,-2.30145,-0.15311,0.128279,96.25,-14.75,-12.375,0.0,0.0,0.0,0.0,0.0,0.0,2,0,41.450106237927855,-92.23765095311724,11999.997914939722,99.822981332647,-0.0046599258842131,0.0064694605200049,,11234.154333429517,13311.964484051983,150,1,2025-09-08,2025-09-26 20:25:33.791,HA,A,1494049096,AMBUSH51,1,1,48,2,1,1,225,2,1,0,0,9,1,225,2,1,-145377.94732587418,-4793051.098724691,4196623.717967503,2.33345,2.95517,-0.21226,-110.941,24.0333,28.1737,-0.205514,-7.20537,6.45789,-0.00707298,-0.00564777,0.00143249,4,0,41.381877845208265,-91.7373046412245,11344.741371015223,-75.01185694498905,1.4461832976015243,1.5506010989285577,191.934,11234.154333429517,13311.964484051983,150,True,22.870900014510106,False,172.46803057677747,179.37437784243485,False,7.032141032431839,True,False
1,1970-07-23 09:33:51.347916098,2025-09-08,2025-09-26 20:25:34.791,HA,A,4049316408,JASSM,3,136,76,2,2,1,225,9,2,0,1,26,0,0,0,0,-186937.0706804556,-4786752.381807174,4202428.448698521,-2.30145,-0.15311,0.128279,96.25,-14.75,-12.375,0.0,0.0,0.0,0.0,0.0,0.0,2,0,41.44994783495848,-92.23643594012852,12000.000377117743,99.82378563067029,-0.0037355599726869,0.00646875479546,,11234.154333429517,13311.964484051983,150,1,2025-09-08,2025-09-26 20:25:34.790,HA,A,1495242096,AMBUSH51,1,1,48,2,1,1,225,2,1,0,0,9,1,225,2,1,-145488.80683219852,-4793026.87149437,4196651.919876326,2.32346,2.95399,-0.212221,-110.748,24.2968,28.2984,0.0325001,-7.1255,6.12196,0.000731329,-0.00284729,-0.000893615,4,0,41.38219233302228,-91.73863741145765,11354.57268748846,-74.96998834453733,1.3967196989842166,0.9647376782238284,191.701,11234.154333429517,13311.964484051983,150,True,22.753147997442458,False,172.33316444540165,179.38814856339653,False,7.19039330508672,True,False
1,1970-07-23 09:33:51.358196394,2025-09-08,2025-09-26 20:25:35.819,HA,A,4050568810,JASSM,3,136,76,2,2,1,225,9,2,0,1,26,0,0,0,0,-186836.03357108065,-4786767.985322799,4202415.257292271,-2.30145,-0.15311,0.128375,96.25,-14.75,-12.5,0.0,0.0,0.0,0.0,0.0,0.0,2,0,41.44978946357286,-92.23522112252556,11999.99963888875,99.8286803617295,-0.0064777159771407,0.0064677369672146,,11234.154333429517,13311.964484051983,150,1,2025-09-08,2025-09-26 20:25:35.791,HA,A,1496435094,AMBUSH51,1,1,48,2,1,1,225,2,1,0,0,9,1,225,2,1,-145599.41598512456,-4793002.50638673,4196680.02964636,2.3139,2.95397,-0.211526,-110.583,24.4541,28.3046,-0.2435,-7.14167,6.52973,-0.00430371,-0.00199425,0.00275783,4,0,41.382507048051686,-91.73996725332674,11363.853217267912,-74.99947311002661,1.370034155323872,0.4161733301879732,191.347,11234.154333429517,13311.964484051983,150,True,22.635533997636912,False,172.33653777530074,179.47252535247944,False,7.273363958966267,True,False
1,1970-07-23 09:33:51.370705779,2025-09-08,2025-09-26 20:25:37.070,HA,A,4051881158,JASSM,3,136,76,2,2,1,225,9,2,0,1,26,0,0,0,0,-186730.1605242056,-4786784.334932174,4202401.433073521,-2.30145,-0.15311,0.128375,96.25,-14.75,-12.5,0.0,0.0,0.0,0.0,0.0,0.0,2,0,41.44962349301725,-92.23394816681164,11999.999796477212,99.82952301057811,-0.0055092609812314,0.0064670817322207,,11234.154333429517,13311.964484051983,150,1,2025-09-08,2025-09-26 20:25:37.223,HA,A,1498145060,AMBUSH51,1,1,48,2,1,1,225,2,1,0,0,9,1,225,2,1,-145757.83074433697,-4792967.121580151,4196720.548422504,2.30103,2.95315,-0.208671,-110.326,24.5781,28.3285,-0.238163,-6.98542,6.63235,-0.00339241,-0.00801549,-0.000606493,4,0,41.38296241929455,-91.74187205471998,11376.5174015246,-75.09107038502053,1.2275694928118346,-0.3333499780286748,190.956,11234.154333429517,13311.964484051983,150,True,22.488324216254313,False,172.26072504016867,179.49162679297064,False,7.380209297398677,True,False
1,1970-07-23 09:33:51.379257752,2025-09-08,2025-09-26 20:25:37.925,HA,A,4053133858,JASSM,3,136,76,2,2,1,225,9,2,0,1,26,0,0,0,0,-186629.09997733065,-4786799.940400924,4202388.235807896,-2.30145,-0.15311,0.128375,96.25,-14.75,-12.5,0.0,0.0,0.0,0.0,0.0,0.0,2,0,41.44946504964513,-92.2327330802906,12000.000058662248,99.83032734960722,-0.0045848271139081,0.0064664523032808,,11234.154333429517,13311.964484051983,150,1,2025-09-08,2025-09-26 20:25:37.857,HA,A,1498900624,AMBUSH51,1,1,48,2,1,1,225,2,1,0,0,9,1,225,2,1,-145828.372605509,-4792951.336894864,4196738.470978984,2.29613,2.95281,-0.208814,-110.257,24.6525,28.2072,-0.105088,-7.15619,6.35406,-0.0113403,-0.000737571,0.00325717,4,0,41.38316453799124,-91.74272027794473,11381.83163242532,-75.07277681165694,1.2195637579680678,-0.6175507936496347,190.87,11234.154333429517,13311.964484051983,150,True,22.39321768335194,False,172.28417769827743,179.49912148205627,False,7.372118435047681,True,False
1,1970-07-23 09:33:51.390317587,2025-09-08,2025-09-26 20:25:39.031,HA,A,4054386558,JASSM,3,136,76,2,2,1,225,9,2,0,1,26,0,0,0,0,-186528.0394304556,-4786815.545869674,4202375.036589146,-2.30145,-0.15311,0.128375,96.25,-14.75,-12.5,0.0,0.0,0.0,0.0,0.0,0.0,2,0,41.44930658026112,-92.23151799968284,12000.001536981052,99.831131682194,-0.0036603909719627,0.006465809844956,,11234.154333429517,13311.964484051983,150,1,2025-09-08,2025-09-26 20:25:39.024,HA,A,1500292456,AMBUSH51,1,1,48,2,1,1,225,2,1,0,0,9,1,225,2,1,-145956.85425527274,-4792922.363457891,4196771.221396258,2.29678,2.95348,-0.204435,-110.2,23.6398,29.1453,-0.183655,-7.03089,6.48296,0.00135551,-0.000207019,-0.00934499,4,0,41.38353470612689,-91.7442652859332,11391.199335467194,-75.28511207346588,1.0802928334012945,-0.5770338255722851,190.602,11234.154333429517,13311.964484051983,150,True,22.265484175286083,False,172.0816962981574,179.51342254656686,False,7.567874749601152,True,False
1,1970-07-23 09:33:51.400160873,2025-09-08,2025-09-26 20:25:40.016,HA,A,4055579918,JASSM,3,136,76,2,2,1,225,9,2,0,1,26,0,0,0,0,-186431.7659929556,-4786830.409150924,4202362.462370396,-2.30145,-0.15311,0.128375,96.25,-14.75,-12.5,0.0,0.0,0.0,0.0,0.0,0.0,2,0,41.44915562159306,-92.23036048278176,12000.000207973306,99.83189790765913,-0.0027797479522741,0.0064652135219844,,11234.154333429517,13311.964484051983,150,1,2025-09-08,2025-09-26 20:25:39.857,HA,A,1501286622,AMBUSH51,1,1,48,2,1,1,225,2,1,0,0,9,1,225,2,1,-146048.4334880191,-4792901.288698431,4196794.299662318,2.3049,2.9514,-0.205411,-110.057,24.9543,27.9748,-0.364959,-7.20063,6.58161,-0.00244782,-0.000926905,-0.00247071,4,0,41.38379926432614,-91.7453667015347,11396.265242538904,-75.16613249049686,1.0323590712895618,-0.1338470104080469,190.565,11234.154333429517,13311.964484051983,150,True,22.1611348821189,False,172.28104545552324,179.5224374925996,False,7.4249349083205685,True,False
1,1970-07-23 09:33:51.410199911,2025-09-08,2025-09-26 20:25:41.019,HA,A,4056772978,JASSM,3,136,76,2,2,1,225,9,2,0,1,26,0,0,0,0,-186335.51794608065,-4786845.268525924,4202349.890104771,-2.30145,-0.15311,0.128375,96.25,-14.75,-12.5,0.0,0.0,0.0,0.0,0.0,0.0,2,0,41.44900468181627,-92.22920327651602,12000.000903696957,99.8326639252033,-0.0018993355766864,0.0064646081729159,,11234.154333429517,13311.964484051983,150,1,2025-09-08,2025-09-26 20:25:41.024,HA,A,1502678454,AMBUSH51,1,1,48,2,1,1,225,2,1,0,0,9,1,225,2,1,-146175.865864393,-4792872.120795425,4196826.439029042,2.31322,2.95163,-0.206606,-109.911,25.0186,27.9871,-0.257527,-7.19123,6.50657,0.00470318,0.00298669,-0.00118906,4,0,41.384166617256106,-91.74689927639344,11403.76657498986,-75.12517917605823,1.0892896920109674,0.3467787527225142,190.443,11234.154333429517,13311.964484051983,150,True,22.036626177097357,False,172.23849130623518,179.53493283351227,False,7.492593044091905,True,False
1,1970-07-23 09:33:51.420238230,2025-09-08,2025-09-26 20:25:42.023,HA,A,4057966090,JASSM,3,136,76,2,2,1,225,9,2,0,1,26,0,0,0,0,-186239.26403983065,-4786860.127900924,4202337.315886021,-2.30145,-0.153015,0.128375,96.25,-14.75,-12.5,0.0,0.0,0.0,0.0,0.0,0.0,2,0,41.44885371857841,-92.22804600558798,12000.001747980008,99.82979380372048,-0.0050757966031323,0.0057609417632313,,11234.154333429517,13311.964484051983,150,1,2025-09-08,2025-09-26 20:25:42.157,HA,A,1504030520,AMBUSH51,1,1,48,2,1,1,225,2,1,0,0,9,1,225,2,1,-146301.0849986009,-4792843.320068464,4196858.098532947,2.32201,2.94786,-0.208787,-109.811,25.1368,28.0842,-0.294608,-7.22576,6.79644,0.00827557,0.00140336,0.000469174,4,0,41.38452892777356,-91.748405300092,11410.973578569845,-74.89129415863387,1.0175849929796317,0.8095917325983778,190.479,11234.154333429517,13311.964484051983,150,True,21.91334640864152,False,172.1559808628378,179.5464535794467,False,7.600188285977347,True,False
1,1970-07-23 09:33:51.430278101,2025-09-08,2025-09-26 20:25:43.027,HA,A,4059218794,JASSM,3,136,76,2,2,1,225,9,2,0,1,26,0,0,0,0,-186138.20153983065,-4786875.725557174,4202324.112761021,-2.30145,-0.153015,0.128375,96.25,-14.75,-12.5,0.0,0.0,0.0,0.0,0.0,0.0,2,0,41.44869522027956,-92.22683092808596,11999.9964122287,99.83059812454204,-0.0041513493681926,0.0057602632737928,,11234.154333429517,13311.964484051983,150,1,2025-09-08,2025-09-26 20:25:42.890,HA,A,1504905386,AMBUSH51,1,1,48,2,1,1,225,2,1,0,0,9,1,225,2,1,-146381.61242237347,-4792824.71026904,4196878.487209202,2.32054,2.94686,-0.207519,-109.753,25.3696,28.0171,-0.141542,-7.01482,6.45642,-0.00371698,-0.0161922,0.000847842,4,0,41.38476263499256,-91.74937385237698,11415.45813885844,-74.90806474909317,0.9280100761014678,0.7133242521545317,190.406,11234.154333429517,13311.964484051983,150,True,21.81258537090177,False,172.11917277561162,179.55296143289024,False,7.658165713499116,True,False
1,1970-07-23 09:33:51.440339778,2025-09-08,2025-09-26 20:25:44.033,HA,A,4060352188,JASSM,3,136,76,2,2,1,225,9,2,0,1,26,0,0,0,0,-186046.7659929556,-4786889.838838424,4202312.167448521,-2.30145,-0.153015,0.128375,96.25,-14.75,-12.5,0.0,0.0,0.0,0.0,0.0,0.0,2,0,41.44855180140894,-92.22573160017106,12000.00002470625,99.83132582271884,-0.0033149607782842,0.0057596419206911,,11234.154333429517,13311.964484051983,150,1,2025-09-08,2025-09-26 20:25:44.058,HA,A,1506297218,AMBUSH51,1,1,48,2,1,1,225,2,1,0,0,9,1,225,2,1,-146508.66278268647,-4792795.024426453,4196910.977528181,2.31735,2.94591,-0.209102,-109.602,25.5727,28.1273,-0.199563,-7.21716,6.60576,0.00221063,0.00191311,-0.0077575,4,0,41.38513545286148,-91.75090209609056,11422.441952348205,-74.80622292114539,0.9508709100688444,0.5210841608689003,190.284,11234.154333429517,13311.964484051983,150,True,21.69085896576647,False,172.00226905510908,179.56332344150414,False,7.803361636606752,True,False
1,1970-07-23 09:33:51.450199612,2025-09-08,2025-09-26 20:25:45.019,HA,A,4061545038,JASSM,3,136,76,2,2,1,225,9,2,0,1,26,0,0,0,0,-185950.53357108065,-4786904.690400924,4202299.593229771,-2.30145,-0.153015,0.128471,96.25,-14.75,-12.5,0.0,0.0,0.0,0.0,0.0,0.0,2,0,41.44840084477028,-92.2245746057334,11999.99857470601,99.83618230118684,-0.0061010178224787,0.0057586807303189,,11234.154333429517,13311.964484051983,150,1,2025-09-08,2025-09-26 20:25:44.857,HA,A,1507251616,AMBUSH51,1,1,48,2,1,1,225,2,1,0,0,9,1,225,2,1,-146596.96216976858,-4792774.1667569885,4196933.700692603,2.31688,2.94481,-0.209705,-109.507,25.6597,28.2751,-0.0750811,-7.23441,6.3358,0.000433804,-0.000177891,0.0107702,4,0,41.38539685469976,-91.75196431039372,11427.053906462268,-74.7397977511322,0.9292493140061826,0.481819790405233,190.125,11234.154333429517,13311.964484051983,150,True,21.588311667677132,False,171.90694029022976,179.56948992062394,False,7.916684908042443,True,False
1,1970-07-23 09:33:51.460239145,2025-09-08,2025-09-26 20:25:46.023,HA,A,4062737884,JASSM,3,136,76,2,2,1,225,9,2,0,1,26,0,0,0,0,-185854.3011492056,-4786919.541963424,4202287.019011021,-2.30145,-0.153015,0.128471,96.25,-14.75,-12.5,0.0,0.0,0.0,0.0,0.0,0.0,2,0,41.44824987649171,-92.22341761665986,12000.00207349987,99.83694816356932,-0.0052207509958929,0.0057580870436531,,11234.154333429517,13311.964484051983,150,1,2025-09-08,2025-09-26 20:25:46.024,HA,A,1508643448,AMBUSH51,1,1,48,2,1,1,225,2,1,0,0,9,1,225,2,1,-146724.99729990424,-4792743.478080615,4196966.750119004,2.31913,2.94282,-0.209386,-109.433,25.987,28.3727,-0.220556,-7.17305,6.57114,0.00187358,0.00103926,-0.00651538,4,0,41.38577919701061,-91.75350471031348,11432.873011034855,-74.67942325055057,0.835759271953677,0.5884215916446446,190.015,11234.154333429517,13311.964484051983,150,True,21.46332365579357,False,171.77626953374332,179.57749540297797,False,8.079811332899157,True,False
1,1970-07-23 09:33:51.470257881,2025-09-08,2025-09-26 20:25:47.025,HA,A,4063930930,JASSM,3,136,76,2,2,1,225,9,2,0,1,26,0,0,0,0,-185758.05310233065,-4786934.393525924,4202274.440886021,-2.30145,-0.153015,0.128471,96.25,-14.75,-12.5,0.0,0.0,0.0,0.0,0.0,0.0,2,0,41.44809887383448,-92.22226044621374,12000.00054786328,99.83771414371542,-0.0043403423494785,0.0057574948229002,,11234.154333429517,13311.964484051983,150,1,2025-09-08,2025-09-26 20:25:46.857,HA,A,1509637614,AMBUSH51,1,1,48,2,1,1,225,2,1,0,0,9,1,225,2,1,-146815.00047766467,-4792721.841332359,4196989.945104446,2.32257,2.94024,-0.208215,-109.368,26.3067,28.2957,-0.143834,-7.21028,6.48802,-0.000381789,-0.00399994,-0.00383766,4,0,41.38604808278698,-91.7545875787412,11436.730973090527,-74.63224625389367,0.6842730002534645,0.7549095126261821,190.125,11234.154333429517,13311.964484051983,150,True,21.359779728754464,False,171.71594592986472,179.5817940756063,False,8.16685406909807,True,False
1,1970-07-23 09:33:51.480296805,2025-09-08,2025-09-26 20:25:48.029,HA,A,4065123976,JASSM,3,136,76,2,2,1,225,9,2,0,1,26,0,0,0,0,-185661.8050554556,-4786949.245088424,4202261.860807896,-2.30145,-0.153015,0.128471,96.25,-14.75,-12.5,0.0,0.0,0.0,0.0,0.0,0.0,2,0,41.447947846359774,-92.22110328113406,11999.999730997411,99.83848011801489,-0.0034599314289245,0.0057568895773427,,11234.154333429517,13311.964484051983,150,1,2025-09-08,2025-09-26 20:25:47.957,HA,A,1510949912,AMBUSH51,1,1,48,2,1,1,225,2,1,0,0,9,1,225,2,1,-146935.29592897903,-4792692.572469545,4197020.999306892,2.32749,2.93556,-0.207046,-109.351,26.6318,28.3703,-0.0929594,-7.07296,6.37756,0.00241661,0.00584543,-0.00418512,4,0,41.386409886115054,-91.7560350484568,11441.147822824989,-74.5060802483266,0.4465023334888064,0.9828160975842164,190.125,11234.154333429517,13311.964484051983,150,True,21.239120744441472,False,171.60065159819737,179.58631313921396,False,8.31387426010719,True,False
1,1970-07-23 09:33:51.490199973,2025-09-08,2025-09-26 20:25:49.019,HA,A,4066317038,JASSM,3,136,76,2,2,1,225,9,2,0,1,26,0,0,0,0,-185565.5550554556,-4786964.094697799,4202249.280729771,-2.30145,-0.153015,0.128471,96.25,-14.75,-12.5,0.0,0.0,0.0,0.0,0.0,0.0,2,0,41.4477968193177,-92.21994609898452,11999.998879023617,99.8392461013172,-0.0025795059782246,0.0057562990595051,,11234.154333429517,13311.964484051983,150,1,2025-09-08,2025-09-26 20:25:49.056,HA,A,1512262210,AMBUSH51,1,1,48,2,1,1,225,2,1,0,0,9,1,225,2,1,-147055.2782157278,-4792663.378568682,4197052.344648674,2.32648,2.93741,-0.20806,-109.323,24.6877,30.3624,-0.236223,-7.25861,6.534,-0.00633853,0.00436405,-0.00667143,4,0,41.38677324809914,-91.75747876581056,11446.36533623379,-74.53418527786269,0.5636482678840031,0.9468265687515228,190.162,11234.154333429517,13311.964484051983,150,True,21.118615116097615,False,171.22644301730958,179.58957028492048,False,8.652555207733881,True,False
1,1970-07-23 09:33:51.500239366,2025-09-08,2025-09-26 20:25:50.023,HA,A,4067510070,JASSM,3,136,76,2,2,1,225,9,2,0,1,26,0,0,0,0,-185469.30700858065,-4786978.944307174,4202236.700651646,-2.30145,-0.152919,0.128471,96.25,-14.75,-12.5,0.0,0.0,0.0,0.0,0.0,0.0,2,0,41.44764578018154,-92.21878894554447,12000.00316359648,99.8363759789682,-0.0057560195653185,0.0050521675728276,,11234.154333429517,13311.964484051983,150,1,2025-09-08,2025-09-26 20:25:50.057,HA,A,1513455210,AMBUSH51,1,1,48,2,1,1,225,2,1,0,0,9,1,225,2,1,-147164.8791611588,-4792635.706796347,4197080.322739767,2.33607,2.93273,-0.210936,-109.139,27.1535,28.5545,-0.264165,-7.09554,6.58103,0.00356926,-0.00283897,0.0040041,4,0,41.38710670109943,-91.75879794861564,11447.247874134378,-74.23650316659827,0.4819491895590024,1.4433559539332597,190.211,11234.154333429517,13311.964484051983,150,True,21.003941667851752,False,171.35779095379883,179.58917048597098,False,8.616505047342317,True,False
1,1970-07-23 09:33:51.510279497,2025-09-08,2025-09-26 20:25:51.027,HA,A,4068703110,JASSM,3,136,76,2,2,1,225,9,2,0,1,26,0,0,0,0,-185373.0589617056,-4786993.790010299,4202224.118620396,-2.30145,-0.152919,0.128471,96.25,-14.75,-12.5,0.0,0.0,0.0,0.0,0.0,0.0,2,0,41.44749473947876,-92.21763179928044,11999.998557937311,99.83714193397196,-0.0048756143270598,0.0050515273565743,,11234.154333429517,13311.964484051983,150,1,2025-09-08,2025-09-26 20:25:51.057,HA,A,1514648208,AMBUSH51,1,1,48,2,1,1,225,2,1,0,0,9,1,225,2,1,-147272.98628421425,-4792608.296393758,4197108.435845686,2.34175,2.92999,-0.212111,-109.029,27.6359,28.5923,-0.110603,-7.03241,6.41205,0.0034361,0.00171961,0.00654659,4,0,41.387439769141785,-91.76009920701507,11448.96035116622,-74.08390598765706,0.4148329746654356,1.7364527054876775,190.174,11234.154333429517,13311.964484051983,150,True,20.89007022892644,False,171.19466172767648,179.58754492145627,False,8.813909232793252,True,False
1,1970-07-23 09:33:51.524708130,2025-09-08,2025-09-26 20:25:52.470,HA,A,4069896164,JASSM,3,136,76,2,2,1,225,9,2,0,1,26,0,0,0,0,-185276.8089617056,-4787008.637666549,4202211.534636021,-2.30145,-0.152919,0.128471,96.25,-14.75,-12.5,0.0,0.0,0.0,0.0,0.0,0.0,2,0,41.44734366278362,-92.21647463413828,11999.999274832666,99.8379078991768,-0.0039951869987951,0.0050508662095818,,11234.154333429517,13311.964484051983,150,1,2025-09-08,2025-09-26 20:25:52.357,HA,A,1516199106,AMBUSH51,1,1,48,2,1,1,225,2,1,0,0,9,1,225,2,1,-147414.5246165758,-4792571.902912032,4197145.401003972,2.35091,2.92284,-0.214349,-108.981,28.1721,28.7963,-0.0347613,-7.00824,6.20999,0.015851,-0.0116087,-0.00305535,4,0,41.38787989515423,-91.76180307440472,11450.309576504418,-73.71998039281719,0.2074007725443174,2.1767125955726176,190.479,11234.154333429517,13311.964484051983,150,True,20.7572597109094,False,170.9620862461518,179.58275651057846,False,9.087968317412727,True,False
1,1970-07-23 09:33:51.530200223,2025-09-08,2025-09-26 20:25:53.020,HA,A,4071089210,JASSM,3,136,76,2,2,1,225,9,2,0,1,26,0,0,0,0,-185180.56091483065,-4787023.483369674,4202198.950651646,-2.30145,-0.152919,0.128471,96.25,-14.75,-12.5,0.0,0.0,0.0,0.0,0.0,0.0,2,0,41.44719258562067,-92.21531749861016,12000.00032846164,99.83867384248148,-0.0031147794631193,0.0050502129238183,,11234.154333429517,13311.964484051983,150,1,2025-09-08,2025-09-26 20:25:53.123,HA,A,1517113740,AMBUSH51,1,1,48,2,1,1,225,2,1,0,0,9,1,225,2,1,-147498.06398126506,-4792550.046905877,4197167.436280739,2.35395,2.92302,-0.213466,-108.959,28.3834,29.077,-0.222329,-7.10714,6.51187,-0.00325925,-0.000360983,0.00348396,4,0,41.38814335930415,-91.76280888714176,11450.65898085175,-73.7649860477918,0.1817221552182734,2.3531383261459418,190.443,11234.154333429517,13311.964484051983,150,True,20.657204291355008,False,170.79583544403414,179.57776352204368,False,9.275436619296622,True,False
1,1970-07-23 09:33:51.540239793,2025-09-08,2025-09-26 20:25:54.023,HA,A,4072282254,JASSM,3,136,76,2,2,1,225,9,2,0,1,26,0,0,0,0,-185084.3128679556,-4787038.327119674,4202186.366667271,-2.30145,-0.152919,0.128567,96.25,-14.75,-12.5,0.0,0.0,0.0,0.0,0.0,0.0,2,0,41.447041508440215,-92.21416036935366,12000.00153291721,99.84353043500602,-0.0059006477126136,0.0050492805304301,,11234.154333429517,13311.964484051983,150,1,2025-09-08,2025-09-26 20:25:54.057,HA,A,1518227204,AMBUSH51,1,1,48,2,1,1,225,2,1,0,0,9,1,225,2,1,-147600.254733561,-4792523.310363123,4197194.98522778,2.35668,2.91633,-0.218083,-108.88,26.5464,31.1612,-0.0330602,-7.0846,6.37638,0.00013836,-0.00579758,0.0105164,4,0,41.38846964904442,-91.7640392736289,11452.378239889073,-73.31771062569199,0.085840047810601,2.4283829764209117,190.602,11234.154333429517,13311.964484051983,150,True,20.546555666179056,False,170.43449151994844,179.5708281391125,False,9.603925852841522,True,False
1,1970-07-23 09:33:51.550275187,2025-09-08,2025-09-26 20:25:55.027,HA,A,4073475672,JASSM,3,136,76,2,2,1,225,9,2,0,1,26,0,0,0,0,-184988.03357108065,-4787053.174775924,4202173.776823521,-2.30145,-0.152919,0.128567,96.25,-14.75,-12.5,0.0,0.0,0.0,0.0,0.0,0.0,2,0,41.44689036403207,-92.2130028701916,12000.001594708998,99.8442966144504,-0.0050199560846099,0.0050486946775376,,11234.154333429517,13311.964484051983,150,1,2025-09-08,2025-09-26 20:25:54.926,HA,A,1519261136,AMBUSH51,1,1,48,2,1,1,225,2,1,0,0,9,1,225,2,1,-147694.69391658503,-4792497.421219774,4197220.016239036,2.3681,2.9154,-0.222481,-108.724,29.2094,29.6222,-0.220626,-7.22665,6.50192,0.0192091,0.000741732,0.0076389,4,0,41.38877530693816,-91.7651767758261,11450.138848803435,-73.09779378712508,0.2190277880442724,3.0717594199554705,190.907,11234.154333429517,13311.964484051983,150,True,20.440221553920296,False,170.32342549807086,179.56094825066992,False,9.80751268428735,True,False
1,1970-07-23 09:33:51.560155021,2025-09-08,2025-09-26 20:25:56.015,HA,A,4074668348,JASSM,3,136,76,2,2,1,225,9,2,0,1,26,0,0,0,0,-184891.81482108065,-4787068.012666549,4202161.192839146,-2.30145,-0.152919,0.128567,96.25,-14.75,-12.5,0.0,0.0,0.0,0.0,0.0,0.0,2,0,41.44673929170326,-92.21184610450824,12000.001083355442,99.84506230609088,-0.0041398164801136,0.0050480979586542,,11234.154333429517,13311.964484051983,150,1,2025-09-08,2025-09-26 20:25:55.957,HA,A,1520493902,AMBUSH51,1,1,48,2,1,1,225,2,1,0,0,9,1,225,2,1,-147805.87734597677,-4792466.888304263,4197250.280306344,2.37383,2.91437,-0.222209,-108.627,29.8744,29.9323,-0.0832197,-7.10064,6.50579,0.00612631,-0.00758481,0.00357966,4,0,41.38914083030934,-91.76651599302522,11449.10184878782,-73.070969122226,0.1669933807109437,3.386950337022158,191.335,11234.154333429517,13311.964484051983,150,True,20.324373779434033,False,170.00438897847067,179.5480319158973,False,10.164865919226914,True,False
1,1970-07-23 09:33:51.569905335,2025-09-08,2025-09-26 20:25:56.990,HA,A,4075801742,JASSM,3,136,76,2,2,1,225,9,2,0,1,26,0,0,0,0,-184800.37732108065,-4787082.110322799,4202149.235807896,-2.30145,-0.152919,0.128567,96.25,-14.75,-12.5,0.0,0.0,0.0,0.0,0.0,0.0,2,0,41.4465957440034,-92.21074682651832,12000.001565681554,99.84578994308512,-0.0033034181264477,0.0050475586663694,,11234.154333429517,13311.964484051983,150,1,2025-09-08,2025-09-26 20:25:56.956,HA,A,1521686902,AMBUSH51,1,1,48,2,1,1,225,2,1,0,0,9,1,225,2,1,-147914.4792453153,-4792436.810093893,4197279.971710591,2.3757,2.91064,-0.226056,-108.537,30.2806,30.2803,-0.162548,-7.08903,6.61037,0.00625115,-0.00174458,0.00324885,4,0,41.389500241484704,-91.76782422372813,11447.752572449932,-72.76881575972307,0.1643342225543815,3.447504251306657,191.567,11234.154333429517,13311.964484051983,150,True,20.212589860190004,False,169.74733422983076,179.533191471976,False,10.455454346787509,True,False
1,1970-07-23 09:33:51.580238734,2025-09-08,2025-09-26 20:25:58.023,HA,A,4077054676,JASSM,3,136,76,2,2,1,225,9,2,0,1,26,0,0,0,0,-184699.2972429556,-4787097.694307174,4202136.013151646,-2.30145,-0.152919,0.128567,96.25,-14.75,-12.5,0.0,0.0,0.0,0.0,0.0,0.0,2,0,41.44643701660871,-92.20953162952765,11999.996260124895,99.84659430708044,-0.0023788120839792,0.0050469332846658,,11234.154333429517,13311.964484051983,150,1,2025-09-08,2025-09-26 20:25:57.857,HA,A,1522760600,AMBUSH51,1,1,48,2,1,1,225,2,1,0,0,9,1,225,2,1,-148013.05529473643,-4792408.691193528,4197307.733611255,2.38426,2.90832,-0.22973,-108.378,30.7873,30.7976,-0.240089,-7.21157,6.61323,-0.00013836,-0.00574972,0.00380853,4,0,41.38983680024824,-91.7690119960814,11446.28323189936,-72.52686342740859,0.2126562941982556,3.908318264867119,191.799,11234.154333429517,13311.964484051983,150,True,20.101095456487606,False,169.3894153808626,179.51691653544398,False,10.845404282090817,True,False
1,1970-07-23 09:33:51.590277126,2025-09-08,2025-09-26 20:25:59.027,HA,A,4078307204,JASSM,3,136,76,2,2,1,225,9,2,0,1,26,0,0,0,0,-184598.2503679556,-4787113.274385299,4202122.796354771,-2.30145,-0.152823,0.128567,96.25,-14.75,-12.5,0.0,0.0,0.0,0.0,0.0,0.0,2,0,41.44627833152596,-92.20831683707029,12000.00268606448,99.84376241172228,-0.0055114265046516,0.0043422357649644,,11234.154333429517,13311.964484051983,150,1,2025-09-08,2025-09-26 20:25:59.089,HA,A,1524231966,AMBUSH51,1,1,48,2,1,1,225,2,1,0,0,9,1,225,2,1,-148145.98537690216,-4792370.324452326,4197346.020889632,2.39063,2.90051,-0.232752,-108.316,29.8194,32.8237,-0.21177,-7.22213,6.64377,0.00366705,-0.00346731,0.006996,4,0,41.3902990381023,-91.77061389566498,11445.052488231244,-72.10528447536169,0.0118020918306774,4.171754907029119,191.995,11234.154333429517,13311.964484051983,150,True,19.96999631884158,False,168.9032507592406,179.49246299681377,False,11.335625331373185,True,False
1,1970-07-23 09:33:51.601294595,2025-09-08,2025-09-26 20:26:00.129,HA,A,4079619492,JASSM,3,136,76,2,2,1,225,9,2,0,1,26,0,0,0,0,-184492.38122733065,-4787129.592744674,4202108.946745396,-2.30145,-0.152823,0.128567,96.25,-14.75,-12.5,0.0,0.0,0.0,0.0,0.0,0.0,2,0,41.44611207703597,-92.2070440797735,11999.997888176418,99.84460487075424,-0.004543018486772,0.004341539102854,,11234.154333429517,13311.964484051983,150,1,2025-09-08,2025-09-26 20:26:00.024,HA,A,1525345430,AMBUSH51,1,1,48,2,1,1,225,2,1,0,0,9,1,225,2,1,-148247.41907487492,-4792340.058890771,4197375.481968215,2.40148,2.89705,-0.237368,-108.019,31.8683,32.1819,-0.0231831,-7.27397,6.42826,0.0164752,-0.0012494,0.00118698,4,0,41.39065928078495,-91.7718366229654,11442.219043171384,-71.78097897548724,0.05103035530228,4.74741857026717,192.154,11234.154333429517,13311.964484051983,150,True,19.85410184170464,False,168.5267119680519,179.46995960266705,False,11.785353620185973,True,False
1,1970-07-23 09:33:51.612302068,2025-09-08,2025-09-26 20:26:01.230,HA,A,4080812540,JASSM,3,136,76,2,2,1,225,9,2,0,1,26,0,0,0,0,-184396.13122733065,-4787144.430635299,4202096.354948521,-2.30145,-0.152823,0.128567,96.25,-14.75,-12.5,0.0,0.0,0.0,0.0,0.0,0.0,2,0,41.44596089923911,-92.20588696827548,12000.002938282409,99.84537077951428,-0.0036625951991109,0.0043408893059305,,11234.154333429517,13311.964484051983,150,1,2025-09-08,2025-09-26 20:26:01.023,HA,A,1526538430,AMBUSH51,1,1,48,2,1,1,225,2,1,0,0,9,1,225,2,1,-148354.3837978639,-4792307.635494536,4197407.5954055935,2.40965,2.89189,-0.241566,-107.765,32.6508,32.7815,-0.116397,-7.29464,6.5261,0.0126906,-0.000589849,0.0108097,4,0,41.39104923228281,-91.77312622635618,11440.258107418473,-71.41025137837416,0.0054020162678931,5.145565472408867,192.154,11234.154333429517,13311.964484051983,150,True,19.740226088574847,False,168.04569612966014,179.4440009406727,False,12.309071148428375,True,False
1,1970-07-23 09:33:51.622299165,2025-09-08,2025-09-26 20:26:02.229,HA,A,4082065236,JASSM,3,136,76,2,2,1,225,9,2,0,1,26,0,0,0,0,-184295.0706804556,-4787160.006807174,4202083.132292271,-2.30145,-0.152823,0.128567,96.25,-14.75,-12.5,0.0,0.0,0.0,0.0,0.0,0.0,2,0,41.445802162517865,-92.20467203198908,12000.002117352698,99.84617496086004,-0.0027381713260557,0.0043402160773427,,11234.154333429517,13311.964484051983,150,1,2025-09-08,2025-09-26 20:26:02.289,HA,A,1528049562,AMBUSH51,1,1,48,2,1,1,225,2,1,0,0,9,1,225,2,1,-148490.71063912398,-4792265.424738095,4197449.356524701,2.4164,2.88561,-0.249817,-107.376,33.4439,33.65,-0.152289,-7.3482,6.65567,0.00404572,0.00170713,0.0112238,4,0,41.39155710131738,-91.77477018050362,11437.392539963388,-70.82736631566594,0.0734108205160057,5.44494089120262,192.349,11234.154333429517,13311.964484051983,150,True,19.606830905387522,False,167.44370895989897,179.40729593330298,False,12.963691651975113,True,False
1,1970-07-23 09:33:51.632198906,2025-09-08,2025-09-26 20:26:03.219,HA,A,4083258434,JASSM,3,136,76,2,2,1,225,9,2,0,1,26,0,0,0,0,-184198.8089617056,-4787174.842744674,4202070.536589146,-2.30145,-0.152823,0.128567,96.25,-14.75,-12.5,0.0,0.0,0.0,0.0,0.0,0.0,2,0,41.445650948814894,-92.2035147923537,12000.002925336168,99.846940949723,-0.0018576431638669,0.0043395721642584,,11234.154333429517,13311.964484051983,150,1,2025-09-08,2025-09-26 20:26:03.257,HA,A,1529202794,AMBUSH51,1,1,48,2,1,1,225,2,1,0,0,9,1,225,2,1,-148593.66632012953,-4792232.82832528,4197481.857468396,2.42207,2.88048,-0.256363,-107.128,34.065,34.38,-0.196429,-7.28784,6.67752,0.0148877,0.000627299,0.006299,4,0,41.39195140449044,-91.77601199788324,11435.556593900586,-70.35971479328374,0.1222422331632397,5.696987193757912,192.496,11234.154333429517,13311.964484051983,150,True,19.495046637649118,False,166.96745134796447,179.37614181808226,False,13.481753625129446,True,False
1,1970-07-23 09:33:51.642236567,2025-09-08,2025-09-26 20:26:04.223,HA,A,4084451520,JASSM,3,136,76,2,2,1,225,9,2,0,1,26,0,0,0,0,-184102.55603201807,-4787189.674775924,4202057.940886021,-2.30145,-0.152823,0.128663,96.25,-14.75,-12.5,0.0,0.0,0.0,0.0,0.0,0.0,2,0,41.44549974470525,-92.20235766492482,11999.999916268887,99.85179756314898,-0.0046434199329529,0.004338734790258,,11234.154333429517,13311.964484051983,150,1,2025-09-08,2025-09-26 20:26:04.257,HA,A,1530395792,AMBUSH51,1,1,48,2,1,1,225,2,1,0,0,9,1,225,2,1,-148700.5571637827,-4792198.445779694,4197516.233178807,2.42546,2.8762,-0.262397,-106.814,34.6204,35.0952,-0.109705,-7.51855,6.56446,-0.00207123,-0.00595362,0.0143218,4,0,41.39236824777309,-91.77730149623264,11433.700495018837,-69.94625252154012,0.1866105555006877,5.829137857884272,192.728,11234.154333429517,13311.964484051983,150,True,19.380939936943747,False,166.50278202762627,179.34122623406734,False,13.991011579098352,True,False
1,1970-07-23 09:33:51.652275103,2025-09-08,2025-09-26 20:26:05.227,HA,A,4085704028,JASSM,3,136,76,2,2,1,225,9,2,0,1,26,0,0,0,0,-184001.50915701807,-4787205.245088424,4202044.716276646,-2.30145,-0.152823,0.128663,96.25,-14.75,-12.5,0.0,0.0,0.0,0.0,0.0,0.0,2,0,41.44534098927248,-92.20114291192738,11999.99760057862,99.85260161585148,-0.0037191217760488,0.0043381244152732,,11234.154333429517,13311.964484051983,150,1,2025-09-08,2025-09-26 20:26:05.357,HA,A,1531708090,AMBUSH51,1,1,48,2,1,1,225,2,1,0,0,9,1,225,2,1,-148817.8997408164,-4792159.582283013,4197555.3266532,2.43138,2.87045,-0.27084,-106.351,35.4623,35.965,-0.160229,-7.41023,6.75687,0.001678,0.00278488,0.0149106,4,0,41.39284164667699,-91.77871751541063,11431.860904905792,-69.37698384280223,0.2870259809652886,6.083775493891028,192.997,11234.154333429517,13311.964484051983,150,True,19.258047562733985,False,165.87479516210482,179.29900694278146,False,14.673111392046101,True,False
1,1970-07-23 09:33:51.663296053,2025-09-08,2025-09-26 20:26:06.329,HA,A,4086956724,JASSM,3,136,76,2,2,1,225,9,2,0,1,26,0,0,0,0,-183900.44763358065,-4787220.817354049,4202031.489714146,-2.30145,-0.152823,0.128663,96.25,-14.75,-12.5,0.0,0.0,0.0,0.0,0.0,0.0,2,0,41.44518219955861,-92.19992798889412,11999.999916647772,99.85340577856827,-0.0027946899723182,0.0043375154285725,,11234.154333429517,13311.964484051983,150,1,2025-09-08,2025-09-26 20:26:06.457,HA,A,1533020390,AMBUSH51,1,1,48,2,1,1,225,2,1,0,0,9,1,225,2,1,-148935.31429806983,-4792119.82604748,4197595.613954938,2.44462,2.86217,-0.278492,-105.927,36.0785,37.0531,-0.139382,-7.24237,6.51474,0.0358122,-0.00536273,0.00584543,4,0,41.39332838404399,-91.7801347465787,11430.4291162604,-68.74580191825756,0.2565809185737504,6.71675492667326,193.192,11234.154333429517,13311.964484051983,150,True,19.134979783103113,False,165.2460209289155,179.25305340617902,False,15.354393813801735,True,False
1,1970-07-23 09:33:51.673924692,2025-09-08,2025-09-26 20:26:07.392,HA,A,4088209426,JASSM,3,136,76,2,2,1,225,9,2,0,1,26,0,0,0,0,-183799.38611014312,-4787236.387666549,4202018.261198521,-2.30145,-0.152727,0.128663,96.25,-14.75,-12.5,0.0,0.0,0.0,0.0,0.0,0.0,2,0,41.445023395460495,-92.19871307268176,11999.998649413485,99.8505740405138,-0.0059271699411655,0.0036323334956015,,11234.154333429517,13311.964484051983,150,1,2025-09-08,2025-09-26 20:26:07.423,HA,A,1534173622,AMBUSH51,1,1,48,2,1,1,225,2,1,0,0,9,1,225,2,1,-149036.62134635827,-4792084.391327767,4197631.290005252,2.50423,2.85177,-0.279959,-105.424,37.2612,37.7133,-0.166831,-6.94505,6.41726,0.0929911,-0.00571643,0.00446808,4,0,41.39376125057995,-91.78135799281104,11428.40111547175,-68.2915582436923,-0.1008496797658667,9.968398655170406,193.657,11234.154333429517,13311.964484051983,150,True,19.021062739113113,False,164.58641467347073,179.20939582739038,False,16.072067390758562,True,False
1,1970-07-23 09:33:51.683497720,2025-09-08,2025-09-26 20:26:08.349,HA,A,4089402554,JASSM,3,136,76,2,2,1,225,9,2,0,1,26,0,0,0,0,-183703.1292742056,-4787251.217744674,4202005.661589146,-2.30145,-0.152727,0.128663,96.25,-14.75,-12.5,0.0,0.0,0.0,0.0,0.0,0.0,2,0,41.44487212920654,-92.1975559217662,12000.002533988176,99.85133995889753,-0.005046688006441,0.0036316958148106,,11234.154333429517,13311.964484051983,150,1,2025-09-08,2025-09-26 20:26:08.456,HA,A,1535406386,AMBUSH51,1,1,48,2,1,1,225,2,1,0,0,9,1,225,2,1,-149145.74658533314,-4792044.466338582,4197670.936756663,2.60198,2.8414,-0.291402,-104.596,38.9528,39.036,-0.173256,-7.36272,6.54809,0.0517121,-0.000217422,0.0264953,4,0,41.39424616937377,-91.7826763120062,11424.54618469088,-67.42451847378506,-0.0604475977136474,15.40024554501311,194.072,11234.154333429517,13311.964484051983,150,False,18.905073356380235,False,163.49389061267325,179.1578192708337,False,17.22890899370899,True,False
1,1970-07-23 09:33:51.694215012,2025-09-08,2025-09-26 20:26:09.421,HA,A,4090655172,JASSM,3,136,76,2,2,1,225,9,2,0,1,26,0,0,0,0,-183602.0745867056,-4787266.784150924,4201992.431120396,-2.30145,-0.152727,0.128663,96.25,-14.75,-12.5,0.0,0.0,0.0,0.0,0.0,0.0,2,0,41.44471330856454,-92.19634110060797,11999.99872631482,99.85214404674991,-0.0041223196796211,0.003631024059379,,11234.154333429517,13311.964484051983,150,1,2025-09-08,2025-09-26 20:26:09.423,HA,A,1536559618,AMBUSH51,1,1,48,2,1,1,225,2,1,0,0,9,1,225,2,1,-149245.66774022297,-4792006.132048568,4197708.787128367,2.66472,2.81734,-0.309755,-103.559,40.8354,40.6402,-0.366492,-7.30281,6.71286,0.0590816,-0.00056072,0.0266014,4,0,41.39471119008746,-91.78388411718348,11420.009794062707,-65.75499022396049,-0.2791147710278494,18.58227555638695,194.109,11234.154333429517,13311.964484051983,150,False,18.791570755943905,False,162.2124993746515,179.10530569393148,False,18.573129080127934,True,False
1,1970-07-23 09:33:51.705116160,2025-09-08,2025-09-26 20:26:10.511,HA,A,4091907866,JASSM,3,136,76,2,2,1,225,9,2,0,1,26,0,0,0,0,-183501.0120867056,-4787282.350557174,4201979.200651646,-2.30145,-0.152727,0.128663,96.25,-14.75,-12.5,0.0,0.0,0.0,0.0,0.0,0.0,2,0,41.44455447687253,-92.19512619200889,11999.999639814572,99.8529481899431,-0.0031978826780023,0.0036303659869817,,11234.154333429517,13311.964484051983,150,1,2025-09-08,2025-09-26 20:26:10.523,HA,A,1537871918,AMBUSH51,1,1,48,2,1,1,225,2,1,0,0,9,1,225,2,1,-149359.21622413513,-4791959.266822378,4197754.566630001,2.72098,2.79436,-0.330918,-101.968,43.3122,42.9104,-0.283008,-7.45017,6.81603,0.0198666,0.00843785,0.021685,4,0,41.39527794016927,-91.78525789505088,11412.74078245234,-64.01509797272605,-0.325515645228339,21.38170918620075,194.463,11234.154333429517,13311.964484051983,150,False,18.669746215663142,False,160.42961075142378,179.03772442863186,False,20.43364508590006,True,False
1,1970-07-23 09:33:51.714292555,2025-09-08,2025-09-26 20:26:11.429,HA,A,4093100912,JASSM,3,136,76,2,2,1,225,9,2,0,1,26,0,0,0,0,-183404.76403983065,-4787297.174775924,4201966.599089146,-2.30145,-0.152727,0.128663,96.25,-14.75,-12.5,0.0,0.0,0.0,0.0,0.0,0.0,2,0,41.44440319422425,-92.19396916547672,12000.001058697397,99.8537140188685,-0.0023174835982142,0.0036297337545928,,11234.154333429517,13311.964484051983,150,1,2025-09-08,2025-09-26 20:26:11.324,HA,A,1538826316,AMBUSH51,1,1,48,2,1,1,225,2,1,0,0,9,1,225,2,1,-149439.378387744,-4791924.053407223,4197788.831220373,2.73355,2.7669,-0.356319,-100.555,45.3159,44.5545,-0.243015,-7.59639,6.99614,0.0127613,0.0175384,0.0299158,4,0,41.395703830300135,-91.78622855272764,11406.600696603038,-61.93936633114347,-0.3505912527677646,21.559243057391463,194.805,11234.154333429517,13311.964484051983,150,False,18.569827314726385,False,159.0194446519862,178.9836839134545,False,21.905881455502435,True,False
1,1970-07-23 09:33:51.724176400,2025-09-08,2025-09-26 20:26:12.417,HA,A,4094234312,JASSM,3,136,76,2,2,1,225,9,2,0,1,26,0,0,0,0,-183313.32556326807,-4787311.256807174,4201954.624479771,-2.30145,-0.152727,0.128663,96.25,-14.75,-12.5,0.0,0.0,0.0,0.0,0.0,0.0,2,0,41.444259450304685,-92.19286996185213,11999.997539309326,99.854441573028,-0.0014810772829958,0.0036291229711236,,11234.154333429517,13311.964484051983,150,1,2025-09-08,2025-09-26 20:26:12.423,HA,A,1540138614,AMBUSH51,1,1,48,2,1,1,225,2,1,0,0,9,1,225,2,1,-149549.3058451086,-4791872.159639956,4197839.467760403,2.75343,2.7387,-0.383551,-98.4648,47.7687,47.4047,-0.189194,-7.83836,6.99967,-3.8491e-05,0.00852524,0.0322107,4,0,41.3963339227866,-91.78756099422056,11397.236294464246,-59.77211206103752,-0.2977913415346497,22.101686063036848,195.111,11234.154333429517,13311.964484051983,150,False,18.454580591132967,False,156.95628148974183,178.9013986608128,False,24.05611356976084,True,False
1,1970-07-23 09:33:51.734236271,2025-09-08,2025-09-26 20:26:13.423,HA,A,4095427354,JASSM,3,136,76,2,2,1,225,9,2,0,1,26,0,0,0,0,-183217.07556326807,-4787326.079072799,4201942.020964146,-2.30145,-0.152727,0.128759,96.25,-14.75,-12.5,0.0,0.0,0.0,0.0,0.0,0.0,2,0,41.44410814385229,-92.19171292335466,11999.999386560825,99.85929815197798,-0.004266833090164,0.0036283186808161,,11234.154333429517,13311.964484051983,150,1,2025-09-08,2025-09-26 20:26:13.323,HA,A,1541212314,AMBUSH51,1,1,48,2,1,1,225,2,1,0,0,9,1,225,2,1,-149636.08739997997,-4791828.196361932,4197882.674218298,2.75713,2.71445,-0.408902,-96.4926,49.9111,49.7319,-0.192209,-8.16273,7.26907,-0.00816737,0.0220761,0.0342455,4,0,41.39687097173475,-91.78861401857095,11389.49122098204,-57.84143326859369,-0.1449696400170831,21.77008227008565,195.294,11234.154333429517,13311.964484051983,150,False,18.35001865990573,False,155.16995553412298,178.8274217623812,False,25.921089865117636,True,False
1,1970-07-23 09:33:51.743274679,2025-09-08,2025-09-26 20:26:14.327,HA,A,4096560752,JASSM,3,136,76,2,2,1,225,9,2,0,1,26,0,0,0,0,-183125.63806326807,-4787340.159150924,4201930.046354771,-2.30145,-0.152727,0.128759,96.25,-14.75,-12.5,0.0,0.0,0.0,0.0,0.0,0.0,2,0,41.44396438977036,-92.19061374225288,12000.000330056622,99.86002568700287,-0.0034304379217122,0.0036277771529151,,11234.154333429517,13311.964484051983,150,1,2025-09-08,2025-09-26 20:26:14.356,HA,A,1542445080,AMBUSH51,1,1,48,2,1,1,225,2,1,0,0,9,1,225,2,1,-149735.12136289533,-4791774.992866631,4197935.900197969,2.76073,2.68911,-0.437111,-94.1544,51.8758,52.8782,-0.273209,-8.32063,7.45062,0.00236043,0.00578093,0.0297057,4,0,41.39752833283729,-91.78981687037871,11381.70167611826,-55.769242488637936,0.1170404092359548,21.37927895935193,195.526,11234.154333429517,13311.964484051983,150,False,18.24036716883983,False,153.0991399922511,178.7345423796956,False,28.084858518028366,True,False
1,1970-07-23 09:33:51.753167843,2025-09-08,2025-09-26 20:26:15.316,HA,A,4097754144,JASSM,3,136,76,2,2,1,225,9,2,0,1,26,0,0,0,0,-183029.36071951807,-4787354.983369674,4201917.435026646,-2.30145,-0.152631,0.128759,96.25,-14.75,-12.5,0.0,0.0,0.0,0.0,0.0,0.0,2,0,41.44381300251701,-92.18945638657092,11999.997096362762,99.85715592651376,-0.0066066761105343,0.0029221437778895,,11234.154333429517,13311.964484051983,150,1,2025-09-08,2025-09-26 20:26:15.289,HA,A,1543558544,AMBUSH51,1,1,48,2,1,1,225,2,1,0,0,9,1,225,2,1,-149821.25255656237,-4791726.177997366,4197985.957182369,2.75481,2.66844,-0.463499,-92.0042,53.1854,55.6193,-0.225414,-8.33615,7.46524,-0.0212169,0.0177298,0.0228189,4,0,41.39814058517549,-91.79086397732796,11376.847690726028,-53.95968216299077,0.4984780841756184,20.534898287995524,195.832,11234.154333429517,13311.964484051983,150,False,18.13545004076756,False,151.3648427045044,178.64476981630094,False,29.907286579075357,True,False
1,1970-07-23 09:33:51.765472025,2025-09-08,2025-09-26 20:26:16.547,HA,A,4099006790,JASSM,3,136,76,2,2,1,225,9,2,0,1,26,0,0,0,0,-182928.30212576807,-4787370.543916549,4201904.198698521,-2.30145,-0.152631,0.128759,96.25,-14.75,-12.5,0.0,0.0,0.0,0.0,0.0,0.0,2,0,41.44365409255794,-92.18824156092172,12000.002182783612,99.85796000052208,-0.0056822744677541,0.0029214809755763,,11234.154333429517,13311.964484051983,150,1,2025-09-08,2025-09-26 20:26:16.723,HA,A,1545268510,AMBUSH51,1,1,48,2,1,1,225,2,1,0,0,9,1,225,2,1,-149950.30474466117,-4791647.851630257,4198068.05518806,2.75613,2.63624,-0.496994,-88.4688,55.5157,59.3596,-0.352898,-8.1977,7.47218,-0.00364624,0.0137704,0.024783,4,0,41.39913667067494,-91.79243485618534,11372.226864306676,-51.4587572454303,0.8187592271291685,19.78632268373593,195.942,11234.154333429517,13311.964484051983,150,False,18.001237823887532,False,148.68648663364473,178.4956213352814,False,32.73738506128905,False,False
1,1970-07-23 09:33:51.774216095,2025-09-08,2025-09-26 20:26:17.421,HA,A,4100199542,JASSM,3,136,76,2,2,1,225,9,2,0,1,26,0,0,0,0,-182832.07653983065,-4787385.356416549,4201891.593229771,-2.30145,-0.152631,0.128759,96.25,-14.625,-12.5,0.0,0.0,0.0,0.0,0.0,0.0,2,0,41.44350277893994,-92.1870848401555,11999.997883748969,99.85872561346328,-0.0048020839966151,0.0029208580576572,,11234.154333429517,13311.964484051983,150,1,2025-09-08,2025-09-26 20:26:17.423,HA,A,1546103608,AMBUSH51,1,1,48,2,1,1,225,2,1,0,0,9,1,225,2,1,-150011.62816054287,-4791608.549447724,4198110.000698821,2.75611,2.62039,-0.511909,-86.7798,56.4759,61.0561,-0.221164,-8.00435,7.19678,-0.00913485,0.0159862,0.0209089,4,0,41.39964218046181,-91.79318210724236,11371.278697247972,-50.297002512602745,0.9292960504873105,19.363600114959866,196.174,11234.154333429517,13311.964484051983,150,False,17.910764443669986,False,147.42118106044333,178.47669441354842,False,34.03717688414556,False,False
1,1970-07-23 09:33:51.783273245,2025-09-08,2025-09-26 20:26:18.327,HA,A,4101333128,JASSM,3,136,76,2,2,1,225,9,2,0,1,26,0,0,0,0,-182740.62341483065,-4787399.434541549,4201879.612761021,-2.30145,-0.152631,0.128759,96.25,-14.625,-12.5,0.0,0.0,0.0,0.0,0.0,0.0,2,0,41.44335895627474,-92.18598549365076,11999.998649615149,99.85945324926824,-0.0039655473600908,0.0029202631483782,,11234.154333429517,13311.964484051983,150,1,2025-09-08,2025-09-26 20:26:18.456,HA,A,1547336374,AMBUSH51,1,1,48,2,1,1,225,2,1,0,0,9,1,225,2,1,-150100.3209327819,-4791548.814188514,4198174.3543073805,2.76132,2.59641,-0.530287,-84.239,58.0767,63.1076,-0.143645,-7.64292,6.75696,-0.000277759,0.00541475,0.02677,4,0,41.40041539003613,-91.79426396803784,11370.800285182931,-48.707490065220505,0.9400493267888552,19.004034064861,196.394,11234.154333429517,13311.964484051983,150,False,17.80572524581927,False,145.6878994480741,178.3528931893836,False,35.89809791990855,False,False
1,1970-07-23 09:33:51.797894219,2025-09-08,2025-09-26 20:26:19.789,HA,A,4102525982,JASSM,3,136,76,2,2,1,225,9,2,0,1,26,0,0,0,0,-182644.38903983065,-4787414.248994674,4201867.005339146,-2.30145,-0.152631,0.128759,96.25,-14.625,-12.5,0.0,0.0,0.0,0.0,0.0,0.0,2,0,41.44320759716167,-92.1848286774423,12000.003735730445,99.86021892089568,-0.0030852747088763,0.00291963127399,,11234.154333429517,13311.964484051983,150,1,2025-09-08,2025-09-26 20:26:19.724,HA,A,1548847506,AMBUSH51,1,1,48,2,1,1,225,2,1,0,0,9,1,225,2,1,-150204.8930403646,-4791473.6368239485,4198255.490924858,2.775,2.56433,-0.548359,-81.263,60.0369,65.4078,-0.23147,-7.36994,6.73044,-0.0038335,0.00469278,0.0361826,4,0,41.40139077353813,-91.7955413333348,11369.985055314448,-46.83580577397623,0.7099009501839916,18.8710785128287,196.357,11234.154333429517,13311.964484051983,150,False,17.68772756148189,False,143.66884508145046,178.19307442304626,False,38.081974596101,False,False
1,1970-07-23 09:33:51.803937176,2025-09-08,2025-09-26 20:26:20.393,HA,A,4103659378,JASSM,3,136,76,2,2,1,225,9,2,0,1,26,0,0,0,0,-182552.95153983065,-4787428.321260299,4201855.024870396,-2.30145,-0.152631,0.128759,96.25,-14.625,-12.5,0.0,0.0,0.0,0.0,0.0,0.0,2,0,41.4430637842573,-92.18372953030092,12000.000738286362,99.86094642048307,-0.0022488832731087,0.0029190428323448,,11234.154333429517,13311.964484051983,150,1,2025-09-08,2025-09-26 20:26:20.323,HA,A,1549563306,AMBUSH51,1,1,48,2,1,1,225,2,1,0,0,9,1,225,2,1,-150253.11947962584,-4791436.904670211,4198294.964461093,2.78428,2.5509,-0.556358,-79.862,61.1551,66.395,-0.179708,-7.50588,6.79766,0.00210452,-0.000217422,0.028655,4,0,41.40186673228783,-91.7961312124761,11369.00021843652,-46.03950425760483,0.6451295768217796,19.008492834941787,196.504,11234.154333429517,13311.964484051983,150,False,17.60731146433834,False,142.7049652539528,178.11047389986575,False,39.13173243021415,False,False
1,1970-07-23 09:33:51.813253667,2025-09-08,2025-09-26 20:26:21.325,HA,A,4104852424,JASSM,3,136,76,2,2,1,225,9,2,0,1,26,0,0,0,0,-182456.70153983065,-4787443.135713424,4201842.411589146,-2.30145,-0.152631,0.128759,96.25,-14.625,-12.5,0.0,0.0,0.0,0.0,0.0,0.0,2,0,41.44291236647143,-92.18257253785126,12000.001288338082,99.86171220427366,-0.0013684665095199,0.0029183993953173,,11234.154333429517,13311.964484051983,150,1,2025-09-08,2025-09-26 20:26:21.323,HA,A,1550756304,AMBUSH51,1,1,48,2,1,1,225,2,1,0,0,9,1,225,2,1,-150331.25546222762,-4791375.146274086,4198361.287610906,2.78801,2.52444,-0.569285,-77.5535,62.938,67.8082,-0.231114,-7.48655,6.70162,-0.0179378,0.0065029,0.0311392,4,0,41.402667213688,-91.79708778860376,11367.02666383676,-44.57774929534272,0.4126241179208301,18.426678993770395,196.92,11234.154333429517,13311.964484051983,150,False,17.505266637503027,False,141.18446651162864,177.97260036064924,False,40.79572687336641,False,False
1,1970-07-23 09:33:51.822335923,2025-09-08,2025-09-26 20:26:22.233,HA,A,4105985818,JASSM,3,136,76,2,2,1,225,9,2,0,1,26,0,0,0,0,-182365.26501639312,-4787457.206025924,4201830.429167271,-2.30145,-0.152631,0.128854,96.25,-14.625,-12.5,0.0,0.0,0.0,0.0,0.0,0.0,2,0,41.44276853023253,-92.18147341323336,11999.998511847843,99.86653047675377,-0.0041982049617579,0.0029176386466059,,11234.154333429517,13311.964484051983,150,1,2025-09-08,2025-09-26 20:26:22.356,HA,A,1551989070,AMBUSH51,1,1,48,2,1,1,225,2,1,0,0,9,1,225,2,1,-150410.5687063202,-4791308.513222114,4198432.54674242,2.79614,2.50258,-0.58749,-75.0976,64.5625,69.5594,-0.167487,-7.80611,7.04497,-0.0041976,0.0143696,0.0252324,4,0,41.40352978287628,-91.79806028066616,11363.871563269064,-43.10857973040397,0.5809370661775818,18.22011559584877,197.262,11234.154333429517,13311.964484051983,150,False,17.404754076546457,False,139.56772850596784,177.8214076166082,False,42.56700898737527,False,False
