Subject_cm,Timestamp,SampleDate_cm,SampleTime_cm,Configuration_cm,Scenario_cm,DisTime_cm,MarkingTxt_cm,Application_cm,EntId_cm,Site_cm,ExerciseId_cm,ForceId_cm,Category_cm,Country_cm,Domain_cm,Kind_cm,Extra_cm,Specific_cm,Subcategory_cm,AltCategory_cm,AltCountry_cm,AltDomain_cm,AltKind_cm,ECEF_X_cm,ECEF_Y_cm,ECEF_Z_cm,OriPhi_cm,OriPsi_cm,OriTheta_cm,LinVelX_cm,LinVelY_cm,LinVelZ_cm,LinAccX_cm,LinAccY_cm,LinAccZ_cm,AngVelX_cm,AngVelY_cm,AngVelZ_cm,DrAlg_cm,Appearance_cm,Latitude_cm,Longitude_cm,Altitude_cm,Heading_cm,Pitch_cm,Roll_cm,CalibratedAirspeed_cm,CM_Altitude_Lead_cm,CM_Altitude_Wing_cm,CM_Airspeed_cm,Subject_ac,SampleDate_ac,SampleTime_ac,Configuration_ac,Scenario_ac,DisTime_ac,MarkingTxt_ac,Application_ac,EntId_ac,Site_ac,ExerciseId_ac,ForceId_ac,Category_ac,Country_ac,Domain_ac,Kind_ac,Extra_ac,Specific_ac,Subcategory_ac,AltCategory_ac,AltCountry_ac,AltDomain_ac,AltKind_ac,ECEF_X_ac,ECEF_Y_ac,ECEF_Z_ac,OriPhi_ac,OriPsi_ac,OriTheta_ac,LinVelX_ac,LinVelY_ac,LinVelZ_ac,LinAccX_ac,LinAccY_ac,LinAccZ_ac,AngVelX_ac,AngVelY_ac,AngVelZ_ac,DrAlg_ac,Appearance_ac,Latitude_ac,Longitude_ac,Altitude_ac,Heading_ac,Pitch_ac,Roll_ac,CalibratedAirspeed_ac,CM_Altitude_Lead_ac,CM_Altitude_Wing_ac,CM_Airspeed_ac,Bank_Angle_Condition,distance_nm,Distance_Condition,angle_between_vel,angle_between_pos,Cone_Condition,angle_between_pos_nose,Nose_Cone_Condition,Intercept_Criteria
1,1970-07-23 10:27:38.408259547,2025-09-12,2025-09-26 14:04:00.825,HH,C,1572671368,JASSM,3,103,76,2,2,1,225,9,2,0,1,26,0,0,0,0,-173037.63562186187,-4769999.645479049,4221436.401823521,-2.51458,-0.703426,0.607361,57.5,-48.625,-52.25,0.0,0.0,0.0,0.0,0.0,0.0,2,0,41.68100072928868,-92.07756423801575,10997.372523986634,139.82806320530696,-0.001573519210071,0.0009625000943985,,9720.794529171932,12053.737931086003,150,1,2025-09-12,2025-09-26 14:04:00.923,HH,C,3574615352,HAWK11,1,1,73,2,1,1,225,2,1,0,0,12,1,225,2,1,-143824.82458670562,-4792357.094697799,4197790.638151646,2.33827,2.74496,-0.437472,-100.125,32.75,33.375,-0.046875,-6.73438,7.0,0.00976562,0.00976562,0.00195312,4,0,41.39416221405153,-91.71900436120607,12053.191488636345,-57.79976079338032,2.0941881564222715,-1.536730647262869,181.265,9720.794529171932,12053.737931086003,150,True,23.544915311519755,False,153.87298613978507,176.92119224190034,False,23.060568907578173,True,False
1,1970-07-23 10:27:38.419777306,2025-09-12,2025-09-26 14:04:01.977,HH,C,1574043150,JASSM,3,103,76,2,2,1,225,9,2,0,1,26,0,0,0,0,-172971.56286795562,-4770055.700166549,4221376.179167271,-2.51458,-0.703426,0.607361,57.5,-48.625,-52.25,0.0,0.0,0.0,0.0,0.0,0.0,2,0,41.68027509798769,-92.07674725136567,10997.380112007831,139.82860648349393,-0.0006254404060026,0.0009606554620276,,9720.794529171932,12053.737931086003,150,1,2025-09-12,2025-09-26 14:04:02.126,HH,C,3575967416,HAWK11,1,1,73,2,1,1,225,2,1,0,0,12,1,225,2,1,-143939.30310233062,-4792319.516572799,4197828.628386021,2.34325,2.74621,-0.438814,-100.5,32.75,33.5,-0.078125,-6.85938,7.0625,0.0117188,0.00976562,-0.0078125,4,0,41.39462173522787,-91.72038527640431,12051.617718802696,-57.792866462288856,2.1954804894456106,-1.2203298606703052,181.461,9720.794529171932,12053.737931086003,150,True,23.425859272700674,False,153.83488668602726,176.97845224751305,False,23.156781992047748,True,False
1,1970-07-23 10:27:38.430320573,2025-09-12,2025-09-26 14:04:03.032,HH,C,1575295848,JASSM,3,103,76,2,2,1,225,9,2,0,1,26,0,0,0,0,-172911.22595389312,-4770106.883760299,4221321.183073521,-2.51458,-0.703426,0.607456,57.5,-48.625,-52.25,0.0,0.0,0.0,0.0,0.0,0.0,2,0,41.67961247420873,-92.0760012062988,10997.376860048073,139.8323245162612,-0.0042066347839995,0.0009588710390093,,9720.794529171932,12053.737931086003,150,1,2025-09-12,2025-09-26 14:04:03.130,HH,C,3576961582,HAWK11,1,1,73,2,1,1,225,2,1,0,0,12,1,225,2,1,-144023.16247733062,-4792291.907197799,4197856.741667271,2.3492,2.74515,-0.438719,-100.75,32.25,34.25,-0.203125,-6.9375,7.0625,-0.00195312,-0.00390625,0.0,4,0,41.39496074620292,-91.72139688533431,12050.88448730014,-57.7583500992652,2.154042233138324,-0.9039777355332832,181.546,9720.794529171932,12053.737931086003,150,True,23.328313658657645,False,153.88375057498948,177.01916284219215,False,23.154797650037338,True,False
1,1970-07-23 10:27:38.441178527,2025-09-12,2025-09-26 14:04:04.117,HH,C,1576608198,JASSM,3,103,76,2,2,1,225,9,2,0,1,26,0,0,0,0,-172848.01550467435,-4770160.504854049,4221263.565886021,-2.51458,-0.703426,0.607456,57.5,-48.625,-52.25,0.0,0.0,0.0,0.0,0.0,0.0,2,0,41.67891827560116,-92.07521964742826,10997.374131660892,139.83284422184732,-0.0032996346337426,0.0009571615345638,,9720.794529171932,12053.737931086003,150,1,2025-09-12,2025-09-26 14:04:04.219,HH,C,3578472714,HAWK11,1,1,73,2,1,1,225,2,1,0,0,12,1,225,2,1,-144151.30114920562,-4792249.712861861,4197899.727995396,2.34833,2.74515,-0.441403,-101.25,33.0,34.125,-0.09375,-6.89062,7.17188,0.0,0.0,0.0,5,0,41.39547897776462,-91.72294266528704,12049.818424678217,-57.65148161883943,2.265004019302368,-0.9490736909362756,181.668,9720.794529171932,12053.737931086003,150,True,23.20414386112291,False,153.96656896076388,177.08521671807588,False,23.134080864822657,True,False
1,1970-07-23 10:27:38.451199505,2025-09-12,2025-09-26 14:04:05.119,HH,C,1577860898,JASSM,3,103,76,2,2,1,225,9,2,0,1,26,0,0,0,0,-172787.67859061187,-4770211.688447799,4221208.569792271,-2.51458,-0.703426,0.607456,57.5,-48.625,-52.25,0.0,0.0,0.0,0.0,0.0,0.0,2,0,41.678255641749885,-92.07447363370171,10997.380661081785,139.83334028470244,-0.0024338753212388,0.0009555372578917,,9720.794529171932,12053.737931086003,150,1,2025-09-12,2025-09-26 14:04:05.327,HH,C,3579864546,HAWK11,1,1,73,2,1,1,225,2,1,0,0,12,1,225,2,1,-144269.76013358062,-4792210.576143111,4197940.407682896,2.49703,2.74362,-0.445717,-101.25,33.125,35.125,-0.328125,-7.20312,7.35938,0.175781,0.0078125,-0.00195312,4,0,41.3959651645487,-91.72437174455948,12050.563375622984,-57.42237549029134,2.386889174000869,7.542604718752888,181.962,9720.794529171932,12053.737931086003,150,True,23.087434497917336,False,154.34791783576523,177.14591831244917,False,22.817958221666444,True,False
1,1970-07-23 10:27:38.462219693,2025-09-12,2025-09-26 14:04:06.221,HH,C,1579173248,JASSM,3,103,76,2,2,1,225,9,2,0,1,26,0,0,0,0,-172724.46814139312,-4770265.305635299,4221150.952604771,-2.51448,-0.703426,0.607456,57.5,-48.625,-52.25,0.0,0.0,0.0,0.0,0.0,0.0,2,0,41.67756145594954,-92.07369210936018,10997.378614197863,139.8338599534519,-0.0015268936241068,0.006445313883391,,9720.794529171932,12053.737931086003,150,1,2025-09-12,2025-09-26 14:04:06.175,HH,C,3580301978,HAWK11,1,1,73,2,1,1,225,2,1,0,0,12,1,225,2,1,-144306.22693045562,-4792198.498018111,4197953.083464146,2.55216,2.74391,-0.450319,-101.125,33.5,35.625,-0.25,-7.26562,7.375,0.142578,0.0136719,0.0078125,4,0,41.39611604118471,-91.724811692057,12051.051842351362,-57.24834779706633,2.5857798963420087,10.7159206822334,182.157,9720.794529171932,12053.737931086003,150,False,23.013154513726775,False,154.66168106938576,177.1597253704192,False,22.51870592239703,True,False
1,1970-07-23 10:27:38.472255576,2025-09-12,2025-09-26 14:04:07.225,HH,C,1580366288,JASSM,3,103,76,2,2,1,225,9,2,0,1,26,0,0,0,0,-172667.00427420562,-4770314.047822799,4221098.569792271,-2.51448,-0.70333,0.607456,57.5,-48.625,-52.25,0.0,0.0,0.0,0.0,0.0,0.0,2,0,41.6769303536052,-92.0729816496996,10997.371832369605,139.8306810301528,-0.0033479908837771,0.0033094609980548,,9720.794529171932,12053.737931086003,150,1,2025-09-12,2025-09-26 14:04:07.222,HH,C,3582131244,HAWK11,1,1,73,2,1,1,225,2,1,0,0,12,1,225,2,1,-144459.95544608062,-4792144.927705611,4198009.952604771,2.73269,2.70192,-0.488094,-99.0,35.875,38.625,-0.3125,-7.34375,7.42188,0.105469,0.0195312,0.0351562,4,0,41.396791017826125,-91.72666730156604,12054.04014217895,-54.199395366469474,2.6524341963705846,20.110935379669183,182.328,9720.794529171932,12053.737931086003,150,False,22.877650192547065,False,156.88919129489716,177.23749700711068,False,20.3724150998138,True,False
1,1970-07-23 10:27:38.482297060,2025-09-12,2025-09-26 14:04:08.229,HH,C,1581559504,JASSM,3,103,76,2,2,1,225,9,2,0,1,26,0,0,0,0,-172609.53210623687,-4770362.797822799,4221046.183073521,-2.51448,-0.70333,0.607456,57.5,-48.625,-52.25,0.0,0.0,0.0,0.0,0.0,0.0,2,0,41.67629917562461,-92.07227110096044,10997.379258466552,139.83115349225233,-0.002523344140587,0.0033078658465692,,9720.794529171932,12053.737931086003,150,1,2025-09-12,2025-09-26 14:04:08.327,HH,C,3583364008,HAWK11,1,1,73,2,1,1,225,2,1,0,0,12,1,225,2,1,-144562.00818045562,-4792106.001924361,4198051.462370396,2.79204,2.67277,-0.507844,-96.75,38.375,41.125,-0.3125,-7.20312,7.29688,0.015625,0.00585938,0.0332031,4,0,41.39728445075679,-91.72790038147326,12055.910507780234,-52.35423764260744,2.4745504084000367,22.79621412387635,182.573,9720.794529171932,12053.737931086003,150,False,22.769095512617163,False,159.0277417971987,177.28306031625422,False,18.279133191821455,True,False
1,1970-07-23 10:27:38.494568148,2025-09-12,2025-09-26 14:04:09.456,HH,C,1582752388,JASSM,3,103,76,2,2,1,225,9,2,0,1,26,0,0,0,0,-172552.07556326812,-4770411.532197799,4220993.808073521,-2.51448,-0.70333,0.607456,57.5,-48.625,-52.25,0.0,0.0,0.0,0.0,0.0,0.0,2,0,41.67566816199973,-92.0715607603068,10997.379702323662,139.83162581012368,-0.0016989198734768,0.0033062687205227,,9720.794529171932,12053.737931086003,150,1,2025-09-12,2025-09-26 14:04:09.328,HH,C,3584596774,HAWK11,1,1,73,2,1,1,225,2,1,0,0,12,1,225,2,1,-144661.62732108062,-4792064.092744674,4198095.702604771,2.82521,2.64918,-0.512158,-95.0,41.125,44.125,-0.09375,-7.4375,7.54688,0.0195312,0.0136719,0.0371094,4,0,41.39781448432324,-91.72910548516644,12056.192059723957,-51.31794849880872,1.8608023347026907,24.07651566423148,182.658,9720.794529171932,12053.737931086003,150,False,22.659801123346885,False,161.26748266899068,177.32302963350688,False,16.08050900313665,True,False
1,1970-07-23 10:27:38.502196251,2025-09-12,2025-09-26 14:04:10.219,HH,C,1583945436,JASSM,3,103,76,2,2,1,225,9,2,0,1,26,0,0,0,0,-172494.61169608062,-4770460.270479049,4220941.425261021,-2.51448,-0.70333,0.607456,57.5,-48.625,-52.25,0.0,0.0,0.0,0.0,0.0,0.0,2,0,41.675037069630186,-92.0708503439824,10997.37635293558,139.83209817244244,-0.0008743956071467,0.003304674763478,,9720.794529171932,12053.737931086003,150,1,2025-09-12,2025-09-26 14:04:10.327,HH,C,3585789774,HAWK11,1,1,73,2,1,1,225,2,1,0,0,12,1,225,2,1,-144756.33044608062,-4792020.564424361,4198141.581511021,2.82415,2.6232,-0.527402,-92.625,44.0,46.875,-0.140625,-7.5,7.60938,-0.0351562,0.0136719,0.0351562,4,0,41.39836608085787,-91.73025246795716,12055.68757041516,-49.77287908254708,1.6501168114700224,23.32412341193336,182.609,9720.794529171932,12053.737931086003,150,False,22.551321440122397,False,163.6183533584689,177.35632125830685,False,13.761041825239749,True,False
1,1970-07-23 10:27:38.512235893,2025-09-12,2025-09-26 14:04:11.223,HH,C,1585138482,JASSM,3,103,76,2,2,1,225,9,2,0,1,26,0,0,0,0,-172437.14734061187,-4770509.012666549,4220889.038542271,-2.51448,-0.70333,0.607552,57.5,-48.625,-52.25,0.0,0.0,0.0,0.0,0.0,0.0,2,0,41.674405923292575,-92.07013993398664,10997.3783381866,139.83579470876063,-0.0044993715852754,0.0033029251591515,,9720.794529171932,12053.737931086003,150,1,2025-09-12,2025-09-26 14:04:11.125,HH,C,3586744172,HAWK11,1,1,73,2,1,1,225,2,1,0,0,12,1,225,2,1,-144829.48474295562,-4791984.629854049,4198179.722136021,2.80891,2.59588,-0.549836,-90.625,45.5,49.125,0.015625,-7.51562,7.6875,-0.0351562,0.00976562,0.0390625,4,0,41.398824136033575,-91.7311393128975,12055.478459958018,-47.91494283618955,1.734806148264416,21.702558184835496,182.817,9720.794529171932,12053.737931086003,150,False,22.454866332454518,False,165.31375940409148,177.37766166161563,False,12.093697505707205,True,False
1,1970-07-23 10:27:38.522255460,2025-09-12,2025-09-26 14:04:12.225,HH,C,1586271876,JASSM,3,103,76,2,2,1,225,9,2,0,1,26,0,0,0,0,-172382.55603201812,-4770555.313447799,4220839.272917271,-2.51448,-0.70333,0.607552,57.5,-48.625,-52.25,0.0,0.0,0.0,0.0,0.0,0.0,2,0,41.67380636768527,-92.06946505715966,10997.377534059196,139.8362434296473,-0.0037160624820532,0.0033014530119766,,9720.794529171932,12053.737931086003,150,1,2025-09-12,2025-09-26 14:04:12.327,HH,C,3588175770,HAWK11,1,1,73,2,1,1,225,2,1,0,0,12,1,225,2,1,-144938.45935233062,-4791926.189424361,4198241.919401646,2.79175,2.57594,-0.553192,-88.375,48.625,52.375,-0.234375,-7.34375,7.34375,-0.0351562,0.00976562,0.0136719,4,0,41.39957199715398,-91.7324622025504,12054.77043873504,-47.05045682260465,1.2505657861727364,20.14324417044782,182.976,9720.794529171932,12053.737931086003,150,False,22.334856750708852,False,167.81653433045418,177.40636625289682,False,9.620579719254616,True,False
1,1970-07-23 10:27:38.532295408,2025-09-12,2025-09-26 14:04:13.229,HH,C,1587464922,JASSM,3,103,76,2,2,1,225,9,2,0,1,26,0,0,0,0,-172325.09167654935,-4770604.047822799,4220786.886198521,-2.51448,-0.70333,0.607552,57.5,-48.625,-52.25,0.0,0.0,0.0,0.0,0.0,0.0,2,0,41.67317525936348,-92.06875467761434,10997.36883578718,139.8367157503229,-0.0028915337181401,0.0032999059520009,,9720.794529171932,12053.737931086003,150,1,2025-09-12,2025-09-26 14:04:13.719,HH,C,3589885736,HAWK11,1,1,73,2,1,1,225,2,1,0,0,12,1,225,2,1,-145063.69177420562,-4791853.216768111,4198319.989714146,2.76347,2.54161,-0.581666,-85.375,51.125,56.0,-0.109375,-7.60938,7.70312,-0.0253906,0.015625,0.0234375,4,0,41.4005105023798,-91.73398459275978,12053.97511565195,-44.73288401075497,1.4483903028988956,17.520353721441374,183.502,9720.794529171932,12053.737931086003,150,False,22.197912442225036,False,170.45713685014601,177.43221100294903,False,7.027701932429683,True,False
1,1970-07-23 10:27:38.542423550,2025-09-12,2025-09-26 14:04:14.242,HH,C,1588658204,JASSM,3,103,76,2,2,1,225,9,2,0,1,26,0,0,0,0,-172267.61609061187,-4770652.793916549,4220734.491667271,-2.51448,-0.70333,0.607552,57.5,-48.625,-52.25,0.0,0.0,0.0,0.0,0.0,0.0,2,0,41.67254402642384,-92.06804417216796,10997.37513519461,139.83718814883954,-0.0020668456973189,0.0032983611598862,,9720.794529171932,12053.737931086003,150,1,2025-09-12,2025-09-26 14:04:14.125,HH,C,3590283402,HAWK11,1,1,73,2,1,1,225,2,1,0,0,12,1,225,2,1,-145091.48278983062,-4791836.335908736,4198338.333464146,2.75982,2.53375,-0.589912,-84.625,51.875,56.5,-0.09375,-7.64062,7.73438,-0.0136719,0.015625,0.0175781,4,0,41.40072973211356,-91.73432268923078,12054.320708928186,-44.1437536459086,1.57894271692975,17.078188469393993,183.868,9720.794529171932,12053.737931086003,150,False,22.128640426495416,False,171.039083448067,177.43224273272253,False,6.441799308335641,True,False
1,1970-07-23 10:27:38.561255996,2025-09-12,2025-09-26 14:04:16.125,HH,C,1590984410,JASSM,3,103,76,2,2,1,225,9,2,0,1,26,0,0,0,0,-172155.57214529935,-4770747.817354049,4220632.343229771,-2.51448,-0.703234,0.607552,57.5,-48.625,-52.25,0.0,0.0,0.0,0.0,0.0,0.0,2,0,41.67131343063396,-92.06665914126238,10997.371414759413,139.83445579316626,-0.0031064587953685,0.0001586243652235,,9720.794529171932,12053.737931086003,150,1,2025-09-12,2025-09-26 14:04:16.126,HH,C,3592748932,HAWK11,1,1,73,2,1,1,225,2,1,0,0,12,1,225,2,1,-145263.52771170562,-4791724.385713424,4198461.394011021,2.679,2.49838,-0.619057,-81.125,54.0,61.25,-0.25,-7.53125,7.64062,-0.0253906,0.0136719,0.0175781,4,0,41.40219531047602,-91.73641847897616,12058.773253700603,-41.79983039666085,1.8532557843747304,11.365625548415888,185.726,9720.794529171932,12053.737931086003,150,False,21.904167341517052,False,173.93214924834433,177.44649874449973,False,3.7322390183030936,True,False
1,1970-07-23 10:27:38.565367583,2025-09-12,2025-09-26 14:04:16.536,HH,C,1589851016,JASSM,3,103,76,2,2,1,225,9,2,0,1,26,0,0,0,0,-172210.16296561187,-4770701.520479049,4220682.112761021,-2.51448,-0.70333,0.607552,57.5,-48.625,-52.25,0.0,0.0,0.0,0.0,0.0,0.0,2,0,41.67191300598323,-92.06733395846446,10997.374004230416,139.8376603475179,-0.0012424572528434,0.0032967976569897,,9720.794529171932,12053.737931086003,150,1,2025-09-12,2025-09-26 14:04:16.421,HH,C,3593027298,HAWK11,1,1,73,2,1,1,225,2,1,0,0,12,1,225,2,1,-145281.67419608062,-4791711.461885299,4198475.653776646,2.67497,2.49464,-0.620687,-80.75,54.625,61.5,-0.125,-7.46875,7.54688,-0.03125,0.00976562,0.0078125,4,0,41.40236516746325,-91.73663994256678,12059.276983312317,-41.60486047613635,1.82036726039486,11.016724182535013,185.97,9720.794529171932,12053.737931086003,150,False,21.936810112763723,False,174.29742171276942,177.453310035373,False,3.3640177649702356,True,False
1,1970-07-23 10:27:38.570295839,2025-09-12,2025-09-26 14:04:17.029,HH,C,1592058152,JASSM,3,103,76,2,2,1,225,9,2,0,1,26,0,0,0,0,-172103.85388358062,-4770791.676729049,4220585.194792271,-2.51448,-0.703234,0.607552,57.5,-48.625,-52.25,0.0,0.0,0.0,0.0,0.0,0.0,2,0,41.67074542428082,-92.06601984495724,10997.374085412535,139.83488083113838,-0.0023643862189592,0.0001571909397859,,9720.794529171932,12053.737931086003,150,1,2025-09-12,2025-09-26 14:04:17.328,HH,C,3594140764,HAWK11,1,1,73,2,1,1,225,2,1,0,0,12,1,225,2,1,-145357.35778983062,-4791659.714814986,4198534.376432896,2.63768,2.48342,-0.632959,-79.625,54.75,63.25,0.0,-7.48438,7.5625,-0.0488281,0.00585938,0.015625,4,0,41.40305570382153,-91.7375628329663,12065.052370367424,-40.76367726250687,2.061153948831385,8.531463614235543,186.08,9720.794529171932,12053.737931086003,150,True,21.787060601761663,False,175.02140374702395,177.44882584030316,False,2.89490462268574,True,False
1,1970-07-23 10:27:38.583762993,2025-09-12,2025-09-26 14:04:18.376,HH,C,1593191546,JASSM,3,103,76,2,2,1,225,9,2,0,1,26,0,0,0,0,-172049.26257498687,-4770837.973604049,4220535.421354771,-2.51448,-0.703234,0.607552,57.5,-48.625,-52.25,0.0,0.0,0.0,0.0,0.0,0.0,2,0,41.67014581494187,-92.06534504628652,10997.370547248296,139.8353294678044,-0.0015810552434822,0.0001556489343583,,9720.794529171932,12053.737931086003,150,1,2025-09-12,2025-09-26 14:04:18.515,HH,C,3595293996,HAWK11,1,1,73,2,1,1,225,2,1,0,0,12,1,225,2,1,-145432.52771170562,-4791604.878877486,4198596.526823521,2.61419,2.46722,-0.638807,-78.375,55.75,64.5,-0.125,-7.07812,7.15625,-0.0273438,0.00390625,0.0078125,4,0,41.403787836060566,-91.73848072581386,12070.635325526306,-39.96611287816012,1.8782909414533888,6.66178461291791,186.679,9720.794529171932,12053.737931086003,150,True,21.680016048458622,False,175.9368709636104,177.4448257556295,False,2.273329629017259,True,False
1,1970-07-23 10:27:38.589215052,2025-09-12,2025-09-26 14:04:18.921,HH,C,1594324940,JASSM,3,103,76,2,2,1,225,9,2,0,1,26,0,0,0,0,-171994.67126639312,-4770884.270479049,4220485.651823521,-2.51448,-0.703234,0.607552,57.5,-48.625,-52.25,0.0,0.0,0.0,0.0,0.0,0.0,2,0,41.66954622783649,-92.06467026013917,10997.379440040851,139.83577809084792,-0.0007977442522855,0.0001541238417003,,9720.794529171932,12053.737931086003,150,1,2025-09-12,2025-09-26 14:04:18.827,HH,C,3595930262,HAWK11,1,1,73,2,1,1,225,2,1,0,0,12,1,225,2,1,-145473.70739920562,-4791575.234346236,4198630.614714146,2.59578,2.46539,-0.643409,-78.0,55.875,65.125,-0.078125,-7.1875,7.21875,-0.0332031,0.00585938,0.00585938,4,0,41.404186830002914,-91.73898343208924,12074.758035404282,-39.74123615664524,2.039654444933426,5.552398874019065,186.801,9720.794529171932,12053.737931086003,150,True,21.600280718181754,False,176.15913156682132,177.44017807461088,False,2.268531858533716,True,False
1,1970-07-23 10:27:38.601809448,2025-09-12,2025-09-26 14:04:20.180,HH,C,1595458334,JASSM,3,103,76,2,2,1,225,9,2,0,1,26,0,0,0,0,-171940.07995779935,-4770930.563447799,4220435.878386021,-2.51448,-0.703234,0.607648,57.5,-48.625,-52.25,0.0,0.0,0.0,0.0,0.0,0.0,2,0,41.66894663380382,-92.06399548820345,10997.37415581478,139.8394491238837,-0.0044610309901287,0.0001524700348905,,9720.794529171932,12053.737931086003,150,1,2025-09-12,2025-09-26 14:04:20.015,HH,C,3597322094,HAWK11,1,1,73,2,1,1,225,2,1,0,0,12,1,225,2,1,-145563.47302420562,-4791508.490205611,4198707.599089146,2.55734,2.4606,-0.652134,-77.125,56.625,66.125,-0.265625,-7.28125,7.26562,-0.0371094,0.00195312,0.00390625,4,0,41.405087275713,-91.74008004868516,12084.339144958809,-39.267033430789255,2.3103477391358185,3.201989987831351,187.241,9720.794529171932,12053.737931086003,150,True,21.480379148449668,False,176.76456144289477,177.43350038521152,False,2.153911972466405,True,False
1,1970-07-23 10:27:38.612967061,2025-09-12,2025-09-26 14:04:21.296,HH,C,1596651380,JASSM,3,103,76,2,2,1,225,9,2,0,1,26,0,0,0,0,-171882.6163347525,-4770979.293916549,4220383.487761021,-2.51448,-0.703234,0.607648,57.5,-48.625,-52.25,0.0,0.0,0.0,0.0,0.0,0.0,2,0,41.668315488084914,-92.06328522598096,10997.380797376323,139.8399213215739,-0.003636504246643,0.0001509086246592,,9720.794529171932,12053.737931086003,150,1,2025-09-12,2025-09-26 14:04:21.327,HH,C,3598872992,HAWK11,1,1,73,2,1,1,225,2,1,0,0,12,1,225,2,1,-145663.27575858062,-4791434.480439986,4198794.405729771,2.51362,2.4606,-0.660954,-76.625,56.375,67.125,0.015625,-7.23438,7.34375,-0.0273438,0.00390625,0.00976562,4,0,41.40609541278342,-91.7412992457449,12098.122995347405,-38.965636293337326,2.716987534877508,0.7104411915648872,187.681,9720.794529171932,12053.737931086003,150,True,21.349535785932037,False,176.79180720485928,177.42539281077063,False,2.588725417796682,True,False
1,1970-07-23 10:27:38.618633873,2025-09-12,2025-09-26 14:04:21.863,HH,C,1597784774,JASSM,3,103,76,2,2,1,225,9,2,0,1,26,0,0,0,0,-171828.02404959625,-4771025.586885299,4220333.714323521,-2.51439,-0.703234,0.607648,57.5,-48.625,-52.25,0.0,0.0,0.0,0.0,0.0,0.0,2,0,41.66771588600293,-92.06261046803552,10997.383453582948,139.8403699098179,-0.0028531860340609,0.0056409035946394,,9720.794529171932,12053.737931086003,150,1,2025-09-12,2025-09-26 14:04:21.625,HH,C,3599230892,HAWK11,1,1,73,2,1,1,225,2,1,0,0,12,1,225,2,1,-145686.38708670562,-4791416.915986861,4198815.116667271,2.50902,2.4606,-0.661433,-76.375,56.625,67.125,-0.140625,-6.98438,7.04688,-0.015625,-0.00390625,0.00976562,4,0,41.40633551060587,-91.74158173521172,12101.590536202704,-38.94939399959762,2.739330136588096,0.4475643355849195,187.644,9720.794529171932,12053.737931086003,150,True,21.283496612664358,False,176.96054743121508,177.41833565562374,False,2.5201239509207713,True,False
1,1970-07-23 10:27:38.628259283,2025-09-12,2025-09-26 14:04:22.825,HH,C,1598977820,JASSM,3,103,76,2,2,1,225,9,2,0,1,26,0,0,0,0,-171770.55944998687,-4771074.313447799,4220281.319792271,-2.51439,-0.703234,0.607648,57.5,-48.625,-52.25,0.0,0.0,0.0,0.0,0.0,0.0,2,0,41.667084728896015,-92.06190022284277,10997.380370559851,139.84084208474565,-0.0020286522251543,0.0056393461200861,,9720.794529171932,12053.737931086003,150,1,2025-09-12,2025-09-26 14:04:22.717,HH,C,3600582958,HAWK11,1,1,73,2,1,1,225,2,1,0,0,12,1,225,2,1,-145772.30896170562,-4791352.532197799,4198890.954557896,2.50499,2.45226,-0.655873,-76.25,57.125,67.25,0.015625,-6.625,6.625,0.0078125,-0.00585938,0.00195312,4,0,41.40721484482152,-91.74263164156672,12114.224207140907,-38.83607971759383,2.2594996379098613,-0.0706338780414809,187.522,9720.794529171932,12053.737931086003,150,True,21.163476358697366,False,177.1929603872252,177.4090548059682,False,2.424945821947144,True,False
1,1970-07-23 10:27:38.639324428,2025-09-12,2025-09-26 14:04:23.932,HH,C,1600230518,JASSM,3,103,76,2,2,1,225,9,2,0,1,26,0,0,0,0,-171710.22155936187,-4771125.477510299,4220226.304167271,-2.51439,-0.703234,0.607648,57.5,-48.625,-52.25,0.0,0.0,0.0,0.0,0.0,0.0,2,0,41.66642199295183,-92.06115447908358,10997.381679495886,139.8413378530023,-0.0011628786630822,0.0056377010139367,,9720.794529171932,12053.737931086003,150,1,2025-09-12,2025-09-26 14:04:23.932,HH,C,3601895256,HAWK11,1,1,73,2,1,1,225,2,1,0,0,12,1,225,2,1,-145856.55310233062,-4791288.842744674,4198965.431120396,2.52656,2.45168,-0.660091,-76.125,57.375,67.5,0.125,-6.8125,6.89062,0.0585938,0.00390625,0.00585938,4,0,41.40808115344582,-91.7436612781218,12125.494803436017,-38.67221753833605,2.43973602022217,1.1519865663303055,187.155,9720.794529171932,12053.737931086003,150,True,21.04217863832203,False,177.311637277137,177.39901427459776,False,2.4680215825156577,True,False
1,1970-07-23 10:27:38.648316867,2025-09-12,2025-09-26 14:04:24.831,HH,C,1601363914,JASSM,3,103,76,2,2,1,225,9,2,0,1,26,0,0,0,0,-171655.6300066275,-4771171.766572799,4220176.526823521,-2.51439,-0.703234,0.607648,57.5,-48.625,-52.25,0.0,0.0,0.0,0.0,0.0,0.0,2,0,41.66582237510065,-92.06047977114876,10997.378661662318,139.84178639127808,-0.000379562895226,0.0056362158647661,,9720.794529171932,12053.737931086003,150,1,2025-09-12,2025-09-26 14:04:24.625,HH,C,3602849656,HAWK11,1,1,73,2,1,1,225,2,1,0,0,12,1,225,2,1,-145916.40857108062,-4791243.156221236,4199018.981901646,2.70623,2.4466,-0.668432,-75.375,57.875,67.75,-0.390625,-6.76562,6.8125,0.226562,0.0,0.0078125,4,0,41.408703535357205,-91.74439300926252,12133.815844072751,-38.20450387712781,2.689919482155297,11.287697501478048,187.278,9720.794529171932,12053.737931086003,150,False,20.945625397191737,False,177.67264613739542,177.38974146198376,False,2.559010867928708,True,False
1,1970-07-23 10:27:38.661396485,2025-09-12,2025-09-26 14:04:26.139,HH,C,1602497308,JASSM,3,103,76,2,2,1,225,9,2,0,1,26,0,0,0,0,-171601.03845389312,-4771218.055635299,4220126.749479771,-2.51439,-0.703138,0.607648,57.5,-48.625,-52.25,0.0,0.0,0.0,0.0,0.0,0.0,2,0,41.66522275322617,-92.05980507573392,10997.379554280646,139.83858436166616,-0.0022419358514469,0.0024994981930289,,9720.794529171932,12053.737931086003,150,1,2025-09-12,2025-09-26 14:04:26.331,HH,C,3604917520,HAWK11,1,1,73,2,1,1,225,2,1,0,0,12,1,225,2,1,-146044.47302420562,-4791139.372041549,4199138.538542271,2.8881,2.38083,-0.695564,-71.5,60.75,69.75,0.046875,-7.0625,7.17188,0.0371094,0.00195312,0.0332031,4,0,41.4101046671089,-91.74596083585408,12147.601126984013,-34.91575034886564,2.28001218706698,19.47492976463852,186.52,9720.794529171932,12053.737931086003,150,False,20.789309834529327,False,178.1242046100013,177.36928349063928,False,4.194997880018473,True,False
1,1970-07-23 10:27:38.668585186,2025-09-12,2025-09-26 14:04:26.858,HH,C,1603690354,JASSM,3,103,76,2,2,1,225,9,2,0,1,26,0,0,0,0,-171543.57361014312,-4771266.778291549,4220074.351042271,-2.51439,-0.703138,0.607648,57.5,-48.625,-52.25,0.0,0.0,0.0,0.0,0.0,0.0,2,0,41.66459157565608,-92.05909488409566,10997.375477128726,139.83905647789018,-0.0014173990047737,0.0024978869513966,,9720.794529171932,12053.737931086003,150,1,2025-09-12,2025-09-26 14:04:26.719,HH,C,3605354952,HAWK11,1,1,73,2,1,1,225,2,1,0,0,12,1,225,2,1,-146070.05114920562,-4791117.358369674,4199163.716276646,2.90526,2.36847,-0.701509,-70.5,61.375,70.25,-0.09375,-7.14062,7.14062,0.0136719,0.0,0.0253906,4,0,41.41040092137087,-91.74627445145212,12150.015234599676,-34.275059170801434,2.2617058139788297,20.027921522668763,186.52,9720.794529171932,12053.737931086003,150,False,20.71737971675041,False,177.72826701058625,177.35813190047867,False,4.747995736862776,True,False
1,1970-07-23 10:27:38.677329950,2025-09-12,2025-09-26 14:04:27.732,HH,C,1604823748,JASSM,3,103,76,2,2,1,225,9,2,0,1,26,0,0,0,0,-171488.98181326812,-4771313.063447799,4220024.573698521,-2.51439,-0.703138,0.607744,57.5,-48.625,-52.25,0.0,0.0,0.0,0.0,0.0,0.0,2,0,41.66399196892903,-92.05842021313462,10997.374806995056,139.84272964865986,-0.0050832877339992,0.0024962067374698,,9720.794529171932,12053.737931086003,150,1,2025-09-12,2025-09-26 14:04:27.827,HH,C,3606707018,HAWK11,1,1,73,2,1,1,225,2,1,0,0,12,1,225,2,1,-146148.47693045562,-4791045.748994674,4199245.030729771,2.92041,2.33347,-0.718191,-67.125,63.375,72.0,-0.03125,-7.3125,7.34375,-0.0273438,0.0175781,0.0273438,4,0,41.41136151777164,-91.74723755294409,12156.241130050998,-32.47841176340335,2.2377376200248187,19.65964490161453,186.202,9720.794529171932,12053.737931086003,150,False,20.598871839679536,False,175.92731619194402,177.33182436904943,False,6.719626662565258,True,False
1,1970-07-23 10:27:38.687752779,2025-09-12,2025-09-26 14:04:28.775,HH,C,1606016786,JASSM,3,103,76,2,2,1,225,9,2,0,1,26,0,0,0,0,-171431.51745779935,-4771361.786104049,4219972.175261021,-2.51439,-0.703138,0.607744,57.5,-48.625,-52.25,0.0,0.0,0.0,0.0,0.0,0.0,2,0,41.66336078256202,-92.05771005440104,10997.379221791143,139.84320173168973,-0.0042587533618696,0.0024946384405716,,9720.794529171932,12053.737931086003,150,1,2025-09-12,2025-09-26 14:04:28.736,HH,C,3599708092,HAWK11,1,1,73,2,1,1,225,2,1,0,0,12,1,225,2,1,-145716.48669608062,-4791394.648408736,4198841.542448521,2.50384,2.45609,-0.657886,-76.375,56.5,67.375,-0.046875,-6.54688,6.64062,-0.0136719,-0.0195312,0.00390625,4,0,41.40664089411632,-91.74194942445015,12106.414495965,-38.90705188592844,2.454923198778117,-0.005344691855874,185.567,9720.794529171932,12053.737931086003,150,True,20.918474181369348,False,176.89304198403542,177.37402863630302,False,2.666939728325503,True,False
1,1970-07-23 10:27:38.697175934,2025-09-12,2025-09-26 14:04:29.717,HH,C,1607209832,JASSM,3,103,76,2,2,1,225,9,2,0,1,26,0,0,0,0,-171374.05236990875,-4771410.508760299,4219919.772917271,-2.51439,-0.703138,0.607744,57.5,-48.625,-52.25,0.0,0.0,0.0,0.0,0.0,0.0,2,0,41.662729565634685,-92.05699990075468,10997.379385750364,139.84367380547147,-0.0034341947170771,0.0024930582997345,,9720.794529171932,12053.737931086003,150,1,2025-09-12,2025-09-26 14:04:29.515,HH,C,3608655582,HAWK11,1,1,73,2,1,1,225,2,1,0,0,12,1,225,2,1,-146254.74450858062,-4790939.628877486,4199365.601042271,2.89079,2.28132,-0.730846,-62.75,65.75,74.625,-0.1875,-6.95312,6.98438,-0.0332031,0.0,0.0214844,4,0,41.41278730523256,-91.7485459228178,12164.884504368312,-30.19019046621776,1.6930760289166789,16.0600300338061,185.445,9720.794529171932,12053.737931086003,150,False,20.397557426357007,False,173.27325230083656,177.27708752901827,False,9.448541046679269,True,False
1,1970-07-23 10:27:38.707213601,2025-09-12,2025-09-26 14:04:30.721,HH,C,1608343236,JASSM,3,103,76,2,2,1,225,9,2,0,1,26,0,0,0,0,-171319.46032889312,-4771456.790010299,4219869.991667271,-2.51439,-0.703138,0.607744,57.5,-48.625,-52.25,0.0,0.0,0.0,0.0,0.0,0.0,2,0,41.66212994356001,-92.05632526742052,10997.37274944126,139.84412226173256,-0.0026508929614792,0.0024915818584343,,9720.794529171932,12053.737931086003,150,1,2025-09-12,2025-09-26 14:04:30.625,HH,C,3610007648,HAWK11,1,1,73,2,1,1,225,2,1,0,0,12,1,225,2,1,-146323.92614920562,-4790864.352510299,4199450.550261021,2.86845,2.25236,-0.742159,-60.25,67.125,76.0,-0.234375,-7.375,7.28125,-0.0449219,0.00390625,0.015625,4,0,41.41379590835009,-91.7493999787502,12169.308486221998,-28.80167928092551,1.643675369574713,13.706251302970882,184.956,9720.794529171932,12053.737931086003,150,False,20.280259714200305,False,171.77218489482686,177.23442301459792,False,10.993342276719773,True,False
1,1970-07-23 10:27:38.718962882,2025-09-12,2025-09-26 14:04:31.896,HH,C,1609536282,JASSM,3,103,76,2,2,1,225,9,2,0,1,26,0,0,0,0,-171261.9952410025,-4771505.508760299,4219817.589323521,-2.51439,-0.703138,0.607744,57.5,-48.625,-52.25,0.0,0.0,0.0,0.0,0.0,0.0,2,0,41.66149874129314,-92.05561514250282,10997.371794401706,139.84459430497552,-0.001826352797288,0.0024900157659195,,9720.794529171932,12053.737931086003,150,1,2025-09-12,2025-09-26 14:04:31.827,HH,C,3611439246,HAWK11,1,1,73,2,1,1,225,2,1,0,0,12,1,225,2,1,-146395.21911795562,-4790782.408174361,4199543.337370396,2.82511,2.22878,-0.753952,-57.875,67.875,77.75,-0.09375,-7.40625,7.29688,-0.0429688,0.015625,0.00976562,4,0,41.41489668877612,-91.75028172234668,12174.512342056749,-27.60802360020052,1.7574379047317572,10.339623913041056,185.432,9720.794529171932,12053.737931086003,150,False,20.155602826378594,False,170.30938996584658,177.18284267459097,False,12.507763555800105,True,False
1,1970-07-23 10:27:38.727292411,2025-09-12,2025-09-26 14:04:32.729,HH,C,1610729328,JASSM,3,103,76,2,2,1,225,9,2,0,1,26,0,0,0,0,-171204.53015311187,-4771554.227510299,4219765.186979771,-2.51439,-0.703138,0.607744,57.5,-48.625,-52.25,0.0,0.0,0.0,0.0,0.0,0.0,2,0,41.66086753456968,-92.05490503145444,10997.375172236683,139.84506633313205,-0.0010018125423681,0.0024884496477489,,9720.794529171932,12053.737931086003,150,1,2025-09-12,2025-09-26 14:04:32.658,HH,C,3611876680,HAWK11,1,1,73,2,1,1,225,2,1,0,0,12,1,225,2,1,-146415.99255545562,-4790757.874971236,4199571.327604771,2.80997,2.22226,-0.757307,-57.375,68.0,78.125,-0.03125,-7.375,7.35938,-0.0488281,-0.00195312,0.015625,4,0,41.4152277750426,-91.75053889106584,12176.487016364166,-27.27746615486997,1.7979220867466978,9.225833179001317,185.799,9720.794529171932,12053.737931086003,150,True,20.083867770865357,False,170.0043774458596,177.16140537936334,False,12.834191229565192,True,False
1,1970-07-23 10:27:38.740184038,2025-09-12,2025-09-26 14:04:34.018,HH,C,1611862722,JASSM,3,103,76,2,2,1,225,9,2,0,1,26,0,0,0,0,-171149.93835623687,-4771600.508760299,4219715.401823521,-2.51439,-0.703138,0.607744,57.5,-48.625,-52.25,0.0,0.0,0.0,0.0,0.0,0.0,2,0,41.66026787369093,-92.054230439916,10997.372181209195,139.84551474516863,-0.0002184918306142,0.0024869544939976,,9720.794529171932,12053.737931086003,150,1,2025-09-12,2025-09-26 14:04:34.125,HH,C,3614183144,HAWK11,1,1,73,2,1,1,225,2,1,0,0,12,1,225,2,1,-146523.64294608062,-4790625.787080611,4199723.642057896,2.7442,2.19935,-0.784823,-54.75,68.125,80.0,-0.078125,-7.8125,7.59375,-0.03125,0.0117188,0.0,4,0,41.41702200082845,-91.75187342107462,12190.32176873359,-25.70899565115449,2.755391849877821,4.604928395139049,186.715,9720.794529171932,12053.737931086003,150,True,19.917394912444962,False,168.47295321156506,177.07052393279258,False,14.455227678169852,True,False
1,1970-07-23 10:27:38.745237982,2025-09-12,2025-09-26 14:04:34.523,HH,C,1612936464,JASSM,3,103,76,2,2,1,225,9,2,0,1,26,0,0,0,0,-171098.22058279935,-4771644.352510299,4219668.237761021,-2.51439,-0.703043,0.607744,57.5,-48.625,-52.25,0.0,0.0,0.0,0.0,0.0,0.0,2,0,41.65969978539656,-92.05359137469372,10997.370787033313,139.84228710207856,-0.0021237732515534,-0.000652080369547,,9720.794529171932,12053.737931086003,150,1,2025-09-12,2025-09-26 14:04:34.515,HH,C,3614620576,HAWK11,1,1,73,2,1,1,225,2,1,0,0,12,1,225,2,1,-146543.82653983062,-4790600.250947799,4199753.577604771,2.73365,2.1958,-0.788179,-54.375,68.125,80.25,-0.203125,-7.6875,7.5,-0.0410156,0.00976562,0.00195312,4,0,41.4173722854179,-91.75212392454137,12194.013742353129,-25.49313536430779,2.8607609079190777,3.867396440795617,186.923,9720.794529171932,12053.737931086003,150,True,19.849965981414627,False,168.25908290631338,177.04619923767868,False,14.693118735820216,True,False
1,1970-07-23 10:27:38.758182991,2025-09-12,2025-09-26 14:04:35.818,HH,C,1614189164,JASSM,3,103,76,2,2,1,225,9,2,0,1,26,0,0,0,0,-171037.88122733062,-4771695.504854049,4219613.214323521,-2.51439,-0.703043,0.60784,57.5,-48.625,-52.25,0.0,0.0,0.0,0.0,0.0,0.0,2,0,41.6590370125472,-92.05284578881628,10997.37945377236,139.84600560707105,-0.0057042512891747,-0.0006539645728303,,9720.794529171932,12053.737931086003,150,1,2025-09-12,2025-09-26 14:04:35.625,HH,C,3615972642,HAWK11,1,1,73,2,1,1,225,2,1,0,0,12,1,225,2,1,-146604.52575858062,-4790523.586885299,4199844.749479771,2.69588,2.18736,-0.798149,-53.625,67.625,81.25,-0.09375,-7.59375,7.42188,-0.0371094,0.00585938,0.00195312,4,0,41.4184326520028,-91.75287724460436,12207.933158009442,-24.93077847444016,3.2161932459195475,1.3885171251051047,187.51,9720.794529171932,12053.737931086003,150,True,19.728599319501132,False,167.752358051769,176.98397346914538,False,15.257677213871172,True,False
1,1970-07-23 10:27:38.766292832,2025-09-12,2025-09-26 14:04:36.629,HH,C,1615441928,JASSM,3,103,76,2,2,1,225,9,2,0,1,26,0,0,0,0,-170977.53967459625,-4771746.657197799,4219558.183073521,-2.51439,-0.703043,0.60784,57.5,-48.625,-52.25,0.0,0.0,0.0,0.0,0.0,0.0,2,0,41.658374182731,-92.05210019187906,10997.375667652645,139.84650119958957,-0.0048384316687507,-0.0006556228098368,,9720.794529171932,12053.737931086003,150,1,2025-09-12,2025-09-26 14:04:36.456,HH,C,3616489608,HAWK11,1,1,73,2,1,1,225,2,1,0,0,12,1,225,2,1,-146628.13708670562,-4790493.870088424,4199880.575651646,2.68543,2.18592,-0.801697,-53.5,67.375,81.625,0.03125,-7.53125,7.34375,-0.0175781,0.00585938,0.0,4,0,41.418846936469706,-91.75317024588324,12214.39178646355,-24.787575694030043,3.371938207823966,0.7389285189632158,187.986,9720.794529171932,12053.737931086003,150,True,19.649673275053402,False,167.62837471643846,176.95422844177767,False,15.40851875447839,True,False
1,1970-07-23 10:27:38.777313687,2025-09-12,2025-09-26 14:04:37.731,HH,C,1616694842,JASSM,3,103,76,2,2,1,225,9,2,0,1,26,0,0,0,0,-170917.1905535025,-4771797.813447799,4219503.144011021,-2.51439,-0.703043,0.60784,57.5,-48.625,-52.25,0.0,0.0,0.0,0.0,0.0,0.0,2,0,41.65771127374655,-92.05135451779576,10997.368527176568,139.84699683691568,-0.0039725106599191,-0.0006572761716436,,9720.794529171932,12053.737931086003,150,1,2025-09-12,2025-09-26 14:04:37.921,HH,C,3618716538,HAWK11,1,1,73,2,1,1,225,2,1,0,0,12,1,225,2,1,-146726.51013358062,-4790368.903291549,4200033.331511021,2.66357,2.18199,-0.80208,-52.875,66.75,82.25,0.0,-6.78125,6.54688,0.00976562,-0.0175781,0.00390625,4,0,41.42060341979075,-91.75439145295908,12246.050972514817,-24.638429874217103,3.322921961307979,-0.6665281248835477,189.013,9720.794529171932,12053.737931086003,150,True,19.483497829387836,False,167.25010346056487,176.8512660785997,False,15.883112249995508,True,False
1,1970-07-23 10:27:38.789451045,2025-09-12,2025-09-26 14:04:38.945,HH,C,1618006910,JASSM,3,103,76,2,2,1,225,9,2,0,1,26,0,0,0,0,-170853.992311315,-4771851.387666549,4219445.507292271,-2.51429,-0.703043,0.60784,57.5,-48.625,-52.25,0.0,0.0,0.0,0.0,0.0,0.0,2,0,41.65701705130257,-92.05057365512552,10997.374838081922,139.8475158565823,-0.0030656992208517,0.0048324575433893,,9720.794529171932,12053.737931086003,150,1,2025-09-12,2025-09-26 14:04:38.827,HH,C,3619551638,HAWK11,1,1,73,2,1,1,225,2,1,0,0,12,1,225,2,1,-146763.19177420562,-4790321.694307174,4200090.698698521,2.68025,2.17557,-0.79882,-52.625,67.125,81.875,0.0,-6.625,6.29688,0.0136719,0.00390625,0.0,4,0,41.42126476073096,-91.7548470599484,12257.243787275973,-24.49293612261408,3.041922192805471,0.0332876656284349,189.49,9720.794529171932,12053.737931086003,150,True,19.386341554816582,False,167.2145919343385,176.80579966592575,False,15.96955506299985,True,False
1,1970-07-23 10:27:38.801381287,2025-09-12,2025-09-26 14:04:40.138,HH,C,1619319262,JASSM,3,103,76,2,2,1,225,9,2,0,1,26,0,0,0,0,-170790.7803972525,-4771904.969697799,4219387.858854771,-2.51429,-0.703043,0.60784,57.5,-48.625,-52.25,0.0,0.0,0.0,0.0,0.0,0.0,2,0,41.65632270090665,-92.04979264192689,10997.378774728792,139.8480349692022,-0.0021587133922999,0.0048307356434753,,9720.794529171932,12053.737931086003,150,1,2025-09-12,2025-09-26 14:04:40.125,HH,C,3621301370,HAWK11,1,1,73,2,1,1,225,2,1,0,0,12,1,225,2,1,-146839.92810233062,-4790222.554658736,4200210.243620396,2.68993,2.16847,-0.800642,-52.125,67.5,81.625,0.0,-6.84375,6.59375,0.00195312,0.0,0.00976562,4,0,41.42264737727099,-91.75580033684189,12278.7256401957,-24.19295515373124,3.01137945909879,0.3125199520566162,189.685,9720.794529171932,12053.737931086003,150,True,19.242368912135962,False,167.03870181746012,176.71985704026716,False,16.235560374789674,True,False
1,1970-07-23 10:27:38.810214867,2025-09-12,2025-09-26 14:04:41.021,HH,C,1620631614,JASSM,3,103,76,2,2,1,225,9,2,0,1,26,0,0,0,0,-170727.56848319,-4771958.547822799,4219330.206511021,-2.51429,-0.703043,0.60784,57.5,-48.625,-52.25,0.0,0.0,0.0,0.0,0.0,0.0,2,0,41.6556283422054,-92.0490116471813,10997.36986679308,139.84855406245828,-0.0012517260337458,0.0048290108758373,,9720.794529171932,12053.737931086003,150,1,2025-09-12,2025-09-26 14:04:40.826,HH,C,3622176234,HAWK11,1,1,73,2,1,1,225,2,1,0,0,12,1,225,2,1,-146877.98669608062,-4790172.810518111,4200269.917448521,2.69079,2.16569,-0.804189,-52.0,67.625,81.375,-0.09375,-7.03125,6.75,0.00390625,0.0078125,-0.0078125,4,0,41.42333910967786,-91.75627335426648,12288.806276848132,-24.004062539706965,3.145841277805075,0.2576252005799294,189.881,9720.794529171932,12053.737931086003,150,True,19.143373204989913,False,167.0336832642751,176.67119620602236,False,16.290879771442484,True,False
1,1970-07-23 10:27:38.821230621,2025-09-12,2025-09-26 14:04:42.123,HH,C,1621943966,JASSM,3,103,76,2,2,1,225,9,2,0,1,26,0,0,0,0,-170664.3565691275,-4772012.129854049,4219272.554167271,-2.51429,-0.703043,0.60784,57.5,-48.625,-52.25,0.0,0.0,0.0,0.0,0.0,0.0,2,0,41.65493395476474,-92.04823066753616,10997.375770880342,139.849073138579,-0.0003447199113173,0.0048272719786926,,9720.794529171932,12053.737931086003,150,1,2025-09-12,2025-09-26 14:04:41.922,HH,C,3623488534,HAWK11,1,1,73,2,1,1,225,2,1,0,0,12,1,225,2,1,-146935.04919608062,-4790097.447236861,4200359.882292271,2.69626,2.15601,-0.79,-51.625,68.25,81.0,-0.09375,-5.89062,5.64062,0.0078125,-0.0234375,0.0,4,0,41.42438421771728,-91.75698286880544,12303.081271187595,-24.01070556764116,2.246344884436412,0.173627162255592,189.954,9720.794529171932,12053.737931086003,150,True,19.021692091391202,False,166.91254003435478,176.60136672609457,False,16.485132877834598,True,False
1,1970-07-23 10:27:38.835383157,2025-09-12,2025-09-26 14:04:43.538,HH,C,1623256316,JASSM,3,103,76,2,2,1,225,9,2,0,1,26,0,0,0,0,-170601.144655065,-4772065.707979049,4219214.901823521,-2.51429,-0.703043,0.60784,57.5,-48.625,-52.25,0.0,0.0,0.0,0.0,0.0,0.0,2,0,41.65423958528254,-92.04744970634226,10997.37734843328,139.8495921953371,0.0005622676672396,0.00482554714899,,9720.794529171932,12053.737931086003,150,1,2025-09-12,2025-09-26 14:04:43.538,HH,C,3625079198,HAWK11,1,1,73,2,1,1,225,2,1,0,0,12,1,225,2,1,-147003.59021170562,-4790004.932588424,4200466.977995396,2.7139,2.14412,-0.788945,-51.25,69.625,80.0,-0.03125,-6.5625,6.28125,0.0253906,-0.00195312,-0.00390625,4,0,41.42564488115458,-91.757835866282,12313.245104180764,-23.60384186959748,1.987024774984785,0.7158680406798607,190.345,9720.794529171932,12053.737931086003,150,True,18.886224554148146,False,166.83858437755364,176.5182496673169,False,16.64118672407751,True,False
1,1970-07-23 10:27:38.842292409,2025-09-12,2025-09-26 14:04:44.229,HH,C,1624509028,JASSM,3,103,76,2,2,1,225,9,2,0,1,26,0,0,0,0,-170540.80505545562,-4772116.848604049,4219159.866667271,-2.51429,-0.702947,0.607936,57.5,-48.625,-52.25,0.0,0.0,0.0,0.0,0.0,0.0,2,0,41.65357676327765,-92.04670424850232,10997.37108542932,139.84966303456082,-0.0056665290680524,0.0016875444781915,,9720.794529171932,12053.737931086003,150,1,2025-09-12,2025-09-26 14:04:44.124,HH,C,3626152898,HAWK11,1,1,73,2,1,1,225,2,1,0,0,12,1,225,2,1,-147049.31286795562,-4789941.998018111,4200538.675261021,2.71294,2.14479,-0.78281,-50.875,70.25,79.625,-0.09375,-6.59375,6.26562,-0.0234375,-0.00195312,-0.00976562,4,0,41.42649482638899,-91.75840535304572,12317.58819586298,-23.77875436478347,1.681541721307748,0.6826066544447335,190.504,9720.794529171932,12053.737931086003,150,True,18.779884661399226,False,166.68330230135334,176.4582072440158,False,16.85252441927097,True,False
1,1970-07-23 10:27:38.853312615,2025-09-12,2025-09-26 14:04:45.331,HH,C,1625821366,JASSM,3,103,76,2,2,1,225,9,2,0,1,26,0,0,0,0,-170477.59362967435,-4772170.426729049,4219102.210417271,-2.51429,-0.702947,0.607936,57.5,-48.625,-52.25,0.0,0.0,0.0,0.0,0.0,0.0,2,0,41.65288235689181,-92.04592332595064,10997.374435278783,139.850182051977,-0.0047595239532946,0.0016857925197824,,9720.794529171932,12053.737931086003,150,1,2025-09-12,2025-09-26 14:04:45.327,HH,C,3627544730,HAWK11,1,1,73,2,1,1,225,2,1,0,0,12,1,225,2,1,-147108.50818045562,-4789859.413057174,4200631.618620396,2.70728,2.12974,-0.784056,-50.625,70.75,79.375,-0.0625,-6.8125,6.4375,0.00585938,0.00195312,0.0,4,0,41.42760260247824,-91.75914307268336,12320.759957721792,-23.194887515825275,1.48981364367435,-0.2338794010368154,190.773,9720.794529171932,12053.737931086003,150,True,18.654692440821787,False,166.5648902356355,176.38127186623123,False,17.043584559870116,True,False
1,1970-07-23 10:27:38.864580965,2025-09-12,2025-09-26 14:04:46.458,HH,C,1627074242,JASSM,3,103,76,2,2,1,225,9,2,0,1,26,0,0,0,0,-170417.246217565,-4772221.571260299,4219047.167448521,-2.51429,-0.702947,0.607936,57.5,-48.625,-52.25,0.0,0.0,0.0,0.0,0.0,0.0,2,0,41.65221945062097,-92.0451778040558,10997.369805236567,139.8506775347524,-0.0038936476048469,0.001684145928058,,9720.794529171932,12053.737931086003,150,1,2025-09-12,2025-09-26 14:04:46.515,HH,C,3628976328,HAWK11,1,1,73,2,1,1,225,2,1,0,0,12,1,225,2,1,-147169.23669608062,-4789774.173799361,4200726.599089146,2.70057,2.13099,-0.782905,-50.5,71.25,79.125,0.03125,-6.89062,6.53125,-0.0117188,-0.00390625,-0.00390625,4,0,41.42873963432645,-91.7599001148557,12321.95341313336,-23.26889641730233,1.4523006854910536,-0.5698269118049211,191.2,9720.794529171932,12053.737931086003,150,True,18.53012412271593,False,166.49597960572615,176.30213888389525,False,17.18634990548635,True,False
1,1970-07-23 10:27:38.875192009,2025-09-12,2025-09-26 14:04:47.519,HH,C,1628386416,JASSM,3,103,76,2,2,1,225,9,2,0,1,26,0,0,0,0,-170354.04236014312,-4772275.137666549,4218989.519011021,-2.51429,-0.702947,0.607936,57.5,-48.625,-52.25,0.0,0.0,0.0,0.0,0.0,0.0,2,0,41.651525154658536,-92.0443970100577,10997.37239010901,139.8511964528537,-0.0029867808702295,0.0016824172035473,,9720.794529171932,12053.737931086003,150,1,2025-09-12,2025-09-26 14:04:47.421,HH,C,3629930726,HAWK11,1,1,73,2,1,1,225,2,1,0,0,12,1,225,2,1,-147209.68200858062,-4789717.061494674,4200789.878386021,2.68188,2.12974,-0.785686,-50.625,71.25,79.25,0.0,-7.26562,6.90625,-0.0253906,0.0136719,-0.00195312,4,0,41.42949908618961,-91.7604044469684,12321.959152390576,-23.156756468102504,1.5768014420856074,-1.6884046300919249,191.555,9720.794529171932,12053.737931086003,150,True,18.427345299308787,False,166.5291554699928,176.2445035264171,False,17.21188653491385,True,False
1,1970-07-23 10:27:38.885231458,2025-09-12,2025-09-26 14:04:48.523,HH,C,1629639116,JASSM,3,103,76,2,2,1,225,9,2,0,1,26,0,0,0,0,-170293.70349295562,-4772326.278291549,4218934.479948521,-2.51429,-0.702947,0.607936,57.5,-48.5,-52.25,0.0,0.0,0.0,0.0,0.0,0.0,2,0,41.65086228612178,-92.04365162358972,10997.377236915952,139.8516918323805,-0.0021209910138487,0.0016807418937181,,9720.794529171932,12053.737931086003,150,1,2025-09-12,2025-09-26 14:04:48.625,HH,C,3631362326,HAWK11,1,1,73,2,1,1,225,2,1,0,0,12,1,225,2,1,-147270.60583670562,-4789631.706025924,4200885.104948521,2.65925,2.12792,-0.790479,-50.875,71.0,79.375,-0.03125,-7.34375,6.92188,-0.0175781,0.0,0.0,4,0,41.43063842544399,-91.7611639099798,12323.433062361844,-22.975850205710785,1.7971069969403992,-3.0533754311145924,192.056,9720.794529171932,12053.737931086003,150,True,18.30266855483792,False,166.61677119238541,176.18646632601056,False,17.17942422598907,True,False
1,1970-07-23 10:27:38.899364233,2025-09-12,2025-09-26 14:04:49.936,HH,C,1630891814,JASSM,3,103,76,2,2,1,225,9,2,0,1,26,0,0,0,0,-170233.3643816275,-4772377.415010299,4218879.440886021,-2.51429,-0.702947,0.607936,57.5,-48.5,-52.25,0.0,0.0,0.0,0.0,0.0,0.0,2,0,41.65019943607384,-92.04290625114815,10997.377269545856,139.85218719611626,-0.0012552183379027,0.0016790823597686,,9720.794529171932,12053.737931086003,150,1,2025-09-12,2025-09-26 14:04:50.126,HH,C,3633271124,HAWK11,1,1,73,2,1,1,225,2,1,0,0,12,1,225,2,1,-147352.02771170562,-4789517.612275924,4201012.235807896,2.67296,2.12638,-0.78118,-51.25,71.5,79.125,-0.15625,-6.70312,6.375,0.00390625,0.0117188,-0.00390625,4,0,41.43216029989775,-91.7621789458185,12325.07638172983,-23.14145457987357,1.2883250876450862,-2.3343610504564136,192.52,9720.794529171932,12053.737931086003,150,True,18.153543686733464,False,166.76350899771847,176.08040755101663,False,17.132396138477933,True,False
1,1970-07-23 10:27:38.907270516,2025-09-12,2025-09-26 14:04:50.727,HH,C,1632204164,JASSM,3,103,76,2,2,1,225,9,2,0,1,26,0,0,0,0,-170170.15197928375,-4772430.985322799,4218821.780729771,-2.51429,-0.702947,0.607936,57.5,-48.5,-52.25,0.0,0.0,0.0,0.0,0.0,0.0,2,0,41.64950502411485,-92.04212540180748,10997.378376050608,139.85270613034797,-0.0003482244332244,0.0016773483345264,,9720.794529171932,12053.737931086003,150,1,2025-09-12,2025-09-26 14:04:50.717,HH,C,3633986922,HAWK11,1,1,73,2,1,1,225,2,1,0,0,12,1,225,2,1,-147383.21911795562,-4789474.514619674,4201059.774870396,2.68715,2.12523,-0.780604,-51.5,71.625,79.0,-0.078125,-6.95312,6.53125,0.0898438,0.0,0.00195312,4,0,41.4327318289193,-91.76256757790831,12324.685752699075,-23.11276528871788,1.2395627726403886,-1.5670911890070356,192.716,9720.794529171932,12053.737931086003,150,True,18.06255495505561,False,166.87793270651483,176.03309456901945,False,17.063068171656646,True,False
1,1970-07-23 10:27:38.918292890,2025-09-12,2025-09-26 14:04:51.829,HH,C,1633516516,JASSM,3,103,76,2,2,1,225,9,2,0,1,26,0,0,0,0,-170106.93957694,-4772484.551729049,4218764.120573521,-2.51429,-0.702947,0.607936,57.5,-48.5,-52.25,0.0,0.0,0.0,0.0,0.0,0.0,2,0,41.6488106301135,-92.04134457090716,10997.375155031048,139.8532250452259,0.000558750931309,0.0016756283768561,,9720.794529171932,12053.737931086003,150,1,2025-09-12,2025-09-26 14:04:51.827,HH,C,3635179922,HAWK11,1,1,73,2,1,1,225,2,1,0,0,12,1,225,2,1,-147434.55505545562,-4789402.843721236,4201138.724089146,2.77641,2.12006,-0.78396,-51.25,71.875,79.125,-0.09375,-6.96875,6.65625,0.0488281,0.00585938,0.00390625,4,0,41.43368164353655,-91.76320748941826,12323.76765515064,-22.8421297294548,1.3289421464273814,3.344087658955605,193.07,9720.794529171932,12053.737931086003,150,True,17.94742639310985,False,166.7163522589275,175.9611400138461,False,17.295076578863572,True,False
1,1970-07-23 10:27:38.929333802,2025-09-12,2025-09-26 14:04:52.933,HH,C,1634888518,JASSM,3,103,76,2,2,1,225,9,2,0,1,26,0,0,0,0,-170040.85388358062,-4772540.555635299,4218703.835417271,-2.51429,-0.702851,0.608032,57.5,-48.5,-52.25,0.0,0.0,0.0,0.0,0.0,0.0,2,0,41.64808462360912,-92.04052826448547,10997.3750143885,139.8533392740706,-0.0055863111973594,-0.0014649364234047,,9720.794529171932,12053.737931086003,150,1,2025-09-12,2025-09-26 14:04:53.015,HH,C,3636571754,HAWK11,1,1,73,2,1,1,225,2,1,0,0,12,1,225,2,1,-147493.56677420562,-4789318.925752486,4201230.675261021,2.84218,2.09992,-0.788562,-50.25,72.375,79.375,0.015625,-6.84375,6.5,0.0488281,0.00390625,0.0175781,4,0,41.434790660312494,-91.76394366745932,12321.557493918272,-21.99043233759777,1.2415050395366425,6.315187755124395,193.449,9720.794529171932,12053.737931086003,150,True,17.819997368288615,False,166.17524727391455,175.87645998421925,False,17.917277607574956,True,False
1,1970-07-23 10:27:38.947753810,2025-09-12,2025-09-26 14:04:54.775,HH,C,1636081566,JASSM,3,103,76,2,2,1,225,9,2,0,1,26,0,0,0,0,-169983.38806326812,-4772589.252900924,4218651.413542271,-2.51429,-0.702851,0.608032,57.5,-48.5,-52.25,0.0,0.0,0.0,0.0,0.0,0.0,2,0,41.64745331947624,-92.03981844847492,10997.375180902138,139.85381098204655,-0.0047617671544654,-0.0014665235590264,,9720.794529171932,12053.737931086003,150,1,2025-09-12,2025-09-26 14:04:54.717,HH,C,3638719150,HAWK11,1,1,73,2,1,1,225,2,1,0,0,12,1,225,2,1,-147582.29528983062,-4789186.370088424,4201375.132292271,2.94927,2.06263,-0.795081,-47.625,73.375,80.375,-0.0625,-7.25,6.8125,0.0351562,0.0,0.0214844,4,0,41.43653794668375,-91.76505296284644,12316.036009161802,-20.46193473860028,1.0079839694813055,10.960480427674012,193.95,9720.794529171932,12053.737931086003,150,False,17.66088095032522,False,164.7409398145437,175.74536898543138,False,19.48050002229331,True,False
1,1970-07-23 10:27:38.950269734,2025-09-12,2025-09-26 14:04:55.026,HH,C,1637334262,JASSM,3,103,76,2,2,1,225,9,2,0,1,26,0,0,0,0,-169923.04895194,-4772640.383760299,4218596.370573521,-2.51419,-0.702851,0.608032,57.5,-48.5,-52.25,0.0,0.0,0.0,0.0,0.0,0.0,2,0,41.64679045293183,-92.0390731571212,10997.376908588069,139.85430625883453,-0.00389600187261,0.0040369469740889,,9720.794529171932,12053.737931086003,150,1,2025-09-12,2025-09-26 14:04:55.015,HH,C,3639156584,HAWK11,1,1,73,2,1,1,225,2,1,0,0,12,1,225,2,1,-147599.33825858062,-4789159.801729049,4201404.052214146,2.96979,2.05093,-0.79767,-47.0,73.625,80.625,-0.203125,-7.23438,6.73438,0.0449219,-0.00390625,0.0195312,4,0,41.43688806464629,-91.76526645093163,12314.802555925457,-19.971757689976474,0.9725081378990316,11.66545934674229,193.718,9720.794529171932,12053.737931086003,150,False,17.587436873187865,False,164.39699047370718,175.70742603839162,False,19.86183904483587,True,False
1,1970-07-23 10:27:38.960310849,2025-09-12,2025-09-26 14:04:56.031,HH,C,1638586964,JASSM,3,103,76,2,2,1,225,9,2,0,1,26,0,0,0,0,-169862.70935233062,-4772691.512666549,4218541.323698521,-2.51419,-0.702851,0.608032,57.5,-48.5,-52.25,0.0,0.0,0.0,0.0,0.0,0.0,2,0,41.64612756698735,-92.03832787602522,10997.370068851586,139.8548015223379,-0.003030222994455,0.0040352785328571,,9720.794529171932,12053.737931086003,150,1,2025-09-12,2025-09-26 14:04:56.123,HH,C,3640389350,HAWK11,1,1,73,2,1,1,225,2,1,0,0,12,1,225,2,1,-147647.34607108062,-4789082.179658736,4201488.532682896,3.02769,2.02064,-0.803039,-44.875,74.375,81.375,-0.078125,-7.29688,6.9375,0.03125,0.00195312,0.0195312,4,0,41.43791121362411,-91.76586885672592,12311.043138645373,-18.73289838202527,0.8297886910096799,13.757217851395122,193.754,9720.794529171932,12053.737931086003,150,False,17.472928640901674,False,163.2564802000245,175.61823206153863,False,21.090013967532606,True,False
1,1970-07-23 10:27:38.978213438,2025-09-12,2025-09-26 14:04:57.821,HH,C,1639839786,JASSM,3,103,76,2,2,1,225,9,2,0,1,26,0,0,0,0,-169802.36413748687,-4772742.647432174,4218486.272917271,-2.51419,-0.702851,0.608032,57.5,-48.5,-52.25,0.0,0.0,0.0,0.0,0.0,0.0,2,0,41.64546461604331,-92.03758254038324,10997.373356622044,139.85529681561945,-0.0021643644416161,0.0040336112070696,,9720.794529171932,12053.737931086003,150,1,2025-09-12,2025-09-26 14:04:58.015,HH,C,3642656046,HAWK11,1,1,73,2,1,1,225,2,1,0,0,12,1,225,2,1,-147728.18982108062,-4788938.526338424,4201644.979948521,3.0577,1.96522,-0.810805,-40.375,76.0,83.125,-0.28125,-7.46875,6.95312,-0.0273438,0.0175781,0.00585938,4,0,41.43980687609589,-91.76688810489532,12303.719651769785,-16.512906170213814,0.5315658769589802,13.20992046455543,193.534,9720.794529171932,12053.737931086003,150,False,17.308014511248036,False,160.82936432109167,175.45155223907807,False,23.682216994725962,True,False
1,1970-07-23 10:27:38.981253541,2025-09-12,2025-09-26 14:04:58.125,HH,C,1641092612,JASSM,3,103,76,2,2,1,225,9,2,0,1,26,0,0,0,0,-169742.0186785025,-4772793.780244674,4218431.222136021,-2.51419,-0.702851,0.608032,57.5,-48.5,-52.25,0.0,0.0,0.0,0.0,0.0,0.0,2,0,41.64480167191419,-92.03683721792784,10997.376615649222,139.85579209366847,-0.0012985137421533,0.0040319526079234,,9720.794529171932,12053.737931086003,150,1,2025-09-12,2025-09-26 14:04:58.015,HH,C,3642656046,HAWK11,1,1,73,2,1,1,225,2,1,0,0,12,1,225,2,1,-147728.18982108062,-4788938.526338424,4201644.979948521,3.0577,1.96522,-0.810805,-40.375,76.0,83.125,-0.28125,-7.46875,6.95312,-0.0273438,0.0175781,0.00585938,4,0,41.43980687609589,-91.76688810489532,12303.719651769785,-16.512906170213814,0.5315658769589802,13.20992046455543,193.534,9720.794529171932,12053.737931086003,150,False,17.256310845627922,False,160.82936432109167,175.43754740267968,False,23.69614057404942,True,False
1,1970-07-23 10:27:38.991270333,2025-09-12,2025-09-26 14:04:59.127,HH,C,1642285720,JASSM,3,103,76,2,2,1,225,9,2,0,1,26,0,0,0,0,-169684.54956229156,-4772842.475557174,4218378.792448521,-2.51419,-0.702851,0.608032,57.5,-48.5,-52.25,0.0,0.0,0.0,0.0,0.0,0.0,2,0,41.64417030446593,-92.0361274352986,10997.377209290991,139.85626374895116,-0.0004739198896929,0.0040303615420517,,9720.794529171932,12053.737931086003,150,1,2025-09-12,2025-09-26 14:04:59.015,HH,C,3643928578,HAWK11,1,1,73,2,1,1,225,2,1,0,0,12,1,225,2,1,-147770.37732108062,-4788856.184541549,4201735.044401646,3.03345,1.93981,-0.814831,-38.0,76.625,84.0,-0.1875,-7.39062,6.95312,-0.0390625,0.0117188,0.0214844,4,0,41.44089685036172,-91.76742273434084,12300.063979094832,-15.489450976349518,0.451963297592196,10.771826468028566,193.449,9720.794529171932,12053.737931086003,150,False,17.143675206447945,False,159.58763151645869,175.32892385658351,False,25.04763567994852,True,False
1,1970-07-23 10:27:39.002422093,2025-09-12,2025-09-26 14:05:00.242,HH,C,1643538106,JASSM,3,103,76,2,2,1,225,9,2,0,1,26,0,0,0,0,-169624.22509940094,-4772893.586885299,4218323.757292271,-2.51419,-0.702851,0.608128,57.5,-48.5,-52.25,0.0,0.0,0.0,0.0,0.0,0.0,2,0,41.64350757975857,-92.03538240355684,10997.373047675324,139.8599842292396,-0.0040570243871845,0.0040285983268516,,9720.794529171932,12053.737931086003,150,1,2025-09-12,2025-09-26 14:05:00.217,HH,C,3645320410,HAWK11,1,1,73,2,1,1,225,2,1,0,0,12,1,225,2,1,-147813.40466483062,-4788766.911104049,4201833.239714146,3.00708,1.91623,-0.821447,-36.125,76.875,85.0,-0.109375,-7.48438,7.0625,-0.0410156,-0.00195312,0.00585938,4,0,41.44208277985383,-91.76796997816903,12297.096904946611,-14.496480938146142,0.5546210091112503,8.283701745213673,193.217,9720.794529171932,12053.737931086003,150,True,17.024171634299123,False,158.5971864504126,175.205885787948,False,26.166570142292922,True,False
1,1970-07-23 10:27:39.014600431,2025-09-12,2025-09-26 14:05:01.460,HH,C,1644850458,JASSM,3,103,76,2,2,1,225,9,2,0,1,26,0,0,0,0,-169561.01220877594,-4772947.145479049,4218266.085417271,-2.51419,-0.702851,0.608128,57.5,-48.5,-52.25,0.0,0.0,0.0,0.0,0.0,0.0,2,0,41.64281310722006,-92.0346017149452,10997.370371613932,139.86050298860116,-0.0031500223050707,0.0040269031828726,,9720.794529171932,12053.737931086003,150,1,2025-09-12,2025-09-26 14:05:01.515,HH,C,3646831542,HAWK11,1,1,73,2,1,1,225,2,1,0,0,12,1,225,2,1,-147857.73474295562,-4788668.848604049,4201941.788542271,2.97372,1.8961,-0.82672,-34.375,77.0,86.0,-0.3125,-7.42188,7.03125,-0.0351562,0.0,-0.00976562,4,0,41.4433906296042,-91.76853605812758,12295.11647748853,-13.660938846969264,0.6366854343199755,5.534219490987663,192.985,9720.794529171932,12053.737931086003,150,True,16.89649703188475,False,157.676533211218,175.06490281565246,False,27.233942437363726,True,False
1,1970-07-23 10:27:39.027528876,2025-09-12,2025-09-26 14:05:02.752,HH,C,1646162808,JASSM,3,103,76,2,2,1,225,9,2,0,1,26,0,0,0,0,-169497.79944022125,-4773000.704072799,4218208.413542271,-2.51419,-0.702755,0.608128,57.5,-48.5,-52.25,0.0,0.0,0.0,0.0,0.0,0.0,2,0,41.64211862926955,-92.03382104456182,10997.37294902785,139.8573729739809,-0.0048886301847823,0.0008879821818818,,9720.794529171932,12053.737931086003,150,1,2025-09-12,2025-09-26 14:05:02.921,HH,C,3648581274,HAWK11,1,1,73,2,1,1,225,2,1,0,0,12,1,225,2,1,-147906.85583670562,-4788555.721650924,4202068.470182896,3.00842,1.87155,-0.838033,-32.875,76.875,87.0,-0.125,-7.42188,6.92188,0.111328,0.00390625,0.00390625,4,0,41.44490959108997,-91.76916499343344,12295.858425840664,-12.581583112338524,1.0261374718313787,6.49851827913704,192.141,9720.794529171932,12053.737931086003,150,True,16.75798607094697,False,156.88917605938084,174.89788159795313,False,28.19491153264248,True,False
1,1970-07-23 10:27:39.041513999,2025-09-12,2025-09-26 14:05:04.151,HH,C,1647355856,JASSM,3,103,76,2,2,1,225,9,2,0,1,26,0,0,0,0,-169440.3331316275,-4773049.391572799,4218155.983854771,-2.51419,-0.702755,0.608128,57.5,-48.5,-52.25,0.0,0.0,0.0,0.0,0.0,0.0,2,0,41.64148728899378,-92.0331113578051,10997.373059106028,139.8578445408202,-0.0040640890119758,0.0008863934984753,,9720.794529171932,12053.737931086003,150,1,2025-09-12,2025-09-26 14:05:04.122,HH,C,3649973106,HAWK11,1,1,73,2,1,1,225,2,1,0,0,12,1,225,2,1,-147944.25036795562,-4788464.702119674,4202171.052214146,3.12913,1.83656,-0.834486,-30.75,77.5,87.375,-0.03125,-7.03125,6.34375,0.046875,-0.0117188,0.0175781,4,0,41.44613653297135,-91.76964561352052,12297.731605426476,-11.321604300386149,0.5184348007179982,11.943433864254146,191.909,9720.794529171932,12053.737931086003,150,False,16.641599234516864,False,155.83517331094896,174.756101056884,False,29.38820349143618,True,False
