Subject_cm,Timestamp,SampleDate_cm,SampleTime_cm,Configuration_cm,Scenario_cm,DisTime_cm,MarkingTxt_cm,Application_cm,EntId_cm,Site_cm,ExerciseId_cm,ForceId_cm,Category_cm,Country_cm,Domain_cm,Kind_cm,Extra_cm,Specific_cm,Subcategory_cm,AltCategory_cm,AltCountry_cm,AltDomain_cm,AltKind_cm,ECEF_X_cm,ECEF_Y_cm,ECEF_Z_cm,OriPhi_cm,OriPsi_cm,OriTheta_cm,LinVelX_cm,LinVelY_cm,LinVelZ_cm,LinAccX_cm,LinAccY_cm,LinAccZ_cm,AngVelX_cm,AngVelY_cm,AngVelZ_cm,DrAlg_cm,Appearance_cm,Latitude_cm,Longitude_cm,Altitude_cm,Heading_cm,Pitch_cm,Roll_cm,CalibratedAirspeed_cm,CM_Altitude_Lead_cm,CM_Altitude_Wing_cm,CM_Airspeed_cm,Subject_ac,SampleDate_ac,SampleTime_ac,Configuration_ac,Scenario_ac,DisTime_ac,MarkingTxt_ac,Application_ac,EntId_ac,Site_ac,ExerciseId_ac,ForceId_ac,Category_ac,Country_ac,Domain_ac,Kind_ac,Extra_ac,Specific_ac,Subcategory_ac,AltCategory_ac,AltCountry_ac,AltDomain_ac,AltKind_ac,ECEF_X_ac,ECEF_Y_ac,ECEF_Z_ac,OriPhi_ac,OriPsi_ac,OriTheta_ac,LinVelX_ac,LinVelY_ac,LinVelZ_ac,LinAccX_ac,LinAccY_ac,LinAccZ_ac,AngVelX_ac,AngVelY_ac,AngVelZ_ac,DrAlg_ac,Appearance_ac,Latitude_ac,Longitude_ac,Altitude_ac,Heading_ac,Pitch_ac,Roll_ac,CalibratedAirspeed_ac,CM_Altitude_Lead_ac,CM_Altitude_Wing_ac,CM_Airspeed_ac,Bank_Angle_Condition,distance_nm,Distance_Condition,angle_between_vel,angle_between_pos,Cone_Condition,angle_between_pos_nose,Nose_Cone_Condition,Intercept_Criteria
1,1970-07-23 10:27:58.412650206,2025-09-12,2025-09-26 14:37:21.265,AA,C,3959122002,JASSM,3,141,76,2,2,1,225,9,2,0,1,26,0,0,0,0,-188360.3988054556,-4786302.159150924,4202413.042448521,-2.30155,-0.153302,0.128183,92.125,-14.125,-11.875,0.0,0.0,0.0,0.0,0.0,0.0,2,0,41.4521917520217,-92.2536582981517,10997.374707718143,99.81556689485292,-0.005057367179641,0.0023914956425686,,10375.88117203898,11905.596102039404,150,1,2025-09-12,2025-09-26 14:37:21.248,AA,C,2345231142,AMBUSH51,1,1,48,2,1,1,225,2,1,0,0,9,1,225,2,1,-144304.92970295076,-4793307.674654245,4195922.385515725,2.36825,2.7894,-0.365848,-91.4937,35.6814,37.1739,-0.105697,-7.4002,6.51615,-0.0467021,-0.00294092,-0.00517964,4,0,41.375809103045086,-91.72439731765932,10375.28961406128,-62.36162862879334,0.8391509597498185,1.0787148814795569,173.456,10375.88117203898,11905.596102039404,150,True,24.23834529537438,False,161.83846464141695,178.93477667692653,False,17.190802639600495,True,False
1,1970-07-23 10:27:58.424224138,2025-09-12,2025-09-26 14:37:22.422,AA,C,3960494004,JASSM,3,141,76,2,2,1,225,9,2,0,1,26,0,0,0,0,-188254.4534929556,-4786318.540010299,4202399.226042271,-2.30155,-0.153302,0.128183,92.125,-14.125,-11.875,0.0,0.0,0.0,0.0,0.0,0.0,2,0,41.452025861191615,-92.2523843092436,10997.37487930089,99.8164102676592,-0.0040881977137614,0.002390823316441,,10375.88117203898,11905.596102039404,150,1,2025-09-12,2025-09-26 14:37:22.481,AA,C,2346702508,AMBUSH51,1,1,48,2,1,1,225,2,1,0,0,9,1,225,2,1,-144418.20247204334,-4793263.269728278,4195968.46912138,2.30846,2.793,-0.363824,-91.3242,35.6774,37.0961,-0.0278688,-7.40196,6.36912,-0.022588,-0.000321452,-0.00443479,4,0,41.37636406057366,-91.72576605022086,10374.351959294254,-62.580554138959606,0.8963095062529586,-2.276615521305912,173.065,10375.88117203898,11905.596102039404,150,True,24.11353445580804,False,161.82294221348016,178.97687055039643,False,17.254326482995005,True,False
1,1970-07-23 10:27:58.434220124,2025-09-12,2025-09-26 14:37:23.422,AA,C,3961866008,JASSM,3,141,76,2,2,1,225,9,2,0,1,26,0,0,0,0,-188148.5081804556,-4786334.920869674,4202385.407682896,-2.30155,-0.153302,0.128183,92.125,-14.125,-11.875,0.0,0.0,0.0,0.0,0.0,0.0,2,0,41.45185994307457,-92.25111032682744,10997.376807529788,99.81725363339244,-0.0031190259739284,0.0023901379553908,,10375.88117203898,11905.596102039404,150,1,2025-09-12,2025-09-26 14:37:23.415,AA,C,2347815974,AMBUSH51,1,1,48,2,1,1,225,2,1,0,0,9,1,225,2,1,-144503.27302781594,-4793230.046442917,4196002.903473028,2.28777,2.79719,-0.361473,-91.3189,35.5261,36.7126,-0.137244,-7.25918,6.52447,-0.00899545,-0.00477809,-0.0110864,4,0,41.37677890234725,-91.72679397113448,10373.582543461043,-62.83450501937072,0.9626936972922914,-3.3810958490318987,172.723,10375.88117203898,11905.596102039404,150,True,24.00537109362494,False,162.0085650173834,179.00767066697185,False,17.10575987591945,True,False
1,1970-07-23 10:27:58.445342947,2025-09-12,2025-09-26 14:37:24.534,AA,C,3963178358,JASSM,3,141,76,2,2,1,225,9,2,0,1,26,0,0,0,0,-188047.17028983065,-4786350.586885299,4202372.188932896,-2.30155,-0.153302,0.128183,92.125,-14.125,-11.875,0.0,0.0,0.0,0.0,0.0,0.0,2,0,41.45170123297625,-92.24989175545755,10997.375321184134,99.81806031487672,-0.0021920040283376,0.0023894877829492,,10375.88117203898,11905.596102039404,150,1,2025-09-12,2025-09-26 14:37:24.454,AA,C,2349048738,AMBUSH51,1,1,48,2,1,1,225,2,1,0,0,9,1,225,2,1,-144597.80389146405,-4793193.569209753,4196040.6250747405,2.27173,2.8015,-0.356041,-91.5146,34.9675,36.4637,-0.12105,-7.47672,6.52692,-0.0134042,-0.00107671,-0.00307616,4,0,41.37723358537481,-91.7279360590861,10372.642154348574,-63.21928658080349,0.9108052635788098,-4.219784692128493,172.589,10375.88117203898,11905.596102039404,150,True,23.89425191438471,False,162.32287351210508,179.0413999996283,False,16.826500393483318,True,False
1,1970-07-23 10:27:58.456320922,2025-09-12,2025-09-26 14:37:25.632,AA,C,3964490710,JASSM,3,141,76,2,2,1,225,9,2,0,1,26,0,0,0,0,-187945.83044608065,-4786366.250947799,4202358.970182896,-2.30155,-0.153302,0.128183,92.125,-14.125,-11.875,0.0,0.0,0.0,0.0,0.0,0.0,2,0,41.45154252204888,-92.24867316760069,10997.374335500766,99.81886700473426,-0.0012649675542518,0.0023888523337339,,10375.88117203898,11905.596102039404,150,1,2025-09-12,2025-09-26 14:37:25.418,AA,C,2350201970,AMBUSH51,1,1,48,2,1,1,225,2,1,0,0,9,1,225,2,1,-144686.3277608864,-4793159.780647536,4196075.452830072,2.26574,2.8065,-0.353407,-91.7134,34.8242,35.763,-1.04159e-05,-7.21394,6.39359,0.00546468,-0.0027183,-0.00716245,4,0,41.37765380582863,-91.72900545356248,10371.601747983865,-63.51569478125438,0.9984004281536412,-4.468762115612612,172.418,10375.88117203898,11905.596102039404,150,True,23.786739781088215,False,162.67890445829875,179.07206840992072,False,16.51131305886565,True,False
1,1970-07-23 10:27:58.468241371,2025-09-12,2025-09-26 14:37:26.824,AA,C,3965743408,JASSM,3,141,76,2,2,1,225,9,2,0,1,26,0,0,0,0,-187849.09997733065,-4786381.204072799,4202346.351042271,-2.30145,-0.153206,0.128183,92.125,-14.125,-11.875,0.0,0.0,0.0,0.0,0.0,0.0,2,0,41.45139099777897,-92.24751001122011,10997.378723863543,99.81600062753408,-0.0044370303436394,0.007177643848093,,10375.88117203898,11905.596102039404,150,1,2025-09-12,2025-09-26 14:37:26.714,AA,C,2351752870,AMBUSH51,1,1,48,2,1,1,225,2,1,0,0,9,1,225,2,1,-144805.04171398203,-4793114.938421732,4196121.508232893,2.29915,2.81347,-0.347573,-91.9718,34.2721,35.5204,-0.26389,-7.26871,6.87361,0.0573006,0.004208,-0.0126927,4,0,41.37821014093764,-91.7304394055204,10369.960554500276,-64.0181825817899,1.0356221582032004,-2.42615129682777,172.418,10375.88117203898,11905.596102039404,150,True,23.66413783154629,False,163.00672865521156,179.1128190035731,False,16.227614984447374,True,False
1,1970-07-23 10:27:58.476285662,2025-09-12,2025-09-26 14:37:27.628,AA,C,3966817152,JASSM,3,141,76,2,2,1,225,9,2,0,1,26,0,0,0,0,-187766.1839617056,-4786394.018525924,4202335.532682896,-2.30145,-0.153206,0.128279,92.125,-14.125,-11.875,0.0,0.0,0.0,0.0,0.0,0.0,2,0,41.45126111322156,-92.2465129755004,10997.375649649515,99.82075116836845,-0.0073449556555656,0.0071766742455735,,10375.88117203898,11905.596102039404,150,1,2025-09-12,2025-09-26 14:37:27.547,AA,C,2352747034,AMBUSH51,1,1,48,2,1,1,225,2,1,0,0,9,1,225,2,1,-144881.84808221745,-4793086.196774579,4196150.957982556,2.34062,2.81489,-0.345722,-92.1058,34.3063,35.4008,-0.126636,-7.20297,6.60208,0.0405394,0.00246238,-0.000654347,4,0,41.37856611680649,-91.73136706902348,10368.81616290821,-64.14804500674532,1.017238562053193,-0.0244691231332309,172.369,10375.88117203898,11905.596102039404,150,True,23.573725003645443,False,163.0754830993205,179.13814751561983,False,16.190867203324025,True,False
1,1970-07-23 10:27:58.485805339,2025-09-12,2025-09-26 14:37:28.580,AA,C,3967950544,JASSM,3,141,76,2,2,1,225,9,2,0,1,26,0,0,0,0,-187678.6644304556,-4786407.543916549,4202324.112761021,-2.30145,-0.153206,0.128279,92.125,-14.125,-11.875,0.0,0.0,0.0,0.0,0.0,0.0,2,0,41.45112400494768,-92.2454605886961,10997.373095087834,99.82144782935669,-0.006544343440611,0.0071761201745862,,10375.88117203898,11905.596102039404,150,1,2025-09-12,2025-09-26 14:37:28.749,AA,C,2354178634,AMBUSH51,1,1,48,2,1,1,225,2,1,0,0,9,1,225,2,1,-144993.10058142047,-4793044.543110465,4196193.538656563,2.38167,2.80833,-0.34965,-92.1242,34.4101,35.7107,-0.211445,-6.96764,6.75053,0.0377826,-0.012986,-0.00537522,4,0,41.37908134015999,-91.73271079723852,10366.945066609784,-63.74114203899432,0.9218496956567128,2.206110370252761,172.589,10375.88117203898,11905.596102039404,150,True,23.460642879175793,False,162.93279278991733,179.17501438109497,False,16.376598459434806,True,False
1,1970-07-23 10:27:58.496200052,2025-09-12,2025-09-26 14:37:29.620,AA,C,3969083940,JASSM,3,141,76,2,2,1,225,9,2,0,1,26,0,0,0,0,-187591.1448992056,-4786421.069307174,4202312.692839146,-2.30145,-0.153206,0.128279,92.125,-14.125,-11.875,0.0,0.0,0.0,0.0,0.0,0.0,2,0,41.45098688704339,-92.24440820632356,10997.374634034271,99.8221444855158,-0.0057437312064855,0.0071755660667589,,10375.88117203898,11905.596102039404,150,1,2025-09-12,2025-09-26 14:37:29.548,AA,C,2355133032,AMBUSH51,1,1,48,2,1,1,225,2,1,0,0,9,1,225,2,1,-145066.8330901286,-4793016.739935639,4196221.872675709,2.40128,2.80408,-0.351643,-92.0562,34.734,35.932,-0.0975183,-7.27649,6.63184,0.00563737,-0.00521085,0.0141845,4,0,41.37942473615406,-91.73360143519996,10365.470778658431,-63.50021909723928,0.8386427995703302,3.249428086575584,173.029,10375.88117203898,11905.596102039404,150,True,23.36949772400908,False,162.73361946234883,179.19886695215308,False,16.60719658262616,True,False
1,1970-07-23 10:27:58.508201719,2025-09-12,2025-09-26 14:37:30.820,AA,C,3970276972,JASSM,3,141,76,2,2,1,225,9,2,0,1,26,0,0,0,0,-187499.0198992056,-4786435.305635299,4202300.671354771,-2.30145,-0.153206,0.128279,92.125,-14.125,-11.875,0.0,0.0,0.0,0.0,0.0,0.0,2,0,41.45084254385204,-92.24330045045582,10997.3773659078,99.8228777957775,-0.0049009893603502,0.0071749832648082,,10375.88117203898,11905.596102039404,150,1,2025-09-12,2025-09-26 14:37:30.748,AA,C,2356564630,AMBUSH51,1,1,48,2,1,1,225,2,1,0,0,9,1,225,2,1,-145176.81664964807,-4792974.82557923,4196264.435761657,2.34984,2.79649,-0.353476,-92.1035,35.2549,36.1186,-0.0889634,-6.74287,6.46387,-0.0684734,-0.0116961,0.00732473,4,0,41.37994159347533,-91.73493013829238,10362.839106709403,-63.14071146065685,0.6219214100668409,0.1571669011268185,173.285,10375.88117203898,11905.596102039404,150,True,23.254560837152294,False,162.51705511779284,179.2350234289539,False,16.873933505758288,True,False
1,1970-07-23 10:27:58.514262685,2025-09-12,2025-09-26 14:37:31.426,AA,C,3971350728,JASSM,3,141,76,2,2,1,225,9,2,0,1,26,0,0,0,0,-187416.10388358065,-4786448.116182174,4202289.851042271,-2.30145,-0.153206,0.128279,92.125,-14.125,-11.875,0.0,0.0,0.0,0.0,0.0,0.0,2,0,41.45071263287805,-92.24230343336066,10997.375964285611,99.82353779758644,-0.0041424925889421,0.0071744708713788,,10375.88117203898,11905.596102039404,150,1,2025-09-12,2025-09-26 14:37:31.548,AA,C,2357519030,AMBUSH51,1,1,48,2,1,1,225,2,1,0,0,9,1,225,2,1,-145250.89765344956,-4792946.452783136,4196292.875191023,2.25607,2.78583,-0.343665,-92.5565,35.7076,35.5982,-0.0780777,-6.38405,6.12934,-0.137793,-0.00966332,-0.00271622,4,0,41.38028900861014,-91.73582516831564,10360.226791604053,-63.13838419977659,-0.1810719391701818,-5.424333979685429,173.799,10375.88117203898,11905.596102039404,150,True,23.1657177182598,False,162.6821971301599,179.2583244374947,False,16.750127858335038,True,False
1,1970-07-23 10:27:58.524610397,2025-09-12,2025-09-26 14:37:32.461,AA,C,3972424470,JASSM,3,141,76,2,2,1,225,9,2,0,1,26,0,0,0,0,-187333.18982108065,-4786460.926729049,4202279.028776646,-2.30145,-0.153206,0.128279,92.125,-14.125,-11.875,0.0,0.0,0.0,0.0,0.0,0.0,2,0,41.45058269963128,-92.24130644358765,10997.374182801135,99.8241977796086,-0.0033840107152251,0.0071739420301899,,10375.88117203898,11905.596102039404,150,1,2025-09-12,2025-09-26 14:37:32.349,AA,C,2358473428,AMBUSH51,1,1,48,2,1,1,225,2,1,0,0,9,1,225,2,1,-145325.203468533,-4792917.741552418,4196320.888351357,2.15536,2.78733,-0.335391,-93.2852,35.8863,34.6667,0.0792286,-6.54047,6.33254,-0.114043,-0.00203794,-0.0252241,4,0,41.38063551035712,-91.7367230156291,10355.87764285078,-63.53347372811445,-0.4556118779410395,-11.163890965561876,174.532,10375.88117203898,11905.596102039404,150,False,23.076767523383296,False,163.1420832773201,179.28060856646582,False,16.33349572850261,True,False
1,1970-07-23 10:27:58.532263847,2025-09-12,2025-09-26 14:37:33.226,AA,C,3973498212,JASSM,3,141,76,2,2,1,225,9,2,0,1,26,0,0,0,0,-187250.2777117056,-4786473.737275924,4202268.206511021,-2.30145,-0.153206,0.128279,92.125,-14.125,-11.875,0.0,0.0,0.0,0.0,0.0,0.0,2,0,41.45045275728652,-92.2403094811372,10997.376263100226,99.8248577418424,-0.002625545986994,0.00717340972216,,10375.88117203898,11905.596102039404,150,1,2025-09-12,2025-09-26 14:37:33.150,AA,C,2359427828,AMBUSH51,1,1,48,2,1,1,225,2,1,0,0,9,1,225,2,1,-145400.25811355503,-4792889.043635641,4196348.047274128,2.07791,2.79288,-0.314438,-94.3324,35.7894,33.2653,0.12812,-6.21292,6.0686,-0.0785518,-0.00546468,-0.0339688,4,0,41.380976022589245,-91.73762981155208,10349.768107957863,-64.60027864654201,-1.0834628110274738,-15.48576380303187,175.131,10375.88117203898,11905.596102039404,150,False,22.987494410480696,False,163.92084945547634,179.30110283039951,False,15.600665811191641,True,False
1,1970-07-23 10:27:58.544602536,2025-09-12,2025-09-26 14:37:34.460,AA,C,3974631728,JASSM,3,141,76,2,2,1,225,9,2,0,1,26,0,0,0,0,-187162.7464617056,-4786487.258760299,4202256.780729771,-2.30145,-0.153206,0.128279,92.125,-14.125,-11.875,0.0,0.0,0.0,0.0,0.0,0.0,2,0,41.45031557870338,-92.23925698222727,10997.374388822653,99.82555446586645,-0.001824829257589,0.0071728597718758,,10375.88117203898,11905.596102039404,150,1,2025-09-12,2025-09-26 14:37:34.348,AA,C,2360859426,AMBUSH51,1,1,48,2,1,1,225,2,1,0,0,9,1,225,2,1,-145515.091630819,-4792845.776476998,4196386.333271271,2.01491,2.79422,-0.281737,-96.2628,35.6803,30.503,-0.0121058,-6.09158,5.82946,-0.0267471,-0.00356302,-0.0235596,4,0,41.38147112130236,-91.7390169952661,10334.918021124904,-65.98956392810362,-2.343326579753273,-19.03136714270867,176.316,10375.88117203898,11905.596102039404,150,False,22.872770715464952,False,165.3305707430769,179.32753636079204,False,14.272258223795676,True,False
1,1970-07-23 10:27:58.550260600,2025-09-12,2025-09-26 14:37:35.026,AA,C,3975705510,JASSM,3,141,76,2,2,1,225,9,2,0,1,26,0,0,0,0,-187079.83044608065,-4786500.067354049,4202245.958464146,-2.30145,-0.153206,0.128279,92.125,-14.125,-11.875,0.0,0.0,0.0,0.0,0.0,0.0,2,0,41.45018563112697,-92.23825998218187,10997.378847083515,99.82621444948818,-0.001066332827223,0.0071723456023896,,10375.88117203898,11905.596102039404,150,1,2025-09-12,2025-09-26 14:37:34.981,AA,C,2361614992,AMBUSH51,1,1,48,2,1,1,225,2,1,0,0,9,1,225,2,1,-145575.7441789214,-4792823.446361252,4196404.98222537,2.00624,2.79693,-0.260685,-96.9754,34.4199,30.6441,-0.00588217,-5.9139,5.8401,-0.00939909,-0.0118105,-0.0364114,4,0,41.38171888616031,-91.73974949499863,10324.952600927949,-66.95707758224913,-3.080428815621145,-19.44044212717905,177.086,10375.88117203898,11905.596102039404,150,False,22.79222376500912,False,165.90101666560136,179.33830869916517,False,13.704080001294765,True,False
1,1970-07-23 10:27:58.560266340,2025-09-12,2025-09-26 14:37:36.026,AA,C,3976838742,JASSM,3,141,76,2,2,1,225,9,2,0,1,26,0,0,0,0,-186992.32263358065,-4786513.582979049,4202234.532682896,-2.30145,-0.15311,0.128279,92.125,-14.125,-11.875,0.0,0.0,0.0,0.0,0.0,0.0,2,0,41.45004846321538,-92.23720777476888,10997.372798155422,99.82327470220662,-0.0043227624021558,0.0064692045915866,,10375.88117203898,11905.596102039404,150,1,2025-09-12,2025-09-26 14:37:36.048,AA,C,2362887524,AMBUSH51,1,1,48,2,1,1,225,2,1,0,0,9,1,225,2,1,-145681.58403610034,-4792784.346304979,4196433.919233598,2.16394,2.80367,-0.230863,-99.117,36.1877,26.1668,-0.111517,-6.27449,6.04972,0.165978,-0.00452217,-0.0322128,4,0,41.38212767612404,-91.74102778452855,10299.4191071168,-68.44522461208057,-4.004698864238693,-10.218918938431615,178.76,10375.88117203898,11905.596102039404,150,False,22.68327952685775,False,167.01812949261185,179.35195528963493,False,12.728533237545205,True,False
1,1970-07-23 10:27:58.570692849,2025-09-12,2025-09-26 14:37:37.069,AA,C,3977912484,JASSM,3,141,76,2,2,1,225,9,2,0,1,26,0,0,0,0,-186909.40857108065,-4786526.389619674,4202223.708464146,-2.30145,-0.15311,0.128279,92.125,-14.125,-11.875,0.0,0.0,0.0,0.0,0.0,0.0,2,0,41.44991849587181,-92.23621080715884,10997.37595455378,99.82393466089935,-0.0035642835433328,0.0064686371415878,,10375.88117203898,11905.596102039404,150,1,2025-09-12,2025-09-26 14:37:37.081,AA,C,2364120290,AMBUSH51,1,1,48,2,1,1,225,2,1,0,0,9,1,225,2,1,-145784.5140637146,-4792746.444595876,4196460.081769692,2.33385,2.81399,-0.222432,-100.373,36.6882,25.2352,-0.382199,-6.85789,6.65688,0.102229,-0.00375859,0.0172845,4,0,41.38251111827614,-91.74227090387252,10270.605749125798,-69.19571214253743,-3.926295970793572,-0.2993684186638221,180.092,10375.88117203898,11905.596102039404,150,True,22.578690295732752,False,167.30605307535862,179.36114370472612,False,12.50176538949397,True,False
1,1970-07-23 10:27:58.578260636,2025-09-12,2025-09-26 14:37:37.826,AA,C,3978986226,JASSM,3,141,76,2,2,1,225,9,2,0,1,26,0,0,0,0,-186826.49450858065,-4786539.194307174,4202212.882292271,-2.30145,-0.15311,0.128375,92.125,-14.125,-11.875,0.0,0.0,0.0,0.0,0.0,0.0,2,0,41.44978851833746,-92.23521384444004,10997.373743869526,99.82868517955612,-0.0064721795029906,0.0064677368212074,,10375.88117203898,11905.596102039404,150,1,2025-09-12,2025-09-26 14:37:37.785,AA,C,2364955388,AMBUSH51,1,1,48,2,1,1,225,2,1,0,0,9,1,225,2,1,-145854.65621821414,-4792720.658727652,4196477.368950091,2.37119,2.8065,-0.22802,-101.028,36.9153,25.4671,-0.290238,-7.13286,6.75707,0.00982353,-0.0022252,0.0168414,4,0,41.3827685014877,-91.74311802833516,10249.904610415508,-68.67426700207378,-4.0030344695018965,1.708429090840651,181.253,10375.88117203898,11905.596102039404,150,True,22.49298106513935,False,167.29560181764083,179.36544643240865,False,12.533129757214994,True,False
1,1970-07-23 10:27:58.588640426,2025-09-12,2025-09-26 14:37:38.864,AA,C,3980119620,JASSM,3,141,76,2,2,1,225,9,2,0,1,26,0,0,0,0,-186738.9730242056,-4786552.711885299,4202201.454557896,-2.30145,-0.15311,0.128375,92.125,-14.125,-11.875,0.0,0.0,0.0,0.0,0.0,0.0,2,0,41.449651300930256,-92.23416148554412,10997.378789315848,99.82938180178728,-0.005671551557399,0.0064671855687318,,10375.88117203898,11905.596102039404,150,1,2025-09-12,2025-09-26 14:37:38.848,AA,C,2366227920,AMBUSH51,1,1,48,2,1,1,225,2,1,0,0,9,1,225,2,1,-145962.12859877452,-4792681.229840379,4196503.9586044,2.32327,2.80216,-0.232928,-101.956,37.3471,25.739,-0.149023,-7.16312,6.839,-0.0955794,-0.00122651,-0.014819,4,0,41.3831630661053,-91.7444159862862,10218.6113166233,-68.30349047559382,-3.979897342670162,-1.120272105010207,183.294,10375.88117203898,11905.596102039404,150,True,22.383330189307983,False,167.24890171471284,179.37126351510244,False,12.614995368166722,True,False
1,1970-07-23 10:27:58.596259635,2025-09-12,2025-09-26 14:37:39.625,AA,C,3981193362,JASSM,3,141,76,2,2,1,225,9,2,0,1,26,0,0,0,0,-186656.0589617056,-4786565.514619674,4202190.626432896,-2.30145,-0.15311,0.128375,92.125,-14.125,-11.875,0.0,0.0,0.0,0.0,0.0,0.0,2,0,41.44952130408225,-92.23316453191735,10997.37508969791,99.83004174605225,-0.0049130734248383,0.006466668884542,,10375.88117203898,11905.596102039404,150,1,2025-09-12,2025-09-26 14:37:39.615,AA,C,2367142552,AMBUSH51,1,1,48,2,1,1,225,2,1,0,0,9,1,225,2,1,-146041.6460263169,-4792651.74156508,4196524.129272174,2.22986,2.80814,-0.229672,-102.798,37.2632,25.9105,-0.0272868,-7.24984,6.83362,-0.115462,0.000812472,-0.0130776,4,0,41.38346022420394,-91.7453764559913,10195.765109286329,-68.67144992551063,-3.8697630382012,-6.368534062381258,184.467,10375.88117203898,11905.596102039404,150,True,22.292187311692143,False,167.41758382035778,179.37462945069686,False,12.469159236407288,True,False
1,1970-07-23 10:27:58.606237494,2025-09-12,2025-09-26 14:37:40.623,AA,C,3982326756,JASSM,3,141,76,2,2,1,225,9,2,0,1,26,0,0,0,0,-186568.5394304556,-4786579.028291549,4202179.196745396,-2.30145,-0.15311,0.128375,92.125,-14.125,-11.875,0.0,0.0,0.0,0.0,0.0,0.0,2,0,41.44938407754733,-92.23211220682263,10997.37445361496,99.8307383422141,-0.0041124656701552,0.0064661238234362,,10375.88117203898,11905.596102039404,150,1,2025-09-12,2025-09-26 14:37:40.715,AA,C,2368454852,AMBUSH51,1,1,48,2,1,1,225,2,1,0,0,9,1,225,2,1,-146154.79014843347,-4792610.6891610185,4196552.091962409,2.13146,2.81621,-0.222939,-104.389,36.7238,25.1021,0.00200878,-7.21668,6.82985,-0.0710908,0.00883733,-0.0244876,4,0,41.38387266299071,-91.746742782209,10163.893122830708,-69.26435826292725,-3.812945049915117,-11.863006749834131,186.361,10375.88117203898,11905.596102039404,150,False,22.17933340142865,False,168.14010577316438,179.37743685817443,False,11.797022875393408,True,False
1,1970-07-23 10:27:58.616239452,2025-09-12,2025-09-26 14:37:41.623,AA,C,3983579454,JASSM,3,141,76,2,2,1,225,9,2,0,1,26,0,0,0,0,-186471.80700858065,-4786593.963838424,4202166.561979771,-2.30145,-0.15311,0.128375,92.125,-14.125,-11.875,0.0,0.0,0.0,0.0,0.0,0.0,2,0,41.44923238547962,-92.2309491124268,10997.372726210138,99.8315082609154,-0.0032275792723717,0.0064655124866332,,10375.88117203898,11905.596102039404,150,1,2025-09-12,2025-09-26 14:37:41.480,AA,C,2369369484,AMBUSH51,1,1,48,2,1,1,225,2,1,0,0,9,1,225,2,1,-146235.2268209392,-4792582.546720678,4196570.962484514,2.09019,2.82642,-0.210042,-105.621,35.956,24.3114,-0.129201,-7.22549,6.94254,-0.0405227,0.00610134,-0.0370148,4,0,41.38415285367876,-91.74771376694903,10141.616675545052,-70.1956747086056,-3.912831926101169,-14.039098919702688,187.473,10375.88117203898,11905.596102039404,150,False,22.08033712438416,False,168.86577298133452,179.37696290462517,False,11.107151235262275,True,False
1,1970-07-23 10:27:58.626378171,2025-09-12,2025-09-26 14:37:42.637,AA,C,3984712848,JASSM,3,141,76,2,2,1,225,9,2,0,1,26,0,0,0,0,-186384.2855242056,-4786607.475557174,4202155.132292271,-2.30145,-0.15311,0.128375,92.125,-14.125,-11.875,0.0,0.0,0.0,0.0,0.0,0.0,2,0,41.44909515075161,-92.22989677423556,10997.375721726186,99.8322048617524,-0.0024269569716342,0.0064649821208233,,10375.88117203898,11905.596102039404,150,1,2025-09-12,2025-09-26 14:37:42.547,AA,C,2370642016,AMBUSH51,1,1,48,2,1,1,225,2,1,0,0,9,1,225,2,1,-146349.58767138913,-4792544.176369563,4196595.896117711,2.05718,2.8453,-0.19489,-107.544,34.66,22.6426,-0.00152051,-7.60062,7.10372,-0.020859,0.00290763,-0.018302,4,0,41.38452864237869,-91.74909368395171,10109.878408272863,-71.558961704464,-3.744287859488067,-15.622333724061733,189.05,10375.88117203898,11905.596102039404,150,False,21.9672806704727,False,170.10037224353567,179.37399720706128,False,9.936104413673492,True,False
1,1970-07-23 10:27:58.635219442,2025-09-12,2025-09-26 14:37:43.521,AA,C,3985846242,JASSM,3,141,76,2,2,1,225,9,2,0,1,26,0,0,0,0,-186296.7659929556,-4786620.987275924,4202143.698698521,-2.30145,-0.15311,0.128375,92.125,-14.125,-11.875,0.0,0.0,0.0,0.0,0.0,0.0,2,0,41.44895787959291,-92.22884446382368,10997.374514215096,99.83290144230484,-0.0016263473151044,0.0064644223224817,,10375.88117203898,11905.596102039404,150,1,2025-09-12,2025-09-26 14:37:43.656,AA,C,2371954314,AMBUSH51,1,1,48,2,1,1,225,2,1,0,0,9,1,225,2,1,-146468.41662119026,-4792506.933675022,4196619.440086946,2.10758,2.86284,-0.18134,-109.551,33.0238,21.0324,-0.0822619,-7.76446,7.32579,0.101311,0.0161818,-0.0171972,4,0,41.384887513870495,-91.75052657694728,10078.244171691123,-72.8047496263164,-3.558253719719559,-12.466920357435086,190.773,10375.88117203898,11905.596102039404,150,False,21.852063342546906,False,171.43638810257463,179.3681673937949,False,8.662454051826971,True,False
1,1970-07-23 10:27:58.645361963,2025-09-12,2025-09-26 14:37:44.536,AA,C,3987039288,JASSM,3,141,76,2,2,1,225,9,2,0,1,26,0,0,0,0,-186204.63903983065,-4786635.207979049,4202131.663542271,-2.30145,-0.153015,0.128375,92.125,-14.125,-11.875,0.0,0.0,0.0,0.0,0.0,0.0,2,0,41.44881338773242,-92.22773676093526,10997.372699297115,99.82999850852634,-0.0048405206946146,0.0057607756398543,,10375.88117203898,11905.596102039404,150,1,2025-09-12,2025-09-26 14:37:44.682,AA,C,2373187080,AMBUSH51,1,1,48,2,1,1,225,2,1,0,0,9,1,225,2,1,-146582.45704310673,-4792473.584069794,4196640.635077249,2.19093,2.88767,-0.173586,-111.056,31.0224,20.8306,-0.247579,-8.29674,7.7098,0.0656792,0.0124222,-0.0119166,4,0,41.38520822605066,-91.75190087263395,10050.74135307982,-74.0883991012307,-2.8372550486800123,-7.368825045071746,191.909,10375.88117203898,11905.596102039404,150,True,21.737319876601145,False,172.56768813779408,179.3612940357341,False,7.538335764146109,True,False
1,1970-07-23 10:27:58.655339403,2025-09-12,2025-09-26 14:37:45.533,AA,C,3988172684,JASSM,3,141,76,2,2,1,225,9,2,0,1,26,0,0,0,0,-186117.1175554556,-4786648.717744674,4202120.229948521,-2.30145,-0.153015,0.128375,92.125,-14.125,-11.875,0.0,0.0,0.0,0.0,0.0,0.0,2,0,41.4486761088872,-92.2266844371944,10997.374908218337,99.8306950940494,-0.0040398965285568,0.0057601797284804,,10375.88117203898,11905.596102039404,150,1,2025-09-12,2025-09-26 14:37:45.681,AA,C,2374380078,AMBUSH51,1,1,48,2,1,1,225,2,1,0,0,9,1,225,2,1,-146694.79437461612,-4792442.867439516,4196661.47393632,2.3032,2.90318,-0.183787,-112.126,29.4857,21.3744,-0.168044,-8.59774,7.99539,0.134266,0.0176341,0.00132638,4,0,41.38551116935049,-91.75325388063912,10028.823400366498,-74.2549694632953,-1.7976604006609789,-0.7717856366558817,193.253,10375.88117203898,11905.596102039404,150,True,21.626233690057607,False,173.25663915836424,179.35528913232105,False,6.824329359958119,True,False
1,1970-07-23 10:27:58.665344532,2025-09-12,2025-09-26 14:37:46.534,AA,C,3989365728,JASSM,3,141,76,2,2,1,225,9,2,0,1,26,0,0,0,0,-186024.99060233065,-4786662.936494674,4202108.192839146,-2.30145,-0.153015,0.128375,92.125,-14.125,-11.875,0.0,0.0,0.0,0.0,0.0,0.0,2,0,41.44853159467311,-92.22557674479944,10997.372897029005,99.83142832879302,-0.0031971431401219,0.0057595511087852,,10375.88117203898,11905.596102039404,150,1,2025-09-12,2025-09-26 14:37:46.614,AA,C,2375493544,AMBUSH51,1,1,48,2,1,1,225,2,1,0,0,9,1,225,2,1,-146799.0975426191,-4792415.740974145,4196681.468079036,2.38507,2.91163,-0.189143,-112.665,28.5649,22.7643,-0.27151,-8.30276,7.75686,0.0677868,0.0194733,0.0111822,4,0,41.3857885059745,-91.75450962793184,10013.308031911803,-74.35292272059824,-1.2387451872953958,4.011374286761842,193.987,10375.88117203898,11905.596102039404,150,True,21.517199472844418,False,173.35385145514073,179.35079989576806,False,6.669267714226796,True,False
1,1970-07-23 10:27:58.674336793,2025-09-12,2025-09-26 14:37:47.433,AA,C,3990499124,JASSM,3,141,76,2,2,1,225,9,2,0,1,26,0,0,0,0,-185937.4691179556,-4786676.444307174,4202096.757292271,-2.30145,-0.153015,0.128471,92.125,-14.125,-11.875,0.0,0.0,0.0,0.0,0.0,0.0,2,0,41.44839429451452,-92.22452443107336,10997.37446752369,99.83621551406765,-0.0060628431415529,0.0057586515033872,,10375.88117203898,11905.596102039404,150,1,2025-09-12,2025-09-26 14:37:47.281,AA,C,2376288876,AMBUSH51,1,1,48,2,1,1,225,2,1,0,0,9,1,225,2,1,-146874.26413758766,-4792396.509000973,4196696.794202613,2.41322,2.91104,-0.204031,-112.819,28.1005,24.125,-0.161318,-8.51502,7.93434,0.0524258,0.0110989,0.0201849,4,0,41.38599267084849,-91.75541448022425,10004.89974511404,-73.70372693118148,-0.6843606877318261,5.606621399731529,194.329,10375.88117203898,11905.596102039404,150,True,21.426997368961953,False,173.15159132706347,179.3482158726873,False,6.8213612925183025,True,False
1,1970-07-23 10:27:58.684317169,2025-09-12,2025-09-26 14:37:48.431,AA,C,3991692170,JASSM,3,141,76,2,2,1,225,9,2,0,1,26,0,0,0,0,-185845.34216483065,-4786690.661104049,4202084.718229771,-2.30145,-0.153015,0.128471,92.125,-14.125,-11.875,0.0,0.0,0.0,0.0,0.0,0.0,2,0,41.44824975794713,-92.2234167491722,10997.37226006301,99.83694873779751,-0.0052200900740972,0.0057580813301972,,10375.88117203898,11905.596102039404,150,1,2025-09-12,2025-09-26 14:37:48.580,AA,C,2377839776,AMBUSH51,1,1,48,2,1,1,225,2,1,0,0,9,1,225,2,1,-147020.88488316472,-4792359.448317993,4196729.2108737165,2.46636,2.91065,-0.222391,-112.751,27.9952,26.81,-0.217969,-8.19802,7.55411,0.0365862,0.0083151,0.0124222,4,0,41.38640522529582,-91.75717934679668,9995.092270306985,-72.91625605027518,0.0135534238908062,8.642088046806588,194.976,10375.88117203898,11905.596102039404,150,True,21.294005231437712,False,172.29740084060467,179.34677534719052,False,7.615262602573282,True,False
1,1970-07-23 10:27:58.694296569,2025-09-12,2025-09-26 14:37:49.429,AA,C,3992885216,JASSM,3,141,76,2,2,1,225,9,2,0,1,26,0,0,0,0,-185753.2152117056,-4786704.877900924,4202072.679167271,-2.30145,-0.153015,0.128471,92.125,-14.125,-11.875,0.0,0.0,0.0,0.0,0.0,0.0,2,0,41.448105210710885,-92.22230907218795,10997.374588372577,99.83768195616972,-0.0043773369854036,0.0057575111161883,,10375.88117203898,11905.596102039404,150,1,2025-09-12,2025-09-26 14:37:49.281,AA,C,2378674874,AMBUSH51,1,1,48,2,1,1,225,2,1,0,0,9,1,225,2,1,-147099.7258946531,-4792339.321039793,4196748.122442429,2.47608,2.90629,-0.233799,-112.548,28.2512,28.2172,-0.19577,-8.12095,7.48631,0.0119041,0.0174364,0.017761,4,0,41.38663823300178,-91.75812843496342,9992.54533082794,-72.27160746457265,0.278847851957227,9.144460117487196,195.123,10375.88117203898,11905.596102039404,150,True,21.19902026791898,False,171.6973360968587,179.34625236982495,False,8.202823754187207,True,False
1,1970-07-23 10:27:58.704296855,2025-09-12,2025-09-26 14:37:50.429,AA,C,3994078262,JASSM,3,141,76,2,2,1,225,9,2,0,1,26,0,0,0,0,-185661.08825858065,-4786719.092744674,4202060.640104771,-2.30145,-0.153015,0.128471,92.125,-14.125,-11.875,0.0,0.0,0.0,0.0,0.0,0.0,2,0,41.44796066443183,-92.22120140102685,10997.376652990735,99.8384151685836,-0.0035345865310426,0.0057569522002924,,10375.88117203898,11905.596102039404,150,1,2025-09-12,2025-09-26 14:37:50.348,AA,C,2379947406,AMBUSH51,1,1,48,2,1,1,225,2,1,0,0,9,1,225,2,1,-147219.92975024873,-4792308.238090463,4196778.6738064205,2.43406,2.89213,-0.257818,-112.02,28.7557,29.8812,0.00254668,-7.79087,7.21292,-0.0336359,0.0100253,0.0163961,4,0,41.387007427027896,-91.75957560794008,9991.421092892037,-70.7281565709337,0.6380890946430011,6.551717829070383,195.319,10375.88117203898,11905.596102039404,150,True,21.080558085620872,False,170.87420838614355,179.34680811140962,False,9.030121888654339,True,False
1,1970-07-23 10:27:58.714646752,2025-09-12,2025-09-26 14:37:51.464,AA,C,3995211656,JASSM,3,141,76,2,2,1,225,9,2,0,1,26,0,0,0,0,-185573.5667742056,-4786732.596650924,4202049.200651646,-2.30145,-0.153015,0.128471,92.125,-14.125,-11.875,0.0,0.0,0.0,0.0,0.0,0.0,2,0,41.44782332114076,-92.22014910756472,10997.377161997649,99.83911172230788,-0.0027339634207286,0.005756408294528,,10375.88117203898,11905.596102039404,150,1,2025-09-12,2025-09-26 14:37:51.380,AA,C,2381180172,AMBUSH51,1,1,48,2,1,1,225,2,1,0,0,9,1,225,2,1,-147334.81526650218,-4792277.97399534,4196809.596530001,2.3686,2.89084,-0.263537,-111.808,28.9335,31.1424,-0.112241,-7.52427,7.00244,-0.0702045,0.00365665,0.00383974,4,0,41.38737521278936,-91.76095897148195,9992.723120475068,-70.44050266550066,0.8100373835009527,2.785677654189916,195.624,10375.88117203898,11905.596102039404,150,True,20.96746713692691,False,170.32868290179192,179.34740422001445,False,9.58413819222364,True,False
1,1970-07-23 10:27:58.723279343,2025-09-12,2025-09-26 14:37:52.327,AA,C,3996345354,JASSM,3,141,76,2,2,1,225,9,2,0,1,26,0,0,0,0,-185486.02185233065,-4786746.102510299,4202037.757292271,-2.30145,-0.153015,0.128471,92.125,-14.125,-11.875,0.0,0.0,0.0,0.0,0.0,0.0,2,0,41.44768593565196,-92.21909653751824,10997.37584913222,99.8398084572148,-0.0019331271804436,0.0057558682596144,,10375.88117203898,11905.596102039404,150,1,2025-09-12,2025-09-26 14:37:52.447,AA,C,2382452704,AMBUSH51,1,1,48,2,1,1,225,2,1,0,0,9,1,225,2,1,-147454.72018956646,-4792246.447433391,4196842.695983815,2.3169,2.88817,-0.269637,-111.735,29.0281,31.4828,-0.0346432,-7.25515,6.63465,-0.051606,-0.00235419,0.000677234,4,0,41.387764269093566,-91.76240276935312,9996.02843703865,-70.08496082616072,0.9412311379790628,-0.2113248211232045,195.661,10375.88117203898,11905.596102039404,150,True,20.851471420875438,False,170.16609843040067,179.34753769932817,False,9.774466853296172,True,False
1,1970-07-23 10:27:58.733259820,2025-09-12,2025-09-26 14:37:53.325,AA,C,3997478770,JASSM,3,141,76,2,2,1,225,9,2,0,1,26,0,0,0,0,-185398.5003679556,-4786759.604463424,4202026.315886021,-2.30145,-0.152919,0.128471,92.125,-14.125,-11.875,0.0,0.0,0.0,0.0,0.0,0.0,2,0,41.44754857155246,-92.2180442538393,10997.375505352567,99.8368689163444,-0.0051894263595623,0.0050517491908635,,10375.88117203898,11905.596102039404,150,1,2025-09-12,2025-09-26 14:37:53.413,AA,C,2383605936,AMBUSH51,1,1,48,2,1,1,225,2,1,0,0,9,1,225,2,1,-147561.99004715192,-4792218.258956175,4196872.471401026,2.29165,2.88855,-0.269241,-111.805,28.9993,31.4302,-0.127363,-7.17631,6.53722,-0.002246,-0.00697727,0.00153236,4,0,41.388113324231306,-91.76369443434476,9999.38726156304,-70.11692881892114,0.9423508207036362,-1.6528556482322705,195.783,10375.88117203898,11905.596102039404,150,True,20.74264747242227,False,170.20470215468387,179.34634100454053,False,9.764950164429775,True,False
1,1970-07-23 10:27:58.742279624,2025-09-12,2025-09-26 14:37:54.227,AA,C,3998612206,JASSM,3,141,76,2,2,1,225,9,2,0,1,26,0,0,0,0,-185310.97497733065,-4786773.104463424,4202014.874479771,-2.30145,-0.152919,0.128471,92.125,-14.125,-11.875,0.0,0.0,0.0,0.0,0.0,0.0,2,0,41.44741121035055,-92.216991928817,10997.374084055886,99.83756548530484,-0.004388771959318,0.0050511709287513,,10375.88117203898,11905.596102039404,150,1,2025-09-12,2025-09-26 14:37:54.115,AA,C,2384441034,AMBUSH51,1,1,48,2,1,1,225,2,1,0,0,9,1,225,2,1,-147640.27545989884,-4792197.75268486,4196894.251357366,2.31015,2.88971,-0.268482,-111.867,28.9504,31.4194,-0.0166008,-7.36552,6.80703,0.112432,0.00312193,0.00272038,4,0,41.388368001468606,-91.76463707420072,10002.112533257958,-70.19290997901658,0.9602300369344194,-0.5765028522031638,195.783,10375.88117203898,11905.596102039404,150,True,20.65026225993939,False,170.2313465992034,179.34436666292223,False,9.758534174642126,True,False
1,1970-07-23 10:27:58.752260587,2025-09-12,2025-09-26 14:37:55.226,AA,C,3999804886,JASSM,3,141,76,2,2,1,225,9,2,0,1,26,0,0,0,0,-185218.87732108065,-4786787.311494674,4202002.833464146,-2.30145,-0.152919,0.128471,92.125,-14.125,-11.875,0.0,0.0,0.0,0.0,0.0,0.0,2,0,41.44726663944048,-92.21588463502673,10997.377267770598,99.8382984378734,-0.0035462872512513,0.0050505392158344,,10375.88117203898,11905.596102039404,150,1,2025-09-12,2025-09-26 14:37:55.315,AA,C,2385872634,AMBUSH51,1,1,48,2,1,1,225,2,1,0,0,9,1,225,2,1,-147774.48136211897,-4792162.146806493,4196931.903904502,2.44695,2.89015,-0.267555,-111.68,29.5749,31.9836,-0.232924,-7.20509,6.67582,0.054161,-0.0053128,0.00757232,4,0,41.38880939240612,-91.76625323929426,10006.364629267617,-70.24937478599122,0.94303839351464,7.267214750604314,195.661,10375.88117203898,11905.596102039404,150,True,20.523611288238495,False,169.83459457426164,179.34000425904506,False,10.198263779232056,True,False
1,1970-07-23 10:27:58.765405364,2025-09-12,2025-09-26 14:37:56.540,AA,C,4000997932,JASSM,3,141,76,2,2,1,225,9,2,0,1,26,0,0,0,0,-185126.74841483065,-4786801.520479049,4201990.786589146,-2.30145,-0.152919,0.128471,92.125,-14.125,-11.875,0.0,0.0,0.0,0.0,0.0,0.0,2,0,41.4471220139129,-92.21477697176115,10997.374089314437,99.83903163290437,-0.002703518506825,0.0050499121069815,,10375.88117203898,11905.596102039404,150,1,2025-09-12,2025-09-26 14:37:56.414,AA,C,2387184932,AMBUSH51,1,1,48,2,1,1,225,2,1,0,0,9,1,225,2,1,-147897.69001317414,-4792128.554822179,4196967.3700032495,2.50859,2.86961,-0.284658,-111.099,30.557,33.1363,-0.147047,-7.13178,6.55517,0.0256631,-0.00497574,0.0217828,4,0,41.38922603877164,-91.76773732260918,10010.004119014551,-68.76103390229,0.7865212889989577,10.500453348393364,195.71,10375.88117203898,11905.596102039404,150,False,20.40305831942971,False,169.06319363645596,179.3334690746423,False,11.009782408586641,True,False
1,1970-07-23 10:27:58.772216705,2025-09-12,2025-09-26 14:37:57.221,AA,C,4002190978,JASSM,3,141,76,2,2,1,225,9,2,0,1,26,0,0,0,0,-185034.6214617056,-4786815.727510299,4201978.741667271,-2.30145,-0.152919,0.128567,92.125,-14.125,-11.875,0.0,0.0,0.0,0.0,0.0,0.0,2,0,41.44697740206801,-92.21366933766056,10997.375074319478,99.8438554622076,-0.0055270449457101,0.0050490421163979,,10375.88117203898,11905.596102039404,150,1,2025-09-12,2025-09-26 14:37:57.047,AA,C,2387940498,AMBUSH51,1,1,48,2,1,1,225,2,1,0,0,9,1,225,2,1,-147967.9126861945,-4792108.593758946,4196988.310279256,2.49511,2.86044,-0.285329,-110.722,31.6333,33.6043,-0.162693,-6.85363,6.39053,-0.0555966,-0.017426,0.0149085,4,0,41.389473251222064,-91.76858348368452,10011.652281113418,-68.38792322747452,0.4467856232137031,9.584884421941476,195.893,10375.88117203898,11905.596102039404,150,True,20.31251421053524,False,168.5508109784534,179.32756687175004,False,11.561487710335532,True,False
1,1970-07-23 10:27:58.783044743,2025-09-12,2025-09-26 14:37:58.304,AA,C,4003324372,JASSM,3,141,76,2,2,1,225,9,2,0,1,26,0,0,0,0,-184947.1019304556,-4786829.225557174,4201967.296354771,-2.30145,-0.152919,0.128567,92.125,-14.125,-11.875,0.0,0.0,0.0,0.0,0.0,0.0,2,0,41.446839984763166,-92.21261710202884,10997.377946893608,99.84455196413504,-0.0047264400649208,0.0050484959388415,,10375.88117203898,11905.596102039404,150,1,2025-09-12,2025-09-26 14:37:58.447,AA,C,2389610696,AMBUSH51,1,1,48,2,1,1,225,2,1,0,0,9,1,225,2,1,-148122.52660369573,-4792062.719267226,4197035.941205002,2.43582,2.84829,-0.297264,-110.163,33.0753,34.9221,-0.113114,-7.27906,6.73582,-0.0700547,-0.00295132,0.00418096,4,0,41.39003928041795,-91.77044726548904,10013.864765415134,-67.43419483167185,0.434875381841011,5.994925136524747,196.467,10375.88117203898,11905.596102039404,150,True,20.17615622926384,False,167.60437367502104,179.31223025897643,False,12.57040707793068,True,False
1,1970-07-23 10:27:58.791376191,2025-09-12,2025-09-26 14:37:59.137,AA,C,4004458000,JASSM,3,141,76,2,2,1,225,9,2,0,1,26,0,0,0,0,-184859.56091483065,-4786842.723604049,4201955.847136021,-2.30145,-0.152919,0.128567,92.125,-14.125,-11.875,0.0,0.0,0.0,0.0,0.0,0.0,2,0,41.44670253641976,-92.21156461406538,10997.37439097374,99.84524863118652,-0.0039256418691227,0.0050479615385354,,10375.88117203898,11905.596102039404,150,1,2025-09-12,2025-09-26 14:37:59.147,AA,C,2390445796,AMBUSH51,1,1,48,2,1,1,225,2,1,0,0,9,1,225,2,1,-148199.56819275155,-4792039.238987393,4197060.435538057,2.39254,2.8416,-0.298684,-109.988,33.5883,35.3329,-0.00893658,-7.0821,6.42231,-0.0787224,-0.00527951,0.007693,4,0,41.390330145790536,-91.7713761991246,10015.092934709572,-67.12324384502699,0.2266379551962995,3.404819751691514,196.577,10375.88117203898,11905.596102039404,150,True,20.0840269113704,False,167.2928082810486,179.30176555315413,False,12.914710785729673,True,False
1,1970-07-23 10:27:58.802603972,2025-09-12,2025-09-26 14:38:00.260,AA,C,4005650828,JASSM,3,141,76,2,2,1,225,9,2,0,1,26,0,0,0,0,-184767.4495867056,-4786856.926729049,4201943.800261021,-2.30145,-0.152919,0.128567,92.125,-14.125,-11.875,0.0,0.0,0.0,0.0,0.0,0.0,2,0,41.44655790012269,-92.21045718277972,10997.3761718685,99.84598166449068,-0.0030830354257702,0.0050473975495628,,10375.88117203898,11905.596102039404,150,1,2025-09-12,2025-09-26 14:38:00.113,AA,C,2391599028,AMBUSH51,1,1,48,2,1,1,225,2,1,0,0,9,1,225,2,1,-148304.90056083666,-4792006.371175728,4197094.332257357,2.35336,2.83544,-0.29758,-109.895,34.3529,35.3653,-0.130221,-6.84831,6.28669,-0.0243482,-0.00113913,0.00182988,4,0,41.39073511305086,-91.77264654666232,10015.77982862872,-66.93623953010311,-0.0601478031083989,1.0561687228527792,196.797,10375.88117203898,11905.596102039404,150,True,19.97311037637655,False,167.0590878421553,179.28522837008597,False,13.20372911550039,True,False
1,1970-07-23 10:27:58.811335068,2025-09-12,2025-09-26 14:38:01.133,AA,C,4006843860,JASSM,3,141,76,2,2,1,225,9,2,0,1,26,0,0,0,0,-184675.3245867056,-4786871.129854049,4201931.751432896,-2.30145,-0.152919,0.128567,92.125,-14.125,-11.875,0.0,0.0,0.0,0.0,0.0,0.0,2,0,41.44641324312634,-92.20934959301304,10997.376949290656,99.84671480059215,-0.0022403065687564,0.0050468445780424,,10375.88117203898,11905.596102039404,150,1,2025-09-12,2025-09-26 14:38:01.248,AA,C,2392951092,AMBUSH51,1,1,48,2,1,1,225,2,1,0,0,9,1,225,2,1,-148430.2387179956,-4791966.867410987,4197134.508055734,2.33534,2.83505,-0.297961,-110.036,34.7167,35.4074,-0.123935,-7.03088,6.53133,-0.013475,-0.00282649,0.00377108,4,0,41.39121824403829,-91.7741583374364,10015.29360337202,-66.90690845981953,-0.0589858415655222,0.0173386036355817,197.03,10375.88117203898,11905.596102039404,150,True,19.850707575874676,False,166.97317221245044,179.26242700925573,False,13.345387411060784,True,False
1,1970-07-23 10:27:58.822603170,2025-09-12,2025-09-26 14:38:02.260,AA,C,4008036906,JASSM,3,141,76,2,2,1,225,9,2,0,1,26,0,0,0,0,-184583.1956804556,-4786885.332979049,4201919.700651646,-2.30145,-0.152823,0.128567,92.125,-14.125,-11.875,0.0,0.0,0.0,0.0,0.0,0.0,2,0,41.44626856318462,-92.2082419614812,10997.377650590632,99.8438119731846,-0.0054544577833678,0.004342206509526,,10375.88117203898,11905.596102039404,150,1,2025-09-12,2025-09-26 14:38:02.313,AA,C,2394223624,AMBUSH51,1,1,48,2,1,1,225,2,1,0,0,9,1,225,2,1,-148546.73115311182,-4791929.518272307,4197172.164076278,2.2945,2.83285,-0.296884,-110.232,35.0679,35.357,-0.327161,-7.02982,6.45334,-0.14429,0.00664646,-0.00799677,4,0,41.39167315827733,-91.77556368845688,10013.976959823478,-66.86896161862542,-0.1875880253311213,-2.3597908927304934,197.408,10375.88117203898,11905.596102039404,150,True,19.733319287537824,False,166.93146501747012,179.23763000890244,False,13.44210897050011,True,False
1,1970-07-23 10:27:58.831313979,2025-09-12,2025-09-26 14:38:03.131,AA,C,4009170300,JASSM,3,141,76,2,2,1,225,9,2,0,1,26,0,0,0,0,-184495.67419608065,-4786898.825166549,4201908.251432896,-2.30145,-0.152823,0.128567,92.125,-14.125,-11.875,0.0,0.0,0.0,0.0,0.0,0.0,2,0,41.44613110519765,-92.2071897281158,10997.37857010365,99.84450846385666,-0.0046538391312231,0.0043416208238957,,10375.88117203898,11905.596102039404,150,1,2025-09-12,2025-09-26 14:38:03.048,AA,C,2395098490,AMBUSH51,1,1,48,2,1,1,225,2,1,0,0,9,1,225,2,1,-148627.7057602649,-4791903.7844874775,4197197.877471181,2.16362,2.83224,-0.296001,-110.641,34.9732,34.7567,0.0927815,-7.22948,6.44626,-0.16281,-0.00822979,0.000275679,4,0,41.39198489065258,-91.776540483819,10012.625983886002,-66.88303254713516,-0.2458236214356039,-9.868648465250546,197.665,10375.88117203898,11905.596102039404,150,True,19.6389004689576,False,167.23506968388645,179.21860690008674,False,13.179684745985899,True,False
1,1970-07-23 10:27:58.841298358,2025-09-12,2025-09-26 14:38:04.129,AA,C,4010363346,JASSM,3,141,76,2,2,1,225,9,2,0,1,26,0,0,0,0,-184403.5472429556,-4786913.026338424,4201896.198698521,-2.30145,-0.152823,0.128567,92.125,-14.125,-11.875,0.0,0.0,0.0,0.0,0.0,0.0,2,0,41.44598640245669,-92.20608213042352,10997.379260144036,99.84524159903953,-0.0038110912329033,0.004341003062533,,10375.88117203898,11905.596102039404,150,1,2025-09-12,2025-09-26 14:38:03.914,AA,C,2396132422,AMBUSH51,1,1,48,2,1,1,225,2,1,0,0,9,1,225,2,1,-148723.80872598445,-4791873.898934173,4197227.516591858,2.08723,2.83934,-0.283389,-111.396,34.2646,33.5936,0.054968,-6.86961,6.24152,-0.0158469,0.00244782,-0.0360952,4,0,41.39234502109147,-91.77769954137634,10010.736517725869,-67.67513965266369,-0.4634374127491913,-14.124274101751697,198.41,10375.88117203898,11905.596102039404,150,False,19.533398828879353,False,167.95987526890258,179.19564597792402,False,12.499452783014153,True,False
1,1970-07-23 10:27:58.851281147,2025-09-12,2025-09-26 14:38:05.128,AA,C,4011556394,JASSM,3,141,76,2,2,1,225,9,2,0,1,26,0,0,0,0,-184311.4183367056,-4786927.225557174,4201884.144011021,-2.30145,-0.152823,0.128567,92.125,-14.125,-11.875,0.0,0.0,0.0,0.0,0.0,0.0,2,0,41.4458416879467,-92.20497451520936,10997.375259966782,99.84597474371428,-0.0029683265493135,0.0043403870514825,,10375.88117203898,11905.596102039404,150,1,2025-09-12,2025-09-26 14:38:05.079,AA,C,2397524254,AMBUSH51,1,1,48,2,1,1,225,2,1,0,0,9,1,225,2,1,-148854.4191717898,-4791834.592118093,4197265.40644136,2.09894,2.86026,-0.256362,-112.566,32.7573,32.033,-0.234262,-7.36733,6.66677,0.0610374,0.00408525,-0.00564361,4,0,41.39281050651236,-91.77927431403047,10006.211089690572,-69.5945178095054,-0.6916176449454307,-13.114487432502692,198.704,10375.88117203898,11905.596102039404,150,False,19.40842425111911,False,169.1161125451247,179.1647006207441,False,11.389545371859166,True,False
1,1970-07-23 10:27:58.862624739,2025-09-12,2025-09-26 14:38:06.262,AA,C,4012809092,JASSM,3,141,76,2,2,1,225,9,2,0,1,26,0,0,0,0,-184214.68591483065,-4786942.133760299,4201871.487761021,-2.30145,-0.152823,0.128567,92.125,-14.125,-11.875,0.0,0.0,0.0,0.0,0.0,0.0,2,0,41.44568973927703,-92.20381155999512,10997.376363620737,99.84674451637588,-0.0020834520307678,0.0043397485044963,,10375.88117203898,11905.596102039404,150,1,2025-09-12,2025-09-26 14:38:06.181,AA,C,2398836554,AMBUSH51,1,1,48,2,1,1,225,2,1,0,0,9,1,225,2,1,-148978.7375096257,-4791798.729626844,4197299.247131261,2.182,2.87405,-0.251158,-113.508,31.8647,30.3503,-0.0057956,-7.63131,6.94359,0.122717,0.0181813,-0.011074,4,0,41.39322930965351,-91.78077266819136,10000.90382714541,-70.33678713183,-0.3380578913422712,-8.150897141460641,199.119,10375.88117203898,11905.596102039404,150,True,19.284786489928482,False,170.09075701156377,179.13539063511894,False,10.471720451891052,True,False
1,1970-07-23 10:27:58.878595673,2025-09-12,2025-09-26 14:38:07.859,AA,C,4013942486,JASSM,3,141,76,2,2,1,225,9,2,0,1,26,0,0,0,0,-184127.16345389312,-4786955.622041549,4201860.034636021,-2.30145,-0.152823,0.128663,92.125,-14.125,-11.875,0.0,0.0,0.0,0.0,0.0,0.0,2,0,41.44555223787907,-92.20275933545994,10997.37634453901,99.85153169432044,-0.0049490479513414,0.0043389386303363,,10375.88117203898,11905.596102039404,150,1,2025-09-12,2025-09-26 14:38:07.848,AA,C,2400824884,AMBUSH51,1,1,48,2,1,1,225,2,1,0,0,9,1,225,2,1,-149169.62825322515,-4791745.933293676,4197349.631836798,2.36001,2.88152,-0.248747,-114.049,31.2919,30.0718,-0.31547,-7.39393,6.64931,0.0803099,0.00658196,0.0201204,4,0,41.393848187636,-91.78307258480784,9994.935368578948,-70.72280119752483,-0.1277144570490626,2.156110943941469,199.229,10375.88117203898,11905.596102039404,150,True,19.128688450469326,False,170.44023741030296,179.09287208876597,False,10.175226190095174,True,False
1,1970-07-23 10:27:58.880261861,2025-09-12,2025-09-26 14:38:08.026,AA,C,4015075880,JASSM,3,141,76,2,2,1,225,9,2,0,1,26,0,0,0,0,-184039.64196951807,-4786969.108369674,4201848.579557896,-2.30145,-0.152823,0.128663,92.125,-14.125,-11.875,0.0,0.0,0.0,0.0,0.0,0.0,2,0,41.44541472508076,-92.2017071279367,10997.371470229333,99.85222815801674,-0.0041484303549502,0.0043384049879939,,10375.88117203898,11905.596102039404,150,1,2025-09-12,2025-09-26 14:38:07.980,AA,C,2400983950,AMBUSH51,1,1,48,2,1,1,225,2,1,0,0,9,1,225,2,1,-149184.83256091198,-4791741.762308897,4197353.649490526,2.3696,2.88025,-0.249951,-114.052,31.0675,30.3304,-0.129587,-7.33651,6.61415,0.0653442,2.39268e-05,0.0170037,4,0,41.39389730611218,-91.78325576069015,9994.55491987286,-70.62448388803539,-0.1318779596952723,2.68731888231982,199.193,10375.88117203898,11905.596102039404,150,True,19.072085922046305,False,170.41920912410458,179.08722230933597,False,10.191820976946119,True,False
1,1970-07-23 10:27:58.890236521,2025-09-12,2025-09-26 14:38:09.023,AA,C,4016209274,JASSM,3,141,76,2,2,1,225,9,2,0,1,26,0,0,0,0,-183952.12048514312,-4786982.594697799,4201837.126432896,-2.30145,-0.152823,0.128663,92.125,-14.125,-11.875,0.0,0.0,0.0,0.0,0.0,0.0,2,0,41.44527721583069,-92.20065492485642,10997.374930890295,99.85292461687096,-0.0033478149936872,0.0043378842896557,,10375.88117203898,11905.596102039404,150,1,2025-09-12,2025-09-26 14:38:08.980,AA,C,2402176950,AMBUSH51,1,1,48,2,1,1,225,2,1,0,0,9,1,225,2,1,-149298.78706149364,-4791710.479635719,4197383.852053592,2.4093,2.87545,-0.257534,-113.892,31.3978,30.8831,-0.0595306,-7.39606,6.55078,-0.00834839,-0.00582254,0.0139244,4,0,41.39426617523876,-91.7846286594588,9991.85142354848,-70.1260112070123,-0.0284181160971572,4.892264101460343,199.486,10375.88117203898,11905.596102039404,150,True,18.959577441230575,False,170.1137997617621,179.05974537855877,False,10.530197005656097,True,False
1,1970-07-23 10:27:58.901356081,2025-09-12,2025-09-26 14:38:10.135,AA,C,4017521626,JASSM,3,141,76,2,2,1,225,9,2,0,1,26,0,0,0,0,-183850.77966483065,-4786998.209932174,4201823.862761021,-2.30145,-0.152727,0.128663,92.125,-14.125,-11.875,0.0,0.0,0.0,0.0,0.0,0.0,2,0,41.44511797109952,-92.19943658839227,10997.378086558389,99.85009514417584,-0.0064776948847785,0.0036327339176809,,10375.88117203898,11905.596102039404,150,1,2025-09-12,2025-09-26 14:38:10.147,AA,C,2403568782,AMBUSH51,1,1,48,2,1,1,225,2,1,0,0,9,1,225,2,1,-149431.4893912424,-4791673.375388888,4197419.98275889,2.25354,2.86567,-0.264253,-113.829,31.9173,30.9573,0.126624,-7.26746,6.35655,-0.114113,0.00233131,-0.000883212,4,0,41.39470620080318,-91.78622769939888,9989.133361705228,-69.47585537066874,-0.1579280188344655,-4.177631118345006,199.632,10375.88117203898,11905.596102039404,150,True,18.82877363477591,False,169.93093346151076,179.02537685924284,False,10.76898654637561,True,False
1,1970-07-23 10:27:58.911337521,2025-09-12,2025-09-26 14:38:11.133,AA,C,4018774324,JASSM,3,141,76,2,2,1,225,9,2,0,1,26,0,0,0,0,-183754.04528983065,-4787013.112275924,4201811.200651646,-2.30145,-0.152727,0.128663,92.125,-14.125,-11.875,0.0,0.0,0.0,0.0,0.0,0.0,2,0,41.44496596222686,-92.19827363837273,10997.375694920103,99.85086490242608,-0.0055928042795021,0.0036321006878041,,10375.88117203898,11905.596102039404,150,1,2025-09-12,2025-09-26 14:38:11.180,AA,C,2404801546,AMBUSH51,1,1,48,2,1,1,225,2,1,0,0,9,1,225,2,1,-149548.53502850048,-4791641.115797466,4197451.405530733,2.19324,2.87541,-0.253454,-114.221,31.3232,30.3891,-0.0993496,-7.26337,6.52051,-0.0258399,0.0105143,-0.0305171,4,0,41.39508850961033,-91.78763792306832,9986.92773032762,-70.29708804203791,-0.1874600509596742,-7.487157598694658,200.036,10375.88117203898,11905.596102039404,150,True,18.709444335306603,False,170.35492855283132,178.99448880570873,False,10.383339373262752,True,False
1,1970-07-23 10:27:58.926595772,2025-09-12,2025-09-26 14:38:12.659,AA,C,4020146328,JASSM,3,141,76,2,2,1,225,9,2,0,1,26,0,0,0,0,-183648.0980242056,-4787029.434541549,4201797.331511021,-2.30145,-0.152727,0.128663,92.125,-14.0,-11.875,0.0,0.0,0.0,0.0,0.0,0.0,2,0,41.44479945144289,-92.19699993602704,10997.377980788497,99.85170796513232,-0.0046236353626742,0.0036313960647705,,10375.88117203898,11905.596102039404,150,1,2025-09-12,2025-09-26 14:38:12.681,AA,C,2406591044,AMBUSH51,1,1,48,2,1,1,225,2,1,0,0,9,1,225,2,1,-149720.29872005025,-4791594.890413117,4197495.79995961,2.21801,2.88408,-0.241808,-114.848,30.3433,29.0308,-0.213027,-7.55146,6.44199,0.0609541,-0.00520669,-0.0081861,4,0,41.39563127920477,-91.78970703102456,9982.721566027436,-71.11463735101431,-0.2900185862689093,-5.943130198097537,199.889,10375.88117203898,11905.596102039404,150,True,18.5542834746726,False,171.14015067333733,179.02544172474057,False,9.610775847908537,True,False
1,1970-07-23 10:27:58.934635478,2025-09-12,2025-09-26 14:38:13.463,AA,C,4021399028,JASSM,3,141,76,2,2,1,225,9,2,0,1,26,0,0,0,0,-183551.36267264312,-4787044.334932174,4201784.667448521,-2.30145,-0.152727,0.128663,92.125,-14.0,-11.875,0.0,0.0,0.0,0.0,0.0,0.0,2,0,41.44464741660349,-92.1958369866065,10997.376933634168,99.8524777181192,-0.0037387365229741,0.0036307628152659,,10375.88117203898,11905.596102039404,150,1,2025-09-12,2025-09-26 14:38:13.446,AA,C,2407505678,AMBUSH51,1,1,48,2,1,1,225,2,1,0,0,9,1,225,2,1,-149808.38917732524,-4791571.768442718,4197517.999244538,2.28189,2.88995,-0.237019,-114.994,29.7952,28.9165,-0.180133,-7.49518,6.37252,0.0999195,0.00350268,-0.0101211,4,0,41.39590230854447,-91.79076798562832,9980.77648840684,-71.53895571855462,-0.2371258611252089,-2.201390714173311,199.889,10375.88117203898,11905.596102039404,150,True,18.451542822128634,False,171.3601291291144,179.00172556595035,False,9.408941254331612,True,False
1,1970-07-23 10:27:58.944257977,2025-09-12,2025-09-26 14:38:14.425,AA,C,4022711378,JASSM,3,141,76,2,2,1,225,9,2,0,1,26,0,0,0,0,-183450.02185233065,-4787059.944307174,4201771.397917271,-2.30145,-0.152727,0.128663,92.125,-14.0,-11.875,0.0,0.0,0.0,0.0,0.0,0.0,2,0,41.44448811618307,-92.19461867639244,10997.374669679972,99.85328411177044,-0.0028117061655201,0.0036300848141679,,10375.88117203898,11905.596102039404,150,1,2025-09-12,2025-09-26 14:38:14.513,AA,C,2408778210,AMBUSH51,1,1,48,2,1,1,225,2,1,0,0,9,1,225,2,1,-149931.79699692712,-4791539.643922065,4197549.046289842,2.3875,2.89056,-0.236225,-114.895,29.9243,29.0266,-0.182052,-7.46971,6.3908,0.142796,-0.00195888,8.42641e-05,4,0,41.39628003772616,-91.79225421493716,9978.603615162136,-71.5963038772089,-0.2421785237394648,3.8580271040414047,199.522,10375.88117203898,11905.596102039404,150,True,18.326382727867173,False,171.27049078118708,178.96926782627543,False,9.538403403639402,True,False
1,1970-07-23 10:27:58.955373279,2025-09-12,2025-09-26 14:38:15.537,AA,C,4023964076,JASSM,3,141,76,2,2,1,225,9,2,0,1,26,0,0,0,0,-183353.28747733065,-4787074.842744674,4201758.731901646,-2.30145,-0.152727,0.128663,92.125,-14.0,-11.875,0.0,0.0,0.0,0.0,0.0,0.0,2,0,41.444336055491455,-92.1934557506556,10997.374912954392,99.85405384432428,-0.0019268162547929,0.0036294481139625,,10375.88117203898,11905.596102039404,150,1,2025-09-12,2025-09-26 14:38:15.680,AA,C,2410170042,AMBUSH51,1,1,48,2,1,1,225,2,1,0,0,9,1,225,2,1,-150064.5061073029,-4791504.58099559,4197583.0265540695,2.5117,2.88303,-0.250314,-114.183,30.7591,30.0343,-0.287758,-7.65391,6.37789,0.0574941,0.00171753,0.0126677,4,0,41.39669329612828,-91.79385267491016,9976.2915915924,-70.7216121072825,0.003477803299223,10.868356645984994,199.522,10375.88117203898,11905.596102039404,150,False,18.19843712678653,False,170.57899188418153,178.9327765555688,False,10.271425922636846,True,False
1,1970-07-23 10:27:58.965353686,2025-09-12,2025-09-26 14:38:16.535,AA,C,4025216776,JASSM,3,141,76,2,2,1,225,9,2,0,1,26,0,0,0,0,-183256.55212576807,-4787089.741182174,4201746.063932896,-2.30145,-0.152727,0.128759,92.125,-14.0,-11.875,0.0,0.0,0.0,0.0,0.0,0.0,2,0,41.4441839700876,-92.192292818678,10997.375823728622,99.8589143252582,-0.004708087204612,0.0036285948379073,,10375.88117203898,11905.596102039404,150,1,2025-09-12,2025-09-26 14:38:16.480,AA,C,2411124440,AMBUSH51,1,1,48,2,1,1,225,2,1,0,0,9,1,225,2,1,-150155.67279314826,-4791479.409985336,4197607.393277874,2.54695,2.86901,-0.256849,-113.586,31.8872,31.0341,-0.28181,-7.29686,6.37905,0.0379615,0.0024603,0.0149917,4,0,41.39699053492418,-91.79495118077308,9974.263177477402,-69.91731327665262,-0.307083398881539,12.684388751614309,199.29,10375.88117203898,11905.596102039404,150,False,18.093799201281733,False,169.82341878701106,178.9038693523855,False,11.065215331628469,True,False
1,1970-07-23 10:27:58.998254046,2025-09-12,2025-09-26 14:38:19.825,AA,C,4029094248,JASSM,3,141,76,2,2,1,225,9,2,0,1,26,0,0,0,0,-182957.1292742056,-4787135.844697799,4201706.849089146,-2.30145,-0.152631,0.128759,92.125,-14.0,-12.0,0.0,0.0,0.0,0.0,0.0,0.0,2,0,41.44371318945745,-92.18869325994704,10997.373990896123,99.85766102833016,-0.0060259895122809,0.002921736367707,,10375.88117203898,11905.596102039404,150,1,2025-09-12,2025-09-26 14:38:19.713,AA,C,2414981802,AMBUSH51,1,1,48,2,1,1,225,2,1,0,0,9,1,225,2,1,-150518.9296634663,-4791368.529562842,4197715.706377771,2.63596,2.81921,-0.303565,-110.347,36.8678,36.1608,-0.309331,-7.37779,6.37527,0.0221032,-0.00189022,0.0317093,4,0,41.39831352444517,-91.7993322902391,9964.539763304738,-66.0910506766963,-0.4403887824380056,16.97031977250696,198.814,10375.88117203898,11905.596102039404,150,False,17.722636251022774,False,166.19416354564564,178.74310134759293,False,14.914788664258422,True,False
1,1970-07-23 10:27:59.009232265,2025-09-12,2025-09-26 14:38:20.923,AA,C,4030406528,JASSM,3,141,76,2,2,1,225,9,2,0,1,26,0,0,0,0,-182855.79431326807,-4787151.446260299,4201693.575651646,-2.30145,-0.152631,0.128759,92.125,-14.0,-12.0,0.0,0.0,0.0,0.0,0.0,0.0,2,0,41.44355383217905,-92.18747505828212,10997.376776629311,99.85846733526884,-0.0050990165758763,0.0029210745321137,,10375.88117203898,11905.596102039404,150,1,2025-09-12,2025-09-26 14:38:20.746,AA,C,2416214568,AMBUSH51,1,1,48,2,1,1,225,2,1,0,0,9,1,225,2,1,-150631.55120235006,-4791329.500821599,4197753.807270503,2.60584,2.79831,-0.321147,-109.118,38.6692,38.0077,-0.401207,-7.55839,6.67572,-0.0885075,0.0105497,0.0214395,4,0,41.398781850539166,-91.80069236195352,9959.9051363252,-64.57506951725426,-0.5527489334434675,14.86280479618591,198.777,10375.88117203898,11905.596102039404,150,False,17.602317148975143,False,164.85105413154517,178.68561580201023,False,16.321685356556088,True,False
1,1970-07-23 10:27:59.031271723,2025-09-12,2025-09-26 14:38:23.127,AA,C,4033031230,JASSM,3,141,76,2,2,1,225,9,2,0,1,26,0,0,0,0,-182653.11071951807,-4787182.647432174,4201667.022917271,-2.30145,-0.152631,0.128759,92.125,-14.0,-12.0,0.0,0.0,0.0,0.0,0.0,0.0,2,0,41.44323505411438,-92.1850385103339,10997.380005348785,99.86008003721396,-0.0032449463655789,0.0029197471421741,,10375.88117203898,11905.596102039404,150,1,2025-09-12,2025-09-26 14:38:23.093,AA,C,2418998232,AMBUSH51,1,1,48,2,1,1,225,2,1,0,0,9,1,225,2,1,-150884.3636910245,-4791236.948217733,4197845.436686475,2.26482,2.78981,-0.332328,-108.163,39.7349,39.6345,-0.00198235,-7.43713,6.54245,-0.100446,0.00438485,-0.0180315,4,0,41.39990366620555,-91.80374737901164,9950.613137045098,-63.79689116888435,-0.4298382230985197,-4.839216060330247,199.034,10375.88117203898,11905.596102039404,150,True,17.34517691421678,False,163.84174040007417,178.54114509794215,False,17.482341725753912,True,False
1,1970-07-23 10:27:59.033402166,2025-09-12,2025-09-26 14:38:23.340,AA,C,4031718878,JASSM,3,141,76,2,2,1,225,9,2,0,1,26,0,0,0,0,-182754.45251639312,-4787167.047822799,4201680.298307896,-2.30145,-0.152631,0.128759,92.125,-14.0,-12.0,0.0,0.0,0.0,0.0,0.0,0.0,2,0,41.44339443719907,-92.1862567808812,10997.375926137442,99.85927368978602,-0.0041719790311783,0.0029203987018347,,10375.88117203898,11905.596102039404,150,1,2025-09-12,2025-09-26 14:38:23.415,AA,C,2419395898,AMBUSH51,1,1,48,2,1,1,225,2,1,0,0,9,1,225,2,1,-150920.97030811524,-4791223.221341074,4197859.131414603,2.24218,2.79291,-0.328431,-108.214,39.6878,39.5682,-0.176973,-7.32782,6.58126,-0.0497044,-0.000159166,-0.00954681,4,0,41.40007091459635,-91.80418986927202,9949.396972719029,-64.07407346586135,-0.4666444382783429,-6.076232708493803,199.107,10375.88117203898,11905.596102039404,150,True,17.379563232838912,False,163.88651884932284,178.5254256606105,False,17.45579673033414,True,False
