Subject_cm,Timestamp,SampleDate_cm,SampleTime_cm,Configuration_cm,Scenario_cm,DisTime_cm,MarkingTxt_cm,Application_cm,EntId_cm,Site_cm,ExerciseId_cm,ForceId_cm,Category_cm,Country_cm,Domain_cm,Kind_cm,Extra_cm,Specific_cm,Subcategory_cm,AltCategory_cm,AltCountry_cm,AltDomain_cm,AltKind_cm,ECEF_X_cm,ECEF_Y_cm,ECEF_Z_cm,OriPhi_cm,OriPsi_cm,OriTheta_cm,LinVelX_cm,LinVelY_cm,LinVelZ_cm,LinAccX_cm,LinAccY_cm,LinAccZ_cm,AngVelX_cm,AngVelY_cm,AngVelZ_cm,DrAlg_cm,Appearance_cm,Latitude_cm,Longitude_cm,Altitude_cm,Heading_cm,Pitch_cm,Roll_cm,CalibratedAirspeed_cm,CM_Altitude_Lead_cm,CM_Altitude_Wing_cm,CM_Airspeed_cm,Subject_ac,SampleDate_ac,SampleTime_ac,Configuration_ac,Scenario_ac,DisTime_ac,MarkingTxt_ac,Application_ac,EntId_ac,Site_ac,ExerciseId_ac,ForceId_ac,Category_ac,Country_ac,Domain_ac,Kind_ac,Extra_ac,Specific_ac,Subcategory_ac,AltCategory_ac,AltCountry_ac,AltDomain_ac,AltKind_ac,ECEF_X_ac,ECEF_Y_ac,ECEF_Z_ac,OriPhi_ac,OriPsi_ac,OriTheta_ac,LinVelX_ac,LinVelY_ac,LinVelZ_ac,LinAccX_ac,LinAccY_ac,LinAccZ_ac,AngVelX_ac,AngVelY_ac,AngVelZ_ac,DrAlg_ac,Appearance_ac,Latitude_ac,Longitude_ac,Altitude_ac,Heading_ac,Pitch_ac,Roll_ac,CalibratedAirspeed_ac,CM_Altitude_Lead_ac,CM_Altitude_Wing_ac,CM_Airspeed_ac,Bank_Angle_Condition,distance_nm,Distance_Condition,angle_between_vel,angle_between_pos,Cone_Condition,angle_between_pos_nose,Nose_Cone_Condition,Intercept_Criteria
1,1970-07-23 10:27:38.412219933,2025-09-12,2025-09-26 14:04:01.221,HH,C,1573148364,JASSM,3,104,76,2,2,1,225,9,2,0,1,26,0,0,0,0,-180629.49548514312,-4778190.709932174,4211908.323698521,-2.36693,-0.400848,0.381002,79.5,-33.625,-34.5,0.0,0.0,0.0,0.0,0.0,0.0,2,0,41.56629885427223,-92.1649161097478,10997.375052658894,119.7983253479752,-0.0034577510511415,0.0045539693650224,,9720.794529171932,12053.737931086003,150,1,2025-09-12,2025-09-26 14:04:01.342,HH,C,4254280474,AMBUSH51,1,1,48,2,1,1,225,2,1,0,0,9,1,225,2,1,-145672.56388274924,-4793057.094417115,4195861.338535216,2.37993,2.69162,-0.489243,-102.593,26.3037,30.7263,-0.114645,-7.10265,6.86618,0.0122391,0.00304911,0.00353805,4,0,41.376640824280535,-91.74082104600296,9728.081593661276,-53.78378049622396,2.338960194023939,-0.3369768788852669,181.302,9720.794529171932,12053.737931086003,150,True,22.179833126311145,False,170.16801138907147,178.87991580319928,False,10.567058320929391,True,False
1,1970-07-23 10:27:38.421257520,2025-09-12,2025-09-26 14:04:02.125,HH,C,1574222106,JASSM,3,104,76,2,2,1,225,9,2,0,1,26,0,0,0,0,-180557.9339617056,-4778221.047822799,4211877.185026646,-2.36693,-0.400848,0.381002,79.5,-33.625,-34.5,0.0,0.0,0.0,0.0,0.0,0.0,2,0,41.56592432671874,-92.16404550516968,10997.37553663193,119.7989029800796,-0.0027063771383709,0.0045526671250468,,9720.794529171932,12053.737931086003,150,1,2025-09-12,2025-09-26 14:04:02.108,HH,C,4255195106,AMBUSH51,1,1,48,2,1,1,225,2,1,0,0,9,1,225,2,1,-145751.23864580313,-4793036.807781762,4195884.827365219,2.37964,2.69216,-0.487683,-102.651,26.2463,30.9041,-0.135969,-7.04715,6.9525,-0.00520461,-0.00659861,0.00782824,4,0,41.37690585825516,-91.74176801626572,9734.98632993285,-53.86553283333527,2.2933111079585755,-0.3416721164619595,181.461,9720.794529171932,12053.737931086003,150,True,22.09020532754764,False,170.18689680269316,178.86267905102974,False,10.56387035269215,True,False
1,1970-07-23 10:27:38.430321244,2025-09-12,2025-09-26 14:04:03.032,HH,C,1575355502,JASSM,3,104,76,2,2,1,225,9,2,0,1,26,0,0,0,0,-180482.39782889312,-4778253.069307174,4211844.315886021,-2.36693,-0.400848,0.381098,79.5,-33.625,-34.5,0.0,0.0,0.0,0.0,0.0,0.0,2,0,41.56552899202191,-92.16312655775664,10997.374345568704,119.80335470299327,-0.0058393261613477,0.0045510338578649,,9720.794529171932,12053.737931086003,150,1,2025-09-12,2025-09-26 14:04:03.175,HH,C,4256467638,AMBUSH51,1,1,48,2,1,1,225,2,1,0,0,9,1,225,2,1,-145861.62996198455,-4793008.29780131,4195917.749995662,2.38026,2.68933,-0.488648,-102.776,26.449,30.8645,-0.0893396,-7.0296,6.8071,-1.14433e-05,-0.00052327,0.00247279,4,0,41.37727775252213,-91.74309677171436,9744.493133983658,-53.72437100671789,2.236658911176185,-0.3762115959317728,181.632,9720.794529171932,12053.737931086003,150,True,21.980084246329216,False,170.2303124632995,178.83865222289154,False,10.559951121224154,True,False
1,1970-07-23 10:27:38.441387400,2025-09-12,2025-09-26 14:04:04.138,HH,C,1576488894,JASSM,3,104,76,2,2,1,225,9,2,0,1,26,0,0,0,0,-180406.86071951807,-4778285.090791549,4211811.446745396,-2.36693,-0.400848,0.381098,79.5,-33.625,-34.5,0.0,0.0,0.0,0.0,0.0,0.0,2,0,41.56513365017389,-92.16220760985362,10997.37707790362,119.80396440080231,-0.0050462136671754,0.0045497182093175,,9720.794529171932,12053.737931086003,150,1,2025-09-12,2025-09-26 14:04:03.942,HH,C,4257382270,AMBUSH51,1,1,48,2,1,1,225,2,1,0,0,9,1,225,2,1,-145940.69952561156,-4792988.153938532,4195941.034433518,2.37697,2.68939,-0.487529,-102.921,26.3066,30.924,-0.100611,-7.04984,6.82723,0.00492581,0.00263091,-0.0030824,4,0,41.37754046656784,-91.74404842215009,9751.344331748389,-53.77113393471771,2.1926819531573063,-0.5648508461400956,181.632,9720.794529171932,12053.737931086003,150,True,21.887856359968985,False,170.16572998150698,178.81998655846013,False,10.643005603620292,True,False
1,1970-07-23 10:27:38.449217915,2025-09-12,2025-09-26 14:04:04.921,HH,C,1577622284,JASSM,3,104,76,2,2,1,225,9,2,0,1,26,0,0,0,0,-180331.3245867056,-4778317.110322799,4211778.575651646,-2.36693,-0.400848,0.381098,79.5,-33.625,-34.5,0.0,0.0,0.0,0.0,0.0,0.0,2,0,41.564738299237234,-92.16128868572989,10997.374872108196,119.8045740780726,-0.0042531084295533,0.004548396361688,,9720.794529171932,12053.737931086003,150,1,2025-09-12,2025-09-26 14:04:04.742,HH,C,4258336670,AMBUSH51,1,1,48,2,1,1,225,2,1,0,0,9,1,225,2,1,-146023.15304211088,-4792966.9286788255,4195965.510475331,2.37519,2.68797,-0.487549,-103.037,26.3392,30.9407,-0.0955964,-6.98504,6.76588,0.0101148,0.00493621,0.00716869,4,0,41.377817036979565,-91.74504088781084,9758.376161848331,-53.71866227820004,2.1451413129333226,-0.7025246467289759,181.791,9720.794529171932,12053.737931086003,150,True,21.793633256537674,False,170.16160136575144,178.80049669560245,False,10.672770643715804,True,False
1,1970-07-23 10:27:38.459256663,2025-09-12,2025-09-26 14:04:05.925,HH,C,1578755684,JASSM,3,104,76,2,2,1,225,9,2,0,1,26,0,0,0,0,-180255.78747733065,-4778349.129854049,4211745.704557896,-2.36693,-0.400848,0.381098,79.5,-33.625,-34.5,0.0,0.0,0.0,0.0,0.0,0.0,2,0,41.56434294114953,-92.16036976111604,10997.376589790352,119.8051837509052,-0.0034599956549109,0.0045470790215274,,9720.794529171932,12053.737931086003,150,1,2025-09-12,2025-09-26 14:04:05.942,HH,C,4259768268,AMBUSH51,1,1,48,2,1,1,225,2,1,0,0,9,1,225,2,1,-146146.1728112395,-4792935.377978343,4196001.916726349,2.37809,2.68791,-0.491365,-103.147,26.4264,30.8218,-0.0639885,-6.91996,6.84534,0.00970077,-0.0025352,-3.22492e-05,4,0,41.37822820950976,-91.74652160774158,9768.921022962855,-53.56744046457329,2.3033862566373338,-0.5318112836852292,182.084,9720.794529171932,12053.737931086003,150,True,21.676465577703286,False,170.13997773476927,178.77184262041504,False,10.737989513104639,True,False
1,1970-07-23 10:27:38.468318211,2025-09-12,2025-09-26 14:04:06.831,HH,C,1579889244,JASSM,3,104,76,2,2,1,225,9,2,0,1,26,0,0,0,0,-180180.23962576807,-4778381.153291549,4211712.825651646,-2.36693,-0.400848,0.381098,79.5,-33.625,-34.5,0.0,0.0,0.0,0.0,0.0,0.0,2,0,41.56394750219925,-92.15945071731926,10997.37390451351,119.80579349804852,-0.0026667616440662,0.0045457463713295,,9720.794529171932,12053.737931086003,150,1,2025-09-12,2025-09-26 14:04:06.742,HH,C,4260722666,AMBUSH51,1,1,48,2,1,1,225,2,1,0,0,9,1,225,2,1,-146228.41112463913,-4792914.224912463,4196026.359224873,2.37875,2.69026,-0.493691,-103.081,26.3991,30.8444,-0.0783452,-7.06799,6.92738,-0.00457627,-0.00173418,0.00421841,4,0,41.378504141322,-91.74751149616264,9776.05163204708,-53.5633888689982,2.4827147791529947,-0.4299154950848738,182.206,9720.794529171932,12053.737931086003,150,True,21.582362477832024,False,170.14839917559726,178.75153576106126,False,10.753299584370152,True,False
1,1970-07-23 10:27:38.477194517,2025-09-12,2025-09-26 14:04:07.719,HH,C,1580962986,JASSM,3,104,76,2,2,1,225,9,2,0,1,26,0,0,0,0,-180108.67810233062,-4778411.485322799,4211681.683073521,-2.36693,-0.400848,0.381098,79.5,-33.625,-34.5,0.0,0.0,0.0,0.0,0.0,0.0,2,0,41.56357294177126,-92.1585801785138,10997.374128947593,119.80637105976314,-0.001915393360133,0.004544500863394,,9720.794529171932,12053.737931086003,150,1,2025-09-12,2025-09-26 14:04:07.875,HH,C,4262074732,AMBUSH51,1,1,48,2,1,1,225,2,1,0,0,9,1,225,2,1,-146345.95778019552,-4792884.059983684,4196061.237226796,2.3784,2.68858,-0.49609,-103.133,26.3553,30.8904,-0.184853,-7.03506,6.93449,-0.00288474,0.00300958,4.68134e-05,4,0,41.37889771432937,-91.74892637283928,9786.295724555375,-53.40810891241538,2.5256723083406984,-0.488896234289334,182.414,9720.794529171932,12053.737931086003,150,True,21.47078421748848,False,170.13534965349822,178.72309445172877,False,10.799558130359138,True,False
1,1970-07-23 10:27:38.486237935,2025-09-12,2025-09-26 14:04:08.623,HH,C,1582036728,JASSM,3,104,76,2,2,1,225,9,2,0,1,26,0,0,0,0,-180037.11755545562,-4778441.817354049,4211650.540495396,-2.36693,-0.400752,0.381098,79.5,-33.625,-34.5,0.0,0.0,0.0,0.0,0.0,0.0,2,0,41.56319837450884,-92.15770966145588,10997.378046136908,119.80330428113184,-0.0047304793758302,0.0025003036203641,,9720.794529171932,12053.737931086003,150,1,2025-09-12,2025-09-26 14:04:08.542,HH,C,4262870064,AMBUSH51,1,1,48,2,1,1,225,2,1,0,0,9,1,225,2,1,-146414.92777907572,-4792866.393244157,4196081.730999036,2.38178,2.68618,-0.496026,-103.238,26.2262,31.0603,-0.154097,-7.10424,6.93613,0.0100337,0.00024447,0.00428915,4,0,41.379128638183765,-91.7497565411706,9792.453389433553,-53.32302469832795,2.4409230675173075,-0.3567734906569046,182.536,9720.794529171932,12053.737931086003,150,True,21.38673158005421,False,170.11517748663093,178.70505343349507,False,10.832659879460772,True,False
1,1970-07-23 10:27:38.496277606,2025-09-12,2025-09-26 14:04:09.627,HH,C,1583229904,JASSM,3,104,76,2,2,1,225,9,2,0,1,26,0,0,0,0,-179957.59607108062,-4778475.520479049,4211615.931120396,-2.36693,-0.400752,0.381098,79.5,-33.625,-34.5,0.0,0.0,0.0,0.0,0.0,0.0,2,0,41.56278213408252,-92.15674231475391,10997.373680024428,119.8039460606769,-0.003895534576546,0.0024988645149025,,9720.794529171932,12053.737931086003,150,1,2025-09-12,2025-09-26 14:04:09.643,HH,C,4264182362,AMBUSH51,1,1,48,2,1,1,225,2,1,0,0,9,1,225,2,1,-146528.06101754162,-4792837.446865121,4196115.415424293,2.37947,2.68691,-0.493664,-103.371,26.3375,31.0385,-0.10733,-7.0821,6.83465,-0.0103936,-0.0121663,0.00901626,4,0,41.37950767898642,-91.75111828701736,9802.788240512136,-53.44337619597446,2.3684286296017434,-0.4737296839307749,182.524,9720.794529171932,12053.737931086003,150,True,21.272654531118683,False,170.12735408867488,178.67638783968096,False,10.860150905635697,True,False
1,1970-07-23 10:27:38.507294146,2025-09-12,2025-09-26 14:04:10.729,HH,C,1584482296,JASSM,3,104,76,2,2,1,225,9,2,0,1,26,0,0,0,0,-179874.12829764312,-4778510.897432174,4211579.602995396,-2.36693,-0.400752,0.381098,79.5,-33.625,-34.5,0.0,0.0,0.0,0.0,0.0,0.0,2,0,41.56234521264559,-92.15572697581224,10997.374351948632,119.80461967466684,-0.0030191468190475,0.0024973401950419,,9720.794529171932,12053.737931086003,150,1,2025-09-12,2025-09-26 14:04:10.841,HH,C,4265613962,AMBUSH51,1,1,48,2,1,1,225,2,1,0,0,9,1,225,2,1,-146651.9936759124,-4792805.780723355,4196152.171191664,2.37613,2.68181,-0.495442,-103.409,26.4461,30.8667,-0.205698,-6.88433,6.78937,-0.00480513,-0.00491541,-0.00411021,4,0,41.37992165209965,-91.7526100225156,9813.912590063685,-53.18677489545434,2.268104620534224,-0.7930222769725211,182.732,9720.794529171932,12053.737931086003,150,True,21.150025404542905,False,170.11209007067166,178.64420587607208,False,10.92357006700715,True,False
1,1970-07-23 10:27:38.517155870,2025-09-12,2025-09-26 14:04:11.715,HH,C,1585675352,JASSM,3,104,76,2,2,1,225,9,2,0,1,26,0,0,0,0,-179794.61560233062,-4778544.596650924,4211544.997526646,-2.36693,-0.400752,0.381098,79.5,-33.5,-34.5,0.0,0.0,0.0,0.0,0.0,0.0,2,0,41.56192900311228,-92.15475976155136,10997.378834736155,119.8052613555257,-0.0021842950391232,0.0024959025577451,,9720.794529171932,12053.737931086003,150,1,2025-09-12,2025-09-26 14:04:11.708,HH,C,4266647894,AMBUSH51,1,1,48,2,1,1,225,2,1,0,0,9,1,225,2,1,-146741.80544520967,-4792782.861861201,4196178.499559892,2.3652,2.6797,-0.492065,-103.562,26.4817,30.7147,-0.0215526,-6.59019,6.38332,-0.0337504,-0.00357134,0.00368161,4,0,41.38021938696006,-91.75369105663168,9821.383574704529,-53.24162190377286,2.0547304344919413,-1.4787022752510883,182.854,9720.794529171932,12053.737931086003,150,True,21.04927599607703,False,170.10526420152883,178.6102840437223,False,11.01894566128229,True,False
1,1970-07-23 10:27:38.528567739,2025-09-12,2025-09-26 14:04:12.856,HH,C,1586808746,JASSM,3,104,76,2,2,1,225,9,2,0,1,26,0,0,0,0,-179719.07849295562,-4778576.608369674,4211512.118620396,-2.36693,-0.400752,0.381194,79.5,-33.5,-34.5,0.0,0.0,0.0,0.0,0.0,0.0,2,0,41.56153358666375,-92.15384092005996,10997.37290254422,119.80971310113864,-0.0053170972401383,0.0024943031102647,,9720.794529171932,12053.737931086003,150,1,2025-09-12,2025-09-26 14:04:12.908,HH,C,4268079492,AMBUSH51,1,1,48,2,1,1,225,2,1,0,0,9,1,225,2,1,-146867.22232127647,-4792750.15712246,4196214.802646239,2.34391,2.67369,-0.484037,-103.854,27.1184,29.9671,-0.12289,-6.57977,6.34974,-0.0127301,-0.00383142,-0.00992132,4,0,41.38063617469201,-91.75520092882776,9829.098179921895,-53.33332049959369,1.512040369154054,-2.862051283519936,183.22,9720.794529171932,12053.737931086003,150,True,20.930863911153992,False,170.05624697234347,178.57464704370457,False,11.147176912603769,True,False
1,1970-07-23 10:27:38.536308746,2025-09-12,2025-09-26 14:04:13.630,HH,C,1588001792,JASSM,3,104,76,2,2,1,225,9,2,0,1,26,0,0,0,0,-179639.56579764312,-4778610.305635299,4211477.511198521,-2.36693,-0.400752,0.381194,79.5,-33.5,-34.5,0.0,0.0,0.0,0.0,0.0,0.0,2,0,41.561117359708575,-92.15287373088373,10997.377015567949,119.81035475515694,-0.0044822450737411,0.0024929197600407,,9720.794529171932,12053.737931086003,150,1,2025-09-12,2025-09-26 14:04:13.649,HH,C,4268954358,AMBUSH51,1,1,48,2,1,1,225,2,1,0,0,9,1,225,2,1,-146942.60955427185,-4792730.418669591,4196236.011321456,2.33457,2.67499,-0.479557,-104.19,27.428,29.4142,-0.153085,-6.62523,6.44276,-0.0154765,-0.00544804,-0.000833278,4,0,41.38088302958289,-91.75610854074164,9832.214160164429,-53.55694676836846,1.3694644700369525,-3.368414428326507,183.55,9720.794529171932,12053.737931086003,150,True,20.838365787365515,False,169.92526185325679,178.55071801184008,False,11.32685831564903,True,False
1,1970-07-23 10:27:38.546290966,2025-09-12,2025-09-26 14:04:14.629,HH,C,1589135268,JASSM,3,104,76,2,2,1,225,9,2,0,1,26,0,0,0,0,-179564.02282889312,-4778642.319307174,4211444.630339146,-2.36693,-0.400752,0.381194,79.5,-33.5,-34.5,0.0,0.0,0.0,0.0,0.0,0.0,2,0,41.56072190464358,-92.15195484135344,10997.379322589704,119.81096436126673,-0.0036890733064691,0.0024916043970705,,9720.794529171932,12053.737931086003,150,1,2025-09-12,2025-09-26 14:04:14.642,HH,C,4270147356,AMBUSH51,1,1,48,2,1,1,225,2,1,0,0,9,1,225,2,1,-147048.21187327252,-4792702.511588454,4196265.095392856,2.27799,2.67194,-0.470939,-104.789,27.7129,28.6274,-0.257538,-6.54737,6.37826,-0.144334,-0.00477601,-0.00424337,4,0,41.38122612198821,-91.75738002754623,9834.595544415955,-53.77966402047196,0.902781218796154,-6.694076134122772,184.149,9720.794529171932,12053.737931086003,150,True,20.731407725378347,False,169.6490371918776,178.51748653824242,False,11.66463653213333,True,False
1,1970-07-23 10:27:38.556314802,2025-09-12,2025-09-26 14:04:15.631,HH,C,1590328234,JASSM,3,104,76,2,2,1,225,9,2,0,1,26,0,0,0,0,-179484.51599295562,-4778676.010713424,4211410.020964146,-2.36693,-0.400752,0.381194,79.5,-33.5,-34.5,0.0,0.0,0.0,0.0,0.0,0.0,2,0,41.560305682257656,-92.1509877491728,10997.37402329992,119.81160594064607,-0.0028542784677472,0.0024902116803713,,9720.794529171932,12053.737931086003,150,1,2025-09-12,2025-09-26 14:04:15.642,HH,C,4271340356,AMBUSH51,1,1,48,2,1,1,225,2,1,0,0,9,1,225,2,1,-147152.52663460022,-4792675.311198729,4196292.549812443,2.06129,2.68907,-0.466797,-106.074,27.2186,27.2085,0.0531962,-7.2783,7.12632,-0.202957,0.0264392,-0.0266285,4,0,41.38155422820416,-91.75863589019316,9835.09055926501,-54.58286111434674,1.3273601968122015,-18.682065947459904,185.041,9720.794529171932,12053.737931086003,150,False,20.62303215577727,False,168.76685993265295,178.48222875805234,False,12.601744814970699,True,False
1,1970-07-23 10:27:38.565197876,2025-09-12,2025-09-26 14:04:16.519,HH,C,1591461852,JASSM,3,104,76,2,2,1,225,9,2,0,1,26,0,0,0,0,-179408.96325858062,-4778708.026338424,4211377.134245396,-2.36693,-0.400752,0.381194,79.5,-33.5,-34.5,0.0,0.0,0.0,0.0,0.0,0.0,2,0,41.55991016314663,-92.1500687648378,10997.375708938833,119.8122155998717,-0.0020610057871494,0.0024888976291329,,9720.794529171932,12053.737931086003,150,1,2025-09-12,2025-09-26 14:04:16.675,HH,C,4272573120,AMBUSH51,1,1,48,2,1,1,225,2,1,0,0,9,1,225,2,1,-147263.09410935463,-4792648.883579273,4196319.45725604,1.83281,2.77257,-0.407027,-108.228,24.5958,24.7142,0.119985,-7.74643,7.6342,-0.18435,0.0210463,-0.0527067,4,0,41.38187288914367,-91.75996616205954,9836.779741458822,-60.079981353115066,1.8925671245801392,-29.90106113219972,185.97,9720.794529171932,12053.737931086003,150,False,20.514593504370247,False,166.6850920893427,178.44122274359697,False,14.71905921406289,True,False
1,1970-07-23 10:27:38.576216413,2025-09-12,2025-09-26 14:04:17.621,HH,C,1592714326,JASSM,3,104,76,2,2,1,225,9,2,0,1,26,0,0,0,0,-179325.48962576812,-4778743.397432174,4211340.798307896,-2.36693,-0.400657,0.381194,79.5,-33.5,-34.5,0.0,0.0,0.0,0.0,0.0,0.0,2,0,41.559473166229935,-92.14905344828895,10997.376677630453,119.8092451072242,-0.0047510061468836,0.0004440080287419,,9720.794529171932,12053.737931086003,150,1,2025-09-12,2025-09-26 14:04:17.708,HH,C,4273805886,AMBUSH51,1,1,48,2,1,1,225,2,1,0,0,9,1,225,2,1,-147375.85120134245,-4792625.570488611,4196342.500740746,1.70569,2.88537,-0.291087,-110.291,21.0439,20.0998,-0.0616264,-8.17719,8.02672,-0.0069211,0.0309957,-0.0585698,4,0,41.38214652073169,-91.76132145494408,9837.924409074376,-69.0795739623834,1.6634068360119356,-35.24783130459269,186.202,9720.794529171932,12053.737931086003,150,False,20.40163790198714,False,163.59266363154214,178.3917425805836,False,17.873184598344018,True,False
1,1970-07-23 10:27:38.585274486,2025-09-12,2025-09-26 14:04:18.527,HH,C,1593847722,JASSM,3,104,76,2,2,1,225,9,2,0,1,26,0,0,0,0,-179249.95251639312,-4778775.403291549,4211307.915495396,-2.36693,-0.400657,0.381194,79.5,-33.5,-34.5,0.0,0.0,0.0,0.0,0.0,0.0,2,0,41.55907771266912,-92.14813467900332,10997.372797639038,119.80985461384348,-0.0039578980444943,0.0004426425766347,,9720.794529171932,12053.737931086003,150,1,2025-09-12,2025-09-26 14:04:18.674,HH,C,4274959118,AMBUSH51,1,1,48,2,1,1,225,2,1,0,0,9,1,225,2,1,-147481.88331812917,-4792607.63391225,4196359.150353095,1.68972,2.97765,-0.193826,-111.687,16.9435,15.0486,-0.231345,-8.71207,8.52394,0.0214332,0.0403583,-0.0452748,4,0,41.38234621831527,-91.76259446162592,9837.92817013577,-76.6581706201771,1.694472588982999,-35.11329997632886,186.764,9720.794529171932,12053.737931086003,150,False,20.299155113485444,False,160.25288627575495,178.33693746660248,False,21.275630934400546,True,False
1,1970-07-23 10:27:38.595300195,2025-09-12,2025-09-26 14:04:19.530,HH,C,1594981126,JASSM,3,104,76,2,2,1,225,9,2,0,1,26,0,0,0,0,-179174.41443045562,-4778807.411104049,4211275.032682896,-2.36693,-0.400657,0.381194,79.5,-33.5,-34.5,0.0,0.0,0.0,0.0,0.0,0.0,2,0,41.55868224030685,-92.14721590835046,10997.377633183332,119.81046411660604,-0.0031647760429711,0.0004412718478712,,9720.794529171932,12053.737931086003,150,1,2025-09-12,2025-09-26 14:04:19.641,HH,C,4276112350,AMBUSH51,1,1,48,2,1,1,225,2,1,0,0,9,1,225,2,1,-147590.2509846273,-4792593.835605613,4196371.118706404,1.69935,3.03984,-0.130013,-112.803,12.2643,10.249,-0.0329821,-8.83044,8.43032,0.0287923,0.0324375,-0.0529314,4,0,41.38248925370752,-91.76389384920644,9838.143932919053,-81.73012016249716,1.8883164131296604,-34.14520560494669,187.082,9720.794529171932,12053.737931086003,150,False,20.197462112748187,False,156.83814506702407,178.27217391705466,False,24.754007764518107,True,False
1,1970-07-23 10:27:38.605175650,2025-09-12,2025-09-26 14:04:20.517,HH,C,1596174408,JASSM,3,104,76,2,2,1,225,9,2,0,1,26,0,0,0,0,-179094.88611014312,-4778841.106416549,4211240.411589146,-2.36684,-0.400657,0.381194,79.5,-33.5,-34.5,0.0,0.0,0.0,0.0,0.0,0.0,2,0,41.558265880507776,-92.1462486180087,10997.376227543136,119.81110580166984,-0.0023297644275403,0.0059313097765409,,9720.794529171932,12053.737931086003,150,1,2025-09-12,2025-09-26 14:04:20.408,HH,C,4277026982,AMBUSH51,1,1,48,2,1,1,225,2,1,0,0,9,1,225,2,1,-147676.68417914087,-4792586.139912803,4196377.479543917,1.72049,3.082,-0.0886687,-113.39,8.46182,6.88034,-0.104973,-8.77856,8.6115,0.0443177,0.0306399,-0.0446631,4,0,41.38256213742671,-91.764929016458,9839.555970677817,-85.0977663742511,2.1219865892298952,-32.788039325163744,187.4,9720.794529171932,12053.737931086003,150,False,20.105598555387807,False,154.2796443412133,178.21353590451258,False,27.366738095570902,True,False
1,1970-07-23 10:27:38.614323810,2025-09-12,2025-09-26 14:04:21.432,HH,C,1597307802,JASSM,3,104,76,2,2,1,225,9,2,0,1,26,0,0,0,0,-179019.34900076812,-4778873.110322799,4211207.526823521,-2.36684,-0.400657,0.38129,79.5,-33.5,-34.5,0.0,0.0,0.0,0.0,0.0,0.0,2,0,41.55787040295324,-92.14532988379668,10997.375558854728,119.81555757304204,-0.005462434072876,0.0059297079168428,,9720.794529171932,12053.737931086003,150,1,2025-09-12,2025-09-26 14:04:21.342,HH,C,4278140448,AMBUSH51,1,1,48,2,1,1,225,2,1,0,0,9,1,225,2,1,-147782.1599450695,-4792580.563182415,4196381.430850629,1.74888,3.12225,-0.0527927,-114.061,4.05742,2.33047,-0.1568,-8.93542,8.61626,0.0466521,0.0332385,-0.0358268,4,0,41.38260264839883,-91.7661908451975,9842.404183467826,-88.16388283216051,2.4925587980190063,-31.121992115887707,187.681,9720.794529171932,12053.737931086003,150,False,20.008628840757144,False,151.08276427074432,178.13580002251263,False,30.643883265080873,False,False
1,1970-07-23 10:27:38.624323248,2025-09-12,2025-09-26 14:04:22.432,HH,C,1598440950,JASSM,3,104,76,2,2,1,225,9,2,0,1,26,0,0,0,0,-178943.82751639312,-4778905.108369674,4211174.647917271,-2.36684,-0.400657,0.38129,79.5,-33.5,-34.5,0.0,0.0,0.0,0.0,0.0,0.0,2,0,41.55747498895146,-92.14441135048384,10997.378716994735,119.816166903905,-0.004669483903479,0.0059283848467397,,9720.794529171932,12053.737931086003,150,1,2025-09-12,2025-09-26 14:04:22.408,HH,C,4279412980,AMBUSH51,1,1,48,2,1,1,225,2,1,0,0,9,1,225,2,1,-147904.75368745823,-4792578.990361124,4196381.814953854,1.8907,-3.12373,-0.017866,-114.317,-0.821741,-1.10248,-0.239771,-8.45551,8.17465,0.185286,0.0189927,-0.043111,4,0,41.38259210565328,-91.76765565198215,9848.672476943775,-91.07750193783826,2.77086364777034,-23.054474418526784,187.718,9720.794529171932,12053.737931086003,150,False,19.90557937100392,False,148.14741332452596,178.03735099433894,False,33.669187927436255,False,False
1,1970-07-23 10:27:38.633306574,2025-09-12,2025-09-26 14:04:23.330,HH,C,1599574344,JASSM,3,104,76,2,2,1,225,9,2,0,1,26,0,0,0,0,-178868.29040701812,-4778937.110322799,4211141.761198521,-2.36684,-0.400657,0.38129,79.5,-33.5,-34.5,0.0,0.0,0.0,0.0,0.0,0.0,2,0,41.55707949516284,-92.14349263954846,10997.377032819417,119.8167763478343,-0.0038763750804228,0.0059270691643547,,9720.794529171932,12053.737931086003,150,1,2025-09-12,2025-09-26 14:04:23.374,HH,C,4280566212,AMBUSH51,1,1,48,2,1,1,225,2,1,0,0,9,1,225,2,1,-148015.2606558841,-4792581.404142113,4196379.72763003,2.04774,-3.09444,-5.99865e-05,-114.374,-5.42704,-0.507802,-0.273343,-8.25994,8.05091,0.144492,0.0222634,-0.0237781,4,0,41.382543368126,-91.76897462589127,9858.478631973814,-92.95612736214562,3.3550082316771785,-14.142184995179353,187.119,9720.794529171932,12053.737931086003,150,False,19.809356556747424,False,146.7135612800854,177.94197966105156,False,35.15813756119962,False,False
1,1970-07-23 10:27:38.643214839,2025-09-12,2025-09-26 14:04:24.321,HH,C,1600767390,JASSM,3,104,76,2,2,1,225,9,2,0,1,26,0,0,0,0,-178788.77673514312,-4778970.795869674,4211107.142057896,-2.36684,-0.400657,0.38129,79.5,-33.5,-34.5,0.0,0.0,0.0,0.0,0.0,0.0,2,0,41.5566631720683,-92.14252557675312,10997.374390197636,119.81741786172002,-0.0030415137207753,0.0059256830971664,,9720.794529171932,12053.737931086003,150,1,2025-09-12,2025-09-26 14:04:24.408,HH,C,4281798978,AMBUSH51,1,1,48,2,1,1,225,2,1,0,0,9,1,225,2,1,-148133.33751663868,-4792586.2184426645,4196374.24893219,2.1448,-3.08844,-0.00713062,-114.065,-6.35789,-4.32147,-0.165931,-7.72072,7.50484,0.0997822,0.00943862,-0.00639055,4,0,41.38245604806794,-91.7703831227933,9867.41760554358,-92.88092580531098,3.881882764530024,-8.5749163301291,187.314,9720.794529171932,12053.737931086003,150,True,19.708516991270503,False,145.04665862893324,177.83335517722705,False,36.96576164672113,False,False
1,1970-07-23 10:27:38.662303441,2025-09-12,2025-09-26 14:04:26.230,HH,C,1603034178,JASSM,3,104,76,2,2,1,225,9,2,0,1,26,0,0,0,0,-178637.70251639312,-4779034.795869674,4211041.366667271,-2.36684,-0.400561,0.38129,79.5,-33.5,-34.5,0.0,0.0,0.0,0.0,0.0,0.0,2,0,41.555872157030365,-92.14068821381773,10997.377679639463,119.81499290053796,-0.005021736290648,0.0038791533518358,,9720.794529171932,12053.737931086003,150,1,2025-09-12,2025-09-26 14:04:26.276,HH,C,4284025908,AMBUSH51,1,1,48,2,1,1,225,2,1,0,0,9,1,225,2,1,-148346.2116228029,-4792599.363145355,4196364.092026601,2.23409,-3.07183,-0.00306302,-113.647,-8.33462,-4.93149,-0.192628,-7.65441,7.38744,-0.0277083,0.0065882,0.014819,4,0,41.38227013804342,-91.77292075900176,9893.93148645392,-93.69010645305518,4.44266754153891,-3.512936817273109,186.52,9720.794529171932,12053.737931086003,150,True,19.523042792508484,False,144.11078523943578,177.63001695877213,False,38.10482874752016,False,False
1,1970-07-23 10:27:38.662563866,2025-09-12,2025-09-26 14:04:26.256,HH,C,1601900784,JASSM,3,104,76,2,2,1,225,9,2,0,1,26,0,0,0,0,-178713.23962576812,-4779002.795869674,4211074.255339146,-2.36684,-0.400657,0.38129,79.5,-33.5,-34.5,0.0,0.0,0.0,0.0,0.0,0.0,2,0,41.55626767480888,-92.1416068896848,10997.376153355102,119.8180272800384,-0.0022484111468069,0.0059243771326046,,9720.794529171932,12053.737931086003,150,1,2025-09-12,2025-09-26 14:04:26.276,HH,C,4284025908,AMBUSH51,1,1,48,2,1,1,225,2,1,0,0,9,1,225,2,1,-148346.2116228029,-4792599.363145355,4196364.092026601,2.23409,-3.07183,-0.00306302,-113.647,-8.33462,-4.93149,-0.192628,-7.65441,7.38744,-0.0277083,0.0065882,0.014819,4,0,41.38227013804342,-91.77292075900176,9893.93148645392,-93.69010645305518,4.44266754153891,-3.512936817273109,186.52,9720.794529171932,12053.737931086003,150,True,19.570504562888328,False,144.11078523943578,177.63554775929592,False,38.09969358613066,False,False
1,1970-07-23 10:27:38.674555749,2025-09-12,2025-09-26 14:04:27.455,HH,C,1604167570,JASSM,3,104,76,2,2,1,225,9,2,0,1,26,0,0,0,0,-178562.16443045562,-4779066.793916549,4211008.476042271,-2.36684,-0.400561,0.38129,79.5,-33.5,-34.5,0.0,0.0,0.0,0.0,0.0,0.0,2,0,41.55547663060148,-92.13976953833418,10997.374087863063,119.81560230173038,-0.0042286194910547,0.0038777883848455,,9720.794529171932,12053.737931086003,150,1,2025-09-12,2025-09-26 14:04:27.307,HH,C,4285258674,AMBUSH51,1,1,48,2,1,1,225,2,1,0,0,9,1,225,2,1,-148462.7187517663,-4792608.225236712,4196358.548870102,2.22604,-3.06985,-0.00959759,-113.268,-9.37071,-4.86147,-0.132737,-7.49589,7.23284,-0.01407,0.000456691,-0.0211877,4,0,41.38215855285656,-91.7743089948362,9912.59069247078,-93.485171309205,4.776807270559072,-3.9565432112318697,186.642,9720.794529171932,12053.737931086003,150,True,19.42647761575736,False,143.7439772495,177.51594279596756,False,38.58229582029254,False,False
1,1970-07-23 10:27:38.681213075,2025-09-12,2025-09-26 14:04:28.121,HH,C,1605241314,JASSM,3,104,76,2,2,1,225,9,2,0,1,26,0,0,0,0,-178490.60290701812,-4779097.108369674,4210977.317839146,-2.36684,-0.400561,0.38129,79.5,-33.5,-34.5,0.0,0.0,0.0,0.0,0.0,0.0,2,0,41.55510192029626,-92.13889923475529,10997.378637123433,119.81617961114016,-0.0034772551262128,0.0038764964009149,,9720.794529171932,12053.737931086003,150,1,2025-09-12,2025-09-26 14:04:28.075,HH,C,4286173306,AMBUSH51,1,1,48,2,1,1,225,2,1,0,0,9,1,225,2,1,-148549.4281595251,-4792615.400883062,4196354.540325224,2.19095,-3.06164,-0.00249231,-112.963,-10.1093,-4.91371,-0.124743,-7.31119,7.14429,-0.0815604,-0.000331855,-0.0128446,4,0,41.38207283546851,-91.77534195772672,9928.163098495064,-94.10456048530992,4.859764762698704,-6.016375155551834,185.958,9720.794529171932,12053.737931086003,150,True,19.34512064708647,False,143.44233065642504,177.42852224125795,False,38.969765844707325,False,False
1,1970-07-23 10:27:38.690257247,2025-09-12,2025-09-26 14:04:29.025,HH,C,1606374708,JASSM,3,104,76,2,2,1,225,9,2,0,1,26,0,0,0,0,-178415.06482108062,-4779129.104463424,4210944.425261021,-2.36684,-0.400561,0.38129,79.5,-33.5,-34.5,0.0,0.0,0.0,0.0,0.0,0.0,2,0,41.5547063780204,-92.13798058195768,10997.373819524211,119.81678898800575,-0.0026841380402584,0.0038751297439796,,9720.794529171932,12053.737931086003,150,1,2025-09-12,2025-09-26 14:04:28.942,HH,C,4287207238,AMBUSH51,1,1,48,2,1,1,225,2,1,0,0,9,1,225,2,1,-148648.16654540354,-4792624.152340715,4196349.21899828,2.14171,-3.06077,0.000705641,-112.676,-10.8606,-5.7462,-0.0303915,-7.10385,7.01963,-0.0286966,-0.011101,0.00593074,4,0,41.38196665476595,-91.7765180008038,9945.687340602635,-94.27610720768168,4.776399017312558,-8.851692058822193,185.518,9720.794529171932,12053.737931086003,150,True,19.25656112815911,False,142.8661639927687,177.32694070255664,False,39.65330402517822,False,False
1,1970-07-23 10:27:38.700293860,2025-09-12,2025-09-26 14:04:30.029,HH,C,1607567754,JASSM,3,104,76,2,2,1,225,9,2,0,1,26,0,0,0,0,-178335.55114920562,-4779162.784150924,4210909.802214146,-2.36684,-0.400561,0.38129,79.5,-33.5,-34.5,0.0,0.0,0.0,0.0,0.0,0.0,2,0,41.554290017047634,-92.13701359252792,10997.373651351423,119.81743042322525,-0.0018492824264973,0.0038736969094783,,9720.794529171932,12053.737931086003,150,1,2025-09-12,2025-09-26 14:04:29.942,HH,C,4288400238,AMBUSH51,1,1,48,2,1,1,225,2,1,0,0,9,1,225,2,1,-148760.1406325469,-4792634.8084029965,4196341.935140963,2.12252,-3.07859,0.0294459,-112.47,-10.4966,-7.89967,-0.0657499,-5.18312,5.03306,-0.0183103,-0.0233203,-0.0197896,4,0,41.38183344094406,-91.77785141213506,9964.657205156796,-94.8326863130844,2.921031474975761,-9.972993407919336,185.115,9720.794529171932,12053.737931086003,150,True,19.16049924070092,False,142.23581534855703,177.20874124326429,False,40.42871422378181,False,False
1,1970-07-23 10:27:38.710173637,2025-09-12,2025-09-26 14:04:31.017,HH,C,1608701226,JASSM,3,104,76,2,2,1,225,9,2,0,1,26,0,0,0,0,-178260.00915701812,-4779194.782197799,4210876.907682896,-2.36684,-0.400561,0.381386,79.5,-33.5,-34.5,0.0,0.0,0.0,0.0,0.0,0.0,2,0,41.55389443571748,-92.13609491508431,10997.3772568135,119.8218822502006,-0.0049817625024289,0.003872124687413,,9720.794529171932,12053.737931086003,150,1,2025-09-12,2025-09-26 14:04:30.941,HH,C,4289593236,AMBUSH51,1,1,48,2,1,1,225,2,1,0,0,9,1,225,2,1,-148873.6130468915,-4792644.359025199,4196332.319639433,2.12569,-3.08646,0.0543,-112.514,-9.44872,-10.3464,-0.0160959,-5.48292,5.35131,0.0284657,-0.0196398,-0.0132752,4,0,41.381690763861066,-91.77920312086788,9975.971118552608,-95.60007337380024,1.6397139937164087,-9.803261444155982,185.163,9720.794529171932,12053.737931086003,150,True,19.06663739065203,False,141.73496306543666,177.0857663371217,False,41.08328089639907,False,False
1,1970-07-23 10:27:38.719235605,2025-09-12,2025-09-26 14:04:31.923,HH,C,1609774968,JASSM,3,104,76,2,2,1,225,9,2,0,1,26,0,0,0,0,-178188.44665701812,-4779225.092744674,4210845.745573521,-2.36684,-0.400561,0.381386,79.5,-33.5,-34.5,0.0,0.0,0.0,0.0,0.0,0.0,2,0,41.55351969471219,-92.1352246440062,10997.378842622456,119.82245952008007,-0.0042303900028246,0.0038708842553644,,9720.794529171932,12053.737931086003,150,1,2025-09-12,2025-09-26 14:04:31.908,HH,C,4290746468,AMBUSH51,1,1,48,2,1,1,225,2,1,0,0,9,1,225,2,1,-148981.76238997694,-4792652.947629047,4196320.931273984,2.15534,-3.08147,0.0671629,-112.601,-9.26942,-12.1597,-0.11291,-6.5212,6.37388,0.0381217,-0.00285146,-0.0158635,4,0,41.381542804125786,-91.78049160395678,9980.672429810324,-96.34148441112548,1.3643620623943191,-8.140650689563637,185.481,9720.794529171932,12053.737931086003,150,True,18.977923453174824,False,141.14326989208175,176.9647566572516,False,41.81216335846892,False,False
1,1970-07-23 10:27:38.729253183,2025-09-12,2025-09-26 14:04:32.925,HH,C,1610968014,JASSM,3,104,76,2,2,1,225,9,2,0,1,26,0,0,0,0,-178108.93298514312,-4779258.768525924,4210811.118620396,-2.36684,-0.400561,0.381386,79.5,-33.5,-34.5,0.0,0.0,0.0,0.0,0.0,0.0,2,0,41.55310330747408,-92.13425769169216,10997.373265396429,119.8231009157276,-0.0033955337601714,0.0038695040526429,,9720.794529171932,12053.737931086003,150,1,2025-09-12,2025-09-26 14:04:32.942,HH,C,4291979234,AMBUSH51,1,1,48,2,1,1,225,2,1,0,0,9,1,225,2,1,-149097.9444744433,-4792662.534063528,4196307.095779514,2.17823,-3.08193,0.0775922,-112.67,-9.34853,-13.7915,-0.0835258,-6.50517,6.26508,0.0285801,-0.0152684,-0.00463869,4,0,41.38137088557793,-91.7818756476384,9983.142397859418,-96.77180519236538,0.9489574651343312,-6.836353326505251,185.921,9720.794529171932,12053.737931086003,150,True,18.88149403074157,False,140.52313168781322,176.830801374803,False,42.57818968544406,False,False
1,1970-07-23 10:27:38.740192294,2025-09-12,2025-09-26 14:04:34.019,HH,C,1612160984,JASSM,3,104,76,2,2,1,225,9,2,0,1,26,0,0,0,0,-178029.42419608062,-4779292.442354049,4210776.493620396,-2.36684,-0.400561,0.381386,79.5,-33.5,-34.5,0.0,0.0,0.0,0.0,0.0,0.0,2,0,41.55268693579327,-92.13329081111516,10997.372040392484,119.82374225851252,-0.0025607277695925,0.0038681223117674,,9720.794529171932,12053.737931086003,150,1,2025-09-12,2025-09-26 14:04:34.007,HH,C,4293251766,AMBUSH51,1,1,48,2,1,1,225,2,1,0,0,9,1,225,2,1,-149219.1626733819,-4792672.529628303,4196291.404137724,2.20486,-3.07955,0.0861682,-112.942,-9.80618,-14.6797,-0.101974,-6.92145,6.74922,0.0360806,0.00275991,-0.00682539,4,0,41.38118305101471,-91.78331967936424,9982.986205638488,-97.2302804279589,0.7250533191764074,-5.328379020959891,186.679,9720.794529171932,12053.737931086003,150,True,18.78344483172697,False,140.06430324790784,176.68818693877722,False,43.1839862505379,False,False
1,1970-07-23 10:27:38.750172459,2025-09-12,2025-09-26 14:04:35.017,HH,C,1613294598,JASSM,3,104,76,2,2,1,225,9,2,0,1,26,0,0,0,0,-177953.87243826812,-4779324.440400924,4210743.591276646,-2.36684,-0.400465,0.381386,79.5,-33.5,-34.5,0.0,0.0,0.0,0.0,0.0,0.0,2,0,41.55229127416921,-92.1323720621583,10997.374020064122,119.82070815261208,-0.0053338944315457,0.0018224300023214,,9720.794529171932,12053.737931086003,150,1,2025-09-12,2025-09-26 14:04:35.107,HH,C,4294564064,AMBUSH51,1,1,48,2,1,1,225,2,1,0,0,9,1,225,2,1,-149342.7137687344,-4792683.246683107,4196274.40231458,2.23363,-3.07565,0.0922556,-113.188,-10.0821,-15.5833,0.00768654,-6.89947,6.55315,0.0180627,-0.000217422,9.67477e-05,4,0,41.38098162834381,-91.78479129665504,9981.950264864836,-97.6396457610244,0.6603849301592504,-3.704436790729289,187.241,9720.794529171932,12053.737931086003,150,True,18.687414129319677,False,139.66080595204704,176.54014336680711,False,43.74085586841668,False,False
1,1970-07-23 10:27:38.758214058,2025-09-12,2025-09-26 14:04:35.821,HH,C,1614487424,JASSM,3,104,76,2,2,1,225,9,2,0,1,26,0,0,0,0,-177874.37341483062,-4779358.108369674,4210708.970182896,-2.36684,-0.400465,0.381386,79.5,-33.5,-34.5,0.0,0.0,0.0,0.0,0.0,0.0,2,0,41.551874945664416,-92.13140532530316,10997.37648399296,119.82134938986236,-0.0044991953974861,0.0018210018904881,,9720.794529171932,12053.737931086003,150,1,2025-09-12,2025-09-26 14:04:35.774,HH,C,392100,AMBUSH51,1,1,48,2,1,1,225,2,1,0,0,9,1,225,2,1,-149418.381436,-4792689.909231342,4196263.73042991,2.24928,-3.07659,0.095416,-113.429,-10.3532,-15.7915,-0.0787774,-7.00032,6.70476,0.0234244,-3.12089e-06,-0.00641551,4,0,41.38085592013965,-91.78569253308672,9981.001014935831,-97.73988888569768,0.5006823838795019,-2.803611577591018,187.718,9720.794529171932,12053.737931086003,150,True,18.607886301671396,False,139.51466114076905,176.44437339611028,False,43.98330131859406,False,False
1,1970-07-23 10:27:38.771432353,2025-09-12,2025-09-26 14:04:37.143,HH,C,1615620856,JASSM,3,104,76,2,2,1,225,9,2,0,1,26,0,0,0,0,-177798.83239920562,-4779390.098604049,4210676.069792271,-2.36684,-0.400465,0.381386,79.5,-33.5,-34.5,0.0,0.0,0.0,0.0,0.0,0.0,2,0,41.55147932629086,-92.1304867314215,10997.372766659117,119.82195868895433,-0.0037060483268196,0.001819635048842,,9720.794529171932,12053.737931086003,150,1,2025-09-12,2025-09-26 14:04:38.440,HH,C,3573430,AMBUSH51,1,1,48,2,1,1,225,2,1,0,0,9,1,225,2,1,-149722.63068468566,-4792718.241715815,4196219.7066056905,2.28212,-3.06769,0.0909128,-114.195,-12.3703,-15.0174,-0.0698457,-7.45457,7.0842,0.00568106,0.00476144,-0.00512971,4,0,41.38033369602524,-91.78931567039643,9978.59675269258,-97.8874269942445,1.054159228193429,-0.9711412585619654,189.294,9720.794529171932,12053.737931086003,150,True,18.442414548603217,False,139.18713831059898,176.07996828603368,False,44.66184242194648,False,False
1,1970-07-23 10:27:38.778296733,2025-09-12,2025-09-26 14:04:37.829,HH,C,1616813866,JASSM,3,104,76,2,2,1,225,9,2,0,1,26,0,0,0,0,-177719.32165701812,-4779423.770479049,4210641.440886021,-2.36684,-0.400465,0.381386,79.5,-33.5,-34.5,0.0,0.0,0.0,0.0,0.0,0.0,2,0,41.55106290856328,-92.12951987673142,10997.375415031383,119.82259999407049,-0.0028712205008763,0.0018181961222756,,9720.794529171932,12053.737931086003,150,1,2025-09-12,2025-09-26 14:04:38.440,HH,C,3573430,AMBUSH51,1,1,48,2,1,1,225,2,1,0,0,9,1,225,2,1,-149722.63068468566,-4792718.241715815,4196219.7066056905,2.28212,-3.06769,0.0909128,-114.195,-12.3703,-15.0174,-0.0698457,-7.45457,7.0842,0.00568106,0.00476144,-0.00512971,4,0,41.38033369602524,-91.78931567039643,9978.59675269258,-97.8874269942445,1.054159228193429,-0.9711412585619654,189.294,9720.794529171932,12053.737931086003,150,True,18.39252377828278,False,139.18713831059898,176.06958339600936,False,44.67203058358132,False,False
1,1970-07-23 10:27:38.789452454,2025-09-12,2025-09-26 14:04:38.945,HH,C,1618006910,JASSM,3,104,76,2,2,1,225,9,2,0,1,26,0,0,0,0,-177639.80798514312,-4779457.440400924,4210606.810026646,-2.36684,-0.400465,0.381386,79.5,-33.5,-34.5,0.0,0.0,0.0,0.0,0.0,0.0,2,0,41.55064648182243,-92.12855300024783,10997.373201077724,119.8232413083617,-0.0020363699831039,0.0018167691493628,,9720.794529171932,12053.737931086003,150,1,2025-09-12,2025-09-26 14:04:39.107,HH,C,4368764,AMBUSH51,1,1,48,2,1,1,225,2,1,0,0,9,1,225,2,1,-149798.8379682857,-4792725.632932727,4196208.846261269,2.28961,-3.06715,0.0905642,-114.381,-11.5955,-15.8296,-0.160658,-7.36526,7.00973,0.00361087,0.00684412,-0.00340281,4,0,41.3802022464377,-91.79022306219136,9979.088369005509,-97.89358437337415,1.0910922441439104,-0.5453023866811694,189.49,9720.794529171932,12053.737931086003,150,True,18.313213844682704,False,139.16976495160108,175.96870950406364,False,44.80146525744874,False,False
1,1970-07-23 10:27:38.798218323,2025-09-12,2025-09-26 14:04:39.821,HH,C,1619199958,JASSM,3,104,76,2,2,1,225,9,2,0,1,26,0,0,0,0,-177560.29431326812,-4779491.110322799,4210572.179167271,-2.36684,-0.400465,0.381482,79.5,-33.5,-34.5,0.0,0.0,0.0,0.0,0.0,0.0,2,0,41.55023004692187,-92.12758613617407,10997.375434605048,119.82772519361718,-0.0051270215583341,0.0018151299269617,,9720.794529171932,12053.737931086003,150,1,2025-09-12,2025-09-26 14:04:39.841,HH,C,5243630,AMBUSH51,1,1,48,2,1,1,225,2,1,0,0,9,1,225,2,1,-149882.71780554677,-4792733.966626907,4196197.047492235,2.29325,-3.06514,0.0903236,-114.539,-11.6609,-15.7945,-0.147293,-7.33814,7.03319,0.000650186,0.00717701,-0.00193183,4,0,41.38005742155555,-91.79122173189523,9980.457183608592,-97.9602532517112,1.1865413066662085,-0.3482360395321315,189.648,9720.794529171932,12053.737931086003,150,True,18.231015497825343,False,139.17389368053574,175.85777259142552,False,44.908744360397456,False,False
1,1970-07-23 10:27:38.808234333,2025-09-12,2025-09-26 14:04:40.823,HH,C,1620393004,JASSM,3,104,76,2,2,1,225,9,2,0,1,26,0,0,0,0,-177480.78064139312,-4779524.780244674,4210537.546354771,-2.36684,-0.400465,0.381482,79.5,-33.5,-34.5,0.0,0.0,0.0,0.0,0.0,0.0,2,0,41.54981359070826,-92.12661928451044,10997.377865451768,119.82836648098014,-0.0042921642831345,0.0018137474622168,,9720.794529171932,12053.737931086003,150,1,2025-09-12,2025-09-26 14:04:40.640,HH,C,6198028,AMBUSH51,1,1,48,2,1,1,225,2,1,0,0,9,1,225,2,1,-149974.212724123,-4792743.27728442,4196184.300704453,2.29735,-3.0634,0.08514,-114.635,-11.9258,-15.5713,-0.193393,-7.42581,7.08439,0.0109679,-0.00339657,0.00465117,4,0,41.379898959861805,-91.7923109788634,9982.763838751283,-97.80558170001058,1.4593566763558172,-0.1184924920501529,189.807,9720.794529171932,12053.737931086003,150,True,18.145981405159137,False,139.17416345532334,175.73658676587235,False,45.02778787397061,False,False
1,1970-07-23 10:27:38.818984830,2025-09-12,2025-09-26 14:04:41.898,HH,C,1621526426,JASSM,3,104,76,2,2,1,225,9,2,0,1,26,0,0,0,0,-177405.24060233062,-4779556.766572799,4210504.642057896,-2.36684,-0.400465,0.381482,79.5,-33.5,-34.5,0.0,0.0,0.0,0.0,0.0,0.0,2,0,41.54941792973842,-92.12570076241823,10997.377067704292,119.82897570771556,-0.0034990239521632,0.0018124258522786,,9720.794529171932,12053.737931086003,150,1,2025-09-12,2025-09-26 14:04:42.074,HH,C,7907994,AMBUSH51,1,1,48,2,1,1,225,2,1,0,0,9,1,225,2,1,-150137.90747226682,-4792760.225195981,4196161.96566787,2.30741,-3.0672,0.0837348,-114.876,-12.1017,-15.2509,0.0186676,-6.82854,6.42828,0.00330294,-0.0159696,0.00254977,4,0,41.37961687997424,-91.79425964244916,9988.635750760805,-97.60219151114472,1.3524172928702738,0.4815804789833501,189.954,9720.794529171932,12053.737931086003,150,True,18.035846454127267,False,139.24969686446778,175.52729305416153,False,45.16068018847752,False,False
1,1970-07-23 10:27:38.828314003,2025-09-12,2025-09-26 14:04:42.831,HH,C,1622779098,JASSM,3,104,76,2,2,1,225,9,2,0,1,26,0,0,0,0,-177321.75232108062,-4779592.116182174,4210468.276823521,-2.36684,-0.400465,0.381482,79.5,-33.5,-34.5,0.0,0.0,0.0,0.0,0.0,0.0,2,0,41.54898065101169,-92.12468560845906,10997.377896120026,119.82964902177622,-0.0026224416996936,0.0018109837104922,,9720.794529171932,12053.737931086003,150,1,2025-09-12,2025-09-26 14:04:42.807,HH,C,8782858,AMBUSH51,1,1,48,2,1,1,225,2,1,0,0,9,1,225,2,1,-150222.0454088851,-4792768.75004888,4196150.553568285,2.3065,-3.07015,0.0827361,-114.955,-11.7455,-15.3998,-0.0238084,-6.8589,6.48681,-0.00688781,0.000956033,0.00500903,4,0,41.37947344651482,-91.79526130441948,9991.348463197626,-97.44819321428288,1.2657169035195526,0.4467186636183956,190.235,9720.794529171932,12053.737931086003,150,True,17.951278295642595,False,139.32090087071532,175.4118369398602,False,45.20931302840234,False,False
1,1970-07-23 10:27:38.838271999,2025-09-12,2025-09-26 14:04:43.827,HH,C,1624031796,JASSM,3,104,76,2,2,1,225,9,2,0,1,26,0,0,0,0,-177238.26306326812,-4779627.463838424,4210431.909636021,-2.36674,-0.400369,0.381482,79.5,-33.5,-34.5,0.0,0.0,0.0,0.0,0.0,0.0,2,0,41.54854336200178,-92.12367045735785,10997.374496514469,119.82667907874202,-0.0053122733993633,0.0052561509786987,,9720.794529171932,12053.737931086003,150,1,2025-09-12,2025-09-26 14:04:43.707,HH,C,9856558,AMBUSH51,1,1,48,2,1,1,225,2,1,0,0,9,1,225,2,1,-150326.39350931134,-4792779.246939767,4196136.263196088,2.30662,-3.07404,0.0825074,-115.149,-11.6604,-15.3734,-0.030625,-6.93902,6.57693,0.00565402,-0.00502984,0.0127509,4,0,41.37929507221978,-91.796503590215,9994.234575235205,-97.29139912611012,1.109473600674682,0.4754501656639065,190.382,9720.794529171932,12053.737931086003,150,True,17.859086187485772,False,139.37401045255703,175.27021108710034,False,45.29943354496902,False,False
1,1970-07-23 10:27:38.848231272,2025-09-12,2025-09-26 14:04:44.823,HH,C,1625165190,JASSM,3,104,76,2,2,1,225,9,2,0,1,26,0,0,0,0,-177162.72595389312,-4779659.446260299,4210399.005339146,-2.36674,-0.400369,0.381482,79.5,-33.5,-34.5,0.0,0.0,0.0,0.0,0.0,0.0,2,0,41.54814770004254,-92.12275200802968,10997.377267681988,119.8272882420042,-0.0045191681410972,0.0052547847835253,,9720.794529171932,12053.737931086003,150,1,2025-09-12,2025-09-26 14:04:44.907,HH,C,11288156,AMBUSH51,1,1,48,2,1,1,225,2,1,0,0,9,1,225,2,1,-150464.0476301895,-4792792.494271513,4196117.724587639,2.31326,-3.0777,0.0847378,-115.46,-11.1325,-15.4636,-0.128234,-7.03484,6.57384,-0.00788649,0.000627299,0.000550317,4,0,41.37906542485826,-91.7981426051377,9997.253196659594,-97.24920333449926,0.869910428449591,0.8741446712586575,190.699,9720.794529171932,12053.737931086003,150,True,17.759119756465577,False,139.5398264371017,175.08773291141395,False,45.32164491076836,False,False
1,1970-07-23 10:27:38.859382558,2025-09-12,2025-09-26 14:04:45.938,HH,C,1626298584,JASSM,3,104,76,2,2,1,225,9,2,0,1,26,0,0,0,0,-177087.18591483062,-4779691.426729049,4210366.099089146,-2.36674,-0.400369,0.381482,79.5,-33.5,-34.5,0.0,0.0,0.0,0.0,0.0,0.0,2,0,41.54775202986337,-92.12183353569668,10997.37474394745,119.8278974157578,-0.0037260401943403,0.0052534305455438,,9720.794529171932,12053.737931086003,150,1,2025-09-12,2025-09-26 14:04:45.942,HH,C,12520922,AMBUSH51,1,1,48,2,1,1,225,2,1,0,0,9,1,225,2,1,-150583.61791238363,-4792803.686252641,4196101.707842174,2.31059,-3.0817,0.0817359,-115.774,-10.7956,-15.4434,-0.114408,-7.1054,6.79249,-0.0055812,0.00323845,0.00235627,4,0,41.378868384525006,-91.79956640855258,9999.295634357206,-96.96954769880423,0.8143698490329122,0.7443410762462772,190.932,9720.794529171932,12053.737931086003,150,True,17.66612894835163,False,139.68146737626287,174.92603678886417,False,45.344923304977314,False,False
1,1970-07-23 10:27:38.866313388,2025-09-12,2025-09-26 14:04:46.631,HH,C,1627372428,JASSM,3,104,76,2,2,1,225,9,2,0,1,26,0,0,0,0,-177015.61657889312,-4779721.727510299,4210334.921354771,-2.36674,-0.400369,0.381482,79.5,-33.5,-34.5,0.0,0.0,0.0,0.0,0.0,0.0,2,0,41.54737713506958,-92.1209633518818,10997.376787763627,119.82847455791476,-0.0029745940453441,0.0052521338768053,,9720.794529171932,12053.737931086003,150,1,2025-09-12,2025-09-26 14:04:46.807,HH,C,13554854,AMBUSH51,1,1,48,2,1,1,225,2,1,0,0,9,1,225,2,1,-150685.23663489427,-4792813.1090740925,4196088.315710068,2.30449,-3.0832,0.0800646,-116.008,-10.8871,-15.118,-0.110366,-7.12678,6.70632,-0.0115858,-0.00811744,-0.00428498,4,0,41.37870292657601,-91.80077647711732,10001.29572967427,-96.84185640559762,0.8148991048816595,0.4036260153574748,191.323,9720.794529171932,12053.737931086003,150,True,17.582524478063657,False,139.78541762375835,174.78619904271486,False,45.379216061011846,False,False
1,1970-07-23 10:27:38.875192834,2025-09-12,2025-09-26 14:04:47.519,HH,C,1628446316,JASSM,3,104,76,2,2,1,225,9,2,0,1,26,0,0,0,0,-176944.04431326812,-4779752.026338424,4210303.741667271,-2.36674,-0.400369,0.381482,79.5,-33.5,-34.5,0.0,0.0,0.0,0.0,0.0,0.0,2,0,41.54700223280848,-92.12009314391588,10997.37312630303,119.8290517118108,-0.0022231252126777,0.0052508491685,,9720.794529171932,12053.737931086003,150,1,2025-09-12,2025-09-26 14:04:47.507,HH,C,14389952,AMBUSH51,1,1,48,2,1,1,225,2,1,0,0,9,1,225,2,1,-150766.55188993324,-4792820.578359648,4196077.571507948,2.29521,-3.09031,0.0838962,-116.212,-10.5702,-15.3249,-0.17347,-6.61021,6.24079,-0.00269125,-0.00896216,0.00187982,4,0,41.37857075145527,-91.80174479545964,10002.665442392565,-96.73703715463864,0.3663803962409688,-0.0931972411491789,191.591,9720.794529171932,12053.737931086003,150,True,17.506735155428938,False,139.83052601664792,174.67063511829556,False,45.45363737178311,False,False
1,1970-07-23 10:27:38.885232052,2025-09-12,2025-09-26 14:04:48.523,HH,C,1629639116,JASSM,3,104,76,2,2,1,225,9,2,0,1,26,0,0,0,0,-176864.54626639312,-4779785.680635299,4210269.108854771,-2.36674,-0.400369,0.381482,79.5,-33.5,-34.5,0.0,0.0,0.0,0.0,0.0,0.0,2,0,41.54658580311207,-92.11912658240064,10997.373105357436,119.8296927659058,-0.0013884381369356,0.0052494189894807,,9720.794529171932,12053.737931086003,150,1,2025-09-12,2025-09-26 14:04:48.474,HH,C,15543184,AMBUSH51,1,1,48,2,1,1,225,2,1,0,0,9,1,225,2,1,-150878.86885412174,-4792830.577123556,4196062.291467467,2.28712,-3.09138,0.0851918,-116.43,-10.2707,-15.6529,-0.232863,-6.69694,6.45957,-0.00260594,-0.00193391,-0.00442022,4,0,41.378387094411735,-91.80308240133998,10002.826780045609,-96.75276095490548,0.272301029819203,-0.5515883567357566,191.982,9720.794529171932,12053.737931086003,150,True,17.414326456488727,False,139.82716475282723,174.51277454269328,False,45.619428662409284,False,False
1,1970-07-23 10:27:38.895405282,2025-09-12,2025-09-26 14:04:49.540,HH,C,1630712858,JASSM,3,104,76,2,2,1,225,9,2,0,1,26,0,0,0,0,-176792.98376639312,-4779815.975557174,4210237.933073521,-2.36674,-0.400369,0.381578,79.5,-33.5,-34.5,0.0,0.0,0.0,0.0,0.0,0.0,2,0,41.546210934352594,-92.11825651428656,10997.376850850957,119.8341125435341,-0.0045624339119396,0.0052479568605198,,9720.794529171932,12053.737931086003,150,1,2025-09-12,2025-09-26 14:04:49.574,HH,C,16855484,AMBUSH51,1,1,48,2,1,1,225,2,1,0,0,9,1,225,2,1,-151006.24699631456,-4792841.301975217,4196044.75118269,2.28181,-3.09484,0.0896952,-116.642,-9.76193,-16.1562,-0.0605204,-6.83068,6.31648,0.0045617,-0.00303455,-3.43298e-05,4,0,41.37818101940184,-91.80459959605446,10001.04709882963,-96.81573919460402,-0.0454562866000377,-0.838852480787342,192.251,9720.794529171932,12053.737931086003,150,True,17.321243830666056,False,139.82656396675472,174.33560770965525,False,45.8037232315837,False,False
1,1970-07-23 10:27:38.904309169,2025-09-12,2025-09-26 14:04:50.430,HH,C,1631846250,JASSM,3,104,76,2,2,1,225,9,2,0,1,26,0,0,0,0,-176717.44568045562,-4779847.952119674,4210205.022917271,-2.36674,-0.400369,0.381578,79.5,-33.5,-34.5,0.0,0.0,0.0,0.0,0.0,0.0,2,0,41.54581522469433,-92.11733812188304,10997.376066993877,119.83472164103856,-0.0037693201990948,0.0052466433254896,,9720.794529171932,12053.737931086003,150,1,2025-09-12,2025-09-26 14:04:50.273,HH,C,17690582,AMBUSH51,1,1,48,2,1,1,225,2,1,0,0,9,1,225,2,1,-151087.83441159088,-4792848.063886656,4196033.195102623,2.29037,-3.09694,0.0907924,-116.753,-9.58747,-16.4056,-0.292505,-7.11575,6.56765,0.00635934,0.00421633,0.00440774,4,0,41.378047484552354,-91.80557141527248,9998.950374141854,-96.78411180789956,-0.1758323904518551,-0.3372782142022785,192.642,9720.794529171932,12053.737931086003,150,True,17.243175454791192,False,139.80120614374027,174.21464393779388,False,45.95269968884454,False,False
1,1970-07-23 10:27:38.913210074,2025-09-12,2025-09-26 14:04:51.321,HH,C,1632979644,JASSM,3,104,76,2,2,1,225,9,2,0,1,26,0,0,0,0,-176641.90661795562,-4779879.926729049,4210172.112761021,-2.36674,-0.400369,0.381578,79.5,-33.5,-34.5,0.0,0.0,0.0,0.0,0.0,0.0,2,0,41.545419519538406,-92.11641972985284,10997.374415894565,119.83533073352928,-0.002976205305541,0.005245344081235,,9720.794529171932,12053.737931086003,150,1,2025-09-12,2025-09-26 14:04:51.474,HH,C,19122182,AMBUSH51,1,1,48,2,1,1,225,2,1,0,0,9,1,225,2,1,-151228.0932539246,-4792859.507243554,4196013.093887858,2.30085,-3.09927,0.0917633,-117.026,-9.37312,-16.6518,-0.0913709,-7.0115,6.4799,0.00347147,0.00358382,-0.00548757,4,0,41.377817393643085,-91.80724215196396,9994.398777664688,-96.73857296075836,-0.3110268753081587,0.2752663246286588,192.948,9720.794529171932,12053.737931086003,150,True,17.143149056664953,False,139.80159149745887,174.0156477308129,False,46.15435524282905,False,False
1,1970-07-23 10:27:38.923286263,2025-09-12,2025-09-26 14:04:52.328,HH,C,1634113038,JASSM,3,104,76,2,2,1,225,9,2,0,1,26,0,0,0,0,-176566.36853201812,-4779911.901338424,4210139.202604771,-2.36674,-0.400273,0.381578,79.5,-33.5,-34.5,0.0,0.0,0.0,0.0,0.0,0.0,2,0,41.54502380680559,-92.11550136071152,10997.3768672316,119.8322968248736,-0.0057495131555359,0.0031987137094946,,9720.794529171932,12053.737931086003,150,1,2025-09-12,2025-09-26 14:04:52.274,HH,C,20076580,AMBUSH51,1,1,48,2,1,1,225,2,1,0,0,9,1,225,2,1,-151321.71564625722,-4792866.814016217,4195999.747035874,2.30618,-3.10049,0.0882427,-117.19,-9.19052,-16.6445,-0.0896637,-7.22762,6.58009,0.0124576,0.000762538,0.0047656,4,0,41.37766624408963,-91.80835748301362,9990.70357009768,-96.5420300869635,-0.2286433814643589,0.5859204744050228,193.18,9720.794529171932,12053.737931086003,150,True,17.060698485349416,False,139.87412037701,173.87627027011555,False,46.22253606120936,False,False
1,1970-07-23 10:27:38.932949834,2025-09-12,2025-09-26 14:04:53.294,HH,C,1635246432,JASSM,3,104,76,2,2,1,225,9,2,0,1,26,0,0,0,0,-176490.82946951812,-4779943.873994674,4210106.290495396,-2.36674,-0.400273,0.381578,79.5,-33.5,-34.5,0.0,0.0,0.0,0.0,0.0,0.0,2,0,41.54462808542052,-92.11458299194264,10997.374201552866,119.83290589249266,-0.0049563980483339,0.0031973623457689,,9720.794529171932,12053.737931086003,150,1,2025-09-12,2025-09-26 14:04:53.441,HH,C,21468412,AMBUSH51,1,1,48,2,1,1,225,2,1,0,0,9,1,225,2,1,-151459.3151639977,-4792877.847311963,4195980.392015958,2.28815,-3.09572,0.0794947,-117.417,-9.51518,-16.2356,-0.130114,-7.63932,6.95629,-0.0342227,0.000327694,0.0095697,4,0,41.37744408962183,-91.8099965973414,9986.571745364154,-96.34882199906492,0.3089925213988727,-0.4696817333575391,193.449,9720.794529171932,12053.737931086003,150,True,16.96189273160545,False,139.93499043489973,173.67719717506935,False,46.3575967600867,False,False
1,1970-07-23 10:27:38.945373078,2025-09-12,2025-09-26 14:04:54.537,HH,C,1636379826,JASSM,3,104,76,2,2,1,225,9,2,0,1,26,0,0,0,0,-176415.29138358062,-4779975.846650924,4210073.378386021,-2.36674,-0.400273,0.381578,79.5,-33.5,-34.5,0.0,0.0,0.0,0.0,0.0,0.0,2,0,41.54423235645908,-92.11366464606222,10997.375638237148,119.83351494016644,-0.0041632903690632,0.003196006411162,,9720.794529171932,12053.737931086003,150,1,2025-09-12,2025-09-26 14:04:54.608,HH,C,22860244,AMBUSH51,1,1,48,2,1,1,225,2,1,0,0,9,1,225,2,1,-151595.62239771098,-4792889.357276818,4195961.758124825,2.27763,-3.09398,0.0761368,-117.584,-10.0456,-15.9299,-0.0605298,-7.65795,6.94535,-0.00305951,-0.00227721,-0.000342258,4,0,41.37722419038958,-91.81162008815588,9985.086122083105,-96.27191361564404,0.5122414406163264,-1.079428303128247,193.95,9720.794529171932,12053.737931086003,150,True,16.863778824395173,False,139.88808164764575,173.47768358459425,False,46.599997678651484,False,False
1,1970-07-23 10:27:38.951271532,2025-09-12,2025-09-26 14:04:55.127,HH,C,1637453568,JASSM,3,104,76,2,2,1,225,9,2,0,1,26,0,0,0,0,-176343.72986014312,-4780006.135713424,4210042.196745396,-2.36674,-0.400273,0.381578,79.5,-33.5,-34.5,0.0,0.0,0.0,0.0,0.0,0.0,2,0,41.54385744148996,-92.11279465532812,10997.374960608287,119.83409191427543,-0.0034119286642701,0.0031947116600388,,9720.794529171932,12053.737931086003,150,1,2025-09-12,2025-09-26 14:04:55.007,HH,C,23337444,AMBUSH51,1,1,48,2,1,1,225,2,1,0,0,9,1,225,2,1,-151643.44965913563,-4792893.526037899,4195955.345240412,2.27917,-3.09119,0.0768187,-117.634,-10.3773,-15.682,-0.234352,-7.67456,7.04857,0.00348812,0.00918479,-0.00936788,4,0,41.37714709959721,-91.81218968426442,9985.159284681657,-96.40736279450115,0.6060211199686575,-1.00477252398952,193.718,9720.794529171932,12053.737931086003,150,True,16.801244236748943,False,139.8738160652118,173.3962355328561,False,46.692465142313885,False,False
1,1970-07-23 10:27:38.961289625,2025-09-12,2025-09-26 14:04:56.128,HH,C,1638706268,JASSM,3,104,76,2,2,1,225,9,2,0,1,26,0,0,0,0,-176260.23767264312,-4780041.473604049,4210005.817839146,-2.36674,-0.400273,0.381578,79.5,-33.5,-34.5,0.0,0.0,0.0,0.0,0.0,0.0,2,0,41.54342002709114,-92.11177963374386,10997.379273683046,119.83476506681237,-0.0025353080539009,0.003193213317322,,9720.794529171932,12053.737931086003,150,1,2025-09-12,2025-09-26 14:04:56.174,HH,C,24729276,AMBUSH51,1,1,48,2,1,1,225,2,1,0,0,9,1,225,2,1,-151779.8550943021,-4792905.870752158,4195937.358410423,2.28192,-3.08711,0.07082,-117.675,-11.0033,-15.2558,-0.0844813,-7.71536,7.01139,0.00238124,0.014819,0.00450969,4,0,41.37692655725566,-91.81381401763323,9987.151806158194,-96.30628053536924,1.009885102655077,-0.8628446298628513,193.95,9720.794529171932,12053.737931086003,150,True,16.698447009545053,False,139.8261206600786,173.19109981358787,False,46.93940139205624,False,False
1,1970-07-23 10:27:38.979430491,2025-09-12,2025-09-26 14:04:57.943,HH,C,1640018620,JASSM,3,104,76,2,2,1,225,9,2,0,1,26,0,0,0,0,-176172.77185233062,-4780078.491182174,4209967.704557896,-2.36674,-0.400273,0.381578,79.5,-33.5,-34.5,0.0,0.0,0.0,0.0,0.0,0.0,2,0,41.542961777833256,-92.11071631998912,10997.377265808953,119.8354702400068,-0.0016169634102364,0.0031916368437696,,9720.794529171932,12053.737931086003,150,1,2025-09-12,2025-09-26 14:04:58.110,HH,C,27035740,AMBUSH51,1,1,48,2,1,1,225,2,1,0,0,9,1,225,2,1,-152008.1361812813,-4792928.004684853,4195908.617265868,2.28926,-3.07842,0.0639646,-117.622,-11.9254,-14.4168,-0.161234,-7.73639,6.98406,0.00939076,0.00859182,0.00496534,4,0,41.37655783985412,-91.81653183432152,9997.087270999127,-96.34416600123537,1.6438801076927625,-0.4770509470776883,193.534,9720.794529171932,12053.737931086003,150,True,16.559529600528162,False,139.81549153312312,172.85643198680575,False,47.273982633166966,False,False
1,1970-07-23 10:27:38.983212953,2025-09-12,2025-09-26 14:04:58.321,HH,C,1641331288,JASSM,3,104,76,2,2,1,225,9,2,0,1,26,0,0,0,0,-176085.28454764312,-4780115.516572799,4209929.581511021,-2.36674,-0.400273,0.381674,79.5,-33.5,-34.5,0.0,0.0,0.0,0.0,0.0,0.0,2,0,41.54250341105805,-92.10965276063509,10997.37662091694,119.84001843619924,-0.0046236219822763,0.0031898855180539,,9720.794529171932,12053.737931086003,150,1,2025-09-12,2025-09-26 14:04:58.473,HH,C,27473172,AMBUSH51,1,1,48,2,1,1,225,2,1,0,0,9,1,225,2,1,-152050.4491054837,-4792932.369126717,4195903.351332799,2.28972,-3.07853,0.0606965,-117.576,-12.1323,-14.294,-0.199243,-7.63833,7.25547,0.00220647,0.00226473,7.59417e-05,4,0,41.37648834710397,-91.8170354909985,9999.70919254437,-96.20046406871876,1.7641450942098065,-0.4455871169667727,193.486,9720.794529171932,12053.737931086003,150,True,16.48940462920283,False,139.78692651829016,172.77434727374438,False,47.38231113993383,False,False
1,1970-07-23 10:27:38.995208515,2025-09-12,2025-09-26 14:04:59.520,HH,C,1642703144,JASSM,3,104,76,2,2,1,225,9,2,0,1,26,0,0,0,0,-175993.85290701812,-4780154.209932174,4209889.739714146,-2.36674,-0.400273,0.381674,79.5,-33.5,-34.5,0.0,0.0,0.0,0.0,0.0,0.0,2,0,41.54202437632373,-92.10854126769176,10997.378521698096,119.8407555476787,-0.0036636453155974,0.0031883127391039,,9720.794529171932,12053.737931086003,150,1,2025-09-12,2025-09-26 14:04:59.673,HH,C,28904770,AMBUSH51,1,1,48,2,1,1,225,2,1,0,0,9,1,225,2,1,-152192.16515452386,-4792947.131331203,4195886.556355682,2.29699,-3.07093,0.0574377,-117.397,-12.7221,-13.573,-0.297736,-7.83216,7.21096,-0.000708443,0.00953641,-0.00968413,4,0,41.37626040882495,-91.8187222934466,10010.679179153913,-96.35090960173024,2.214156625762936,-0.0597339469992305,193.412,9720.794529171932,12053.737931086003,150,True,16.380359150436274,False,139.82751491408146,172.55232417229365,False,47.55436138993823,False,False
