Subject_cm,Timestamp,SampleDate_cm,SampleTime_cm,Configuration_cm,Scenario_cm,DisTime_cm,MarkingTxt_cm,Application_cm,EntId_cm,Site_cm,ExerciseId_cm,ForceId_cm,Category_cm,Country_cm,Domain_cm,Kind_cm,Extra_cm,Specific_cm,Subcategory_cm,AltCategory_cm,AltCountry_cm,AltDomain_cm,AltKind_cm,ECEF_X_cm,ECEF_Y_cm,ECEF_Z_cm,OriPhi_cm,OriPsi_cm,OriTheta_cm,LinVelX_cm,LinVelY_cm,LinVelZ_cm,LinAccX_cm,LinAccY_cm,LinAccZ_cm,AngVelX_cm,AngVelY_cm,AngVelZ_cm,DrAlg_cm,Appearance_cm,Latitude_cm,Longitude_cm,Altitude_cm,Heading_cm,Pitch_cm,Roll_cm,CalibratedAirspeed_cm,CM_Altitude_Lead_cm,CM_Altitude_Wing_cm,CM_Airspeed_cm,Subject_ac,SampleDate_ac,SampleTime_ac,Configuration_ac,Scenario_ac,DisTime_ac,MarkingTxt_ac,Application_ac,EntId_ac,Site_ac,ExerciseId_ac,ForceId_ac,Category_ac,Country_ac,Domain_ac,Kind_ac,Extra_ac,Specific_ac,Subcategory_ac,AltCategory_ac,AltCountry_ac,AltDomain_ac,AltKind_ac,ECEF_X_ac,ECEF_Y_ac,ECEF_Z_ac,OriPhi_ac,OriPsi_ac,OriTheta_ac,LinVelX_ac,LinVelY_ac,LinVelZ_ac,LinAccX_ac,LinAccY_ac,LinAccZ_ac,AngVelX_ac,AngVelY_ac,AngVelZ_ac,DrAlg_ac,Appearance_ac,Latitude_ac,Longitude_ac,Altitude_ac,Heading_ac,Pitch_ac,Roll_ac,CalibratedAirspeed_ac,CM_Altitude_Lead_ac,CM_Altitude_Wing_ac,CM_Airspeed_ac,Bank_Angle_Condition,distance_nm,Distance_Condition,angle_between_vel,angle_between_pos,Cone_Condition,angle_between_pos_nose,Nose_Cone_Condition,Intercept_Criteria
1,1970-07-23 11:27:25.741462304,2025-09-16,2025-09-26 17:42:54.146,AA,D,2356864944,JASSM,3,122,76,2,2,1,225,9,2,0,1,26,0,0,0,0,-136430.21911795562,-4807731.633027877,4179587.29862833,2.70565,2.13808,-0.757691,-35.0,55.125,61.75,0.0,0.0,0.0,0.0,0.0,0.0,2,0,41.1810903453005,-91.6254606403244,10000.000695382898,-24.05174114898542,-0.0035965646010499,0.0002630660765616,,9126.688510607357,11112.197839541188,150,1,2025-09-16,2025-09-26 17:42:54.044,AA,D,2748907442,AMBUSH51,1,1,48,2,1,1,225,2,1,0,0,9,1,225,2,1,-146939.33923581924,-4795244.263625384,4193057.5903223567,2.36582,2.71728,-0.428519,-99.7732,51.875,58.3256,-0.255541,-7.43849,6.73147,-0.0162172,0.000412998,-0.00777622,4,0,41.34447002495988,-91.75514946088062,9128.180699394992,-57.14741002942085,0.7189261420180513,-0.5502773073871459,205.193,9126.688510607357,11112.197839541188,150,True,11.418969391322573,False,29.04242116385078,173.07701411897875,False,157.79612852966113,False,False
1,1970-07-23 11:27:25.752319823,2025-09-16,2025-09-26 17:42:55.231,AA,D,2358117936,JASSM,3,122,76,2,2,1,225,9,2,0,1,26,0,0,0,0,-136467.09021170562,-4807673.758516158,4179652.228827,2.70565,2.13808,-0.757691,-35.0,55.125,61.75,0.0,0.0,0.0,0.0,0.0,0.0,2,0,41.18186679167305,-91.62591925713862,10000.000293401696,-24.05204312341472,-0.0027468539528883,0.0002618137535897,,9126.688510607357,11112.197839541188,150,1,2025-09-16,2025-09-26 17:42:55.344,AA,D,2750458342,AMBUSH51,1,1,48,2,1,1,225,2,1,0,0,9,1,225,2,1,-147068.93038867202,-4795176.490825016,4193133.088089936,2.36644,2.71828,-0.427476,-99.7688,51.7313,58.3952,-0.209125,-7.33326,6.56147,0.0486662,-0.0110178,-0.00386262,4,0,41.34535929062744,-91.75672123439224,9134.73570795657,-57.227629148762105,0.713652450839759,-0.4921627859022564,205.144,9126.688510607357,11112.197839541188,150,True,11.450594126726159,False,29.057010803252737,172.88109712762463,False,157.97621826355802,False,False
1,1970-07-23 11:27:25.763360907,2025-09-16,2025-09-26 17:42:56.336,AA,D,2359430330,JASSM,3,122,76,2,2,1,225,9,2,0,1,26,0,0,0,0,-136505.70935233062,-4807613.139375533,4179720.236221791,2.70565,2.13799,-0.757691,-35.0,55.125,61.75,0.0,0.0,0.0,0.0,0.0,0.0,2,0,41.18268004427531,-91.62639962872277,10000.000357103185,-24.04874332383029,-0.0035412176746464,-0.0035136576545705,,9126.688510607357,11112.197839541188,150,1,2025-09-16,2025-09-26 17:42:56.344,AA,D,2751651340,AMBUSH51,1,1,48,2,1,1,225,2,1,0,0,9,1,225,2,1,-147167.83670195425,-4795124.552394145,4193190.91678169,2.40294,2.72072,-0.426423,-99.6285,52.0762,58.3539,-0.233616,-7.16639,6.46769,0.0334383,0.00570811,-0.0043474,4,0,41.346040646731,-91.757920946538,9139.673159883094,-57.36176616427865,0.7595296089483584,1.655131193436417,205.071,9126.688510607357,11112.197839541188,150,True,11.460577030095743,False,28.946762969520208,172.7235182985032,False,158.2508271197578,False,False
1,1970-07-23 11:27:25.774385717,2025-09-16,2025-09-26 17:42:57.438,AA,D,2360683288,JASSM,3,122,76,2,2,1,225,9,2,0,1,26,0,0,0,0,-136542.58044608062,-4807555.264375533,4179785.162775517,2.70565,2.13799,-0.757595,-35.0,55.125,61.75,0.0,0.0,0.0,0.0,0.0,0.0,2,0,41.183456464897006,-91.6268582678828,10000.000286694829,-24.051365292957996,-0.0076726436380519,-0.0035146374902273,,9126.688510607357,11112.197839541188,150,1,2025-09-16,2025-09-26 17:42:57.445,AA,D,2752963638,AMBUSH51,1,1,48,2,1,1,225,2,1,0,0,9,1,225,2,1,-147277.63601603193,-4795066.498418091,4193255.3514490738,2.42187,2.71639,-0.432348,-99.2628,52.2375,58.6955,-0.0891122,-7.26659,6.55083,-0.00183821,0.00397914,0.00719158,4,0,41.34680097952314,-91.75925296200826,9144.704433676558,-56.96466504730631,0.8488370003897644,2.641694770196653,205.217,9126.688510607357,11112.197839541188,150,True,11.480203592910376,False,28.715651201723613,172.55473349179874,False,158.6495773867779,False,False
1,1970-07-23 11:27:25.784422052,2025-09-16,2025-09-26 17:42:58.442,AA,D,2361937526,JASSM,3,122,76,2,2,1,225,9,2,0,1,26,0,0,0,0,-136579.48669608062,-4807497.329316939,4179850.154623509,2.70565,2.13799,-0.757595,-35.0,55.125,61.75,0.0,0.0,0.0,0.0,0.0,0.0,2,0,41.18423367571976,-91.62731735685009,10000.000104179431,-24.051667592457463,-0.0068220951622316,-0.0035158826975961,,9126.688510607357,11112.197839541188,150,1,2025-09-16,2025-09-26 17:42:58.544,AA,D,2754275936,AMBUSH51,1,1,48,2,1,1,225,2,1,0,0,9,1,225,2,1,-147386.1291464946,-4795008.621873782,4193319.5032224143,2.40209,2.7117,-0.432184,-99.0526,52.7744,58.8659,-0.150647,-7.29882,6.56355,-0.0404582,3.43298e-05,0.00750158,4,0,41.34755856918218,-91.7605693498072,9149.470590993076,-56.79577951001559,0.6741712860378837,1.3979342980027858,204.899,9126.688510607357,11112.197839541188,150,True,11.49937043229704,False,28.484911012803302,172.388962413839,False,159.05284496138054,False,False
1,1970-07-23 11:27:25.795443567,2025-09-16,2025-09-26 17:42:59.544,AA,D,2363247822,JASSM,3,122,76,2,2,1,225,9,2,0,1,26,0,0,0,0,-136618.04528983062,-4807436.803682174,4179918.050383091,2.70565,2.13799,-0.757595,-35.0,55.125,61.75,0.0,0.0,0.0,0.0,0.0,0.0,2,0,41.18504562227272,-91.62779701035804,10000.000203352454,-24.051983438261303,-0.0059335207992658,-0.0035171603456463,,9126.688510607357,11112.197839541188,150,1,2025-09-16,2025-09-26 17:42:59.478,AA,D,2755389402,AMBUSH51,1,1,48,2,1,1,225,2,1,0,0,9,1,225,2,1,-147479.2028339303,-4794958.60894346,4193374.79151515,2.35743,2.70761,-0.431,-99.0095,52.9808,58.9251,-0.0531113,-7.03218,6.41813,-0.105874,-0.0056769,-0.00815489,4,0,41.34821234268204,-91.76169880449224,9153.226583523723,-56.68975229129686,0.4792146233597107,-1.257499043113779,205.071,9126.688510607357,11112.197839541188,150,True,11.506636059476225,False,28.40880067095646,172.2413463045913,False,159.27963678035727,False,False
1,1970-07-23 11:27:25.805460928,2025-09-16,2025-09-26 17:43:00.546,AA,D,2364501080,JASSM,3,122,76,2,2,1,225,9,2,0,1,26,0,0,0,0,-136654.92419608062,-4807378.911836471,4179982.989683629,2.70575,2.13799,-0.757595,-35.0,55.125,61.75,0.0,0.0,0.0,0.0,0.0,0.0,2,0,41.18582222182685,-91.62825578126734,10000.00064715762,-24.05228553794044,-0.0050836315061839,0.0019730802610277,,9126.688510607357,11112.197839541188,150,1,2025-09-16,2025-09-26 17:43:00.644,AA,D,2756781234,AMBUSH51,1,1,48,2,1,1,225,2,1,0,0,9,1,225,2,1,-147594.60942012543,-4794896.596273027,4193443.04766842,2.24467,2.70641,-0.431277,-99.3682,52.6748,58.4299,0.0748762,-7.13968,6.53919,-0.0449523,-0.00549381,-0.0134001,4,0,41.34902095098231,-91.76309930074764,9157.248961534751,-56.63462606598456,0.4490156263060016,-7.746373016672448,204.997,9126.688510607357,11112.197839541188,150,True,11.53063045201835,False,28.7126601056308,172.06846414427127,False,159.15195086162714,False,False
1,1970-07-23 11:27:25.817320345,2025-09-16,2025-09-26 17:43:01.732,AA,D,2365815172,JASSM,3,122,76,2,2,1,225,9,2,0,1,26,0,0,0,0,-136693.59411795562,-4807318.2085894,4180051.080076695,2.70575,2.13799,-0.757595,-35.0,55.125,61.75,0.0,0.0,0.0,0.0,0.0,0.0,2,0,41.18663651599292,-91.62873684388887,10000.00053740944,-24.052602321711667,-0.0041924847374987,0.0019717965809592,,9126.688510607357,11112.197839541188,150,1,2025-09-16,2025-09-26 17:43:01.810,AA,D,2758173066,AMBUSH51,1,1,48,2,1,1,225,2,1,0,0,9,1,225,2,1,-147710.15212139706,-4794835.567307812,4193509.826757616,2.19386,2.72267,-0.411708,-100.24,52.1273,57.1719,-0.223786,-7.19513,6.57386,-0.0137579,0.00769508,-0.00871457,4,0,41.34981369106526,-91.76450109430854,9160.512953918009,-58.02497330811004,0.229888021525552,-10.284998629549168,205.144,9126.688510607357,11112.197839541188,150,False,11.551501896159207,False,29.421444032528544,171.89173839084904,False,158.6292540007422,False,False
1,1970-07-23 11:27:25.828347776,2025-09-16,2025-09-26 17:43:02.834,AA,D,2367126128,JASSM,3,122,76,2,2,1,225,9,2,0,1,26,0,0,0,0,-136732.17028983062,-4807257.649019088,4180119.0070481305,2.70575,2.13799,-0.757595,-35.0,55.125,61.75,0.0,0.0,0.0,0.0,0.0,0.0,2,0,41.18744886577672,-91.62921675329744,10000.000425992945,-24.052918351228357,-0.0033034690843065,0.0019705038501142,,9126.688510607357,11112.197839541188,150,1,2025-09-16,2025-09-26 17:43:02.944,AA,D,2759525132,AMBUSH51,1,1,48,2,1,1,225,2,1,0,0,9,1,225,2,1,-147825.171796677,-4794776.249529684,4193574.134432126,2.19677,2.72922,-0.404457,-101.41,51.2038,56.0245,-0.263222,-7.46758,6.80455,0.0211191,0.00452841,-0.00602852,4,0,41.350579642092576,-91.765896047585,9162.603862820002,-58.56263127779442,0.1727250810149531,-9.971154010314118,205.217,9126.688510607357,11112.197839541188,150,True,11.571086278766508,False,30.27189754375276,171.71266395479378,False,157.96024277827303,False,False
1,1970-07-23 11:27:25.839381737,2025-09-16,2025-09-26 17:43:03.938,AA,D,2368437496,JASSM,3,122,76,2,2,1,225,9,2,0,1,26,0,0,0,0,-136770.75818045562,-4807197.069307174,4180186.954283238,2.70575,2.13799,-0.757595,-35.0,55.125,61.75,0.0,0.0,0.0,0.0,0.0,0.0,2,0,41.18826146804334,-91.62969682095324,10000.000240348696,-24.05323449009689,-0.0024141761666129,0.0019692079637923,,9126.688510607357,11112.197839541188,150,1,2025-09-16,2025-09-26 17:43:04.044,AA,D,2760837430,AMBUSH51,1,1,48,2,1,1,225,2,1,0,0,9,1,225,2,1,-147936.53072208833,-4794720.3074378045,4193635.043099468,2.27957,2.73434,-0.392095,-102.288,50.6385,55.2,-0.0161132,-7.39577,6.62826,0.106902,0.00652995,-0.0206301,4,0,41.35130322022683,-91.76724608632972,9165.369695655429,-59.25114300615225,-0.1452376628246229,-5.113699605503927,205.327,9126.688510607357,11112.197839541188,150,True,11.587534461142479,False,30.869081634665445,171.535889342762,False,157.54292826981103,False,False
1,1970-07-23 11:27:25.849405918,2025-09-16,2025-09-26 17:43:04.940,AA,D,2369690394,JASSM,3,122,76,2,2,1,225,9,2,0,1,26,0,0,0,0,-136807.62732108062,-4807139.189668502,4180251.8710618014,2.70575,2.13799,-0.757499,-35.0,55.125,61.75,0.0,0.0,0.0,0.0,0.0,0.0,2,0,41.18903783637961,-91.63015551631705,10000.00050640202,-24.055855087255413,-0.0065425492897742,0.0019681487941439,,9126.688510607357,11112.197839541188,150,1,2025-09-16,2025-09-26 17:43:05.077,AA,D,2762070196,AMBUSH51,1,1,48,2,1,1,225,2,1,0,0,9,1,225,2,1,-148042.82629651134,-4794667.397433671,4193692.5082331095,2.40445,2.73916,-0.391431,-102.477,50.5422,55.267,-0.336065,-7.14135,6.37664,0.0881496,0.00377316,0.0176944,4,0,41.35198642572598,-91.76853458799802,9167.760273582711,-59.46115230470302,0.007124321183806,2.1469025913456194,205.181,9126.688510607357,11112.197839541188,150,True,11.602909667512046,False,30.92396608096161,171.36638562400117,False,157.65629003263237,False,False
1,1970-07-23 11:27:25.859442754,2025-09-16,2025-09-26 17:43:05.944,AA,D,2370944314,JASSM,3,122,76,2,2,1,225,9,2,0,1,26,0,0,0,0,-136844.52575858062,-4807081.261567916,4180316.8398728375,2.70575,2.13799,-0.757499,-35.0,55.125,61.75,0.0,0.0,0.0,0.0,0.0,0.0,2,0,41.18981483736707,-91.63061458785532,10000.000247843887,-24.056157408954725,-0.0056922098754723,0.0019668836030966,,9126.688510607357,11112.197839541188,150,1,2025-09-16,2025-09-26 17:43:05.978,AA,D,2763143894,AMBUSH51,1,1,48,2,1,1,225,2,1,0,0,9,1,225,2,1,-148133.94636850109,-4794621.801664137,4193742.168224147,2.48681,2.7306,-0.398304,-102.067,51.072,55.8262,-0.160075,-7.0547,6.32032,0.0644683,-0.00696271,0.00837335,4,0,41.35257619974887,-91.76963924370172,9170.091793777012,-58.862893574531306,-0.0260904309944551,6.677039621590754,205.682,9126.688510607357,11112.197839541188,150,True,11.609141093762801,False,30.534670851447924,171.2165954042724,False,158.19620683916847,False,False
1,1970-07-23 11:27:25.871462373,2025-09-16,2025-09-26 17:43:07.146,AA,D,2372314896,JASSM,3,122,76,2,2,1,225,9,2,0,1,26,0,0,0,0,-136884.85778983062,-4807017.9429644,4180387.852201939,2.70575,2.13799,-0.757499,-35.0,55.125,61.75,0.0,0.0,0.0,0.0,0.0,0.0,2,0,41.19066412539423,-91.63111639082878,10000.000567622425,-24.05648787683474,-0.0047627555308748,0.0019655067199148,,9126.688510607357,11112.197839541188,150,1,2025-09-16,2025-09-26 17:43:07.077,AA,D,2764456192,AMBUSH51,1,1,48,2,1,1,225,2,1,0,0,9,1,225,2,1,-148246.1271634551,-4794564.672919002,4193804.2672842047,2.52632,2.72433,-0.401221,-101.126,51.9383,56.7282,-0.0953034,-6.89771,6.01186,-0.00268917,-0.00784072,0.0202723,4,0,41.35331467731376,-91.77099961428978,9172.606866904269,-58.50981728537474,-0.1353152839325417,8.800311224523856,204.899,9126.688510607357,11112.197839541188,150,True,11.624521415138416,False,29.829484020245964,171.03966524333237,False,159.07960439196364,False,False
1,1970-07-23 11:27:25.882327713,2025-09-16,2025-09-26 17:43:08.232,AA,D,2373567608,JASSM,3,122,76,2,2,1,225,9,2,0,1,26,0,0,0,0,-136921.71911795562,-4806960.068574752,4180452.756437779,2.70575,2.13789,-0.757499,-35.0,55.125,61.75,0.0,0.0,0.0,0.0,0.0,0.0,2,0,41.191440373022296,-91.631575024906,10000.000360678145,-24.053173049605423,-0.005597664494686,-0.0018092951220668,,9126.688510607357,11112.197839541188,150,1,2025-09-16,2025-09-26 17:43:08.044,AA,D,2765609426,AMBUSH51,1,1,48,2,1,1,225,2,1,0,0,9,1,225,2,1,-148342.79320501676,-4794514.158753019,4193858.614047376,2.50432,2.70731,-0.415289,-100.335,52.9384,57.2018,-0.0172942,-7.47396,6.49462,-0.0578499,0.00582671,0.0125408,4,0,41.35396430370693,-91.77217234339778,9173.428037911252,-57.30676372790172,-0.173102235524531,7.149116178500156,204.826,9126.688510607357,11112.197839541188,150,True,11.635662226020639,False,29.25090556913828,170.88726056004197,False,159.81844470143477,False,False
1,1970-07-23 11:27:25.892361722,2025-09-16,2025-09-26 17:43:09.236,AA,D,2374822484,JASSM,3,122,76,2,2,1,225,9,2,0,1,26,0,0,0,0,-136958.64685233062,-4806902.093110885,4180517.7718796735,2.70575,2.13789,-0.757499,-35.0,55.125,61.75,0.0,0.0,0.0,0.0,0.0,0.0,2,0,41.19221795951229,-91.63203449500192,10000.000267053943,-24.053475648302,-0.0047466732858773,-0.0018104968562028,,9126.688510607357,11112.197839541188,150,1,2025-09-16,2025-09-26 17:43:09.245,AA,D,2767041024,AMBUSH51,1,1,48,2,1,1,225,2,1,0,0,9,1,225,2,1,-148462.86053579557,-4794450.26823393,4193927.319468885,2.44092,2.69914,-0.422757,-99.7615,53.453,57.9649,-0.0442322,-7.43757,6.66947,-0.0477174,-0.0158219,-0.00385014,4,0,41.35478612058203,-91.77362942794235,9174.239558023584,-56.70310801359637,-0.1563024528535831,3.324544551092153,204.973,9126.688510607357,11112.197839541188,150,True,11.662475380299158,False,28.766878695407563,170.71035428312894,False,160.47774457440389,False,False
1,1970-07-23 11:27:25.904379828,2025-09-16,2025-09-26 17:43:10.437,AA,D,2376192600,JASSM,3,122,76,2,2,1,225,9,2,0,1,26,0,0,0,0,-136998.96325858062,-4806838.792451705,4180588.75692606,2.70575,2.13789,-0.757499,-35.0,55.125,61.75,0.0,0.0,0.0,0.0,0.0,0.0,2,0,41.19306695254315,-91.63253614249052,10000.00038198123,-24.053806029643862,-0.0038175415963593,-0.0018118294958483,,9126.688510607357,11112.197839541188,150,1,2025-09-16,2025-09-26 17:43:10.344,AA,D,2768353322,AMBUSH51,1,1,48,2,1,1,225,2,1,0,0,9,1,225,2,1,-148572.0522969959,-4794391.1011393545,4193991.275119311,2.42776,2.69592,-0.428197,-99.4003,53.8729,58.3768,-0.337051,-7.21344,6.45196,-0.0377659,0.0039084,0.00135759,4,0,41.35554975894912,-91.7749549566115,9175.563777912068,-56.367525564839376,-0.0443767618611711,2.493571328199692,205.144,9126.688510607357,11112.197839541188,150,True,11.67858662925873,False,28.459058215857436,170.54529449768967,False,160.95177085963738,False,False
1,1970-07-23 11:27:25.914418866,2025-09-16,2025-09-26 17:43:11.441,AA,D,2377505294,JASSM,3,122,76,2,2,1,225,9,2,0,1,26,0,0,0,0,-137037.59216483062,-4806778.143525924,4180656.765837193,2.70575,2.13789,-0.757499,-35.0,55.125,61.75,0.0,0.0,0.0,0.0,0.0,0.0,2,0,41.19388036103572,-91.63301680423076,10000.000355786256,-24.05412259519496,-0.0029273429074293,-0.0018130878666176,,9126.688510607357,11112.197839541188,150,1,2025-09-16,2025-09-26 17:43:11.510,AA,D,2769745154,AMBUSH51,1,1,48,2,1,1,225,2,1,0,0,9,1,225,2,1,-148688.75692120995,-4794327.7271900335,4194059.946600515,2.38182,2.69336,-0.43404,-99.261,53.7413,58.8026,-0.0242782,-7.20573,6.61213,0.0032322,-0.00838168,-0.00133262,4,0,41.35636886039001,-91.77637177174852,9177.339412681047,-56.04188618631224,0.108996365317358,-0.1998293073128226,205.009,9126.688510607357,11112.197839541188,150,True,11.70215189625138,False,28.33623577035,170.37488738035137,False,161.23827582875893,False,False
1,1970-07-23 11:27:25.925437420,2025-09-16,2025-09-26 17:43:12.543,AA,D,2378759672,JASSM,3,122,76,2,2,1,225,9,2,0,1,26,0,0,0,0,-137074.50232108062,-4806720.187837447,4180721.752592564,2.70575,2.13789,-0.757403,-35.0,55.125,61.75,0.0,0.0,0.0,0.0,0.0,0.0,2,0,41.19465763296573,-91.63347609237096,10000.000306436545,-24.056744729653563,-0.0070579701108953,-0.0018141273727866,,9126.688510607357,11112.197839541188,150,1,2025-09-16,2025-09-26 17:43:12.544,AA,D,2770977920,AMBUSH51,1,1,48,2,1,1,225,2,1,0,0,9,1,225,2,1,-148790.05736426593,-4794272.299525834,4194119.931315911,2.36719,2.69472,-0.429507,-99.2296,54.0634,58.6506,-0.228929,-7.14353,6.52345,-0.0206073,-0.00994836,0.00305327,4,0,41.35708486962895,-91.77760176107677,9178.677666617306,-56.27251785394535,-0.0300290242849464,-1.0057270821871218,205.29,9126.688510607357,11112.197839541188,150,True,11.718333305715975,False,28.294373117107895,170.22442671203996,False,161.4375259966683,False,False
1,1970-07-23 11:27:25.936478249,2025-09-16,2025-09-26 17:43:13.647,AA,D,2380071712,JASSM,3,122,76,2,2,1,225,9,2,0,1,26,0,0,0,0,-137113.11169608062,-4806659.566865767,4180789.72567606,2.70575,2.13789,-0.757403,-35.0,55.125,61.75,0.0,0.0,0.0,0.0,0.0,0.0,2,0,41.19547063234248,-91.63395653525956,10000.00033573593,-24.05706116102824,-0.0061682157809794,-0.0018154230274649,,9126.688510607357,11112.197839541188,150,1,2025-09-16,2025-09-26 17:43:13.510,AA,D,2772131152,AMBUSH51,1,1,48,2,1,1,225,2,1,0,0,9,1,225,2,1,-148887.08493736095,-4794219.508889001,4194176.961521033,2.34769,2.69765,-0.432646,-99.4001,53.8151,58.6546,-0.12632,-7.67026,6.8988,-0.017709,0.00225016,0.00229802,4,0,41.357766020592926,-91.77877978348036,9179.78387699839,-56.26039891502458,0.2063736886120267,-2.0525715271561022,205.474,9126.688510607357,11112.197839541188,150,True,11.729237449308226,False,28.397905443889936,170.07617986768386,False,161.4789988521248,False,False
1,1970-07-23 11:27:25.947338380,2025-09-16,2025-09-26 17:43:14.733,AA,D,2381388416,JASSM,3,122,76,2,2,1,225,9,2,0,1,26,0,0,0,0,-137151.85778983062,-4806598.729219283,4180857.9394211774,2.70575,2.13789,-0.757403,-35.0,55.125,61.75,0.0,0.0,0.0,0.0,0.0,0.0,2,0,41.19628652015354,-91.63443869206884,10000.000390325857,-24.05737872640976,-0.0052753000218476,-0.0018167275396712,,9126.688510607357,11112.197839541188,150,1,2025-09-16,2025-09-26 17:43:14.776,AA,D,2773642284,AMBUSH51,1,1,48,2,1,1,225,2,1,0,0,9,1,225,2,1,-149013.28498694353,-4794150.984369066,4194251.311505016,2.3389,2.70035,-0.425383,-99.5705,53.6252,58.5212,-0.227147,-7.32032,6.47345,-0.0152788,0.00241661,-0.00607638,4,0,41.35865229612595,-91.78031197738248,9181.949829941706,-56.64994809274185,0.0027720409309179,-2.4929165194924066,205.694,9126.688510607357,11112.197839541188,150,True,11.75918305170794,False,28.52482104345788,169.89736908166495,False,161.53043682018955,False,False
1,1970-07-23 11:27:25.958741811,2025-09-16,2025-09-26 17:43:15.874,AA,D,2382696656,JASSM,3,122,76,2,2,1,225,9,2,0,1,26,0,0,0,0,-137190.35388358062,-4806538.281587447,4180925.7135910993,2.70575,2.13789,-0.757403,-35.0,55.125,61.75,0.0,0.0,0.0,0.0,0.0,0.0,2,0,41.19709716027221,-91.63491775059252,10000.000443965517,-24.05769425628786,-0.0043881283363064,-0.0018180306674089,,9126.688510607357,11112.197839541188,150,1,2025-09-16,2025-09-26 17:43:15.810,AA,D,2774875048,AMBUSH51,1,1,48,2,1,1,225,2,1,0,0,9,1,225,2,1,-149115.05264314543,-4794096.035865329,4194310.7977861045,2.35234,2.70454,-0.423334,-99.6319,53.5488,58.1923,-0.098035,-7.40596,6.33668,0.0219971,-0.00622618,-0.0107806,4,0,41.3593619609695,-91.78154745282755,9183.45050869126,-56.88994380335005,0.069314550461901,-1.6242360181188156,205.73,9126.688510607357,11112.197839541188,150,True,11.773286485046556,False,28.64756504160335,169.74436971377924,False,161.56422157741468,False,False
1,1970-07-23 11:27:25.970363956,2025-09-16,2025-09-26 17:43:17.036,AA,D,2384068366,JASSM,3,122,76,2,2,1,225,9,2,0,1,26,0,0,0,0,-137230.71716483062,-4806474.89987358,4180996.774870396,2.70585,2.13789,-0.757403,-35.0,55.125,61.75,0.0,0.0,0.0,0.0,0.0,0.0,2,0,41.1979471286275,-91.63542005846806,10000.000171736983,-24.05802510475223,-0.0034579150490444,0.0036720708167737,,9126.688510607357,11112.197839541188,150,1,2025-09-16,2025-09-26 17:43:16.910,AA,D,2776187348,AMBUSH51,1,1,48,2,1,1,225,2,1,0,0,9,1,225,2,1,-149225.48138273222,-4794036.849848753,4194375.061286451,2.39606,2.70663,-0.425284,-99.6771,53.1959,58.351,-0.315932,-7.6016,6.68856,0.0541319,0.00862302,-0.0069315,4,0,41.36012747008493,-91.7828879422177,9185.5503246887,-56.892824957646,0.2268269722988671,0.9300567835948826,205.584,9126.688510607357,11112.197839541188,150,True,11.790373878721333,False,28.698971178804143,169.57976167796036,False,161.67049313316468,False,False
1,1970-07-23 11:27:25.982339803,2025-09-16,2025-09-26 17:43:18.233,AA,D,2385379170,JASSM,3,122,76,2,2,1,225,9,2,0,1,26,0,0,0,0,-137269.28943045562,-4806414.331514205,4181064.679777623,2.70585,2.13789,-0.757403,-35.0,55.125,61.75,0.0,0.0,0.0,0.0,0.0,0.0,2,0,41.198759352263615,-91.635900089557,10000.000475183768,-24.05834128572174,-0.0025690028228802,0.0036707719992195,,9126.688510607357,11112.197839541188,150,1,2025-09-16,2025-09-26 17:43:18.244,AA,D,2777778012,AMBUSH51,1,1,48,2,1,1,225,2,1,0,0,9,1,225,2,1,-149357.91091002902,-4793965.24885457,4194453.003296311,2.45716,2.70167,-0.428189,-99.1221,53.6549,58.6862,-0.22783,-7.48477,6.40295,0.0336068,0.00819234,0.0074995,4,0,41.3610550887789,-91.78449577110024,9188.44532559249,-56.59195559694963,0.1707109961738556,4.3140958482260015,205.376,9126.688510607357,11112.197839541188,150,True,11.824852849497915,False,28.347895807421324,169.39662036683765,False,162.20756839485227,False,False
1,1970-07-23 11:27:25.991421171,2025-09-16,2025-09-26 17:43:19.142,AA,D,2386693476,JASSM,3,122,76,2,2,1,225,9,2,0,1,26,0,0,0,0,-137307.96521170562,-4806353.599946822,4181132.7652268414,2.70585,2.13789,-0.757307,-35.0,55.125,61.75,0.0,0.0,0.0,0.0,0.0,0.0,2,0,41.199573745980935,-91.63638142103768,10000.000538154987,-24.06097652686516,-0.0066558865056857,0.0036696415342114,,9126.688510607357,11112.197839541188,150,1,2025-09-16,2025-09-26 17:43:19.276,AA,D,2779010778,AMBUSH51,1,1,48,2,1,1,225,2,1,0,0,9,1,225,2,1,-149459.31630470633,-4793909.812735226,4194513.396880028,2.47468,2.69349,-0.432493,-98.5088,53.9711,59.3265,-0.27205,-7.28456,6.5517,0.00611799,-0.000167488,0.00418512,4,0,41.36177380264847,-91.78572719280244,9190.714557620187,-56.11387211491152,0.0580649135488348,5.123159437831825,205.266,9126.688510607357,11112.197839541188,150,True,11.839329845872811,False,27.931621636457287,169.24710346705191,False,162.7693539858265,False,False
1,1970-07-23 11:27:26.002438794,2025-09-16,2025-09-26 17:43:20.243,AA,D,2388003456,JASSM,3,122,76,2,2,1,225,9,2,0,1,26,0,0,0,0,-137346.51208670562,-4806293.067109908,4181200.6254563336,2.70585,2.13779,-0.757307,-35.0,55.125,61.75,0.0,0.0,0.0,0.0,0.0,0.0,2,0,41.2003854566341,-91.6368611613707,10000.000226699683,-24.05767488865708,-0.0074520246652332,-0.0001045798274237,,9126.688510607357,11112.197839541188,150,1,2025-09-16,2025-09-26 17:43:20.411,AA,D,2780362842,AMBUSH51,1,1,48,2,1,1,225,2,1,0,0,9,1,225,2,1,-149571.26610722995,-4793848.09748408,4194580.642061053,2.38609,2.68638,-0.440778,-98.0182,54.176,59.5322,-0.00865874,-7.47837,6.33082,-0.0865205,-0.00165095,0.0156866,4,0,41.36257415648928,-91.78708688399333,9193.202526784682,-55.52052983442596,0.152094437179812,-0.123969893123025,205.046,9126.688510607357,11112.197839541188,150,True,11.861390498332824,False,27.690240274946095,169.08878532641208,False,163.16961081575295,False,False
1,1970-07-23 11:27:26.013478160,2025-09-16,2025-09-26 17:43:21.347,AA,D,2389256468,JASSM,3,122,76,2,2,1,225,9,2,0,1,26,0,0,0,0,-137383.38318045562,-4806235.1657427205,4181265.533781529,2.70585,2.13779,-0.757307,-35.0,55.125,61.75,0.0,0.0,0.0,0.0,0.0,0.0,2,0,41.201161865957424,-91.63732005667794,10000.000518682156,-24.057977162671055,-0.0066023040258997,-0.0001058065879735,,9126.688510607357,11112.197839541188,150,1,2025-09-16,2025-09-26 17:43:21.310,AA,D,2781436542,AMBUSH51,1,1,48,2,1,1,225,2,1,0,0,9,1,225,2,1,-149658.68352987198,-4793799.704234917,4194633.409317751,2.32701,2.68855,-0.443027,-97.9592,54.1239,59.2188,0.18105,-7.44469,6.24931,-0.0378845,-0.00097892,-0.00898505,4,0,41.36320205583533,-91.78814871438227,9195.21468331308,-55.51506580026878,0.3240547073967776,-3.455771291392501,205.083,9126.688510607357,11112.197839541188,150,True,11.869628343943502,False,27.768177452721925,168.95743338837474,False,163.2270944494695,False,False
1,1970-07-23 11:27:26.024342096,2025-09-16,2025-09-26 17:43:22.434,AA,D,2390569340,JASSM,3,122,76,2,2,1,225,9,2,0,1,26,0,0,0,0,-137422.01599295562,-4806174.497163619,4181333.5417160993,2.70585,2.13779,-0.757307,-35.0,55.125,61.75,0.0,0.0,0.0,0.0,0.0,0.0,2,0,41.20197536251551,-91.63780089008571,10000.00037164135,-24.058293892335776,-0.0057119905952393,-0.0001070885690918,,9126.688510607357,11112.197839541188,150,1,2025-09-16,2025-09-26 17:43:22.310,AA,D,2782629540,AMBUSH51,1,1,48,2,1,1,225,2,1,0,0,9,1,225,2,1,-149757.85305116142,-4793745.193630442,4194692.773590087,2.29024,2.68895,-0.432059,-98.4273,53.805,58.8032,-0.119339,-7.21588,6.26466,-0.0214728,-0.00073341,-0.00237292,4,0,41.363908690375446,-91.7893531731685,9197.384186260775,-55.96136972153191,-0.1185205705505855,-5.553474586720354,204.838,9126.688510607357,11112.197839541188,150,True,11.883106207863392,False,28.085408670822236,168.81182805738635,False,163.05671641205473,False,False
1,1970-07-23 11:27:26.036337488,2025-09-16,2025-09-26 17:43:23.633,AA,D,2391940926,JASSM,3,122,76,2,2,1,225,9,2,0,1,26,0,0,0,0,-137462.37536795562,-4806111.114045943,4181404.590178013,2.70585,2.13779,-0.757307,-35.0,55.125,61.75,0.0,0.0,0.0,0.0,0.0,0.0,2,0,41.20282523975751,-91.63830322650767,10000.000276241894,-24.058624791752663,-0.0047818632487,-0.0001084378797584,,9126.688510607357,11112.197839541188,150,1,2025-09-16,2025-09-26 17:43:23.710,AA,D,2784299738,AMBUSH51,1,1,48,2,1,1,225,2,1,0,0,9,1,225,2,1,-149895.8386640266,-4793670.020530509,4194774.168760425,2.27498,2.69426,-0.42462,-99.0161,53.3369,57.7934,-0.154162,-7.00245,6.21572,0.00462412,-0.0127759,-0.0154099,4,0,41.36487974493748,-91.79102886241988,9199.462056924363,-56.45598046687025,-0.2375636932977267,-6.300067819701718,204.802,9126.688510607357,11112.197839541188,150,True,11.919559981785792,False,28.63074571437011,168.62523420109443,False,162.70522422739378,False,False
1,1970-07-23 11:27:26.046378231,2025-09-16,2025-09-26 17:43:24.637,AA,D,2393194020,JASSM,3,122,76,2,2,1,225,9,2,0,1,26,0,0,0,0,-137499.24841483062,-4806053.2055986775,4181469.499723912,2.70585,2.13779,-0.757307,-35.0,55.125,61.75,0.0,0.0,0.0,0.0,0.0,0.0,2,0,41.20360169289617,-91.63876218157932,10000.000319517228,-24.05892711989479,-0.0039320895371613,-0.0001096672850785,,9126.688510607357,11112.197839541188,150,1,2025-09-16,2025-09-26 17:43:24.710,AA,D,2785492738,AMBUSH51,1,1,48,2,1,1,225,2,1,0,0,9,1,225,2,1,-149994.57918747517,-4793616.878869778,4194831.024029649,2.29277,2.69779,-0.415917,-99.5678,53.3527,56.8914,-0.0391901,-7.45379,6.51595,0.0903904,0.00237916,-0.00430579,4,0,41.36556134294177,-91.792227748684,9199.547674673318,-56.93357449734244,-0.4718834355742189,-5.195410656723943,204.802,9126.688510607357,11112.197839541188,150,True,11.934229409153415,False,29.02745674217977,168.47962249317584,False,162.46527863618826,False,False
1,1970-07-23 11:27:26.057409240,2025-09-16,2025-09-26 17:43:25.740,AA,D,2394506148,JASSM,3,122,76,2,2,1,225,9,2,0,1,26,0,0,0,0,-137537.85974295562,-4805992.56784233,4181537.466276646,2.70585,2.13779,-0.757307,-35.0,55.125,61.75,0.0,0.0,0.0,0.0,0.0,0.0,2,0,41.20441472385684,-91.6392427842755,10000.00040549957,-24.05924371304387,-0.0030422775397917,-0.0001109450276369,,9126.688510607357,11112.197839541188,150,1,2025-09-16,2025-09-26 17:43:25.643,AA,D,2786606204,AMBUSH51,1,1,48,2,1,1,225,2,1,0,0,9,1,225,2,1,-150088.0608873636,-4793566.666763008,4194884.456914342,2.39811,2.70569,-0.411987,-99.714,53.2287,56.815,-0.235926,-7.37712,6.59395,0.0755745,0.00134302,-0.0105517,4,0,41.366203374366194,-91.79336276937056,9199.02557298464,-57.38979342869299,-0.3487157557561896,1.025305363846711,204.912,9126.688510607357,11112.197839541188,150,True,11.943011562345815,False,29.117504073136626,168.33658743114685,False,162.5176713546233,False,False
1,1970-07-23 11:27:26.068419473,2025-09-16,2025-09-26 17:43:26.841,AA,D,2395817912,JASSM,3,122,76,2,2,1,225,9,2,0,1,26,0,0,0,0,-137576.45935233062,-4805931.945772017,4181605.41293192,2.70585,2.13779,-0.757211,-35.0,55.125,61.75,0.0,0.0,0.0,0.0,0.0,0.0,2,0,41.20522752699333,-91.63972325392454,10000.000403345428,-24.061879535067483,-0.0071341397133476,-0.0001120423465533,,9126.688510607357,11112.197839541188,150,1,2025-09-16,2025-09-26 17:43:26.776,AA,D,2787958268,AMBUSH51,1,1,48,2,1,1,225,2,1,0,0,9,1,225,2,1,-150200.37493774435,-4793506.538699934,4194948.465386102,2.46363,2.69989,-0.418703,-99.5082,53.3166,57.3903,-0.188343,-7.31825,6.67991,0.0564601,-0.00432452,0.0129569,4,0,41.36697227038609,-91.7947264005157,9198.489700786822,-56.905289617416514,-0.2779612280807841,4.642397454003005,204.985,9126.688510607357,11112.197839541188,150,True,11.964091969519567,False,28.88281980686993,168.17514382649568,False,162.90837476578102,False,False
1,1970-07-23 11:27:26.078418832,2025-09-16,2025-09-26 17:43:27.841,AA,D,2397071520,JASSM,3,122,76,2,2,1,225,9,2,0,1,26,0,0,0,0,-137613.34802420562,-4805874.010225142,4181670.346281529,2.70585,2.13779,-0.757211,-35.0,55.125,61.75,0.0,0.0,0.0,0.0,0.0,0.0,2,0,41.20600429327829,-91.64018243793888,10000.000358218447,-24.06218202845331,-0.0062840150777636,-0.0001133020007445,,9126.688510607357,11112.197839541188,150,1,2025-09-16,2025-09-26 17:43:27.776,AA,D,2789151268,AMBUSH51,1,1,48,2,1,1,225,2,1,0,0,9,1,225,2,1,-150300.2662969173,-4793452.187840156,4195006.513896456,2.4752,2.69285,-0.420384,-99.0383,54.1631,57.9018,-0.129653,-7.33889,6.5174,-0.0219076,0.00193391,0.0106662,4,0,41.367668863627664,-91.79593955890266,9198.30056189822,-56.57220615795961,-0.4600559086500929,5.138926900271394,205.229,9126.688510607357,11112.197839541188,150,True,11.980084804250321,False,28.419411389742663,168.03064589328667,False,163.52172156344778,False,False
1,1970-07-23 11:27:26.090317637,2025-09-16,2025-09-26 17:43:29.031,AA,D,2398384778,JASSM,3,122,76,2,2,1,225,9,2,0,1,26,0,0,0,0,-137651.99255545562,-4805813.3169268025,4181738.368254185,2.70585,2.13779,-0.757211,-35.0,55.125,61.75,0.0,0.0,0.0,0.0,0.0,0.0,2,0,41.20681801675799,-91.64066349027388,10000.000430402062,-24.062498932921045,-0.0053934382997246,-0.000114615894276,,9126.688510607357,11112.197839541188,150,1,2025-09-16,2025-09-26 17:43:28.976,AA,D,2790582866,AMBUSH51,1,1,48,2,1,1,225,2,1,0,0,9,1,225,2,1,-150417.62291682718,-4793387.211383183,4195075.969710586,2.43312,2.68437,-0.431834,-98.4312,54.4388,58.6917,-0.15435,-7.34208,6.56622,-0.0703106,0.00500695,0.0063531,4,0,41.368502406258806,-91.79736528281408,9198.053618250808,-55.801621223288535,-0.2834670568958268,2.521633243228349,205.303,9126.688510607357,11112.197839541188,150,True,12.006070316025768,False,27.97215723382517,167.87034693017347,False,164.12353703223698,False,False
1,1970-07-23 11:27:26.101555561,2025-09-16,2025-09-26 17:43:30.155,AA,D,2399695846,JASSM,3,122,76,2,2,1,225,9,2,0,1,26,0,0,0,0,-137690.57068045562,-4805752.723634566,4181806.275846959,2.70585,2.13779,-0.757211,-35.0,55.125,61.75,0.0,0.0,0.0,0.0,0.0,0.0,2,0,41.20763038222557,-91.64114372932724,10000.000379237374,-24.06281530676644,-0.004504352839646,-0.0001159437933629,,9126.688510607357,11112.197839541188,150,1,2025-09-16,2025-09-26 17:43:30.043,AA,D,2791855398,AMBUSH51,1,1,48,2,1,1,225,2,1,0,0,9,1,225,2,1,-150523.0879416856,-4793328.480297502,4195138.793158414,2.38219,2.6816,-0.431825,-98.2736,54.6688,58.7954,-0.183808,-7.29767,6.45535,-0.0225984,-0.00662982,-0.00996501,4,0,41.369256223936965,-91.79864669801206,9197.88767190447,-55.69727706528858,-0.3813003616342415,-0.4637317863746306,205.449,9126.688510607357,11112.197839541188,150,True,12.024527671051475,False,27.84762358588464,167.72228839529737,False,164.3982703955842,False,False
1,1970-07-23 11:27:26.109404611,2025-09-16,2025-09-26 17:43:30.940,AA,D,2400769588,JASSM,3,122,76,2,2,1,225,9,2,0,1,26,0,0,0,0,-137722.16638358062,-4805703.097932662,4181861.890104771,2.70585,2.13779,-0.757211,-35.0,55.125,61.75,0.0,0.0,0.0,0.0,0.0,0.0,2,0,41.2082956927647,-91.64153705649694,10000.000151839437,-24.06307442827783,-0.0037762050439985,-0.0001170233882975,,9126.688510607357,11112.197839541188,150,1,2025-09-16,2025-09-26 17:43:31.009,AA,D,2793008630,AMBUSH51,1,1,48,2,1,1,225,2,1,0,0,9,1,225,2,1,-150616.96572659584,-4793276.152240859,4195194.851087999,2.36756,2.68186,-0.434373,-98.1674,54.5912,58.6436,-0.105234,-7.27112,6.37919,-0.00813408,-0.0103686,-0.00910988,4,0,41.36992842797503,-91.79978737011042,9197.922375969953,-55.608397583611286,-0.2641387409291245,-1.2958976874303836,205.303,9126.688510607357,11112.197839541188,150,True,12.044794431032626,False,27.875500461354935,167.5949527396978,False,164.4987533572774,False,False
1,1970-07-23 11:27:26.120435388,2025-09-16,2025-09-26 17:43:32.043,AA,D,2402022508,JASSM,3,122,76,2,2,1,225,9,2,0,1,26,0,0,0,0,-137759.03552420562,-4805645.19006523,4181926.78414774,2.70585,2.1377,-0.757211,-35.0,55.125,61.75,0.0,0.0,0.0,0.0,0.0,0.0,2,0,41.20907202453008,-91.64199604128731,10000.000230778804,-24.05975873188449,-0.004610947583556,-0.0038905911075637,,9126.688510607357,11112.197839541188,150,1,2025-09-16,2025-09-26 17:43:31.910,AA,D,2794082328,AMBUSH51,1,1,48,2,1,1,225,2,1,0,0,9,1,225,2,1,-150705.38500636612,-4793226.98329444,4195247.42339753,2.37051,2.68213,-0.433957,-98.2597,54.5421,58.5421,-0.179609,-7.38236,6.48648,0.0144965,0.00273702,-0.00871873,4,0,41.37055931635196,-91.80086169578328,9197.758312276368,-55.63576680472064,-0.2708103907339025,-1.1204679796064538,205.278,9126.688510607357,11112.197839541188,150,True,12.054221803159693,False,27.940198025617715,167.4649442862214,False,164.56472372899918,False,False
1,1970-07-23 11:27:26.131455070,2025-09-16,2025-09-26 17:43:33.145,AA,D,2403334886,JASSM,3,122,76,2,2,1,225,9,2,0,1,26,0,0,0,0,-137797.65271170562,-4805584.533021773,4181994.75680399,2.70585,2.1377,-0.757211,-35.0,55.125,61.75,0.0,0.0,0.0,0.0,0.0,0.0,2,0,41.20988519585704,-91.64247680043106,10000.000254981582,-24.06007546261092,-0.0037209717738152,-0.0038918591240997,,9126.688510607357,11112.197839541188,150,1,2025-09-16,2025-09-26 17:43:33.009,AA,D,2795394628,AMBUSH51,1,1,48,2,1,1,225,2,1,0,0,9,1,225,2,1,-150813.15815298542,-4793166.886296062,4195311.584504292,2.38638,2.6826,-0.431748,-98.1731,54.6353,58.4227,-0.183937,-7.42522,6.38871,0.00717077,0.00205043,-0.0094407,4,0,41.371329818770576,-91.80217126812774,9197.336352239328,-55.7407942373989,-0.3455045348232535,-0.1991161127267232,205.242,9126.688510607357,11112.197839541188,150,True,12.074407665652906,False,27.926737496904057,167.3160621605635,False,164.73003513381545,False,False
1,1970-07-23 11:27:26.142496997,2025-09-16,2025-09-26 17:43:34.249,AA,D,2404646986,JASSM,3,122,76,2,2,1,225,9,2,0,1,26,0,0,0,0,-137836.26208670562,-4805523.887636031,4182062.714079381,2.70594,2.1377,-0.757115,-35.0,55.125,61.75,0.0,0.0,0.0,0.0,0.0,0.0,2,0,41.210698193156176,-91.6429574744255,10000.000284076246,-24.06270968378339,-0.0078096632874599,0.0015985635913355,,9126.688510607357,11112.197839541188,150,1,2025-09-16,2025-09-26 17:43:34.309,AA,D,2796945526,AMBUSH51,1,1,48,2,1,1,225,2,1,0,0,9,1,225,2,1,-150940.4925373571,-4793095.748073297,4195387.37902108,2.38955,2.68268,-0.434224,-98.0206,54.6641,58.522,-0.138111,-7.2914,6.52247,-0.0143821,0.000161246,0.00709587,4,0,41.372240862549056,-91.80371862291165,9196.496186855884,-55.64809436340066,-0.2374077692087871,-0.0165152182910622,205.168,9126.688510607357,11112.197839541188,150,True,12.107867829546645,False,27.849898434375273,167.1510699400415,False,164.97121791486182,False,False
1,1970-07-23 11:27:26.153334994,2025-09-16,2025-09-26 17:43:35.333,AA,D,2405959460,JASSM,3,122,76,2,2,1,225,9,2,0,1,26,0,0,0,0,-137874.88318045562,-4805463.223893966,4182130.689665318,2.70594,2.1377,-0.757115,-35.0,55.125,61.75,0.0,0.0,0.0,0.0,0.0,0.0,2,0,41.21151141911324,-91.64343830620354,10000.000475342657,-24.06302647255486,-0.0069196190473884,0.0015972691472496,,9126.688510607357,11112.197839541188,150,1,2025-09-16,2025-09-26 17:43:35.310,AA,D,2798138524,AMBUSH51,1,1,48,2,1,1,225,2,1,0,0,9,1,225,2,1,-151039.3113369464,-4793040.507937219,4195446.099525644,2.37632,2.68429,-0.431455,-98.0623,54.7109,58.5255,-0.170812,-7.36915,6.47726,-0.0181667,0.00870001,-0.00486755,4,0,41.37294738736808,-91.80491950132232,9195.555352972702,-55.81818508599705,-0.2951956074818656,-0.735024227503638,205.132,9126.688510607357,11112.197839541188,150,True,12.122203370467359,False,27.850389310420226,167.0109046598364,False,165.11154256210426,False,False
1,1970-07-23 11:27:26.164356391,2025-09-16,2025-09-26 17:43:36.435,AA,D,2407213816,JASSM,3,122,76,2,2,1,225,9,2,0,1,26,0,0,0,0,-137911.79333670562,-4805405.245309676,4182195.654264928,2.70594,2.1377,-0.757115,-35.0,55.125,61.75,0.0,0.0,0.0,0.0,0.0,0.0,2,0,41.21228863274147,-91.64389784875608,10000.000546545443,-24.063329240057143,-0.0060689895214147,0.0015960260569649,,9126.688510607357,11112.197839541188,150,1,2025-09-16,2025-09-26 17:43:36.410,AA,D,2799450822,AMBUSH51,1,1,48,2,1,1,225,2,1,0,0,9,1,225,2,1,-151146.80497634594,-4792980.552165644,4195509.822340099,2.35953,2.68359,-0.428716,-98.2452,54.7017,58.3998,-0.170871,-7.32847,6.47375,-0.00258098,-0.00308448,-0.0150666,4,0,41.37371409597896,-91.80622577853023,9194.539598668443,-55.89986265785999,-0.4331959493535807,-1.713494100141325,205.095,9126.688510607357,11112.197839541188,150,True,12.144666688195397,False,27.938617402179002,166.8660383093894,False,165.16966075055274,False,False
1,1970-07-23 11:27:26.175390204,2025-09-16,2025-09-26 17:43:37.539,AA,D,2408583816,JASSM,3,122,76,2,2,1,225,9,2,0,1,26,0,0,0,0,-137952.10583670562,-4805341.920228804,4182266.6071457863,2.70594,2.1377,-0.757115,-35.0,55.125,61.75,0.0,0.0,0.0,0.0,0.0,0.0,2,0,41.21313749869563,-91.64439976465304,10000.000538924978,-24.06365993042159,-0.0051399389761747,0.0015946641125805,,9126.688510607357,11112.197839541188,150,1,2025-09-16,2025-09-26 17:43:37.510,AA,D,2800763122,AMBUSH51,1,1,48,2,1,1,225,2,1,0,0,9,1,225,2,1,-151254.94536081702,-4792920.267420655,4195573.740713134,2.34889,2.68411,-0.421918,-98.4375,54.8326,58.0314,-0.0973921,-7.03041,6.20667,0.00765971,0.00070012,0.00705842,4,0,41.37448394516649,-91.80753993418472,9193.198508986246,-56.18649458257303,-0.6980498815999142,-2.308173322960573,204.851,9126.688510607357,11112.197839541188,150,True,12.162988194603594,False,28.064025756860627,166.7158376448066,False,165.20046394132874,False,False
1,1970-07-23 11:27:26.185934750,2025-09-16,2025-09-26 17:43:38.593,AA,D,2409836944,JASSM,3,122,76,2,2,1,225,9,2,0,1,26,0,0,0,0,-137988.97888358062,-4805283.996217574,4182331.506071568,2.70594,2.1377,-0.757115,-35.0,55.125,61.75,0.0,0.0,0.0,0.0,0.0,0.0,2,0,41.21391394647597,-91.64485886918492,10000.0002872051,-24.063962419173414,-0.0042901466134174,0.001593415184619,,9126.688510607357,11112.197839541188,150,1,2025-09-16,2025-09-26 17:43:38.610,AA,D,2802075420,AMBUSH51,1,1,48,2,1,1,225,2,1,0,0,9,1,225,2,1,-151364.03894475626,-4792859.688909609,4195637.598355478,2.36779,2.68335,-0.413251,-98.6807,54.769,57.8033,-0.202093,-6.52634,5.66534,0.0146401,-0.0315741,-0.00491332,4,0,41.37525493692447,-91.80886561536876,9191.08690387156,-56.49790381145017,-1.086313623981355,-1.2381096783468286,205.205,9126.688510607357,11112.197839541188,150,True,12.186393931133155,False,28.209333369904908,166.56949630650385,False,165.20314554523557,False,False
1,1970-07-23 11:27:26.196415684,2025-09-16,2025-09-26 17:43:39.641,AA,D,2411148856,JASSM,3,122,76,2,2,1,225,9,2,0,1,26,0,0,0,0,-138027.58435233062,-4805223.353814925,4182399.448454381,2.70594,2.1377,-0.757115,-35.0,55.125,61.75,0.0,0.0,0.0,0.0,0.0,0.0,2,0,41.2147268154156,-91.64533955459956,10000.000183250186,-24.06427913188977,-0.0034004805355844,0.0015921300906712,,9126.688510607357,11112.197839541188,150,1,2025-09-16,2025-09-26 17:43:39.776,AA,D,2803467252,AMBUSH51,1,1,48,2,1,1,225,2,1,0,0,9,1,225,2,1,-151478.28118737356,-4792794.864813239,4195703.385463724,2.29387,2.6726,-0.400309,-98.6484,56.1757,56.0788,-0.150879,-6.81864,5.57212,-0.13421,0.0112113,0.0117127,4,0,41.37606322120383,-91.8102544191338,9183.123108453772,-56.59048022477712,-2.0130944991998603,-5.714577716129121,204.741,9126.688510607357,11112.197839541188,150,True,12.21106072349513,False,28.37379019939557,166.4167095360811,False,165.2094659226545,False,False
1,1970-07-23 11:27:26.207964336,2025-09-16,2025-09-26 17:43:40.796,AA,D,2412461668,JASSM,3,122,76,2,2,1,225,9,2,0,1,26,0,0,0,0,-138066.21325858062,-4805162.668687667,4182467.4367356314,2.70594,2.1377,-0.757115,-35.0,55.125,61.75,0.0,0.0,0.0,0.0,0.0,0.0,2,0,41.21554024223328,-91.6458205457743,10000.00060000483,-24.0645960512182,-0.0025102131184316,0.0015908185055629,,9126.688510607357,11112.197839541188,150,1,2025-09-16,2025-09-26 17:43:40.843,AA,D,2804739784,AMBUSH51,1,1,48,2,1,1,225,2,1,0,0,9,1,225,2,1,-151584.65140791718,-4792734.563479933,4195762.880878514,2.11459,2.67666,-0.397619,-99.4759,55.7638,54.5533,-0.0568534,-7.20882,5.63761,-0.160026,-0.00477392,-0.0261208,4,0,41.37680358585074,-91.81154753614724,9172.042078563456,-56.85317407707777,-1.979120678636363,-15.88746380384021,205.058,9126.688510607357,11112.197839541188,150,False,12.22991335824726,False,29.12896189477134,166.26864303647628,False,164.6015668547055,False,False
1,1970-07-23 11:27:26.219965933,2025-09-16,2025-09-26 17:43:41.996,AA,D,2413832914,JASSM,3,122,76,2,2,1,225,9,2,0,1,26,0,0,0,0,-138106.56286795562,-4805099.281221236,4182538.449675084,2.70594,2.1377,-0.75702,-35.0,55.125,61.75,0.0,0.0,0.0,0.0,0.0,0.0,2,0,41.21638986940211,-91.64632297486868,10000.000205103268,-24.06724608311268,-0.0065618946777537,0.0015896257423988,,9126.688510607357,11112.197839541188,150,1,2025-09-16,2025-09-26 17:43:42.010,AA,D,2806131616,AMBUSH51,1,1,48,2,1,1,225,2,1,0,0,9,1,225,2,1,-151701.8302712802,-4792669.60223631,4195825.0899491655,1.93189,2.68864,-0.361548,-101.153,55.0411,51.2806,-0.160182,-6.98756,5.63765,-0.121597,-0.0119582,-0.0350424,4,0,41.37758793776064,-91.81297153198337,9156.231217069257,-58.73420599520694,-3.050309467078067,-26.018216616346763,205.058,9126.688510607357,11112.197839541188,150,False,12.252245104839945,False,30.703370621956385,166.1040391609527,False,163.18186031562948,False,False
1,1970-07-23 11:27:26.231165390,2025-09-16,2025-09-26 17:43:43.116,AA,D,2415086930,JASSM,3,122,76,2,2,1,225,9,2,0,1,26,0,0,0,0,-138143.46325858062,-4805041.311708297,4182603.390837193,2.70594,2.1376,-0.75702,-35.0,55.125,61.75,0.0,0.0,0.0,0.0,0.0,0.0,2,0,41.21716686007472,-91.64678246624833,10000.000209380996,-24.063930002299177,-0.0073959639095729,-0.002183374245985,,9126.688510607357,11112.197839541188,150,1,2025-09-16,2025-09-26 17:43:43.076,AA,D,2807404148,AMBUSH51,1,1,48,2,1,1,225,2,1,0,0,9,1,225,2,1,-151809.8305603028,-4792611.88066956,4195877.212348484,1.84385,2.70635,-0.323339,-103.182,54.1736,47.3172,0.121417,-7.33268,5.55284,-0.0763443,0.00224184,-0.0457429,4,0,41.37826283384644,-91.8142832051424,9135.654729301868,-60.94008394094178,-3.977918832826305,-30.58678117641651,206.207,9126.688510607357,11112.197839541188,150,False,12.271012820881367,False,32.632307665854235,165.94491156515113,False,161.3894100213211,False,False
1,1970-07-23 11:27:26.242335921,2025-09-16,2025-09-26 17:43:44.233,AA,D,2416398116,JASSM,3,122,76,2,2,1,225,9,2,0,1,26,0,0,0,0,-138182.04528983062,-4804980.698274459,4182671.2917160993,2.70594,2.1376,-0.75702,-35.0,55.125,61.75,0.0,0.0,0.0,0.0,0.0,0.0,2,0,41.217979271818685,-91.64726291012114,10000.000345287486,-24.06424657631694,-0.0065067967093446,-0.0021846547280217,,9126.688510607357,11112.197839541188,150,1,2025-09-16,2025-09-26 17:43:44.176,AA,D,2808716446,AMBUSH51,1,1,48,2,1,1,225,2,1,0,0,9,1,225,2,1,-151925.9910092664,-4792552.963545825,4195927.205827726,1.75636,2.72748,-0.274401,-106.061,52.0431,42.6119,-0.0787446,-7.17549,5.5115,-0.08181,0.00305951,-0.0299179,4,0,41.37892891014829,-91.81569281876956,9108.164969404012,-63.7309189265928,-5.1874290615927015,-35.02007635686683,204.997,9126.688510607357,11112.197839541188,150,False,12.289934252956416,False,35.2954818943619,165.7656695472443,False,158.8906671695564,False,False
1,1970-07-23 11:27:26.252374754,2025-09-16,2025-09-26 17:43:45.237,AA,D,2417710702,JASSM,3,122,76,2,2,1,225,9,2,0,1,26,0,0,0,0,-138220.66833670562,-4804920.019014205,4182739.263884068,2.70594,2.1376,-0.75702,-35.0,55.125,61.75,0.0,0.0,0.0,0.0,0.0,0.0,2,0,41.218792547276216,-91.64774387712724,10000.00016025434,-24.064563500190072,-0.0056166822454134,-0.0021859371147284,,9126.688510607357,11112.197839541188,150,1,2025-09-16,2025-09-26 17:43:45.243,AA,D,2809988978,AMBUSH51,1,1,48,2,1,1,225,2,1,0,0,9,1,225,2,1,-152041.07039977098,-4792498.293562534,4195969.9842383135,1.7315,2.74341,-0.259397,-109.174,50.4927,37.3835,-0.119414,-8.12513,6.19318,0.0238904,0.0322336,-0.0637858,4,0,41.37952119429377,-91.81708794422012,9075.403109363702,-64.96759822285722,-5.181524693835452,-36.09194860532522,205.963,9126.688510607357,11112.197839541188,150,False,12.305042819476036,False,38.06169229073008,165.57626074459068,False,156.28299189962254,False,False
1,1970-07-23 11:27:26.262396266,2025-09-16,2025-09-26 17:43:46.239,AA,D,2418963684,JASSM,3,122,76,2,2,1,225,9,2,0,1,26,0,0,0,0,-138257.53943045562,-4804862.094087447,4182804.148649693,2.70594,2.1376,-0.75702,-35.0,55.125,61.75,0.0,0.0,0.0,0.0,0.0,0.0,2,0,41.21956889085407,-91.64820303778856,10000.00038358538,-24.06486606000669,-0.0047669800068245,-0.0021871456653631,,9126.688510607357,11112.197839541188,150,1,2025-09-16,2025-09-26 17:43:46.376,AA,D,2811341044,AMBUSH51,1,1,48,2,1,1,225,2,1,0,0,9,1,225,2,1,-152166.5530083188,-4792443.445022758,4196009.199290349,1.68081,2.78025,-0.207876,-112.65,46.9827,31.7718,0.0374828,-9.1656,7.26097,-0.0133335,0.0386939,-0.0273796,4,0,41.38008849696204,-91.81860741686852,9035.295633339678,-68.52520201948893,-5.808547829067357,-38.16717007995575,205.999,9126.688510607357,11112.197839541188,150,False,12.324962007556781,False,41.459211174583366,165.3651694991001,False,153.09800563238534,False,False
1,1970-07-23 11:27:26.273434739,2025-09-16,2025-09-26 17:43:47.343,AA,D,2420276226,JASSM,3,122,76,2,2,1,225,9,2,0,1,26,0,0,0,0,-138296.16052420562,-4804801.414644088,4182872.116667271,2.70594,2.1376,-0.75702,-35.0,55.125,61.75,0.0,0.0,0.0,0.0,0.0,0.0,2,0,41.22038213548144,-91.6486840048774,10000.000494604656,-24.06518299401009,-0.0038768972674125,-0.0021884330761365,,9126.688510607357,11112.197839541188,150,1,2025-09-16,2025-09-26 17:43:47.275,AA,D,2812414742,AMBUSH51,1,1,48,2,1,1,225,2,1,0,0,9,1,225,2,1,-152270.24512956967,-4792402.8139880365,4196035.946665273,1.67374,2.82601,-0.171156,-115.519,42.8901,27.4239,-0.134708,-10.1775,8.31581,-0.0085939,0.0464524,-0.0733607,4,0,41.380491157106,-91.81986127130368,9001.436657032962,-71.84451000247728,-5.419580030873754,-37.75313415649188,207.209,9126.688510607357,11112.197839541188,150,False,12.327490281551333,False,44.435774790285514,165.16659034276893,False,150.34168956287849,False,False
1,1970-07-23 11:27:26.285150604,2025-09-16,2025-09-26 17:43:48.515,AA,D,2421588136,JASSM,3,122,76,2,2,1,225,9,2,0,1,26,0,0,0,0,-138334.76403983062,-4804740.76315483,4182940.050993443,2.70594,2.1376,-0.75702,-35.0,55.125,61.75,0.0,0.0,0.0,0.0,0.0,0.0,2,0,41.22119498719143,-91.6491647648498,10000.000516506623,-24.065499796685767,-0.0029872386614217,-0.0021897115398711,,9126.688510607357,11112.197839541188,150,1,2025-09-16,2025-09-26 17:43:48.576,AA,D,2813965642,AMBUSH51,1,1,48,2,1,1,225,2,1,0,0,9,1,225,2,1,-152422.42364076577,-4792352.228107519,4196066.462334645,1.59981,2.89348,-0.11862,-119.516,35.3119,20.0384,-0.032223,-10.9348,9.02398,-0.0115192,0.0613474,-0.0283242,4,0,41.38096928170553,-91.82169802722814,8955.057317374396,-76.67611914622007,-4.685353346973322,-41.00503202741082,208.175,9126.688510607357,11112.197839541188,150,False,12.35027660997036,False,49.50188405839779,164.88632667679747,False,145.58465532229516,False,False
1,1970-07-23 11:27:26.295444074,2025-09-16,2025-09-26 17:43:49.544,AA,D,2422959972,JASSM,3,122,76,2,2,1,225,9,2,0,1,26,0,0,0,0,-138375.13122733062,-4804677.339998092,4183011.087370396,2.70594,2.1376,-0.756924,-35.0,55.125,61.75,0.0,0.0,0.0,0.0,0.0,0.0,2,0,41.222044966167424,-91.64966750218838,10000.000644731535,-24.068148299244005,-0.0070355746294746,-0.0021908614800336,,9126.688510607357,11112.197839541188,150,1,2025-09-16,2025-09-26 17:43:49.577,AA,D,2815158640,AMBUSH51,1,1,48,2,1,1,225,2,1,0,0,9,1,225,2,1,-152543.60096661132,-4792320.51372718,4196083.532737144,1.57898,2.94982,-0.0628213,-122.125,28.5362,14.0245,-0.389837,-11.3927,9.66184,-0.0649114,0.0510422,-0.0683215,4,0,41.38125022726455,-91.8231573750537,8923.534946799782,-81.21944349139633,-4.460383939990982,-41.54343040712815,207.991,9126.688510607357,11112.197839541188,150,False,12.35105190801997,False,53.7051426682771,164.6307870442412,False,141.6531926992061,False,False
1,1970-07-23 11:27:26.306474629,2025-09-16,2025-09-26 17:43:50.647,AA,D,2424214632,JASSM,3,122,76,2,2,1,225,9,2,0,1,26,0,0,0,0,-138412.04919608062,-4804619.333101119,4183076.054899693,2.70604,2.1376,-0.756924,-35.0,55.125,61.75,0.0,0.0,0.0,0.0,0.0,0.0,2,0,41.22282233983848,-91.6501272950098,10000.000200461933,-24.068451295215947,-0.0061847450227469,0.0032993472580494,,9126.688510607357,11112.197839541188,150,1,2025-09-16,2025-09-26 17:43:50.543,AA,D,2816311872,AMBUSH51,1,1,48,2,1,1,225,2,1,0,0,9,1,225,2,1,-152662.7113009215,-4792296.875049132,4196093.693693221,1.55374,3.01778,-0.0155273,-123.96,20.7249,7.9823,-0.278875,-12.1289,10.2023,0.0231747,0.0794506,-0.0425846,4,0,41.381436862590576,-91.82458897966768,8896.74292164841,-85.84378146207105,-3.361348399585725,-42.52154360999107,207.563,9126.688510607357,11112.197839541188,150,False,12.351510365434711,False,58.14055001450051,164.36915453785488,False,137.48931044696522,False,False
1,1970-07-23 11:27:26.317333353,2025-09-16,2025-09-26 17:43:51.733,AA,D,2425525338,JASSM,3,122,76,2,2,1,225,9,2,0,1,26,0,0,0,0,-138450.61755545562,-4804558.733857955,4183143.9237961774,2.70604,2.1376,-0.756924,-35.0,55.125,61.75,0.0,0.0,0.0,0.0,0.0,0.0,2,0,41.22363443852899,-91.65060765388397,10000.000259051536,-24.068767848913883,-0.0052959025797017,0.0032980373781431,,9126.688510607357,11112.197839541188,150,1,2025-09-16,2025-09-26 17:43:51.643,AA,D,2817624170,AMBUSH51,1,1,48,2,1,1,225,2,1,0,0,9,1,225,2,1,-152800.1152780836,-4792279.635303024,4196098.206484914,1.57534,3.09563,0.0409915,-125.09,10.7397,1.80733,-0.357945,-12.7543,10.8964,0.0150749,0.0648449,-0.0595081,4,0,41.38154381678349,-91.82623665352752,8874.887622089707,-91.22965079057856,-2.1577267438551364,-41.0812747309242,208.419,9126.688510607357,11112.197839541188,150,False,12.352613144155063,False,63.23500293298326,164.0561023490645,False,132.7033506422584,False,False
1,1970-07-23 11:27:26.329957071,2025-09-16,2025-09-26 17:43:52.995,AA,D,2426897172,JASSM,3,122,76,2,2,1,225,9,2,0,1,26,0,0,0,0,-138490.98278983062,-4804495.3071611775,4183214.9569993024,2.70604,2.1376,-0.756924,-35.0,55.125,61.75,0.0,0.0,0.0,0.0,0.0,0.0,2,0,41.22448441068016,-91.65111040653098,10000.000467703854,-24.06909916548273,-0.0043656121877536,0.003296650928268,,9126.688510607357,11112.197839541188,150,1,2025-09-16,2025-09-26 17:43:53.076,AA,D,2819334136,AMBUSH51,1,1,48,2,1,1,225,2,1,0,0,9,1,225,2,1,-152979.29473292315,-4792274.253781495,4196092.6043465305,1.56832,-3.07278,0.109775,-124.256,-2.93909,-8.41331,-0.370775,-12.4031,11.0675,0.0275398,0.0716109,-0.0709389,4,0,41.38150399351222,-91.82837876991556,8863.56135358734,-98.5268537756432,0.1471866390413219,-41.8517340632208,207.038,9126.688510607357,11112.197839541188,150,False,12.359401670976588,False,70.87843562077447,163.6353499422504,False,125.45800654553598,False,False
1,1970-07-23 11:27:26.339959116,2025-09-16,2025-09-26 17:43:53.995,AA,D,2428150124,JASSM,3,122,76,2,2,1,225,9,2,0,1,26,0,0,0,0,-138527.85193045562,-4804437.375886763,4183279.8332200055,2.70604,2.1376,-0.756924,-35.0,55.125,61.75,0.0,0.0,0.0,0.0,0.0,0.0,2,0,41.22526072018439,-91.65156962572458,10000.00011977175,-24.06940179820553,-0.0035159354628904,0.0032954017604501,,9126.688510607357,11112.197839541188,150,1,2025-09-16,2025-09-26 17:43:53.909,AA,D,2820328302,AMBUSH51,1,1,48,2,1,1,225,2,1,0,0,9,1,225,2,1,-153083.10563329273,-4792280.169665587,4196083.22243755,1.552,-3.01545,0.164534,-122.592,-10.6166,-13.8274,0.0719659,-12.7591,10.7018,-0.0208548,0.076286,-0.0334258,4,0,41.38138574317234,-91.82961639754728,8865.925308704653,-103.03586567603476,0.4720336148019778,-43.26059964030812,204.643,9126.688510607357,11112.197839541188,150,False,12.341316257547751,False,75.15231051190186,163.35083605776785,False,121.44850869645087,False,False
1,1970-07-23 11:27:26.349459110,2025-09-16,2025-09-26 17:43:54.945,AA,D,2429403376,JASSM,3,122,76,2,2,1,225,9,2,0,1,26,0,0,0,0,-138564.72888358062,-4804379.429719771,4183344.724333287,2.70604,2.13751,-0.756924,-35.0,55.125,61.75,0.0,0.0,0.0,0.0,0.0,0.0,2,0,41.22603721551948,-91.65202895399096,10000.00039101946,-24.066085224518204,-0.0043504395781559,-0.0004770080937882,,9126.688510607357,11112.197839541188,150,1,2025-09-16,2025-09-26 17:43:54.875,AA,D,2821481534,AMBUSH51,1,1,48,2,1,1,225,2,1,0,0,9,1,225,2,1,-153200.23972614028,-4792295.025090963,4196066.1000181455,1.58066,-2.94442,0.198858,-119.688,-19.7059,-19.967,-0.358294,-12.0445,10.4832,0.050366,0.0631845,-0.0680781,4,0,41.38115951359716,-91.83100973444822,8874.550028061876,-107.19424787013308,2.089998157509628,-42.44724878583454,205.755,9126.688510607357,11112.197839541188,150,False,12.323233960678138,False,80.25603655131904,163.02140667532456,False,116.64271297789236,False,False
1,1970-07-23 11:27:26.360455618,2025-09-16,2025-09-26 17:43:56.045,AA,D,2430716890,JASSM,3,122,76,2,2,1,225,9,2,0,1,26,0,0,0,0,-138603.37927420562,-4804318.696138228,4183412.734587193,2.70604,2.13751,-0.756924,-35.0,55.125,61.75,0.0,0.0,0.0,0.0,0.0,0.0,2,0,41.226851045105406,-91.65251038358306,10000.000495322702,-24.06640250418147,-0.0034596954957316,-0.0004782680454397,,9126.688510607357,11112.197839541188,150,1,2025-09-16,2025-09-26 17:43:56.076,AA,D,2822913132,AMBUSH51,1,1,48,2,1,1,225,2,1,0,0,9,1,225,2,1,-153340.1190020045,-4792324.49809839,4196036.597012613,1.58194,-2.84794,0.273594,-114.591,-29.7059,-27.7031,-0.462401,-11.9615,10.4415,-0.0620881,0.063559,-0.0444925,4,0,41.380758406382654,-91.832669132527,8894.087121180959,-114.01102878080634,3.0094266295789445,-43.97339194375909,203.225,9126.688510607357,11112.197839541188,150,False,12.303265853796818,False,86.52391742738297,162.6139529134113,False,110.75167273128639,False,False
1,1970-07-23 11:27:26.372778598,2025-09-16,2025-09-26 17:43:57.277,AA,D,2432029052,JASSM,3,122,76,2,2,1,225,9,2,0,1,26,0,0,0,0,-138641.99060233062,-4804258.023774947,4183480.6737961774,2.70604,2.13751,-0.756828,-35.0,55.125,61.75,0.0,0.0,0.0,0.0,0.0,0.0,2,0,41.22766403539225,-91.6529913385889,10000.000247666669,-24.06903780074212,-0.0075517480032914,-0.0004793159128166,,9126.688510607357,11112.197839541188,150,1,2025-09-16,2025-09-26 17:43:57.376,AA,D,2824464030,AMBUSH51,1,1,48,2,1,1,225,2,1,0,0,9,1,225,2,1,-153485.11880643578,-4792369.623196179,4195994.268675392,1.60994,-2.75322,0.330109,-107.427,-39.6297,-35.5126,-0.396641,-11.6434,10.4575,0.0566119,0.0387958,-0.0577542,4,0,41.38017661269952,-91.83438367661228,8924.734577087997,-119.99096380458516,4.325032510390043,-44.36689426626359,201.331,9126.688510607357,11112.197839541188,150,False,12.277553605556548,False,93.28584587575276,162.1633029369564,False,104.40682905536717,False,False
1,1970-07-23 11:27:26.384334521,2025-09-16,2025-09-26 17:43:58.433,AA,D,2433341484,JASSM,3,122,76,2,2,1,225,9,2,0,1,26,0,0,0,0,-138680.60778983062,-4804197.337983931,4183548.625944615,2.70604,2.13751,-0.756828,-35.0,55.125,61.75,0.0,0.0,0.0,0.0,0.0,0.0,2,0,41.22847718975028,-91.65347237995049,10000.000317989468,-24.06935483474158,-0.0066617432626975,-0.0004806212016788,,9126.688510607357,11112.197839541188,150,1,2025-09-16,2025-09-26 17:43:58.476,AA,D,2825776328,AMBUSH51,1,1,48,2,1,1,225,2,1,0,0,9,1,225,2,1,-153599.18366054387,-4792416.032729805,4195950.804062843,1.65119,-2.686,0.394802,-101.406,-45.6708,-42.122,-0.0780738,-10.7415,9.92269,-0.00770132,0.0714487,-0.0477403,4,0,41.37958538010438,-91.83572822984196,8953.650996802828,-125.16432897634286,4.0292267725302215,-43.74748903268222,199.229,9126.688510607357,11112.197839541188,150,False,12.24095732345463,False,98.44387060385336,161.7664489170882,False,99.64749466879881,False,False
1,1970-07-23 11:27:26.401182226,2025-09-16,2025-09-26 17:44:00.118,AA,D,2434711214,JASSM,3,122,76,2,2,1,225,9,2,0,1,26,0,0,0,0,-138720.91247733062,-4804134.00143608,4183619.543669224,2.70604,2.13751,-0.756828,-35.0,55.125,61.75,0.0,0.0,0.0,0.0,0.0,0.0,2,0,41.22932584289292,-91.65397445426782,10000.000250694688,-24.069685736170914,-0.005732876693574,-0.0004819705966611,,9126.688510607357,11112.197839541188,150,1,2025-09-16,2025-09-26 17:44:00.109,AA,D,2827724894,AMBUSH51,1,1,48,2,1,1,225,2,1,0,0,9,1,225,2,1,-153756.46494013118,-4792497.862700874,4195874.49767921,1.73399,-2.5805,0.472571,-91.4398,-54.1758,-50.4209,-0.271717,-9.43942,8.77631,-0.00791354,0.038698,-0.0464711,4,0,41.37855347609796,-91.83757532134862,9001.914860601517,-132.24719760240163,4.162510782980127,-42.05356583188783,195.979,9126.688510607357,11112.197839541188,150,False,12.198688569936035,False,105.91796307813146,161.2021181077429,False,92.72583409755624,False,False
