Subject_cm,Timestamp,SampleDate_cm,SampleTime_cm,Configuration_cm,Scenario_cm,DisTime_cm,MarkingTxt_cm,Application_cm,EntId_cm,Site_cm,ExerciseId_cm,ForceId_cm,Category_cm,Country_cm,Domain_cm,Kind_cm,Extra_cm,Specific_cm,Subcategory_cm,AltCategory_cm,AltCountry_cm,AltDomain_cm,AltKind_cm,ECEF_X_cm,ECEF_Y_cm,ECEF_Z_cm,OriPhi_cm,OriPsi_cm,OriTheta_cm,LinVelX_cm,LinVelY_cm,LinVelZ_cm,LinAccX_cm,LinAccY_cm,LinAccZ_cm,AngVelX_cm,AngVelY_cm,AngVelZ_cm,DrAlg_cm,Appearance_cm,Latitude_cm,Longitude_cm,Altitude_cm,Heading_cm,Pitch_cm,Roll_cm,CalibratedAirspeed_cm,CM_Altitude_Lead_cm,CM_Altitude_Wing_cm,CM_Airspeed_cm,Subject_ac,SampleDate_ac,SampleTime_ac,Configuration_ac,Scenario_ac,DisTime_ac,MarkingTxt_ac,Application_ac,EntId_ac,Site_ac,ExerciseId_ac,ForceId_ac,Category_ac,Country_ac,Domain_ac,Kind_ac,Extra_ac,Specific_ac,Subcategory_ac,AltCategory_ac,AltCountry_ac,AltDomain_ac,AltKind_ac,ECEF_X_ac,ECEF_Y_ac,ECEF_Z_ac,OriPhi_ac,OriPsi_ac,OriTheta_ac,LinVelX_ac,LinVelY_ac,LinVelZ_ac,LinAccX_ac,LinAccY_ac,LinAccZ_ac,AngVelX_ac,AngVelY_ac,AngVelZ_ac,DrAlg_ac,Appearance_ac,Latitude_ac,Longitude_ac,Altitude_ac,Heading_ac,Pitch_ac,Roll_ac,CalibratedAirspeed_ac,CM_Altitude_Lead_ac,CM_Altitude_Wing_ac,CM_Airspeed_ac,Bank_Angle_Condition,distance_nm,Distance_Condition,angle_between_vel,angle_between_pos,Cone_Condition,angle_between_pos_nose,Nose_Cone_Condition,Intercept_Criteria
1,1970-07-23 10:27:51.525812460,2025-09-12,2025-09-26 14:25:52.581,AH,C,3137113100,JASSM,3,127,76,2,2,1,225,9,2,0,1,26,0,0,0,0,-180716.95056326807,-4778153.633760299,4211946.376432896,-2.36693,-0.400848,0.381002,79.5,-33.625,-34.5,0.0,0.0,0.0,0.0,0.0,0.0,2,0,41.566756544511634,-92.1659800862533,10997.374752683185,119.79761941090996,-0.0043759976770986,0.0045555524511249,,10022.661867135384,12264.339701119052,150,1,2025-09-12,2025-09-26 14:25:52.558,AH,C,1523612904,AMBUSH51,1,1,48,2,1,1,225,2,1,0,0,9,1,225,2,1,-144556.10584992688,-4793081.908400647,4196008.795451265,2.29953,2.85038,-0.315628,-100.808,31.1862,34.326,-0.161035,-7.22207,6.80909,-0.00144913,-0.000956033,0.000970597,4,0,41.377690075340965,-91.72747829009526,10025.751640399823,-66.7218445060532,1.2081531088468005,-1.7688127488032033,182.316,10022.661867135384,12264.339701119052,150,True,22.719520997558217,False,173.42305060293413,179.40496870019538,False,6.435010729972232,True,False
1,1970-07-23 10:27:51.533853953,2025-09-12,2025-09-26 14:25:53.385,AH,C,3138246378,JASSM,3,127,76,2,2,1,225,9,2,0,1,26,0,0,0,0,-180641.4222429556,-4778185.653291549,4211913.513151646,-2.36693,-0.400848,0.381002,79.5,-33.625,-34.5,0.0,0.0,0.0,0.0,0.0,0.0,2,0,41.5663612746751,-92.16506120968688,10997.37380007888,119.79822907608882,-0.0035829787564154,0.0045541868874115,,10022.661867135384,12264.339701119052,150,1,2025-09-12,2025-09-26 14:25:53.299,AH,C,1524487770,AMBUSH51,1,1,48,2,1,1,225,2,1,0,0,9,1,225,2,1,-144630.0367856005,-4793058.771570144,4196033.659677063,2.29595,2.85213,-0.314884,-100.872,31.1856,34.1446,-0.0569861,-7.29813,6.65277,0.00208788,0.00304079,-0.00170089,4,0,41.37798230245539,-91.72836958384045,10028.229805936424,-66.81883576419355,1.2484536789896568,-1.9454045235586344,182.316,10022.661867135384,12264.339701119052,150,True,22.62862308297122,False,173.35658178123597,179.40546725288343,False,6.51983776944208,True,False
1,1970-07-23 10:27:51.540634629,2025-09-12,2025-09-26 14:25:54.063,AH,C,3139379766,JASSM,3,127,76,2,2,1,225,9,2,0,1,26,0,0,0,0,-180565.88611014312,-4778217.676729049,4211880.644011021,-2.36693,-0.400848,0.381002,79.5,-33.625,-34.5,0.0,0.0,0.0,0.0,0.0,0.0,2,0,41.56596593647255,-92.16414224900736,10997.37296352935,119.79883879231424,-0.0027898675849993,0.0045528038005239,,10022.661867135384,12264.339701119052,150,1,2025-09-12,2025-09-26 14:25:53.991,AH,C,1525322868,AMBUSH51,1,1,48,2,1,1,225,2,1,0,0,9,1,225,2,1,-144700.66206710978,-4793036.690887667,4196057.268078016,2.3112,2.85277,-0.314253,-100.916,31.1016,34.0749,0.0209168,-7.11735,6.57614,0.0881205,-0.00460124,0.00818818,4,0,41.37826035514816,-91.7292210248601,10030.341119569744,-66.86964979511772,1.24960441618477,-1.061019827616982,182.316,10022.661867135384,12264.339701119052,150,True,22.539694674774903,False,173.29587898588943,179.4055576656978,False,6.5921501493568275,True,False
1,1970-07-23 10:27:51.549491858,2025-09-12,2025-09-26 14:25:54.949,AH,C,3140453514,JASSM,3,127,76,2,2,1,225,9,2,0,1,26,0,0,0,0,-180494.3245867056,-4778248.014619674,4211849.505339146,-2.36693,-0.400848,0.381098,79.5,-33.625,-34.5,0.0,0.0,0.0,0.0,0.0,0.0,2,0,41.56559140303822,-92.16327165336736,10997.376649748829,119.80325843543024,-0.0059645475322131,0.004551233209494,,10022.661867135384,12264.339701119052,150,1,2025-09-12,2025-09-26 14:25:55.059,AH,C,1526595400,AMBUSH51,1,1,48,2,1,1,225,2,1,0,0,9,1,225,2,1,-144808.88844510325,-4793002.925964891,4196093.506149335,2.40641,2.85694,-0.313352,-100.729,31.43,34.2134,-0.0560896,-7.23214,6.36835,0.0391412,1.56045e-05,0.0109158,4,0,41.37868641438976,-91.73052576336094,10033.889833601868,-67.0643300914322,1.3801844540420285,4.463280233726793,182.108,10022.661867135384,12264.339701119052,150,True,22.43120186845364,False,173.49707225363335,179.40609507312604,False,6.414527826341869,True,False
1,1970-07-23 10:27:51.559269985,2025-09-12,2025-09-26 14:25:55.926,AH,C,3141646558,JASSM,3,127,76,2,2,1,225,9,2,0,1,26,0,0,0,0,-180414.81189139312,-4778281.719697799,4211814.905729771,-2.36693,-0.400848,0.381098,79.5,-33.625,-34.5,0.0,0.0,0.0,0.0,0.0,0.0,2,0,41.56517526169959,-92.16230433963928,10997.373569274036,119.80390022335344,-0.0051296966517559,0.0045498538323337,,10022.661867135384,12264.339701119052,150,1,2025-09-12,2025-09-26 14:25:56.091,AH,C,1527828166,AMBUSH51,1,1,48,2,1,1,225,2,1,0,0,9,1,225,2,1,-144911.92492890946,-4792969.955257618,4196128.793292013,2.42244,2.84485,-0.327194,-100.276,31.8464,35.0148,-0.037737,-7.17589,6.55969,0.00576221,-0.000298565,0.0117834,4,0,41.37910224741759,-91.73176824765189,10036.951666674846,-66.03688463947333,1.4503085168095466,5.18866258474312,182.023,10022.661867135384,12264.339701119052,150,True,22.32043961924653,False,173.9801531970023,179.40574427229137,False,5.931281994347676,True,False
1,1970-07-23 10:27:51.568320895,2025-09-12,2025-09-26 14:25:56.832,AH,C,3142720310,JASSM,3,127,76,2,2,1,225,9,2,0,1,26,0,0,0,0,-180343.2503679556,-4778312.055635299,4211783.765104771,-2.36693,-0.400848,0.381098,79.5,-33.625,-34.5,0.0,0.0,0.0,0.0,0.0,0.0,2,0,41.5648007128012,-92.16143376611012,10997.37581840285,119.8044778221178,-0.0043783223355036,0.0045486002627415,,10022.661867135384,12264.339701119052,150,1,2025-09-12,2025-09-26 14:25:56.825,AH,C,1528703032,AMBUSH51,1,1,48,2,1,1,225,2,1,0,0,9,1,225,2,1,-144985.14036507567,-4792946.232652505,4196154.517901915,2.41305,2.83905,-0.33469,-99.8818,32.3846,35.4065,-0.183669,-7.21683,6.75493,-0.0226088,-0.00154484,0.00712084,4,0,41.37940386301014,-91.7326512451266,10039.817542700825,-65.50973002481352,1.5202598975502568,4.556641425890597,182.194,10022.661867135384,12264.339701119052,150,True,22.23207782240721,False,174.37811213274085,179.4052642533854,False,5.546399674366992,True,False
1,1970-07-23 10:27:51.577468553,2025-09-12,2025-09-26 14:25:57.746,AH,C,3143853696,JASSM,3,127,76,2,2,1,225,9,2,0,1,26,0,0,0,0,-180267.71423514312,-4778344.075166549,4211750.894011021,-2.36693,-0.400848,0.381098,79.5,-33.625,-34.5,0.0,0.0,0.0,0.0,0.0,0.0,2,0,41.56440535565743,-92.1605148514207,10997.376992752375,119.80508748911804,-0.0035852170518268,0.0045472783882665,,10022.661867135384,12264.339701119052,150,1,2025-09-12,2025-09-26 14:25:57.658,AH,C,1529697198,AMBUSH51,1,1,48,2,1,1,225,2,1,0,0,9,1,225,2,1,-145068.3253336108,-4792918.85313379,4196184.137423509,2.39055,2.83853,-0.332651,-99.6517,32.5461,36.0595,-0.182204,-7.17988,6.59263,-0.0280412,-0.00665686,-0.00234795,4,0,41.379751725186594,-91.73365464163912,10042.878178171764,-65.57538458301578,1.4199580146058002,3.2559908246531264,182.157,10022.661867135384,12264.339701119052,150,True,22.1351496066965,False,174.66789604157998,179.40450609659194,False,5.245662868774264,True,False
1,1970-07-23 10:27:51.587508765,2025-09-12,2025-09-26 14:25:58.750,AH,C,3144987090,JASSM,3,127,76,2,2,1,225,9,2,0,1,26,0,0,0,0,-180192.17810233065,-4778376.092744674,4211718.020964146,-2.36693,-0.400848,0.381098,79.5,-33.625,-34.5,0.0,0.0,0.0,0.0,0.0,0.0,2,0,41.56400998964512,-92.15959594881636,10997.373138515944,119.80569714333792,-0.0027921115416564,0.0045459548540752,,10022.661867135384,12264.339701119052,150,1,2025-09-12,2025-09-26 14:25:58.724,AH,C,1530969730,AMBUSH51,1,1,48,2,1,1,225,2,1,0,0,9,1,225,2,1,-145175.1071235018,-4792883.347460889,4196222.51419196,2.35271,2.83247,-0.33801,-99.4208,32.886,36.2815,-0.158698,-7.34766,6.712,-0.0304589,0.00291387,0.00907035,4,0,41.38020278747484,-91.7349428138142,10046.69917367135,-65.12750336000532,1.3965606580965615,0.984627722655684,182.072,10022.661867135384,12264.339701119052,150,True,22.024054852196,False,174.9086433415096,179.4035260093013,False,5.021331356652178,True,False
1,1970-07-23 10:27:51.597267171,2025-09-12,2025-09-26 14:25:59.726,AH,C,3146120484,JASSM,3,127,76,2,2,1,225,9,2,0,1,26,0,0,0,0,-180116.64099295562,-4778408.110322799,4211685.147917271,-2.36693,-0.400848,0.381098,79.5,-33.625,-34.5,0.0,0.0,0.0,0.0,0.0,0.0,2,0,41.563614616481885,-92.15867704572176,10997.37320781209,119.80630679312014,-0.0019989984943178,0.0045446358273642,,10022.661867135384,12264.339701119052,150,1,2025-09-12,2025-09-26 14:25:59.859,AH,C,1532321794,AMBUSH51,1,1,48,2,1,1,225,2,1,0,0,9,1,225,2,1,-145286.9199525282,-4792845.960638545,4196263.095696785,2.33358,2.83289,-0.338861,-99.2633,32.8342,36.4899,-0.187547,-7.41862,6.70984,-0.0177444,0.000924824,-0.00589328,4,0,41.38067900282101,-91.73629177239091,10051.055627522965,-65.10904273383991,1.447880592472109,-0.1028471724578359,182.108,10022.661867135384,12264.339701119052,150,True,21.909842419802228,False,174.97740554141862,179.4023473906603,False,4.954958903177854,True,False
1,1970-07-23 10:27:51.606312778,2025-09-12,2025-09-26 14:26:00.631,AH,C,3147253876,JASSM,3,127,76,2,2,1,225,9,2,0,1,26,0,0,0,0,-180041.10388358062,-4778440.127900924,4211652.274870396,-2.36693,-0.400752,0.381098,79.5,-33.625,-34.5,0.0,0.0,0.0,0.0,0.0,0.0,2,0,41.56321923594832,-92.15775815383029,10997.377291020051,119.80327210905942,-0.0047723322544038,0.0025003722636891,,10022.661867135384,12264.339701119052,150,1,2025-09-12,2025-09-26 14:26:00.591,AH,C,1533196660,AMBUSH51,1,1,48,2,1,1,225,2,1,0,0,9,1,225,2,1,-145359.6870177848,-4792821.624456056,4196289.542486312,2.32033,2.83369,-0.338846,-99.2226,32.9263,36.3532,-0.0808045,-7.19888,6.5673,-0.015645,0.000186213,-0.00408941,4,0,41.38098918948612,-91.73716967801042,10053.961967132796,-65.14012528435181,1.4792018110564424,-0.8472711570333541,181.986,10022.661867135384,12264.339701119052,150,True,21.818922847910407,False,174.98727570288005,179.40095574649663,False,4.9647281446748615,True,False
1,1970-07-23 10:27:51.615475672,2025-09-12,2025-09-26 14:26:01.547,AH,C,3148327620,JASSM,3,127,76,2,2,1,225,9,2,0,1,26,0,0,0,0,-179969.54236014312,-4778470.457979049,4211621.130339146,-2.36693,-0.400752,0.381098,79.5,-33.625,-34.5,0.0,0.0,0.0,0.0,0.0,0.0,2,0,41.56284466116078,-92.1568876354551,10997.375477315112,119.80384964899004,-0.004020963783323,0.0024990772811964,,10022.661867135384,12264.339701119052,150,1,2025-09-12,2025-09-26 14:26:01.726,AH,C,1534548726,AMBUSH51,1,1,48,2,1,1,225,2,1,0,0,9,1,225,2,1,-145472.79583164852,-4792783.70847086,4196330.7763742125,2.32138,2.82935,-0.338762,-99.2322,32.9063,36.3424,-0.223691,-7.30716,6.68258,0.0048946,0.00472399,-0.00525038,4,0,41.38147269652588,-91.73853433869152,10058.54128491311,-64.98196099076823,1.3077302757668827,-0.8661122690223899,181.95,10022.661867135384,12264.339701119052,150,True,21.706381412629202,False,174.9745670287625,179.39928021222943,False,4.9923681312101476,True,False
1,1970-07-23 10:27:51.624489795,2025-09-12,2025-09-26 14:26:02.448,AH,C,3149401362,JASSM,3,127,76,2,2,1,225,9,2,0,1,26,0,0,0,0,-179897.98181326812,-4778500.788057174,4211589.985807896,-2.36693,-0.400752,0.381098,79.5,-33.625,-34.5,0.0,0.0,0.0,0.0,0.0,0.0,2,0,41.56247007953922,-92.15601713882712,10997.37735629819,119.80442717021776,-0.0032696027457818,0.0024977777311977,,10022.661867135384,12264.339701119052,150,1,2025-09-12,2025-09-26 14:26:02.525,AH,C,1535503124,AMBUSH51,1,1,48,2,1,1,225,2,1,0,0,9,1,225,2,1,-145551.9253821381,-4792757.280555831,4196359.558978695,2.32188,2.83493,-0.337522,-99.1225,32.8685,36.2559,0.112803,-7.20816,6.50846,0.0241422,0.00351933,-0.00217526,4,0,41.38180992872451,-91.73948901495147,10061.850977816,-65.24270524544941,1.4769196740929025,-0.7378192504541088,181.827,10022.661867135384,12264.339701119052,150,True,21.614166391872587,False,174.96190646732518,179.3975256645965,False,5.017996469729344,True,False
1,1970-07-23 10:27:51.634268710,2025-09-12,2025-09-26 14:26:03.426,AH,C,3150475104,JASSM,3,127,76,2,2,1,225,9,2,0,1,26,0,0,0,0,-179826.42126639312,-4778531.116182174,4211558.839323521,-2.36693,-0.400752,0.381098,79.5,-33.625,-34.5,0.0,0.0,0.0,0.0,0.0,0.0,2,0,41.56209548980464,-92.15514665313373,10997.373795278656,119.80500467991592,-0.0025182414858047,0.0024964765247428,,10022.661867135384,12264.339701119052,150,1,2025-09-12,2025-09-26 14:26:03.258,AH,C,1536377990,AMBUSH51,1,1,48,2,1,1,225,2,1,0,0,9,1,225,2,1,-145624.57660242182,-4792732.811568589,4196386.073738984,2.3919,2.83209,-0.336476,-99.0095,33.1715,36.3046,-0.228834,-7.20075,6.573,0.0892669,-0.00977984,0.00386679,4,0,41.38212136028896,-91.74036561465437,10064.581631544192,-65.18016306567067,1.3252503251617445,3.2217785955851954,181.778,10022.661867135384,12264.339701119052,150,True,21.52576030697958,False,175.11673661771076,179.39553790933599,False,4.882467543702466,True,False
1,1970-07-23 10:27:51.644316357,2025-09-12,2025-09-26 14:26:04.431,AH,C,3151727802,JASSM,3,127,76,2,2,1,225,9,2,0,1,26,0,0,0,0,-179742.93200858062,-4778566.498994674,4211522.501432896,-2.36693,-0.400752,0.381194,79.5,-33.5,-34.5,0.0,0.0,0.0,0.0,0.0,0.0,2,0,41.561658458334406,-92.1541310758135,10997.373305090692,119.80952060456644,-0.005567553231273,0.0024947238719323,,10022.661867135384,12264.339701119052,150,1,2025-09-12,2025-09-26 14:26:04.391,AH,C,1537730056,AMBUSH51,1,1,48,2,1,1,225,2,1,0,0,9,1,225,2,1,-145735.87999166778,-4792694.860278947,4196427.122964249,2.45166,2.82328,-0.343255,-98.5491,33.7251,37.0137,-0.0919119,-7.08898,6.47086,0.0352817,0.000864487,0.0164627,4,0,41.38260411831436,-91.74170877052812,10068.557649064578,-64.57114822602335,1.252894031386465,6.491339300146628,181.497,10022.661867135384,12264.339701119052,150,True,21.40657919373376,False,175.67572386676835,179.43896604699214,False,4.378966781048327,True,False
1,1970-07-23 10:27:51.653466518,2025-09-12,2025-09-26 14:26:05.346,AH,C,3152920850,JASSM,3,127,76,2,2,1,225,9,2,0,1,26,0,0,0,0,-179663.41931326812,-4778600.196260299,4211487.894011021,-2.36693,-0.400752,0.381194,79.5,-33.5,-34.5,0.0,0.0,0.0,0.0,0.0,0.0,2,0,41.561242233828814,-92.15316388291342,10997.376083860348,119.81016226263856,-0.0047327010830014,0.0024933405322923,,10022.661867135384,12264.339701119052,150,1,2025-09-12,2025-09-26 14:26:05.524,AH,C,1539082122,AMBUSH51,1,1,48,2,1,1,225,2,1,0,0,9,1,225,2,1,-145847.8468245732,-4792655.686322702,4196469.350596093,2.45157,2.80947,-0.353514,-97.9143,34.579,37.8041,-0.0295921,-7.2447,6.65699,-0.0430548,0.00329046,0.0158947,4,0,41.38310196861851,-91.74306031423164,10072.13883072295,-63.632094805427215,1.1289713137652788,6.23521781635294,181.534,10022.661867135384,12264.339701119052,150,True,21.289118116970453,False,176.35407837789157,179.4347405486249,False,3.7050551113262533,True,False
1,1970-07-23 10:27:51.665388145,2025-09-12,2025-09-26 14:26:06.538,AH,C,3154173584,JASSM,3,127,76,2,2,1,225,9,2,0,1,26,0,0,0,0,-179579.92810233062,-4778635.579072799,4211451.552214146,-2.36693,-0.400752,0.381194,79.5,-33.5,-34.5,0.0,0.0,0.0,0.0,0.0,0.0,2,0,41.5608051589174,-92.1521483089274,10997.376484854616,119.81083601215944,-0.0038560685594449,0.0024918745619109,,10022.661867135384,12264.339701119052,150,1,2025-09-12,2025-09-26 14:26:06.657,AH,C,1540434186,AMBUSH51,1,1,48,2,1,1,225,2,1,0,0,9,1,225,2,1,-145958.00682961283,-4792616.241855238,4196511.852772573,2.35497,2.80151,-0.359225,-97.5761,34.9779,38.3774,-0.118683,-7.27269,6.81402,-0.115353,-0.00174666,0.0018923,4,0,41.38360359263566,-91.74439039585803,10075.522653709077,-63.10014966349568,1.0527319085873186,0.5515556510078656,181.62,10022.661867135384,12264.339701119052,150,True,21.169874971655315,False,176.7265796916315,179.43063303721257,False,3.3241311550600043,True,False
1,1970-07-23 10:27:51.676989323,2025-09-12,2025-09-26 14:26:07.698,AH,C,3155426246,JASSM,3,127,76,2,2,1,225,9,2,0,1,26,0,0,0,0,-179496.44275076812,-4778670.956025924,4211415.212370396,-2.36693,-0.400752,0.381194,79.5,-33.5,-34.5,0.0,0.0,0.0,0.0,0.0,0.0,2,0,41.560368121797865,-92.15113282141722,10997.372206505848,119.8115096984914,-0.0029795064907162,0.0024904220772258,,10022.661867135384,12264.339701119052,150,1,2025-09-12,2025-09-26 14:26:07.691,AH,C,1541666952,AMBUSH51,1,1,48,2,1,1,225,2,1,0,0,9,1,225,2,1,-146058.88544456277,-4792580.359479678,4196551.413713523,2.27957,2.80065,-0.359809,-97.5885,32.9547,40.0984,0.129902,-7.02677,6.414,-0.0464212,0.000123795,-0.00310321,4,0,41.38406583919927,-91.7456083438101,10080.603351283731,-63.04491457270301,1.0443455930891288,-3.784879509010348,181.901,10022.661867135384,12264.339701119052,150,True,21.05617570925779,False,176.06684610340164,179.42750434925307,False,3.792753934639186,True,False
1,1970-07-23 10:27:51.685284567,2025-09-12,2025-09-26 14:26:08.528,AH,C,3156622004,JASSM,3,127,76,2,2,1,225,9,2,0,1,26,0,0,0,0,-179416.74939139312,-4778704.727510299,4211380.522917271,-2.36693,-0.400752,0.381194,79.5,-33.5,-34.5,0.0,0.0,0.0,0.0,0.0,0.0,2,0,41.5599509173074,-92.15016347055484,10997.375663133527,119.81215277180236,-0.0021427535205841,0.0024890273822529,,10022.661867135384,12264.339701119052,150,1,2025-09-12,2025-09-26 14:26:08.524,AH,C,1542661118,AMBUSH51,1,1,48,2,1,1,225,2,1,0,0,9,1,225,2,1,-146141.24724302255,-4792550.694371032,4196582.706021113,2.23927,2.80584,-0.347505,-98.0844,34.7928,37.5627,-0.0814379,-7.08475,6.41787,-0.0285967,-0.00593074,-0.021839,4,0,41.384438623707,-91.74660287761392,10081.663990467025,-63.74459698980269,0.7516555673098175,-6.001487215986774,181.827,10022.661867135384,12264.339701119052,150,True,20.95622916425447,False,176.33554303710582,179.4230756317444,False,3.7800663527876934,True,False
1,1970-07-23 10:27:51.695306724,2025-09-12,2025-09-26 14:26:09.530,AH,C,3157871992,JASSM,3,127,76,2,2,1,225,9,2,0,1,26,0,0,0,0,-179333.44079764312,-4778740.028291549,4211344.259245396,-2.36693,-0.400657,0.381194,79.5,-33.5,-34.5,0.0,0.0,0.0,0.0,0.0,0.0,2,0,41.559514790359394,-92.14915016031236,10997.376162958602,119.80918094870928,-0.0048344893778929,0.0004441503489719,,10022.661867135384,12264.339701119052,150,1,2025-09-12,2025-09-26 14:26:09.324,AH,C,1543615516,AMBUSH51,1,1,48,2,1,1,225,2,1,0,0,9,1,225,2,1,-146219.74942072516,-4792522.994299533,4196612.239512309,2.21083,2.81325,-0.342268,-98.4456,34.4108,36.8904,0.0417078,-7.15781,6.53359,-0.0274774,0.0011745,0.00202754,4,0,41.38478853758584,-91.74755060677636,10083.459278153488,-64.2390282225406,0.8294898757251662,-7.494280099499886,181.778,10022.661867135384,12264.339701119052,150,True,20.856516211063056,False,175.92505207576545,179.41864658085086,False,4.2191174749050395,True,False
1,1970-07-23 10:27:51.705489297,2025-09-12,2025-09-26 14:26:10.548,AH,C,3159124690,JASSM,3,127,76,2,2,1,225,9,2,0,1,26,0,0,0,0,-179249.95251639312,-4778775.403291549,4211307.915495396,-2.36693,-0.400657,0.381194,79.5,-33.5,-34.5,0.0,0.0,0.0,0.0,0.0,0.0,2,0,41.55907771266912,-92.14813467900332,10997.372797639038,119.80985461384348,-0.0039578980444943,0.0004426425766347,,10022.661867135384,12264.339701119052,150,1,2025-09-12,2025-09-26 14:26:10.391,AH,C,1544888048,AMBUSH51,1,1,48,2,1,1,225,2,1,0,0,9,1,225,2,1,-146324.23261376476,-4792486.813435419,4196650.654757549,2.21408,2.82607,-0.332378,-98.9485,33.8065,35.9385,-0.0630883,-7.07704,6.56164,0.0509506,0.00992548,-0.0144549,4,0,41.38524413470527,-91.74881176064076,10085.608630451656,-65.12912891209744,0.9347098370903087,-7.079074452512869,181.901,10022.661867135384,12264.339701119052,150,True,20.741338336003285,False,175.31335299817425,179.41234997482974,False,4.863288315642622,True,False
1,1970-07-23 10:27:51.716271770,2025-09-12,2025-09-26 14:26:11.627,AH,C,3160317738,JASSM,3,127,76,2,2,1,225,9,2,0,1,26,0,0,0,0,-179170.43982108062,-4778809.094697799,4211273.302214146,-2.36693,-0.400657,0.381194,79.5,-33.5,-34.5,0.0,0.0,0.0,0.0,0.0,0.0,2,0,41.55866143304331,-92.14716756569491,10997.37602377354,119.81049618648191,-0.0031230450849849,0.0004412010372085,,10022.661867135384,12264.339701119052,150,1,2025-09-12,2025-09-26 14:26:11.524,AH,C,1546240114,AMBUSH51,1,1,48,2,1,1,225,2,1,0,0,9,1,225,2,1,-146437.3662325518,-4792448.563157287,4196690.900150932,2.27168,2.83821,-0.32237,-99.414,33.2083,35.2342,-0.279539,-7.28096,6.8056,0.0554426,-0.00348604,-0.00741628,4,0,41.38572281066408,-91.75017701016615,10087.293448060747,-66.00002045729198,1.0138758950617204,-3.569970791097479,181.864,10022.661867135384,12264.339701119052,150,True,20.623924396140175,False,174.7823428925681,179.40424412540335,False,5.416629953726868,True,False
1,1970-07-23 10:27:51.727337032,2025-09-12,2025-09-26 14:26:12.733,AH,C,3161630088,JASSM,3,127,76,2,2,1,225,9,2,0,1,26,0,0,0,0,-179082.97595389312,-4778846.153291549,4211235.226042271,-2.36684,-0.400657,0.381194,79.5,-33.5,-34.5,0.0,0.0,0.0,0.0,0.0,0.0,2,0,41.55820351713394,-92.1461037574376,10997.376526140808,119.81120189941969,-0.0022047086389901,0.0059310875962809,,10022.661867135384,12264.339701119052,150,1,2025-09-12,2025-09-26 14:26:12.691,AH,C,1547631946,AMBUSH51,1,1,48,2,1,1,225,2,1,0,0,9,1,225,2,1,-146553.04865421524,-4792410.010036707,4196731.477931242,2.32561,2.83303,-0.326641,-99.6748,32.5182,35.4702,-0.168243,-7.43707,6.72349,0.0488368,-0.00389383,0.0131171,4,0,41.38620505217223,-91.7515728339199,10089.154057000542,-65.62979152865968,0.9814225038294546,-0.5679144010281357,181.95,10022.661867135384,12264.339701119052,150,True,20.50021855127353,False,174.54476576441036,179.3949507573081,False,5.638490088649743,True,False
1,1970-07-23 10:27:51.741405091,2025-09-12,2025-09-26 14:26:14.140,AH,C,3162823138,JASSM,3,127,76,2,2,1,225,9,2,0,1,26,0,0,0,0,-179003.46228201812,-4778879.842744674,4211200.610807896,-2.36684,-0.400657,0.38129,79.5,-33.5,-34.5,0.0,0.0,0.0,0.0,0.0,0.0,2,0,41.557787219082186,-92.14513665937926,10997.379959894864,119.815685753439,-0.0052956259653984,0.0059294253976089,,10022.661867135384,12264.339701119052,150,1,2025-09-12,2025-09-26 14:26:14.126,AH,C,1549341910,AMBUSH51,1,1,48,2,1,1,225,2,1,0,0,9,1,225,2,1,-146695.81915178028,-4792362.63675549,4196781.477754509,2.35167,2.83394,-0.328006,-99.5603,33.1102,35.0873,-0.117073,-7.16002,6.62934,0.00250192,0.00546884,0.0122121,4,0,41.386798420361984,-91.75329545458102,10091.799634149102,-65.60860437165432,1.0725635811131502,0.9420909672830032,181.778,10022.661867135384,12264.339701119052,150,True,20.365479076120387,False,174.6697068064678,179.3832402551052,False,5.574248765419641,True,False
1,1970-07-23 10:27:51.747447936,2025-09-12,2025-09-26 14:26:14.744,AH,C,3164135484,JASSM,3,127,76,2,2,1,225,9,2,0,1,26,0,0,0,0,-178915.99841483062,-4778916.897432174,4211162.530729771,-2.36684,-0.400657,0.38129,79.5,-33.5,-34.5,0.0,0.0,0.0,0.0,0.0,0.0,2,0,41.55732928131368,-92.14407288154516,10997.372651209336,119.81639143410408,-0.0043772889202918,0.0059278981110924,,10022.661867135384,12264.339701119052,150,1,2025-09-12,2025-09-26 14:26:14.857,AH,C,1550216776,AMBUSH51,1,1,48,2,1,1,225,2,1,0,0,9,1,225,2,1,-146768.86773846846,-4792338.163605807,4196807.409622915,2.35427,2.82948,-0.330147,-99.5043,32.9774,35.5491,-0.0467289,-7.20201,6.43888,-0.00881028,-0.000429643,0.00149075,4,0,41.38710576200527,-91.7541769319452,10093.33903425536,-65.35312650127806,0.9838224752742908,1.0132177842082788,181.864,10022.661867135384,12264.339701119052,150,True,20.267010517037814,False,174.7741504210041,179.3763640117528,False,5.458507837462002,True,False
1,1970-07-23 10:27:51.757496406,2025-09-12,2025-09-26 14:26:15.749,AH,C,3165328532,JASSM,3,127,76,2,2,1,225,9,2,0,1,26,0,0,0,0,-178836.48474295562,-4778950.584932174,4211127.913542271,-2.36684,-0.400657,0.38129,79.5,-33.5,-34.5,0.0,0.0,0.0,0.0,0.0,0.0,2,0,41.55691296461796,-92.14310581042756,10997.376382454962,119.81703295667734,-0.0035424277750945,0.0059265136929427,,10022.661867135384,12264.339701119052,150,1,2025-09-12,2025-09-26 14:26:15.758,AH,C,1551290474,AMBUSH51,1,1,48,2,1,1,225,2,1,0,0,9,1,225,2,1,-146859.38652947795,-4792308.042149812,4196839.282176184,2.32904,2.82672,-0.331472,-99.4549,32.9914,35.5341,-0.219666,-7.0909,6.555,-0.0433877,-0.00876034,0.000614816,4,0,41.387483617161365,-91.7552691587055,10095.188373391093,-65.19535491249482,0.9295221269818442,-0.4810897297975482,181.864,10022.661867135384,12264.339701119052,150,True,20.16323619489616,False,174.78594622121332,179.36783624256623,False,5.463126872595595,True,False
1,1970-07-23 10:27:51.768247564,2025-09-12,2025-09-26 14:26:16.824,AH,C,3166581230,JASSM,3,127,76,2,2,1,225,9,2,0,1,26,0,0,0,0,-178752.99646170562,-4778985.954072799,4211091.563932896,-2.36684,-0.400657,0.38129,79.5,-33.5,-34.5,0.0,0.0,0.0,0.0,0.0,0.0,2,0,41.55647582885218,-92.14209041319828,10997.37507662334,119.81770653149306,-0.0026658354124074,0.0059250595902159,,10022.661867135384,12264.339701119052,150,1,2025-09-12,2025-09-26 14:26:16.858,AH,C,1552602774,AMBUSH51,1,1,48,2,1,1,225,2,1,0,0,9,1,225,2,1,-146968.86694041162,-4792271.49895055,4196877.924603233,2.25991,2.82529,-0.329216,-99.6894,32.9815,35.218,-0.326334,-6.94721,6.47869,-0.0978993,-0.00179451,-0.00897465,4,0,41.38794190636608,-91.7565902396964,10097.358916801526,-65.23545364115066,0.7849711776727788,-4.469202468153045,181.986,10022.661867135384,12264.339701119052,150,True,20.045657038097612,False,174.63546026494447,179.35736772157603,False,5.64474186365415,True,False
1,1970-07-23 10:27:51.779266530,2025-09-12,2025-09-26 14:26:17.926,AH,C,3167833928,JASSM,3,127,76,2,2,1,225,9,2,0,1,26,0,0,0,0,-178669.50720389312,-4779021.323213424,4211055.214323521,-2.36684,-0.400657,0.38129,79.5,-33.5,-34.5,0.0,0.0,0.0,0.0,0.0,0.0,2,0,41.5560386843048,-92.14107501796092,10997.37858457154,119.8183800991679,-0.0017892355006202,0.0059236099879349,,10022.661867135384,12264.339701119052,150,1,2025-09-12,2025-09-26 14:26:17.958,AH,C,1553915072,AMBUSH51,1,1,48,2,1,1,225,2,1,0,0,9,1,225,2,1,-147078.17405729106,-4792235.355490802,4196915.633968467,2.15844,2.82346,-0.315309,-100.509,32.8427,34.1654,-0.0715376,-6.62509,6.25534,-0.0668131,-0.00315938,-0.0211649,4,0,41.388391534488015,-91.75790912247714,10098.483494505184,-65.74074638890237,0.1613209929309271,-10.320444056847418,182.561,10022.661867135384,12264.339701119052,150,False,19.928426054233586,False,174.07367960400816,179.34538221154006,False,6.259052537413405,True,False
1,1970-07-23 10:27:51.788397572,2025-09-12,2025-09-26 14:26:18.839,AH,C,3168967324,JASSM,3,127,76,2,2,1,225,9,2,0,1,26,0,0,0,0,-178593.97009451812,-4779053.321260299,4211022.325651646,-2.36684,-0.400561,0.38129,79.5,-33.5,-34.5,0.0,0.0,0.0,0.0,0.0,0.0,2,0,41.55564317391244,-92.14015634945294,10997.37764295794,119.8153457120771,-0.0045625670230069,0.0038783667706009,,10022.661867135384,12264.339701119052,150,1,2025-09-12,2025-09-26 14:26:18.891,AH,C,1555028538,AMBUSH51,1,1,48,2,1,1,225,2,1,0,0,9,1,225,2,1,-147173.5493169731,-4792204.119078847,4196947.031028061,2.11757,2.82516,-0.292206,-101.486,32.9975,32.4401,-0.0423086,-6.20474,5.96495,-0.0135249,-0.00557911,-0.00955721,4,0,41.38877188755768,-91.75905981017492,10096.943003425384,-66.75893978831147,-0.6897114392539859,-12.62807431291998,182.891,10022.661867135384,12264.339701119052,150,False,19.82481377224135,False,173.3131344289842,179.33246175292223,False,7.091561331542723,True,False
1,1970-07-23 10:27:51.797465532,2025-09-12,2025-09-26 14:26:19.746,AH,C,3170100718,JASSM,3,127,76,2,2,1,225,9,2,0,1,26,0,0,0,0,-178518.43200858062,-4779085.319307174,4210989.435026646,-2.36684,-0.400561,0.38129,79.5,-33.5,-34.5,0.0,0.0,0.0,0.0,0.0,0.0,2,0,41.55524764321869,-92.13923768045429,10997.37637503005,119.81595510620946,-0.0037694501917379,0.0038770017851691,,10022.661867135384,12264.339701119052,150,1,2025-09-12,2025-09-26 14:26:19.691,AH,C,1555982936,AMBUSH51,1,1,48,2,1,1,225,2,1,0,0,9,1,225,2,1,-147254.07940794888,-4792177.868730182,4196971.789907008,2.12613,2.82511,-0.273559,-102.335,33.2561,30.7517,-0.211307,-6.144,5.89799,0.0245417,-0.00927425,-0.026591,4,0,41.389080467461056,-91.76003135823817,10092.153321070986,-67.52676484710499,-1.4326173070149864,-12.124324353710342,183.208,10022.661867135384,12264.339701119052,150,False,19.73031896572326,False,172.57013868830796,179.31852198807937,False,7.894771344947002,True,False
1,1970-07-23 10:27:51.808465478,2025-09-12,2025-09-26 14:26:20.846,AH,C,3171353416,JASSM,3,127,76,2,2,1,225,9,2,0,1,26,0,0,0,0,-178434.94275076812,-4779120.684541549,4210953.081511021,-2.36684,-0.400561,0.38129,79.5,-33.5,-34.5,0.0,0.0,0.0,0.0,0.0,0.0,2,0,41.5548104703852,-92.13822232540858,10997.375574416494,119.81662863096707,-0.0028928498278492,0.0038754930694415,,10022.661867135384,12264.339701119052,150,1,2025-09-12,2025-09-26 14:26:20.790,AH,C,1557295236,AMBUSH51,1,1,48,2,1,1,225,2,1,0,0,9,1,225,2,1,-147368.15073772834,-4792140.601923752,4197004.823395875,2.29817,2.83916,-0.256452,-103.293,33.5931,29.3358,-0.109851,-6.81992,6.40865,0.1781,0.00176538,-0.0235242,4,0,41.389504295106256,-91.76140760855668,10080.751273350768,-68.77326786067847,-1.5495887419660843,-2.0238593568146714,184.345,10022.661867135384,12264.339701119052,150,True,19.61165296610352,False,171.8972096853719,179.29566990492356,False,8.625937761362849,True,False
1,1970-07-23 10:27:51.817470308,2025-09-12,2025-09-26 14:26:21.747,AH,C,3172486812,JASSM,3,127,76,2,2,1,225,9,2,0,1,26,0,0,0,0,-178359.40564139312,-4779152.680635299,4210920.188932896,-2.36684,-0.400561,0.38129,79.5,-33.5,-34.5,0.0,0.0,0.0,0.0,0.0,0.0,2,0,41.55441492246408,-92.13730369255572,10997.37380389828,119.817237991092,-0.0020997401841026,0.0038741218500846,,10022.661867135384,12264.339701119052,150,1,2025-09-12,2025-09-26 14:26:21.801,AH,C,1558488234,AMBUSH51,1,1,48,2,1,1,225,2,1,0,0,9,1,225,2,1,-147471.68020119506,-4792106.759434843,4197033.773295363,2.37478,2.84044,-0.262391,-103.787,33.8179,29.4233,-0.138244,-7.1878,6.80806,0.0216996,0.00360047,0.0207383,4,0,41.38988209820664,-91.76265669713663,10068.125344554206,-68.57699596127759,-1.262186439272046,2.3796181119913866,184.87,10022.661867135384,12264.339701119052,150,True,19.504312532241382,False,171.89059799627532,179.2727782097379,False,8.663146431228238,True,False
1,1970-07-23 10:27:51.827506097,2025-09-12,2025-09-26 14:26:22.750,AH,C,3173679856,JASSM,3,127,76,2,2,1,225,9,2,0,1,26,0,0,0,0,-178279.89196951812,-4779186.360322799,4210885.565886021,-2.36684,-0.400561,0.381386,79.5,-33.5,-34.5,0.0,0.0,0.0,0.0,0.0,0.0,2,0,41.55399855577814,-92.13633671181374,10997.37674899824,119.82172186037133,-0.0051905246564707,0.0038724725303516,,10022.661867135384,12264.339701119052,150,1,2025-09-12,2025-09-26 14:26:22.759,AH,C,1559641466,AMBUSH51,1,1,48,2,1,1,225,2,1,0,0,9,1,225,2,1,-147571.07011326865,-4792074.1332509145,4197061.905153587,2.39575,2.82964,-0.274082,-104.022,34.1246,30.0396,-0.0806459,-7.13054,6.73594,-0.0140991,0.00493413,0.00459291,4,0,41.39024788900646,-91.76385590717102,10056.41013255,-67.68126078280552,-1.2284374563858282,3.3979015475216774,186.117,10022.661867135384,12264.339701119052,150,True,19.3967716539034,False,172.16700603225664,179.25048965146777,False,8.41128999157901,True,False
1,1970-07-23 10:27:51.837269282,2025-09-12,2025-09-26 14:26:23.726,AH,C,3174813340,JASSM,3,127,76,2,2,1,225,9,2,0,1,26,0,0,0,0,-178204.34802420562,-4779218.356416549,4210852.669401646,-2.36684,-0.400561,0.381386,79.5,-33.5,-34.5,0.0,0.0,0.0,0.0,0.0,0.0,2,0,41.553602967952536,-92.13541802011356,10997.374091163025,119.82233124983914,-0.0043973493518337,0.0038711633879533,,10022.661867135384,12264.339701119052,150,1,2025-09-12,2025-09-26 14:26:23.591,AH,C,1560635632,AMBUSH51,1,1,48,2,1,1,225,2,1,0,0,9,1,225,2,1,-147658.81852019829,-4792044.761263766,4197087.328569474,2.35317,2.83181,-0.272998,-104.227,34.6883,30.4123,-0.110955,-7.31161,6.90212,-0.0774845,0.00651954,0.00182572,4,0,41.390578159679386,-91.76491487525077,10045.949023847304,-67.8095513424586,-1.1844448735802775,0.994402710990024,186.752,10022.661867135384,12264.339701119052,150,True,19.29823825393249,False,172.40716768007817,179.23087777178588,False,8.202170650833551,True,False
1,1970-07-23 10:27:51.848293660,2025-09-12,2025-09-26 14:26:24.829,AH,C,3176065950,JASSM,3,127,76,2,2,1,225,9,2,0,1,26,0,0,0,0,-178120.86560233062,-4779253.715791549,4210816.315886021,-2.36684,-0.400561,0.381386,79.5,-33.5,-34.5,0.0,0.0,0.0,0.0,0.0,0.0,2,0,41.55316579470037,-92.13440280099807,10997.377986312877,119.8230046626339,-0.0035208200949822,0.0038697108871094,,10022.661867135384,12264.339701119052,150,1,2025-09-12,2025-09-26 14:26:24.823,AH,C,1562106996,AMBUSH51,1,1,48,2,1,1,225,2,1,0,0,9,1,225,2,1,-147787.1694738908,-4792001.948747126,4197124.621988938,2.23254,2.83011,-0.27527,-104.949,34.5,30.6592,-0.0215856,-7.26897,6.8503,-0.144091,0.0140991,0.00171753,4,0,41.39106105751113,-91.7664638100833,10031.256145855788,-67.65159930662047,-1.1607608080867635,-5.946986641775923,187.864,10022.661867135384,12264.339701119052,150,True,19.171110663621107,False,172.32401832758015,179.2023440715405,False,8.307527346566564,True,False
1,1970-07-23 10:27:51.857445871,2025-09-12,2025-09-26 14:26:25.744,AH,C,3177199344,JASSM,3,127,76,2,2,1,225,9,2,0,1,26,0,0,0,0,-178045.32751639312,-4779285.707979049,4210783.419401646,-2.36684,-0.400561,0.381386,79.5,-33.5,-34.5,0.0,0.0,0.0,0.0,0.0,0.0,2,0,41.55277021336616,-92.13348420476946,10997.37473100732,119.82361397874428,-0.0027277022890209,0.0038683940074732,,10022.661867135384,12264.339701119052,150,1,2025-09-12,2025-09-26 14:26:25.557,AH,C,1562981862,AMBUSH51,1,1,48,2,1,1,225,2,1,0,0,9,1,225,2,1,-147864.38494657472,-4791976.782162464,4197146.648619541,2.15311,2.83537,-0.269695,-105.623,34.1774,29.967,0.0312053,-7.13128,6.67926,-0.0647637,0.00612215,-0.0197334,4,0,41.39134529138818,-91.76739543860435,10022.984385726888,-68.0836855589507,-1.1718132929600882,-10.407999328756162,188.927,10022.661867135384,12264.339701119052,150,False,19.07891445770257,False,171.84491019979325,179.1837368084644,False,8.808514079756078,True,False
1,1970-07-23 10:27:51.866487929,2025-09-12,2025-09-26 14:26:26.648,AH,C,3178332738,JASSM,3,127,76,2,2,1,225,9,2,0,1,26,0,0,0,0,-177969.78943045562,-4779317.700166549,4210750.522917271,-2.36684,-0.400465,0.381386,79.5,-33.5,-34.5,0.0,0.0,0.0,0.0,0.0,0.0,2,0,41.55237462466668,-92.13256561974154,10997.375489659416,119.82057976509432,-0.0055010124014819,0.0018227123629602,,10022.661867135384,12264.339701119052,150,1,2025-09-12,2025-09-26 14:26:26.756,AH,C,1564413462,AMBUSH51,1,1,48,2,1,1,225,2,1,0,0,9,1,225,2,1,-147992.7936587925,-4791936.034850885,4197181.780705526,2.09058,2.85406,-0.244082,-107.076,33.0198,28.518,-0.101453,-7.21491,6.84215,-0.0105164,0.00407693,-0.0118334,4,0,41.39180127024867,-91.768944341492,10008.704144728978,-69.86223858255038,-1.4328481268871172,-13.67844393805283,189.673,10022.661867135384,12264.339701119052,150,False,18.957612325763726,False,170.72911751544183,179.15142151594702,False,9.952019979247332,True,False
1,1970-07-23 10:27:51.877426452,2025-09-12,2025-09-26 14:26:27.742,AH,C,3179525784,JASSM,3,127,76,2,2,1,225,9,2,0,1,26,0,0,0,0,-177890.27575858062,-4779351.373994674,4210715.895964146,-2.36684,-0.400465,0.381386,79.5,-33.5,-34.5,0.0,0.0,0.0,0.0,0.0,0.0,2,0,41.55195822663694,-92.13159870242649,10997.37735086853,119.82122112309976,-0.0046661624403751,0.0018212887570674,,10022.661867135384,12264.339701119052,150,1,2025-09-12,2025-09-26 14:26:27.759,AH,C,1565606460,AMBUSH51,1,1,48,2,1,1,225,2,1,0,0,9,1,225,2,1,-148100.51664062048,-4791903.762651373,4197209.665788459,2.13478,2.86662,-0.232984,-108.007,29.9558,29.6035,-0.106623,-7.41642,6.9956,0.0904299,0.00304287,-0.0143675,4,0,41.392161694139816,-91.77024303993905,9997.989585199111,-70.80588301265277,-1.3599269880815452,-10.952992445548253,190.54,10022.661867135384,12264.339701119052,150,False,18.846406646515188,False,170.11993979691528,179.1212426659125,False,10.507631145490695,True,False
1,1970-07-23 10:27:51.887283659,2025-09-12,2025-09-26 14:26:28.728,AH,C,3180718832,JASSM,3,127,76,2,2,1,225,9,2,0,1,26,0,0,0,0,-177810.76208670562,-4779385.047822799,4210681.267057896,-2.36684,-0.400465,0.381386,79.5,-33.5,-34.5,0.0,0.0,0.0,0.0,0.0,0.0,2,0,41.55154180729359,-92.13063179752189,10997.37940924426,119.8218624675946,-0.0038313058777567,0.0018198537043413,,10022.661867135384,12264.339701119052,150,1,2025-09-12,2025-09-26 14:26:28.623,AH,C,1566640392,AMBUSH51,1,1,48,2,1,1,225,2,1,0,0,9,1,225,2,1,-148194.14283399208,-4791876.151542725,4197232.096043568,2.2057,2.87927,-0.223686,-109.205,30.9561,26.5538,-0.199588,-7.41107,6.95255,0.0737644,-0.00784072,-0.0151332,4,0,41.39246014459743,-91.77137163974795,9985.842766727328,-71.67815204837825,-1.208904356407966,-6.705871832338603,191.127,10022.661867135384,12264.339701119052,150,True,18.743673518715553,False,169.08038061617862,179.09142864814265,False,11.649995785597666,True,False
1,1970-07-23 10:27:51.898324494,2025-09-12,2025-09-26 14:26:29.832,AH,C,3182031182,JASSM,3,127,76,2,2,1,225,9,2,0,1,26,0,0,0,0,-177723.29724295562,-4779422.086885299,4210643.173307896,-2.36684,-0.400465,0.381386,79.5,-33.5,-34.5,0.0,0.0,0.0,0.0,0.0,0.0,2,0,41.55108373620932,-92.12956821975575,10997.37730657876,119.82256792874756,-0.0029129655384496,0.0018182735482486,,10022.661867135384,12264.339701119052,150,1,2025-09-12,2025-09-26 14:26:29.657,AH,C,1567873158,AMBUSH51,1,1,48,2,1,1,225,2,1,0,0,9,1,225,2,1,-148308.09727262516,-4791843.890333267,4197259.390475685,2.28249,2.8842,-0.226174,-109.948,30.254,26.5085,-0.142252,-7.61516,7.07322,0.0470849,0.00240829,-0.00667351,4,0,41.39281534149751,-91.77274480114708,9974.361210514442,-71.76300609094594,-0.9091378350841696,-2.2417436939943896,191.824,10022.661867135384,12264.339701119052,150,True,18.624763364303956,False,168.75497997515723,179.05477691808719,False,12.00390789772395,True,False
1,1970-07-23 10:27:51.908446757,2025-09-12,2025-09-26 14:26:30.844,AH,C,3183343534,JASSM,3,127,76,2,2,1,225,9,2,0,1,26,0,0,0,0,-177635.83239920562,-4779459.123994674,4210605.079557896,-2.36684,-0.400465,0.381386,79.5,-33.5,-34.5,0.0,0.0,0.0,0.0,0.0,0.0,2,0,41.55062566690148,-92.12850465787508,10997.375793262028,119.8232733729748,-0.0019946314838608,0.0018167031330426,,10022.661867135384,12264.339701119052,150,1,2025-09-12,2025-09-26 14:26:30.723,AH,C,1569145690,AMBUSH51,1,1,48,2,1,1,225,2,1,0,0,9,1,225,2,1,-148425.0424762721,-4791811.693834763,4197287.271303072,2.32173,2.88296,-0.226039,-110.504,29.9519,26.8063,-0.238913,-7.3513,6.78145,0.0163504,0.00214405,-0.0055271,4,0,41.39317354552653,-91.77415368141088,9964.546427923238,-71.72221653846985,-0.964054126190607,-0.0097978534135606,192.435,10022.661867135384,12264.339701119052,150,True,18.50439148273764,False,168.69205919461064,179.01612248794143,False,12.101169935101638,True,False
1,1970-07-23 10:27:51.919467786,2025-09-12,2025-09-26 14:26:31.946,AH,C,3184655942,JASSM,3,127,76,2,2,1,225,9,2,0,1,26,0,0,0,0,-177548.36267264312,-4779496.163057174,4210566.981901646,-2.36684,-0.400465,0.381482,79.5,-33.5,-34.5,0.0,0.0,0.0,0.0,0.0,0.0,2,0,41.55016755084531,-92.1274410516881,10997.375508148369,119.8278214246904,-0.0050017426403776,0.0018149189509527,,10022.661867135384,12264.339701119052,150,1,2025-09-12,2025-09-26 14:26:32.057,AH,C,1570736354,AMBUSH51,1,1,48,2,1,1,225,2,1,0,0,9,1,225,2,1,-148572.7036453027,-4791771.295501316,4197322.615231005,2.29884,2.8811,-0.228096,-111.029,30.092,26.9084,-0.101961,-7.16692,6.7165,-0.0223404,0.00802589,-0.00324885,4,0,41.39362523993824,-91.77593253743932,9953.095593369491,-71.5665953334309,-0.95782711804233,-1.3478956488692395,193.29,10022.661867135384,12264.339701119052,150,True,18.36688127030487,False,168.68222349894177,178.96677622727782,False,12.169002590217987,True,False
1,1970-07-23 10:27:51.932607617,2025-09-12,2025-09-26 14:26:33.260,AH,C,3185968236,JASSM,3,127,76,2,2,1,225,9,2,0,1,26,0,0,0,0,-177460.90173514312,-4779533.198213424,4210528.886198521,-2.36684,-0.400465,0.381482,79.5,-33.5,-34.5,0.0,0.0,0.0,0.0,0.0,0.0,2,0,41.54970945942197,-92.12637756747128,10997.37607151299,119.82852680473164,-0.0040834380814016,0.0018133902533598,,10022.661867135384,12264.339701119052,150,1,2025-09-12,2025-09-26 14:26:33.291,AH,C,1572207720,AMBUSH51,1,1,48,2,1,1,225,2,1,0,0,9,1,225,2,1,-148709.94656483675,-4791734.298020177,4197355.136645669,2.26703,2.885,-0.227944,-111.615,29.884,26.6556,-0.166774,-7.3541,6.92252,-0.0224007,0.0109075,-0.00616792,4,0,41.39403954609657,-91.77758570581156,9943.105052639705,-71.7226085917941,-0.8033820899825225,-3.117415048879772,194.207,10022.661867135384,12264.339701119052,150,True,18.235389395370376,False,168.43829762391042,178.9187948489616,False,12.466935821238444,True,False
1,1970-07-23 10:27:51.942503408,2025-09-12,2025-09-26 14:26:34.250,AH,C,3187280586,JASSM,3,127,76,2,2,1,225,9,2,0,1,26,0,0,0,0,-177373.43689139312,-4779570.231416549,4210490.788542271,-2.36684,-0.400465,0.381482,79.5,-33.5,-34.5,0.0,0.0,0.0,0.0,0.0,0.0,2,0,41.54925135748751,-92.12531405237512,10997.372617876665,119.82923219886516,-0.0031651033349026,0.0018118780429818,,10022.661867135384,12264.339701119052,150,1,2025-09-12,2025-09-26 14:26:34.397,AH,C,1573520018,AMBUSH51,1,1,48,2,1,1,225,2,1,0,0,9,1,225,2,1,-148833.75082290807,-4791701.457225585,4197384.373456735,2.24598,2.88862,-0.225192,-112.2,29.2804,26.5667,-0.254535,-7.34361,6.93105,-0.0030824,0.0071999,-0.0180856,4,0,41.394409411792665,-91.77907681917397,9935.198377015557,-71.97654209645918,-0.7620919103602637,-4.273698014078689,194.818,10022.661867135384,12264.339701119052,150,True,18.111525446978714,False,168.14566139515227,178.8738597411833,False,12.799853570345354,True,False
1,1970-07-23 10:27:51.952273112,2025-09-12,2025-09-26 14:26:35.227,AH,C,3188533286,JASSM,3,127,76,2,2,1,225,9,2,0,1,26,0,0,0,0,-177289.94665701812,-4779605.581025924,4210454.423307896,-2.36684,-0.400465,0.381482,79.5,-33.5,-34.5,0.0,0.0,0.0,0.0,0.0,0.0,2,0,41.54881407576634,-92.1242988802464,10997.375136343486,119.82990552275945,-0.0022885060920514,0.0018104449652643,,10022.661867135384,12264.339701119052,150,1,2025-09-12,2025-09-26 14:26:35.090,AH,C,1574355118,AMBUSH51,1,1,48,2,1,1,225,2,1,0,0,9,1,225,2,1,-148912.42795127368,-4791680.927580702,4197402.779404533,2.2517,2.88957,-0.222915,-112.581,29.0291,26.3841,-0.119377,-7.25673,6.67274,0.0616948,0.000373467,-0.00182572,4,0,41.394641250168725,-91.780024298904,9930.638750212289,-72.10889257460514,-0.8113726755578334,-3.931907298648623,195.196,10022.661867135384,12264.339701119052,150,True,18.015373232453996,False,167.94987571832326,178.843368192156,False,13.027408453911281,True,False
1,1970-07-23 10:27:51.963304280,2025-09-12,2025-09-26 14:26:36.330,AH,C,3189785984,JASSM,3,127,76,2,2,1,225,9,2,0,1,26,0,0,0,0,-177206.45739920562,-4779640.930635299,4210418.054167271,-2.36674,-0.400369,0.381482,79.5,-33.5,-34.5,0.0,0.0,0.0,0.0,0.0,0.0,2,0,41.548376758526246,-92.12328373348991,10997.37414694766,119.82693557466366,-0.0049783249014547,0.0052555697896524,,10022.661867135384,12264.339701119052,150,1,2025-09-12,2025-09-26 14:26:36.169,AH,C,1575627650,AMBUSH51,1,1,48,2,1,1,225,2,1,0,0,9,1,225,2,1,-149032.15445294755,-4791650.035159751,4197430.341135347,2.30926,2.89726,-0.216992,-113.105,28.821,26.2956,-0.330357,-7.50091,7.03159,0.0335194,0.00894344,-0.00586416,4,0,41.39498894081798,-91.78146600538577,9923.59355422438,-72.65114242434224,-0.7262161224786393,-0.5309770883362821,195.649,10022.661867135384,12264.339701119052,150,True,17.89661751881027,False,167.7782583115023,178.7969492832611,False,13.248109288090902,True,False
1,1970-07-23 10:27:51.973442272,2025-09-12,2025-09-26 14:26:37.344,AH,C,3191038684,JASSM,3,127,76,2,2,1,225,9,2,0,1,26,0,0,0,0,-177122.96716483062,-4779676.278291549,4210381.686979771,-2.36674,-0.400369,0.381482,79.5,-33.5,-34.5,0.0,0.0,0.0,0.0,0.0,0.0,2,0,41.5479394573108,-92.12226858959154,10997.377429835396,119.82760886828665,-0.0041017274327869,0.0052540792662383,,10022.661867135384,12264.339701119052,150,1,2025-09-12,2025-09-26 14:26:37.291,AH,C,1576979714,AMBUSH51,1,1,48,2,1,1,225,2,1,0,0,9,1,225,2,1,-149161.1153146543,-4791617.324701456,4197460.273264429,2.35849,2.89786,-0.227663,-113.356,28.4594,26.9512,-0.264252,-7.80317,7.09339,0.046546,0.017374,0.00624074,4,0,41.39536172108989,-91.783018717233,9917.933873549937,-72.2268815494582,-0.2843919162360587,2.293897952286004,196.064,10022.661867135384,12264.339701119052,150,True,17.77282802401473,False,167.8644032038061,178.74632162145167,False,13.201891946452289,True,False
1,1970-07-23 10:27:51.984465207,2025-09-12,2025-09-26 14:26:38.446,AH,C,3192351072,JASSM,3,127,76,2,2,1,225,9,2,0,1,26,0,0,0,0,-177035.49939139312,-4779713.309541549,4210343.583464146,-2.36674,-0.400369,0.381482,79.5,-33.5,-34.5,0.0,0.0,0.0,0.0,0.0,0.0,2,0,41.54748129006956,-92.12120509830652,10997.376959673313,119.82831422204396,-0.0031833567822962,0.0052524976629152,,10022.661867135384,12264.339701119052,150,1,2025-09-12,2025-09-26 14:26:38.323,AH,C,1578212480,AMBUSH51,1,1,48,2,1,1,225,2,1,0,0,9,1,225,2,1,-149277.44841954223,-4791587.89229149,4197487.983294073,2.39786,2.89463,-0.233041,-113.384,28.5854,27.7199,-0.178842,-7.37893,6.82658,0.0365904,0.0111801,0.00333623,4,0,41.39570232017683,-91.78441937663288,9914.559026029578,-71.87941477859172,-0.2057723465239024,4.505650476810663,196.516,10022.661867135384,12264.339701119052,150,True,17.65339844546307,False,168.15957718646388,178.7001443943305,False,12.948353099734465,True,False
1,1970-07-23 10:27:51.996985553,2025-09-12,2025-09-26 14:26:39.698,AH,C,3193663648,JASSM,3,127,76,2,2,1,225,9,2,0,1,26,0,0,0,0,-176948.01892264312,-4779750.344697799,4210305.474089146,-2.36674,-0.400369,0.381482,79.5,-33.5,-34.5,0.0,0.0,0.0,0.0,0.0,0.0,2,0,41.54702305299859,-92.1201414683341,10997.377553263144,119.82901966139326,-0.0022648564412681,0.0052509212218392,,10022.661867135384,12264.339701119052,150,1,2025-09-12,2025-09-26 14:26:39.724,AH,C,1579882678,AMBUSH51,1,1,48,2,1,1,225,2,1,0,0,9,1,225,2,1,-149436.08198707504,-4791546.780887097,4197527.052075837,2.44903,2.88637,-0.242669,-113.216,29.5076,28.9166,-0.191443,-7.25682,6.75613,0.00790522,-0.012081,0.00385638,4,0,41.396181211517344,-91.78632972507178,9910.349791863367,-71.16343924885011,-0.165238306126216,7.323847343443259,196.932,10022.661867135384,12264.339701119052,150,True,17.51009201782983,False,168.86241504048172,178.639085699759,False,12.311892134927445,True,False
1,1970-07-23 10:27:52.006501206,2025-09-12,2025-09-26 14:26:40.650,AH,C,3195035390,JASSM,3,127,76,2,2,1,225,9,2,0,1,26,0,0,0,0,-176856.59509451812,-4779789.047822799,4210265.645964146,-2.36674,-0.400369,0.381482,79.5,-33.5,-34.5,0.0,0.0,0.0,0.0,0.0,0.0,2,0,41.54654415214234,-92.1190299097866,10997.378386876317,119.8297568819434,-0.0013049545383053,0.005249275801247,,10022.661867135384,12264.339701119052,150,1,2025-09-12,2025-09-26 14:26:40.690,AH,C,1581035910,AMBUSH51,1,1,48,2,1,1,225,2,1,0,0,9,1,225,2,1,-149546.07320701313,-4791517.305191364,4197555.29230964,2.46214,2.8795,-0.2549,-112.926,30.4533,29.8496,-0.233066,-7.47043,6.96326,0.0154411,0.00842121,0.0120768,4,0,41.3965267848844,-91.78765467563402,9907.550277272348,-70.39169302812525,0.0352299765474794,7.977216713506426,197.384,10022.661867135384,12264.339701119052,150,True,17.390960874583318,False,169.50062496476912,178.59625536513403,False,11.724328819017156,True,False
1,1970-07-23 10:27:52.021008929,2025-09-12,2025-09-26 14:26:42.100,AH,C,3196407618,JASSM,3,127,76,2,2,1,225,9,2,0,1,26,0,0,0,0,-176765.13903983062,-4779827.762666549,4210225.802214146,-2.36674,-0.400369,0.381578,79.5,-33.5,-34.5,0.0,0.0,0.0,0.0,0.0,0.0,2,0,41.54606507248047,-92.11791797668434,10997.376932127798,119.83433706947416,-0.00427007919433,0.0052474753735184,,10022.661867135384,12264.339701119052,150,1,2025-09-12,2025-09-26 14:26:42.124,AH,C,1582745876,AMBUSH51,1,1,48,2,1,1,225,2,1,0,0,9,1,225,2,1,-149707.62500132155,-4791472.901169715,4197598.546771295,2.32326,2.86464,-0.269561,-112.655,31.3484,30.8128,0.0133227,-7.15027,6.62334,-0.178102,0.00514011,0.0185225,4,0,41.39705292417111,-91.789601163928,9904.571488225472,-69.2176699156018,0.0123623405740281,-0.2005195046162945,197.653,10022.661867135384,12264.339701119052,150,True,17.24233657348872,False,170.12867919264966,178.5369685553549,False,11.16366507382959,True,False
1,1970-07-23 10:27:52.029268199,2025-09-12,2025-09-26 14:26:42.926,AH,C,3197719744,JASSM,3,127,76,2,2,1,225,9,2,0,1,26,0,0,0,0,-176677.68786795562,-4779864.780244674,4210187.702604771,-2.36674,-0.400369,0.381578,79.5,-33.5,-34.5,0.0,0.0,0.0,0.0,0.0,0.0,2,0,41.5456069690485,-92.11685475161146,10997.374936301623,119.83504222063634,-0.0033518929269535,0.0052459693221464,,10022.661867135384,12264.339701119052,150,1,2025-09-12,2025-09-26 14:26:42.889,AH,C,1583660508,AMBUSH51,1,1,48,2,1,1,225,2,1,0,0,9,1,225,2,1,-149794.0479657591,-4791448.852840529,4197622.111036192,2.20397,2.86494,-0.269432,-112.885,31.1377,30.734,-0.093414,-7.12125,6.45517,-0.134345,-0.00681707,-0.0191987,4,0,41.39733899112457,-91.7906425708464,9903.182862160062,-69.23509733322284,0.0201789450048906,-7.030581733650967,198.093,10022.661867135384,12264.339701119052,150,True,17.13846522882481,False,170.0017453008185,178.5033653488082,False,11.323174325666074,True,False
1,1970-07-23 10:27:52.041320599,2025-09-12,2025-09-26 14:26:44.132,AH,C,3199091746,JASSM,3,127,76,2,2,1,225,9,2,0,1,26,0,0,0,0,-176586.24743826812,-4779903.487275924,4210147.862761021,-2.36674,-0.400273,0.381578,79.5,-33.5,-34.5,0.0,0.0,0.0,0.0,0.0,0.0,2,0,41.54512793773837,-92.11574304111652,10997.37573696101,119.8321365402028,-0.0059582267928507,0.003199063995063,,10022.661867135384,12264.339701119052,150,1,2025-09-12,2025-09-26 14:26:44.157,AH,C,1585171640,AMBUSH51,1,1,48,2,1,1,225,2,1,0,0,9,1,225,2,1,-149936.97272218755,-4791410.081433214,4197659.690373917,2.14075,2.8767,-0.246923,-113.818,30.4378,29.1682,-0.080609,-6.91855,6.25688,0.0478984,0.0028577,-0.0210109,4,0,41.39779672917513,-91.79236447779746,9900.3367207073,-70.62220271139303,-0.3868552092055858,-10.476440204970448,198.765,10022.661867135384,12264.339701119052,150,False,17.000630963032474,False,169.1196824574271,178.44706387732788,False,12.278795174520873,True,False
1,1970-07-23 10:27:52.051301853,2025-09-12,2025-09-26 14:26:45.130,AH,C,3200344446,JASSM,3,127,76,2,2,1,225,9,2,0,1,26,0,0,0,0,-176502.75720389312,-4779938.827119674,4210111.487761021,-2.36674,-0.400273,0.381578,79.5,-33.5,-34.5,0.0,0.0,0.0,0.0,0.0,0.0,2,0,41.54469056369156,-92.11472800230965,10997.379275614134,119.83280972107384,-0.0050816280750191,0.0031975697268169,,10022.661867135384,12264.339701119052,150,1,2025-09-12,2025-09-26 14:26:45.190,AH,C,1586404404,AMBUSH51,1,1,48,2,1,1,225,2,1,0,0,9,1,225,2,1,-150055.65087440348,-4791378.509221236,4197689.47003749,2.23759,2.88802,-0.239265,-114.485,29.7904,28.2657,-0.291397,-7.30663,6.61963,0.100993,0.00235419,-0.00841705,4,0,41.39816347888304,-91.79379405631516,9896.421475754309,-71.37376275494208,-0.225012741497525,-4.767791230734972,199.07,10022.661867135384,12264.339701119052,150,True,16.881863803595152,False,168.52157110494034,178.3964894144155,False,12.932165914499135,True,False
1,1970-07-23 10:27:52.062442849,2025-09-12,2025-09-26 14:26:46.244,AH,C,3201656792,JASSM,3,127,76,2,2,1,225,9,2,0,1,26,0,0,0,0,-176415.29138358062,-4779975.846650924,4210073.378386021,-2.36674,-0.400273,0.381578,79.5,-33.5,-34.5,0.0,0.0,0.0,0.0,0.0,0.0,2,0,41.54423235645908,-92.11366464606222,10997.375638237148,119.83351494016644,-0.0041632903690632,0.003196006411162,,10022.661867135384,12264.339701119052,150,1,2025-09-12,2025-09-26 14:26:46.257,AH,C,1587676936,AMBUSH51,1,1,48,2,1,1,225,2,1,0,0,9,1,225,2,1,-150177.1850468642,-4791346.94884757,4197719.205673272,2.32529,2.89113,-0.242045,-114.805,29.4109,28.2728,-0.054172,-7.5306,6.85943,0.0691018,0.0103416,0.00630732,4,0,41.398529310799695,-91.79525776628608,9892.66822577318,-71.37596859702678,0.0112394413691354,0.2994300931996389,199.327,10022.661867135384,12264.339701119052,150,True,16.75933213784148,False,168.36451179004746,178.34216993148894,False,13.13899737845681,True,False
1,1970-07-23 10:27:52.073464863,2025-09-12,2025-09-26 14:26:47.346,AH,C,3202969148,JASSM,3,127,76,2,2,1,225,9,2,0,1,26,0,0,0,0,-176327.82556326812,-4780012.868135299,4210035.267057896,-2.36674,-0.400273,0.381578,79.5,-33.5,-34.5,0.0,0.0,0.0,0.0,0.0,0.0,2,0,41.54377411455391,-92.11260130396631,10997.377925394969,119.8342201434852,-0.0032449396901663,0.0031944218576785,,10022.661867135384,12264.339701119052,150,1,2025-09-12,2025-09-26 14:26:47.289,AH,C,1588909702,AMBUSH51,1,1,48,2,1,1,225,2,1,0,0,9,1,225,2,1,-150296.6326007019,-4791316.377809021,4197748.48695948,2.38653,2.88809,-0.246732,-114.847,29.4625,28.7222,-0.233463,-7.27184,6.71449,0.0411885,0.00448056,-0.00219191,4,0,41.39888656114578,-91.79669619465577,9890.210350615052,-71.06523303378819,0.0717136377060377,3.766503990834449,199.657,10022.661867135384,12264.339701119052,150,True,16.63805277574016,False,168.522941059525,178.28762532794596,False,13.031981126962773,True,False
1,1970-07-23 10:27:52.083494254,2025-09-12,2025-09-26 14:26:48.349,AH,C,3204221846,JASSM,3,127,76,2,2,1,225,9,2,0,1,26,0,0,0,0,-176244.33532889312,-4780048.204072799,4209998.888151646,-2.36674,-0.400273,0.381578,79.5,-33.5,-34.5,0.0,0.0,0.0,0.0,0.0,0.0,2,0,41.54333670966115,-92.11158630922968,10997.378556531028,119.83489327710788,-0.0023683403874733,0.0031929242131282,,10022.661867135384,12264.339701119052,150,1,2025-09-12,2025-09-26 14:26:48.369,AH,C,1590182234,AMBUSH51,1,1,48,2,1,1,225,2,1,0,0,9,1,225,2,1,-150418.32572743497,-4791284.622518551,4197779.086294266,2.42359,2.88389,-0.253661,-114.686,30.0373,29.4409,-0.0537035,-7.42517,6.6938,0.0520804,-0.00304495,0.0137226,4,0,41.399259316873234,-91.7981619101349,9887.88077033396,-70.61668982533779,0.1729608524481926,5.831420918551147,199.889,10022.661867135384,12264.339701119052,150,True,16.517758728489536,False,168.9543569224901,178.23276178867675,False,12.65832561697871,True,False
1,1970-07-23 10:27:52.094506321,2025-09-12,2025-09-26 14:26:49.450,AH,C,3205474546,JASSM,3,127,76,2,2,1,225,9,2,0,1,26,0,0,0,0,-176160.84509451812,-4780083.538057174,4209962.507292271,-2.36674,-0.400273,0.381578,79.5,-33.5,-34.5,0.0,0.0,0.0,0.0,0.0,0.0,2,0,41.54289929426985,-92.1105713290351,10997.37504869894,119.83556639526412,-0.0014917408279068,0.0031914249017306,,10022.661867135384,12264.339701119052,150,1,2025-09-12,2025-09-26 14:26:49.557,AH,C,1591613832,AMBUSH51,1,1,48,2,1,1,225,2,1,0,0,9,1,225,2,1,-150556.81725654172,-4791247.567649085,4197815.38438711,2.50692,2.87436,-0.264484,-114.183,30.9797,30.8833,-0.237456,-7.27629,6.54759,0.0531644,-0.0120789,0.0149564,4,0,41.39969891094428,-91.79983031625366,9886.186559612246,-69.80449445907169,0.2126829465922815,10.468747371868538,200.182,10022.661867135384,12264.339701119052,150,False,16.3876271683439,False,169.7848819738519,178.17252747507925,False,11.885601052472115,True,False
1,1970-07-23 10:27:52.105261880,2025-09-12,2025-09-26 14:26:50.526,AH,C,3206786964,JASSM,3,127,76,2,2,1,225,9,2,0,1,26,0,0,0,0,-176073.37439139312,-4780120.555635299,4209924.392057896,-2.36674,-0.400273,0.381674,79.5,-33.5,-34.5,0.0,0.0,0.0,0.0,0.0,0.0,2,0,41.54244102171543,-92.10950797389437,10997.374465283994,119.84011445516911,-0.0044985781804326,0.003189689574256,,10022.661867135384,12264.339701119052,150,1,2025-09-12,2025-09-26 14:26:50.457,AH,C,1592687532,AMBUSH51,1,1,48,2,1,1,225,2,1,0,0,9,1,225,2,1,-150658.21573272138,-4791219.101850382,4197843.2285817005,2.55262,2.86122,-0.2716,-113.617,32.3265,31.9958,-0.217528,-7.30061,6.49285,0.0394096,-0.000785425,0.0160216,4,0,41.40003725569931,-91.801052378867,9884.419276148725,-69.01068151430346,-0.0357062687689904,12.889081463958382,200.219,10022.661867135384,12264.339701119052,150,False,16.275260944110315,False,170.63477564011777,178.12836296768873,False,11.09250553484247,True,False
1,1970-07-23 10:27:52.117263179,2025-09-12,2025-09-26 14:26:51.726,AH,C,3208158900,JASSM,3,127,76,2,2,1,225,9,2,0,1,26,0,0,0,0,-175981.93689139312,-4780159.250947799,4209884.546354771,-2.36674,-0.400273,0.381674,79.5,-33.5,-34.5,0.0,0.0,0.0,0.0,0.0,0.0,2,0,41.54196194890419,-92.10839641209078,10997.372896552342,119.84085161140555,-0.003538537161872,0.003188111420963,,10022.661867135384,12264.339701119052,150,1,2025-09-12,2025-09-26 14:26:51.623,AH,C,1594079364,AMBUSH51,1,1,48,2,1,1,225,2,1,0,0,9,1,225,2,1,-150791.0238710839,-4791179.950897637,4197881.513514465,2.57942,2.84415,-0.288884,-112.623,34.2652,33.7423,-0.168787,-7.31948,6.6373,-0.00133054,0.00114329,0.0222447,4,0,41.400503753773336,-91.80265371490356,9881.459531756896,-67.64661437072307,-0.0343320121802732,14.15334759460425,200.402,10022.661867135384,12264.339701119052,150,False,16.14187906474478,False,171.93246697501678,178.07472675460764,False,9.86556008226915,True,False
1,1970-07-23 10:27:52.128306066,2025-09-12,2025-09-26 14:26:52.830,AH,C,3209471604,JASSM,3,127,76,2,2,1,225,9,2,0,1,26,0,0,0,0,-175894.44763358062,-4780196.276338424,4209846.421354771,-2.36674,-0.400177,0.381674,79.5,-33.5,-34.5,0.0,0.0,0.0,0.0,0.0,0.0,2,0,41.54150354786725,-92.107332862124,10997.379570193796,119.837914208051,-0.0061863568354388,0.0011408101871394,,10022.661867135384,12264.339701119052,150,1,2025-09-12,2025-09-26 14:26:52.857,AH,C,1595550728,AMBUSH51,1,1,48,2,1,1,225,2,1,0,0,9,1,225,2,1,-150929.85100238706,-4791136.298489407,4197924.433039079,2.48177,2.82567,-0.302694,-111.779,34.9858,36.1382,-0.144836,-7.5606,6.68192,-0.121749,0.00239372,0.0224444,4,0,41.40102716679112,-91.80432867633668,9877.960052980356,-66.37536191941065,-0.2167368755161242,8.246751680168718,200.488,10022.661867135384,12264.339701119052,150,True,16.006384304992213,False,173.05774520442716,178.0239437552511,False,8.752297557665402,True,False
1,1970-07-23 10:27:52.138442861,2025-09-12,2025-09-26 14:26:53.844,AH,C,3210783602,JASSM,3,127,76,2,2,1,225,9,2,0,1,26,0,0,0,0,-175807.00476248687,-4780233.278291549,4209808.313932896,-2.36674,-0.400177,0.381674,79.5,-33.5,-34.5,0.0,0.0,0.0,0.0,0.0,0.0,2,0,41.541045384958544,-92.10626989273686,10997.376544366987,119.83861912635454,-0.0052682581926934,0.0011392425787928,,10022.661867135384,12264.339701119052,150,1,2025-09-12,2025-09-26 14:26:53.857,AH,C,1596743728,AMBUSH51,1,1,48,2,1,1,225,2,1,0,0,9,1,225,2,1,-151041.52325956037,-4791100.156204108,4197960.462200254,2.36113,2.82284,-0.307357,-111.37,36.1754,36.508,-0.00900182,-7.54968,6.48081,-0.118522,0.000225745,-0.00134927,4,0,41.40146445750131,-91.8056764190794,9875.889102963432,-66.07683575132752,-0.1411859326477916,1.2848545881161029,200.745,10022.661867135384,12264.339701119052,150,True,15.886141984040123,False,173.59767663110128,177.98397207332326,False,8.285168692627966,True,False
