Subject_cm,Timestamp,SampleDate_cm,SampleTime_cm,Configuration_cm,Scenario_cm,DisTime_cm,MarkingTxt_cm,Application_cm,EntId_cm,Site_cm,ExerciseId_cm,ForceId_cm,Category_cm,Country_cm,Domain_cm,Kind_cm,Extra_cm,Specific_cm,Subcategory_cm,AltCategory_cm,AltCountry_cm,AltDomain_cm,AltKind_cm,ECEF_X_cm,ECEF_Y_cm,ECEF_Z_cm,OriPhi_cm,OriPsi_cm,OriTheta_cm,LinVelX_cm,LinVelY_cm,LinVelZ_cm,LinAccX_cm,LinAccY_cm,LinAccZ_cm,AngVelX_cm,AngVelY_cm,AngVelZ_cm,DrAlg_cm,Appearance_cm,Latitude_cm,Longitude_cm,Altitude_cm,Heading_cm,Pitch_cm,Roll_cm,CalibratedAirspeed_cm,CM_Altitude_Lead_cm,CM_Altitude_Wing_cm,CM_Airspeed_cm,Subject_ac,SampleDate_ac,SampleTime_ac,Configuration_ac,Scenario_ac,DisTime_ac,MarkingTxt_ac,Application_ac,EntId_ac,Site_ac,ExerciseId_ac,ForceId_ac,Category_ac,Country_ac,Domain_ac,Kind_ac,Extra_ac,Specific_ac,Subcategory_ac,AltCategory_ac,AltCountry_ac,AltDomain_ac,AltKind_ac,ECEF_X_ac,ECEF_Y_ac,ECEF_Z_ac,OriPhi_ac,OriPsi_ac,OriTheta_ac,LinVelX_ac,LinVelY_ac,LinVelZ_ac,LinAccX_ac,LinAccY_ac,LinAccZ_ac,AngVelX_ac,AngVelY_ac,AngVelZ_ac,DrAlg_ac,Appearance_ac,Latitude_ac,Longitude_ac,Altitude_ac,Heading_ac,Pitch_ac,Roll_ac,CalibratedAirspeed_ac,CM_Altitude_Lead_ac,CM_Altitude_Wing_ac,CM_Airspeed_ac,Bank_Angle_Condition,distance_nm,Distance_Condition,angle_between_vel,angle_between_pos,Cone_Condition,angle_between_pos_nose,Nose_Cone_Condition,Intercept_Criteria
1,1970-07-23 10:28:05.549279026,2025-09-12,2025-09-26 14:49:14.927,HA,C,515691624,JASSM,3,150,76,2,2,1,225,9,2,0,1,26,0,0,0,0,-173066.37829764312,-4769975.262666549,4221462.597136021,-2.51458,-0.703426,0.607361,57.5,-48.625,-52.25,0.0,0.0,0.0,0.0,0.0,0.0,2,0,41.6813163606304,-92.07791964484264,10997.370127441189,139.82782686514835,-0.0019859266314575,0.0009632851043439,,10150.171305463598,12127.771392007851,150,1,2025-09-12,2025-09-26 14:49:14.899,HA,C,2517406894,HAWK11,1,1,73,2,1,1,225,2,1,0,0,12,1,225,2,1,-143333.50622733062,-4791437.865205611,4198884.058073521,2.27556,2.71476,-0.44984,-98.125,29.625,31.5,-0.015625,-7.29688,6.45312,-0.126953,0.00585938,-0.0078125,4,0,41.407098359534245,-91.71346406141043,12128.174433417838,-56.18069516309414,1.5178849223748472,-5.834253482136195,194.207,10150.171305463598,12127.771392007851,150,True,23.18252030564387,False,152.63672836792716,175.16840258056826,False,22.553276714083403,True,False
1,1970-07-23 10:28:05.558320455,2025-09-12,2025-09-26 14:49:15.832,HA,C,516765368,JASSM,3,150,76,2,2,1,225,9,2,0,1,26,0,0,0,0,-173014.66101248687,-4770019.137666549,4221415.460417271,-2.51458,-0.703426,0.607361,57.5,-48.625,-52.25,0.0,0.0,0.0,0.0,0.0,0.0,2,0,41.68074840303333,-92.07728015546805,10997.374905688364,139.8282521148447,-0.001243846335865,0.0009618507517763,,10150.171305463598,12127.771392007851,150,1,2025-09-12,2025-09-26 14:49:15.711,HA,C,2518321526,HAWK11,1,1,73,2,1,1,225,2,1,0,0,12,1,225,2,1,-143408.49060233062,-4791414.883760299,4198907.770964146,2.22168,2.72646,-0.448402,-98.25,29.375,30.625,-0.046875,-7.46875,6.54688,-0.0214844,0.0,-0.015625,4,0,41.40738177809213,-91.71436813660912,12128.62375180193,-56.67348828330406,1.8780507088199507,-8.644891954946912,194.158,10150.171305463598,12127.771392007851,150,True,23.097642202884053,False,152.2107950267149,175.20077722474878,False,23.007813864495212,True,False
1,1970-07-23 10:28:05.570226874,2025-09-12,2025-09-26 14:49:17.022,HA,C,517898760,JASSM,3,150,76,2,2,1,225,9,2,0,1,26,0,0,0,0,-172960.07019217435,-4770065.446260299,4221365.702604771,-2.51458,-0.703426,0.607361,57.5,-48.625,-52.25,0.0,0.0,0.0,0.0,0.0,0.0,2,0,41.68014889570775,-92.07660514857557,10997.368952159728,139.8287009779376,-0.0004605437068199,0.0009603429033873,,10150.171305463598,12127.771392007851,150,1,2025-09-12,2025-09-26 14:49:17.007,HA,C,2519872426,HAWK11,1,1,73,2,1,1,225,2,1,0,0,12,1,225,2,1,-143535.40466483062,-4791377.506807174,4198946.985807896,2.24134,2.74563,-0.439965,-98.5,27.875,30.0,-0.09375,-7.78125,6.78125,0.115234,0.00195312,0.0,4,0,41.40784620538211,-91.7158977939197,12131.13406433375,-57.722865553344704,2.2257851051445865,-7.083975393327637,194.39,10150.171305463598,12127.771392007851,150,True,22.982871033385123,False,151.42998381587446,175.26357295854643,False,23.858265525751726,True,False
1,1970-07-23 10:28:05.577236317,2025-09-12,2025-09-26 14:49:17.723,HA,C,519032156,JASSM,3,150,76,2,2,1,225,9,2,0,1,26,0,0,0,0,-172905.47937186187,-4770111.758760299,4221315.944792271,-2.51458,-0.703426,0.607456,57.5,-48.625,-52.25,0.0,0.0,0.0,0.0,0.0,0.0,2,0,41.6795493609957,-92.07593015251392,10997.376474465847,139.8323717644976,-0.0041241757117776,0.0009587140501072,,10150.171305463598,12127.771392007851,150,1,2025-09-12,2025-09-26 14:49:17.808,HA,C,2520826824,HAWK11,1,1,73,2,1,1,225,2,1,0,0,12,1,225,2,1,-143614.59216483062,-4791355.239229049,4198970.669401646,2.29953,2.75589,-0.432199,-98.375,27.5,29.125,-0.1875,-7.4375,6.34375,0.0527344,0.0,-0.0234375,4,0,41.4081244105016,-91.71685185076184,12133.59473922851,-58.415785085878376,2.283905784130541,-3.5284466798573324,194.891,10150.171305463598,12127.771392007851,150,True,22.89420045349406,False,151.00919220914412,175.3005476987131,False,24.313108165371776,True,False
1,1970-07-23 10:28:05.586279297,2025-09-12,2025-09-26 14:49:18.627,HA,C,520105980,JASSM,3,150,76,2,2,1,225,9,2,0,1,26,0,0,0,0,-172853.75818045562,-4770155.633760299,4221268.800261021,-2.51458,-0.703426,0.607456,57.5,-48.625,-52.25,0.0,0.0,0.0,0.0,0.0,0.0,2,0,41.678981340493664,-92.0752906512692,10997.374780962024,139.83279700740846,-0.0033820330573524,0.0009573147831897,,10150.171305463598,12127.771392007851,150,1,2025-09-12,2025-09-26 14:49:18.601,HA,C,2521781224,HAWK11,1,1,73,2,1,1,225,2,1,0,0,12,1,225,2,1,-143692.90857108062,-4791333.019502486,4198993.950651646,2.32877,2.76385,-0.432966,-98.0,27.375,28.875,-0.09375,-7.5,6.45312,0.0117188,0.00195312,0.0136719,4,0,41.40839976287084,-91.71779549101008,12135.239523101294,-58.67934559266261,2.6075429528596143,-1.6729807676651784,195.502,10150.171305463598,12127.771392007851,150,True,22.80844582655165,False,150.95101316670636,175.33780202667214,False,24.40806253469944,True,False
1,1970-07-23 10:28:05.596616918,2025-09-12,2025-09-26 14:49:19.661,HA,C,521239292,JASSM,3,150,76,2,2,1,225,9,2,0,1,26,0,0,0,0,-172799.17126639312,-4770201.938447799,4221219.046354771,-2.51458,-0.703426,0.607456,57.5,-48.625,-52.25,0.0,0.0,0.0,0.0,0.0,0.0,2,0,41.67838187006641,-92.07461572986097,10997.379655681145,139.83324579816394,-0.0025987907610787,0.0009558546571576,,10150.171305463598,12127.771392007851,150,1,2025-09-12,2025-09-26 14:49:19.805,HA,C,2523212822,HAWK11,1,1,73,2,1,1,225,2,1,0,0,12,1,225,2,1,-143809.72107108062,-4791300.364229049,4199028.479948521,2.34239,2.75407,-0.440061,-97.5,26.875,28.875,-0.421875,-7.375,6.26562,-0.0292969,0.00195312,-0.0117188,4,0,41.40880623372639,-91.71920281366026,12138.471331596977,-58.03288118914146,2.539362162974773,-1.1005748407632274,196.333,10150.171305463598,12127.771392007851,150,True,22.70006035266292,False,150.88217010211883,175.39830424368307,False,24.541419970303547,True,False
1,1970-07-23 10:28:05.605194616,2025-09-12,2025-09-26 14:49:20.519,HA,C,522372686,JASSM,3,150,76,2,2,1,225,9,2,0,1,26,0,0,0,0,-172744.58044608062,-4770248.243135299,4221169.284636021,-2.51448,-0.703426,0.607456,57.5,-48.625,-52.25,0.0,0.0,0.0,0.0,0.0,0.0,2,0,41.67778234395016,-92.07394077412282,10997.371050235835,139.8336946064528,-0.0018154863299807,0.0064458600212853,,10150.171305463598,12127.771392007851,150,1,2025-09-12,2025-09-26 14:49:20.507,HA,C,2524087688,HAWK11,1,1,73,2,1,1,225,2,1,0,0,12,1,225,2,1,-143881.02185233062,-4791280.324189986,4199049.477995396,2.32542,2.7557,-0.439677,-97.125,27.0,28.5,0.140625,-6.8125,6.0,-0.0195312,-0.00195312,-0.00390625,4,0,41.40905444268717,-91.72006187155502,12140.01347126445,-58.10902554389486,2.583865490814218,-2.0363495760329644,196.785,10150.171305463598,12127.771392007851,150,True,22.615691852632192,False,150.86251367661353,175.43175842604435,False,24.591387990777942,True,False
1,1970-07-23 10:28:05.614256201,2025-09-12,2025-09-26 14:49:21.425,HA,C,523506078,JASSM,3,150,76,2,2,1,225,9,2,0,1,26,0,0,0,0,-172689.98962576812,-4770294.551729049,4221119.522917271,-2.51448,-0.70333,0.607456,57.5,-48.625,-52.25,0.0,0.0,0.0,0.0,0.0,0.0,2,0,41.67718279044895,-92.07326582921604,10997.37592101639,139.83049207025277,-0.0036778031286952,0.0033101027373897,,10150.171305463598,12127.771392007851,150,1,2025-09-12,2025-09-26 14:49:21.399,HA,C,2525121620,HAWK11,1,1,73,2,1,1,225,2,1,0,0,12,1,225,2,1,-143965.16247733062,-4791256.667939986,4199074.067839146,2.32925,2.75445,-0.435075,-96.875,26.875,28.25,0.078125,-7.21875,6.29688,0.0566406,-0.00976562,-0.00585938,4,0,41.40934610567001,-91.72107563948984,12141.40773766766,-58.24934549263127,2.351771991503311,-1.8527262887623503,197.384,10150.171305463598,12127.771392007851,150,True,22.524610888358893,False,150.77721207206133,175.47342528624657,False,24.717907767727006,True,False
1,1970-07-23 10:28:05.624595201,2025-09-12,2025-09-26 14:49:22.459,HA,C,524579822,JASSM,3,150,76,2,2,1,225,9,2,0,1,26,0,0,0,0,-172638.27185233062,-4770338.418916549,4221072.382292271,-2.51448,-0.70333,0.607456,57.5,-48.625,-52.25,0.0,0.0,0.0,0.0,0.0,0.0,2,0,41.67661482712081,-92.0726264192176,10997.37854456561,139.83091723275354,-0.0029357368416399,0.0033086773456228,,10150.171305463598,12127.771392007851,150,1,2025-09-12,2025-09-26 14:49:22.429,HA,C,2525797652,HAWK11,1,1,73,2,1,1,225,2,1,0,0,12,1,225,2,1,-144020.70935233062,-4791241.249971236,4199090.145964146,2.36502,2.75148,-0.432199,-96.75,26.0,28.875,-0.109375,-7.01562,6.20312,0.0644531,-0.0078125,0.0,4,0,41.40953641446348,-91.72174482914632,12142.483250350995,-58.25568840269719,2.1264630689368387,0.1245548017622166,197.799,10150.171305463598,12127.771392007851,150,True,22.451158857232382,False,150.73116045388647,175.49859679781375,False,24.800511247176757,True,False
1,1970-07-23 10:28:05.632297663,2025-09-12,2025-09-26 14:49:23.229,HA,C,525653562,JASSM,3,150,76,2,2,1,225,9,2,0,1,26,0,0,0,0,-172586.55407889312,-4770382.286104049,4221025.237761021,-2.51448,-0.70333,0.607456,57.5,-48.625,-52.25,0.0,0.0,0.0,0.0,0.0,0.0,2,0,41.676046833924126,-92.0719870204624,10997.376156117292,139.8313423830264,-0.0021936504183364,0.003307234997311,,10150.171305463598,12127.771392007851,150,1,2025-09-12,2025-09-26 14:49:23.307,HA,C,2527428084,HAWK11,1,1,73,2,1,1,225,2,1,0,0,12,1,225,2,1,-144152.35583670562,-4791202.650361861,4199127.849089146,2.59425,2.72588,-0.436513,-95.75,28.875,27.625,-0.21875,-5.89062,5.70312,0.164062,-0.00390625,0.0195312,4,0,41.40999696736699,-91.72333156877814,12139.102972538472,-57.13173504701242,1.3748238733510103,12.676080669847964,198.252,10150.171305463598,12127.771392007851,150,False,22.337351315667988,False,151.44753260439316,175.57043713830777,False,24.130565632963002,True,False
1,1970-07-23 10:28:05.642313168,2025-09-12,2025-09-26 14:49:24.231,HA,C,526727304,JASSM,3,150,76,2,2,1,225,9,2,0,1,26,0,0,0,0,-172534.83728201812,-4770426.153291549,4220978.093229771,-2.51448,-0.70333,0.607456,57.5,-48.625,-52.25,0.0,0.0,0.0,0.0,0.0,0.0,2,0,41.67547883690293,-92.07134764466406,10997.377363805605,139.83176751328205,-0.0014515694036543,0.0033057858061816,,10150.171305463598,12127.771392007851,150,1,2025-09-12,2025-09-26 14:49:24.141,HA,C,2527905284,HAWK11,1,1,73,2,1,1,225,2,1,0,0,12,1,225,2,1,-144190.20153983062,-4791190.834932174,4199138.645964146,2.66606,2.71563,-0.440061,-95.5,30.0,27.625,-0.3125,-6.125,6.25,0.179688,0.0078125,0.0234375,4,0,41.41013335607707,-91.72378798705354,12136.27402509152,-56.60756170438734,1.1524360050484064,16.55265946476357,198.875,10150.171305463598,12127.771392007851,150,False,22.272894473564012,False,151.8683225302466,175.58447952123265,False,23.71973169825376,True,False
1,1970-07-23 10:28:05.651213730,2025-09-12,2025-09-26 14:49:25.121,HA,C,527860700,JASSM,3,150,76,2,2,1,225,9,2,0,1,26,0,0,0,0,-172480.24548514312,-4770472.457979049,4220928.327604771,-2.51448,-0.70333,0.607456,57.5,-48.625,-52.25,0.0,0.0,0.0,0.0,0.0,0.0,2,0,41.67487926524777,-92.07067273787094,10997.379085016884,139.83221626345554,-0.0006682391253607,0.0033042589334952,,10150.171305463598,12127.771392007851,150,1,2025-09-12,2025-09-26 14:49:25.305,HA,C,2529734548,HAWK11,1,1,73,2,1,1,225,2,1,0,0,12,1,225,2,1,-144336.39685233062,-4791140.152314986,4199182.724089146,2.84793,2.66635,-0.448594,-93.5,35.25,29.75,0.203125,-6.23438,6.625,0.0585938,0.0195312,0.0566406,4,0,41.41070618655112,-91.72555293235588,12118.101689140874,-54.41577991900164,-0.2351469794361637,25.777136964765337,199.107,10150.171305463598,12127.771392007851,150,False,22.146265541090923,False,154.77623756426604,175.65992577934162,False,20.885116937929844,True,False
1,1970-07-23 10:28:05.661256213,2025-09-12,2025-09-26 14:49:26.125,HA,C,529053746,JASSM,3,150,76,2,2,1,225,9,2,0,1,26,0,0,0,0,-172422.78112967435,-4770521.196260299,4220875.944792271,-2.51448,-0.70333,0.607552,57.5,-48.625,-52.25,0.0,0.0,0.0,0.0,0.0,0.0,2,0,41.67424816740819,-92.06996233303904,10997.381108434409,139.83591279490207,-0.0042932537880356,0.0033025519564236,,10150.171305463598,12127.771392007851,150,1,2025-09-12,2025-09-26 14:49:26.008,HA,C,2530609414,HAWK11,1,1,73,2,1,1,225,2,1,0,0,12,1,225,2,1,-144404.95544608062,-4791113.333955611,4199204.913542271,2.92262,2.64027,-0.453675,-92.5,37.75,31.625,-0.1875,-6.73438,7.125,0.103516,0.0195312,0.0507812,4,0,41.41100320877391,-91.7263817174057,12105.377640188275,-53.22545186187906,-0.9235410084487792,29.39293133773696,199.474,10150.171305463598,12127.771392007851,150,False,22.05834211680283,False,156.47881937627247,175.68729098444797,False,19.213781215969956,True,False
1,1970-07-23 10:28:05.671277182,2025-09-12,2025-09-26 14:49:27.127,HA,C,530246792,JASSM,3,150,76,2,2,1,225,9,2,0,1,26,0,0,0,0,-172365.31677420562,-4770569.934541549,4220823.558073521,-2.51448,-0.70333,0.607552,57.5,-48.625,-52.25,0.0,0.0,0.0,0.0,0.0,0.0,2,0,41.67361703885214,-92.06925194208604,10997.37894355546,139.83638512727043,-0.0034687064231963,0.0033009908163419,,10150.171305463598,12127.771392007851,150,1,2025-09-12,2025-09-26 14:49:26.900,HA,C,2531484280,HAWK11,1,1,73,2,1,1,225,2,1,0,0,12,1,225,2,1,-144473.65857108062,-4791083.854463424,4199229.142057896,2.9765,2.62665,-0.442266,-91.5,41.0,33.875,-0.171875,-7.09375,7.45312,0.0625,0.0078125,0.0488281,4,0,41.41132979363797,-91.72721319663732,12090.547481837964,-53.13705095385519,-1.8787092249859472,32.140166203115754,199.804,10150.171305463598,12127.771392007851,150,False,21.96906689336555,False,158.4933415758898,175.71193844106375,False,17.23528542221147,True,False
1,1970-07-23 10:28:05.681838281,2025-09-12,2025-09-26 14:49:28.183,HA,C,531439804,JASSM,3,150,76,2,2,1,225,9,2,0,1,26,0,0,0,0,-172307.85437186187,-4770618.668916549,4220771.171354771,-2.51448,-0.70333,0.607552,57.5,-48.625,-52.25,0.0,0.0,0.0,0.0,0.0,0.0,2,0,41.67298592877052,-92.0685415901308,10997.371717863978,139.83685742784257,-0.0026441885957131,0.0032994301039678,,10150.171305463598,12127.771392007851,150,1,2025-09-12,2025-09-26 14:49:28.182,HA,C,2532995412,HAWK11,1,1,73,2,1,1,225,2,1,0,0,12,1,225,2,1,-144589.55896170562,-4791027.230439986,4199275.017057896,3.04725,2.57728,-0.464221,-88.5,46.875,38.125,-0.28125,-7.67188,7.96875,0.0351562,0.0390625,0.0585938,4,0,41.41195549042839,-91.72861838754751,12059.439493591572,-50.39040585794407,-2.593522867452424,34.84800631604913,200.292,10150.171305463598,12127.771392007851,150,False,21.849003340660612,False,162.36410598315425,175.75289769242406,False,13.460709320369908,True,False
1,1970-07-23 10:28:05.691197649,2025-09-12,2025-09-26 14:49:29.119,HA,C,532573230,JASSM,3,150,76,2,2,1,225,9,2,0,1,26,0,0,0,0,-172253.26159842435,-4770664.969697799,4220721.405729771,-2.51448,-0.70333,0.607552,57.5,-48.625,-52.25,0.0,0.0,0.0,0.0,0.0,0.0,2,0,41.672386363946345,-92.06786672539852,10997.380045528877,139.8373061281463,-0.0018608710758929,0.0032979681354713,,10150.171305463598,12127.771392007851,150,1,2025-09-12,2025-09-26 14:49:29.101,HA,C,2534267944,HAWK11,1,1,73,2,1,1,225,2,1,0,0,12,1,225,2,1,-144683.35974295562,-4790974.065400924,4199318.493620396,3.09893,2.528,-0.488765,-85.375,51.5,42.875,-0.21875,-8.0625,8.375,0.015625,0.0273438,0.0507812,4,0,41.41254837620578,-91.72975831052884,12030.001520660078,-47.55770275459445,-3.105391201911506,36.37270989298018,200.622,10150.171305463598,12127.771392007851,150,False,21.741106533446388,False,166.03165727361235,175.77583317015078,False,9.906438638771695,True,False
1,1970-07-23 10:28:05.701283018,2025-09-12,2025-09-26 14:49:30.128,HA,C,533766538,JASSM,3,150,76,2,2,1,225,9,2,0,1,26,0,0,0,0,-172195.78454764312,-4770713.715791549,4220669.003386021,-2.51448,-0.70333,0.607552,57.5,-48.625,-52.25,0.0,0.0,0.0,0.0,0.0,0.0,2,0,41.67175507323348,-92.06715621973328,10997.374590991156,139.83777851947363,-0.0010361345872186,0.0032963996755231,,10150.171305463598,12127.771392007851,150,1,2025-09-12,2025-09-26 14:49:30.007,HA,C,2535381408,HAWK11,1,1,73,2,1,1,225,2,1,0,0,12,1,225,2,1,-144762.29724295562,-4790923.023408736,4199360.835417271,3.13661,2.48045,-0.514842,-82.0,56.0,47.25,-0.203125,-8.46875,8.8125,0.0292969,0.0488281,0.0664062,4,0,41.41312363450035,-91.73071989954592,12002.224544122097,-44.75221668926923,-3.402039044701336,37.06145564385842,201.099,10150.171305463598,12127.771392007851,150,False,21.63706644248056,False,169.39436235272368,175.78517440408245,False,6.813282643058789,True,False
1,1970-07-23 10:28:05.711256849,2025-09-12,2025-09-26 14:49:31.125,HA,C,534962036,JASSM,3,150,76,2,2,1,225,9,2,0,1,26,0,0,0,0,-172138.20202811187,-4770762.547822799,4220616.507292271,-2.51448,-0.703234,0.607552,57.5,-48.625,-52.25,0.0,0.0,0.0,0.0,0.0,0.0,2,0,41.6711226568119,-92.0664444257512,10997.370126411475,139.8345985479165,-0.0028572234518382,0.0001581407225901,,10150.171305463598,12127.771392007851,150,1,2025-09-12,2025-09-26 14:49:31.007,HA,C,2536614174,HAWK11,1,1,73,2,1,1,225,2,1,0,0,12,1,225,2,1,-144845.56872733062,-4790862.380830611,4199412.645964146,-3.08464,2.42081,-0.555109,-77.625,60.0,52.625,-0.21875,-9.375,9.51562,0.0410156,0.0644531,0.0429688,4,0,41.41381913110234,-91.73173676060968,11971.71359604359,-41.01200881365184,-3.2867475791236203,38.64914140244334,201.539,10150.171305463598,12127.771392007851,150,False,21.526036733058355,False,173.1110861471551,175.78603328502317,False,3.990215512654654,True,False
1,1970-07-23 10:28:05.721296054,2025-09-12,2025-09-26 14:49:32.129,HA,C,536212024,JASSM,3,150,76,2,2,1,225,9,2,0,1,26,0,0,0,0,-172077.99499686187,-4770813.606416549,4220561.616667271,-2.51448,-0.703234,0.607552,57.5,-48.625,-52.25,0.0,0.0,0.0,0.0,0.0,0.0,2,0,41.67046139343947,-92.06570020394786,10997.368237855457,139.83509334359374,-0.0019933312079684,0.0001564555778301,,10150.171305463598,12127.771392007851,150,1,2025-09-12,2025-09-26 14:49:31.899,HA,C,2537687874,HAWK11,1,1,73,2,1,1,225,2,1,0,0,12,1,225,2,1,-144913.57458670562,-4790805.849580611,4199462.477995396,-3.02587,2.36147,-0.591733,-72.625,63.625,57.75,-0.296875,-9.5,9.73438,0.0292969,0.0527344,0.0664062,4,0,41.414479553531166,-91.73256975746352,11945.890905877895,-37.46500958720098,-3.1665234355865297,39.971407192218976,201.905,10150.171305463598,12127.771392007851,150,False,21.42000896581434,False,176.0388504172379,175.77437577770144,False,4.307542339873106,True,False
1,1970-07-23 10:28:05.731314825,2025-09-12,2025-09-26 14:49:33.131,HA,C,537405072,JASSM,3,150,76,2,2,1,225,9,2,0,1,26,0,0,0,0,-172020.53064139312,-4770862.340791549,4220509.226042271,-2.51448,-0.703234,0.607552,57.5,-48.625,-52.25,0.0,0.0,0.0,0.0,0.0,0.0,2,0,41.6698302352243,-92.06498989795077,10997.373983009827,139.83556558434807,-0.0011687819975488,0.000154838873462,,10150.171305463598,12127.771392007851,150,1,2025-09-12,2025-09-26 14:49:33.101,HA,C,2538880872,HAWK11,1,1,73,2,1,1,225,2,1,0,0,12,1,225,2,1,-144982.77185233062,-4790738.679658736,4199523.036589146,-2.95253,2.27978,-0.636027,-66.0,67.75,63.25,-0.265625,-10.0469,10.1875,0.0253906,0.0683594,0.0527344,4,0,41.41527544703488,-91.7334208560378,11917.278531099884,-32.8708629156997,-3.031322813722732,41.22756438052843,202.309,10150.171305463598,12127.771392007851,150,False,21.309938995906894,False,175.3256862510571,175.74948790667995,False,8.104896348225894,True,False
1,1970-07-23 10:28:05.741196304,2025-09-12,2025-09-26 14:49:34.119,HA,C,538598138,JASSM,3,150,76,2,2,1,225,9,2,0,1,26,0,0,0,0,-171963.06482108062,-4770911.071260299,4220456.835417271,-2.51448,-0.703234,0.607648,57.5,-48.625,-52.25,0.0,0.0,0.0,0.0,0.0,0.0,2,0,41.66919909622096,-92.06427958994972,10997.374364696265,139.8392602452536,-0.0047908423865641,0.0001531020721595,,10150.171305463598,12127.771392007851,150,1,2025-09-12,2025-09-26 14:49:34.007,HA,C,2540034104,HAWK11,1,1,73,2,1,1,225,2,1,0,0,12,1,225,2,1,-145042.75036795562,-4790670.571260299,4199586.905729771,-2.89107,2.18976,-0.687607,-58.0,71.375,68.75,-0.25,-10.8906,11.1406,-0.00390625,0.078125,0.0546875,4,0,41.4161009223906,-91.7341621632047,11892.863456471952,-27.87867839177921,-2.392993328816676,41.34005696879317,202.822,10150.171305463598,12127.771392007851,150,False,21.202035376644556,False,171.10413997779077,175.71133293045216,False,12.960320887071532,True,False
1,1970-07-23 10:28:05.751232977,2025-09-12,2025-09-26 14:49:35.123,HA,C,539791164,JASSM,3,150,76,2,2,1,225,9,2,0,1,26,0,0,0,0,-171905.60144217435,-4770959.801729049,4220404.444792271,-2.51448,-0.703234,0.607648,57.5,-48.625,-52.25,0.0,0.0,0.0,0.0,0.0,0.0,2,0,41.66856795223279,-92.0635693251056,10997.379294698914,139.83973244703375,-0.003966317049775,0.0001515389666088,,10150.171305463598,12127.771392007851,150,1,2025-09-12,2025-09-26 14:49:35.181,HA,C,2540988502,HAWK11,1,1,73,2,1,1,225,2,1,0,0,12,1,225,2,1,-145086.35193045562,-4790611.858369674,4199644.099089146,-2.83767,2.11488,-0.729791,-50.75,73.375,73.625,-0.203125,-11.6562,11.7656,0.0078125,0.0742188,0.0488281,4,0,41.41682838917694,-91.73470440133704,11875.8515687934,-23.89664214445784,-1.6151256914879553,41.466859993071466,203.115,10150.171305463598,12127.771392007851,150,False,21.10458191103033,False,167.06330569673563,175.66634385725007,False,17.191546390799026,True,False
1,1970-07-23 10:28:05.771296546,2025-09-12,2025-09-26 14:49:37.129,HA,C,542177258,JASSM,3,150,76,2,2,1,225,9,2,0,1,26,0,0,0,0,-171790.671998815,-4771057.258760299,4220299.655729771,-2.51439,-0.703234,0.607648,57.5,-48.625,-52.25,0.0,0.0,0.0,0.0,0.0,0.0,2,0,41.667305622296674,-92.0621488065188,10997.375308641222,139.84067682561223,-0.0023172295544097,0.0056398837611628,,10150.171305463598,12127.771392007851,150,1,2025-09-12,2025-09-26 14:49:37.007,HA,C,2543772166,HAWK11,1,1,73,2,1,1,225,2,1,0,0,12,1,225,2,1,-145176.85388358062,-4790434.862275924,4199830.837370396,-2.62339,1.84576,-0.841772,-27.375,75.25,86.125,-0.203125,-12.0,12.0156,0.00195312,0.0859375,0.0546875,4,0,41.41912544214746,-91.73584990761002,11852.630453606507,-11.550618542568708,0.9723658434304836,42.71737342644483,203.653,10150.171305463598,12127.771392007851,150,False,20.871719985888895,False,154.55635398440563,175.48342122036775,False,29.960103929170984,True,False
1,1970-07-23 10:28:05.771794703,2025-09-12,2025-09-26 14:49:37.179,HA,C,540984354,JASSM,3,150,76,2,2,1,225,9,2,0,1,26,0,0,0,0,-171848.12976248687,-4771008.536104049,4220352.042448521,-2.51448,-0.703234,0.607648,57.5,-48.625,-52.25,0.0,0.0,0.0,0.0,0.0,0.0,2,0,41.66793670344374,-92.06285897289234,10997.371832174049,139.84020470103124,-0.0031416661604123,0.0001499689223848,,10150.171305463598,12127.771392007851,150,1,2025-09-12,2025-09-26 14:49:37.306,HA,C,2544090300,HAWK11,1,1,73,2,1,1,225,2,1,0,0,12,1,225,2,1,-145183.34802420562,-4790413.914033736,4199853.901823521,-2.59856,1.81451,-0.849346,-23.375,76.5,86.75,-0.265625,-12.0625,12.2188,-0.0195312,0.0839844,0.0566406,4,0,41.41940456791623,-91.73593509569076,11851.660942341749,-10.297268694235166,1.1420774163157312,42.82307077057206,203.69,10150.171305463598,12127.771392007851,150,False,20.90631446715639,False,152.5364663983918,175.46970549450737,False,31.992897074001945,False,False
1,1970-07-23 10:28:05.781176721,2025-09-12,2025-09-26 14:49:38.117,HA,C,543370302,JASSM,3,150,76,2,2,1,225,9,2,0,1,26,0,0,0,0,-171733.20739920562,-4771105.985322799,4220247.261198521,-2.51439,-0.703234,0.607648,57.5,-48.625,-52.25,0.0,0.0,0.0,0.0,0.0,0.0,2,0,41.666674462291645,-92.0614385703436,10997.37504198596,139.84114899073137,-0.0014926956861729,0.005638326269934,,10150.171305463598,12127.771392007851,150,1,2025-09-12,2025-09-26 14:49:37.899,HA,C,2544845866,HAWK11,1,1,73,2,1,1,225,2,1,0,0,12,1,225,2,1,-145195.97302420562,-4790365.988252486,4199908.981901646,-2.57057,1.72582,-0.86622,-16.875,75.875,89.0,-0.28125,-11.3438,11.4062,-0.0429688,0.0683594,0.0566406,4,0,41.42005916640844,-91.73610331675768,11854.298398815528,-6.8572428186905805,1.5274701055050577,40.66267246371817,204.02,10150.171305463598,12127.771392007851,150,False,20.7745974292967,False,149.2736447374251,175.38684487139344,False,35.33944193884576,False,False
1,1970-07-23 10:28:05.790213231,2025-09-12,2025-09-26 14:49:39.021,HA,C,544444046,JASSM,3,150,76,2,2,1,225,9,2,0,1,26,0,0,0,0,-171681.48913748687,-4771149.840791549,4220200.104948521,-2.51439,-0.703234,0.607648,57.5,-48.625,-52.25,0.0,0.0,0.0,0.0,0.0,0.0,2,0,41.666106397282576,-92.06079936750912,10997.379766895974,139.84157392785852,-0.0007506009571213,0.0056369146389534,,10150.171305463598,12127.771392007851,150,1,2025-09-12,2025-09-26 14:49:39.101,HA,C,2546118398,HAWK11,1,1,73,2,1,1,225,2,1,0,0,12,1,225,2,1,-145207.81482108062,-4790283.343721236,4200006.311979771,-2.60806,1.59946,-0.888654,-6.25,74.75,92.25,-0.34375,-11.0781,11.125,-0.261719,0.0449219,0.0449219,4,0,41.421205611417584,-91.7362747583487,11863.210529088972,-2.1312483514061182,2.384469456836288,33.104600287615085,204.447,10150.171305463598,12127.771392007851,150,False,20.6759653792223,False,143.98029672736226,175.25829459402323,False,40.758357083580265,False,False
1,1970-07-23 10:28:05.799279621,2025-09-12,2025-09-26 14:49:39.927,HA,C,545517872,JASSM,3,150,76,2,2,1,225,9,2,0,1,26,0,0,0,0,-171629.7667253775,-4771193.696260299,4220152.944792271,-2.51439,-0.703138,0.607648,57.5,-48.625,-52.25,0.0,0.0,0.0,0.0,0.0,0.0,2,0,41.66553830329573,-92.06016012613593,10997.379116140415,139.838348331546,-0.0026541515425462,0.0025003088117518,,10150.171305463598,12127.771392007851,150,1,2025-09-12,2025-09-26 14:49:40.009,HA,C,2547033030,HAWK11,1,1,73,2,1,1,225,2,1,0,0,12,1,225,2,1,-145209.69372733062,-4790224.797822799,4200077.515104771,-2.7069,1.53101,-0.904473,-0.125,73.625,94.0,-0.09375,-10.7031,10.8125,-0.103516,0.0507812,0.0371094,4,0,41.42203414260919,-91.73631841895286,11873.936099993096,0.3363768900442467,3.2457400050190395,24.497924878777283,204.961,10150.171305463598,12127.771392007851,150,False,20.59500201785902,False,140.948468632078,175.1544820956395,False,43.89010712842028,False,False
1,1970-07-23 10:28:05.810606853,2025-09-12,2025-09-26 14:49:41.060,HA,C,546710842,JASSM,3,150,76,2,2,1,225,9,2,0,1,26,0,0,0,0,-171572.30554373687,-4771242.415010299,4220100.550261021,-2.51439,-0.703138,0.607648,57.5,-48.625,-52.25,0.0,0.0,0.0,0.0,0.0,0.0,2,0,41.66490717677976,-92.05944997316718,10997.372147201251,139.83882042499692,-0.0018296740276503,0.0024987030361044,,10150.171305463598,12127.771392007851,150,1,2025-09-12,2025-09-26 14:49:41.179,HA,C,2548226028,HAWK11,1,1,73,2,1,1,225,2,1,0,0,12,1,225,2,1,-145206.10583670562,-4790151.515596236,4200171.688932896,-2.74065,1.48336,-0.931989,5.5,70.875,96.5,-0.3125,-9.84375,9.92188,-0.0996094,0.03125,0.00976562,4,0,41.42310635565524,-91.73630208985176,11897.883247024094,1.958132900122216,4.86410283350628,20.509530524558137,205.242,10150.171305463598,12127.771392007851,150,False,20.50074314221062,False,138.06481073005733,175.0142518654411,False,46.90102397290505,False,False
1,1970-07-23 10:28:05.818192831,2025-09-12,2025-09-26 14:49:41.819,HA,C,547784596,JASSM,3,150,76,2,2,1,225,9,2,0,1,26,0,0,0,0,-171520.58654959625,-4771286.266572799,4220053.390104771,-2.51439,-0.703138,0.607648,57.5,-48.625,-52.25,0.0,0.0,0.0,0.0,0.0,0.0,2,0,41.66433909778768,-92.05881079819252,10997.369639211813,139.83924532888437,-0.0010875736399216,0.0024972463382514,,10150.171305463598,12127.771392007851,150,1,2025-09-12,2025-09-26 14:49:41.821,HA,C,2548742994,HAWK11,1,1,73,2,1,1,225,2,1,0,0,12,1,225,2,1,-145203.21325858062,-4790120.437471236,4200213.095182896,-2.77305,1.46208,-0.940139,7.5,69.875,97.125,-0.046875,-9.53125,9.64062,-0.134766,0.0273438,0.0292969,4,0,41.42357122227794,-91.73627878096308,11911.12603877462,2.65929326182251,5.367730981340148,17.733378137591906,205.352,10150.171305463598,12127.771392007851,150,False,20.43748421700723,False,137.0391695112645,174.9457616583815,False,47.99021320094467,False,False
1,1970-07-23 10:28:05.828232070,2025-09-12,2025-09-26 14:49:42.823,HA,C,548917970,JASSM,3,150,76,2,2,1,225,9,2,0,1,26,0,0,0,0,-171465.99597342435,-4771332.551729049,4220003.612761021,-2.51439,-0.703138,0.607744,57.5,-48.625,-52.25,0.0,0.0,0.0,0.0,0.0,0.0,2,0,41.66373948910433,-92.0581361471422,10997.370723032382,139.84291848423734,-0.0047534691514405,0.0024955761496918,,10150.171305463598,12127.771392007851,150,1,2025-09-12,2025-09-26 14:49:42.711,HA,C,2550532492,HAWK11,1,1,73,2,1,1,225,2,1,0,0,12,1,225,2,1,-145184.54138358062,-4790013.955049361,4200358.438932896,-2.76529,1.39084,-0.955766,13.625,67.125,98.25,-0.09375,-8.15625,8.34375,0.0117188,0.0175781,0.0078125,4,0,41.425189004579146,-91.73609421624364,11963.398755054595,4.966704552293763,6.465304316431908,15.10056973893353,205.779,10150.171305463598,12127.771392007851,150,False,20.32815188825428,False,133.91680054827793,174.72320482539078,False,51.322972378966725,False,False
1,1970-07-23 10:28:05.837362654,2025-09-12,2025-09-26 14:49:43.736,HA,C,550051364,JASSM,3,150,76,2,2,1,225,9,2,0,1,26,0,0,0,0,-171411.40417654935,-4771378.836885299,4219953.831511021,-2.51439,-0.703138,0.607744,57.5,-48.625,-52.25,0.0,0.0,0.0,0.0,0.0,0.0,2,0,41.66313985040006,-92.0574614939704,10997.36709035173,139.84336696260442,-0.0039701502461409,0.0024940839434659,,10150.171305463598,12127.771392007851,150,1,2025-09-12,2025-09-26 14:49:43.601,HA,C,2551645958,HAWK11,1,1,73,2,1,1,225,2,1,0,0,12,1,225,2,1,-145169.87341483062,-4789950.248018111,4200448.761198521,-2.7047,1.3547,-0.961231,16.625,66.25,97.875,-0.171875,-7.60938,7.79688,0.123047,0.0136719,0.0234375,4,0,41.4261802339446,-91.73594200011745,12001.72497270998,6.11590916213315,6.926896795994692,17.011460327533726,205.853,10150.171305463598,12127.771392007851,150,False,20.24447590670448,False,132.42169141434576,174.57706052180495,False,52.96446277773956,False,False
1,1970-07-23 10:28:05.846317776,2025-09-12,2025-09-26 14:49:44.631,HA,C,551184758,JASSM,3,150,76,2,2,1,225,9,2,0,1,26,0,0,0,0,-171356.812623815,-4771425.122041549,4219904.054167271,-2.51439,-0.703138,0.607744,57.5,-48.625,-52.25,0.0,0.0,0.0,0.0,0.0,0.0,2,0,41.66254023388163,-92.05678685624464,10997.375908803477,139.8438154254077,-0.0031868527002198,0.0024926069434989,,10150.171305463598,12127.771392007851,150,1,2025-09-12,2025-09-26 14:49:44.507,HA,C,2552520824,HAWK11,1,1,73,2,1,1,225,2,1,0,0,12,1,225,2,1,-145156.59411795562,-4789901.534150924,4200518.776823521,-2.59291,1.31683,-0.958163,19.125,65.625,97.375,-0.171875,-6.78125,7.0,0.101562,0.00390625,0.0234375,4,0,41.42694496330602,-91.73580094569516,12032.944733736516,7.382406045643453,6.945162944643811,21.792243788937288,205.853,10150.171305463598,12127.771392007851,150,False,20.170097377633848,False,131.17594894122166,174.4583321866041,False,54.33042132588019,False,False
1,1970-07-23 10:28:05.856193752,2025-09-12,2025-09-26 14:49:45.619,HA,C,552318100,JASSM,3,150,76,2,2,1,225,9,2,0,1,26,0,0,0,0,-171302.22326834625,-4771471.403291549,4219854.272917271,-2.51439,-0.703138,0.607744,57.5,-48.625,-52.25,0.0,0.0,0.0,0.0,0.0,0.0,2,0,41.66194060996023,-92.05611225906944,10997.37074341576,139.8442638559616,-0.0024035659941135,0.0024911117336387,,10150.171305463598,12127.771392007851,150,1,2025-09-12,2025-09-26 14:49:45.715,HA,C,2554151256,HAWK11,1,1,73,2,1,1,225,2,1,0,0,12,1,225,2,1,-145126.53943045562,-4789808.501924361,4200648.952604771,-2.45533,1.2431,-0.926237,24.25,66.625,94.875,-0.328125,-5.82812,6.10938,0.0605469,-0.00585938,0.0449219,4,0,41.428382388561175,-91.73547545452318,12084.547770254316,10.190892979937969,5.63546390437772,26.564921930565603,206.036,10150.171305463598,12127.771392007851,150,False,20.073518398157063,False,128.80163753397036,174.2395438315359,False,56.94095162993842,False,False
1,1970-07-23 10:28:05.866233142,2025-09-12,2025-09-26 14:49:46.623,HA,C,553451534,JASSM,3,150,76,2,2,1,225,9,2,0,1,26,0,0,0,0,-171247.62951834625,-4771517.688447799,4219804.487761021,-2.51439,-0.703138,0.607744,57.5,-48.625,-52.25,0.0,0.0,0.0,0.0,0.0,0.0,2,0,41.66134093334685,-92.05543762002812,10997.370151194804,139.84471230905024,-0.0016202158077781,0.0024896161675084,,10150.171305463598,12127.771392007851,150,1,2025-09-12,2025-09-26 14:49:46.601,HA,C,2555065888,HAWK11,1,1,73,2,1,1,225,2,1,0,0,12,1,225,2,1,-145106.99841483062,-4789756.290986861,4200719.550261021,-2.42062,1.21347,-0.899584,27.125,67.875,93.125,-0.09375,-5.375,5.60938,-0.0273438,-0.015625,0.0332031,4,0,41.42917298021261,-91.7352608224027,12107.977120479543,11.559001383844828,4.390565606038446,27.32971588361021,205.999,10150.171305463598,12127.771392007851,150,False,20.0006686394814,False,127.50711173469257,174.10894864954471,False,58.37561243801601,False,False
1,1970-07-23 10:28:05.874633436,2025-09-12,2025-09-26 14:49:47.463,HA,C,554525276,JASSM,3,150,76,2,2,1,225,9,2,0,1,26,0,0,0,0,-171195.91174490875,-4771561.536104049,4219757.327604771,-2.51439,-0.703138,0.607744,57.5,-48.625,-52.25,0.0,0.0,0.0,0.0,0.0,0.0,2,0,41.66077285478139,-92.0547985319066,10997.380215116364,139.84513712547664,-0.0008781403892075,0.0024882066759857,,10150.171305463598,12127.771392007851,150,1,2025-09-12,2025-09-26 14:49:47.507,HA,C,2556020288,HAWK11,1,1,73,2,1,1,225,2,1,0,0,12,1,225,2,1,-145083.96521170562,-4789699.943330611,4200792.954557896,-2.46616,1.1826,-0.871205,29.75,69.375,91.125,-0.046875,-4.71875,5.09375,-0.207031,-0.015625,0.0332031,4,0,41.43000775619568,-91.73500594688105,12127.072510325974,13.055964106238532,3.1006470666695307,23.44871971617801,205.963,10150.171305463598,12127.771392007851,150,False,19.929836337769654,False,126.32198054384045,173.96920088767024,False,59.70685627377001,False,False
1,1970-07-23 10:28:05.884314064,2025-09-12,2025-09-26 14:49:48.431,HA,C,555718334,JASSM,3,150,76,2,2,1,225,9,2,0,1,26,0,0,0,0,-171138.44519217435,-4771610.250947799,4219704.921354771,-2.51439,-0.703138,0.607744,57.5,-48.625,-52.25,0.0,0.0,0.0,0.0,0.0,0.0,2,0,41.66014164033651,-92.05408842092108,10997.370359688235,139.84560914684425,-5.359039190955243e-05,0.0024866479250854,,10150.171305463598,12127.771392007851,150,1,2025-09-12,2025-09-26 14:49:48.397,HA,C,2557253052,HAWK11,1,1,73,2,1,1,225,2,1,0,0,12,1,225,2,1,-145051.58435233062,-4789625.743135299,4200885.065886021,-2.57987,1.15096,-0.832089,32.5,71.875,88.625,0.0625,-4.70312,5.01562,-0.0957031,-0.0078125,0.0078125,4,0,41.4310766842264,-91.73464580870392,12142.195317402176,14.819813454948266,1.2734998835802915,15.636979345418432,205.352,10150.171305463598,12127.771392007851,150,False,19.847883565178915,False,125.12549565591775,173.78841144097655,False,61.08567121270314,False,False
1,1970-07-23 10:28:05.895196251,2025-09-12,2025-09-26 14:49:49.519,HA,C,556911456,JASSM,3,150,76,2,2,1,225,9,2,0,1,26,0,0,0,0,-171080.97644217435,-4771658.973604049,4219652.515104771,-2.51439,-0.703043,0.607744,57.5,-48.625,-52.25,0.0,0.0,0.0,0.0,0.0,0.0,2,0,41.65951037520463,-92.05337829409468,10997.38378151667,139.8424287375774,-0.0018763490797646,-0.0006525619667552,,10150.171305463598,12127.771392007851,150,1,2025-09-12,2025-09-26 14:49:49.601,HA,C,2558724418,HAWK11,1,1,73,2,1,1,225,2,1,0,0,12,1,225,2,1,-145009.88122733062,-4789534.642549361,4200992.362761021,-2.62042,1.15058,-0.810421,35.0,74.75,86.25,0.078125,-5.125,5.32812,-0.0136719,-0.0117188,0.0214844,4,0,41.43235033316304,-91.73418035775354,12148.048297661178,15.188190767781364,0.0890785225406851,13.301647065855526,204.887,10150.171305463598,12127.771392007851,150,False,19.761069332622995,False,124.06436711607873,173.57122338634133,False,62.356870168301626,False,False
1,1970-07-23 10:28:05.905231382,2025-09-12,2025-09-26 14:49:50.523,HA,C,558164054,JASSM,3,150,76,2,2,1,225,9,2,0,1,26,0,0,0,0,-171020.64294608062,-4771710.118135299,4219597.491667271,-2.51439,-0.703043,0.60784,57.5,-48.625,-52.25,0.0,0.0,0.0,0.0,0.0,0.0,2,0,41.6588476463968,-92.05263278621057,10997.37519041703,139.84614718891663,-0.0054568972667888,-0.0006544449967925,,10150.171305463598,12127.771392007851,150,1,2025-09-12,2025-09-26 14:49:50.507,HA,C,2559837884,HAWK11,1,1,73,2,1,1,225,2,1,0,0,12,1,225,2,1,-144976.65661795562,-4789464.069307174,4201071.132292271,-2.59118,1.11607,-0.778879,36.75,76.5,84.75,-0.03125,-5.07812,5.29688,0.0527344,-0.0195312,0.0449219,4,0,41.43330780782618,-91.73380879742156,12143.076299401242,17.047941512682662,-1.2241869111768346,13.547189372386237,204.704,10150.171305463598,12127.771392007851,150,False,19.682077337665984,False,123.29648804317219,173.4000034217517,False,63.28747269932615,False,False
1,1970-07-23 10:28:05.915258026,2025-09-12,2025-09-26 14:49:51.525,HA,C,559416778,JASSM,3,150,76,2,2,1,225,9,2,0,1,26,0,0,0,0,-170960.30310233062,-4771761.270479049,4219542.464323521,-2.51439,-0.703043,0.60784,57.5,-48.625,-52.25,0.0,0.0,0.0,0.0,0.0,0.0,2,0,41.65818484107364,-92.05188721413528,10997.381437633116,139.8466427630611,-0.0045911072843814,-0.000656098245627,,10150.171305463598,12127.771392007851,150,1,2025-09-12,2025-09-26 14:49:51.805,HA,C,2561269482,HAWK11,1,1,73,2,1,1,225,2,1,0,0,12,1,225,2,1,-144930.77966483062,-4789370.442354049,4201171.702604771,-2.5792,1.11146,-0.757787,39.625,78.5,83.375,-0.109375,-5.95312,6.10938,-0.0820312,-0.0117188,-0.0078125,4,0,41.43455186131209,-91.7332943419038,12127.822679201188,17.6040045600919,-2.312784126790949,14.033446894391744,204.276,10150.171305463598,12127.771392007851,150,False,19.596145172913985,False,122.05736053338842,173.1782942746211,False,64.73652931020148,False,False
1,1970-07-23 10:28:05.925804159,2025-09-12,2025-09-26 14:49:52.580,HA,C,560609824,JASSM,3,150,76,2,2,1,225,9,2,0,1,26,0,0,0,0,-170902.83777029935,-4771809.981416549,4219490.054167271,-2.51439,-0.703043,0.60784,57.5,-48.625,-52.25,0.0,0.0,0.0,0.0,0.0,0.0,2,0,41.65755360518413,-92.05117717632368,10997.371367114683,139.84711471192972,-0.0037665623607966,-0.0006576746474786,,10150.171305463598,12127.771392007851,150,1,2025-09-12,2025-09-26 14:49:52.711,HA,C,2562502248,HAWK11,1,1,73,2,1,1,225,2,1,0,0,12,1,225,2,1,-144888.24450858062,-4789287.778291549,4201257.757292271,-2.57383,1.08117,-0.742255,42.0,79.75,82.75,-0.15625,-6.48438,6.57812,0.113281,0.0078125,0.0292969,4,0,41.4356321288814,-91.73281584442896,12108.264647239712,19.094929768300904,-2.744345796086081,13.091973615447284,203.983,10150.171305463598,12127.771392007851,150,False,19.518485895969167,False,121.0624373789484,172.97987764364555,False,65.9224872413383,False,False
1,1970-07-23 10:28:05.937853060,2025-09-12,2025-09-26 14:49:53.785,HA,C,561802872,JASSM,3,150,76,2,2,1,225,9,2,0,1,26,0,0,0,0,-170845.37243826812,-4771858.692354049,4219437.647917271,-2.51429,-0.703043,0.60784,57.5,-48.625,-52.25,0.0,0.0,0.0,0.0,0.0,0.0,2,0,41.656922391101865,-92.05046715237786,10997.374147763485,139.84758664571405,-0.0029420374196008,0.0048322379528744,,10150.171305463598,12127.771392007851,150,1,2025-09-12,2025-09-26 14:49:54.101,HA,C,2564132678,HAWK11,1,1,73,2,1,1,225,2,1,0,0,12,1,225,2,1,-144828.26208670562,-4789178.087861861,4201370.431120396,-2.67325,1.03707,-0.727874,45.25,80.25,82.75,0.109375,-6.89062,6.96875,-0.154297,0.0,0.03125,4,0,41.43705599291749,-91.73213855893331,12078.770657673533,21.141633747142222,-2.8639304378159705,5.600657625166025,203.286,10150.171305463598,12127.771392007851,150,True,19.433602987061608,False,119.70249121176809,172.71771882310728,False,67.54359202922431,False,False
1,1970-07-23 10:28:05.946192229,2025-09-12,2025-09-26 14:49:54.619,HA,C,562995918,JASSM,3,150,76,2,2,1,225,9,2,0,1,26,0,0,0,0,-170787.90710623687,-4771907.403291549,4219385.237761021,-2.51429,-0.703043,0.60784,57.5,-48.625,-52.25,0.0,0.0,0.0,0.0,0.0,0.0,2,0,41.65629114630104,-92.04975714229766,10997.372742975778,139.8480585644163,-0.0021174923138079,0.0048306614997272,,10150.171305463598,12127.771392007851,150,1,2025-09-12,2025-09-26 14:49:54.601,HA,C,2564689412,HAWK11,1,1,73,2,1,1,225,2,1,0,0,12,1,225,2,1,-144807.48083670562,-4789140.963838424,4201408.712370396,-2.7348,1.03007,-0.725477,45.75,80.5,83.125,-0.109375,-7.21875,7.26562,-0.148438,-0.00195312,-0.00390625,4,0,41.43753897216507,-91.7319035845602,12069.076470197784,21.471343156743004,-2.88206858477438,1.7911257933949158,202.895,10150.171305463598,12127.771392007851,150,True,19.372718007065,False,119.56346810039707,172.61524385188636,False,67.7859376681573,False,False
1,1970-07-23 10:28:05.957210087,2025-09-12,2025-09-26 14:49:55.721,HA,C,564308270,JASSM,3,150,76,2,2,1,225,9,2,0,1,26,0,0,0,0,-170724.69519217435,-4771960.985322799,4219327.585417271,-2.51429,-0.703043,0.60784,57.5,-48.625,-52.25,0.0,0.0,0.0,0.0,0.0,0.0,2,0,41.65559676400578,-92.04897614663852,10997.37364254236,139.84857765795732,-0.0012104862961481,0.0048289226322077,,10150.171305463598,12127.771392007851,150,1,2025-09-12,2025-09-26 14:49:55.711,HA,C,2566041476,HAWK11,1,1,73,2,1,1,225,2,1,0,0,12,1,225,2,1,-144754.75232108062,-4789049.136689986,4201504.022917271,-2.86691,1.05183,-0.731038,46.25,80.875,84.375,-0.125,-7.3125,7.21875,-0.0566406,0.00390625,-0.0175781,4,0,41.438738060041736,-91.73130650907316,12046.354721382317,20.48753295677772,-2.9181825659144547,-4.898698261703817,202.419,10150.171305463598,12127.771392007851,150,True,19.28995444782915,False,119.55023300141998,172.384021715308,False,68.03491334733316,False,False
1,1970-07-23 10:28:05.967254638,2025-09-12,2025-09-26 14:49:56.725,HA,C,565560968,JASSM,3,150,76,2,2,1,225,9,2,0,1,26,0,0,0,0,-170664.3565691275,-4772012.129854049,4219272.554167271,-2.51429,-0.703043,0.60784,57.5,-48.625,-52.25,0.0,0.0,0.0,0.0,0.0,0.0,2,0,41.65493395476474,-92.04823066753616,10997.375770880342,139.849073138579,-0.0003447199113173,0.0048272719786926,,10150.171305463598,12127.771392007851,150,1,2025-09-12,2025-09-26 14:49:56.508,HA,C,2567035642,HAWK11,1,1,73,2,1,1,225,2,1,0,0,12,1,225,2,1,-144716.24060233062,-4788981.664033736,4201574.610807896,-2.8673,1.05154,-0.745035,46.0,81.25,85.375,-0.078125,-7.67188,7.73438,0.0566406,0.00976562,0.00976562,4,0,41.43962283112776,-91.73087054988709,12030.88978522914,20.2163163195626,-2.162398443736857,-4.9197320669508136,202.089,10150.171305463598,12127.771392007851,150,True,19.217277599684373,False,119.82136923309588,172.20769085662968,False,67.94305951600258,False,False
1,1970-07-23 10:28:05.978633596,2025-09-12,2025-09-26 14:49:57.863,HA,C,566813666,JASSM,3,150,76,2,2,1,225,9,2,0,1,26,0,0,0,0,-170604.01770194,-4772063.270479049,4219217.522917271,-2.51429,-0.703043,0.60784,57.5,-48.625,-52.25,0.0,0.0,0.0,0.0,0.0,0.0,2,0,41.65427116401296,-92.04748520246642,10997.373085374336,139.84956860340586,0.0005210292907584,0.0048256371009311,,10150.171305463598,12127.771392007851,150,1,2025-09-12,2025-09-26 14:49:57.601,HA,C,2568029808,HAWK11,1,1,73,2,1,1,225,2,1,0,0,12,1,225,2,1,-144678.26013358062,-4788914.834932174,4201645.544401646,-2.84956,1.05346,-0.754239,45.75,81.0,86.625,0.109375,-7.46875,7.40625,0.015625,-0.00195312,0.0,4,0,41.4405060071476,-91.73044069602648,12017.802702084004,19.95568993341084,-1.6960959113583214,-3.8198522048872783,201.759,10150.171305463598,12127.771392007851,150,True,19.144646972436774,False,120.05009816421563,172.03072488162184,False,67.89737963431719,False,False
1,1970-07-23 10:28:05.988292592,2025-09-12,2025-09-26 14:49:58.829,HA,C,568066364,JASSM,3,150,76,2,2,1,225,9,2,0,1,26,0,0,0,0,-170543.67907889312,-4772114.415010299,4219162.487761021,-2.51429,-0.702947,0.607936,57.5,-48.625,-52.25,0.0,0.0,0.0,0.0,0.0,0.0,2,0,41.6536083186853,-92.04673975393442,10997.37624987288,139.84963943674236,-0.0057077542780813,0.0016876138162937,,10150.171305463598,12127.771392007851,150,1,2025-09-12,2025-09-26 14:49:59.007,HA,C,2569938606,HAWK11,1,1,73,2,1,1,225,2,1,0,0,12,1,225,2,1,-144605.97107108062,-4788785.569307174,4201785.274870396,-2.99021,1.04502,-0.768045,44.125,80.625,88.25,0.046875,-7.84375,6.625,-0.0390625,0.0,-0.00585938,4,0,41.44223113341194,-91.7296232586086,11998.076313786452,20.00376209246527,-0.8305860774303395,-12.212782155360312,201.062,10150.171305463598,12127.771392007851,150,False,19.051472304201255,False,120.88187893976662,171.70474476328724,False,67.39879339391406,False,False
1,1970-07-23 10:28:05.998337041,2025-09-12,2025-09-26 14:49:59.833,HA,C,569319064,JASSM,3,150,76,2,2,1,225,9,2,0,1,26,0,0,0,0,-170483.34021170562,-4772165.555635299,4219107.452604771,-2.51429,-0.702947,0.607936,57.5,-48.625,-52.25,0.0,0.0,0.0,0.0,0.0,0.0,2,0,41.652945491846765,-92.04599431943338,10997.37460055188,139.85013486852068,-0.0048419848124396,0.0016859555306591,,10150.171305463598,12127.771392007851,150,1,2025-09-12,2025-09-26 14:49:59.897,HA,C,2571012304,HAWK11,1,1,73,2,1,1,225,2,1,0,0,12,1,225,2,1,-144566.86755545562,-4788713.375947799,4201864.540495396,-3.06087,1.09814,-0.777249,42.5,80.75,88.5,0.03125,-7.5,6.20312,-0.0351562,-0.00585938,-0.0429688,4,0,41.44320264913336,-91.72918188027413,11989.828941776046,17.77498912911427,-1.0719072009858155,-14.099696030847277,200.659,10150.171305463598,12127.771392007851,150,False,18.97623901741165,False,121.61065920488485,171.51121601002825,False,66.86418377039493,False,False
1,1970-07-23 10:28:06.009189758,2025-09-12,2025-09-26 14:50:00.918,HA,C,570512110,JASSM,3,150,76,2,2,1,225,9,2,0,1,26,0,0,0,0,-170425.87463553375,-4772214.258760299,4219055.038542271,-2.51429,-0.702947,0.607936,57.5,-48.625,-52.25,0.0,0.0,0.0,0.0,0.0,0.0,2,0,41.652314239465774,-92.04528439711795,10997.37281476523,139.85060669212348,-0.0040174550066251,0.0016843857727426,,10150.171305463598,12127.771392007851,150,1,2025-09-12,2025-09-26 14:50:00.803,HA,C,2572006470,HAWK11,1,1,73,2,1,1,225,2,1,0,0,12,1,225,2,1,-144532.09997733062,-4788645.737275924,4201938.755339146,-3.08273,1.11242,-0.799012,40.375,80.625,89.0,-0.09375,-8.54688,7.1875,0.0117188,0.0214844,0.0,4,0,41.44411219838096,-91.72879067708833,11982.138272820705,16.83342738268543,-0.0704365032395335,-14.762381612640368,200.476,10150.171305463598,12127.771392007851,150,False,18.904433980336552,False,122.55749986264736,171.33022844123548,False,66.10045825338666,False,False
1,1970-07-23 10:28:06.019214202,2025-09-12,2025-09-26 14:50:01.921,HA,C,571705156,JASSM,3,150,76,2,2,1,225,9,2,0,1,26,0,0,0,0,-170368.40979178375,-4772262.961885299,4219002.624479771,-2.51429,-0.702947,0.607936,57.5,-48.625,-52.25,0.0,0.0,0.0,0.0,0.0,0.0,2,0,41.65168298247452,-92.0445744974467,10997.375425792929,139.85107849481034,-0.0031929292216411,0.0016828108725361,,10150.171305463598,12127.771392007851,150,1,2025-09-12,2025-09-26 14:50:02.009,HA,C,2573517602,HAWK11,1,1,73,2,1,1,225,2,1,0,0,12,1,225,2,1,-144483.19372733062,-4788544.750947799,4202051.546354771,-3.02827,1.1432,-0.809462,37.5,80.25,89.75,-0.078125,-7.67188,6.28125,0.103516,0.0,-0.0175781,4,0,41.44548303683325,-91.72824247423928,11975.202868862703,15.487253314275554,0.1341813261107838,-10.372856130020518,200.024,10150.171305463598,12127.771392007851,150,False,18.819911915940434,False,123.83455099836908,171.07045245921861,False,65.08655666848404,False,False
1,1970-07-23 10:28:06.027276100,2025-09-12,2025-09-26 14:50:02.727,HA,C,572778900,JASSM,3,150,76,2,2,1,225,9,2,0,1,26,0,0,0,0,-170316.68982108062,-4772306.797822799,4218955.448698521,-2.51429,-0.702947,0.607936,57.5,-48.5,-52.25,0.0,0.0,0.0,0.0,0.0,0.0,2,0,41.6511148080284,-92.04393557893611,10997.382181417048,139.8515031180657,-0.0024508159099117,0.00168137986988,,10150.171305463598,12127.771392007851,150,1,2025-09-12,2025-09-26 14:50:02.601,HA,C,2574114102,HAWK11,1,1,73,2,1,1,225,2,1,0,0,12,1,225,2,1,-144464.59802420562,-4788504.905244674,4202096.290495396,-2.99107,1.15863,-0.819913,36.75,80.0,89.625,-0.171875,-8.03125,6.71875,0.130859,0.0253906,-0.00390625,4,0,41.44602541938692,-91.7280345460733,11973.0447215303,14.735208892132633,0.5358922043701414,-7.602490829409182,199.547,10150.171305463598,12127.771392007851,150,True,18.761679428059537,False,124.09288544230043,170.98501998364532,False,64.91132144371777,False,False
1,1970-07-23 10:28:06.041013704,2025-09-12,2025-09-26 14:50:04.101,HA,C,573971944,JASSM,3,150,76,2,2,1,225,9,2,0,1,26,0,0,0,0,-170259.22400076812,-4772355.497041549,4218903.030729771,-2.51429,-0.702947,0.607936,57.5,-48.5,-52.25,0.0,0.0,0.0,0.0,0.0,0.0,2,0,41.65048353986474,-92.04322569556388,10997.374852247314,139.851974898773,-0.0016262830447493,0.0016798089064192,,10150.171305463598,12127.771392007851,150,1,2025-09-12,2025-09-26 14:50:04.007,HA,C,2575903600,HAWK11,1,1,73,2,1,1,225,2,1,0,0,12,1,225,2,1,-144410.47107108062,-4788386.223604049,4202231.048307896,-2.86116,1.16429,-0.830555,35.75,78.75,89.875,-0.125,-7.5,6.23438,0.0605469,0.0175781,0.00976562,4,0,41.44765071751091,-91.72743027878384,11969.949308123614,14.355146543113689,1.0623652346950183,0.0735336718970587,199.241,10150.171305463598,12127.771392007851,150,True,18.669671481679536,False,124.43451738248241,170.68111589709085,False,64.87786950798072,False,False
1,1970-07-23 10:28:06.047239794,2025-09-12,2025-09-26 14:50:04.723,HA,C,575045688,JASSM,3,150,76,2,2,1,225,9,2,0,1,26,0,0,0,0,-170207.50476248687,-4772399.329072799,4218855.854948521,-2.51429,-0.702947,0.607936,57.5,-48.5,-52.25,0.0,0.0,0.0,0.0,0.0,0.0,2,0,41.64991538099362,-92.04258681121,10997.379511316974,139.85239948929507,-0.0008841923405998,0.0016783868418756,,10150.171305463598,12127.771392007851,150,1,2025-09-12,2025-09-26 14:50:04.606,HA,C,2576380800,HAWK11,1,1,73,2,1,1,225,2,1,0,0,12,1,225,2,1,-144396.18591483062,-4788354.768525924,4202266.995573521,-2.82933,1.15988,-0.832664,35.75,78.5,89.75,-0.125,-7.85938,6.65625,0.0722656,0.00195312,-0.00390625,4,0,41.44808303178311,-91.72727084366,11969.638967568208,14.485361290244056,1.2261002647153916,1.7131105091404393,198.985,10150.171305463598,12127.771392007851,150,True,18.614362296840188,False,124.39906160325384,170.58394408543137,False,65.01086054399128,False,False
1,1970-07-23 10:28:06.056249565,2025-09-12,2025-09-26 14:50:05.624,HA,C,576179082,JASSM,3,150,76,2,2,1,225,9,2,0,1,26,0,0,0,0,-170152.91223319,-4772445.594697799,4218806.054167271,-2.51429,-0.702947,0.607936,57.5,-48.5,-52.25,0.0,0.0,0.0,0.0,0.0,0.0,2,0,41.64931563518113,-92.04191244611069,10997.375524883451,139.8528476544975,-0.000100860355344,0.0016768733578183,,10150.171305463598,12127.771392007851,150,1,2025-09-12,2025-09-26 14:50:05.512,HA,C,2577613564,HAWK11,1,1,73,2,1,1,225,2,1,0,0,12,1,225,2,1,-144358.73083670562,-4788273.581025924,4202359.993620396,-2.90718,1.15614,-0.829788,35.875,78.125,89.125,-0.046875,-6.96875,5.90625,-0.166016,-0.0253906,0.0195312,4,0,41.44920042184868,-91.72685233776032,11969.26954217124,14.670417548156582,1.109469137880997,-2.9018509276139723,198.581,10150.171305463598,12127.771392007851,150,True,18.53885902281394,False,124.25004078917776,170.3652192013041,False,65.37825258951717,False,False
1,1970-07-23 10:28:06.066591118,2025-09-12,2025-09-26 14:50:06.659,HA,C,577252824,JASSM,3,150,76,2,2,1,225,9,2,0,1,26,0,0,0,0,-170101.19299490875,-4772489.422822799,4218758.878386021,-2.51429,-0.702947,0.607936,57.5,-48.5,-52.25,0.0,0.0,0.0,0.0,0.0,0.0,2,0,41.64874749224166,-92.04127358650436,10997.377828018589,139.85327221880448,0.0006412118496168,0.0016754653491894,,10150.171305463598,12127.771392007851,150,1,2025-09-12,2025-09-26 14:50:06.711,HA,C,2579204230,HAWK11,1,1,73,2,1,1,225,2,1,0,0,12,1,225,2,1,-144311.86950858062,-4788170.182588424,4202478.073698521,-3.02865,1.15931,-0.826912,34.625,78.875,89.0,-0.3125,-7.10938,6.875,-0.0214844,0.0,-0.03125,4,0,41.450620921478446,-91.72632936698342,11968.091902456918,14.599259839150898,0.9184184833164892,-9.72941112364635,197.873,10150.171305463598,12127.771392007851,150,True,18.457925067055616,False,124.86446585381204,170.09363726493714,False,65.03337322180218,False,False
1,1970-07-23 10:28:06.074189919,2025-09-12,2025-09-26 14:50:07.418,HA,C,578326566,JASSM,3,150,76,2,2,1,225,9,2,0,1,26,0,0,0,0,-170049.4737566275,-4772533.250947799,4218711.698698521,-2.51429,-0.702851,0.608032,57.5,-48.5,-52.25,0.0,0.0,0.0,0.0,0.0,0.0,2,0,41.64817931942864,-92.0406347381241,10997.375123861684,139.85326851654605,-0.0057099932621834,-0.0014646980027939,,10150.171305463598,12127.771392007851,150,1,2025-09-12,2025-09-26 14:50:07.305,HA,C,2579760962,HAWK11,1,1,73,2,1,1,225,2,1,0,0,12,1,225,2,1,-144295.49450858062,-4788132.688447799,4202520.692839146,-3.04773,1.17723,-0.827774,34.0,79.0,89.375,-0.09375,-7.20312,7.17188,0.0175781,0.0078125,-0.015625,4,0,41.45113456776217,-91.72614710826576,11967.282217575668,13.916929215868658,0.7768870048802725,-10.07647545597374,197.836,10150.171305463598,12127.771392007851,150,False,18.40059259319166,False,125.18692816823172,169.9799387256315,False,64.82530386147643,False,False
1,1970-07-23 10:28:06.089800551,2025-09-12,2025-09-26 14:50:08.980,HA,C,579459958,JASSM,3,150,76,2,2,1,225,9,2,0,1,26,0,0,0,0,-169994.88122733062,-4772579.512666549,4218661.897917271,-2.51429,-0.702851,0.608032,57.5,-48.5,-52.25,0.0,0.0,0.0,0.0,0.0,0.0,2,0,41.64757958532808,-92.03996041090195,10997.37288687551,139.85371664143557,-0.004926679700081,-0.0014662033100944,,10150.171305463598,12127.771392007851,150,1,2025-09-12,2025-09-26 14:50:08.818,HA,C,2581192560,HAWK11,1,1,73,2,1,1,225,2,1,0,0,12,1,225,2,1,-144256.20349295562,-4788037.584932174,4202628.729948521,3.07429,1.21798,-0.828445,31.75,79.875,90.25,0.046875,-7.0625,7.0,-0.150391,0.015625,-0.00585938,4,0,41.452436577979206,-91.72571162633582,11965.25952984498,12.379685723739852,0.4173914132857638,-17.60662080319818,197.421,10150.171305463598,12127.771392007851,150,False,18.31935083983147,False,126.33789802770114,169.7281458725266,False,63.926216236669504,False,False
1,1970-07-23 10:28:06.094593238,2025-09-12,2025-09-26 14:50:09.459,HA,C,580593354,JASSM,3,150,76,2,2,1,225,9,2,0,1,26,0,0,0,0,-169940.28845389312,-4772625.774385299,4218612.097136021,-2.51419,-0.702851,0.608032,57.5,-48.5,-52.25,0.0,0.0,0.0,0.0,0.0,0.0,2,0,41.646979847260944,-92.03928609325996,10997.374538992311,139.85416475466357,-0.0041433646854115,0.0040374255360207,,10150.171305463598,12127.771392007851,150,1,2025-09-12,2025-09-26 14:50:09.803,HA,C,2582862760,HAWK11,1,1,73,2,1,1,225,2,1,0,0,12,1,225,2,1,-144214.57849295562,-4787925.342744674,4202756.024870396,3.00881,1.26227,-0.832472,27.625,81.25,91.25,0.0625,-6.96875,7.03125,0.0722656,0.0,-0.0390625,4,0,41.45397094352532,-91.72525439407627,11962.778823716537,10.659648603758786,0.2640775693722096,-19.495033491117542,197.152,10150.171305463598,12127.771392007851,150,False,18.230360839375596,False,128.35948916637201,169.43844706528319,False,62.193479463836624,False,False
1,1970-07-23 10:28:06.102309670,2025-09-12,2025-09-26 14:50:10.230,HA,C,581667166,JASSM,3,150,76,2,2,1,225,9,2,0,1,26,0,0,0,0,-169888.56579764312,-4772669.604463424,4218564.913542271,-2.51419,-0.702851,0.608032,57.5,-48.5,-52.25,0.0,0.0,0.0,0.0,0.0,0.0,2,0,41.64641162601459,-92.03864723798968,10997.378724514372,139.854589296728,-0.0034012235197336,0.0040359948525545,,10150.171305463598,12127.771392007851,150,1,2025-09-12,2025-09-26 14:50:10.211,HA,C,2583300192,HAWK11,1,1,73,2,1,1,225,2,1,0,0,12,1,225,2,1,-144204.84802420562,-4787896.104463424,4202788.974089146,3.02194,1.28519,-0.834581,26.5,81.5,91.5,-0.015625,-7.35938,7.21875,0.0742188,0.0195312,-0.0351562,4,0,41.45436901723983,-91.72514858633131,11961.761023179186,9.770652854546451,0.2084469604772262,-17.774200517368065,196.968,10150.171305463598,12127.771392007851,150,False,18.17519352483429,False,128.8966464029273,169.3449936158064,False,61.749839144714514,False,False
1,1970-07-23 10:28:06.112192213,2025-09-12,2025-09-26 14:50:11.219,HA,C,582800578,JASSM,3,150,76,2,2,1,225,9,2,0,1,26,0,0,0,0,-169833.97216971344,-4772715.864229049,4218515.108854771,-2.51419,-0.702851,0.608032,57.5,-48.5,-52.25,0.0,0.0,0.0,0.0,0.0,0.0,2,0,41.64581186570876,-92.0379729352927,10997.374615676705,139.85503738971303,-0.0026178927936,0.0040344872658444,,10150.171305463598,12127.771392007851,150,1,2025-09-12,2025-09-26 14:50:10.897,HA,C,2584055758,HAWK11,1,1,73,2,1,1,225,2,1,0,0,12,1,225,2,1,-144188.37927420562,-4787844.108369674,4202847.634245396,3.06547,1.30379,-0.844552,24.75,81.5,92.0,-0.046875,-7.92188,6.96875,0.111328,0.0175781,0.0,4,0,41.45507722056453,-91.72497040843707,11960.15595451999,8.966733936071817,0.6408404313038748,-14.493010867962694,196.7,10150.171305463598,12127.771392007851,150,False,18.10839941167848,False,129.71091722864722,169.19753975024204,False,61.08456708596278,False,False
1,1970-07-23 10:28:06.121255077,2025-09-12,2025-09-26 14:50:12.125,HA,C,583874320,JASSM,3,150,76,2,2,1,225,9,2,0,1,26,0,0,0,0,-169782.25268729156,-4772759.688447799,4218467.925261021,-2.51419,-0.702851,0.608032,57.5,-48.5,-52.25,0.0,0.0,0.0,0.0,0.0,0.0,2,0,41.64524367139081,-92.03733414365033,10997.371936648402,139.8554618797258,-0.0018757972659567,0.0040330555158168,,10150.171305463598,12127.771392007851,150,1,2025-09-12,2025-09-26 14:50:12.007,HA,C,2585527122,HAWK11,1,1,73,2,1,1,225,2,1,0,0,12,1,225,2,1,-144159.82849295562,-4787744.940400924,4202960.854948521,-3.1368,1.31942,-0.860084,22.125,80.375,92.75,-0.015625,-8.29688,6.95312,0.0703125,0.00585938,-0.00976562,4,0,41.45643646335933,-91.72466475331416,11960.232349574911,8.234566441869282,1.418781863683814,-9.19590594154912,196.406,10150.171305463598,12127.771392007851,150,True,18.024012646059237,False,130.85870609336774,168.94284624921644,False,60.19590195284027,False,False
1,1970-07-23 10:28:06.130289851,2025-09-12,2025-09-26 14:50:13.028,HA,C,585007626,JASSM,3,150,76,2,2,1,225,9,2,0,1,26,0,0,0,0,-169727.664186315,-4772805.942354049,4218418.124479771,-2.51419,-0.702851,0.608032,57.5,-48.5,-52.25,0.0,0.0,0.0,0.0,0.0,0.0,2,0,41.64464396345485,-92.0366599292755,10997.370049623196,139.85590990370812,-0.0010925432128287,0.0040315501513783,,10150.171305463598,12127.771392007851,150,1,2025-09-12,2025-09-26 14:50:12.897,HA,C,2586521288,HAWK11,1,1,73,2,1,1,225,2,1,0,0,12,1,225,2,1,-144141.79138358062,-4787678.473604049,4203037.655729771,-3.14159,1.33897,-0.868617,20.875,80.125,92.375,0.140625,-7.67188,6.45312,-0.0234375,0.00585938,0.0,4,0,41.45735346317313,-91.72447302144906,11962.359589457265,7.439084004749398,1.788004562622654,-8.640404426122446,196.284,10150.171305463598,12127.771392007851,150,True,17.95018270121714,False,131.39084405373373,168.76030619314886,False,59.84629573318505,False,False
1,1970-07-23 10:28:06.139329765,2025-09-12,2025-09-26 14:50:13.932,HA,C,586081384,JASSM,3,150,76,2,2,1,225,9,2,0,1,26,0,0,0,0,-169675.94384940094,-4772849.766572799,4218370.940886021,-2.51419,-0.702851,0.608032,57.5,-48.5,-52.25,0.0,0.0,0.0,0.0,0.0,0.0,2,0,41.64407576190629,-92.03602115045896,10997.374510239864,139.85633437542958,-0.0003504427370213,0.0040301243280401,,10150.171305463598,12127.771392007851,150,1,2025-09-12,2025-09-26 14:50:14.100,HA,C,2587992654,HAWK11,1,1,73,2,1,1,225,2,1,0,0,12,1,225,2,1,-144116.78161795562,-4787579.653291549,4203152.097136021,-3.12386,1.35115,-0.86459,19.25,79.5,92.0,0.046875,-7.29688,5.84375,0.0078125,-0.0117188,-0.0214844,4,0,41.45871823119956,-91.72420955921272,11966.224187663152,7.025879599493566,1.4953084890020576,-7.104344136019777,196.406,10150.171305463598,12127.771392007851,150,True,17.864729163663885,False,132.07789090356175,168.50420308296097,False,59.416020952360654,False,False
