Subject_cm,Timestamp,SampleDate_cm,SampleTime_cm,Configuration_cm,Scenario_cm,DisTime_cm,MarkingTxt_cm,Application_cm,EntId_cm,Site_cm,ExerciseId_cm,ForceId_cm,Category_cm,Country_cm,Domain_cm,Kind_cm,Extra_cm,Specific_cm,Subcategory_cm,AltCategory_cm,AltCountry_cm,AltDomain_cm,AltKind_cm,ECEF_X_cm,ECEF_Y_cm,ECEF_Z_cm,OriPhi_cm,OriPsi_cm,OriTheta_cm,LinVelX_cm,LinVelY_cm,LinVelZ_cm,LinAccX_cm,LinAccY_cm,LinAccZ_cm,AngVelX_cm,AngVelY_cm,AngVelZ_cm,DrAlg_cm,Appearance_cm,Latitude_cm,Longitude_cm,Altitude_cm,Heading_cm,Pitch_cm,Roll_cm,CalibratedAirspeed_cm,CM_Altitude_Lead_cm,CM_Altitude_Wing_cm,CM_Airspeed_cm,Subject_ac,SampleDate_ac,SampleTime_ac,Configuration_ac,Scenario_ac,DisTime_ac,MarkingTxt_ac,Application_ac,EntId_ac,Site_ac,ExerciseId_ac,ForceId_ac,Category_ac,Country_ac,Domain_ac,Kind_ac,Extra_ac,Specific_ac,Subcategory_ac,AltCategory_ac,AltCountry_ac,AltDomain_ac,AltKind_ac,ECEF_X_ac,ECEF_Y_ac,ECEF_Z_ac,OriPhi_ac,OriPsi_ac,OriTheta_ac,LinVelX_ac,LinVelY_ac,LinVelZ_ac,LinAccX_ac,LinAccY_ac,LinAccZ_ac,AngVelX_ac,AngVelY_ac,AngVelZ_ac,DrAlg_ac,Appearance_ac,Latitude_ac,Longitude_ac,Altitude_ac,Heading_ac,Pitch_ac,Roll_ac,CalibratedAirspeed_ac,CM_Altitude_Lead_ac,CM_Altitude_Wing_ac,CM_Airspeed_ac,Bank_Angle_Condition,distance_nm,Distance_Condition,angle_between_vel,angle_between_pos,Cone_Condition,angle_between_pos_nose,Nose_Cone_Condition,Intercept_Criteria
1,1970-07-23 11:27:17.197368428,2025-09-16,2025-09-26 17:28:39.736,HA,D,1337472754,JASSM,3,105,76,2,2,1,225,9,2,0,1,26,0,0,0,0,-171305.56286795562,-4793410.872041549,4194623.352018833,-2.29541,0.0350898,-0.0800546,90.0,3.125,7.25,0.0,0.0,0.0,0.0,0.0,0.0,2,0,41.36113772215921,-92.04674931113313,10000.00054238077,83.87915846735049,-0.0051871873466388,0.0066288575475706,,9149.92074150536,10701.197747240783,150,1,2025-09-16,2025-09-26 17:28:39.697,HA,D,1729649078,AMBUSH51,1,1,48,2,1,1,225,2,1,0,0,9,1,225,2,1,-155243.89143344198,-4788685.564216224,4200079.363982266,2.30762,2.71977,-0.399109,-108.069,46.1183,47.7083,-0.119547,-7.36103,6.19511,-0.0103624,0.0085939,0.00742876,4,0,41.42933431249372,-91.85681551065908,8867.137004692757,-58.47735504765251,-0.2948139125185056,-3.863440542720546,207.331,9149.92074150536,10701.197747240783,150,True,9.481739375592126,False,143.72185312569906,160.52547907398645,False,55.726117716241745,False,False
1,1970-07-23 11:27:17.207246673,2025-09-16,2025-09-26 17:28:40.724,HA,D,1338606148,JASSM,3,105,76,2,2,1,225,9,2,0,1,26,0,0,0,0,-171220.01892264312,-4793407.892549361,4194630.203581333,-2.29541,0.0348022,-0.079767,90.0,3.125,7.25,0.0,0.0,0.0,0.0,0.0,0.0,2,0,41.36121987632497,-92.0457293759902,10000.0010174378,83.90306027624926,-0.0030433354201996,0.005311919022856,,9149.92074150536,10701.197747240783,150,1,2025-09-16,2025-09-26 17:28:40.764,HA,D,1730921610,AMBUSH51,1,1,48,2,1,1,225,2,1,0,0,9,1,225,2,1,-155358.57143835857,-4788636.545777864,4200129.549745959,2.30573,2.71901,-0.395251,-108.355,46.04,47.1595,-0.250498,-7.33945,6.32133,0.00267044,0.00771589,-0.00879363,4,0,41.42994260022067,-91.85820520290793,8864.715059441272,-58.60262113276589,-0.4807449415090962,-3.988218519948677,207.258,9149.92074150536,10701.197747240783,150,True,9.397764870558078,False,143.96945030191102,160.067456988276,False,55.94012314377903,False,False
1,1970-07-23 11:27:17.218268651,2025-09-16,2025-09-26 17:28:41.826,HA,D,1339974088,JASSM,3,105,76,2,2,1,225,9,2,0,1,26,0,0,0,0,-171116.77185233062,-4793404.295869674,4194638.471159458,-2.29541,0.0348022,-0.079767,90.0,3.125,7.25,0.0,0.0,0.0,0.0,0.0,0.0,2,0,41.36131901073332,-92.04449836442288,10000.00106638418,83.90387373440612,-0.0021140869581998,0.005312366146361,,9149.92074150536,10701.197747240783,150,1,2025-09-16,2025-09-26 17:28:41.664,HA,D,1731995308,AMBUSH51,1,1,48,2,1,1,225,2,1,0,0,9,1,225,2,1,-155456.68398678466,-4788594.771273855,4200171.932070326,2.29938,2.7215,-0.390865,-108.552,45.8152,46.7748,-0.183386,-7.16709,6.43018,-0.0122079,0.000344338,0.000606493,4,0,41.43045829727422,-91.8593940885595,8861.848523248735,-58.87279430551554,-0.5691360412937952,-4.294327539487135,207.258,9149.92074150536,10701.197747240783,150,True,9.311058241195212,False,144.18493215045268,159.63579693994572,False,56.15737401731511,False,False
1,1970-07-23 11:27:17.229291682,2025-09-16,2025-09-26 17:28:42.929,HA,D,1341284138,JASSM,3,105,76,2,2,1,225,9,2,0,1,26,0,0,0,0,-171017.89416678375,-4793400.849580611,4194646.388151646,-2.29541,0.0348022,-0.079767,90.0,3.125,7.25,0.0,0.0,0.0,0.0,0.0,0.0,2,0,41.36141394351488,-92.0433194461657,10000.00027713716,83.90465277056707,-0.0012241639604859,0.0053128003847877,,9149.92074150536,10701.197747240783,150,1,2025-09-16,2025-09-26 17:28:42.763,HA,D,1733307608,AMBUSH51,1,1,48,2,1,1,225,2,1,0,0,9,1,225,2,1,-155575.53393842053,-4788544.572549704,4200222.380004836,2.29468,2.72543,-0.383982,-108.917,45.7917,45.9848,-0.0696757,-7.13678,6.23358,-3.64104e-05,-0.00237708,-0.00094355,4,0,41.43107454226069,-91.86083412935814,8857.444277691573,-59.29761044303039,-0.7068212444470154,-4.474280727178135,207.331,9149.92074150536,10701.197747240783,150,True,9.219746597278888,False,144.5068364035669,159.13618238658185,False,56.34030135498766,False,False
1,1970-07-23 11:27:17.239347989,2025-09-16,2025-09-26 17:28:43.934,HA,D,1342537958,JASSM,3,105,76,2,2,1,225,9,2,0,1,26,0,0,0,0,-170923.26062186187,-4793397.549775924,4194653.964323521,-2.29541,0.0348981,-0.079767,90.0,3.125,7.25,0.0,0.0,0.0,0.0,0.0,0.0,2,0,41.36150479199468,-92.0421911281853,9999.998548030411,83.90176841700675,-0.0044720572592465,0.0057510812245689,,9149.92074150536,10701.197747240783,150,1,2025-09-16,2025-09-26 17:28:43.766,HA,D,1734500606,AMBUSH51,1,1,48,2,1,1,225,2,1,0,0,9,1,225,2,1,-155685.29579623885,-4788498.385137962,4200268.260653058,2.28942,2.72501,-0.378976,-109.287,45.5667,45.4869,-0.178719,-7.25244,6.3191,-0.00289723,-0.00600564,0.000412998,4,0,41.43163783179322,-91.86216401221208,8852.269580342305,-59.48192889335253,-0.9273215429200578,-4.781934030934505,207.258,9149.92074150536,10701.197747240783,150,True,9.134226316613306,False,144.7951981639793,158.66369381882515,False,56.52603880621668,False,False
1,1970-07-23 11:27:17.250370037,2025-09-16,2025-09-26 17:28:45.037,HA,D,1343791724,JASSM,3,105,76,2,2,1,225,9,2,0,1,26,0,0,0,0,-170828.63098319,-4793394.249971236,4194661.539518833,-2.29541,0.0348981,-0.079767,90.0,3.125,7.25,0.0,0.0,0.0,0.0,0.0,0.0,2,0,41.3615956219869,-92.04106285369924,9999.99967724685,83.90251399016626,-0.0036203684076738,0.0057514409757624,,9149.92074150536,10701.197747240783,150,1,2025-09-16,2025-09-26 17:28:44.931,HA,D,1735892438,AMBUSH51,1,1,48,2,1,1,225,2,1,0,0,9,1,225,2,1,-155811.85734416454,-4788445.204393528,4200320.432072097,2.28581,2.73022,-0.371366,-109.606,45.5246,44.7463,-0.11955,-6.86967,5.99573,-0.0381092,-0.000997645,-0.00996501,4,0,41.43228192916805,-91.86369744119052,8844.911715015816,-59.985892466130416,-1.045805757224203,-4.870786579787735,207.258,9149.92074150536,10701.197747240783,150,True,9.043517579538594,False,145.09512522694627,158.1280367158333,False,56.76578505560097,False,False
1,1970-07-23 11:27:17.261237083,2025-09-16,2025-09-26 17:28:46.123,HA,D,1345102540,JASSM,3,105,76,2,2,1,225,9,2,0,1,26,0,0,0,0,-170729.695436315,-4793390.798799361,4194669.458464146,-2.29541,0.0348981,-0.079767,90.0,3.125,7.25,0.0,0.0,0.0,0.0,0.0,0.0,2,0,41.36169057403257,-92.0398832367914,10000.000773790603,83.90329349226597,-0.0027299256851102,0.0057518179570056,,9149.92074150536,10701.197747240783,150,1,2025-09-16,2025-09-26 17:28:46.164,HA,D,1737363804,AMBUSH51,1,1,48,2,1,1,225,2,1,0,0,9,1,225,2,1,-155947.39232730208,-4788389.007905143,4200374.594192786,2.03947,2.73443,-0.367475,-110.699,44.8988,43.1072,0.0623947,-7.38893,6.48807,-0.239167,0.00302206,-0.0069856,4,0,41.43295565114472,-91.86533933392124,8835.1913009822,-60.30388394140218,-1.0472352102424385,-18.891574138563534,207.441,9149.92074150536,10701.197747240783,150,False,8.948026009873706,False,145.98181554963952,157.55087922285077,False,56.460795455137294,False,False
1,1970-07-23 11:27:17.272267754,2025-09-16,2025-09-26 17:28:47.226,HA,D,1346414746,JASSM,3,105,76,2,2,1,225,9,2,0,1,26,0,0,0,0,-170630.65490897125,-4793387.342744674,4194677.384245396,-2.29541,0.0348981,-0.0796711,90.0,3.125,7.25,0.0,0.0,0.0,0.0,0.0,0.0,2,0,41.36178561139171,-92.03870236527716,10000.00054214244,83.908186505796,-0.0054800877785356,0.0057519293593062,,9149.92074150536,10701.197747240783,150,1,2025-09-16,2025-09-26 17:28:47.197,HA,D,1738596568,AMBUSH51,1,1,48,2,1,1,225,2,1,0,0,9,1,225,2,1,-156063.59057947889,-4788343.4361161655,4200417.793958178,1.81595,2.76819,-0.338076,-112.902,42.7502,40.0438,-0.156569,-8.4506,7.34473,-0.181294,0.0160591,-0.064822,4,0,41.433495886544506,-91.86674599091548,8826.25356605622,-62.78017009987813,-0.970324386507982,-30.986480449431784,208.077,9149.92074150536,10701.197747240783,150,False,8.858774796788088,False,147.92577099660966,157.03951596743877,False,55.03099702185583,False,False
1,1970-07-23 11:27:17.283288811,2025-09-16,2025-09-26 17:28:48.328,HA,D,1347727264,JASSM,3,105,76,2,2,1,225,9,2,0,1,26,0,0,0,0,-170531.5909441275,-4793383.883760299,4194685.311003208,-2.29541,0.0348981,-0.0796711,90.0,3.125,7.25,0.0,0.0,0.0,0.0,0.0,0.0,2,0,41.36188066559694,-92.03752121177511,9999.998240611454,83.90896702621409,-0.0045884900465715,0.0057523739810945,,9149.92074150536,10701.197747240783,150,1,2025-09-16,2025-09-26 17:28:48.397,HA,D,1740028168,AMBUSH51,1,1,48,2,1,1,225,2,1,0,0,9,1,225,2,1,-156200.28498426132,-4788294.477563749,4200462.90153418,1.73251,2.82476,-0.274891,-115.969,38.7608,34.8486,-0.00555831,-8.42948,7.32283,0.0365613,0.0377784,-0.0559087,4,0,41.43406515901256,-91.86839898505538,8814.784470802284,-67.52981599860018,-1.301250883503733,-34.694682838051214,208.187,9149.92074150536,10701.197747240783,150,False,8.761449267603982,False,151.17278400674863,156.47202964419424,False,52.35405151184007,False,False
1,1970-07-23 11:27:17.294303694,2025-09-16,2025-09-26 17:28:49.430,HA,D,1349038940,JASSM,3,105,76,2,2,1,225,9,2,0,1,26,0,0,0,0,-170432.59045584625,-4793380.426729049,4194693.231901646,-2.29541,0.0348981,-0.0796711,90.0,3.125,7.25,0.0,0.0,0.0,0.0,0.0,0.0,2,0,41.361975643077066,-92.03634081179082,9999.998673193692,83.90974705017499,-0.0036974641090865,0.0057528145963755,,9149.92074150536,10701.197747240783,150,1,2025-09-16,2025-09-26 17:28:49.263,HA,D,1741062100,AMBUSH51,1,1,48,2,1,1,225,2,1,0,0,9,1,225,2,1,-156300.55867219818,-4788262.728187993,4200491.208206193,1.77015,2.87445,-0.228996,-117.935,35.1546,31.1334,-0.126581,-9.19107,8.07754,0.0684152,0.0312079,-0.04004,4,0,41.43442567866879,-91.86960995166189,8806.23373625664,-71.33686632900941,-1.1140356077759483,-31.74788336065681,208.285,9149.92074150536,10701.197747240783,150,False,8.675962650510268,False,153.66883918748877,156.02922484799294,False,50.30064731758912,False,False
1,1970-07-23 11:27:17.304323293,2025-09-16,2025-09-26 17:28:50.432,HA,D,1350293944,JASSM,3,105,76,2,2,1,225,9,2,0,1,26,0,0,0,0,-170337.86706717435,-4793377.118135299,4194700.810026646,-2.29541,0.0348981,-0.0796711,90.0,3.125,7.25,0.0,0.0,0.0,0.0,0.0,0.0,2,0,41.36206650753256,-92.03521140558244,10000.00034731024,83.91049337815367,-0.0028449331325738,0.0057532377596446,,9149.92074150536,10701.197747240783,150,1,2025-09-16,2025-09-26 17:28:50.464,HA,D,1742493698,AMBUSH51,1,1,48,2,1,1,225,2,1,0,0,9,1,225,2,1,-156444.03931798437,-4788223.42999291,4200525.9957103245,1.84717,2.91786,-0.198835,-120.277,29.95,26.9546,-0.110153,-9.09752,7.89963,0.0660932,0.0252158,-0.0376785,4,0,41.43486644981334,-91.87134034234596,8796.672190187574,-74.25854815512858,-0.5072021649799852,-26.765204006339548,208.358,9149.92074150536,10701.197747240783,150,False,8.575417717129397,False,156.8327411066036,155.47723913934135,False,47.683563939963555,False,False
1,1970-07-23 11:27:17.315366630,2025-09-16,2025-09-26 17:28:51.536,HA,D,1351604606,JASSM,3,105,76,2,2,1,225,9,2,0,1,26,0,0,0,0,-170238.94299490875,-4793373.661104049,4194708.723112583,-2.29541,0.0348981,-0.0796711,90.0,3.125,7.25,0.0,0.0,0.0,0.0,0.0,0.0,2,0,41.362161392416645,-92.03403191114243,10000.000442492756,83.91127280660277,-0.0019545953645433,0.0057536823962926,,9149.92074150536,10701.197747240783,150,1,2025-09-16,2025-09-26 17:28:51.530,HA,D,1743766230,AMBUSH51,1,1,48,2,1,1,225,2,1,0,0,9,1,225,2,1,-156573.33761314285,-4788193.521217747,4200552.882112185,1.87384,2.95424,-0.170642,-121.752,25.7063,23.7958,-0.149826,-8.96181,7.86405,-0.00190478,0.0284261,-0.0357436,4,0,41.43520074963669,-91.87289756215397,8791.910268790869,-76.83370003661695,-0.0823697233043214,-24.84121312996845,208.321,9149.92074150536,10701.197747240783,150,False,8.477002232602949,False,159.26832083058045,154.96997369280996,False,45.74433132704931,False,False
1,1970-07-23 11:27:17.327364542,2025-09-16,2025-09-26 17:28:52.736,HA,D,1352918544,JASSM,3,105,76,2,2,1,225,9,2,0,1,26,0,0,0,0,-170139.77160819,-4793370.195283736,4194716.654753208,-2.29541,0.0349939,-0.0796711,90.0,3.125,7.25,0.0,0.0,0.0,0.0,0.0,0.0,2,0,41.36225649495393,-92.03284946453851,10000.002596185444,83.90842417389338,-0.0051616537741911,0.0061915028506874,,9149.92074150536,10701.197747240783,150,1,2025-09-16,2025-09-26 17:28:52.597,HA,D,1745038762,AMBUSH51,1,1,48,2,1,1,225,2,1,0,0,9,1,225,2,1,-156703.2311428171,-4788168.385805843,4200576.133111979,1.81685,2.98744,-0.14898,-122.953,21.4068,20.3223,-0.148913,-8.82072,7.89179,-0.0473491,0.0221781,-0.0234202,4,0,41.43548196751578,-91.87446004634694,8791.047045136946,-79.01433580515967,0.4821272842038935,-27.81109571585973,208.26,9149.92074150536,10701.197747240783,150,False,8.377276115345989,False,161.78676459475815,154.4682774358229,False,43.711819955632606,False,False
1,1970-07-23 11:27:17.337247553,2025-09-16,2025-09-26 17:28:53.724,HA,D,1354229134,JASSM,3,105,76,2,2,1,225,9,2,0,1,26,0,0,0,0,-170040.85290701812,-4793366.736299361,4194724.564909458,-2.29541,0.0349939,-0.0796711,90.0,3.125,7.25,0.0,0.0,0.0,0.0,0.0,0.0,2,0,41.36235134631405,-92.03167002818668,10000.002139889311,83.90920356687899,-0.0042713654693535,0.006191886898766,,9149.92074150536,10701.197747240783,150,1,2025-09-16,2025-09-26 17:28:53.697,HA,D,1746351060,AMBUSH51,1,1,48,2,1,1,225,2,1,0,0,9,1,225,2,1,-156837.85851528955,-4788147.258362477,4200596.259284636,1.76443,3.02421,-0.111099,-123.785,16.4308,17.8012,-0.138697,-8.91875,7.70361,-0.0483915,0.0233932,-0.0392993,4,0,41.43571729749817,-91.87607756018696,8793.642541967713,-82.02562381181448,0.5948342225739093,-30.569648789354854,208.016,9149.92074150536,10701.197747240783,150,False,8.274769826485999,False,164.11186548406044,153.96211585416472,False,41.825474433154625,False,False
1,1970-07-23 11:27:17.348287559,2025-09-16,2025-09-26 17:28:54.828,HA,D,1355541242,JASSM,3,105,76,2,2,1,225,9,2,0,1,26,0,0,0,0,-169941.8194597525,-4793363.271455611,4194732.482878208,-2.29541,0.0349939,-0.0796711,90.0,3.125,7.25,0.0,0.0,0.0,0.0,0.0,0.0,2,0,41.36244629736059,-92.03048922103493,9999.999253045902,83.90998386718789,-0.003380044837173,0.0061922731670266,,9149.92074150536,10701.197747240783,150,1,2025-09-16,2025-09-26 17:28:54.930,HA,D,1747822426,AMBUSH51,1,1,48,2,1,1,225,2,1,0,0,9,1,225,2,1,-156990.77142050798,-4788129.334829584,4200612.659315564,1.75377,3.06789,-0.066914,-124.602,11.685,11.2544,-0.257739,-8.94443,7.96571,0.0153662,0.0221927,-0.0394325,4,0,41.43590482144522,-91.87791240342705,8797.507555745759,-85.57511001721126,0.7817180349715364,-31.000451900551678,207.551,9149.92074150536,10701.197747240783,150,False,8.16308616843005,False,167.80451012430248,153.42308678254844,False,38.692993542939,False,False
1,1970-07-23 11:27:17.359288794,2025-09-16,2025-09-26 17:28:55.928,HA,D,1356796030,JASSM,3,105,76,2,2,1,225,9,2,0,1,26,0,0,0,0,-169847.1124285025,-4793359.957979049,4194740.054167271,-2.29541,0.0349939,-0.0796711,90.0,3.125,7.25,0.0,0.0,0.0,0.0,0.0,0.0,2,0,41.36253708378352,-92.02935999590012,9999.999566028964,83.91073008247741,-0.0025276633728199,0.006192637328501,,9149.92074150536,10701.197747240783,150,1,2025-09-16,2025-09-26 17:28:55.898,HA,D,1748975658,AMBUSH51,1,1,48,2,1,1,225,2,1,0,0,9,1,225,2,1,-157112.23423945715,-4788119.7745077815,4200621.27988435,1.8002,3.10028,-0.0342339,-124.946,7.54736,7.15121,-0.25314,-9.10955,8.02251,0.100652,0.0214124,-0.0522822,4,0,41.435996183218606,-91.8793680412655,8802.516238152255,-88.2065780066544,0.9322976855103422,-28.28562789119557,207.27,9149.92074150536,10701.197747240783,150,False,8.065364397521595,False,170.43032488127517,152.97722417505184,False,36.48043187769089,False,False
1,1970-07-23 11:27:17.370626238,2025-09-16,2025-09-26 17:28:57.062,HA,D,1358165962,JASSM,3,105,76,2,2,1,225,9,2,0,1,26,0,0,0,0,-169743.71447928375,-4793356.338838424,4194748.319792271,-2.29541,0.0349939,-0.0795753,90.0,3.125,7.25,0.0,0.0,0.0,0.0,0.0,0.0,2,0,41.36263619512748,-92.02812714299574,10000.000289154525,83.91565743155469,-0.0052386423687611,0.0061927959825363,,9149.92074150536,10701.197747240783,150,1,2025-09-16,2025-09-26 17:28:57.064,HA,D,1750367490,AMBUSH51,1,1,48,2,1,1,225,2,1,0,0,9,1,225,2,1,-157256.73433346313,-4788113.751392423,4200627.207276808,1.83291,3.13869,-0.0024878,-124.795,2.55786,3.36954,-0.129848,-8.70303,7.71462,-0.0659913,0.0238197,-0.0164877,4,0,41.43604379410424,-91.88109766689752,8812.240517837727,-91.02813704903832,1.3798357381533917,-26.42845172700621,206.451,9149.92074150536,10701.197747240783,150,False,7.9522525286598755,False,173.08636783651875,152.47175821633593,False,34.17998412244838,False,False
1,1970-07-23 11:27:17.381343796,2025-09-16,2025-09-26 17:28:58.134,HA,D,1359418676,JASSM,3,105,76,2,2,1,225,9,2,0,1,26,0,0,0,0,-169649.16394217435,-4793353.028291549,4194755.876432896,-2.29541,0.0349939,-0.0795753,90.0,3.125,7.25,0.0,0.0,0.0,0.0,0.0,0.0,2,0,41.36272680909234,-92.02699977832025,9999.999389105167,83.9164024202004,-0.0043876701683585,0.0061932213086258,,9149.92074150536,10701.197747240783,150,1,2025-09-16,2025-09-26 17:28:58.130,HA,D,1751640022,AMBUSH51,1,1,48,2,1,1,225,2,1,0,0,9,1,225,2,1,-157390.4805885187,-4788113.013859941,4200628.626645539,1.78529,-3.11379,0.0217554,-124.31,-1.59379,-0.3067,-0.0775277,-8.75919,7.71472,-0.0369753,0.0258191,-0.0458178,4,0,41.43603160130457,-91.88269667222777,8824.312233055265,-93.23579684857998,1.7788304396595938,-29.23465218271063,205.584,9149.92074150536,10701.197747240783,150,False,7.84685667598347,False,175.3660323556927,152.0139355467222,False,32.110668373664765,False,False
1,1970-07-23 11:27:17.391233759,2025-09-16,2025-09-26 17:28:59.123,HA,D,1360613720,JASSM,3,105,76,2,2,1,225,9,2,0,1,26,0,0,0,0,-169558.9660661978,-4793349.869111861,4194763.085417271,-2.29541,0.0349939,-0.0795753,90.0,3.125,7.25,0.0,0.0,0.0,0.0,0.0,0.0,2,0,41.36281324893167,-92.02592430972356,10000.000762332404,83.91711311596974,-0.0035758722501153,0.0061936346159361,,9149.92074150536,10701.197747240783,150,1,2025-09-16,2025-09-26 17:28:59.063,HA,D,1752753488,AMBUSH51,1,1,48,2,1,1,225,2,1,0,0,9,1,225,2,1,-157504.6520224811,-4788116.036599156,4200626.426173779,1.74821,-3.08022,0.058382,-123.601,-5.30837,-4.19044,-0.0668719,-8.63354,7.62469,-0.0419021,0.0190967,-0.0399068,4,0,41.43597641070362,-91.88406021245564,8836.194564762294,-96.08325106835424,1.823529488523236,-31.52590800049688,204.948,9149.92074150536,10701.197747240783,150,False,7.751319482078469,False,177.29606078002055,151.61192249533576,False,30.024265844074808,False,False
1,1970-07-23 11:27:17.401266496,2025-09-16,2025-09-26 17:29:00.126,HA,D,1361804562,JASSM,3,105,76,2,2,1,225,9,2,0,1,26,0,0,0,0,-169469.0852068228,-4793346.719697799,4194770.267057896,-2.29541,0.0349939,-0.0795753,90.0,3.125,7.25,0.0,0.0,0.0,0.0,0.0,0.0,2,0,41.36289936936262,-92.0248526187879,9999.99867481923,83.91782131658631,-0.0027669285685216,0.0061940409076756,,9149.92074150536,10701.197747240783,150,1,2025-09-16,2025-09-26 17:29:00.196,HA,D,1754105552,AMBUSH51,1,1,48,2,1,1,225,2,1,0,0,9,1,225,2,1,-157644.52445190842,-4788124.373644623,4200618.781432265,1.77651,-3.04935,0.097028,-122.403,-9.48513,-9.04783,0.0377116,-8.06414,7.05672,0.105227,0.00549173,-0.0538447,4,0,41.43584779712984,-91.8857288686843,8851.407172674259,-98.91183330918592,1.6637538272839016,-30.127479255182063,204.227,9149.92074150536,10701.197747240783,150,False,7.642538459344632,False,177.53412568445407,151.16889888811622,False,27.45891212000607,True,False
1,1970-07-23 11:27:17.411284422,2025-09-16,2025-09-26 17:29:01.128,HA,D,1362999726,JASSM,3,105,76,2,2,1,225,9,2,0,1,26,0,0,0,0,-169378.8780535025,-4793343.558564986,4194777.475065708,-2.29541,0.0349939,-0.0795753,90.0,3.125,7.25,0.0,0.0,0.0,0.0,0.0,0.0,2,0,41.3629857960946,-92.02377703457832,10000.00072041372,83.91853209119843,-0.0019550478942302,0.0061944523190732,,9149.92074150536,10701.197747240783,150,1,2025-09-16,2025-09-26 17:29:01.130,HA,D,1755219018,AMBUSH51,1,1,48,2,1,1,225,2,1,0,0,9,1,225,2,1,-157758.83069569292,-4788133.963002697,4200608.649512374,1.91462,-3.0305,0.136853,-121.588,-11.7265,-12.272,-0.233358,-7.59742,6.67317,0.137578,0.0111177,-0.0271278,4,0,41.43569993754559,-91.88709142427068,8862.237381486277,-101.32682096861384,0.9350206293808409,-22.395057507264244,203.494,9149.92074150536,10701.197747240783,150,False,7.544650000594275,False,176.31529753830523,150.77975630956018,False,25.99585276018795,True,False
1,1970-07-23 11:27:17.421327716,2025-09-16,2025-09-26 17:29:02.132,HA,D,1364192914,JASSM,3,105,76,2,2,1,225,9,2,0,1,26,0,0,0,0,-169288.82019217435,-4793340.401338424,4194784.669401646,-2.29541,0.0350898,-0.0795753,90.0,3.125,7.25,0.0,0.0,0.0,0.0,0.0,0.0,2,0,41.36307206586864,-92.02270322817078,9999.999921908477,83.91561161945178,-0.0052441363833812,0.006631721561184,,9149.92074150536,10701.197747240783,150,1,2025-09-16,2025-09-26 17:29:02.130,HA,D,1756412016,AMBUSH51,1,1,48,2,1,1,225,2,1,0,0,9,1,225,2,1,-157879.71030371592,-4788146.031561048,4200594.919311924,2.03211,-3.01535,0.153856,-120.718,-13.5488,-14.7299,-0.183406,-7.48511,6.62592,0.127583,0.00141584,-0.00500487,4,0,41.43551173442302,-91.88853156775652,8871.889325500895,-102.62657808963742,0.9187522391720924,-15.810505280738296,202.92,9149.92074150536,10701.197747240783,150,False,7.442941242309446,False,175.0365909878827,150.38002976845965,False,24.925144753865673,True,False
1,1970-07-23 11:27:17.431341625,2025-09-16,2025-09-26 17:29:03.134,HA,D,1365443344,JASSM,3,105,76,2,2,1,225,9,2,0,1,26,0,0,0,0,-169194.44177420562,-4793337.091768111,4194792.208464146,-2.29541,0.0350898,-0.0795753,90.0,3.125,7.25,0.0,0.0,0.0,0.0,0.0,0.0,2,0,41.363162466045296,-92.02157790285948,10000.000515342472,83.91635526686623,-0.0043947144718352,0.0066320964384447,,9149.92074150536,10701.197747240783,150,1,2025-09-16,2025-09-26 17:29:03.130,HA,D,1757605016,AMBUSH51,1,1,48,2,1,1,225,2,1,0,0,9,1,225,2,1,-158000.25498803484,-4788159.875493884,4200578.612445807,2.16591,-3.00631,0.16805,-120.198,-14.7477,-16.3997,-0.239719,-7.34912,6.48442,0.136265,-0.000727168,-0.0266327,4,0,41.43529562491184,-91.88996699794794,8880.291815771827,-103.57317330588332,0.7507045669920211,-8.241206618224084,202.516,9149.92074150536,10701.197747240783,150,True,7.338770453736942,False,174.1316749058765,149.97151834864397,False,24.347929389788494,True,False
1,1970-07-23 11:27:17.441225060,2025-09-16,2025-09-26 17:29:04.122,HA,D,1366577542,JASSM,3,105,76,2,2,1,225,9,2,0,1,26,0,0,0,0,-169108.836061315,-4793334.088838424,4194799.045378208,-2.29541,0.0350898,-0.0795753,90.0,3.125,7.25,0.0,0.0,0.0,0.0,0.0,0.0,2,0,41.36324445040052,-92.02055717701596,9999.999618516693,83.91702979309372,-0.0036242490894986,0.0066324331007102,,9149.92074150536,10701.197747240783,150,1,2025-09-16,2025-09-26 17:29:04.130,HA,D,1758798014,AMBUSH51,1,1,48,2,1,1,225,2,1,0,0,9,1,225,2,1,-158119.98790238384,-4788174.241092568,4200561.108936298,2.27829,-3.00516,0.172311,-119.793,-15.0273,-17.2754,-0.281727,-7.34765,6.23438,0.097402,0.00645297,0.0114485,4,0,41.435068477588494,-91.8913925084088,8887.320413302341,-103.79821643731526,0.6351880097297422,-1.8160392133478724,201.869,9149.92074150536,10701.197747240783,150,True,7.239034991510383,False,173.76806078376214,149.5764905867461,False,24.32125960334179,True,False
1,1970-07-23 11:27:17.451265740,2025-09-16,2025-09-26 17:29:05.126,HA,D,1367830076,JASSM,3,105,76,2,2,1,225,9,2,0,1,26,0,0,0,0,-169014.2988298697,-4793330.771455611,4194806.595182896,-2.29541,0.0350898,-0.0795753,90.0,3.125,7.25,0.0,0.0,0.0,0.0,0.0,0.0,2,0,41.36333498186696,-92.01942995307816,9999.999283701938,83.91777469773228,-0.0027733985389081,0.0066328088054814,,9149.92074150536,10701.197747240783,150,1,2025-09-16,2025-09-26 17:29:05.230,HA,D,1760110312,AMBUSH51,1,1,48,2,1,1,225,2,1,0,0,9,1,225,2,1,-158250.35469223929,-4788189.836161622,4200541.647464458,2.37374,-3.01022,0.167434,-119.676,-14.5574,-17.3416,-0.18958,-7.2044,6.32441,0.0206052,0.00612007,0.00921808,4,0,41.43481869071257,-91.89294462909506,8893.991997674568,-103.4003543436526,0.613449217408924,3.706293416821216,201.429,9149.92074150536,10701.197747240783,150,True,7.1301410260680855,False,173.91768788417573,149.13173535096783,False,24.879438480515336,True,False
1,1970-07-23 11:27:17.461302419,2025-09-16,2025-09-26 17:29:06.130,HA,D,1369024552,JASSM,3,105,76,2,2,1,225,9,2,0,1,26,0,0,0,0,-168924.14343436187,-4793327.607393111,4194813.794401646,-2.29541,0.0350898,-0.0795753,90.0,3.125,7.25,0.0,0.0,0.0,0.0,0.0,0.0,2,0,41.36342130511617,-92.0183549736658,10000.000776051693,83.91848507881393,-0.0019619855668354,0.0066331653182905,,9149.92074150536,10701.197747240783,150,1,2025-09-16,2025-09-26 17:29:06.130,HA,D,1761184012,AMBUSH51,1,1,48,2,1,1,225,2,1,0,0,9,1,225,2,1,-158358.01563242628,-4788202.018403023,4200525.881825346,2.36173,-3.01746,0.15918,-119.566,-13.7534,-17.1334,-0.207176,-7.06919,6.56511,-0.038182,-0.00846906,0.023749,4,0,41.434618606649245,-91.89422668419672,8898.46072381974,-102.77570124935112,0.6293061444783122,3.09217774571574,201.026,9149.92074150536,10701.197747240783,150,True,7.035185340166875,False,174.26453050086397,148.72392887138628,False,25.60154328195199,True,False
1,1970-07-23 11:27:17.471322829,2025-09-16,2025-09-26 17:29:07.132,HA,D,1370215972,JASSM,3,105,76,2,2,1,225,9,2,0,1,26,0,0,0,0,-168834.2187517447,-4793324.450166549,4194820.974089146,-2.29541,0.0350898,-0.0794794,90.0,3.125,7.125,0.0,0.0,0.0,0.0,0.0,0.0,2,0,41.36350739746631,-92.01728274288855,10000.000947573326,83.9233062696041,-0.0047942616263721,0.0066333075027668,,9149.92074150536,10701.197747240783,150,1,2025-09-16,2025-09-26 17:29:07.330,HA,D,1762615610,AMBUSH51,1,1,48,2,1,1,225,2,1,0,0,9,1,225,2,1,-158501.67870774868,-4788217.451025161,4200505.475974228,2.33252,-3.02521,0.150194,-119.336,-13.0483,-16.7621,-0.104413,-7.01738,6.26941,-0.0126469,-0.00230634,-0.0145694,4,0,41.43436075667935,-91.8959377749732,8903.781058534865,-102.10075650157364,0.6514311221177789,1.4944004835031548,200.916,9149.92074150536,10701.197747240783,150,True,6.923319821100145,False,174.5607220306633,148.1739876236876,False,26.425867110029255,True,False
1,1970-07-23 11:27:17.481366339,2025-09-16,2025-09-26 17:29:08.136,HA,D,1371408560,JASSM,3,105,76,2,2,1,225,9,2,0,1,26,0,0,0,0,-168744.20593436187,-4793321.289033736,4194828.159636021,-2.29541,0.0350898,-0.0794794,90.0,3.125,7.125,0.0,0.0,0.0,0.0,0.0,0.0,2,0,41.36359356106183,-92.0162094587339,10000.000758082177,83.92401553281086,-0.0039841329132724,0.0066337184963396,,9149.92074150536,10701.197747240783,150,1,2025-09-16,2025-09-26 17:29:08.096,HA,D,1763530242,AMBUSH51,1,1,48,2,1,1,225,2,1,0,0,9,1,225,2,1,-158592.3462819141,-4788226.919568478,4200492.468964491,2.31613,-3.02465,0.149459,-119.286,-12.8127,-16.6792,-0.124778,-7.38957,6.65476,-0.0293478,0.00983393,0.00448264,4,0,41.434198757643465,-91.89701776582817,8906.19851238837,-102.091533152543,0.7040128642392369,0.5510619073134589,200.806,9149.92074150536,10701.197747240783,150,True,6.837805461747829,False,174.66616497765574,147.77372601009665,False,26.92544261854008,True,False
1,1970-07-23 11:27:17.497630447,2025-09-16,2025-09-26 17:29:09.763,HA,D,1372541954,JASSM,3,105,76,2,2,1,225,9,2,0,1,26,0,0,0,0,-168658.6608293814,-4793318.283174361,4194834.988737583,-2.29541,0.0350898,-0.0794794,90.0,3.125,7.125,0.0,0.0,0.0,0.0,0.0,0.0,2,0,41.36367544976323,-92.01518944421788,10000.00090029526,83.92468959472956,-0.0032142136273991,0.0066341200907414,,9149.92074150536,10701.197747240783,150,1,2025-09-16,2025-09-26 17:29:09.596,HA,D,1765319740,AMBUSH51,1,1,48,2,1,1,225,2,1,0,0,9,1,225,2,1,-158771.07741164643,-4788245.061982915,4200467.524840592,2.30455,-3.03087,0.15358,-119.23,-12.3292,-16.5899,-0.138444,-7.12579,6.23446,-0.000448368,-0.00629068,0.0013347,4,0,41.43388719279632,-91.89914692037286,8911.203486138702,-102.0318064955608,0.2860408700325544,-0.05852700442037,200.586,9149.92074150536,10701.197747240783,150,True,6.712214778932,False,174.8610611807435,147.18263407412923,False,27.69771978092384,True,False
1,1970-07-23 11:27:17.500303240,2025-09-16,2025-09-26 17:29:10.030,HA,D,1373676718,JASSM,3,105,76,2,2,1,225,9,2,0,1,26,0,0,0,0,-168573.0123918814,-4793315.273408736,4194841.824675083,-2.29541,0.0350898,-0.0794794,90.0,3.125,7.125,0.0,0.0,0.0,0.0,0.0,0.0,2,0,41.36375742041389,-92.01416819514932,10000.001093758588,83.92536447358637,-0.0024433652670721,0.0066345142810249,,9149.92074150536,10701.197747240783,150,1,2025-09-16,2025-09-26 17:29:09.930,HA,D,1765717406,AMBUSH51,1,1,48,2,1,1,225,2,1,0,0,9,1,225,2,1,-158811.61068611784,-4788249.115433822,4200461.772609478,2.30365,-3.03098,0.155487,-119.221,-12.2374,-16.6248,-0.23257,-7.09261,6.47087,-0.0127156,0.000633541,0.00113705,4,0,41.43381624922557,-91.89962979872055,8911.984105694231,-102.10909959654002,0.2086211533710215,-0.1094264188702641,200.586,9149.92074150536,10701.197747240783,150,True,6.653813377296203,False,174.882004419236,146.87795649962953,False,28.019570644884375,True,False
1,1970-07-23 11:27:17.510322673,2025-09-16,2025-09-26 17:29:11.032,HA,D,1374868406,JASSM,3,105,76,2,2,1,225,9,2,0,1,26,0,0,0,0,-168483.06732352203,-4793312.111299361,4194849.002409458,-2.29541,0.0351857,-0.0794794,90.0,3.125,7.125,0.0,0.0,0.0,0.0,0.0,0.0,2,0,41.36384349383917,-92.01309571201334,9999.999586051788,83.9224432200651,-0.005733315829924,0.0070712800865138,,9149.92074150536,10701.197747240783,150,1,2025-09-16,2025-09-26 17:29:10.931,HA,D,1766910406,AMBUSH51,1,1,48,2,1,1,225,2,1,0,0,9,1,225,2,1,-158930.58690870157,-4788260.636452467,4200445.024189948,2.30167,-3.03408,0.154577,-119.141,-11.866,-16.6976,0.00789952,-7.00246,6.1637,0.000123795,-0.00268293,-0.000901938,4,0,41.43361116004406,-91.90104732172728,8913.6488936524,-101.95366432886078,0.1143808709795344,-0.1947878670506973,200.39,9149.92074150536,10701.197747240783,150,True,6.556102347657954,False,174.98171370577415,146.37745259601385,False,28.60976249827012,True,False
1,1970-07-23 11:27:17.520363171,2025-09-16,2025-09-26 17:29:12.036,HA,D,1376061442,JASSM,3,105,76,2,2,1,225,9,2,0,1,26,0,0,0,0,-168393.02057059234,-4793308.945283736,4194856.187956333,-2.29541,0.0351857,-0.0794794,90.0,3.125,7.125,0.0,0.0,0.0,0.0,0.0,0.0,2,0,41.36392965448879,-92.0120220137232,10000.000798402822,83.92315276167164,-0.0049228824863305,0.0070716434841377,,9149.92074150536,10701.197747240783,150,1,2025-09-16,2025-09-26 17:29:11.963,HA,D,1768143170,AMBUSH51,1,1,48,2,1,1,225,2,1,0,0,9,1,225,2,1,-159053.56650287673,-4788272.318891451,4200427.515434426,2.29967,-3.03845,0.154195,-119.111,-11.3763,-16.9512,-0.149624,-7.00009,6.05672,0.000981,-0.00585167,0.00366497,4,0,41.43339917054429,-91.90251262246964,8914.394147167015,-101.77264323590936,-0.0536131967641852,-0.2709854417419471,200.353,9149.92074150536,10701.197747240783,150,True,6.456951767125689,False,175.06018738167083,145.85198815226192,False,29.20832003083797,True,False
1,1970-07-23 11:27:17.530245767,2025-09-16,2025-09-26 17:29:13.024,HA,D,1377195042,JASSM,3,105,76,2,2,1,225,9,2,0,1,26,0,0,0,0,-168307.45974905914,-4793305.935518111,4194863.014128208,-2.29541,0.0351857,-0.0794794,90.0,3.125,7.125,0.0,0.0,0.0,0.0,0.0,0.0,2,0,41.36401151277992,-92.01100180271683,9999.99915940337,83.92382695792745,-0.004152823702541,0.0070719880541867,,9149.92074150536,10701.197747240783,150,1,2025-09-16,2025-09-26 17:29:13.030,HA,D,1769415702,AMBUSH51,1,1,48,2,1,1,225,2,1,0,0,9,1,225,2,1,-159180.5032096601,-4788283.94580507,4200409.2072143145,2.29317,-3.04208,0.157453,-119.093,-11.0716,-17.111,-0.250287,-6.9274,6.25712,-0.00792603,-0.0082714,-0.00212741,4,0,41.43318131537067,-91.90402523349177,8913.598581313669,-101.77458811397236,-0.3302880879705696,-0.6111498405212781,200.28,9149.92074150536,10701.197747240783,150,True,6.358511599558589,False,175.10201910034692,145.31237375846268,False,29.79383658361061,True,False
1,1970-07-23 11:27:17.540283386,2025-09-16,2025-09-26 17:29:14.028,HA,D,1378387882,JASSM,3,105,76,2,2,1,225,9,2,0,1,26,0,0,0,0,-168217.42761404935,-4793302.768525924,4194870.196745396,-2.29541,0.0351857,-0.0794794,90.0,3.125,7.125,0.0,0.0,0.0,0.0,0.0,0.0,2,0,41.36409763685794,-92.00992827383055,10000.00105939315,83.924536389958,-0.0033425227354451,0.0070723483349316,,9149.92074150536,10701.197747240783,150,1,2025-09-16,2025-09-26 17:29:14.030,HA,D,1770608702,AMBUSH51,1,1,48,2,1,1,225,2,1,0,0,9,1,225,2,1,-159299.69784710265,-4788294.42407402,4200391.707245725,2.29038,-3.04907,0.160879,-119.174,-10.5802,-17.5114,-0.136694,-6.94225,6.18268,0.00137215,0.00262883,-0.000881132,4,0,41.432977264569146,-91.90544575365004,8911.109277925656,-101.65707862716228,-0.754410917399676,-0.7087322809320166,200.366,9149.92074150536,10701.197747240783,150,True,6.262342840142883,False,175.11564639137603,144.76227034995034,False,30.381265989653997,False,False
1,1970-07-23 11:27:17.549331331,2025-09-16,2025-09-26 17:29:14.933,HA,D,1379521964,JASSM,3,105,76,2,2,1,225,9,2,0,1,26,0,0,0,0,-168131.83044608062,-4793299.755830611,4194877.024870396,-2.29541,0.0351857,-0.0794794,90.0,3.125,7.125,0.0,0.0,0.0,0.0,0.0,0.0,2,0,41.36417951476927,-92.00890762487803,10000.001080280686,83.92521087788145,-0.0025721370058969,0.0070726964362498,,9149.92074150536,10701.197747240783,150,1,2025-09-16,2025-09-26 17:29:15.030,HA,D,1771801700,AMBUSH51,1,1,48,2,1,1,225,2,1,0,0,9,1,225,2,1,-159418.96309188654,-4788304.2110075485,4200373.980174499,2.30082,-3.05305,0.165303,-119.309,-9.98762,-17.8384,-0.149715,-6.89545,6.02767,-0.00539186,-0.0018715,-0.0129423,4,0,41.43277576490102,-91.90686738429427,8906.440634812709,-101.6965321981179,-1.089857396954251,-0.0729979443640463,200.549,9149.92074150536,10701.197747240783,150,True,6.168778147300808,False,175.1704628194881,144.2065519473392,False,31.038843217644505,False,False
1,1970-07-23 11:27:17.559368090,2025-09-16,2025-09-26 17:29:15.936,HA,D,1380656862,JASSM,3,105,76,2,2,1,225,9,2,0,1,26,0,0,0,0,-168046.1715715689,-4793296.740205611,4194883.856901646,-2.29541,0.0351857,-0.0794794,90.0,3.125,7.125,0.0,0.0,0.0,0.0,0.0,0.0,2,0,41.36426144028426,-92.00788623790112,10000.000827595264,83.92588585462319,-0.0018011964068391,0.0070730424336413,,9149.92074150536,10701.197747240783,150,1,2025-09-16,2025-09-26 17:29:15.763,HA,D,1772676566,AMBUSH51,1,1,48,2,1,1,225,2,1,0,0,9,1,225,2,1,-159506.43068687897,-4788311.217757831,4200360.613877272,2.30135,-3.05554,0.166993,-119.404,-9.506,-18.2015,-0.304683,-6.91291,6.23043,-0.00601396,-0.00807375,-0.00347771,4,0,41.43262652722162,-91.90791005274814,8901.807940886738,-101.67511342230468,-1.258785413356596,-0.0194058329185758,200.622,9149.92074150536,10701.197747240783,150,True,6.0905043838125765,False,175.1598847593072,143.71997242722426,False,31.577482768056655,False,False
1,1970-07-23 11:27:17.569243626,2025-09-16,2025-09-26 17:29:16.924,HA,D,1381908208,JASSM,3,105,76,2,2,1,225,9,2,0,1,26,0,0,0,0,-167951.72354300445,-4793293.414033736,4194891.389128208,-2.29541,0.0351857,-0.0793835,90.0,3.125,7.125,0.0,0.0,0.0,0.0,0.0,0.0,2,0,41.364351762553056,-92.0067600475208,10000.00041477002,83.93074268818656,-0.0045927963079138,0.0070732261314636,,9149.92074150536,10701.197747240783,150,1,2025-09-16,2025-09-26 17:29:16.897,HA,D,1774028632,AMBUSH51,1,1,48,2,1,1,225,2,1,0,0,9,1,225,2,1,-159640.9309944301,-4788321.45959209,4200339.820039765,2.30025,-3.06002,0.167512,-119.571,-9.12391,-18.4331,-0.138164,-6.99616,6.03747,-0.00121819,-0.00302623,-0.00325509,4,0,41.432398572213295,-91.90951358435842,8892.8611881302,-101.52970462766822,-1.4655758190658452,-0.0433777556565021,201.026,9149.92074150536,10701.197747240783,150,True,5.987168164739015,False,175.170069009259,143.0622223752799,False,32.30303324467294,False,False
1,1970-07-23 11:27:17.580265947,2025-09-16,2025-09-26 17:29:18.026,HA,D,1383160324,JASSM,3,105,76,2,2,1,225,9,2,0,1,26,0,0,0,0,-167857.2173517508,-4793290.084932174,4194898.924284458,-2.29541,0.0351857,-0.0793835,90.0,3.125,7.125,0.0,0.0,0.0,0.0,0.0,0.0,2,0,41.364442123108205,-92.00563316086486,9999.998746843956,83.931487386272,-0.0037422299743247,0.0070736638043682,,9149.92074150536,10701.197747240783,150,1,2025-09-16,2025-09-26 17:29:18.031,HA,D,1775380696,AMBUSH51,1,1,48,2,1,1,225,2,1,0,0,9,1,225,2,1,-159777.3089432043,-4788331.129085226,4200318.468504096,2.29909,-3.06559,0.170267,-119.816,-8.57609,-18.7479,-0.109221,-6.91259,6.11524,-0.00614712,0.00667143,0.00421216,4,0,41.43216986529421,-91.9111397767018,8881.46019011261,-101.43856580631322,-1.8041126355746275,-0.0586872545448965,201.466,9149.92074150536,10701.197747240783,150,True,5.8838541390764485,False,175.1764228088703,142.37453603664937,False,33.09529283138072,False,False
1,1970-07-23 11:27:17.590302861,2025-09-16,2025-09-26 17:29:19.030,HA,D,1384353114,JASSM,3,105,76,2,2,1,225,9,2,0,1,26,0,0,0,0,-167767.18883688873,-4793286.913057174,4194906.102995396,-2.29541,0.0351857,-0.0793835,90.0,3.125,7.125,0.0,0.0,0.0,0.0,0.0,0.0,2,0,41.36452819898388,-92.0045596630889,10000.001443624831,83.93219680379732,-0.0029319626779391,0.0070740875215883,,9149.92074150536,10701.197747240783,150,1,2025-09-16,2025-09-26 17:29:18.996,HA,D,1776533928,AMBUSH51,1,1,48,2,1,1,225,2,1,0,0,9,1,225,2,1,-159892.2090469611,-4788338.809483742,4200300.121248805,2.29623,-3.06972,0.169593,-119.995,-8.18462,-19.0166,-0.185363,-7.04119,6.16062,0.00038387,-0.00723943,-0.00324677,4,0,41.43197751635999,-91.91251004241212,8869.938123514463,-101.25499248711168,-1.9515521540185623,-0.1885801967812096,201.942,9149.92074150536,10701.197747240783,150,True,5.7930810187954185,False,175.1514499827875,141.74143371551023,False,33.790612373297094,False,False
1,1970-07-23 11:27:17.599369609,2025-09-16,2025-09-26 17:29:19.936,HA,D,1385488878,JASSM,3,105,76,2,2,1,225,9,2,0,1,26,0,0,0,0,-167681.46457846588,-4793283.891572799,4194912.936979771,-2.29541,0.0352816,-0.0793835,90.0,3.125,7.125,0.0,0.0,0.0,0.0,0.0,0.0,2,0,41.36461014751952,-92.00353748705554,10000.001536243766,83.92924211553729,-0.0062600664700278,0.0075103650213598,,9149.92074150536,10701.197747240783,150,1,2025-09-16,2025-09-26 17:29:19.796,HA,D,1777488328,AMBUSH51,1,1,48,2,1,1,225,2,1,0,0,9,1,225,2,1,-159988.0436124521,-4788344.912306231,4200284.774068646,2.2948,-3.07203,0.17075,-120.122,-7.80147,-19.2435,-0.225379,-6.90426,6.10241,-0.00853148,-0.0130734,-0.0072103,4,0,41.43181857699293,-91.91365305400652,8859.49177963001,-101.21857226222826,-2.091828828158881,-0.2492580425445852,202.382,9149.92074150536,10701.197747240783,150,True,5.71350800298258,False,175.12935531670055,141.16119901473124,False,34.44029126260018,False,False
1,1970-07-23 11:27:17.609242121,2025-09-16,2025-09-26 17:29:20.924,HA,D,1386622286,JASSM,3,105,76,2,2,1,225,9,2,0,1,26,0,0,0,0,-167595.9180773062,-4793280.874971236,4194919.756315708,-2.29541,0.0352816,-0.0793835,90.0,3.125,7.125,0.0,0.0,0.0,0.0,0.0,0.0,2,0,41.36469192206722,-92.00251742862028,10000.000980909052,83.92991622005086,-0.0054901384105423,0.0075107211142447,,9149.92074150536,10701.197747240783,150,1,2025-09-16,2025-09-26 17:29:20.996,HA,D,1778919926,AMBUSH51,1,1,48,2,1,1,225,2,1,0,0,9,1,225,2,1,-160132.07540970496,-4788353.576569808,4200261.323547791,2.27344,-3.06859,0.174883,-120.349,-7.37929,-19.63,-0.188761,-7.19007,6.15979,-0.0459094,0.00130557,-0.0154994,4,0,41.431580107182974,-91.91537110495348,8841.7168257951,-101.5257146939058,-2.1034999624696926,-1.495623383907257,202.785,9149.92074150536,10701.197747240783,150,True,5.613074052727782,False,175.04183871475482,140.4105034745851,False,35.232598733641034,False,False
1,1970-07-23 11:27:17.619263874,2025-09-16,2025-09-26 17:29:21.926,HA,D,1387812950,JASSM,3,105,76,2,2,1,225,9,2,0,1,26,0,0,0,0,-167506.04995902008,-4793277.706025924,4194926.918425083,-2.29541,0.0352816,-0.0793835,90.0,3.125,7.125,0.0,0.0,0.0,0.0,0.0,0.0,2,0,41.36477780601029,-92.00144583635284,10000.000855510498,83.93062438182457,-0.0046813165730177,0.0075110832926014,,9149.92074150536,10701.197747240783,150,1,2025-09-16,2025-09-26 17:29:22.030,HA,D,1780152692,AMBUSH51,1,1,48,2,1,1,225,2,1,0,0,9,1,225,2,1,-160257.4041926638,-4788360.980817202,4200240.302384453,2.15497,-3.0739,0.175823,-120.572,-7.4406,-20.4419,-0.0841577,-7.13525,6.28059,-0.126224,0.00466573,0.00469486,4,0,41.43136923028451,-91.91686610730802,8824.590360322882,-101.36757004163036,-2.3615815271149567,-8.236803378221738,203.286,9149.92074150536,10701.197747240783,150,True,5.519982342968488,False,174.6937153896778,139.68052079797167,False,35.707435367710865,False,False
1,1970-07-23 11:27:17.628341249,2025-09-16,2025-09-26 17:29:22.834,HA,D,1388946344,JASSM,3,105,76,2,2,1,225,9,2,0,1,26,0,0,0,0,-167420.5058611197,-4793274.687471236,4194933.735807896,-2.29541,0.0352816,-0.0793835,90.0,3.125,7.125,0.0,0.0,0.0,0.0,0.0,0.0,2,0,41.36485955993379,-92.00042580218798,9999.999228641462,83.93129847254887,-0.0039114107775133,0.0075114395857561,,9149.92074150536,10701.197747240783,150,1,2025-09-16,2025-09-26 17:29:22.663,HA,D,1780908258,AMBUSH51,1,1,48,2,1,1,225,2,1,0,0,9,1,225,2,1,-160333.73559198447,-4788365.46835498,4200227.156786622,2.09834,-3.07194,0.185801,-120.612,-7.519,-21.4378,-0.162632,-6.95856,6.08338,-0.0660329,-0.00453674,-0.0294435,4,0,41.431238604885074,-91.91777664261284,8813.365505164444,-101.86881929506929,-2.6589214104365277,-11.479547570912736,203.873,9149.92074150536,10701.197747240783,150,False,5.451040086483226,False,174.24726842157207,139.11035480832655,False,35.94925196165746,False,False
1,1970-07-23 11:27:17.639339918,2025-09-16,2025-09-26 17:29:23.933,HA,D,1390259504,JASSM,3,105,76,2,2,1,225,9,2,0,1,26,0,0,0,0,-167321.3906267447,-4793271.190400924,4194941.634245396,-2.29541,0.0352816,-0.0793835,90.0,3.125,7.125,0.0,0.0,0.0,0.0,0.0,0.0,2,0,41.36495426693881,-91.99924394144158,10000.001911339445,83.93207950792372,-0.0030193638171188,0.0075118469232629,,9149.92074150536,10701.197747240783,150,1,2025-09-16,2025-09-26 17:29:23.930,HA,D,1782419390,AMBUSH51,1,1,48,2,1,1,225,2,1,0,0,9,1,225,2,1,-160485.52621345542,-4788374.861259133,4200198.799453532,2.04791,-3.06251,0.213415,-120.526,-7.97219,-24.0458,-0.235351,-7.04755,6.22681,0.00976735,0.0037794,-0.00861886,4,0,41.43096107691255,-91.91958711340456,8787.394831891585,-103.4055747676136,-3.3150846845995594,-14.396194505485855,204.667,9149.92074150536,10701.197747240783,150,False,5.343365404475742,False,173.03432265564635,138.21587298029044,False,35.89889964830523,False,False
1,1970-07-23 11:27:17.650362564,2025-09-16,2025-09-26 17:29:25.036,HA,D,1391571786,JASSM,3,105,76,2,2,1,225,9,2,0,1,26,0,0,0,0,-167222.3428972525,-4793267.693330611,4194949.525846958,-2.29541,0.0352816,-0.0793835,90.0,3.125,7.125,0.0,0.0,0.0,0.0,0.0,0.0,2,0,41.36504890163389,-91.99806288319968,10000.00064995342,83.93286001443238,-0.0021279247063999,0.0075122583108125,,9149.92074150536,10701.197747240783,150,1,2025-09-16,2025-09-26 17:29:24.963,HA,D,1783652154,AMBUSH51,1,1,48,2,1,1,225,2,1,0,0,9,1,225,2,1,-160610.97695783566,-4788383.786058704,4200172.828469315,2.06869,-3.04538,0.225894,-120.558,-9.5844,-25.8136,-0.169288,-7.84517,6.92586,0.00735802,-0.00139504,-0.026331,4,0,41.43070766806925,-91.921082943342,8763.294127204028,-104.57994353450688,-3.0764353801711097,-13.354002122923282,205.352,9149.92074150536,10701.197747240783,150,False,5.247504118608581,False,172.06175016213848,137.39105624741833,False,35.6449386696578,False,False
1,1970-07-23 11:27:17.662364500,2025-09-16,2025-09-26 17:29:26.236,HA,D,1392884150,JASSM,3,105,76,2,2,1,225,9,2,0,1,26,0,0,0,0,-167123.2890642447,-4793264.195283736,4194957.416471958,-2.29541,0.0352816,-0.0793835,90.0,3.125,7.125,0.0,0.0,0.0,0.0,0.0,0.0,2,0,41.365143524680015,-91.99688174907313,9999.99941947704,83.93364057256031,-0.0012364314808258,0.0075126643756959,,9149.92074150536,10701.197747240783,150,1,2025-09-16,2025-09-26 17:29:26.197,HA,D,1785123520,AMBUSH51,1,1,48,2,1,1,225,2,1,0,0,9,1,225,2,1,-160759.08123591982,-4788397.054646378,4200139.927960224,2.05051,-3.0331,0.238752,-120.55,-12.0505,-27.5867,-0.187139,-7.80632,6.77096,-0.0545646,0.00903498,-0.00624907,4,0,41.43037709737904,-91.9228477790676,8736.70674990093,-105.58790982384066,-3.058320644939895,-14.50391572672692,206.024,9149.92074150536,10701.197747240783,150,False,5.141379933132283,False,170.9195462782741,136.4662797533232,False,35.199682732003545,False,False
1,1970-07-23 11:27:17.672283399,2025-09-16,2025-09-26 17:29:27.228,HA,D,1394195946,JASSM,3,105,76,2,2,1,225,9,2,0,1,26,0,0,0,0,-167024.27807791656,-4793260.698213424,4194965.303190708,-2.29541,0.0352816,-0.0792876,90.0,3.125,7.125,0.0,0.0,0.0,0.0,0.0,0.0,2,0,41.36523809453871,-91.99570112266096,10000.000872471692,83.93853336560406,-0.0039869993818217,0.0075129146136142,,9149.92074150536,10701.197747240783,150,1,2025-09-16,2025-09-26 17:29:27.230,HA,D,1786356286,AMBUSH51,1,1,48,2,1,1,225,2,1,0,0,9,1,225,2,1,-160884.3649647775,-4788410.54797117,4200110.007470996,1.90622,-3.01551,0.254896,-120.202,-14.2693,-29.8438,0.0262057,-7.8336,6.72952,-0.162079,0.0132024,-0.0244439,4,0,41.43006983441717,-91.9243397595122,8715.268088610019,-106.93229951705668,-2.9515515047274827,-22.94725319673422,206.635,9149.92074150536,10701.197747240783,150,False,5.0455568844149665,False,169.54993800421656,135.60093515431467,False,34.61729433678451,False,False
1,1970-07-23 11:27:17.683363947,2025-09-16,2025-09-26 17:29:28.336,HA,D,1395449006,JASSM,3,105,76,2,2,1,225,9,2,0,1,26,0,0,0,0,-166929.7003191275,-4793257.356416549,4194972.835417271,-2.29541,0.0352816,-0.0792876,90.0,3.125,7.125,0.0,0.0,0.0,0.0,0.0,0.0,2,0,41.36532841727628,-91.994573356275,10000.00082046979,83.9392786581524,-0.0031357920075111,0.0075133618403712,,9149.92074150536,10701.197747240783,150,1,2025-09-16,2025-09-26 17:29:28.329,HA,D,1787668584,AMBUSH51,1,1,48,2,1,1,225,2,1,0,0,9,1,225,2,1,-161016.25858477966,-4788427.965866156,4200074.741962949,1.79498,-2.98284,0.287312,-119.097,-17.3353,-33.8874,-0.111704,-8.43988,7.52332,0.0112175,0.0308042,-0.0648594,4,0,41.429701800598885,-91.92590915283864,8692.429224993168,-109.52419051516486,-2.868471862378512,-29.690595769373623,207.588,9149.92074150536,10701.197747240783,150,False,4.947584178166081,False,167.20457530031382,134.716669252345,False,33.18428714012709,False,False
1,1970-07-23 11:27:17.693366503,2025-09-16,2025-09-26 17:29:29.336,HA,D,1396701802,JASSM,3,105,76,2,2,1,225,9,2,0,1,26,0,0,0,0,-166835.14239676422,-4793254.013643111,4194980.365690708,-2.29541,0.0353774,-0.0792876,90.0,3.125,7.125,0.0,0.0,0.0,0.0,0.0,0.0,2,0,41.36541871746933,-91.99344582400244,10000.000456960644,83.93639354712944,-0.0063843979159235,0.0079491760485398,,9149.92074150536,10701.197747240783,150,1,2025-09-16,2025-09-26 17:29:29.396,HA,D,1788941116,AMBUSH51,1,1,48,2,1,1,225,2,1,0,0,9,1,225,2,1,-161142.44892252522,-4788448.897710098,4200036.511006277,1.82437,-2.92943,0.32723,-117.514,-22.1774,-37.4884,-0.32306,-9.85686,8.62349,0.0025144,0.0351589,-0.0355251,4,0,41.42929396056214,-91.92740895352298,8671.329474515753,-113.18963243704351,-2.287789409439667,-28.76789481127247,208.126,9149.92074150536,10701.197747240783,150,False,4.850870221375915,False,164.55623767033174,133.84358826315471,False,31.207486153475617,False,False
1,1970-07-23 11:27:17.705386427,2025-09-16,2025-09-26 17:29:30.538,HA,D,1398073340,JASSM,3,105,76,2,2,1,225,9,2,0,1,26,0,0,0,0,-166731.6221941275,-4793250.353486861,4194988.607878208,-2.29541,0.0353774,-0.0792876,90.0,3.125,7.125,0.0,0.0,0.0,0.0,0.0,0.0,2,0,41.36551755476641,-91.9922114199172,10000.000076618637,83.93720931494576,-0.0054527086599122,0.0079496057173933,,9149.92074150536,10701.197747240783,150,1,2025-09-16,2025-09-26 17:29:30.596,HA,D,1790372714,AMBUSH51,1,1,48,2,1,1,225,2,1,0,0,9,1,225,2,1,-161281.72231033767,-4788479.181929611,4199989.155901447,1.83722,-2.87257,0.353519,-114.931,-28.3539,-41.2201,-0.195961,-9.79062,8.66035,-0.00712708,0.0361056,-0.0357852,4,0,41.428766240911806,-91.92906133971474,8654.5074792874,-116.404545904402,-1.1112940812576686,-29.024376021908516,208.724,9149.92074150536,10701.197747240783,150,False,4.7421465339106605,False,161.3068729102085,132.8783603662874,False,28.697317463526545,True,False
1,1970-07-23 11:27:17.716241356,2025-09-16,2025-09-26 17:29:31.624,HA,D,1399445274,JASSM,3,105,76,2,2,1,225,9,2,0,1,26,0,0,0,0,-166628.07190115875,-4793246.690400924,4194996.852018833,-2.29541,0.0353774,-0.0792876,90.0,3.125,7.125,0.0,0.0,0.0,0.0,0.0,0.0,2,0,41.36561641564512,-91.99097665406376,9999.9996912228,83.93802532344515,-0.004520748327501,0.007950043577322,,9149.92074150536,10701.197747240783,150,1,2025-09-16,2025-09-26 17:29:31.629,HA,D,1791605480,AMBUSH51,1,1,48,2,1,1,225,2,1,0,0,9,1,225,2,1,-161397.653798691,-4788510.749456685,4199945.154406485,1.82574,-2.82012,0.387018,-112.083,-33.3907,-44.6331,-0.167642,-9.76176,8.70571,-0.0376432,0.0354606,-0.0283845,4,0,41.42825817243799,-91.93043420982164,8646.197991970344,-119.74122354717484,-0.4749784882922915,-30.72363952651742,208.688,9149.92074150536,10701.197747240783,150,False,4.64314838002911,False,158.34280955325212,131.9861136753126,False,26.52657109445568,True,False
1,1970-07-23 11:27:17.727272314,2025-09-16,2025-09-26 17:29:32.727,HA,D,1400698602,JASSM,3,105,76,2,2,1,225,9,2,0,1,26,0,0,0,0,-166533.4737566275,-4793243.343721236,4195004.382292271,-2.29541,0.0353774,-0.0792876,90.0,3.125,7.125,0.0,0.0,0.0,0.0,0.0,0.0,2,0,41.36570671211981,-91.98984863325616,10000.001030698755,83.93877078971934,-0.0036693587382892,0.0079504374979305,,9149.92074150536,10701.197747240783,150,1,2025-09-16,2025-09-26 17:29:32.696,HA,D,1792878012,AMBUSH51,1,1,48,2,1,1,225,2,1,0,0,9,1,225,2,1,-161516.20512005646,-4788549.645477123,4199894.84723379,1.79879,-2.76732,0.415148,-108.556,-38.8095,-48.2105,-0.174564,-9.73601,8.58185,-0.0449689,0.0366507,-0.0476092,4,0,41.42766339053109,-91.93183541648236,8642.442938883874,-122.86382925619684,0.3064210410447348,-33.444228234509794,208.517,9149.92074150536,10701.197747240783,150,False,4.543510285205359,False,155.0500107690369,131.12598089434042,False,24.016680314076783,True,False
1,1970-07-23 11:27:17.738301528,2025-09-16,2025-09-26 17:29:33.830,HA,D,1402012526,JASSM,3,105,76,2,2,1,225,9,2,0,1,26,0,0,0,0,-166434.3018816275,-4793239.833955611,4195012.274870396,-2.29541,0.0353774,-0.0792876,90.0,3.125,7.125,0.0,0.0,0.0,0.0,0.0,0.0,2,0,41.36580135806003,-91.98866607089484,10000.000409936189,83.9395523018818,-0.0027768061462885,0.0079508460754099,,9149.92074150536,10701.197747240783,150,1,2025-09-16,2025-09-26 17:29:33.830,HA,D,1794230076,AMBUSH51,1,1,48,2,1,1,225,2,1,0,0,9,1,225,2,1,-161635.39572228733,-4788596.251654362,4199837.739827221,1.79833,-2.70678,0.456911,-103.973,-44.1699,-52.7027,-0.0911409,-10.0039,8.80232,0.0890484,0.0409596,-0.0483478,4,0,41.42697668334222,-91.93324112803155,8642.944126962646,-126.79776635764831,0.6853546544355279,-34.97085679036719,208.236,9149.92074150536,10701.197747240783,150,False,4.438665465280396,False,151.23358758339958,130.24121312749162,False,21.064602468990618,True,False
1,1970-07-23 11:27:17.749329457,2025-09-16,2025-09-26 17:29:34.932,HA,D,1403322756,JASSM,3,105,76,2,2,1,225,9,2,0,1,26,0,0,0,0,-166335.40893729156,-4793236.332002486,4195020.144987583,-2.29541,0.0353774,-0.0792876,90.0,3.25,7.125,0.0,0.0,0.0,0.0,0.0,0.0,2,0,41.365895736164745,-91.98748683204734,9999.999221592376,83.94033161912148,-0.0018867634928318,0.0079512639344065,,9149.92074150536,10701.197747240783,150,1,2025-09-16,2025-09-26 17:29:34.996,HA,D,1795621908,AMBUSH51,1,1,48,2,1,1,225,2,1,0,0,9,1,225,2,1,-161754.0615443549,-4788651.002758996,4199773.77054192,1.96736,-2.64926,0.4952,-99.2601,-49.2392,-56.1842,-0.204075,-8.97087,8.00537,0.171742,0.0154453,-0.0335319,4,0,41.4261952815086,-91.93463724999437,8648.541265287859,-130.44770666798294,0.9668493684680052,-26.84964324931684,207.454,9149.92074150536,10701.197747240783,150,False,4.330510711022982,False,147.7690853258951,129.41797815778912,False,18.388965869868915,True,False
1,1970-07-23 11:27:17.760338998,2025-09-16,2025-09-26 17:29:36.033,HA,D,1404635750,JASSM,3,105,76,2,2,1,225,9,2,0,1,26,0,0,0,0,-166236.30713065094,-4793232.822236861,4195028.030729771,-2.29541,0.0353774,-0.0792876,90.0,3.25,7.125,0.0,0.0,0.0,0.0,0.0,0.0,2,0,41.365990297215696,-91.98630509939652,9999.99992029516,83.94111258589646,-0.0009948416584648,0.0079516784099599,,9149.92074150536,10701.197747240783,150,1,2025-09-16,2025-09-26 17:29:35.932,HA,D,1796735374,AMBUSH51,1,1,48,2,1,1,225,2,1,0,0,9,1,225,2,1,-161846.05346142474,-4788698.248539548,4199719.666970851,2.16771,-2.63444,0.512183,-96.7667,-51.3098,-58.1017,-0.333512,-7.5469,6.6925,0.199595,0.00178411,-0.0253531,4,0,41.425530476397306,-91.93571758623553,8654.895866935085,-131.6447364674104,0.7050243859653214,-15.797784568221672,207.026,9149.92074150536,10701.197747240783,150,False,4.236891424707205,False,146.0350887064058,128.6043777561817,False,17.469428524048652,True,False
1,1970-07-23 11:27:17.771380338,2025-09-16,2025-09-26 17:29:37.138,HA,D,1406007300,JASSM,3,105,76,2,2,1,225,9,2,0,1,26,0,0,0,0,-166132.78552420562,-4793229.154268111,4195036.267057896,-2.29541,0.0353774,-0.0792876,90.0,3.25,7.125,0.0,0.0,0.0,0.0,0.0,0.0,2,0,41.36608906506003,-91.98507066018678,9999.999559682648,83.94192838620725,-6.314164960813429e-05,0.007952113827374,,9149.92074150536,10701.197747240783,150,1,2025-09-16,2025-09-26 17:29:37.196,HA,D,1798246506,AMBUSH51,1,1,48,2,1,1,225,2,1,0,0,9,1,225,2,1,-161966.8176918976,-4788762.606244176,4199644.744080132,2.37005,-2.62698,0.527462,-95.309,-51.546,-59.7233,-0.395552,-6.75581,6.11639,0.0010351,-0.00155316,0.00868128,4,0,41.424617527760624,-91.93713484103816,8660.529214249002,-132.4915192472049,0.2724634562488333,-4.423782820191088,205.963,9149.92074150536,10701.197747240783,150,True,4.122069661661014,False,145.1342487345319,127.65664677002307,False,17.565135958495684,True,False
1,1970-07-23 11:27:17.782241666,2025-09-16,2025-09-26 17:29:38.224,HA,D,1407319260,JASSM,3,105,76,2,2,1,225,9,2,0,1,26,0,0,0,0,-166033.761842565,-4793225.644502486,4195044.144987583,-2.29541,0.0354733,-0.0791918,90.0,3.25,7.125,0.0,0.0,0.0,0.0,0.0,0.0,2,0,41.366183532443095,-91.98388985328889,10000.000366376687,83.94319097601709,-0.0069132685235625,0.0083873305166839,,9149.92074150536,10701.197747240783,150,1,2025-09-16,2025-09-26 17:29:38.330,HA,D,1799598572,AMBUSH51,1,1,48,2,1,1,225,2,1,0,0,9,1,225,2,1,-162074.99005875786,-4788820.682362516,4199576.201832393,2.33411,-2.63257,0.527873,-94.4693,-51.3351,-60.391,-0.0267377,-7.14507,5.77233,-0.00714164,-0.0194546,-0.00635518,4,0,41.42378754340314,-91.93840411347476,8663.533097988173,-132.29513728036076,0.0783839350723727,-6.321317309129571,205.388,9149.92074150536,10701.197747240783,150,True,4.017565228945703,False,144.76492471486458,126.7283181637227,False,18.164168746054074,True,False
1,1970-07-23 11:27:17.791298221,2025-09-16,2025-09-26 17:29:39.129,HA,D,1408393002,JASSM,3,105,76,2,2,1,225,9,2,0,1,26,0,0,0,0,-165952.7197283072,-4793222.771455611,4195050.590300083,-2.29551,0.0354733,-0.0791918,90.0,3.25,7.125,0.0,0.0,0.0,0.0,0.0,0.0,2,0,41.36626082624944,-91.98292346512352,9999.99878917208,83.94382963247511,-0.0061838864682831,0.0028961977952913,,9149.92074150536,10701.197747240783,150,1,2025-09-16,2025-09-26 17:29:38.995,HA,D,1800393904,AMBUSH51,1,1,48,2,1,1,225,2,1,0,0,9,1,225,2,1,-162137.75251457535,-4788854.659080492,4199535.590333223,2.3249,-2.62694,0.538853,-93.8824,-51.3321,-60.8106,-0.12136,-7.0225,5.64027,-0.029017,-0.0117273,-0.0305504,4,0,41.42329861676371,-91.93914042681902,8664.140976951467,-132.9121627901815,-0.2256755277323762,-7.012414976443292,205.022,9149.92074150536,10701.197747240783,150,True,3.949547865419363,False,144.48121865432847,126.02106141425095,False,18.60957519268987,True,False
1,1970-07-23 11:27:17.801339081,2025-09-16,2025-09-26 17:29:40.133,HA,D,1409586750,JASSM,3,105,76,2,2,1,225,9,2,0,1,26,0,0,0,0,-165862.61682303375,-4793219.576143111,4195057.757292271,-2.29551,0.0354733,-0.0791918,90.0,3.25,7.125,0.0,0.0,0.0,0.0,0.0,0.0,2,0,41.36634676571581,-91.98184902913924,10000.00076568431,83.94453969559294,-0.0053729558693582,0.0028965885032792,,9149.92074150536,10701.197747240783,150,1,2025-09-16,2025-09-26 17:29:39.996,HA,D,1801586902,AMBUSH51,1,1,48,2,1,1,225,2,1,0,0,9,1,225,2,1,-162230.40389667003,-4788905.269069308,4199474.198697419,2.29573,-2.62348,0.546433,-92.8284,-51.2181,-61.8873,-0.0219091,-7.33294,5.82237,0.009087,0.00205043,-0.00231882,4,0,41.422564430446045,-91.94022718595856,8663.032215708934,-133.3208755963114,-0.4502017482288149,-8.783252924389762,204.484,9149.92074150536,10701.197747240783,150,True,3.8587914105140735,False,143.9097226140143,125.13128899559558,False,18.99815999523516,True,False
1,1970-07-23 11:27:17.812361272,2025-09-16,2025-09-26 17:29:41.236,HA,D,1410839330,JASSM,3,105,76,2,2,1,225,9,2,0,1,26,0,0,0,0,-165768.07470877594,-4793216.222627486,4195065.274870396,-2.29551,0.0354733,-0.0791918,90.0,3.25,7.125,0.0,0.0,0.0,0.0,0.0,0.0,2,0,41.366436916077554,-91.98072165489684,9999.999984121923,83.94528474535463,-0.0045220737308974,0.0028969861119823,,9149.92074150536,10701.197747240783,150,1,2025-09-16,2025-09-26 17:29:41.196,HA,D,1803018500,AMBUSH51,1,1,48,2,1,1,225,2,1,0,0,9,1,225,2,1,-162341.29844730283,-4788967.219247094,4199399.187971217,2.31447,-2.60035,0.550515,-91.387,-52.1937,-62.2106,-0.245136,-8.0599,6.77203,-0.0150167,0.0139889,-0.0236241,4,0,41.42166715271615,-91.9415273402138,8661.772891604789,-134.34474026141595,0.0871770064666306,-8.397716130793071,203.836,9149.92074150536,10701.197747240783,150,True,3.7545030611796815,False,143.1490970254306,124.10935889912945,False,19.230628474105963,True,False
1,1970-07-23 11:27:17.822259640,2025-09-16,2025-09-26 17:29:42.225,HA,D,1412091858,JASSM,3,105,76,2,2,1,225,9,2,0,1,26,0,0,0,0,-165673.53674490875,-4793212.868135299,4195072.792448521,-2.29551,0.0354733,-0.0791918,90.0,3.25,7.125,0.0,0.0,0.0,0.0,0.0,0.0,2,0,41.36652706034599,-91.9795943274982,10000.001776242669,83.946029765495,-0.0036712283660975,0.002897392557251,,9149.92074150536,10701.197747240783,150,1,2025-09-16,2025-09-26 17:29:42.229,HA,D,1804251266,AMBUSH51,1,1,48,2,1,1,225,2,1,0,0,9,1,225,2,1,-162434.29928330134,-4789021.264408361,4199334.908653746,2.28814,-2.59087,0.553181,-89.9498,-53.1663,-62.6913,0.163557,-7.85772,6.35083,0.0897225,0.000437965,0.00271622,4,0,41.420892941214845,-91.94261682920192,8662.888694993693,-134.8015621828918,0.2595525312895292,-10.192712224210648,203.115,9149.92074150536,10701.197747240783,150,False,3.6623576501192665,False,142.34336007672812,123.10986020403551,False,19.405138679638355,True,False
