Subject_cm,Timestamp,SampleDate_cm,SampleTime_cm,Configuration_cm,Scenario_cm,DisTime_cm,MarkingTxt_cm,Application_cm,EntId_cm,Site_cm,ExerciseId_cm,ForceId_cm,Category_cm,Country_cm,Domain_cm,Kind_cm,Extra_cm,Specific_cm,Subcategory_cm,AltCategory_cm,AltCountry_cm,AltDomain_cm,AltKind_cm,ECEF_X_cm,ECEF_Y_cm,ECEF_Z_cm,OriPhi_cm,OriPsi_cm,OriTheta_cm,LinVelX_cm,LinVelY_cm,LinVelZ_cm,LinAccX_cm,LinAccY_cm,LinAccZ_cm,AngVelX_cm,AngVelY_cm,AngVelZ_cm,DrAlg_cm,Appearance_cm,Latitude_cm,Longitude_cm,Altitude_cm,Heading_cm,Pitch_cm,Roll_cm,CalibratedAirspeed_cm,CM_Altitude_Lead_cm,CM_Altitude_Wing_cm,CM_Airspeed_cm,Subject_ac,SampleDate_ac,SampleTime_ac,Configuration_ac,Scenario_ac,DisTime_ac,MarkingTxt_ac,Application_ac,EntId_ac,Site_ac,ExerciseId_ac,ForceId_ac,Category_ac,Country_ac,Domain_ac,Kind_ac,Extra_ac,Specific_ac,Subcategory_ac,AltCategory_ac,AltCountry_ac,AltDomain_ac,AltKind_ac,ECEF_X_ac,ECEF_Y_ac,ECEF_Z_ac,OriPhi_ac,OriPsi_ac,OriTheta_ac,LinVelX_ac,LinVelY_ac,LinVelZ_ac,LinAccX_ac,LinAccY_ac,LinAccZ_ac,AngVelX_ac,AngVelY_ac,AngVelZ_ac,DrAlg_ac,Appearance_ac,Latitude_ac,Longitude_ac,Altitude_ac,Heading_ac,Pitch_ac,Roll_ac,CalibratedAirspeed_ac,CM_Altitude_Lead_ac,CM_Altitude_Wing_ac,CM_Airspeed_ac,Bank_Angle_Condition,distance_nm,Distance_Condition,angle_between_vel,angle_between_pos,Cone_Condition,angle_between_pos_nose,Nose_Cone_Condition,Intercept_Criteria
1,1970-07-23 10:27:51.525829956,2025-09-12,2025-09-26 14:25:52.582,AH,C,3137292070,JASSM,3,126,76,2,2,1,225,9,2,0,1,26,0,0,0,0,-173069.24499686187,-4769972.832979049,4221465.210417271,-2.51458,-0.703426,0.607361,57.5,-48.625,-52.25,0.0,0.0,0.0,0.0,0.0,0.0,2,0,41.68134783194817,-92.07795509118614,10997.37668276678,139.82780329378633,-0.0020270517181405,0.0009633583614036,,10022.661867135384,12264.339701119052,150,1,2025-09-12,2025-09-26 14:25:52.826,AH,C,844464748,HAWK11,1,1,73,2,1,1,225,2,1,0,0,12,1,225,2,1,-143349.41638358062,-4792263.897432174,4198010.235807896,2.38572,2.73039,-0.419256,-115.625,33.875,35.125,-0.0625,-6.98438,6.76562,0.0117188,0.0,0.00976562,4,0,41.39628366126011,-91.71335894135508,12265.284734723296,-57.981802314912144,0.8143447304766379,0.8267700176962607,182.353,10022.661867135384,12264.339701119052,150,True,23.653173606856097,False,151.73077501806316,176.2604138815776,False,24.552675738474186,True,False
1,1970-07-23 10:27:51.533269488,2025-09-12,2025-09-26 14:25:53.326,AH,C,3138544638,JASSM,3,126,76,2,2,1,225,9,2,0,1,26,0,0,0,0,-173008.91443045562,-4770024.012666549,4221410.222136021,-2.51458,-0.703426,0.607361,57.5,-48.625,-52.25,0.0,0.0,0.0,0.0,0.0,0.0,2,0,41.68068529062353,-92.07720909918405,10997.373740144849,139.82829936578707,-0.0011613872890011,0.0009616891305379,,10022.661867135384,12264.339701119052,150,1,2025-09-12,2025-09-26 14:25:53.123,AH,C,844902182,HAWK11,1,1,73,2,1,1,225,2,1,0,0,12,1,225,2,1,-143392.65075858062,-4792251.169893111,4198023.331511021,2.38946,2.72972,-0.420886,-115.75,34.125,35.125,-0.125,-6.98438,6.78125,0.00390625,0.0,0.0078125,4,0,41.39644007131445,-91.7138799336412,12265.567677478772,-57.891914385193694,0.8573428175989639,1.0267144200655394,182.316,10022.661867135384,12264.339701119052,150,True,23.578542425820448,False,151.7789705539244,176.27733414112083,False,24.520285735233088,True,False
1,1970-07-23 10:27:51.543308493,2025-09-12,2025-09-26 14:25:54.330,AH,C,3139737684,JASSM,3,126,76,2,2,1,225,9,2,0,1,26,0,0,0,0,-172951.45056326812,-4770072.758760299,4221357.847136021,-2.51458,-0.703426,0.607361,57.5,-48.625,-52.25,0.0,0.0,0.0,0.0,0.0,0.0,2,0,41.6800542395143,-92.0764985691087,10997.372120291286,139.8287718501952,-0.0003368665241761,0.0009601072300531,,10022.661867135384,12264.339701119052,150,1,2025-09-12,2025-09-26 14:25:54.421,AH,C,846651912,HAWK11,1,1,73,2,1,1,225,2,1,0,0,12,1,225,2,1,-143562.57263358062,-4792200.314424361,4198075.542448521,2.40614,2.72493,-0.42568,-115.75,34.5,35.75,-0.03125,-7.03125,6.76562,0.00585938,0.0,0.00195312,4,0,41.39706473971043,-91.71592788542372,12266.25016381897,-57.52226595513715,0.8821596634585902,1.8756385290853688,182.353,10022.661867135384,12264.339701119052,150,True,23.43882802195275,False,152.07865221018852,176.3685335198219,False,24.313626436897838,True,False
1,1970-07-23 10:27:51.553448742,2025-09-12,2025-09-26 14:25:55.344,AH,C,3140930732,JASSM,3,126,76,2,2,1,225,9,2,0,1,26,0,0,0,0,-172893.98669608062,-4770121.508760299,4221305.468229771,-2.51458,-0.703426,0.607456,57.5,-48.625,-52.25,0.0,0.0,0.0,0.0,0.0,0.0,2,0,41.67942313432994,-92.07578805121794,10997.375876644124,139.83246625662284,-0.003959260305483,0.0009583966603245,,10022.661867135384,12264.339701119052,150,1,2025-09-12,2025-09-26 14:25:55.232,AH,C,847526778,HAWK11,1,1,73,2,1,1,225,2,1,0,0,12,1,225,2,1,-143647.57458670562,-4792174.737275924,4198101.743620396,2.40624,2.7208,-0.430665,-115.75,34.875,35.875,-0.078125,-7.0,6.65625,-0.00585938,0.0,0.00390625,4,0,41.39737858762475,-91.71695241941808,12266.441091121971,-57.16992401467864,0.939374691542762,1.7888126654282654,182.108,10022.661867135384,12264.339701119052,150,True,23.344271579985,False,152.22223459979256,176.4105376240971,False,24.21103658163723,True,False
1,1970-07-23 10:27:51.563470620,2025-09-12,2025-09-26 14:25:56.347,AH,C,3142123778,JASSM,3,126,76,2,2,1,225,9,2,0,1,26,0,0,0,0,-172836.52282889312,-4770170.254854049,4221253.093229771,-2.51458,-0.703426,0.607456,57.5,-48.625,-52.25,0.0,0.0,0.0,0.0,0.0,0.0,2,0,41.67879207429728,-92.07507754890892,10997.382922359346,139.8329387109517,-0.0031347392718801,0.000956861074122,,10022.661867135384,12264.339701119052,150,1,2025-09-12,2025-09-26 14:25:56.420,AH,C,848958376,HAWK11,1,1,73,2,1,1,225,2,1,0,0,12,1,225,2,1,-143786.09021170562,-4792132.412080611,4198145.073698521,2.39867,2.71515,-0.43335,-115.875,35.5,36.125,-0.109375,-7.17188,6.84375,0.0253906,0.00976562,0.00195312,4,0,41.397898120315375,-91.7186222096581,12266.54808665715,-56.85219261397171,0.8476988560762829,1.2243718889262607,182.157,10022.661867135384,12264.339701119052,150,True,23.220877190679357,False,152.4505302910676,176.48373724301425,False,24.05449271144415,True,False
1,1970-07-23 10:27:51.573253016,2025-09-12,2025-09-26 14:25:57.325,AH,C,3143257438,JASSM,3,126,76,2,2,1,225,9,2,0,1,26,0,0,0,0,-172781.91931326812,-4770216.571260299,4221203.319792271,-2.51458,-0.703426,0.607456,57.5,-48.625,-52.25,0.0,0.0,0.0,0.0,0.0,0.0,2,0,41.67819240484654,-92.07440242722188,10997.373647101196,139.83338763321078,-0.0023512474424317,0.0009553899552529,,10022.661867135384,12264.339701119052,150,1,2025-09-12,2025-09-26 14:25:57.420,AH,C,850111608,HAWK11,1,1,73,2,1,1,225,2,1,0,0,12,1,225,2,1,-143898.82458670562,-4792097.415986861,4198181.028776646,2.62531,2.71591,-0.441019,-115.5,36.0,37.25,-0.328125,-7.26562,6.92188,0.267578,0.015625,0.0078125,4,0,41.39832885700394,-91.71998142626884,12266.790721049205,-56.577598853978095,1.193510283728528,14.233927174704029,182.108,10022.661867135384,12264.339701119052,150,False,23.11340585659549,False,153.0045376867091,176.54204127910086,False,23.562197321094988,True,False
1,1970-07-23 10:27:51.583409722,2025-09-12,2025-09-26 14:25:58.340,AH,C,3144509870,JASSM,3,126,76,2,2,1,225,9,2,0,1,26,0,0,0,0,-172721.59460623687,-4770267.743135299,4221148.331511021,-2.51448,-0.70333,0.607456,57.5,-48.625,-52.25,0.0,0.0,0.0,0.0,0.0,0.0,2,0,41.67752988554906,-92.07365658177788,10997.374837629704,139.83023224504973,-0.0041312925955544,0.0033109810888089,,10022.661867135384,12264.339701119052,150,1,2025-09-12,2025-09-26 14:25:58.326,AH,C,851304608,HAWK11,1,1,73,2,1,1,225,2,1,0,0,12,1,225,2,1,-144013.98278983062,-4792059.852510299,4198219.311979771,2.85138,2.69434,-0.456743,-113.875,38.25,39.375,-0.4375,-7.53125,7.125,0.201172,0.0214844,0.0546875,4,0,41.398790130692205,-91.72137053656856,12265.955892822609,-55.15052997244528,1.0800587440139942,26.678952374638204,182.157,10022.661867135384,12264.339701119052,150,False,22.998798332397566,False,154.58152528086762,176.59947219268204,False,22.041377571500824,True,False
1,1970-07-23 10:27:51.593377043,2025-09-12,2025-09-26 14:25:59.337,AH,C,3145702918,JASSM,3,126,76,2,2,1,225,9,2,0,1,26,0,0,0,0,-172664.13073904935,-4770316.485322799,4221095.952604771,-2.51448,-0.70333,0.607456,57.5,-48.625,-52.25,0.0,0.0,0.0,0.0,0.0,0.0,2,0,41.67689880923656,-92.07294612281142,10997.376794109943,139.83070465303172,-0.0033067699943441,0.0033093900441114,,10022.661867135384,12264.339701119052,150,1,2025-09-12,2025-09-26 14:25:59.337,AH,C,852457840,HAWK11,1,1,73,2,1,1,225,2,1,0,0,12,1,225,2,1,-144123.01208670562,-4792020.872041549,4198258.808073521,2.99663,2.665,-0.472754,-111.25,41.875,42.5,-0.359375,-8.20312,7.8125,0.0839844,0.0273438,0.046875,4,0,41.39926909975446,-91.72268696171535,12263.82175389307,-53.426298997962576,0.7288770554608329,34.27507441123647,182.231,10022.661867135384,12264.339701119052,150,False,22.888129109163962,False,157.03772999209932,176.65014353661593,False,19.63143816968872,True,False
1,1970-07-23 10:27:51.603448169,2025-09-12,2025-09-26 14:26:00.344,AH,C,3146895964,JASSM,3,126,76,2,2,1,225,9,2,0,1,26,0,0,0,0,-172606.66638358062,-4770365.227510299,4221043.569792271,-2.51448,-0.70333,0.607456,57.5,-48.625,-52.25,0.0,0.0,0.0,0.0,0.0,0.0,2,0,41.67626770231361,-92.07223567186878,10997.374518538658,139.8311770498114,-0.0024822244986529,0.0033077854490115,,10022.661867135384,12264.339701119052,150,1,2025-09-12,2025-09-26 14:26:00.329,AH,C,853690606,HAWK11,1,1,73,2,1,1,225,2,1,0,0,12,1,225,2,1,-144237.45544608062,-4791974.939424361,4198305.218229771,3.06039,2.64545,-0.47726,-107.875,46.0,46.875,-0.375,-8.15625,7.75,0.0371094,0.0273438,0.0546875,4,0,41.39983510793675,-91.72407058136191,12259.995747816763,-52.51659855841856,0.2498531274881836,37.42345915877527,181.986,10022.661867135384,12264.339701119052,150,False,22.771608490351866,False,160.1643759348238,176.6979146348291,False,16.551156426603473,True,False
1,1970-07-23 10:27:51.613470406,2025-09-12,2025-09-26 14:26:01.347,AH,C,3148089010,JASSM,3,126,76,2,2,1,225,9,2,0,1,26,0,0,0,0,-172549.20251639312,-4770413.969697799,4220991.186979771,-2.51448,-0.70333,0.607456,57.5,-48.625,-52.25,0.0,0.0,0.0,0.0,0.0,0.0,2,0,41.67563659082412,-92.0715252406638,10997.37661915696,139.83164942759922,-0.0016576816532404,0.0033061774172206,,10022.661867135384,12264.339701119052,150,1,2025-09-12,2025-09-26 14:26:01.326,AH,C,854843838,HAWK11,1,1,73,2,1,1,225,2,1,0,0,12,1,225,2,1,-144340.46130545562,-4791927.924775924,4198352.470182896,3.07199,2.61812,-0.491353,-104.375,50.375,51.0,-0.28125,-8.73438,8.35938,-0.0273438,0.0253906,0.0527344,4,0,41.4004152673918,-91.72531798379752,12254.495943566086,-50.94588833565189,-0.0682460827742666,37.36178262189296,181.95,10022.661867135384,12264.339701119052,150,False,22.65866365208028,False,163.29706168718,176.73354310508716,False,13.448722583600123,True,False
1,1970-07-23 10:27:51.623263027,2025-09-12,2025-09-26 14:26:02.326,AH,C,3149282056,JASSM,3,126,76,2,2,1,225,9,2,0,1,26,0,0,0,0,-172491.73816092435,-4770462.707979049,4220938.804167271,-2.51448,-0.70333,0.607456,57.5,-48.625,-52.25,0.0,0.0,0.0,0.0,0.0,0.0,2,0,41.67500549833703,-92.0708148191766,10997.373443230768,139.83212179305718,-0.0008331546411505,0.0033045868699174,,10022.661867135384,12264.339701119052,150,1,2025-09-12,2025-09-26 14:26:02.326,AH,C,856076602,HAWK11,1,1,73,2,1,1,225,2,1,0,0,12,1,225,2,1,-144446.92419608062,-4791872.963838424,4198408.120573521,3.06748,2.58131,-0.51839,-100.125,54.25,56.0,-0.265625,-9.01562,8.625,-0.0175781,0.03125,0.0410156,4,0,41.40109875021735,-91.72660956821,12247.935746898998,-48.53710125431356,-0.1025404511759996,36.07963574716084,181.95,10022.661867135384,12264.339701119052,150,False,22.539852071631895,False,166.7391049868755,176.76250912597536,False,10.038353880733403,True,False
1,1970-07-23 10:27:51.633289479,2025-09-12,2025-09-26 14:26:03.328,AH,C,3150415452,JASSM,3,126,76,2,2,1,225,9,2,0,1,26,0,0,0,0,-172437.14734061187,-4770509.012666549,4220889.038542271,-2.51448,-0.70333,0.607552,57.5,-48.625,-52.25,0.0,0.0,0.0,0.0,0.0,0.0,2,0,41.674405923292575,-92.07013993398664,10997.3783381866,139.83579470876063,-0.0044993715852754,0.0033029251591515,,10022.661867135384,12264.339701119052,150,1,2025-09-12,2025-09-26 14:26:03.237,AH,C,857110534,HAWK11,1,1,73,2,1,1,225,2,1,0,0,12,1,225,2,1,-144532.26208670562,-4791824.061494674,4198458.352995396,3.07371,2.54085,-0.543509,-96.125,57.375,59.625,-0.296875,-8.45312,8.01562,-0.00585938,0.0195312,0.0351562,4,0,41.40171339950587,-91.72764663539526,12242.964504116471,-46.08067942675297,-0.2728052507973574,35.25472477272604,181.778,10022.661867135384,12264.339701119052,150,False,22.434324178267584,False,169.5551895066773,176.7780369819981,False,7.2369702821739486,True,False
1,1970-07-23 10:27:51.650989999,2025-09-12,2025-09-26 14:26:05.098,AH,C,3151548844,JASSM,3,126,76,2,2,1,225,9,2,0,1,26,0,0,0,0,-172382.55603201812,-4770555.313447799,4220839.272917271,-2.51448,-0.70333,0.607552,57.5,-48.625,-52.25,0.0,0.0,0.0,0.0,0.0,0.0,2,0,41.67380636768527,-92.06946505715966,10997.377534059196,139.8362434296473,-0.0037160624820532,0.0033014530119766,,10022.661867135384,12264.339701119052,150,1,2025-09-12,2025-09-26 14:26:05.028,AH,C,859138632,HAWK11,1,1,73,2,1,1,225,2,1,0,0,12,1,225,2,1,-144690.12732108062,-4791718.750947799,4198565.911589146,3.10267,2.46683,-0.580516,-88.75,63.625,66.375,-0.40625,-8.64062,8.15625,-0.015625,0.0136719,0.0371094,4,0,41.40303750226708,-91.72957049833924,12229.018599833362,-41.94927694405915,-0.8098950556751594,34.61375524406896,181.497,10022.661867135384,12264.339701119052,150,False,22.270561714593814,False,174.8287111370905,176.79404483623856,False,1.9670248945950746,True,False
1,1970-07-23 10:27:51.651488400,2025-09-12,2025-09-26 14:26:05.148,AH,C,3152682238,JASSM,3,126,76,2,2,1,225,9,2,0,1,26,0,0,0,0,-172327.96521170562,-4770601.614229049,4220789.507292271,-2.51448,-0.70333,0.607552,57.5,-48.625,-52.25,0.0,0.0,0.0,0.0,0.0,0.0,2,0,41.67320680794722,-92.0687901987149,10997.380683515414,139.83669213301707,-0.0029327560378969,0.0032999774304669,,10022.661867135384,12264.339701119052,150,1,2025-09-12,2025-09-26 14:26:05.028,AH,C,859138632,HAWK11,1,1,73,2,1,1,225,2,1,0,0,12,1,225,2,1,-144690.12732108062,-4791718.750947799,4198565.911589146,3.10267,2.46683,-0.580516,-88.75,63.625,66.375,-0.40625,-8.64062,8.15625,-0.015625,0.0136719,0.0371094,4,0,41.40303750226708,-91.72957049833924,12229.018599833362,-41.94927694405915,-0.8098950556751594,34.61375524406896,181.497,10022.661867135384,12264.339701119052,150,False,22.223729168044382,False,174.8287111370905,176.7870950375455,False,1.9600840871816658,True,False
1,1970-07-23 10:27:51.661270765,2025-09-12,2025-09-26 14:26:06.127,AH,C,3153755980,JASSM,3,126,76,2,2,1,225,9,2,0,1,26,0,0,0,0,-172276.24743826812,-4770645.473604049,4220742.358854771,-2.51448,-0.70333,0.607552,57.5,-48.625,-52.25,0.0,0.0,0.0,0.0,0.0,0.0,2,0,41.67263881353018,-92.06815087079896,10997.37169885864,139.83711720778055,-0.0021906863581895,0.0032985879781264,,10022.661867135384,12264.339701119052,150,1,2025-09-12,2025-09-26 14:26:06.250,AH,C,860689532,HAWK11,1,1,73,2,1,1,225,2,1,0,0,12,1,225,2,1,-144800.78552420562,-4791632.594697799,4198654.751432896,3.12539,2.40087,-0.618674,-82.375,67.875,71.0,-0.203125,-8.70312,8.25,-0.00976562,0.0332031,0.0292969,4,0,41.40412977357584,-91.730923563363,12218.084932825412,-38.1408143441789,-0.8577013544481379,33.72664928269948,181.534,10022.661867135384,12264.339701119052,150,False,22.090076510695585,False,178.72363303953264,176.77978227504468,False,2.062794736512773,True,False
1,1970-07-23 10:27:51.670311725,2025-09-12,2025-09-26 14:26:07.031,AH,C,3154889648,JASSM,3,126,76,2,2,1,225,9,2,0,1,26,0,0,0,0,-172221.64294608062,-4770691.786104049,4220692.577604771,-2.51448,-0.70333,0.607552,57.5,-48.625,-52.25,0.0,0.0,0.0,0.0,0.0,0.0,2,0,41.6720390738092,-92.06747586768556,10997.375871351962,139.8375659970243,-0.0014071667527531,0.0032970978316373,,10022.661867135384,12264.339701119052,150,1,2025-09-12,2025-09-26 14:26:06.827,AH,C,861286030,HAWK11,1,1,73,2,1,1,225,2,1,0,0,12,1,225,2,1,-144841.83630545562,-4791596.751924361,4198691.425261021,3.13105,2.37997,-0.627015,-79.875,69.375,73.0,-0.328125,-8.82812,8.3125,-0.0332031,0.0273438,0.0371094,4,0,41.40458314683176,-91.73142692234568,12212.55057617306,-37.068199507348986,-1.0103884495547106,33.334685831124254,181.656,10022.661867135384,12264.339701119052,150,False,22.007957834365378,False,179.36050058722145,176.76753042851885,False,3.636133759072823,True,False
1,1970-07-23 10:27:51.679449838,2025-09-12,2025-09-26 14:26:07.944,AH,C,3156022770,JASSM,3,126,76,2,2,1,225,9,2,0,1,26,0,0,0,0,-172167.06482108062,-4770738.071260299,4220642.823698521,-2.51448,-0.703234,0.607552,57.5,-48.625,-52.25,0.0,0.0,0.0,0.0,0.0,0.0,2,0,41.67143967166325,-92.06680120519285,10997.378964073278,139.83436134091065,-0.0032713758122938,0.0001589564022038,,10022.661867135384,12264.339701119052,150,1,2025-09-12,2025-09-26 14:26:08.029,AH,C,862677862,HAWK11,1,1,73,2,1,1,225,2,1,0,0,12,1,225,2,1,-144931.05114920562,-4791512.984346236,4198778.798307896,3.1252,2.31391,-0.662871,-73.625,72.5,77.0,-0.28125,-9.04688,8.5,-0.0527344,0.0292969,0.0214844,4,0,41.405655146368304,-91.7325230090434,12202.733714089423,-33.41371591370612,-0.9193478058490564,30.661962152850364,181.864,10022.661867135384,12264.339701119052,150,False,21.88062264230272,False,175.97990734745974,176.73982285006275,False,7.24271901634969,True,False
1,1970-07-23 10:27:51.689488561,2025-09-12,2025-09-26 14:26:08.948,AH,C,3157156162,JASSM,3,126,76,2,2,1,225,9,2,0,1,26,0,0,0,0,-172112.47351248687,-4770784.368135299,4220593.050261021,-2.51448,-0.703234,0.607552,57.5,-48.625,-52.25,0.0,0.0,0.0,0.0,0.0,0.0,2,0,41.67084006698457,-92.0661263920214,10997.370897963978,139.83480999334955,-0.0024880449320359,0.0001574144235934,,10022.661867135384,12264.339701119052,150,1,2025-09-12,2025-09-26 14:26:09.029,AH,C,863990162,HAWK11,1,1,73,2,1,1,225,2,1,0,0,12,1,225,2,1,-145008.80114920562,-4791431.124971236,4198865.681120396,3.0786,2.26531,-0.691154,-68.25,74.5,80.875,-0.265625,-9.15625,8.5625,-0.121094,0.0234375,0.0332031,4,0,41.40671453976814,-91.73348147203068,12195.704684984992,-30.720373537723543,-0.6337368598833303,26.210697743615977,181.693,10022.661867135384,12264.339701119052,150,False,21.75805538628553,False,172.96835450786577,176.70120241648547,False,10.31931499656449,True,False
1,1970-07-23 10:27:51.698267798,2025-09-12,2025-09-26 14:26:09.826,AH,C,3158229906,JASSM,3,126,76,2,2,1,225,9,2,0,1,26,0,0,0,0,-172060.75573904935,-4770828.227510299,4220545.901823521,-2.51448,-0.703234,0.607552,57.5,-48.625,-52.25,0.0,0.0,0.0,0.0,0.0,0.0,2,0,41.67027205751618,-92.0654871109394,10997.376536428745,139.83523501723997,-0.0017459750356404,0.0001559775698148,,10022.661867135384,12264.339701119052,150,1,2025-09-12,2025-09-26 14:26:09.622,AH,C,864626428,HAWK11,1,1,73,2,1,1,225,2,1,0,0,12,1,225,2,1,-145044.45153983062,-4791390.832979049,4198909.395964146,3.03009,2.24268,-0.704672,-66.0,74.625,82.875,-0.234375,-9.09375,8.53125,-0.123047,0.0332031,0.0253906,4,0,41.40724286619394,-91.73392196001129,12194.11581265838,-29.47506692717193,-0.4458943028610446,22.586315049080383,181.901,10022.661867135384,12264.339701119052,150,False,21.677076848388882,False,171.72662180371384,176.67516216433015,False,11.596672829050211,True,False
1,1970-07-23 10:27:51.707467973,2025-09-12,2025-09-26 14:26:10.746,AH,C,3159363300,JASSM,3,126,76,2,2,1,225,9,2,0,1,26,0,0,0,0,-172006.16443045562,-4770874.524385299,4220496.128386021,-2.51448,-0.703234,0.607552,57.5,-48.625,-52.25,0.0,0.0,0.0,0.0,0.0,0.0,2,0,41.66967244500015,-92.0648123221556,10997.37608554394,139.8356836431516,-0.0009626439955478,0.000154435546107,,10022.661867135384,12264.339701119052,150,1,2025-09-12,2025-09-26 14:26:10.826,AH,C,866177326,HAWK11,1,1,73,2,1,1,225,2,1,0,0,12,1,225,2,1,-145126.42614920562,-4791293.237275924,4199018.976042271,2.91571,2.20625,-0.737557,-61.5,74.875,86.75,-0.21875,-9.0,8.42188,-0.107422,0.0117188,0.00976562,4,0,41.40854829441973,-91.73493663729832,12197.96631026421,-27.202423456297662,0.4717435149598215,14.655108713770344,181.986,10022.661867135384,12264.339701119052,150,False,21.542058379441045,False,169.21837885644035,176.61340365929982,False,14.165819604018182,True,False
1,1970-07-23 10:27:51.717247864,2025-09-12,2025-09-26 14:26:11.724,AH,C,3160496694,JASSM,3,126,76,2,2,1,225,9,2,0,1,26,0,0,0,0,-171951.57312186187,-4770920.817354049,4220446.358854771,-2.51448,-0.703234,0.607648,57.5,-48.625,-52.25,0.0,0.0,0.0,0.0,0.0,0.0,2,0,41.66907287807285,-92.0641375475836,10997.378498393642,139.83935467903004,-0.0046259508353964,0.0001527894047173,,10022.661867135384,12264.339701119052,150,1,2025-09-12,2025-09-26 14:26:11.732,AH,C,867131724,HAWK11,1,1,73,2,1,1,225,2,1,0,0,12,1,225,2,1,-145174.74060233062,-4791232.479463424,4199089.698698521,2.83758,2.19714,-0.755486,-59.5,74.125,88.875,-0.15625,-8.90625,8.40625,-0.113281,0.015625,0.0292969,4,0,41.40937836847543,-91.73553586150396,12205.602046937096,-26.38958541406493,1.2080165314912796,9.8357262642268,181.815,10022.661867135384,12264.339701119052,150,True,21.440584279125478,False,168.06766953531954,176.56671313978734,False,15.3518915820297,True,False
1,1970-07-23 10:27:51.727336037,2025-09-12,2025-09-26 14:26:12.733,AH,C,3161630088,JASSM,3,126,76,2,2,1,225,9,2,0,1,26,0,0,0,0,-171896.9815691275,-4770967.110322799,4220396.585417271,-2.51448,-0.703234,0.607648,57.5,-48.625,-52.25,0.0,0.0,0.0,0.0,0.0,0.0,2,0,41.66847328091583,-92.06346278260544,10997.37627973448,139.83980327863844,-0.0038426368375817,0.0001513071945156,,10022.661867135384,12264.339701119052,150,1,2025-09-12,2025-09-26 14:26:12.622,AH,C,868364490,HAWK11,1,1,73,2,1,1,225,2,1,0,0,12,1,225,2,1,-145234.50818045562,-4791155.818330611,4199182.188932896,2.77574,2.19637,-0.77188,-57.625,73.375,90.625,-0.078125,-8.1875,7.75,-0.0332031,0.00976562,-0.0117188,4,0,41.4104478979818,-91.73627769800984,12222.221368864706,-25.9316411250102,2.029807883881332,6.275220600465453,181.95,10022.661867135384,12264.339701119052,150,True,21.324295714293676,False,167.01412435035064,176.50522536870167,False,16.452603585687445,True,False
1,1970-07-23 10:27:51.735449636,2025-09-12,2025-09-26 14:26:13.544,AH,C,3162703830,JASSM,3,126,76,2,2,1,225,9,2,0,1,26,0,0,0,0,-171845.26355154935,-4771010.965791549,4220349.429167271,-2.51448,-0.703234,0.607648,57.5,-48.625,-52.25,0.0,0.0,0.0,0.0,0.0,0.0,2,0,41.667905227289744,-92.0628235471127,10997.369912225611,139.84022825252646,-0.0031005437118841,0.000149893923764,,10022.661867135384,12264.339701119052,150,1,2025-09-12,2025-09-26 14:26:13.622,AH,C,869557488,HAWK11,1,1,73,2,1,1,225,2,1,0,0,12,1,225,2,1,-145290.94372733062,-4791082.580049361,4199272.925261021,2.73432,2.20165,-0.785878,-56.375,72.5,91.5,-0.359375,-8.21875,7.64062,-0.0371094,0.00585938,0.00976562,4,0,41.41148582063525,-91.73697850686008,12243.213445276702,-25.75451800579668,2.842117460296061,4.121993246278663,181.864,10022.661867135384,12264.339701119052,150,True,21.213136366432273,False,166.3729025216761,176.44319381505719,False,17.14267215997229,True,False
1,1970-07-23 10:27:51.746469330,2025-09-12,2025-09-26 14:26:14.646,AH,C,3163956528,JASSM,3,126,76,2,2,1,225,9,2,0,1,26,0,0,0,0,-171784.92566092435,-4771062.129854049,4220294.417448521,-2.51439,-0.703234,0.607648,57.5,-48.625,-52.25,0.0,0.0,0.0,0.0,0.0,0.0,2,0,41.66724252368977,-92.06207778441576,10997.373826784127,139.84072404138095,-0.0022347903418704,0.0056397378801383,,10022.661867135384,12264.339701119052,150,1,2025-09-12,2025-09-26 14:26:14.826,AH,C,870909554,HAWK11,1,1,73,2,1,1,225,2,1,0,0,12,1,225,2,1,-145353.45349295562,-4791000.936494674,4199376.556120396,2.707,2.19676,-0.800546,-55.375,71.5,92.625,-0.171875,-7.85938,7.4375,-0.0429688,0.00976562,0.0078125,4,0,41.41265967067346,-91.73775495834686,12271.97924888748,-25.1932089076653,3.499414557655293,2.387878100893983,181.815,10022.661867135384,12264.339701119052,150,True,21.086364737810577,False,165.75863091328654,176.3703065852075,False,17.81020011037127,True,False
1,1970-07-23 10:27:51.757495717,2025-09-12,2025-09-26 14:26:15.749,AH,C,3165268880,JASSM,3,126,76,2,2,1,225,9,2,0,1,26,0,0,0,0,-171721.71447928375,-4771115.731416549,4220236.780729771,-2.51439,-0.703234,0.607648,57.5,-48.625,-52.25,0.0,0.0,0.0,0.0,0.0,0.0,2,0,41.66654821458123,-92.0612965244361,10997.374014154746,139.84124342216884,-0.0013277771419471,0.0056380051750352,,10022.661867135384,12264.339701119052,150,1,2025-09-12,2025-09-26 14:26:15.732,AH,C,872023020,HAWK11,1,1,73,2,1,1,225,2,1,0,0,12,1,225,2,1,-145404.84997733062,-4790933.904268111,4199463.548307896,2.67066,2.20193,-0.811284,-54.75,70.625,93.125,-0.125,-7.9375,7.54688,-0.0253906,0.00976562,0.0,4,0,41.41363629666038,-91.73839335302895,12299.750646201122,-25.09265188829168,4.141246846451534,0.5267434380747896,181.815,10022.661867135384,12264.339701119052,150,True,20.969993979651385,False,165.41062044380925,176.3061017321197,False,18.20695352393337,True,False
1,1970-07-23 10:27:51.768247089,2025-09-12,2025-09-26 14:26:16.824,AH,C,3166581230,JASSM,3,126,76,2,2,1,225,9,2,0,1,26,0,0,0,0,-171658.5030535025,-4771169.329072799,4220179.147917271,-2.51439,-0.703234,0.607648,57.5,-48.625,-52.25,0.0,0.0,0.0,0.0,0.0,0.0,2,0,41.66585394974391,-92.06051528000124,10997.378375112565,139.84176278552275,-0.0004208011913305,0.0056363051775087,,10022.661867135384,12264.339701119052,150,1,2025-09-12,2025-09-26 14:26:16.826,AH,C,873295552,HAWK11,1,1,73,2,1,1,225,2,1,0,0,12,1,225,2,1,-145462.47107108062,-4790858.999971236,4199562.647917271,2.64104,2.20769,-0.823364,-54.25,69.75,93.125,-0.203125,-7.6875,7.3125,-0.0195312,0.00195312,-0.00195312,4,0,41.41474033667371,-91.73910899487517,12334.911139773138,-24.9714925815229,4.860245438627017,-0.920714052914579,182.023,10022.661867135384,12264.339701119052,150,True,20.84573198578914,False,165.2147366059165,176.23322300651486,False,18.463754175426047,True,False
1,1970-07-23 10:27:51.779266063,2025-09-12,2025-09-26 14:26:17.926,AH,C,3167833928,JASSM,3,126,76,2,2,1,225,9,2,0,1,26,0,0,0,0,-171598.1651628775,-4771220.489229049,4220124.128386021,-2.51439,-0.703138,0.607648,57.5,-48.625,-52.25,0.0,0.0,0.0,0.0,0.0,0.0,2,0,41.66519120176552,-92.05976956633212,10997.370468296704,139.8386079674968,-0.0022007148448331,0.0024994220564404,,10022.661867135384,12264.339701119052,150,1,2025-09-12,2025-09-26 14:26:18.028,AH,C,874607850,HAWK11,1,1,73,2,1,1,225,2,1,0,0,12,1,225,2,1,-145521.37146170562,-4790783.396455611,4199664.423307896,2.61285,2.21095,-0.820296,-54.125,68.625,93.25,-0.203125,-6.65625,6.3125,-0.0234375,-0.0332031,-0.00195312,4,0,41.41586635455574,-91.7398401980854,12374.264586293368,-25.167173154585004,4.765382446287597,-2.415260864718522,182.634,10022.661867135384,12264.339701119052,150,True,20.72252959116496,False,165.1214744679579,176.15855954541067,False,18.6099942979472,True,False
1,1970-07-23 10:27:51.789309384,2025-09-12,2025-09-26 14:26:18.930,AH,C,3169086628,JASSM,3,126,76,2,2,1,225,9,2,0,1,26,0,0,0,0,-171537.82702811187,-4771271.649385299,4220069.112761021,-2.51439,-0.703138,0.607648,57.5,-48.625,-52.25,0.0,0.0,0.0,0.0,0.0,0.0,2,0,41.664528475184746,-92.05902386502883,10997.375836577085,139.8391036891251,-0.0013349583919824,0.0024977375122869,,10022.661867135384,12264.339701119052,150,1,2025-09-12,2025-09-26 14:26:18.732,AH,C,875602016,HAWK11,1,1,73,2,1,1,225,2,1,0,0,12,1,225,2,1,-145566.41052420562,-4790725.209932174,4199741.774870396,2.62205,2.20721,-0.813297,-54.0,69.125,92.125,-0.28125,-6.35938,6.09375,0.0136719,-0.00390625,-0.015625,4,0,41.41672641847591,-91.74039947492707,12402.415383404905,-25.225007899345883,4.343222517652034,-2.0486348794857623,182.842,10022.661867135384,12264.339701119052,150,True,20.61620751866503,False,165.34426860044522,176.09870406459692,False,18.470888199072874,True,False
1,1970-07-23 10:27:51.800350892,2025-09-12,2025-09-26 14:26:20.035,AH,C,3170398980,JASSM,3,126,76,2,2,1,225,9,2,0,1,26,0,0,0,0,-171474.61560233062,-4771325.243135299,4220011.472136021,-2.51439,-0.703138,0.607744,57.5,-48.625,-52.25,0.0,0.0,0.0,0.0,0.0,0.0,2,0,41.663834165489234,-92.05824267110776,10997.368842054051,139.84284767152556,-0.0048771480937816,0.0024958105755269,,10022.661867135384,12264.339701119052,150,1,2025-09-12,2025-09-26 14:26:20.129,AH,C,877232448,HAWK11,1,1,73,2,1,1,225,2,1,0,0,12,1,225,2,1,-145640.07263358062,-4790629.875947799,4199866.280729771,2.63001,2.20606,-0.807929,-54.0,69.75,90.75,-0.203125,-6.75,6.40625,0.0078125,0.0,-0.00390625,4,0,41.41812053901253,-91.74131427112842,12443.704193945689,-25.32861608520314,4.051281241321799,-1.647996609610952,183.905,10022.661867135384,12264.339701119052,150,True,20.473308220507498,False,165.66162192273353,176.0072178116539,False,18.270952789549337,True,False
1,1970-07-23 10:27:51.811427898,2025-09-12,2025-09-26 14:26:21.142,AH,C,3171711330,JASSM,3,126,76,2,2,1,225,9,2,0,1,26,0,0,0,0,-171411.40417654935,-4771378.836885299,4219953.831511021,-2.51439,-0.703138,0.607744,57.5,-48.625,-52.25,0.0,0.0,0.0,0.0,0.0,0.0,2,0,41.66313985040006,-92.0574614939704,10997.36709035173,139.84336696260442,-0.0039701502461409,0.0024940839434659,,10022.661867135384,12264.339701119052,150,1,2025-09-12,2025-09-26 14:26:21.232,AH,C,878544746,HAWK11,1,1,73,2,1,1,225,2,1,0,0,12,1,225,2,1,-145699.05114920562,-4790553.444307174,4199965.380339146,2.63663,2.20376,-0.807257,-54.0,69.5,90.625,-0.078125,-6.82812,6.54688,0.0,0.0,0.0,5,0,41.41923338747404,-91.74204677688266,12475.24928768575,-25.266022411567523,3.976206804449393,-1.359794138062393,184.589,10022.661867135384,12264.339701119052,150,True,20.34827287630303,False,165.69158410025187,175.93128334159204,False,18.31458998618497,True,False
1,1970-07-23 10:27:51.822310430,2025-09-12,2025-09-26 14:26:22.231,AH,C,3172964034,JASSM,3,126,76,2,2,1,225,9,2,0,1,26,0,0,0,0,-171351.06579764312,-4771429.997041549,4219898.811979771,-2.51439,-0.703138,0.607744,57.5,-48.625,-52.25,0.0,0.0,0.0,0.0,0.0,0.0,2,0,41.66247708240145,-92.05671583707507,10997.378703709332,139.84386263481733,-0.0031043719502483,0.0024924328081362,,10022.661867135384,12264.339701119052,150,1,2025-09-12,2025-09-26 14:26:22.326,AH,C,879896812,HAWK11,1,1,73,2,1,1,225,2,1,0,0,12,1,225,2,1,-145760.26794608062,-4790474.041963424,4200067.927214146,2.63059,2.20289,-0.806299,-53.875,69.375,90.0,0.046875,-6.85938,6.57812,-0.0078125,0.0,0.0,4,0,41.420386761197335,-91.7428071314012,12507.148855180856,-25.26160138437126,3.9129707014596415,-1.741200601441041,185.432,10022.661867135384,12264.339701119052,150,True,20.223118952359684,False,165.78675682818258,175.8526500152366,False,18.303280437438747,True,False
1,1970-07-23 10:27:51.832450765,2025-09-12,2025-09-26 14:26:23.245,AH,C,3174276380,JASSM,3,126,76,2,2,1,225,9,2,0,1,26,0,0,0,0,-171287.8546160025,-4771483.586885299,4219841.171354771,-2.51439,-0.703138,0.607744,57.5,-48.625,-52.25,0.0,0.0,0.0,0.0,0.0,0.0,2,0,41.66178278007114,-92.05593469735152,10997.3776525645,139.84438188714915,-0.0021973939168836,0.0024907185081767,,10022.661867135384,12264.339701119052,150,1,2025-09-12,2025-09-26 14:26:23.232,AH,C,880970510,HAWK11,1,1,73,2,1,1,225,2,1,0,0,12,1,225,2,1,-145808.32263358062,-4790411.781221236,4200147.845182896,2.62953,2.19896,-0.806586,-53.875,69.5,89.5,-0.03125,-6.82812,6.65625,-0.0078125,0.0078125,-0.00390625,4,0,41.4212878137467,-91.74340399548106,12531.10792255453,-25.115753745475786,3.8567233016139615,-1.954274114195124,186.557,10022.661867135384,12264.339701119052,150,True,20.11150697284081,False,165.89990995660315,175.7878895442437,False,18.262013692673094,True,False
1,1970-07-23 10:27:51.843444158,2025-09-12,2025-09-26 14:26:24.344,AH,C,3175529080,JASSM,3,126,76,2,2,1,225,9,2,0,1,26,0,0,0,0,-171227.51623709625,-4771534.739229049,4219786.147917271,-2.51439,-0.703138,0.607744,57.5,-48.625,-52.25,0.0,0.0,0.0,0.0,0.0,0.0,2,0,41.6611200224536,-92.05518907513124,10997.3713917819,139.84487752306697,-0.0013316326607544,0.0024890785766555,,10022.661867135384,12264.339701119052,150,1,2025-09-12,2025-09-26 14:26:24.338,AH,C,881805610,HAWK11,1,1,73,2,1,1,225,2,1,0,0,12,1,225,2,1,-145846.06482108062,-4790363.003877486,4200210.278776646,2.62387,2.20222,-0.804861,-54.0,69.5,89.125,-0.296875,-6.85938,6.5625,-0.0078125,0.00390625,-0.00976562,4,0,41.421992515692935,-91.74387273909778,12549.505559199137,-25.27679031494569,3.829384063918356,-2.154401632707887,187.229,10022.661867135384,12264.339701119052,150,True,20.01483020805115,False,166.03496641102365,175.7348901807786,False,18.183148252015627,True,False
1,1970-07-23 10:27:51.854484996,2025-09-12,2025-09-26 14:26:25.448,AH,C,3176901082,JASSM,3,126,76,2,2,1,225,9,2,0,1,26,0,0,0,0,-171161.43127615875,-4771590.766572799,4219725.882292271,-2.51439,-0.703138,0.607744,57.5,-48.625,-52.25,0.0,0.0,0.0,0.0,0.0,0.0,2,0,41.66039410691942,-92.0543724565378,10997.374154571184,139.84542034483582,-0.0003833918951462,0.0024872627674469,,10022.661867135384,12264.339701119052,150,1,2025-09-12,2025-09-26 14:26:25.528,AH,C,883714408,HAWK11,1,1,73,2,1,1,225,2,1,0,0,12,1,225,2,1,-145932.54333670562,-4790251.235322799,4200352.517057896,2.61994,2.19839,-0.806299,-54.125,69.375,88.5,-0.140625,-6.79688,6.53125,0.0,-0.00585938,-0.00390625,4,0,41.42360171234101,-91.7449468063962,12589.89172180989,-25.10406122203725,3.834184811775122,-2.5264604499367493,188.927,10022.661867135384,12264.339701119052,150,True,19.85544771581638,False,166.22951729740984,175.62621488811632,False,18.101195486216646,True,False
1,1970-07-23 10:27:51.865505090,2025-09-12,2025-09-26 14:26:26.550,AH,C,3178154050,JASSM,3,126,76,2,2,1,225,9,2,0,1,26,0,0,0,0,-171101.07995779935,-4771641.930635299,4219670.847136021,-2.51439,-0.703043,0.607744,57.5,-48.625,-52.25,0.0,0.0,0.0,0.0,0.0,0.0,2,0,41.659731192942914,-92.05362670614318,10997.37991578537,139.84226361707624,-0.0021647999941566,-0.0006519998090976,,10022.661867135384,12264.339701119052,150,1,2025-09-12,2025-09-26 14:26:26.528,AH,C,884867640,HAWK11,1,1,73,2,1,1,225,2,1,0,0,12,1,225,2,1,-145984.42810233062,-4790184.367158736,4200436.929167271,2.61525,2.19714,-0.797574,-54.25,69.625,87.875,-0.125,-6.26562,6.01562,-0.0175781,-0.0195312,-0.015625,4,0,41.424559793555765,-91.745591171961,12612.587008346318,-25.29025028692118,3.3683845034526154,-2.858581658296996,189.636,10022.661867135384,12264.339701119052,150,True,19.742437219367055,False,166.41631337923448,175.5570634027696,False,17.99240959939187,True,False
1,1970-07-23 10:27:51.877425844,2025-09-12,2025-09-26 14:26:27.742,AH,C,3179525784,JASSM,3,126,76,2,2,1,225,9,2,0,1,26,0,0,0,0,-171035.007936315,-4771697.942354049,4219610.593229771,-2.51439,-0.703043,0.60784,57.5,-48.625,-52.25,0.0,0.0,0.0,0.0,0.0,0.0,2,0,41.659005435550085,-92.05281028452808,10997.382059281788,139.8460292066445,-0.0056630115754414,-0.0006540528095481,,10022.661867135384,12264.339701119052,150,1,2025-09-12,2025-09-26 14:26:27.826,AH,C,886259472,HAWK11,1,1,73,2,1,1,225,2,1,0,0,12,1,225,2,1,-146048.23083670562,-4790101.468721236,4200538.563932896,2.62282,2.17336,-0.776098,-54.5,71.375,85.875,-0.125,-4.8125,4.64062,-0.00585938,-0.0195312,-0.00390625,4,0,41.42572730923002,-91.74638381716652,12634.152774276028,-24.98725819553549,1.8376245761856704,-3.375551387717689,190.614,10022.661867135384,12264.339701119052,150,True,19.610928457042167,False,166.88057656663713,175.47428941459614,False,17.639816965015413,True,False
1,1970-07-23 10:27:51.888266261,2025-09-12,2025-09-26 14:26:28.826,AH,C,3180838136,JASSM,3,126,76,2,2,1,225,9,2,0,1,26,0,0,0,0,-170971.79626639312,-4771751.524385299,4219552.944792271,-2.51439,-0.703043,0.60784,57.5,-48.625,-52.25,0.0,0.0,0.0,0.0,0.0,0.0,2,0,41.65831110054075,-92.05202922621103,10997.3710040547,139.84654836958276,-0.0047560274325189,-0.0006557763261478,,10022.661867135384,12264.339701119052,150,1,2025-09-12,2025-09-26 14:26:28.920,AH,C,887730836,HAWK11,1,1,73,2,1,1,225,2,1,0,0,12,1,225,2,1,-146115.17028983062,-4790011.809541549,4200641.726042271,2.62004,2.15553,-0.749829,-54.75,74.25,83.25,-0.1875,-4.73438,4.5,-0.0136719,-0.0214844,0.00585938,4,0,41.4269447872029,-91.74721643863626,12642.656792870122,-24.98367194547581,0.1624941337901406,-4.240887677289081,191.164,10022.661867135384,12264.339701119052,150,True,19.47851656976615,False,167.2465458755455,175.38941210701495,False,17.352858780346725,True,False
1,1970-07-23 10:27:51.898324018,2025-09-12,2025-09-26 14:26:29.832,AH,C,3182090836,JASSM,3,126,76,2,2,1,225,9,2,0,1,26,0,0,0,0,-170911.45764334625,-4771802.672822799,4219497.917448521,-2.51439,-0.703043,0.60784,57.5,-48.625,-52.25,0.0,0.0,0.0,0.0,0.0,0.0,2,0,41.65764831432913,-92.05128368282868,10997.37165670468,139.84704391941867,-0.0038902628769116,-0.0006574240271602,,10022.661867135384,12264.339701119052,150,1,2025-09-12,2025-09-26 14:26:29.827,AH,C,888764768,HAWK11,1,1,73,2,1,1,225,2,1,0,0,12,1,225,2,1,-146162.82263358062,-4789946.199189986,4200712.786589146,2.62138,2.14144,-0.730462,-55.125,76.75,81.25,-0.046875,-4.73438,4.5625,0.0,-0.0253906,-0.00976562,4,0,41.42780604921288,-91.74780982808696,12639.16855681962,-24.92073624692125,-1.0945875939484797,-4.709054463394067,191.897,10022.661867135384,12264.339701119052,150,True,19.371353182771802,False,167.39292362326464,175.32638446607962,False,17.21449979617056,True,False
1,1970-07-23 10:27:51.909510725,2025-09-12,2025-09-26 14:26:30.951,AH,C,3183403186,JASSM,3,126,76,2,2,1,225,9,2,0,1,26,0,0,0,0,-170848.24572928375,-4771856.258760299,4219440.269011021,-2.51429,-0.703043,0.60784,57.5,-48.625,-52.25,0.0,0.0,0.0,0.0,0.0,0.0,2,0,41.65695394548453,-92.05050265270006,10997.380396137614,139.84756304974604,-0.0029832584933135,0.00483231209534,,10022.661867135384,12264.339701119052,150,1,2025-09-12,2025-09-26 14:26:31.028,AH,C,890275900,HAWK11,1,1,73,2,1,1,225,2,1,0,0,12,1,225,2,1,-146233.91833670562,-4789846.550752486,4200815.142057896,2.61822,2.14556,-0.717328,-56.0,78.75,79.875,-0.140625,-6.20312,5.9375,-0.0078125,-0.015625,-0.00195312,4,0,41.42907676862796,-91.7486958169677,12621.6927172375,-25.40181684930644,-1.698906689688979,-4.72211249838516,192.63,10022.661867135384,12264.339701119052,150,True,19.23506104908733,False,167.59842589192448,175.2394498205076,False,17.02354566935718,True,False
1,1970-07-23 10:27:51.919466947,2025-09-12,2025-09-26 14:26:31.946,AH,C,3184655942,JASSM,3,126,76,2,2,1,225,9,2,0,1,26,0,0,0,0,-170787.90442069,-4771907.407197799,4219385.233854771,-2.51429,-0.703043,0.60784,57.5,-48.625,-52.25,0.0,0.0,0.0,0.0,0.0,0.0,2,0,41.656291097262965,-92.04975710841735,10997.373558506384,139.84805858693568,-0.0021174385096047,0.0048306492272196,,10022.661867135384,12264.339701119052,150,1,2025-09-12,2025-09-26 14:26:32.178,AH,C,891349600,HAWK11,1,1,73,2,1,1,225,2,1,0,0,12,1,225,2,1,-146284.37732108062,-4789775.937471236,4200885.753386021,2.61553,2.13866,-0.709179,-56.75,79.75,79.125,0.0,-6.40625,5.75,0.0,-0.00390625,0.00585938,4,0,41.429964258333975,-91.749324614252,12605.154070956332,-25.329733000293064,-2.247649081036052,-5.137162220778777,193.327,10022.661867135384,12264.339701119052,150,True,19.125715865169457,False,167.79531022413275,175.17561477242566,False,16.84082726442205,True,False
1,1970-07-23 10:27:51.932606679,2025-09-12,2025-09-26 14:26:33.260,AH,C,3185968236,JASSM,3,126,76,2,2,1,225,9,2,0,1,26,0,0,0,0,-170724.69519217435,-4771960.985322799,4219327.585417271,-2.51429,-0.703043,0.60784,57.5,-48.625,-52.25,0.0,0.0,0.0,0.0,0.0,0.0,2,0,41.65559676400578,-92.04897614663852,10997.37364254236,139.84857765795732,-0.0012104862961481,0.0048289226322077,,10022.661867135384,12264.339701119052,150,1,2025-09-12,2025-09-26 14:26:33.232,AH,C,892940264,HAWK11,1,1,73,2,1,1,225,2,1,0,0,12,1,225,2,1,-146360.95739920562,-4789668.505830611,4200990.913542271,2.61314,2.14192,-0.701509,-57.75,80.5,78.5,-0.203125,-7.25,6.39062,-0.00585938,0.00585938,-0.0136719,4,0,41.43129921793047,-91.75027905194528,12575.065250882928,-25.64566547978828,-2.5839303790179566,-5.140048581362499,194.207,10022.661867135384,12264.339701119052,150,True,18.98460961646885,False,168.10218360313812,175.08553373154726,False,16.577470244369497,True,False
1,1970-07-23 10:27:51.941242569,2025-09-12,2025-09-26 14:26:34.124,AH,C,3187161282,JASSM,3,126,76,2,2,1,225,9,2,0,1,26,0,0,0,0,-170667.22986014312,-4772009.692354049,4219275.175261021,-2.51429,-0.703043,0.60784,57.5,-48.625,-52.25,0.0,0.0,0.0,0.0,0.0,0.0,2,0,41.65496553319812,-92.04826616735072,10997.371767583403,139.84904954387213,-0.0003859596535086,0.0048273602236722,,10022.661867135384,12264.339701119052,150,1,2025-09-12,2025-09-26 14:26:34.028,AH,C,893894664,HAWK11,1,1,73,2,1,1,225,2,1,0,0,12,1,225,2,1,-146407.48669608062,-4789603.960908736,4201053.644011021,2.60786,2.14422,-0.706015,-58.5,80.5,78.5,-0.15625,-7.54688,6.65625,-0.00195312,0.00585938,-0.00195312,4,0,41.43209813060555,-91.75085871277123,12556.057582052888,-25.6271472127122,-2.306609766311756,-5.357625282042371,194.549,10022.661867135384,12264.339701119052,150,True,18.88310633751598,False,168.39853992414731,175.02729545431873,False,16.336209657006382,True,False
1,1970-07-23 10:27:51.951284010,2025-09-12,2025-09-26 14:26:35.128,AH,C,3188413980,JASSM,3,126,76,2,2,1,225,9,2,0,1,26,0,0,0,0,-170606.89099295562,-4772060.836885299,4219220.144011021,-2.51429,-0.703043,0.60784,57.5,-48.625,-52.25,0.0,0.0,0.0,0.0,0.0,0.0,2,0,41.654302719331895,-92.04752069987822,10997.378423970333,139.84954501060398,0.000479808197014,0.0048257112487811,,10022.661867135384,12264.339701119052,150,1,2025-09-12,2025-09-26 14:26:35.326,AH,C,895366028,HAWK11,1,1,73,2,1,1,225,2,1,0,0,12,1,225,2,1,-146480.76794608062,-4789504.517549361,4201151.294401646,2.59885,2.15802,-0.718574,-59.75,79.625,79.25,-0.328125,-8.40625,7.5625,-0.00585938,0.0234375,-0.0078125,4,0,41.43333547319211,-91.75177087133426,12529.079534622288,-25.85868913875216,-1.3980199033834138,-5.349428355583448,195.306,10022.661867135384,12264.339701119052,150,True,18.750019815141563,False,168.9994830620986,174.94379402801513,False,15.869417710605324,True,False
1,1970-07-23 10:27:51.961424279,2025-09-12,2025-09-26 14:26:36.142,AH,C,3189666680,JASSM,3,126,76,2,2,1,225,9,2,0,1,26,0,0,0,0,-170546.55212576812,-4772111.977510299,4219165.108854771,-2.51429,-0.702947,0.607936,57.5,-48.625,-52.25,0.0,0.0,0.0,0.0,0.0,0.0,2,0,41.65363989763831,-92.0467752493651,10997.371770107264,139.84961584555435,-0.0057489926582717,0.001687704075141,,10022.661867135384,12264.339701119052,150,1,2025-09-12,2025-09-26 14:26:36.179,AH,C,896320428,HAWK11,1,1,73,2,1,1,225,2,1,0,0,12,1,225,2,1,-146528.73669608062,-4789441.095674361,4201215.101042271,2.59837,2.16061,-0.723368,-60.5,78.75,79.875,-0.140625,-8.10938,7.14062,0.00195312,0.0,0.00195312,4,0,41.43413469533688,-91.75236736453076,12515.291164630204,-25.839871962400743,-1.1013351776002005,-5.279353024714052,195.575,10022.661867135384,12264.339701119052,150,True,18.645558036706156,False,169.39720762634528,174.88457516396602,False,15.575761527015084,True,False
1,1970-07-23 10:27:51.972443720,2025-09-12,2025-09-26 14:26:37.244,AH,C,3190919378,JASSM,3,126,76,2,2,1,225,9,2,0,1,26,0,0,0,0,-170486.21350272125,-4772163.122041549,4219110.073698521,-2.51429,-0.702947,0.607936,57.5,-48.625,-52.25,0.0,0.0,0.0,0.0,0.0,0.0,2,0,41.65297704763372,-92.04602981539006,10997.379484260342,139.85011127729263,-0.0048832059155862,0.0016860299866855,,10022.661867135384,12264.339701119052,150,1,2025-09-12,2025-09-26 14:26:37.232,AH,C,897672492,HAWK11,1,1,73,2,1,1,225,2,1,0,0,12,1,225,2,1,-146597.39685233062,-4789352.828096236,4201305.642057896,2.83547,2.16569,-0.739762,-60.75,78.125,80.5,-0.25,-8.60938,7.59375,0.462891,0.0371094,0.00976562,4,0,41.435258390010105,-91.75322026418549,12500.0263584054,-25.62433426595881,-0.1605883285434791,8.497437650731953,196.15,10022.661867135384,12264.339701119052,150,True,18.5192340816856,False,169.53549570666527,174.80730968810397,False,15.550046231365068,True,False
1,1970-07-23 10:27:51.982482638,2025-09-12,2025-09-26 14:26:38.248,AH,C,3192112426,JASSM,3,126,76,2,2,1,225,9,2,0,1,26,0,0,0,0,-170428.74768240875,-4772211.825166549,4219057.659636021,-2.51429,-0.702947,0.607936,57.5,-48.625,-52.25,0.0,0.0,0.0,0.0,0.0,0.0,2,0,41.65234579552769,-92.04531988945432,10997.37746050671,139.85058310359466,-0.0040586747439478,0.0016844619355961,,10022.661867135384,12264.339701119052,150,1,2025-09-12,2025-09-26 14:26:38.237,AH,C,898865492,HAWK11,1,1,73,2,1,1,225,2,1,0,0,12,1,225,2,1,-146656.38708670562,-4789274.397432174,4201387.970182896,-3.02769,2.11363,-0.777153,-56.875,78.125,82.5,-0.265625,-8.84375,7.82812,0.232422,0.0332031,0.0625,4,0,41.436269884249086,-91.7539540176745,12490.395935098972,-22.756966934143662,0.8657932993982691,30.52855515446846,196.48,10022.661867135384,12264.339701119052,150,False,18.4039385989061,False,167.7290531030184,174.7324908948769,False,17.477472754222788,True,False
1,1970-07-23 10:27:51.995391241,2025-09-12,2025-09-26 14:26:39.539,AH,C,3193424776,JASSM,3,126,76,2,2,1,225,9,2,0,1,26,0,0,0,0,-170365.53552420562,-4772265.399385299,4219000.003386021,-2.51429,-0.702947,0.607936,57.5,-48.625,-52.25,0.0,0.0,0.0,0.0,0.0,0.0,2,0,41.65165140309206,-92.04453898952858,10997.380470567034,139.85110209338714,-0.0031516839752404,0.0016827291374455,,10022.661867135384,12264.339701119052,150,1,2025-09-12,2025-09-26 14:26:39.528,AH,C,900177790,HAWK11,1,1,73,2,1,1,225,2,1,0,0,12,1,225,2,1,-146715.07263358062,-4789187.012666549,4201480.743620396,-2.85934,2.02581,-0.785111,-49.625,79.875,85.0,-0.359375,-9.17188,8.04688,-0.0214844,0.03125,0.0371094,4,0,41.43740519368388,-91.75468743148834,12481.417517661106,-19.278231934050257,-0.0639063659937648,36.65507313951243,196.858,10022.661867135384,12264.339701119052,150,False,18.278542776964017,False,164.1907817662443,174.6387242882242,False,21.119219600456162,True,False
1,1970-07-23 10:27:52.004263652,2025-09-12,2025-09-26 14:26:40.426,AH,C,3194677476,JASSM,3,126,76,2,2,1,225,9,2,0,1,26,0,0,0,0,-170305.19665701812,-4772316.536104049,4218944.964323521,-2.51429,-0.702947,0.607936,57.5,-48.5,-52.25,0.0,0.0,0.0,0.0,0.0,0.0,2,0,41.65098855883757,-92.04379360182143,10997.374837525816,139.851597474969,-0.0022859127892051,0.0016810679316172,,10022.661867135384,12264.339701119052,150,1,2025-09-12,2025-09-26 14:26:40.420,AH,C,901370788,HAWK11,1,1,73,2,1,1,225,2,1,0,0,12,1,225,2,1,-146761.54919608062,-4789105.643525924,4201567.077604771,-2.86385,1.98459,-0.78281,-43.125,82.0,86.625,-0.171875,-8.23438,7.23438,-0.046875,0.0253906,0.0371094,4,0,41.43846347770043,-91.75527273939552,12472.336051091206,-17.747676909385266,-0.7492166761192381,34.71816551907868,197.274,10022.661867135384,12264.339701119052,150,False,18.16362766788243,False,160.98260536910985,174.5647672269726,False,24.383640764394094,True,False
1,1970-07-23 10:27:52.014288718,2025-09-12,2025-09-26 14:26:41.428,AH,C,3195930174,JASSM,3,126,76,2,2,1,225,9,2,0,1,26,0,0,0,0,-170244.85754569,-4772367.672822799,4218889.925261021,-2.51429,-0.702947,0.607936,57.5,-48.5,-52.25,0.0,0.0,0.0,0.0,0.0,0.0,2,0,41.650325709724775,-92.04304822646876,10997.373960178978,139.85209284187167,-0.0014201401322273,0.0016794084030553,,10022.661867135384,12264.339701119052,150,1,2025-09-12,2025-09-26 14:26:41.326,AH,C,902563788,HAWK11,1,1,73,2,1,1,225,2,1,0,0,12,1,225,2,1,-146802.01599295562,-4789022.192354049,4201654.608854771,-2.88503,1.93224,-0.788274,-37.375,83.75,88.0,-0.03125,-8.70312,7.59375,-0.0507812,0.0429688,0.0644531,4,0,41.43954332641121,-91.75578699647718,12460.291394880558,-15.632738987740527,-1.0955627016573215,31.34881467886083,197.531,10022.661867135384,12264.339701119052,150,False,18.050133330635127,False,158.20366276834037,174.45518391833068,False,27.267868395118494,True,False
1,1970-07-23 10:27:52.024423121,2025-09-12,2025-09-26 14:26:42.442,AH,C,3197182872,JASSM,3,126,76,2,2,1,225,9,2,0,1,26,0,0,0,0,-170184.51843436187,-4772418.809541549,4218834.886198521,-2.51429,-0.702947,0.607936,57.5,-48.5,-52.25,0.0,0.0,0.0,0.0,0.0,0.0,2,0,41.64966285570214,-92.04230286639772,10997.377859869332,139.85258819215002,-0.0005543673752337,0.0016777488462214,,10022.661867135384,12264.339701119052,150,1,2025-09-12,2025-09-26 14:26:42.326,AH,C,903756786,HAWK11,1,1,73,2,1,1,225,2,1,0,0,12,1,225,2,1,-146836.41638358062,-4788937.362275924,4201743.749479771,-2.91313,1.87817,-0.795369,-31.625,84.75,89.625,-0.328125,-8.64062,7.57812,-0.126953,0.0136719,0.0332031,4,0,41.44064334596092,-91.75622926509088,12447.902678271848,-13.426722287084008,-1.285396292159382,27.48849548071091,197.763,10022.661867135384,12264.339701119052,150,False,17.938168044432764,False,155.48725756832675,174.33427910204935,False,30.112778471572085,False,False
1,1970-07-23 10:27:52.034468158,2025-09-12,2025-09-26 14:26:43.446,AH,C,3198375920,JASSM,3,126,76,2,2,1,225,9,2,0,1,26,0,0,0,0,-170127.05261404935,-4772467.508760299,4218782.468229771,-2.51429,-0.702947,0.607936,57.5,-48.5,-52.25,0.0,0.0,0.0,0.0,0.0,0.0,2,0,41.64903157729551,-92.04159301490424,10997.38049623035,139.85305993817755,0.0002701656989919,0.0016761778237677,,10022.661867135384,12264.339701119052,150,1,2025-09-12,2025-09-26 14:26:43.326,AH,C,904989552,HAWK11,1,1,73,2,1,1,225,2,1,0,0,12,1,225,2,1,-146866.35193045562,-4788849.870088424,4201836.583464146,-3.01494,1.8286,-0.808887,-27.0,84.875,91.25,0.09375,-8.59375,7.5,-0.0332031,0.0136719,0.0351562,4,0,41.44178494147763,-91.7566191560428,12436.6615547836,-11.326897170613812,-0.9868577256501928,19.57143716540421,198.362,10022.661867135384,12264.339701119052,150,False,17.828685010017526,False,153.33627232622263,174.2016174321618,False,32.41079147668098,False,False
1,1970-07-23 10:27:52.046183309,2025-09-12,2025-09-26 14:26:44.618,AH,C,3199628618,JASSM,3,126,76,2,2,1,225,9,2,0,1,26,0,0,0,0,-170066.71350272125,-4772518.641572799,4218727.425261021,-2.51429,-0.702947,0.608032,57.5,-48.5,-52.25,0.0,0.0,0.0,0.0,0.0,0.0,2,0,41.64836871076708,-92.04084768633686,10997.37563528246,139.85677841382818,-0.0033101269714955,0.0016744542208491,,10022.661867135384,12264.339701119052,150,1,2025-09-12,2025-09-26 14:26:44.622,AH,C,906540450,HAWK11,1,1,73,2,1,1,225,2,1,0,0,12,1,225,2,1,-146897.94568045562,-4788738.811494674,4201956.157682896,-2.97305,1.78306,-0.811859,-22.0,85.25,92.5,0.046875,-7.8125,6.76562,0.00195312,0.00585938,0.015625,4,0,41.44324690331005,-91.75703752351204,12425.689878358246,-9.53024185255649,-1.1724460864679291,20.04745675395012,198.96,10022.661867135384,12264.339701119052,150,False,17.70255716112727,False,151.03131262591546,174.02485056445678,False,34.89930435485842,False,False
1,1970-07-23 10:27:52.056244565,2025-09-12,2025-09-26 14:26:45.624,AH,C,3200881318,JASSM,3,126,76,2,2,1,225,9,2,0,1,26,0,0,0,0,-170006.37439139312,-4772569.774385299,4218672.382292271,-2.51429,-0.702851,0.608032,57.5,-48.5,-52.25,0.0,0.0,0.0,0.0,0.0,0.0,2,0,41.64770583932918,-92.04010237304924,10997.375551396204,139.85362230077644,-0.0050915829176254,-0.0014658901115768,,10022.661867135384,12264.339701119052,150,1,2025-09-12,2025-09-26 14:26:45.732,AH,C,907773216,HAWK11,1,1,73,2,1,1,225,2,1,0,0,12,1,225,2,1,-146918.08825858062,-4788649.206025924,4202052.251432896,-2.93901,1.73321,-0.813297,-18.0,86.0,93.125,-0.046875,-8.125,7.07812,0.0136719,0.0117188,0.0390625,4,0,41.44442485610961,-91.75731115830531,12415.614234413852,-7.578496531245294,-1.4084530264242674,19.879432328325983,199.29,10022.661867135384,12264.339701119052,150,False,17.59309111394307,False,149.19339093480417,173.87064222835792,False,36.89025288177125,False,False
1,1970-07-23 10:27:52.066287049,2025-09-12,2025-09-26 14:26:46.628,AH,C,3202134004,JASSM,3,126,76,2,2,1,225,9,2,0,1,26,0,0,0,0,-169946.03576834625,-4772620.905244674,4218617.339323521,-2.51419,-0.702851,0.608032,57.5,-48.5,-52.25,0.0,0.0,0.0,0.0,0.0,0.0,2,0,41.64704297455091,-92.03935708172948,10997.37550187844,139.85411758000615,-0.0042258204149932,0.0040375770212369,,10022.661867135384,12264.339701119052,150,1,2025-09-12,2025-09-26 14:26:46.622,AH,C,908926448,HAWK11,1,1,73,2,1,1,225,2,1,0,0,12,1,225,2,1,-146933.18786795562,-4788565.477510299,4202142.577604771,-2.90967,1.69476,-0.817899,-14.25,86.125,93.875,-0.125,-7.9375,7.0625,-0.0195312,0.0136719,0.0195312,4,0,41.4455298388162,-91.75752236456113,12407.088561108669,-6.046957807454374,-1.3417425043214248,19.91960092914263,199.474,10022.661867135384,12264.339701119052,150,False,17.48880557956935,False,147.49259755809254,173.71837055578558,False,38.74763692147648,False,False
1,1970-07-23 10:27:52.077300852,2025-09-12,2025-09-26 14:26:47.730,AH,C,3203386714,JASSM,3,126,76,2,2,1,225,9,2,0,1,26,0,0,0,0,-169885.69592459625,-4772672.036104049,4218562.296354771,-2.51419,-0.702851,0.608032,57.5,-48.5,-52.25,0.0,0.0,0.0,0.0,0.0,0.0,2,0,41.64638010512367,-92.03861179105236,10997.380122836596,139.85461285233998,-0.0033600509596187,0.0040359201824372,,10022.661867135384,12264.339701119052,150,1,2025-09-12,2025-09-26 14:26:47.623,AH,C,909880846,HAWK11,1,1,73,2,1,1,225,2,1,0,0,12,1,225,2,1,-146943.21325858062,-4788495.377900924,4202218.692839146,-2.97564,1.66207,-0.819529,-11.75,85.25,95.25,-0.015625,-8.15625,7.04688,-0.146484,0.00585938,0.03125,4,0,41.446458754171005,-91.75766792104872,12400.827636994769,-4.764252569736072,-1.3801953877890225,14.741874645985348,199.742,10022.661867135384,12264.339701119052,150,False,17.39406180450077,False,146.35039103711284,173.58253328844046,False,40.03938318659228,False,False
1,1970-07-23 10:27:52.087422836,2025-09-12,2025-09-26 14:26:48.742,AH,C,3204639412,JASSM,3,126,76,2,2,1,225,9,2,0,1,26,0,0,0,0,-169825.3565691275,-4772723.165010299,4218507.249479771,-2.51419,-0.702851,0.608032,57.5,-48.5,-52.25,0.0,0.0,0.0,0.0,0.0,0.0,2,0,41.6457172160886,-92.03786652234147,10997.376261596912,139.85510810360898,-0.0024942733901028,0.004034250018165,,10022.661867135384,12264.339701119052,150,1,2025-09-12,2025-09-26 14:26:48.826,AH,C,911391978,HAWK11,1,1,73,2,1,1,225,2,1,0,0,12,1,225,2,1,-146955.34607108062,-4788385.998994674,4202339.085417271,-3.0602,1.62286,-0.828829,-8.5,85.625,95.625,0.03125,-8.15625,7.21875,-0.0332031,0.015625,-0.00195312,4,0,41.44791979150119,-91.75785308491504,12394.338804340005,-3.20190789700864,-0.9643821486268208,8.215802534409512,199.999,10022.661867135384,12264.339701119052,150,True,17.27618045299238,False,144.88794961569485,173.37276509683664,False,41.71134705159721,False,False
1,1970-07-23 10:27:52.097461670,2025-09-12,2025-09-26 14:26:49.746,AH,C,3205892112,JASSM,3,126,76,2,2,1,225,9,2,0,1,26,0,0,0,0,-169765.01721365875,-4772774.291963424,4218452.202604771,-2.51419,-0.702851,0.608032,57.5,-48.5,-52.25,0.0,0.0,0.0,0.0,0.0,0.0,2,0,41.645054333817015,-92.03712126974122,10997.372392018711,139.8556033377034,-0.0016285050440176,0.0040325868749969,,10022.661867135384,12264.339701119052,150,1,2025-09-12,2025-09-26 14:26:49.732,AH,C,912545210,HAWK11,1,1,73,2,1,1,225,2,1,0,0,12,1,225,2,1,-146961.84216483062,-4788303.741182174,4202430.819792271,-3.07908,1.62094,-0.833623,-6.625,85.25,96.0,0.0,-7.65625,6.65625,-0.0371094,0.00390625,0.0117188,4,0,41.44902708907191,-91.7579609216246,12391.862290871317,-3.111244608815859,-0.6936630077924899,7.05119873633351,200.146,10022.661867135384,12264.339701119052,150,True,17.175592486772466,False,144.0472011081208,173.20335997440083,False,42.725392800989404,False,False
1,1970-07-23 10:27:52.107782172,2025-09-12,2025-09-26 14:26:50.778,AH,C,3207085158,JASSM,3,126,76,2,2,1,225,9,2,0,1,26,0,0,0,0,-169707.5510271353,-4772822.985322799,4218399.776823521,-2.51419,-0.702851,0.608032,57.5,-48.5,-52.25,0.0,0.0,0.0,0.0,0.0,0.0,2,0,41.6444230054682,-92.03641151752392,10997.375237401766,139.85607497512532,-0.0008039570783249,0.0040309993378357,,10022.661867135384,12264.339701119052,150,1,2025-09-12,2025-09-26 14:26:50.732,AH,C,913738208,HAWK11,1,1,73,2,1,1,225,2,1,0,0,12,1,225,2,1,-146967.67419608062,-4788217.889619674,4202527.364714146,-3.13162,1.59515,-0.840813,-5.5,84.875,96.375,-0.3125,-7.73438,6.78125,-0.146484,-0.00195312,0.00585938,4,0,41.45018835088606,-91.75806214201216,12390.957917504218,-2.102264999359193,-0.3314010232075956,2.934321378270405,200.256,10022.661867135384,12264.339701119052,150,True,17.07561502722404,False,143.5384116299544,173.02430217042968,False,43.41695592698412,False,False
1,1970-07-23 10:27:52.118262353,2025-09-12,2025-09-26 14:26:51.826,AH,C,3208337858,JASSM,3,126,76,2,2,1,225,9,2,0,1,26,0,0,0,0,-169647.21154959625,-4772874.110322799,4218344.729948521,-2.51419,-0.702851,0.608032,57.5,-48.5,-52.25,0.0,0.0,0.0,0.0,0.0,0.0,2,0,41.64376012531187,-92.0356662941187,10997.375898197764,139.85657017719083,6.180282503047363e-05,0.0040293440416073,,10022.661867135384,12264.339701119052,150,1,2025-09-12,2025-09-26 14:26:51.782,AH,C,914573308,HAWK11,1,1,73,2,1,1,225,2,1,0,0,12,1,225,2,1,-146971.03747733062,-4788158.381807174,4202594.778776646,3.08848,1.59227,-0.844744,-5.125,84.5,96.625,-0.1875,-7.89062,6.79688,-0.046875,0.00585938,-0.0078125,4,0,41.45099673384488,-91.75812418532676,12391.358137562816,-1.9836943723141225,-0.1099543650415075,-0.8036383160927147,200.366,10022.661867135384,12264.339701119052,150,True,16.989052623737848,False,143.36529369244627,172.89008120232359,False,43.72723142957793,False,False
1,1970-07-23 10:27:52.131421530,2025-09-12,2025-09-26 14:26:53.142,AH,C,3209590820,JASSM,3,126,76,2,2,1,225,9,2,0,1,26,0,0,0,0,-169586.8593767447,-4772925.247041549,4218289.667448521,-2.51419,-0.702851,0.608128,57.5,-48.5,-52.25,0.0,0.0,0.0,0.0,0.0,0.0,2,0,41.6430970678377,-92.03492092879064,10997.3748804131,139.86029087522024,-0.003520884226041,0.0040275943783666,,10022.661867135384,12264.339701119052,150,1,2025-09-12,2025-09-26 14:26:53.028,AH,C,916561640,HAWK11,1,1,73,2,1,1,225,2,1,0,0,12,1,225,2,1,-146979.11950858062,-4788018.284150924,4202754.767057896,3.0902,1.60406,-0.851935,-4.875,83.875,96.75,-0.1875,-7.51562,6.5625,0.0117188,0.0,0.015625,4,0,41.45290847128857,-91.75827221835492,12395.103091543406,-2.412219799254088,0.3229834416775661,-0.1986329118699466,200.525,10022.661867135384,12264.339701119052,150,True,16.85485151604107,False,143.24909250632246,172.598734113474,False,44.13841306639,False,False
1,1970-07-23 10:27:52.140309191,2025-09-12,2025-09-26 14:26:54.030,AH,C,3210902908,JASSM,3,126,76,2,2,1,225,9,2,0,1,26,0,0,0,0,-169523.6591814322,-4772978.793916549,4218232.007292271,-2.51419,-0.702851,0.608128,57.5,-48.5,-52.25,0.0,0.0,0.0,0.0,0.0,0.0,2,0,41.6424027382577,-92.03414040728414,10997.373241914753,139.86080951934773,-0.0026140695305283,0.004025903620364,,10022.661867135384,12264.339701119052,150,1,2025-09-12,2025-09-26 14:26:54.178,AH,C,917834172,HAWK11,1,1,73,2,1,1,225,2,1,0,0,12,1,225,2,1,-146984.00036795562,-4787928.276338424,4202858.091276646,3.09135,1.60291,-0.856632,-4.625,83.75,96.5,-0.125,-7.25,6.375,-0.015625,-0.00585938,0.0078125,4,0,41.4541403757082,-91.75836360406876,12398.665076708756,-2.3562566265201674,0.5910224673523587,-0.1819666054844519,200.708,10022.661867135384,12264.339701119052,150,True,16.74803311263913,False,143.14322155390923,172.39845326431353,False,44.444394550258096,False,False
1,1970-07-23 10:27:52.150443017,2025-09-12,2025-09-26 14:26:55.044,AH,C,3212155606,JASSM,3,126,76,2,2,1,225,9,2,0,1,26,0,0,0,0,-169463.31970389312,-4773029.916963424,4218176.956511021,-2.51419,-0.702755,0.608128,57.5,-48.5,-52.25,0.0,0.0,0.0,0.0,0.0,0.0,2,0,41.64173982854748,-92.0333952312644,10997.375159663216,139.85765591561454,-0.004393907917906,0.0008870306110574,,10022.661867135384,12264.339701119052,150,1,2025-09-12,2025-09-26 14:26:55.028,AH,C,918947636,HAWK11,1,1,73,2,1,1,225,2,1,0,0,12,1,225,2,1,-146988.11364920562,-4787850.778291549,4202947.054167271,3.06902,1.60416,-0.860467,-4.5,83.375,96.375,-0.078125,-7.48438,6.39062,-0.0234375,0.00195312,-0.00195312,4,0,41.45520107394249,-91.7584412246885,12401.731339519314,-2.3924869423231105,0.8137810002448603,-1.408255348789644,200.708,10022.661867135384,12264.339701119052,150,True,16.65121843242065,False,143.08865783347775,172.2214264684467,False,44.67727671085516,False,False
