Subject_cm,Timestamp,SampleDate_cm,SampleTime_cm,Configuration_cm,Scenario_cm,DisTime_cm,MarkingTxt_cm,Application_cm,EntId_cm,Site_cm,ExerciseId_cm,ForceId_cm,Category_cm,Country_cm,Domain_cm,Kind_cm,Extra_cm,Specific_cm,Subcategory_cm,AltCategory_cm,AltCountry_cm,AltDomain_cm,AltKind_cm,ECEF_X_cm,ECEF_Y_cm,ECEF_Z_cm,OriPhi_cm,OriPsi_cm,OriTheta_cm,LinVelX_cm,LinVelY_cm,LinVelZ_cm,LinAccX_cm,LinAccY_cm,LinAccZ_cm,AngVelX_cm,AngVelY_cm,AngVelZ_cm,DrAlg_cm,Appearance_cm,Latitude_cm,Longitude_cm,Altitude_cm,Heading_cm,Pitch_cm,Roll_cm,CalibratedAirspeed_cm,CM_Altitude_Lead_cm,CM_Altitude_Wing_cm,CM_Airspeed_cm,Subject_ac,SampleDate_ac,SampleTime_ac,Configuration_ac,Scenario_ac,DisTime_ac,MarkingTxt_ac,Application_ac,EntId_ac,Site_ac,ExerciseId_ac,ForceId_ac,Category_ac,Country_ac,Domain_ac,Kind_ac,Extra_ac,Specific_ac,Subcategory_ac,AltCategory_ac,AltCountry_ac,AltDomain_ac,AltKind_ac,ECEF_X_ac,ECEF_Y_ac,ECEF_Z_ac,OriPhi_ac,OriPsi_ac,OriTheta_ac,LinVelX_ac,LinVelY_ac,LinVelZ_ac,LinAccX_ac,LinAccY_ac,LinAccZ_ac,AngVelX_ac,AngVelY_ac,AngVelZ_ac,DrAlg_ac,Appearance_ac,Latitude_ac,Longitude_ac,Altitude_ac,Heading_ac,Pitch_ac,Roll_ac,CalibratedAirspeed_ac,CM_Altitude_Lead_ac,CM_Altitude_Wing_ac,CM_Airspeed_ac,Bank_Angle_Condition,distance_nm,Distance_Condition,angle_between_vel,angle_between_pos,Cone_Condition,angle_between_pos_nose,Nose_Cone_Condition,Intercept_Criteria
1,1970-07-23 09:33:35.681492736,2025-09-08,2025-09-26 19:59:28.149,HH,A,2180349162,JASSM,3,112,76,2,2,1,225,9,2,0,1,26,0,0,0,0,-104333.63347779664,-4798916.811598119,4191477.043425084,2.29972,3.00238,-0.132498,-83.25,11.625,11.25,0.0,0.0,0.0,0.0,0.0,0.0,2,0,41.318598813244975,-91.24547590587568,12000.001917399446,-79.86753046237304,-0.0015535363311529,-0.0012697440123257,,11336.471106829373,12851.681693794117,150,1,2025-09-08,2025-09-26 19:59:28.297,HH,A,3246728056,HAWK11,1,1,73,2,1,1,225,2,1,0,0,12,1,225,2,1,-141132.02185233062,-4794934.583955611,4195325.379362583,2.82722,2.65925,-0.485793,-95.375,44.625,48.0,0.015625,-9.125,7.35938,-0.0644531,0.0292969,0.0292969,4,0,41.36266691978821,-91.68593233943662,12852.252256008134,-52.68128916169685,1.0378500732183646,24.440452021605445,185.689,11336.471106829373,12851.681693794117,150,False,20.023625621256546,False,23.520739112565288,177.56157221073872,False,154.04667495306725,False,False
1,1970-07-23 09:33:35.692393555,2025-09-08,2025-09-26 19:59:29.239,HH,A,2181602312,JASSM,3,112,76,2,2,1,225,9,2,0,1,26,0,0,0,0,-104421.25847779664,-4798904.532301244,4191488.840300084,2.29972,3.00238,-0.132498,-83.25,11.625,11.25,0.0,0.0,0.0,0.0,0.0,0.0,2,0,41.31874016386709,-91.24652478222475,12000.001032942411,-79.86822297922443,-0.0007531978592102,-0.0012703089678825,,11336.471106829373,12851.681693794117,150,1,2025-09-08,2025-09-26 19:59:29.207,HH,A,3247722222,HAWK11,1,1,73,2,1,1,225,2,1,0,0,12,1,225,2,1,-141210.62927420562,-4794896.747041549,4195366.706511021,2.74285,2.63567,-0.508035,-92.625,46.125,50.25,0.25,-8.82812,7.26562,-0.109375,0.0273438,0.0371094,4,0,41.36315717488491,-91.6868841277019,12854.419382485154,-50.94570789056184,1.186423114204449,18.99596491772225,184.308,11336.471106829373,12851.681693794117,150,False,20.02202189487715,False,25.397952395940024,177.62288016142833,False,152.23219739846274,False,False
1,1970-07-23 09:33:35.703375836,2025-09-08,2025-09-26 19:59:30.337,HH,A,2182973860,JASSM,3,112,76,2,2,1,225,9,2,0,1,26,0,0,0,0,-104517.16082154664,-4798891.090894994,4191501.751432896,2.29972,3.00238,-0.132402,-83.25,11.75,11.25,0.0,0.0,0.0,0.0,0.0,0.0,2,0,41.31889486807643,-91.24767274461786,11999.999169692212,-79.87307813805646,-0.0035361916679299,-0.0012708170422585,,11336.471106829373,12851.681693794117,150,1,2025-09-08,2025-09-26 19:59:30.005,HH,A,3248756154,HAWK11,1,1,73,2,1,1,225,2,1,0,0,12,1,225,2,1,-141288.92419608062,-4794857.015596236,4195411.092253208,2.6745,2.61285,-0.530374,-90.375,46.625,52.375,0.078125,-8.375,7.0625,-0.078125,0.0078125,0.0273438,4,0,41.36367939445094,-91.6878328656094,12858.536949369322,-49.24758881578964,1.3926405877473205,14.468868471373588,183.575,11336.471106829373,12851.681693794117,150,False,20.01602583862285,False,26.798795669816922,177.6286064713216,False,150.84847941400238,False,False
1,1970-07-23 09:33:35.714446005,2025-09-08,2025-09-26 19:59:31.444,HH,A,2184226928,JASSM,3,112,76,2,2,1,225,9,2,0,1,26,0,0,0,0,-104604.77996217164,-4798878.810621557,4191513.546354771,2.29972,3.00229,-0.132402,-83.25,11.75,11.25,0.0,0.0,0.0,0.0,0.0,0.0,2,0,41.319036192032215,-91.24872156078868,11999.99990218905,-79.87014480766338,-0.0067959789160922,-0.0019967013133013,,11336.471106829373,12851.681693794117,150,1,2025-09-08,2025-09-26 19:59:31.501,HH,A,3250307052,HAWK11,1,1,73,2,1,1,225,2,1,0,0,12,1,225,2,1,-141405.02185233062,-4794794.465791549,4195481.895964146,2.60317,2.60096,-0.534305,-87.625,48.0,54.375,-0.40625,-7.54688,6.4375,-0.0625,-0.0078125,0.0117188,4,0,41.36450902954937,-91.68924098490368,12866.518356775883,-48.657919162287904,1.178236384284458,10.049533128501812,181.73,11336.471106829373,12851.681693794117,150,False,20.037609485054716,False,28.610835837893674,177.73894803942352,False,149.14884092209883,False,False
1,1970-07-23 09:33:35.725473484,2025-09-08,2025-09-26 19:59:32.547,HH,A,2185598958,JASSM,3,112,76,2,2,1,225,9,2,0,1,26,0,0,0,0,-104700.71746217164,-4798865.363355932,4191526.460417271,2.29972,3.00229,-0.132402,-83.25,11.75,11.25,0.0,0.0,0.0,0.0,0.0,0.0,2,0,41.31919092437487,-91.24986995464177,12000.001217618064,-79.87090303721745,-0.0059197152692124,-0.0019973322113428,,11336.471106829373,12851.681693794117,150,1,2025-09-08,2025-09-26 19:59:32.499,HH,A,3251500052,HAWK11,1,1,73,2,1,1,225,2,1,0,0,12,1,225,2,1,-141490.99255545562,-4794746.402314986,4195536.600065708,2.5535,2.58342,-0.545714,-86.125,48.875,55.125,-0.328125,-7.28125,6.35938,-0.0527344,-0.00195312,0.0117188,4,0,41.36514909440218,-91.69028433916868,12873.070612952226,-47.57841668326551,1.1134868701982834,6.708868466538193,181.033,11336.471106829373,12851.681693794117,150,True,20.03686028428896,False,29.535839133235946,177.82291981965145,False,148.30758426664994,False,False
1,1970-07-23 09:33:35.741511848,2025-09-08,2025-09-26 19:59:34.151,HH,A,2186970568,JASSM,3,112,76,2,2,1,225,9,2,0,1,26,0,0,0,0,-104796.62371217164,-4798851.918043432,4191539.369596959,2.29972,3.00229,-0.132402,-83.25,11.75,11.25,0.0,0.0,0.0,0.0,0.0,0.0,2,0,41.31934560470688,-91.25101798048668,11999.99999006276,-79.87166102613013,-0.0050437348749292,-0.0019979724695581,,11336.471106829373,12851.681693794117,150,1,2025-09-08,2025-09-26 19:59:34.109,HH,A,3253567916,HAWK11,1,1,73,2,1,1,225,2,1,0,0,12,1,225,2,1,-141638.68200858062,-4794661.105439986,4195632.987761021,2.48677,2.56769,-0.546864,-84.625,49.75,55.625,0.125,-6.64062,5.96875,-0.0683594,-0.00585938,0.0078125,4,0,41.366281144126845,-91.69207773063604,12882.854974553606,-46.9488457554327,0.6690165812753777,2.4274930183120764,180.031,11336.471106829373,12851.681693794117,150,True,20.073761945162417,False,30.394280605120002,177.9762530109821,False,147.60223788510575,False,False
1,1970-07-23 09:33:35.747229554,2025-09-08,2025-09-26 19:59:34.722,HH,A,2188223268,JASSM,3,112,76,2,2,1,225,9,2,0,1,26,0,0,0,0,-104884.21746217164,-4798839.638746557,4191551.157682896,2.29972,3.00229,-0.132402,-83.25,11.75,11.25,0.0,0.0,0.0,0.0,0.0,0.0,2,0,41.31948684946459,-91.25206650784584,11999.999999342375,-79.87235332279107,-0.0042436819680766,-0.0019985385845729,,11336.471106829373,12851.681693794117,150,1,2025-09-08,2025-09-26 19:59:34.907,HH,A,3254562082,HAWK11,1,1,73,2,1,1,225,2,1,0,0,12,1,225,2,1,-141708.77966483062,-4794619.162080611,4195679.129362583,2.44459,2.55858,-0.544084,-84.25,50.75,55.25,-0.09375,-6.53125,5.9375,-0.0664062,-0.0175781,0.00976562,4,0,41.36682976566902,-91.69292946176628,12884.767551416946,-46.70870238303064,0.2618549964491851,-0.2582650093179181,179.738,11336.471106829373,12851.681693794117,150,True,20.06838406516027,False,30.65667614456228,178.04863784080638,False,147.4083366235398,False,False
1,1970-07-23 09:33:35.758373232,2025-09-08,2025-09-26 19:59:35.837,HH,A,2189476314,JASSM,3,112,76,2,2,1,225,9,2,0,1,26,0,0,0,0,-104971.83464967164,-4798827.354566869,4191562.949675084,2.29972,3.00229,-0.132402,-83.25,11.75,11.25,0.0,0.0,0.0,0.0,0.0,0.0,2,0,41.3196281370277,-91.25311532070594,12000.001792700605,-79.87304580990484,-0.0034434121402584,-0.001999119103334,,11336.471106829373,12851.681693794117,150,1,2025-09-08,2025-09-26 19:59:35.907,HH,A,3255635780,HAWK11,1,1,73,2,1,1,225,2,1,0,0,12,1,225,2,1,-141784.58435233062,-4794572.603486861,4195729.252409458,2.43472,2.5582,-0.546001,-84.0,51.25,55.125,-0.140625,-6.8125,6.28125,0.0410156,-0.00585938,-0.00585938,4,0,41.36743170000542,-91.6938509767222,12884.374013515537,-46.62470798242691,0.3353365627850162,-0.8349682892488562,179.945,11336.471106829373,12851.681693794117,150,True,20.066594765438044,False,30.829734105862517,178.12885406544564,False,147.31426127976098,False,False
1,1970-07-23 09:33:35.771135845,2025-09-08,2025-09-26 19:59:37.113,HH,A,2190731580,JASSM,3,112,76,2,2,1,225,9,2,0,1,26,0,0,0,0,-105059.60613404664,-4798815.046949682,4191574.761198521,2.29972,3.00229,-0.132402,-83.25,11.75,11.25,0.0,0.0,0.0,0.0,0.0,0.0,2,0,41.31976966619195,-91.2541659855746,12000.000569606362,-79.87373952177764,-0.0026417322638227,-0.0019997028824836,,11336.471106829373,12851.681693794117,150,1,2025-09-08,2025-09-26 19:59:37.110,HH,A,3257186678,HAWK11,1,1,73,2,1,1,225,2,1,0,0,12,1,225,2,1,-141893.38122733062,-4794504.970674361,4195800.755339146,2.37211,2.55283,-0.539098,-84.0,52.125,54.375,0.109375,-6.76562,6.25,-0.0292969,-0.00390625,0.0078125,4,0,41.36829748065559,-91.69517387536028,12880.880174621523,-46.67459220545504,-0.1360275192183656,-4.580870342554979,179.909,11336.471106829373,12851.681693794117,150,True,20.084947191728517,False,30.839602994153058,178.24617543070727,False,147.4183115750417,False,False
1,1970-07-23 09:33:35.779463043,2025-09-08,2025-09-26 19:59:37.946,HH,A,2192041018,JASSM,3,112,76,2,2,1,225,9,2,0,1,26,0,0,0,0,-105151.16668092164,-4798802.208082494,4191587.081511021,2.29972,3.00229,-0.132402,-83.25,11.75,11.25,0.0,0.0,0.0,0.0,0.0,0.0,2,0,41.319917287003925,-91.25526201208407,12000.001424137628,-79.8744631862086,-0.0018054455846397,-0.0020003040590185,,11336.471106829373,12851.681693794117,150,1,2025-09-08,2025-09-26 19:59:37.703,HH,A,3257942244,HAWK11,1,1,73,2,1,1,225,2,1,0,0,12,1,225,2,1,-141946.08239920562,-4794472.197236861,4195834.835417271,2.35111,2.55772,-0.539482,-84.25,52.25,54.0,-0.25,-6.92188,6.23438,-0.0273438,-0.00976562,-0.00585938,4,0,41.36871317700499,-91.69581470409692,12877.95649312786,-46.84630151415527,0.0347117433718347,-5.6398231965216565,180.116,11336.471106829373,12851.681693794117,150,True,20.066947811852636,False,30.682912989236556,178.30016657532138,False,147.62823063575968,False,False
1,1970-07-23 09:33:35.790453188,2025-09-08,2025-09-26 19:59:39.045,HH,A,2193353370,JASSM,3,112,76,2,2,1,225,9,2,0,1,26,0,0,0,0,-105242.93035279664,-4798789.338941869,4191599.4281907086,2.29972,3.00229,-0.132402,-83.25,11.75,11.25,0.0,0.0,0.0,0.0,0.0,0.0,2,0,41.320065228948735,-91.25636047553454,12000.000260042429,-79.87518846179516,-0.000967302574462,-0.0020009105173081,,11336.471106829373,12851.681693794117,150,1,2025-09-08,2025-09-26 19:59:39.109,HH,A,3259572676,HAWK11,1,1,73,2,1,1,225,2,1,0,0,12,1,225,2,1,-142061.97302420562,-4794401.644502486,4195908.786589146,2.29062,2.59272,-0.549069,-85.25,50.625,54.125,0.0625,-8.32812,7.84375,-0.0253906,0.00195312,0.0,4,0,41.36961157679478,-91.69722338837175,12873.118879950076,-47.803854641632896,1.5621804880703938,-8.081007111777732,180.776,11336.471106829373,12851.681693794117,150,True,20.08734727110649,False,29.967048223405417,178.42096036486356,False,148.4705328095044,False,False
1,1970-07-23 09:33:35.801490203,2025-09-08,2025-09-26 19:59:40.149,HH,A,2194665720,JASSM,3,112,76,2,2,1,225,9,2,0,1,26,0,0,0,0,-105334.69402467164,-4798776.469801244,4191611.7738938336,2.29972,3.00229,-0.132402,-83.25,11.75,11.25,0.0,0.0,0.0,0.0,0.0,0.0,2,0,41.32021315380688,-91.25745894395293,12000.001466936304,-79.87591374280083,-0.0001291607461318,-0.0020015104379564,,11336.471106829373,12851.681693794117,150,1,2025-09-08,2025-09-26 19:59:40.007,HH,A,3260527076,HAWK11,1,1,73,2,1,1,225,2,1,0,0,12,1,225,2,1,-142130.15271170562,-4794361.814424361,4195952.261198521,2.30164,2.59569,-0.542646,-85.875,49.625,54.0,0.09375,-7.375,6.96875,0.0429688,0.00195312,-0.00976562,4,0,41.370129924949175,-91.698051557175,12874.336754316448,-48.15491133950306,1.3789687429771302,-7.369854089281729,180.324,11336.471106829373,12851.681693794117,150,True,20.078559882305587,False,29.47127765662786,178.48833644034121,False,149.03739143926796,False,False
1,1970-07-23 09:33:35.812352834,2025-09-08,2025-09-26 19:59:41.235,HH,A,2195918422,JASSM,3,112,76,2,2,1,225,9,2,0,1,26,0,0,0,0,-105422.28777467164,-4798764.183668432,4191623.557096959,2.29972,3.00219,-0.132306,-83.25,11.75,11.25,0.0,0.0,0.0,0.0,0.0,0.0,2,0,41.32035434747673,-91.25850750090746,11999.999170520256,-79.877077333228,-0.007048173541279,-0.0027267543095947,,11336.471106829373,12851.681693794117,150,1,2025-09-08,2025-09-26 19:59:41.109,HH,A,3261958674,HAWK11,1,1,73,2,1,1,225,2,1,0,0,12,1,225,2,1,-142233.14685233062,-4794302.744111861,4196016.731901646,2.32312,2.60892,-0.536318,-86.375,49.0,53.5,-0.109375,-7.23438,6.70312,0.0117188,0.0,-0.0078125,4,0,41.37089829112625,-91.69930224786292,12876.277757593149,-48.88483384390469,1.532518259576045,-5.76844587012598,179.945,11336.471106829373,12851.681693794117,150,True,20.093169056234625,False,29.002562858166744,178.5895034639292,False,149.60944783993182,False,False
1,1970-07-23 09:33:35.823191398,2025-09-08,2025-09-26 19:59:42.319,HH,A,2197171344,JASSM,3,112,76,2,2,1,225,9,2,0,1,26,0,0,0,0,-105509.89519654664,-4798751.894605932,4191635.3422532086,2.29972,3.00219,-0.132306,-83.25,11.75,11.25,0.0,0.0,0.0,0.0,0.0,0.0,2,0,41.32049556040898,-91.25955622631636,11999.998716500488,-79.87776977449703,-0.0062479918579612,-0.0027273407267019,,11336.471106829373,12851.681693794117,150,1,2025-09-08,2025-09-26 19:59:42.405,HH,A,3263390272,HAWK11,1,1,73,2,1,1,225,2,1,0,0,12,1,225,2,1,-142335.87341483062,-4794244.827119674,4196079.938932896,2.35073,2.61084,-0.539386,-86.75,48.5,53.0,0.0625,-7.26562,6.78125,0.0351562,0.0,0.00585938,4,0,41.371651301019554,-91.70054936390332,12878.30669842791,-48.84099168915227,1.7281588790815507,-4.128825570567661,179.909,11336.471106829373,12851.681693794117,150,True,20.107534546043226,False,28.60526370938204,178.6878061759065,False,150.1070143399575,False,False
1,1970-07-23 09:33:35.833449604,2025-09-08,2025-09-26 19:59:43.344,HH,A,2198483466,JASSM,3,112,76,2,2,1,225,9,2,0,1,26,0,0,0,0,-105601.64324342164,-4798739.024488744,4191647.684050084,2.29972,3.00219,-0.132306,-83.25,11.75,11.25,0.0,0.0,0.0,0.0,0.0,0.0,2,0,41.32064343620166,-91.26065452297232,12000.001261018677,-79.87849494823215,-0.005409991033208,-0.0027279537327854,,11336.471106829373,12851.681693794117,150,1,2025-09-08,2025-09-26 19:59:43.405,HH,A,3264702570,HAWK11,1,1,73,2,1,1,225,2,1,0,0,12,1,225,2,1,-142432.01599295562,-4794191.148408736,4196138.435026646,2.36952,2.6162,-0.535839,-86.75,48.25,52.75,0.0,-7.04688,6.59375,0.0117188,0.0,0.0,4,0,41.37234845197912,-91.7017163885288,12880.07813661996,-49.17457699692658,1.750728035837488,-2.9046957134419307,179.652,11336.471106829373,12851.681693794117,150,True,20.115606995758473,False,28.46686990958676,178.77788437252613,False,150.33744088436535,False,False
1,1970-07-23 09:33:35.844471828,2025-09-08,2025-09-26 19:59:44.447,HH,A,2199736168,JASSM,3,112,76,2,2,1,225,9,2,0,1,26,0,0,0,0,-105689.23699342164,-4798726.735426244,4191659.465300084,2.29972,3.00219,-0.132306,-83.25,11.75,11.25,0.0,0.0,0.0,0.0,0.0,0.0,2,0,41.3207846049537,-91.26170309448884,11999.999975060156,-79.87918729188084,-0.0046099343460818,-0.0027285373789697,,11336.471106829373,12851.681693794117,150,1,2025-09-08,2025-09-26 19:59:44.515,HH,A,3265975102,HAWK11,1,1,73,2,1,1,225,2,1,0,0,12,1,225,2,1,-142524.06286795562,-4794139.792939986,4196193.872526646,2.36799,2.60806,-0.534401,-86.875,48.375,52.25,-0.0625,-6.82812,6.375,0.0253906,-0.00390625,0.0,4,0,41.37301184939519,-91.70283370775232,12880.64269139374,-48.92738393874971,1.4251735242229946,-3.223767417556331,179.322,11336.471106829373,12851.681693794117,150,True,20.123480762919492,False,28.309265313003504,178.8632434500407,False,150.58038995513212,False,False
1,1970-07-23 09:33:35.855490516,2025-09-08,2025-09-26 19:59:45.549,HH,A,2201108170,JASSM,3,112,76,2,2,1,225,9,2,0,1,26,0,0,0,0,-105785.17058717164,-4798713.275465307,4191672.3676438336,2.29972,3.00219,-0.132306,-83.25,11.75,11.25,0.0,0.0,0.0,0.0,0.0,0.0,2,0,41.32093920445436,-91.26285150642784,11999.999850960196,-79.87994555971812,-0.0037337035581092,-0.002729177474029,,11336.471106829373,12851.681693794117,150,1,2025-09-08,2025-09-26 19:59:45.515,HH,A,3266929502,HAWK11,1,1,73,2,1,1,225,2,1,0,0,12,1,225,2,1,-142593.72497733062,-4794100.861299361,4196235.354948521,2.40193,2.60508,-0.53162,-87.0,48.25,52.25,0.078125,-6.76562,6.34375,0.0390625,0.0,-0.00976562,4,0,41.373511100588,-91.7036793457213,12879.887875292065,-48.92197825914751,1.209522984223934,-1.3655369917871507,179.444,11336.471106829373,12851.681693794117,150,True,20.113190012636885,False,28.23657281612224,178.92644715295276,False,150.71825441900106,False,False
1,1970-07-23 09:33:35.864410966,2025-09-08,2025-09-26 19:59:46.441,HH,A,2202181912,JASSM,3,112,76,2,2,1,225,9,2,0,1,26,0,0,0,0,-105860.25066529664,-4798702.741285619,4191682.464323521,2.29982,3.00219,-0.132306,-83.25,11.75,11.25,0.0,0.0,0.0,0.0,0.0,0.0,2,0,41.32106018347466,-91.26375028671671,12000.000782157524,-79.88053900361676,-0.0030479441317017,0.0027618000939851,,11336.471106829373,12851.681693794117,150,1,2025-09-08,2025-09-26 19:59:46.109,HH,A,3267844134,HAWK11,1,1,73,2,1,1,225,2,1,0,0,12,1,225,2,1,-142660.22497733062,-4794063.263643111,4196275.024870396,2.58725,2.60652,-0.539003,-86.625,48.875,52.0,-0.03125,-7.35938,6.73438,0.375,0.0234375,0.00976562,4,0,41.37399073525064,-91.7044867644598,12878.257959019114,-48.698193489012766,1.575867738975768,9.300280113252336,179.872,11336.471106829373,12851.681693794117,150,True,20.1124744325201,False,28.44638402482311,178.98769249179534,False,150.5684444503631,False,False
1,1970-07-23 09:33:35.873474141,2025-09-08,2025-09-26 19:59:47.347,HH,A,2203255654,JASSM,3,112,76,2,2,1,225,9,2,0,1,26,0,0,0,0,-105935.32879029664,-4798692.206129369,4191692.5610032086,2.29982,3.00219,-0.132306,-83.25,11.75,11.25,0.0,0.0,0.0,0.0,0.0,0.0,2,0,41.32118116153169,-91.26464904727814,12000.00220487808,-79.88113243592055,-0.0023622006985013,0.0027612965916581,,11336.471106829373,12851.681693794117,150,1,2025-09-08,2025-09-26 19:59:47.232,HH,A,3268798534,HAWK11,1,1,73,2,1,1,225,2,1,0,0,12,1,225,2,1,-142728.62732108062,-4794023.529268111,4196317.067839146,2.78954,2.60211,-0.562396,-84.875,49.875,53.375,-0.140625,-7.78125,7.14062,0.142578,0.0175781,0.046875,4,0,41.37449875478376,-91.70531767052404,12876.659139690428,-47.65604503583004,2.4467279188737585,20.795248482689637,179.2,11336.471106829373,12851.681693794117,150,False,20.11309933214042,False,29.68405258766295,179.05289745254294,False,149.3986068614516,False,False
1,1970-07-23 09:33:35.884511441,2025-09-08,2025-09-26 19:59:48.451,HH,A,2204508514,JASSM,3,112,76,2,2,1,225,9,2,0,1,26,0,0,0,0,-106022.93230592164,-4798679.912184057,4191704.340300084,2.29982,3.00219,-0.132306,-83.25,11.75,11.25,0.0,0.0,0.0,0.0,0.0,0.0,2,0,41.32132230840539,-91.265697753862,12000.000764218565,-79.88182487617324,-0.001562054418892,0.0027607143336114,,11336.471106829373,12851.681693794117,150,1,2025-09-08,2025-09-26 19:59:48.313,HH,A,3270588032,HAWK11,1,1,73,2,1,1,225,2,1,0,0,12,1,225,2,1,-142852.52380545562,-4793946.129854049,4196400.075651646,3.02741,2.49569,-0.623947,-79.5,52.875,57.625,-0.375,-8.35938,7.79688,0.115234,0.0273438,0.0449219,4,0,41.37549748013418,-91.70682464740852,12875.281542266022,-41.50947898164355,1.9631267449274763,31.24839318823608,179.909,11336.471106829373,12851.681693794117,150,False,20.141684267912215,False,33.50318940894235,179.18356975676042,False,145.71737598354397,False,False
1,1970-07-23 09:33:35.895374178,2025-09-08,2025-09-26 19:59:49.537,HH,A,2205880798,JASSM,3,112,76,2,2,1,225,9,2,0,1,26,0,0,0,0,-106118.88738404664,-4798666.445387182,4191717.241667271,2.29982,3.00219,-0.132306,-83.25,11.75,11.25,0.0,0.0,0.0,0.0,0.0,0.0,2,0,41.32147689922199,-91.26684644287812,11999.99991178644,-79.8825833350878,-0.0006856273385608,0.0027600777547879,,11336.471106829373,12851.681693794117,150,1,2025-09-08,2025-09-26 19:59:49.552,HH,A,3271462896,HAWK11,1,1,73,2,1,1,225,2,1,0,0,12,1,225,2,1,-142910.50622733062,-4793905.611299361,4196443.882292271,3.10823,2.47172,-0.635643,-76.125,55.125,60.0,0.0,-8.23438,7.6875,0.0625,0.0332031,0.03125,4,0,41.37602390086303,-91.70753144411192,12874.825191247392,-40.22059266483195,1.821981418460984,35.11290716996435,179.371,11336.471106829373,12851.681693794117,150,False,20.12560286181506,False,35.91715488438423,179.25225810966467,False,143.37516110766157,False,False
1,1970-07-23 09:33:35.907141224,2025-09-08,2025-09-26 19:59:50.714,HH,A,2207133568,JASSM,3,112,76,2,2,1,225,9,2,0,1,26,0,0,0,0,-106206.48504029664,-4798654.150465307,4191729.019011021,2.29982,3.0021,-0.132306,-83.25,11.75,11.25,0.0,0.0,0.0,0.0,0.0,0.0,2,0,41.3216180194398,-91.2678950892748,12000.000082590028,-79.87964977838212,-0.0039455661477455,0.0020349356701054,,11336.471106829373,12851.681693794117,150,1,2025-09-08,2025-09-26 19:59:50.719,HH,A,3273411462,HAWK11,1,1,73,2,1,1,225,2,1,0,0,12,1,225,2,1,-143027.70739920562,-4793809.422822799,4196546.280729771,-3.02405,2.34402,-0.675814,-67.0,61.0,65.0,-0.125,-8.70312,8.04688,0.0703125,0.0390625,0.0703125,4,0,41.37726642497071,-91.70896523340608,12868.794244588576,-34.1490654646084,0.3947137450092739,39.410730043256855,179.652,11336.471106829373,12851.681693794117,150,False,20.153527476008847,False,42.032907082675884,179.41869395945733,False,137.43355715270363,False,False
1,1970-07-23 09:33:35.918715267,2025-09-08,2025-09-26 19:59:51.871,HH,A,2208445408,JASSM,3,112,76,2,2,1,225,9,2,0,1,26,0,0,0,0,-106298.21355592164,-4798641.274488744,4191741.351042271,2.29982,3.0021,-0.13221,-83.25,11.75,11.25,0.0,0.0,0.0,0.0,0.0,0.0,2,0,41.3217657870124,-91.26899319207185,12000.000023838482,-79.88447191924824,-0.0067668353809633,0.0020347266798286,,11336.471106829373,12851.681693794117,150,1,2025-09-08,2025-09-26 19:59:51.719,HH,A,3274604460,HAWK11,1,1,73,2,1,1,225,2,1,0,0,12,1,225,2,1,-143091.80896170562,-4793745.919893111,4196612.964323521,-2.96614,2.28017,-0.699591,-60.75,64.625,68.0,0.0625,-8.70312,8.15625,-0.0214844,0.0429688,0.0488281,4,0,41.37808287068064,-91.70975333126128,12861.8537796836,-31.02793939193752,0.0785815663023445,40.4186691542718,179.738,11336.471106829373,12851.681693794117,150,False,20.146397484184796,False,46.03140975840855,179.52636325421207,False,133.55259748793313,False,False
1,1970-07-23 09:33:35.929139498,2025-09-08,2025-09-26 19:59:52.913,HH,A,2209757758,JASSM,3,112,76,2,2,1,225,9,2,0,1,26,0,0,0,0,-106389.97722779664,-4798628.393629369,4191753.6860032086,2.29982,3.0021,-0.13221,-83.25,11.75,11.25,0.0,0.0,0.0,0.0,0.0,0.0,2,0,41.321913588280864,-91.27009172068198,12000.000686712236,-79.8851972644206,-0.0059286920560097,0.0020341167844968,,11336.471106829373,12851.681693794117,150,1,2025-09-08,2025-09-26 19:59:53.109,HH,A,3276274658,HAWK11,1,1,73,2,1,1,225,2,1,0,0,12,1,225,2,1,-143169.63708670562,-4793652.506807174,4196712.292448521,-2.88283,2.14,-0.768908,-50.0,67.875,73.5,-0.296875,-10.5781,10.1719,0.0175781,0.0566406,0.0644531,4,0,41.3792951282418,-91.7107160355163,12853.127119706574,-23.908416011888303,0.819556576010172,39.85907476912876,181.534,11336.471106829373,12851.681693794117,150,False,20.151133121841514,False,52.41256405626884,179.6736828454895,False,127.35704174699693,False,False
1,1970-07-23 09:33:35.939452804,2025-09-08,2025-09-26 19:59:53.945,HH,A,2211129762,JASSM,3,112,76,2,2,1,225,9,2,0,1,26,0,0,0,0,-106485.91082154664,-4798614.924879369,4191766.581511021,2.29982,3.0021,-0.13221,-83.25,11.75,11.25,0.0,0.0,0.0,0.0,0.0,0.0,2,0,41.32206811006653,-91.2712401745792,11999.99992046106,-79.88595557694063,-0.005052458675242,0.0020334641950965,,11336.471106829373,12851.681693794117,150,1,2025-09-08,2025-09-26 19:59:54.108,HH,A,3277427890,HAWK11,1,1,73,2,1,1,225,2,1,0,0,12,1,225,2,1,-143213.71130545562,-4793585.556611861,4196785.696745396,-2.80623,2.05275,-0.79163,-42.0,69.75,77.0,-0.03125,-9.53125,9.1875,0.00585938,0.0390625,0.0390625,4,0,41.3801809954218,-91.7112662458124,12850.823143436355,-20.13135929140841,0.6102807518110167,40.77746257753247,180.666,11336.471106829373,12851.681693794117,150,False,20.13207993211148,False,56.962923002808274,179.7493589258416,False,122.945247127946,False,False
1,1970-07-23 09:33:35.950492929,2025-09-08,2025-09-26 19:59:55.049,HH,A,2212442112,JASSM,3,112,76,2,2,1,225,9,2,0,1,26,0,0,0,0,-106577.67449342164,-4798602.041090307,4191778.915495396,2.29982,3.0021,-0.13221,-83.25,11.75,11.25,0.0,0.0,0.0,0.0,0.0,0.0,2,0,41.32221590068632,-91.27233871411836,12000.00042778133,-79.88668093369985,-0.0042143129237982,0.0020328438486591,,11336.471106829373,12851.681693794117,150,1,2025-09-08,2025-09-26 19:59:55.015,HH,A,3278501590,HAWK11,1,1,73,2,1,1,225,2,1,0,0,12,1,225,2,1,-143247.45349295562,-4793521.744111861,4196855.438932896,-2.73624,1.95535,-0.811572,-34.375,71.625,79.0,-0.125,-9.40625,9.03125,0.00585938,0.0507812,0.0605469,4,0,41.3810253134523,-91.7116919653067,12847.543599187817,-16.092164997431677,0.3862532818238929,40.811111317004894,180.459,11336.471106829373,12851.681693794117,150,False,20.109467889670896,False,61.10613226707962,179.76367457946867,False,118.93406962090914,False,False
1,1970-07-23 09:33:35.961354205,2025-09-08,2025-09-26 19:59:56.135,HH,A,2213695254,JASSM,3,112,76,2,2,1,225,9,2,0,1,26,0,0,0,0,-106665.29754029664,-4798589.738355932,4191790.691862584,2.29982,3.0021,-0.13221,-83.25,11.75,11.25,0.0,0.0,0.0,0.0,0.0,0.0,2,0,41.322357007305904,-91.27338768929432,12000.002041068576,-79.88737356550646,-0.0034139875026246,0.0020322569554078,,11336.471106829373,12851.681693794117,150,1,2025-09-08,2025-09-26 19:59:56.311,HH,A,3280092254,HAWK11,1,1,73,2,1,1,225,2,1,0,0,12,1,225,2,1,-143285.01794608062,-4793423.078096236,4196963.253386021,-2.60681,1.80684,-0.831226,-22.625,73.875,81.5,-0.09375,-9.15625,8.67188,0.0117188,0.0351562,0.0605469,4,0,41.38233324526691,-91.71217578428652,12841.365288723866,-10.202076455439505,0.0265512797513657,42.013188801437664,180.202,11336.471106829373,12851.681693794117,150,False,20.096773086433018,False,67.35002475515661,179.65935203105624,False,112.89907461686617,False,False
1,1970-07-23 09:33:35.973173605,2025-09-08,2025-09-26 19:59:57.317,HH,A,2215066884,JASSM,3,112,76,2,2,1,225,9,2,0,1,26,0,0,0,0,-106761.20574342164,-4798576.269605932,4191803.5805344586,2.29982,3.0021,-0.13221,-83.25,11.75,11.25,0.0,0.0,0.0,0.0,0.0,0.0,2,0,41.32251145335061,-91.27453585574138,11999.999146943865,-79.88813169492752,-0.0025379857458938,0.0020316067159363,,11336.471106829373,12851.681693794117,150,1,2025-09-08,2025-09-26 19:59:57.218,HH,A,3281126186,HAWK11,1,1,73,2,1,1,225,2,1,0,0,12,1,225,2,1,-143301.50036795562,-4793358.249971236,4197033.267057896,-2.52407,1.71346,-0.831513,-15.625,75.25,82.0,-0.234375,-8.67188,8.15625,0.0292969,0.0390625,0.0585938,4,0,41.38318850076583,-91.71239576807172,12834.918856171484,-6.643097608205583,-0.5444571906281778,42.783307580311,179.872,11336.471106829373,12851.681693794117,150,False,20.063167604897696,False,70.97590607088186,179.54767212678567,False,109.41115349988782,False,False
1,1970-07-23 09:33:35.985513089,2025-09-08,2025-09-26 19:59:58.551,HH,A,2216438842,JASSM,3,112,76,2,2,1,225,9,2,0,1,26,0,0,0,0,-106857.13738404664,-4798562.797926244,4191816.4711594586,2.29982,3.0021,-0.13221,-83.25,11.75,11.25,0.0,0.0,0.0,0.0,0.0,0.0,2,0,41.322665915441306,-91.27568430809823,11999.999453766994,-79.888890015469,-0.0016617718083624,0.0020309664253338,,11336.471106829373,12851.681693794117,150,1,2025-09-08,2025-09-26 19:59:58.404,HH,A,3282478252,HAWK11,1,1,73,2,1,1,225,2,1,0,0,12,1,225,2,1,-143312.73278983062,-4793269.069307174,4197125.942839146,-2.39445,1.57923,-0.822693,-5.75,77.25,82.25,0.09375,-9.09375,8.60938,0.00585938,0.0683594,0.0644531,4,0,41.38434250082252,-91.71256175443123,12817.325414793037,-1.4940907072702647,-1.4573319425826954,44.45618986672399,180.581,11336.471106829373,12851.681693794117,150,False,20.030581030287944,False,76.0423399285338,179.37725704818877,False,104.53345641431537,False,False
1,1970-07-23 09:33:35.995431339,2025-09-08,2025-09-26 19:59:59.543,HH,A,2217751168,JASSM,3,112,76,2,2,1,225,9,2,0,1,26,0,0,0,0,-106948.89910279664,-4798549.910230932,4191828.801237584,2.29982,3.0021,-0.13221,-83.25,11.75,11.25,0.0,0.0,0.0,0.0,0.0,0.0,2,0,41.32281366069545,-91.27678284544298,11999.999919177744,-79.88961537942349,-0.0008236431266031,0.0020303461959416,,11336.471106829373,12851.681693794117,150,1,2025-09-08,2025-09-26 19:59:59.608,HH,A,3283790550,HAWK11,1,1,73,2,1,1,225,2,1,0,0,12,1,225,2,1,-143311.57653983062,-4793181.683564986,4197216.419401646,-2.27614,1.42325,-0.822789,5.5,78.125,82.5,-0.1875,-10.5469,10.5312,-0.0371094,0.0859375,0.0644531,4,0,41.38547318385642,-91.71257914899094,12798.475258449826,4.5807890472717965,-1.269975784676591,44.53273027699358,182.389,11336.471106829373,12851.681693794117,150,False,19.99366725358644,False,81.72816639502784,179.19711070885498,False,99.03840435948953,False,False
1,1970-07-23 09:33:36.006474810,2025-09-08,2025-09-26 20:00:00.647,HH,A,2219063520,JASSM,3,112,76,2,2,1,225,9,2,0,1,26,0,0,0,0,-107040.66277467164,-4798537.021559057,4191841.130339146,2.29982,3.002,-0.13221,-83.25,11.75,11.25,0.0,0.0,0.0,0.0,0.0,0.0,2,0,41.32296139440418,-91.27788141131884,12000.00045706238,-79.88671470511188,-0.0040455352175836,0.0013056884784199,,11336.471106829373,12851.681693794117,150,1,2025-09-08,2025-09-26 20:00:00.515,HH,A,3284904016,HAWK11,1,1,73,2,1,1,225,2,1,0,0,12,1,225,2,1,-143301.08630545562,-4793108.839814986,4197293.765104771,-2.19867,1.29046,-0.817804,15.375,76.875,83.5,-0.140625,-10.6562,10.8906,0.00195312,0.0683594,0.0546875,4,0,41.386430402838485,-91.71247987460104,12786.243934136,9.758467412843055,-0.8395432907985302,43.30793725123183,183.013,11336.471106829373,12851.681693794117,150,False,19.949828443300902,False,86.67974529473406,179.03697182491388,False,94.25608320826613,False,False
1,1970-07-23 09:33:36.016428420,2025-09-08,2025-09-26 20:00:01.642,HH,A,2220316500,JASSM,3,112,76,2,2,1,225,9,2,0,1,26,0,0,0,0,-107128.27410279664,-4798524.714918432,4191852.900846959,2.29982,3.002,-0.13221,-83.25,11.75,11.25,0.0,0.0,0.0,0.0,0.0,0.0,2,0,41.323102435653205,-91.2789302715848,12000.00072499485,-79.8874072712974,-0.0032453151033344,0.0013051487336115,,11336.471106829373,12851.681693794117,150,1,2025-09-08,2025-09-26 20:00:01.716,HH,A,3286534448,HAWK11,1,1,73,2,1,1,225,2,1,0,0,12,1,225,2,1,-143269.07653983062,-4793004.640596236,4197407.317839146,-2.05582,1.11175,-0.795273,30.0,74.625,83.0,-0.1875,-10.3125,10.6406,0.015625,0.0644531,0.0664062,4,0,41.38782235024879,-91.71213477706786,12773.827466371707,16.936854140349894,-0.3158532838448514,44.01878149154104,183.624,11336.471106829373,12851.681693794117,150,False,19.90264144632372,False,94.01777937936582,178.79610034509335,False,87.16657355812455,False,False
1,1970-07-23 09:33:36.029107365,2025-09-08,2025-09-26 20:00:02.910,HH,A,2221628570,JASSM,3,112,76,2,2,1,225,9,2,0,1,26,0,0,0,0,-107220.01824342164,-4798511.826246557,4191865.226042271,2.29982,3.002,-0.132114,-83.25,11.75,11.25,0.0,0.0,0.0,0.0,0.0,0.0,2,0,41.32325012505251,-91.280028614066,12000.000495467217,-79.89222954518699,-0.0060664916200249,0.0013048814856259,,11336.471106829373,12851.681693794117,150,1,2025-09-08,2025-09-26 20:00:02.906,HH,A,3287926280,HAWK11,1,1,73,2,1,1,225,2,1,0,0,12,1,225,2,1,-143225.95153983062,-4792918.307588424,4197502.382292271,-1.91613,0.94196,-0.764306,42.75,71.75,81.25,-0.203125,-11.9375,12.4844,0.0,0.121094,0.0605469,4,0,41.38898521004116,-91.71165053147293,12764.45831708788,24.016353456828124,0.5877844517674338,45.18975066906932,185.493,11336.471106829373,12851.681693794117,150,False,19.844678366479794,False,100.50368272074357,178.58676466114056,False,80.89449871995352,False,False
1,1970-07-23 09:33:36.038495120,2025-09-08,2025-09-26 20:00:03.849,HH,A,2222940922,JASSM,3,112,76,2,2,1,225,9,2,0,1,26,0,0,0,0,-107311.78191529664,-4798498.934644994,4191877.552214146,2.29982,3.002,-0.132114,-83.25,11.75,11.25,0.0,0.0,0.0,0.0,0.0,0.0,2,0,41.32339782537651,-91.28112719538191,12000.000725419566,-79.89295494654002,-0.0052283456321858,0.0013042611351097,,11336.471106829373,12851.681693794117,150,1,2025-09-08,2025-09-26 20:00:03.811,HH,A,3288840912,HAWK11,1,1,73,2,1,1,225,2,1,0,0,12,1,225,2,1,-143188.69177420562,-4792864.290010299,4197564.272917271,-1.83665,0.819529,-0.739475,52.0,67.5,80.25,-0.3125,-12.75,13.2812,-0.0136719,0.103516,0.0664062,4,0,41.38973089248229,-91.71122479046186,12763.073104228151,29.21947460748749,1.6826639178246143,45.05198733923832,186.496,11336.471106829373,12851.681693794117,150,False,19.784511074702895,False,105.37888628361381,178.44673635503983,False,76.16453790061416,False,False
1,1970-07-23 09:33:36.049348687,2025-09-08,2025-09-26 20:00:04.934,HH,A,2224253272,JASSM,3,112,76,2,2,1,225,9,2,0,1,26,0,0,0,0,-107403.54363404664,-4798486.041090307,4191889.8774094586,2.29982,3.002,-0.132114,-83.25,11.75,11.25,0.0,0.0,0.0,0.0,0.0,0.0,2,0,41.32354552047424,-91.28222575887096,11999.998407489602,-79.89368033825693,-0.0043902155904649,0.0013036326408889,,11336.471106829373,12851.681693794117,150,1,2025-09-08,2025-09-26 20:00:05.015,HH,A,3290192978,HAWK11,1,1,73,2,1,1,225,2,1,0,0,12,1,225,2,1,-143120.63903983062,-4792791.297822799,4197652.630339146,-1.74078,0.670637,-0.692592,65.375,60.625,76.625,-0.1875,-11.8125,12.375,0.00390625,0.0683594,0.0644531,4,0,41.39077355954264,-91.71043801987776,12770.160490538636,36.09402871226609,2.867692893126526,45.21137298316337,185.493,11336.471106829373,12851.681693794117,150,False,19.71217791590044,False,112.82342650043014,178.245483580846,False,68.92594398842942,False,False
1,1970-07-23 09:33:36.061108236,2025-09-08,2025-09-26 20:00:06.110,HH,A,2225506424,JASSM,3,112,76,2,2,1,225,9,2,0,1,26,0,0,0,0,-107491.16863404664,-4798473.729566869,4191901.6469407086,2.29982,3.002,-0.132114,-83.25,11.75,11.25,0.0,0.0,0.0,0.0,0.0,0.0,2,0,41.32368654270928,-91.2832748023381,12000.002225622007,-79.89437303343541,-0.0035898703871503,0.0013030372314405,,11336.471106829373,12851.681693794117,150,1,2025-09-08,2025-09-26 20:00:06.218,HH,A,3291863176,HAWK11,1,1,73,2,1,1,225,2,1,0,0,12,1,225,2,1,-143018.57849295562,-4792710.805635299,4197754.425261021,-1.63417,0.527977,-0.620687,78.625,52.875,70.25,-0.203125,-10.9844,11.4688,0.0234375,0.0839844,0.0761719,4,0,41.39195757343201,-91.70924770453288,12785.458609201343,43.74730351972765,3.526934889244959,46.74897491158613,185.127,11336.471106829373,12851.681693794117,150,False,19.626344399389072,False,120.87223651068989,178.00747630622368,False,61.11768771849083,False,False
1,1970-07-23 09:33:36.071406842,2025-09-08,2025-09-26 20:00:07.140,HH,A,2226818700,JASSM,3,112,76,2,2,1,225,9,2,0,1,26,0,0,0,0,-107582.92644654664,-4798460.835035619,4191913.9692063336,2.29982,3.002,-0.132114,-83.25,11.75,11.25,0.0,0.0,0.0,0.0,0.0,0.0,2,0,41.32383420382498,-91.2843733291665,11999.999709972377,-79.89509840512025,-0.0027517770267007,0.0013024159763093,,11336.471106829373,12851.681693794117,150,1,2025-09-08,2025-09-26 20:00:07.108,HH,A,3293016408,HAWK11,1,1,73,2,1,1,225,2,1,0,0,12,1,225,2,1,-142937.63318045562,-4792660.754854049,4197818.481901646,-1.56878,0.458181,-0.55789,86.625,47.875,64.875,-0.078125,-9.82812,10.2344,0.0488281,0.0605469,0.0625,4,0,41.39270202612268,-91.70829871134885,12795.343203857195,48.62055073553278,2.96027593341178,48.5469702651383,184.601,11336.471106829373,12851.681693794117,150,False,19.543622592905532,False,126.13294318102763,177.84889756545047,False,56.016234501256754,False,False
1,1970-07-23 09:33:36.082427400,2025-09-08,2025-09-26 20:00:08.242,HH,A,2228130672,JASSM,3,112,76,2,2,1,225,9,2,0,1,26,0,0,0,0,-107674.66277467164,-4798447.942457494,4191926.288542271,2.29982,3.002,-0.132114,-83.25,11.75,11.25,0.0,0.0,0.0,0.0,0.0,0.0,2,0,41.32398182591477,-91.28547160402674,11999.998956884385,-79.89582361256139,-0.001913878651469,0.0013017890061059,,11336.471106829373,12851.681693794117,150,1,2025-09-08,2025-09-26 20:00:08.310,HH,A,3294448006,HAWK11,1,1,73,2,1,1,225,2,1,0,0,12,1,225,2,1,-142826.62927420562,-4792603.593721236,4197888.851042271,-1.47406,0.386276,-0.477356,95.75,43.0,56.25,-0.0625,-9.125,9.48438,0.0253906,0.0605469,0.0820312,4,0,41.39353669938096,-91.70699319611585,12799.232239519062,54.38207163291665,1.9760884535134255,52.18166503907052,184.235,11336.471106829373,12851.681693794117,150,False,19.446534256545014,False,132.56773270839554,177.66374543808,False,49.764937449285846,False,False
1,1970-07-23 09:33:36.092470308,2025-09-08,2025-09-26 20:00:09.247,HH,A,2229383680,JASSM,3,112,76,2,2,1,225,9,2,0,1,26,0,0,0,0,-107762.27605592164,-4798435.628980932,4191938.054167271,2.29982,3.002,-0.132114,-83.25,11.75,11.25,0.0,0.0,0.0,0.0,0.0,0.0,2,0,41.32412280532396,-91.28652052215232,12000.001510896074,-79.89651623099925,-0.0011136388469049,0.0013011883814256,,11336.471106829373,12851.681693794117,150,1,2025-09-08,2025-09-26 20:00:09.230,HH,A,3294964972,HAWK11,1,1,73,2,1,1,225,2,1,0,0,12,1,225,2,1,-142783.78552420562,-4792584.133760299,4197911.979948521,-1.45,0.361444,-0.439006,98.625,41.375,52.875,-0.09375,-8.8125,9.09375,0.0410156,0.0605469,0.078125,4,0,41.39381616119066,-91.70648837657754,12798.392856034108,56.82315530035264,1.2670896567846277,53.00010550881534,184.039,11336.471106829373,12851.681693794117,150,False,19.37991208971651,False,134.7874743658375,177.59554573309694,False,47.612073155523156,False,False
1,1970-07-23 09:33:36.103248886,2025-09-08,2025-09-26 20:00:10.324,HH,A,2230695722,JASSM,3,112,76,2,2,1,225,9,2,0,1,26,0,0,0,0,-107854.01824342164,-4798422.733473119,4191950.372526646,2.29982,3.0019,-0.132114,-83.25,11.75,11.25,0.0,0.0,0.0,0.0,0.0,0.0,2,0,41.32427041694078,-91.2876188774177,12000.000516211145,-79.89361533859606,-0.0043357300797173,0.0005770227914535,,11336.471106829373,12851.681693794117,150,1,2025-09-08,2025-09-26 20:00:10.404,HH,A,3296873770,HAWK11,1,1,73,2,1,1,225,2,1,0,0,12,1,225,2,1,-142617.13513358062,-4792518.226533736,4197982.183073521,-1.51078,0.267488,-0.318301,107.875,35.0,41.375,-0.109375,-10.2031,10.5938,-0.140625,0.0976562,0.0664062,4,0,41.394711561366805,-91.70452124735978,12776.345235849012,65.24707339036802,-0.0994557380335574,47.60855112949207,186.178,11336.471106829373,12851.681693794117,150,False,19.254817832062244,False,142.31442651359274,177.3788149539803,False,40.29653866136811,False,False
1,1970-07-23 09:33:36.114395994,2025-09-08,2025-09-26 20:00:11.439,HH,A,2231948422,JASSM,3,112,76,2,2,1,225,9,2,0,1,26,0,0,0,0,-107941.61004029664,-4798410.420973119,4191962.132292271,2.29982,3.0019,-0.132114,-83.25,11.75,11.25,0.0,0.0,0.0,0.0,0.0,0.0,2,0,41.32441133424664,-91.28866754812952,11999.99996386473,-79.89430779760734,-0.003535687504949,0.0005764809350741,,11336.471106829373,12851.681693794117,150,1,2025-09-08,2025-09-26 20:00:11.310,HH,A,3297987236,HAWK11,1,1,73,2,1,1,225,2,1,0,0,12,1,225,2,1,-142513.09411795562,-4792487.940400924,4198015.726042271,-1.60656,0.191172,-0.262311,113.25,28.25,33.875,-0.125,-11.2344,11.6094,-0.113281,0.0839844,0.0429688,4,0,41.3951365273504,-91.7032892676838,12766.993928167149,70.45883670039366,0.7291015607254558,40.89690835168394,188.096,11336.471106829373,12851.681693794117,150,False,19.158301674229897,False,147.7103562532429,177.26254496323057,False,35.017355197085344,False,False
1,1970-07-23 09:33:36.124407013,2025-09-08,2025-09-26 20:00:12.440,HH,A,2233201120,JASSM,3,112,76,2,2,1,225,9,2,0,1,26,0,0,0,0,-108029.20183717164,-4798398.107496557,4191973.892057896,2.29982,3.0019,-0.132114,-83.25,11.75,11.25,0.0,0.0,0.0,0.0,0.0,0.0,2,0,41.3245522477964,-91.28971622362188,12000.001093851157,-79.89500026171947,-0.0027356437380476,0.0005759334385332,,11336.471106829373,12851.681693794117,150,1,2025-09-08,2025-09-26 20:00:12.514,HH,A,3299180234,HAWK11,1,1,73,2,1,1,225,2,1,0,0,12,1,225,2,1,-142397.06872733062,-4792463.249971236,4198045.337370396,-1.67204,0.125115,-0.231919,117.25,20.375,28.125,-0.078125,-10.4688,10.8125,-0.0742188,0.0488281,0.0351562,4,0,41.3955037771123,-91.70191213318336,12762.009485521408,74.22449191655816,2.258416064006805,36.31708083643791,187.938,11336.471106829373,12851.681693794117,150,False,19.05471781622149,False,152.5535356887231,177.15065167313995,False,30.292592129417578,False,False
1,1970-07-23 09:33:36.135427128,2025-09-08,2025-09-26 20:00:13.542,HH,A,2234513472,JASSM,3,112,76,2,2,1,225,9,2,0,1,26,0,0,0,0,-108120.96550904664,-4798385.206129369,4191986.210417271,2.29982,3.0019,-0.132018,-83.25,11.75,11.25,0.0,0.0,0.0,0.0,0.0,0.0,2,0,41.3246998608405,-91.29081485129076,11999.999906161229,-79.89982269822691,-0.0055566930971161,0.0005756282067776,,11336.471106829373,12851.681693794117,150,1,2025-09-08,2025-09-26 20:00:13.404,HH,A,3300413000,HAWK11,1,1,73,2,1,1,225,2,1,0,0,12,1,225,2,1,-142272.95153983062,-4792444.269502486,4198069.380339146,-1.69658,0.0753568,-0.187433,120.0,13.75,22.875,-0.109375,-9.65625,9.90625,-0.0117188,0.0527344,0.0507812,4,0,41.39580088993063,-91.70043630180976,12758.408193573874,77.98802590575923,2.6334597813624763,34.47781863301765,187.546,11336.471106829373,12851.681693794117,150,False,18.943642695060234,False,156.61471293527424,177.04644133440476,False,26.338595696897947,True,False
1,1970-07-23 09:33:36.146489151,2025-09-08,2025-09-26 20:00:14.648,HH,A,2235766272,JASSM,3,112,76,2,2,1,225,9,2,0,1,26,0,0,0,0,-108208.56511842164,-4798372.889723119,4191997.9692063336,2.29982,3.0019,-0.132018,-83.25,11.75,11.25,0.0,0.0,0.0,0.0,0.0,0.0,2,0,41.32484076457779,-91.29186363006124,12000.000508398178,-79.90051523447788,-0.0047565781825617,0.0005750263530452,,11336.471106829373,12851.681693794117,150,1,2025-09-08,2025-09-26 20:00:14.608,HH,A,3301844598,HAWK11,1,1,73,2,1,1,225,2,1,0,0,12,1,225,2,1,-142127.56482108062,-4792430.248018111,4198089.591276646,-1.70713,0.0139976,-0.140551,122.25,6.5,16.375,0.0,-9.5,9.76562,-0.0253906,0.0449219,0.0410156,4,0,41.39604637380448,-91.69870463565428,12757.14926269992,82.30504394544535,3.452854521572189,33.52854011145571,187.62,11336.471106829373,12851.681693794117,150,False,18.8229831663515,False,161.17880787506647,176.94255774267555,False,21.877535952685303,True,False
1,1970-07-23 09:33:36.157508035,2025-09-08,2025-09-26 20:00:15.750,HH,A,2237138174,JASSM,3,112,76,2,2,1,225,9,2,0,1,26,0,0,0,0,-108304.49089967164,-4798359.401441869,4192010.845182896,2.29982,3.0019,-0.132018,-83.25,11.75,11.25,0.0,0.0,0.0,0.0,0.0,0.0,2,0,41.32499505412458,-91.29301209871925,12000.001839450066,-79.90127360081888,-0.0038804129584004,0.0005743632941823,,11336.471106829373,12851.681693794117,150,1,2025-09-08,2025-09-26 20:00:15.810,HH,A,3303156898,HAWK11,1,1,73,2,1,1,225,2,1,0,0,12,1,225,2,1,-141991.55700858062,-4792425.819307174,4198103.270964146,-1.77817,-0.0724806,-0.106803,123.0,-1.125,11.875,-0.375,-11.6875,12.0156,-0.0898438,0.09375,0.0371094,4,0,41.396189035556766,-91.69708159254,12766.0143215823,87.01533433746638,5.8802813717079205,29.229857604556692,189.881,11336.471106829373,12851.681693794117,150,False,18.701181954038336,False,164.87797870447523,176.85788674319505,False,18.239344230917315,True,False
1,1970-07-23 09:33:36.175109078,2025-09-08,2025-09-26 20:00:17.510,HH,A,2238391346,JASSM,3,112,76,2,2,1,225,9,2,0,1,26,0,0,0,0,-108392.11589967164,-4798347.079176244,4192022.604948521,2.29982,3.0019,-0.132018,-83.25,11.75,11.25,0.0,0.0,0.0,0.0,0.0,0.0,2,0,41.32513597583539,-91.29406119156266,12000.00010308646,-79.90196634853744,-0.0030800662136498,0.0005737642125628,,11336.471106829373,12851.681693794117,150,1,2025-09-08,2025-09-26 20:00:17.608,HH,A,3305542894,HAWK11,1,1,73,2,1,1,225,2,1,0,0,12,1,225,2,1,-141746.71911795562,-4792448.003877486,4198121.190886021,-1.99609,-0.210155,-0.0955862,121.0,-19.0,8.25,-0.0625,-10.5938,11.125,-0.130859,0.0175781,0.0136719,4,0,41.396221159860914,-91.69414916167564,12841.636705256014,92.7262545239502,11.374982116950711,16.803876263067806,187.546,11336.471106829373,12851.681693794117,150,False,18.5250262592564,False,168.49083343488633,176.74883131092957,False,14.103037953712606,True,False
1,1970-07-23 09:33:36.179409088,2025-09-08,2025-09-26 20:00:17.940,HH,A,2239762876,JASSM,3,112,76,2,2,1,225,9,2,0,1,26,0,0,0,0,-108488.01629029664,-4798333.591871557,4192035.4750657086,2.29982,3.0019,-0.132018,-83.25,11.75,11.25,0.0,0.0,0.0,0.0,0.0,0.0,2,0,41.32529020145879,-91.2952093672943,11999.999112743422,-79.90272452591253,-0.0022041326330467,0.000573102644698,,11336.471106829373,12851.681693794117,150,1,2025-09-08,2025-09-26 20:00:18.014,HH,A,3305980328,HAWK11,1,1,73,2,1,1,225,2,1,0,0,12,1,225,2,1,-141702.10193045562,-4792455.151338424,4198123.884245396,-2.04096,-0.213894,-0.0922306,120.25,-21.0,8.0,-0.09375,-9.34375,9.64062,-0.109375,0.0,0.00390625,4,0,41.396204677075,-91.69361368568303,12861.817235770144,93.01748609887964,11.409275415900414,14.270444766953617,185.09,11336.471106829373,12851.681693794117,150,False,18.44880353448055,False,168.47656278553703,176.72451089552834,False,13.98206698040102,True,False
1,1970-07-23 09:33:36.190432462,2025-09-08,2025-09-26 20:00:19.043,HH,A,2241075500,JASSM,3,112,76,2,2,1,225,9,2,0,1,26,0,0,0,0,-108579.79949342164,-4798320.682691869,4192047.792448521,2.29982,3.0019,-0.132018,-83.25,11.75,11.25,0.0,0.0,0.0,0.0,0.0,0.0,2,0,41.32543779923982,-91.29630825495865,12000.000086739425,-79.90345015897401,-0.0013658036826066,0.0005724655268642,,11336.471106829373,12851.681693794117,150,1,2025-09-08,2025-09-26 20:00:18.904,HH,A,3306974494,HAWK11,1,1,73,2,1,1,225,2,1,0,0,12,1,225,2,1,-141602.41052420562,-4792472.713838424,4198127.392057896,-2.08832,-0.232206,-0.0955862,118.875,-24.0,6.875,0.0,-8.54688,8.92188,-0.0390625,0.0273438,0.0,4,0,41.3961414241235,-91.692416675661,12905.383457688566,93.57380087552072,12.3226107498477,11.572659335554622,183.514,11336.471106829373,12851.681693794117,150,False,18.34518958418521,False,168.62251266357754,176.68656577098113,False,13.588646846472,True,False
1,1970-07-23 09:33:36.201466124,2025-09-08,2025-09-26 20:00:20.146,HH,A,2242387578,JASSM,3,112,76,2,2,1,225,9,2,0,1,26,0,0,0,0,-108671.54363404664,-4798307.778394994,4192060.102995396,2.29982,3.00181,-0.132018,-83.25,11.75,11.25,0.0,0.0,0.0,0.0,0.0,0.0,2,0,41.32558531657695,-91.29740668006256,12000.000587493378,-79.90054021321272,-0.0045979814492512,-0.0001529953420241,,11336.471106829373,12851.681693794117,150,1,2025-09-08,2025-09-26 20:00:19.810,HH,A,3308087958,HAWK11,1,1,73,2,1,1,225,2,1,0,0,12,1,225,2,1,-141491.49060233062,-4792495.476533736,4198131.470182896,-2.12696,-0.251956,-0.0961614,117.125,-26.75,6.125,0.0625,-7.8125,8.23438,-0.0449219,0.00390625,0.0195312,4,0,41.3960530512323,-91.69108371541463,12962.169433568188,94.31077552404614,13.192202423981508,9.413120255831505,181.986,11336.471106829373,12851.681693794117,150,True,18.235296672677258,False,168.41007671200038,176.64755653689096,False,13.536948581763104,True,False
1,1970-07-23 09:33:36.212489254,2025-09-08,2025-09-26 20:00:21.248,HH,A,2243640278,JASSM,3,112,76,2,2,1,225,9,2,0,1,26,0,0,0,0,-108759.13543092164,-4798295.457105932,4192071.854948521,2.29982,3.00181,-0.132018,-83.25,11.75,11.25,0.0,0.0,0.0,0.0,0.0,0.0,2,0,41.32572614409199,-91.29845539530368,11999.999613857928,-79.90123271969814,-0.0037979374136852,-0.0001535424165322,,11336.471106829373,12851.681693794117,150,1,2025-09-08,2025-09-26 20:00:21.311,HH,A,3309758156,HAWK11,1,1,73,2,1,1,225,2,1,0,0,12,1,225,2,1,-141328.51403983062,-4792529.969697799,4198134.440886021,-2.20433,-0.231631,-0.0531141,115.625,-26.25,3.125,0.171875,-3.9375,4.42188,-0.0898438,-0.03125,0.00585938,4,0,41.39589655101401,-91.68912482449328,13041.63998271571,95.41626055157082,10.690708093380769,5.2954989241057815,177.184,11336.471106829373,12851.681693794117,150,True,18.099304613236228,False,169.70940892288974,176.59898334221035,False,12.207671317087813,True,False
1,1970-07-23 09:33:36.222363758,2025-09-08,2025-09-26 20:00:22.236,HH,A,2244892978,JASSM,3,112,76,2,2,1,225,9,2,0,1,26,0,0,0,0,-108846.72722779664,-4798283.134840307,4192083.606901646,2.29982,3.00181,-0.132018,-83.25,11.75,11.25,0.0,0.0,0.0,0.0,0.0,0.0,2,0,41.3258669678502,-91.29950411532492,12000.000322625596,-79.90192523128306,-0.0029978921851483,-0.0001540951312105,,11336.471106829373,12851.681693794117,150,1,2025-09-08,2025-09-26 20:00:22.217,HH,A,3310792090,HAWK11,1,1,73,2,1,1,225,2,1,0,0,12,1,225,2,1,-141228.61560233062,-4792549.863252486,4198133.835417271,-2.29905,-0.206225,-0.0255983,115.625,-23.75,0.25,0.09375,-3.54688,4.04688,-0.119141,-0.0371094,-0.00195312,4,0,41.39579165898542,-91.6879245506054,13082.021551290496,95.631652454158,8.557059304168378,-0.0385927503269401,175.644,11336.471106829373,12851.681693794117,150,True,17.9972852280122,False,171.47665622783066,176.56717386294525,False,10.660512017784333,True,False
1,1970-07-23 09:33:36.234347589,2025-09-08,2025-09-26 20:00:23.434,HH,A,2246205328,JASSM,3,112,76,2,2,1,225,9,2,0,1,26,0,0,0,0,-108938.48894654664,-4798270.224684057,4192095.917448521,2.29982,3.00181,-0.132018,-83.25,11.75,11.125,0.0,0.0,0.0,0.0,0.0,0.0,2,0,41.32601448711671,-91.30060276622028,12000.000421700845,-79.90265071629639,-0.0021597592337092,-0.0001546757094052,,11336.471106829373,12851.681693794117,150,1,2025-09-08,2025-09-26 20:00:23.404,HH,A,3312382754,HAWK11,1,1,73,2,1,1,225,2,1,0,0,12,1,225,2,1,-141073.18982108062,-4792577.248018111,4198129.183073521,-2.41985,-0.171326,0.00469782,115.875,-19.25,-3.625,0.15625,-4.46875,4.85938,-0.0742188,0.00195312,-0.0078125,4,0,41.39562460584765,-91.68605838974354,13128.036070444326,95.598607917824,5.910962959876904,-6.943439376574117,174.959,11336.471106829373,12851.681693794117,150,True,17.862943798671,False,174.06407852208469,176.45426983820977,False,8.72775143519094,True,False
1,1970-07-23 09:33:36.245946586,2025-09-08,2025-09-26 20:00:24.594,HH,A,2247458446,JASSM,3,112,76,2,2,1,225,9,2,0,1,26,0,0,0,0,-109026.11004029664,-4798257.896559057,4192107.671354771,2.29982,3.00181,-0.131922,-83.25,11.75,11.125,0.0,0.0,0.0,0.0,0.0,0.0,2,0,41.3261553353567,-91.3016518467281,12000.000939351825,-79.90744040900223,-0.0050186969246137,-0.0001549974446809,,11336.471106829373,12851.681693794117,150,1,2025-09-08,2025-09-26 20:00:24.514,HH,A,3313734820,HAWK11,1,1,73,2,1,1,225,2,1,0,0,12,1,225,2,1,-140942.32849295562,-4792597.949189986,4198124.392057896,-2.37767,-0.175737,-0.0203252,115.875,-18.125,-3.375,-0.21875,-6.70312,7.20312,0.162109,0.00390625,-0.015625,4,0,41.39549204231696,-91.684488009704,13159.097138165966,94.6905111656137,7.053824801891301,-4.63108778483346,175.387,11336.471106829373,12851.681693794117,150,True,17.744319985476352,False,174.0491102850883,176.41445672413715,False,8.942585400830248,True,False
1,1970-07-23 09:33:36.255485957,2025-09-08,2025-09-26 20:00:25.548,HH,A,2248830030,JASSM,3,112,76,2,2,1,225,9,2,0,1,26,0,0,0,0,-109122.01433717164,-4798244.401441869,4192120.535612584,2.29982,3.00181,-0.131922,-83.25,11.75,11.125,0.0,0.0,0.0,0.0,0.0,0.0,2,0,41.32630949152098,-91.30280010698196,12000.000624886836,-79.90819865750808,-0.004142726371704,-0.000155665556854,,11336.471106829373,12851.681693794117,150,1,2025-09-08,2025-09-26 20:00:25.608,HH,A,3315086884,HAWK11,1,1,73,2,1,1,225,2,1,0,0,12,1,225,2,1,-140810.52380545562,-4792618.791963424,4198119.970182896,-2.21459,-0.172573,-0.0214757,115.5,-18.0,-3.875,0.03125,-6.46875,6.89062,0.0878906,0.015625,0.015625,4,0,41.39536127218922,-91.682906322866,13191.24818708315,94.52067036379866,6.963228038208501,4.695691122908736,174.532,11336.471106829373,12851.681693794117,150,True,17.620699878704063,False,174.30146143685403,176.3723049364205,False,8.74350515926787,True,False
1,1970-07-23 09:33:36.267527465,2025-09-08,2025-09-26 20:00:26.752,HH,A,2250082990,JASSM,3,112,76,2,2,1,225,9,2,0,1,26,0,0,0,0,-109209.62566529664,-4798232.072340307,4192132.286589146,2.29982,3.00181,-0.131922,-83.25,11.75,11.125,0.0,0.0,0.0,0.0,0.0,0.0,2,0,41.32645030705012,-91.30384908066634,12000.000410370974,-79.90889134461003,-0.0033425020558848,-0.000156275296958,,11336.471106829373,12851.681693794117,150,1,2025-09-08,2025-09-26 20:00:26.953,HH,A,3315961750,HAWK11,1,1,73,2,1,1,225,2,1,0,0,12,1,225,2,1,-140725.68005545562,-4792632.015596236,4198116.886198521,-2.21842,-0.18657,-0.0154357,115.25,-18.375,-4.375,0.140625,-6.96875,7.48438,-0.0625,0.00585938,0.0292969,4,0,41.3952766273944,-91.68188825179836,13210.95858281466,95.31886343022266,7.333537821562495,4.560389241424125,174.666,11336.471106829373,12851.681693794117,150,True,17.526960488166104,False,174.51332404085744,176.34203843172733,False,8.503159398315153,True,False
1,1970-07-23 09:33:36.277346485,2025-09-08,2025-09-26 20:00:27.734,HH,A,2251395080,JASSM,3,112,76,2,2,1,225,9,2,0,1,26,0,0,0,0,-109301.36980592164,-4798219.160230932,4192144.591276646,2.29982,3.00181,-0.131922,-83.25,11.75,11.125,0.0,0.0,0.0,0.0,0.0,0.0,2,0,41.32659775921404,-91.3049475418948,11999.99976051985,-79.90961671276975,-0.002504528438549,-0.0001569179604684,,11336.471106829373,12851.681693794117,150,1,2025-09-08,2025-09-26 20:00:27.810,HH,A,3317631948,HAWK11,1,1,73,2,1,1,225,2,1,0,0,12,1,225,2,1,-140564.63708670562,-4792659.608369674,4198111.175261021,-2.31641,-0.182544,0.00460194,114.75,-19.625,-4.125,0.1875,-5.09375,5.5625,-0.0292969,-0.09375,-0.015625,4,0,41.395102075484026,-91.67995497776973,13254.82399504694,96.02876978914456,6.398877246457144,-0.9676891177035918,173.933,11336.471106829373,12851.681693794117,150,True,17.38961958144419,False,174.24552013361821,176.29438696564353,False,8.620756092333217,True,False
1,1970-07-23 09:33:36.287388761,2025-09-08,2025-09-26 20:00:28.738,HH,A,2252647778,JASSM,3,112,76,2,2,1,225,9,2,0,1,26,0,0,0,0,-109388.96160279664,-4798206.832105932,4192156.338346959,2.29982,3.00171,-0.131922,-83.25,11.75,11.125,0.0,0.0,0.0,0.0,0.0,0.0,2,0,41.32673852561146,-91.30599629145598,12000.000764001625,-79.90668290311623,-0.0057645366119048,-0.0008801139998116,,11336.471106829373,12851.681693794117,150,1,2025-09-08,2025-09-26 20:00:28.404,HH,A,3318347748,HAWK11,1,1,73,2,1,1,225,2,1,0,0,12,1,225,2,1,-140495.12146170562,-4792670.856416549,4198107.644011021,-2.32964,-0.15196,0.0201335,115.0,-17.875,-5.875,0.078125,-3.8125,4.3125,-0.0234375,-0.0253906,-0.0117188,4,0,41.395023463493736,-91.67912070061054,13269.820188845624,95.5252292625344,4.499452374742866,-1.795310409425778,172.931,11336.471106829373,12851.681693794117,150,True,17.304034320236426,False,175.28419889784678,176.2688564542885,False,7.876758759460402,True,False
1,1970-07-23 09:33:36.298394585,2025-09-08,2025-09-26 20:00:29.839,HH,A,2253900638,JASSM,3,112,76,2,2,1,225,9,2,0,1,26,0,0,0,0,-109476.56511842164,-4798194.502027807,4192168.085417271,2.29982,3.00171,-0.131922,-83.25,11.75,11.125,0.0,0.0,0.0,0.0,0.0,0.0,2,0,41.32687929246471,-91.30704518592502,12000.00170315247,-79.90737554379449,-0.0049643844834426,-0.0008806659809414,,11336.471106829373,12851.681693794117,150,1,2025-09-08,2025-09-26 20:00:30.014,HH,A,3320296312,HAWK11,1,1,73,2,1,1,225,2,1,0,0,12,1,225,2,1,-140307.07458670562,-4792696.922822799,4198094.722136021,-2.34143,-0.141414,0.042568,115.625,-14.875,-8.625,0.0,-5.39062,5.79688,0.0117188,-0.0175781,-0.00195312,4,0,41.39481397079823,-91.6768654364793,13292.36134099908,96.0860856560146,3.195198830149581,-2.4524104248602048,173.664,11336.471106829373,12851.681693794117,150,True,17.154386451067232,False,176.6204868779962,176.21752898624177,False,7.0458141379683035,True,False
1,1970-07-23 09:33:36.309435881,2025-09-08,2025-09-26 20:00:30.943,HH,A,2255212800,JASSM,3,112,76,2,2,1,225,9,2,0,1,26,0,0,0,0,-109568.31316529664,-4798181.586012182,4192180.388151646,2.29982,3.00171,-0.131922,-83.25,11.75,11.125,0.0,0.0,0.0,0.0,0.0,0.0,2,0,41.32702672359391,-91.30814370924688,12000.000468505305,-79.90810095911971,-0.004126373974467,-0.0008812585470061,,11336.471106829373,12851.681693794117,150,1,2025-09-08,2025-09-26 20:00:30.810,HH,A,3321250712,HAWK11,1,1,73,2,1,1,225,2,1,0,0,12,1,225,2,1,-140214.06286795562,-4792708.498018111,4198087.136198521,-2.32743,-0.127225,0.0492791,116.125,-13.75,-9.625,0.03125,-5.39062,5.85938,0.00390625,-0.0117188,-0.015625,4,0,41.39471010946772,-91.67575040568822,13297.68417792566,95.83371655711092,2.3337778837154937,-1.6999569182782983,174.055,11336.471106829373,12851.681693794117,150,True,17.053889592617885,False,176.8945481897615,176.18646272749655,False,6.90080341512413,True,False
1,1970-07-23 09:33:36.319444455,2025-09-08,2025-09-26 20:00:31.944,HH,A,2256465528,JASSM,3,112,76,2,2,1,225,9,2,0,1,26,0,0,0,0,-109655.90691529664,-4798169.254957494,4192192.132292271,2.29982,3.00171,-0.131922,-83.25,11.75,11.125,0.0,0.0,0.0,0.0,0.0,0.0,2,0,41.327167458200606,-91.30919249667262,12000.00047667271,-79.90879353308857,-0.0033263100808277,-0.0008818132790861,,11336.471106829373,12851.681693794117,150,1,2025-09-08,2025-09-26 20:00:31.608,HH,A,3322244878,HAWK11,1,1,73,2,1,1,225,2,1,0,0,12,1,225,2,1,-140115.94568045562,-4792719.955049361,4198078.243620396,-2.33184,-0.122718,0.0513884,116.75,-13.0,-10.5,0.125,-6.01562,6.4375,-0.0078125,0.00585938,0.00585938,4,0,41.39459900771748,-91.67457443778734,13299.518984487142,95.75340033578073,2.0616729153950497,-1.9687675088692285,174.874,11336.471106829373,12851.681693794117,150,True,16.95290178882976,False,177.05163730385513,176.15506650546828,False,6.7923140915438855,True,False
1,1970-07-23 09:33:36.330482210,2025-09-08,2025-09-26 20:00:33.048,HH,A,2257777888,JASSM,3,112,76,2,2,1,225,9,2,0,1,26,0,0,0,0,-109747.67058717164,-4798156.335035619,4192204.435026646,2.29982,3.00171,-0.131922,-83.25,11.75,11.125,0.0,0.0,0.0,0.0,0.0,0.0,2,0,41.32731488991232,-91.3102912172241,11999.999267795803,-79.90951908282221,-0.0024881572581717,-0.0008824018482437,,11336.471106829373,12851.681693794117,150,1,2025-09-08,2025-09-26 20:00:33.216,HH,A,3324074142,HAWK11,1,1,73,2,1,1,225,2,1,0,0,12,1,225,2,1,-139936.22497733062,-4792738.010713424,4198060.267057896,-2.33875,-0.087341,0.0933811,117.75,-9.875,-13.25,0.0,-4.03125,4.40625,0.00195312,-0.0253906,0.0,4,0,41.39440150392531,-91.67242145676752,13292.02219275332,96.21338309251112,-1.045589554732924,-2.506878669554719,176.206,11336.471106829373,12851.681693794117,150,True,16.80565470398059,False,176.58812725848824,176.10511443341005,False,6.910401694364497,True,False
1,1970-07-23 09:33:36.341486455,2025-09-08,2025-09-26 20:00:34.148,HH,A,2259030902,JASSM,3,112,76,2,2,1,225,9,2,0,1,26,0,0,0,0,-109835.28386842164,-4798143.999098119,4192216.181120396,2.29982,3.00171,-0.131922,-83.25,11.75,11.125,0.0,0.0,0.0,0.0,0.0,0.0,2,0,41.32745564449549,-91.31134024832994,12000.000952603616,-79.91021182168464,-0.001687913147255,-0.0008829646020363,,11336.471106829373,12851.681693794117,150,1,2025-09-08,2025-09-26 20:00:34.108,HH,A,3325187608,HAWK11,1,1,73,2,1,1,225,2,1,0,0,12,1,225,2,1,-139826.31677420562,-4792746.050752486,4198046.702604771,-2.34479,-0.0711384,0.0992294,118.75,-7.75,-15.125,-0.046875,-5.32812,5.60938,-0.0117188,0.00976562,-0.0078125,4,0,41.39428120000597,-91.67110585289603,13274.483376458364,95.8535425259871,-1.9589878210692653,-2.9327782008701475,177.819,11336.471106829373,12851.681693794117,150,True,16.698430159675357,False,175.72587492711796,176.07115706505684,False,7.326561460586178,True,False
