Subject_cm,Timestamp,SampleDate_cm,SampleTime_cm,Configuration_cm,Scenario_cm,DisTime_cm,MarkingTxt_cm,Application_cm,EntId_cm,Site_cm,ExerciseId_cm,ForceId_cm,Category_cm,Country_cm,Domain_cm,Kind_cm,Extra_cm,Specific_cm,Subcategory_cm,AltCategory_cm,AltCountry_cm,AltDomain_cm,AltKind_cm,ECEF_X_cm,ECEF_Y_cm,ECEF_Z_cm,OriPhi_cm,OriPsi_cm,OriTheta_cm,LinVelX_cm,LinVelY_cm,LinVelZ_cm,LinAccX_cm,LinAccY_cm,LinAccZ_cm,AngVelX_cm,AngVelY_cm,AngVelZ_cm,DrAlg_cm,Appearance_cm,Latitude_cm,Longitude_cm,Altitude_cm,Heading_cm,Pitch_cm,Roll_cm,CalibratedAirspeed_cm,CM_Altitude_Lead_cm,CM_Altitude_Wing_cm,CM_Airspeed_cm,Subject_ac,SampleDate_ac,SampleTime_ac,Configuration_ac,Scenario_ac,DisTime_ac,MarkingTxt_ac,Application_ac,EntId_ac,Site_ac,ExerciseId_ac,ForceId_ac,Category_ac,Country_ac,Domain_ac,Kind_ac,Extra_ac,Specific_ac,Subcategory_ac,AltCategory_ac,AltCountry_ac,AltDomain_ac,AltKind_ac,ECEF_X_ac,ECEF_Y_ac,ECEF_Z_ac,OriPhi_ac,OriPsi_ac,OriTheta_ac,LinVelX_ac,LinVelY_ac,LinVelZ_ac,LinAccX_ac,LinAccY_ac,LinAccZ_ac,AngVelX_ac,AngVelY_ac,AngVelZ_ac,DrAlg_ac,Appearance_ac,Latitude_ac,Longitude_ac,Altitude_ac,Heading_ac,Pitch_ac,Roll_ac,CalibratedAirspeed_ac,CM_Altitude_Lead_ac,CM_Altitude_Wing_ac,CM_Airspeed_ac,Bank_Angle_Condition,distance_nm,Distance_Condition,angle_between_vel,angle_between_pos,Cone_Condition,angle_between_pos_nose,Nose_Cone_Condition,Intercept_Criteria
1,1970-07-23 10:27:51.518312394,2025-09-12,2025-09-26 14:25:51.831,AH,C,3136695618,JASSM,3,128,76,2,2,1,225,9,2,0,1,26,0,0,0,0,-188447.9027117056,-4786288.627900924,4202424.452604771,-2.30155,-0.153302,0.128183,92.125,-14.125,-11.875,0.0,0.0,0.0,0.0,0.0,0.0,2,0,41.45232875794875,-92.25471053546318,10997.372030055658,99.81487031814372,-0.0058578386880953,0.0023920523541146,,10022.661867135384,12264.339701119052,150,1,2025-09-12,2025-09-26 14:25:51.924,AH,C,1522857338,AMBUSH51,1,1,48,2,1,1,225,2,1,0,0,9,1,225,2,1,-144491.93702687847,-4793102.082267012,4195987.207841315,2.30143,2.85071,-0.315659,-100.731,31.4021,34.2592,-0.134172,-7.28205,6.69016,-0.00427458,-0.00234379,0.00263507,4,0,41.37743583738711,-91.72670465918972,10023.815909826826,-66.73213836227237,1.2214718910309577,-1.6547590314609153,182.231,10022.661867135384,12264.339701119052,150,True,24.166093891672293,False,166.39055100404494,179.02195463650096,False,12.787544546408585,True,False
1,1970-07-23 10:27:51.530339676,2025-09-12,2025-09-26 14:25:53.033,AH,C,3138067420,JASSM,3,128,76,2,2,1,225,9,2,0,1,26,0,0,0,0,-188341.9730242056,-4786305.008760299,4202410.640104771,-2.30155,-0.153302,0.128183,92.125,-14.125,-11.875,0.0,0.0,0.0,0.0,0.0,0.0,2,0,41.45216290146283,-92.2534367279478,10997.377241893397,99.81571357316194,-0.0048888110377974,0.0023913785652307,,10022.661867135384,12264.339701119052,150,1,2025-09-12,2025-09-26 14:25:52.924,AH,C,1524050336,AMBUSH51,1,1,48,2,1,1,225,2,1,0,0,9,1,225,2,1,-144593.74995892835,-4793070.105593684,4196021.4398050085,2.29702,2.85146,-0.31465,-100.842,31.2309,34.1673,0.0406602,-7.32811,6.47873,-0.0030075,0.00834214,-0.00222936,4,0,41.377838895081325,-91.72793212546314,10026.924192688031,-66.8030335128142,1.2122981957341463,-1.8953364222811249,182.279,10022.661867135384,12264.339701119052,150,True,24.049287760414916,False,166.49627275001893,179.0455186856875,False,12.709973701143559,True,False
1,1970-07-23 10:27:51.540633596,2025-09-12,2025-09-26 14:25:54.063,AH,C,3139379766,JASSM,3,128,76,2,2,1,225,9,2,0,1,26,0,0,0,0,-188240.63513358065,-4786320.676729049,4202397.423307896,-2.30155,-0.153302,0.128183,92.125,-14.125,-11.875,0.0,0.0,0.0,0.0,0.0,0.0,2,0,41.452004217562695,-92.25221814432076,10997.374318982624,99.81652026760987,-0.0039617887272647,0.0023907301290113,,10022.661867135384,12264.339701119052,150,1,2025-09-12,2025-09-26 14:25:53.991,AH,C,1525322868,AMBUSH51,1,1,48,2,1,1,225,2,1,0,0,9,1,225,2,1,-144700.66206710978,-4793036.690887667,4196057.268078016,2.3112,2.85277,-0.314253,-100.916,31.1016,34.0749,0.0209168,-7.11735,6.57614,0.0881205,-0.00460124,0.00818818,4,0,41.37826035514816,-91.7292210248601,10030.341119569744,-66.86964979511772,1.24960441618477,-1.061019827616982,182.316,10022.661867135384,12264.339701119052,150,True,23.932086212118897,False,166.58271038672024,179.07014680779596,False,12.65410947343071,True,False
1,1970-07-23 10:27:51.552188095,2025-09-12,2025-09-26 14:25:55.218,AH,C,3140692358,JASSM,3,128,76,2,2,1,225,9,2,0,1,26,0,0,0,0,-188139.2777117056,-4786336.346650924,4202384.204557896,-2.30155,-0.153302,0.128183,92.125,-14.125,-11.875,0.0,0.0,0.0,0.0,0.0,0.0,2,0,41.45184550051999,-92.2509993322736,10997.375555020051,99.81732711072908,-0.003034589858497,0.0023900916599509,,10022.661867135384,12264.339701119052,150,1,2025-09-12,2025-09-26 14:25:55.059,AH,C,1526595400,AMBUSH51,1,1,48,2,1,1,225,2,1,0,0,9,1,225,2,1,-144808.88844510325,-4793002.925964891,4196093.506149335,2.40641,2.85694,-0.313352,-100.729,31.43,34.2134,-0.0560896,-7.23214,6.36835,0.0391412,1.56045e-05,0.0109158,4,0,41.37868641438976,-91.73052576336094,10033.889833601868,-67.0643300914322,1.3801844540420285,4.463280233726793,182.108,10022.661867135384,12264.339701119052,150,True,23.814130185063643,False,166.3999241434657,179.09485501545473,False,12.872991470882157,True,False
1,1970-07-23 10:27:51.562490278,2025-09-12,2025-09-26 14:25:56.249,AH,C,3142004472,JASSM,3,128,76,2,2,1,225,9,2,0,1,26,0,0,0,0,-188037.9573992056,-4786352.010713424,4202370.987761021,-2.30155,-0.153302,0.128183,92.125,-14.125,-11.875,0.0,0.0,0.0,0.0,0.0,0.0,2,0,41.45168680993505,-92.24978097245904,10997.375708260508,99.81813365193526,-0.0021077272805362,0.002389434900094,,10022.661867135384,12264.339701119052,150,1,2025-09-12,2025-09-26 14:25:56.091,AH,C,1527828166,AMBUSH51,1,1,48,2,1,1,225,2,1,0,0,9,1,225,2,1,-144911.92492890946,-4792969.955257618,4196128.793292013,2.42244,2.84485,-0.327194,-100.276,31.8464,35.0148,-0.037737,-7.17589,6.55969,0.00576221,-0.000298565,0.0117834,4,0,41.37910224741759,-91.73176824765189,10036.951666674846,-66.03688463947333,1.4503085168095466,5.18866258474312,182.023,10022.661867135384,12264.339701119052,150,True,23.69906632771054,False,165.88251252262347,179.11905773854576,False,13.419727353373588,True,False
1,1970-07-23 10:27:51.573252764,2025-09-12,2025-09-26 14:25:57.325,AH,C,3143257438,JASSM,3,128,76,2,2,1,225,9,2,0,1,26,0,0,0,0,-187941.2034929556,-4786366.965791549,4202358.366667271,-2.30155,-0.153302,0.128183,92.125,-14.125,-11.875,0.0,0.0,0.0,0.0,0.0,0.0,2,0,41.45153527754765,-92.248617529877,10997.373629975003,99.81890383614792,-0.0012226416120613,0.00238882546353,,10022.661867135384,12264.339701119052,150,1,2025-09-12,2025-09-26 14:25:57.224,AH,C,1529180232,AMBUSH51,1,1,48,2,1,1,225,2,1,0,0,9,1,225,2,1,-145025.72529390323,-4792932.946318925,4196168.895110958,2.40268,2.83848,-0.334399,-99.7322,32.4692,35.7245,-0.0115129,-6.96153,6.51613,-0.0177485,-0.00370866,-0.0017425,4,0,41.379572656550565,-91.7331407627678,10041.326870357409,-65.50066767318627,1.4866515803796745,3.951873130928739,182.279,10022.661867135384,12264.339701119052,150,True,23.580165300680672,False,165.32322231959023,179.14711766010643,False,14.018475574766963,True,False
1,1970-07-23 10:27:51.584270700,2025-09-12,2025-09-26 14:25:58.427,AH,C,3144569792,JASSM,3,128,76,2,2,1,225,9,2,0,1,26,0,0,0,0,-187839.86560233065,-4786382.629854049,4202345.145964146,-2.30145,-0.153206,0.128183,92.125,-14.125,-11.875,0.0,0.0,0.0,0.0,0.0,0.0,2,0,41.45137653948816,-92.24739897157602,10997.374329689166,99.8160741340408,-0.0043525576526597,0.0071775860645217,,10022.661867135384,12264.339701119052,150,1,2025-09-12,2025-09-26 14:25:58.358,AH,C,1530532296,AMBUSH51,1,1,48,2,1,1,225,2,1,0,0,9,1,225,2,1,-145137.98377000864,-4792895.753145354,4196209.108087976,2.36466,2.83526,-0.335949,-99.491,32.6997,36.2809,-0.165664,-7.31089,6.55231,-0.0516872,0.00141376,0.014715,4,0,41.38004517292439,-91.73449494838594,10045.383112938867,-65.31677779776307,1.423248224432095,1.7175099885094067,182.157,10022.661867135384,12264.339701119052,150,True,23.459548378727668,False,164.99580575809398,179.1749718472452,False,14.381893007245486,True,False
1,1970-07-23 10:27:51.595289468,2025-09-12,2025-09-26 14:25:59.528,AH,C,3145881874,JASSM,3,128,76,2,2,1,225,9,2,0,1,26,0,0,0,0,-187738.5472429556,-4786398.290010299,4202331.927214146,-2.30145,-0.153206,0.128279,92.125,-14.125,-11.875,0.0,0.0,0.0,0.0,0.0,0.0,2,0,41.4512178203835,-92.2461806544884,10997.37704361457,99.82097115905908,-0.0070921403068813,0.0071765011477963,,10022.661867135384,12264.339701119052,150,1,2025-09-12,2025-09-26 14:25:59.491,AH,C,1531884362,AMBUSH51,1,1,48,2,1,1,225,2,1,0,0,9,1,225,2,1,-145251.1836135326,-4792857.944024862,4196250.108962737,2.33879,2.83193,-0.339316,-99.2917,32.8206,36.4709,-0.0363167,-7.13345,6.53203,-0.0168435,0.000648105,-0.00584959,4,0,41.38052648679105,-91.73586061919066,10049.710777506583,-65.0540195742764,1.4281847044847031,0.1790513356369506,182.194,10022.661867135384,12264.339701119052,150,True,23.338349038944827,False,164.84603053845453,179.20295156016255,False,14.571777545366455,True,False
1,1970-07-23 10:27:51.606312088,2025-09-12,2025-09-26 14:26:00.631,AH,C,3147253876,JASSM,3,128,76,2,2,1,225,9,2,0,1,26,0,0,0,0,-187632.6019304556,-4786414.663057174,4202318.102995396,-2.30145,-0.153206,0.128279,92.125,-14.125,-11.875,0.0,0.0,0.0,0.0,0.0,0.0,2,0,41.45105184052815,-92.2449067073581,10997.376260136372,99.82181448800104,-0.0061229723242722,0.0071758296190701,,10022.661867135384,12264.339701119052,150,1,2025-09-12,2025-09-26 14:26:00.591,AH,C,1533196660,AMBUSH51,1,1,48,2,1,1,225,2,1,0,0,9,1,225,2,1,-145359.6870177848,-4792821.624456056,4196289.542486312,2.32033,2.83369,-0.338846,-99.2226,32.9263,36.3532,-0.0808045,-7.19888,6.5673,-0.015645,0.000186213,-0.00408941,4,0,41.38098918948612,-91.73716967801042,10053.961967132796,-65.14012528435181,1.4792018110564424,-0.8472711570333541,181.986,10022.661867135384,12264.339701119052,150,True,23.217330264468117,False,164.84627514650958,179.22901028082578,False,14.613767836976766,True,False
1,1970-07-23 10:27:51.617428396,2025-09-12,2025-09-26 14:26:01.742,AH,C,3148566230,JASSM,3,128,76,2,2,1,225,9,2,0,1,26,0,0,0,0,-187531.2620867056,-4786430.323213424,4202304.878386021,-2.30145,-0.153206,0.128279,92.125,-14.125,-11.875,0.0,0.0,0.0,0.0,0.0,0.0,2,0,41.45089306050973,-92.2436881456385,10997.375402803193,99.82262115024822,-0.005195934318048,0.0071751850510829,,10022.661867135384,12264.339701119052,150,1,2025-09-12,2025-09-26 14:26:01.726,AH,C,1534548726,AMBUSH51,1,1,48,2,1,1,225,2,1,0,0,9,1,225,2,1,-145472.79583164852,-4792783.70847086,4196330.7763742125,2.32138,2.82935,-0.338762,-99.2322,32.9063,36.3424,-0.223691,-7.30716,6.68258,0.0048946,0.00472399,-0.00525038,4,0,41.38147269652588,-91.73853433869152,10058.54128491311,-64.98196099076823,1.3077302757668827,-0.8661122690223899,181.95,10022.661867135384,12264.339701119052,150,True,23.096162759857407,False,164.85796005008223,179.2555123671745,False,14.643451154399374,True,False
1,1970-07-23 10:27:51.629394821,2025-09-12,2025-09-26 14:26:02.939,AH,C,3149938232,JASSM,3,128,76,2,2,1,225,9,2,0,1,26,0,0,0,0,-187425.3167742056,-4786446.692354049,4202291.052214146,-2.30145,-0.153206,0.128279,92.125,-14.125,-11.875,0.0,0.0,0.0,0.0,0.0,0.0,2,0,41.45072706312227,-92.24241421304458,10997.372515495344,99.82346446413204,-0.0042267693509542,0.0071745231137753,,10022.661867135384,12264.339701119052,150,1,2025-09-12,2025-09-26 14:26:02.891,AH,C,1535940558,AMBUSH51,1,1,48,2,1,1,225,2,1,0,0,9,1,225,2,1,-145587.60560781162,-4792745.331486218,4196372.514127859,2.35147,2.83451,-0.337482,-99.0795,32.8926,36.2778,-0.129666,-7.23454,6.48134,0.10034,-0.00638639,0.000795827,4,0,41.38196202373644,-91.73991950197336,10063.214438074932,-65.2289336780812,1.4592324074300616,0.9500394834231544,181.864,10022.661867135384,12264.339701119052,150,True,22.97151247335637,False,164.8512138294394,179.2810488381824,False,14.693261295955297,True,False
1,1970-07-23 10:27:51.639466856,2025-09-12,2025-09-26 14:26:03.946,AH,C,3151250582,JASSM,3,128,76,2,2,1,225,9,2,0,1,26,0,0,0,0,-187323.97888358065,-4786462.350557174,4202277.827604771,-2.30145,-0.153206,0.128279,92.125,-14.125,-11.875,0.0,0.0,0.0,0.0,0.0,0.0,2,0,41.450568267865,-92.24119568773888,10997.378273000128,99.82427109707496,-0.0032997511139056,0.0071738863499409,,10022.661867135384,12264.339701119052,150,1,2025-09-12,2025-09-26 14:26:04.025,AH,C,1537292622,AMBUSH51,1,1,48,2,1,1,225,2,1,0,0,9,1,225,2,1,-145700.37160338656,-4792707.06610671,4196413.87460637,2.43747,2.82895,-0.34029,-98.7183,33.4501,36.7479,-0.131331,-7.19312,6.49276,0.0320276,-0.00156149,0.0173948,4,0,41.382448492221855,-91.74128023448368,10067.199468912871,-64.90557746311617,1.3550669674156055,5.779648152757659,181.583,10022.661867135384,12264.339701119052,150,True,22.85051254496564,False,164.43934230199744,179.30506150349288,False,15.151222148714572,True,False
1,1970-07-23 10:27:51.650487056,2025-09-12,2025-09-26 14:26:05.048,AH,C,3152503282,JASSM,3,128,76,2,2,1,225,9,2,0,1,26,0,0,0,0,-187227.24450858065,-4786477.293916549,4202265.200651646,-2.30145,-0.153206,0.128279,92.125,-14.125,-11.875,0.0,0.0,0.0,0.0,0.0,0.0,2,0,41.45041667431304,-92.24003252405102,10997.37346916908,99.82504107965556,-0.0024148461063683,0.0071732783500131,,10022.661867135384,12264.339701119052,150,1,2025-09-12,2025-09-26 14:26:05.125,AH,C,1538604922,AMBUSH51,1,1,48,2,1,1,225,2,1,0,0,9,1,225,2,1,-145807.98340154387,-4792669.6800157605,4196454.270816906,2.4662,2.81275,-0.34984,-98.1138,34.4456,37.4538,-0.079138,-7.02543,6.56713,-0.0198624,0.00193599,0.00799885,4,0,41.38292413666114,-91.74257910642196,10070.878899156913,-63.90569808913037,1.1082630130359432,7.132978896710289,181.497,10022.661867135384,12264.339701119052,150,True,22.73490282327436,False,163.76163676978032,179.32721859181197,False,15.87881448347154,True,False
1,1970-07-23 10:27:51.661270511,2025-09-12,2025-09-26 14:26:06.127,AH,C,3153755980,JASSM,3,128,76,2,2,1,225,9,2,0,1,26,0,0,0,0,-187130.5120867056,-4786492.237275924,4202252.573698521,-2.30145,-0.153206,0.128279,92.125,-14.125,-11.875,0.0,0.0,0.0,0.0,0.0,0.0,2,0,41.45026506854204,-92.2388693891224,10997.373853822426,99.82581104088231,-0.001529958237931,0.0071726668713002,,10022.661867135384,12264.339701119052,150,1,2025-09-12,2025-09-26 14:26:06.291,AH,C,1539996754,AMBUSH51,1,1,48,2,1,1,225,2,1,0,0,9,1,225,2,1,-145922.87912739717,-4792628.932416059,4196498.234875763,2.39917,2.80405,-0.357835,-97.6535,34.86,38.2725,-0.165891,-7.21899,6.67029,-0.116215,-0.00344234,0.0173199,4,0,41.38344252977982,-91.74396621777603,10074.579037172674,-63.25233026839904,1.094366559928816,3.132285180646707,181.62,10022.661867135384,12264.339701119052,150,True,22.614946704723515,False,163.23567083864654,179.34945479911866,False,16.449720885544814,True,False
1,1970-07-23 10:27:51.672286664,2025-09-12,2025-09-26 14:26:07.228,AH,C,3155127984,JASSM,3,128,76,2,2,1,225,9,2,0,1,26,0,0,0,0,-187024.5667742056,-4786508.602510299,4202238.743620396,-2.30145,-0.15311,0.128279,92.125,-14.125,-11.875,0.0,0.0,0.0,0.0,0.0,0.0,2,0,41.45009901468008,-92.23759548292664,10997.37557459677,99.8230180521152,-0.0046177263869575,0.0064694363653798,,10022.661867135384,12264.339701119052,150,1,2025-09-12,2025-09-26 14:26:07.391,AH,C,1541309052,AMBUSH51,1,1,48,2,1,1,225,2,1,0,0,9,1,225,2,1,-146029.60421949427,-4792590.561675304,4196539.673265887,2.29373,2.79997,-0.360487,-97.6275,35.0627,38.1743,0.129902,-7.02677,6.414,-0.0464212,0.000123795,-0.00310321,4,0,41.38393119706012,-91.74525489567876,10078.04530444737,-62.99129890832267,1.045070517006027,-2.986021753138227,181.827,10022.661867135384,12264.339701119052,150,True,22.494626894190773,False,163.20996608376063,179.36787840031556,False,16.525583694647423,True,False
1,1970-07-23 10:27:51.683329214,2025-09-12,2025-09-26 14:26:08.332,AH,C,3156380684,JASSM,3,128,76,2,2,1,225,9,2,0,1,26,0,0,0,0,-186927.83435233065,-4786523.543916549,4202226.114714146,-2.30145,-0.15311,0.128279,92.125,-14.125,-11.875,0.0,0.0,0.0,0.0,0.0,0.0,2,0,41.44994738271313,-92.2364323602589,10997.377395775511,99.82378800041974,-0.0037328389200879,0.0064687669910702,,10022.661867135384,12264.339701119052,150,1,2025-09-12,2025-09-26 14:26:08.209,AH,C,1542263452,AMBUSH51,1,1,48,2,1,1,225,2,1,0,0,9,1,225,2,1,-146107.793283938,-4792562.524257503,4196570.031346899,2.25422,2.80612,-0.351689,-97.8604,34.908,37.8083,-0.0865808,-6.90933,6.34664,-0.0322482,-0.00734138,-0.0141949,4,0,41.38428875309565,-91.74619899352584,10080.769881766118,-63.58349985186312,0.929794305736742,-5.136970347211836,181.827,10022.661867135384,12264.339701119052,150,True,22.396011379021786,False,163.44294023510886,179.37942029496372,False,16.328535368729728,True,False
1,1970-07-23 10:27:51.693425916,2025-09-12,2025-09-26 14:26:09.342,AH,C,3157693022,JASSM,3,128,76,2,2,1,225,9,2,0,1,26,0,0,0,0,-186826.49450858065,-4786539.194307174,4202212.882292271,-2.30145,-0.15311,0.128375,92.125,-14.125,-11.875,0.0,0.0,0.0,0.0,0.0,0.0,2,0,41.44978851833746,-92.23521384444004,10997.373743869526,99.82868517955612,-0.0064721795029906,0.0064677368212074,,10022.661867135384,12264.339701119052,150,1,2025-09-12,2025-09-26 14:26:09.324,AH,C,1543615516,AMBUSH51,1,1,48,2,1,1,225,2,1,0,0,9,1,225,2,1,-146219.74942072516,-4792522.994299533,4196612.239512309,2.21083,2.81325,-0.342268,-98.4456,34.4108,36.8904,0.0417078,-7.15781,6.53359,-0.0274774,0.0011745,0.00202754,4,0,41.38478853758584,-91.74755060677636,10083.459278153488,-64.2390282225406,0.8294898757251662,-7.494280099499886,181.778,10022.661867135384,12264.339701119052,150,True,22.275338754407816,False,164.0569071243912,179.39267019684374,False,15.765425847091707,True,False
1,1970-07-23 10:27:51.705488164,2025-09-12,2025-09-26 14:26:10.548,AH,C,3159005386,JASSM,3,128,76,2,2,1,225,9,2,0,1,26,0,0,0,0,-186725.15466483065,-4786554.844697799,4202199.649870396,-2.30145,-0.15311,0.128375,92.125,-14.125,-11.875,0.0,0.0,0.0,0.0,0.0,0.0,2,0,41.449629641051,-92.2339953345665,10997.375580322814,99.82949178734654,-0.005545145586083,0.0064671039818416,,10022.661867135384,12264.339701119052,150,1,2025-09-12,2025-09-26 14:26:10.391,AH,C,1544888048,AMBUSH51,1,1,48,2,1,1,225,2,1,0,0,9,1,225,2,1,-146324.23261376476,-4792486.813435419,4196650.654757549,2.21408,2.82607,-0.332378,-98.9485,33.8065,35.9385,-0.0630883,-7.07704,6.56164,0.0509506,0.00992548,-0.0144549,4,0,41.38524413470527,-91.74881176064076,10085.608630451656,-65.12912891209744,0.9347098370903087,-7.079074452512869,181.901,10022.661867135384,12264.339701119052,150,True,22.15914936282175,False,164.6937115458249,179.4014090288408,False,15.174259832898347,True,False
1,1970-07-23 10:27:51.716270238,2025-09-12,2025-09-26 14:26:11.627,AH,C,3160317738,JASSM,3,128,76,2,2,1,225,9,2,0,1,26,0,0,0,0,-186623.81482108065,-4786570.493135299,4202186.415495396,-2.30145,-0.15311,0.128375,92.125,-14.125,-11.875,0.0,0.0,0.0,0.0,0.0,0.0,2,0,41.44947074930577,-92.23277683154949,10997.37386405842,99.83029838805544,-0.004618112051741,0.0064664694511488,,10022.661867135384,12264.339701119052,150,1,2025-09-12,2025-09-26 14:26:11.524,AH,C,1546240114,AMBUSH51,1,1,48,2,1,1,225,2,1,0,0,9,1,225,2,1,-146437.3662325518,-4792448.563157287,4196690.900150932,2.27168,2.83821,-0.32237,-99.414,33.2083,35.2342,-0.279539,-7.28096,6.8056,0.0554426,-0.00348604,-0.00741628,4,0,41.38572281066408,-91.75017701016615,10087.293448060747,-66.00002045729198,1.0138758950617204,-3.569970791097479,181.864,10022.661867135384,12264.339701119052,150,True,22.038121716808078,False,165.22935609329443,179.40709492759498,False,14.683131090977227,True,False
1,1970-07-23 10:27:51.726287288,2025-09-12,2025-09-26 14:26:12.628,AH,C,3161570490,JASSM,3,128,76,2,2,1,225,9,2,0,1,26,0,0,0,0,-186527.0784929556,-4786585.430635299,4202173.782682896,-2.30145,-0.15311,0.128375,92.125,-14.125,-11.875,0.0,0.0,0.0,0.0,0.0,0.0,2,0,41.44931906641417,-92.23161368646062,10997.377946190838,99.831068341637,-0.0037331909344433,0.0064658666498084,,10022.661867135384,12264.339701119052,150,1,2025-09-12,2025-09-26 14:26:12.626,AH,C,1547552412,AMBUSH51,1,1,48,2,1,1,225,2,1,0,0,9,1,225,2,1,-146546.4043070149,-4792412.1943541765,4196729.128288387,2.32209,2.83386,-0.32618,-99.6636,33.014,35.0219,-0.168243,-7.43707,6.72349,0.0488368,-0.00389383,0.0131171,4,0,41.38617740473513,-91.75149267366072,10088.931851255373,-65.68002030688334,0.9956516512639636,-0.7553127244453536,181.95,10022.661867135384,12264.339701119052,150,True,21.922078079162844,False,165.41929397390223,179.40934672327649,False,14.535545724504424,True,False
1,1970-07-23 10:27:51.738311021,2025-09-12,2025-09-26 14:26:13.831,AH,C,3162942438,JASSM,3,128,76,2,2,1,225,9,2,0,1,26,0,0,0,0,-186421.1370867056,-4786601.788057174,4202159.944792271,-2.30145,-0.15311,0.128375,92.125,-14.125,-11.875,0.0,0.0,0.0,0.0,0.0,0.0,2,0,41.44915292508296,-92.2303398676085,10997.37804242445,99.83191155398,-0.0027640624765611,0.0064651951657153,,10022.661867135384,12264.339701119052,150,1,2025-09-12,2025-09-26 14:26:13.790,AH,C,1548944244,AMBUSH51,1,1,48,2,1,1,225,2,1,0,0,9,1,225,2,1,-146663.29487865264,-4792373.491615469,4196770.06499565,2.35012,2.83475,-0.326976,-99.6021,32.8194,35.2627,-0.197656,-7.32845,6.76696,0.000972678,0.0195045,0.00483218,4,0,41.38666272361893,-91.75290300198462,10091.30185542911,-65.68123715214917,1.06300550943742,0.8672081658769342,181.901,10022.661867135384,12264.339701119052,150,True,21.79648784566131,False,165.3709870717961,179.40852745741034,False,14.62356235052358,True,False
1,1970-07-23 10:27:51.748446100,2025-09-12,2025-09-26 14:26:14.844,AH,C,3164254790,JASSM,3,128,76,2,2,1,225,9,2,0,1,26,0,0,0,0,-186319.7972429556,-4786617.432588424,4202146.708464146,-2.30145,-0.15311,0.128375,92.125,-14.125,-11.875,0.0,0.0,0.0,0.0,0.0,0.0,2,0,41.44899400468479,-92.22912138425072,10997.378950665656,99.83271813404492,-0.001837031929643,0.0064645701838519,,10022.661867135384,12264.339701119052,150,1,2025-09-12,2025-09-26 14:26:14.857,AH,C,1550216776,AMBUSH51,1,1,48,2,1,1,225,2,1,0,0,9,1,225,2,1,-146768.86773846846,-4792338.163605807,4196807.409622915,2.35427,2.82948,-0.330147,-99.5043,32.9774,35.5491,-0.0467289,-7.20201,6.43888,-0.00881028,-0.000429643,0.00149075,4,0,41.38710576200527,-91.7541769319452,10093.33903425536,-65.35312650127806,0.9838224752742908,1.0132177842082788,181.864,10022.661867135384,12264.339701119052,150,True,21.67991314953156,False,165.19793818182018,179.404445561442,False,14.838282219068729,True,False
1,1970-07-23 10:27:51.759467342,2025-09-12,2025-09-26 14:26:15.946,AH,C,3165507490,JASSM,3,128,76,2,2,1,225,9,2,0,1,26,0,0,0,0,-186223.0628679556,-4786632.364229049,4202134.071745396,-2.30145,-0.153015,0.128375,92.125,-14.125,-11.875,0.0,0.0,0.0,0.0,0.0,0.0,2,0,41.44884229289938,-92.22795828226327,10997.376054945958,99.829851872278,-0.0050090585349626,0.0057609092898037,,10022.661867135384,12264.339701119052,150,1,2025-09-12,2025-09-26 14:26:15.958,AH,C,1551529074,AMBUSH51,1,1,48,2,1,1,225,2,1,0,0,9,1,225,2,1,-146878.28015987846,-4792301.720920728,4196845.979988553,2.31886,2.82685,-0.331021,-99.4623,33.0015,35.5172,-0.146045,-7.17365,6.50398,-0.0657853,0.000425482,-0.000179971,4,0,41.38756299189874,-91.7554971489446,10095.589147711917,-65.21898261954145,0.916840837785473,-1.0622448256475967,181.778,10022.661867135384,12264.339701119052,150,True,21.563679548611738,False,165.19361729245796,179.3971597658069,False,14.887975542948608,True,False
1,1970-07-23 10:27:51.771434567,2025-09-12,2025-09-26 14:26:17.143,AH,C,3166879492,JASSM,3,128,76,2,2,1,225,9,2,0,1,26,0,0,0,0,-186117.1175554556,-4786648.717744674,4202120.229948521,-2.30145,-0.153015,0.128375,92.125,-14.125,-11.875,0.0,0.0,0.0,0.0,0.0,0.0,2,0,41.4486761088872,-92.2266844371944,10997.374908218337,99.8306950940494,-0.0040398965285568,0.0057601797284804,,10022.661867135384,12264.339701119052,150,1,2025-09-12,2025-09-26 14:26:17.090,AH,C,1552881140,AMBUSH51,1,1,48,2,1,1,225,2,1,0,0,9,1,225,2,1,-146991.14397496876,-4792264.057474293,4196885.696482282,2.23093,2.82536,-0.326937,-99.7995,33.069,34.9562,-0.0967928,-6.9426,6.54873,-0.128149,-0.00684204,-0.00491124,4,0,41.38803457590024,-91.75685905709922,10097.589997629457,-65.33244784220886,0.6975382567739807,-6.129305303913497,182.108,10022.661867135384,12264.339701119052,150,True,21.440413929541588,False,165.45831838323255,179.38596212432742,False,14.678218067900843,True,False
1,1970-07-23 10:27:51.782598219,2025-09-12,2025-09-26 14:26:18.259,AH,C,3168191844,JASSM,3,128,76,2,2,1,225,9,2,0,1,26,0,0,0,0,-186015.7777117056,-4786664.358369674,4202106.989714146,-2.30145,-0.153015,0.128375,92.125,-14.125,-11.875,0.0,0.0,0.0,0.0,0.0,0.0,2,0,41.448517146662425,-92.22546597349596,10997.374199233724,99.83150165351772,-0.003112866758679,0.0057594924821621,,10022.661867135384,12264.339701119052,150,1,2025-09-12,2025-09-26 14:26:18.291,AH,C,1554312738,AMBUSH51,1,1,48,2,1,1,225,2,1,0,0,9,1,225,2,1,-147112.83130395092,-4792223.946855011,4196927.287272658,2.13958,2.82332,-0.307643,-100.877,32.9577,33.5437,-0.0827336,-6.51125,6.0674,-0.0596871,-0.00640927,-0.0227482,4,0,41.388531742297495,-91.7583272764799,10098.310267351886,-66.051679255685,-0.1489751885854796,-11.403254178429057,182.683,10022.661867135384,12264.339701119052,150,False,21.314716250351065,False,166.24293606016977,179.37022659466385,False,13.960158175286365,True,False
1,1970-07-23 10:27:51.793247347,2025-09-12,2025-09-26 14:26:19.324,AH,C,3169504194,JASSM,3,128,76,2,2,1,225,9,2,0,1,26,0,0,0,0,-185914.4378679556,-4786679.998994674,4202093.747526646,-2.30145,-0.153015,0.128471,92.125,-14.125,-11.875,0.0,0.0,0.0,0.0,0.0,0.0,2,0,41.44835815835352,-92.22424751574631,10997.374736892254,99.83639881678975,-0.0058521585034509,0.005758505270682,,10022.661867135384,12264.339701119052,150,1,2025-09-12,2025-09-26 14:26:19.324,AH,C,1555545504,AMBUSH51,1,1,48,2,1,1,225,2,1,0,0,9,1,225,2,1,-147217.3003931688,-4792189.891311136,4196960.663869392,2.11671,2.82537,-0.281487,-101.949,33.1117,31.5072,-0.156105,-6.08327,5.75411,0.00318435,-0.0154495,-0.017813,4,0,41.38894056210404,-91.75958762753352,10094.81733160247,-67.2095272907597,-1.107146162926147,-12.66690455702443,183.049,10022.661867135384,12264.339701119052,150,False,21.199140368898888,False,167.13980009567976,179.35301165209057,False,13.137017791252061,True,False
1,1970-07-23 10:27:51.804268053,2025-09-12,2025-09-26 14:26:20.426,AH,C,3170816552,JASSM,3,128,76,2,2,1,225,9,2,0,1,26,0,0,0,0,-185813.0980242056,-4786695.637666549,4202080.505339146,-2.30145,-0.153015,0.128471,92.125,-14.125,-11.875,0.0,0.0,0.0,0.0,0.0,0.0,2,0,41.44819916876109,-92.22302906485272,10997.37596343618,99.83720536272932,-0.004925129040782,0.005757882468558,,10022.661867135384,12264.339701119052,150,1,2025-09-12,2025-09-26 14:26:20.457,AH,C,1556897570,AMBUSH51,1,1,48,2,1,1,225,2,1,0,0,9,1,225,2,1,-147332.729353978,-4792152.175176679,4196994.771493332,2.23965,2.83219,-0.261453,-103.018,33.3994,29.6944,-0.19938,-6.57377,6.17089,0.211452,0.00450553,-0.018974,4,0,41.389374071493,-91.76098025335077,10084.739963938213,-68.29878677908657,-1.630609592385673,-5.492095664860845,184.1,10022.661867135384,12264.339701119052,150,True,21.077461737284448,False,167.86681402971203,179.3304023076708,False,12.487245502710516,True,False
1,1970-07-23 10:27:51.815285786,2025-09-12,2025-09-26 14:26:21.528,AH,C,3172188548,JASSM,3,128,76,2,2,1,225,9,2,0,1,26,0,0,0,0,-185707.15075858065,-4786711.985322799,4202066.659636021,-2.30145,-0.153015,0.128471,92.125,-14.125,-11.875,0.0,0.0,0.0,0.0,0.0,0.0,2,0,41.44803293913045,-92.22175522432109,10997.374960611343,99.83804857077216,-0.0039559531794807,0.0057572333803517,,10022.661867135384,12264.339701119052,150,1,2025-09-12,2025-09-26 14:26:21.557,AH,C,1558209868,AMBUSH51,1,1,48,2,1,1,225,2,1,0,0,9,1,225,2,1,-147446.4383357998,-4792115.047438287,4197026.687065424,2.36653,2.84397,-0.257903,-103.693,33.6096,29.4227,-0.356965,-7.14539,6.83692,0.0419084,-0.00275159,0.0150812,4,0,41.389789579294685,-91.7623521376849,10071.233103738943,-68.89792827060813,-1.2984720650858623,1.9663237632829929,184.711,10022.661867135384,12264.339701119052,150,True,20.954367294973927,False,168.0173085551375,179.30541906314565,False,12.385114182498542,True,False
1,1970-07-23 10:27:51.826242657,2025-09-12,2025-09-26 14:26:22.624,AH,C,3173500900,JASSM,3,128,76,2,2,1,225,9,2,0,1,26,0,0,0,0,-185605.81091483065,-4786727.622041549,4202053.415495396,-2.30145,-0.153015,0.128471,92.125,-14.125,-11.875,0.0,0.0,0.0,0.0,0.0,0.0,2,0,41.44787392158397,-92.22053678650356,10997.378372182318,99.83885510285144,-0.003028924068952,0.0057566088352561,,10022.661867135384,12264.339701119052,150,1,2025-09-12,2025-09-26 14:26:22.590,AH,C,1559442634,AMBUSH51,1,1,48,2,1,1,225,2,1,0,0,9,1,225,2,1,-147554.77595167453,-4792079.502972974,4197057.235161914,2.39808,2.83015,-0.273665,-103.989,34.162,29.8427,-0.160528,-7.04399,6.69072,0.00509642,-0.0070064,0.00667767,4,0,41.39018740533812,-91.76365929780324,10058.255991946098,-67.71756761972468,-1.225175896368354,3.5396412589315323,185.909,10022.661867135384,12264.339701119052,150,True,20.836855715617983,False,167.7558258294657,179.27981645796802,False,12.68675132814521,True,False
1,1970-07-23 10:27:51.837268630,2025-09-12,2025-09-26 14:26:23.726,AH,C,3174753598,JASSM,3,128,76,2,2,1,225,9,2,0,1,26,0,0,0,0,-185509.0784929556,-4786742.545869674,4202040.770964146,-2.30145,-0.153015,0.128471,92.125,-14.125,-11.875,0.0,0.0,0.0,0.0,0.0,0.0,2,0,41.447722116333686,-92.21937375149425,10997.37640848494,99.83962495925157,-0.002144042116404,0.0057560071980531,,10022.661867135384,12264.339701119052,150,1,2025-09-12,2025-09-26 14:26:23.591,AH,C,1560635632,AMBUSH51,1,1,48,2,1,1,225,2,1,0,0,9,1,225,2,1,-147658.81852019829,-4792044.761263766,4197087.328569474,2.35317,2.83181,-0.272998,-104.227,34.6883,30.4123,-0.110955,-7.31161,6.90212,-0.0774845,0.00651954,0.00182572,4,0,41.390578159679386,-91.76491487525077,10045.949023847304,-67.8095513424586,-1.1844448735802775,0.994402710990024,186.752,10022.661867135384,12264.339701119052,150,True,20.72423787862418,False,167.4476387379826,179.25314666868846,False,13.032334703186041,True,False
1,1970-07-23 10:27:51.848292928,2025-09-12,2025-09-26 14:26:24.829,AH,C,3176065950,JASSM,3,128,76,2,2,1,225,9,2,0,1,26,0,0,0,0,-185407.7386492056,-4786758.178682174,4202027.522917271,-2.30145,-0.152919,0.128471,92.125,-14.125,-11.875,0.0,0.0,0.0,0.0,0.0,0.0,2,0,41.44756307045855,-92.21815532711716,10997.37246491426,99.83679539313366,-0.0052739356833133,0.0050518111882712,,10022.661867135384,12264.339701119052,150,1,2025-09-12,2025-09-26 14:26:24.823,AH,C,1562106996,AMBUSH51,1,1,48,2,1,1,225,2,1,0,0,9,1,225,2,1,-147787.1694738908,-4792001.948747126,4197124.621988938,2.23254,2.83011,-0.27527,-104.949,34.5,30.6592,-0.0215856,-7.26897,6.8503,-0.144091,0.0140991,0.00171753,4,0,41.39106105751113,-91.7664638100833,10031.256145855788,-67.65159930662047,-1.1607608080867635,-5.946986641775923,187.864,10022.661867135384,12264.339701119052,150,True,20.59517908149829,False,167.580092693818,179.21882975804323,False,12.941707545014307,True,False
1,1970-07-23 10:27:51.858425418,2025-09-12,2025-09-26 14:26:25.842,AH,C,3177318650,JASSM,3,128,76,2,2,1,225,9,2,0,1,26,0,0,0,0,-185311.0042742056,-4786773.100557174,4202014.878386021,-2.30145,-0.152919,0.128471,92.125,-14.125,-11.875,0.0,0.0,0.0,0.0,0.0,0.0,2,0,41.44741125320054,-92.21699228077158,10997.375755257466,99.83756525233495,-0.0043890392137549,0.0050511680748891,,10022.661867135384,12264.339701119052,150,1,2025-09-12,2025-09-26 14:26:25.990,AH,C,1563498828,AMBUSH51,1,1,48,2,1,1,225,2,1,0,0,9,1,225,2,1,-147910.97233692353,-4791961.808515576,4197159.707634246,2.12626,2.84265,-0.260042,-106.111,33.8555,29.4539,0.0325139,-7.09041,6.60198,-0.056974,-0.00258514,-0.0306857,4,0,41.39151396981766,-91.76795745654896,10018.012898970226,-68.76246670670379,-1.262216215953873,-11.823064707831504,189.282,10022.661867135384,12264.339701119052,150,False,20.471407958975995,False,168.40024442662894,179.18551492099084,False,12.178590646399941,True,False
1,1970-07-23 10:27:51.868465267,2025-09-12,2025-09-26 14:26:26.846,AH,C,3178571582,JASSM,3,128,76,2,2,1,225,9,2,0,1,26,0,0,0,0,-185214.25232108065,-4786788.024385299,4202002.227995396,-2.30145,-0.152919,0.128471,92.125,-14.125,-11.875,0.0,0.0,0.0,0.0,0.0,0.0,2,0,41.44725937707907,-92.21582902885802,10997.374449801671,99.83833524528914,-0.0035039788471902,0.0050505055307954,,10022.661867135384,12264.339701119052,150,1,2025-09-12,2025-09-26 14:26:26.756,AH,C,1564413462,AMBUSH51,1,1,48,2,1,1,225,2,1,0,0,9,1,225,2,1,-147992.7936587925,-4791936.034850885,4197181.780705526,2.09058,2.85406,-0.244082,-107.076,33.0198,28.518,-0.101453,-7.21491,6.84215,-0.0105164,0.00407693,-0.0118334,4,0,41.39180127024867,-91.768944341492,10008.704144728978,-69.86223858255038,-1.4328481268871172,-13.67844393805283,189.673,10022.661867135384,12264.339701119052,150,False,20.37174657625526,False,169.15563424096482,179.1628850081736,False,11.456721195102723,True,False
1,1970-07-23 10:27:51.879491003,2025-09-12,2025-09-26 14:26:27.949,AH,C,3179883698,JASSM,3,128,76,2,2,1,225,9,2,0,1,26,0,0,0,0,-185112.9300554556,-4786803.651338424,4201988.979948521,-2.30145,-0.152919,0.128471,92.125,-14.125,-11.875,0.0,0.0,0.0,0.0,0.0,0.0,2,0,41.44710032448022,-92.21461083459285,10997.37374500007,99.83914160382132,-0.0025771128884256,0.0050498217516481,,10022.661867135384,12264.339701119052,150,1,2025-09-12,2025-09-26 14:26:27.823,AH,C,1565685994,AMBUSH51,1,1,48,2,1,1,225,2,1,0,0,9,1,225,2,1,-148107.0778750814,-4791901.49477505,4197210.826475961,2.14233,2.86925,-0.232362,-108.406,31.7425,27.094,-0.174533,-7.50099,6.97008,0.0922921,0.00560408,-0.0197667,4,0,41.3921818134712,-91.77032225367417,9995.427135055425,-70.93220538132964,-1.2776705263000172,-10.48250601018376,190.614,10022.661867135384,12264.339701119052,150,False,20.25132174483,False,170.27096328033238,179.1331950429821,False,10.386146107432548,True,False
1,1970-07-23 10:27:51.890505629,2025-09-12,2025-09-26 14:26:29.050,AH,C,3181136398,JASSM,3,128,76,2,2,1,225,9,2,0,1,26,0,0,0,0,-185016.1956804556,-4786818.569307174,4201976.331511021,-2.30145,-0.152919,0.128567,92.125,-14.125,-11.875,0.0,0.0,0.0,0.0,0.0,0.0,2,0,41.44694846827871,-92.21344780658168,10997.374193489346,99.8440020995056,-0.0053584902805249,0.0050489235231734,,10022.661867135384,12264.339701119052,150,1,2025-09-12,2025-09-26 14:26:28.957,AH,C,1567038058,AMBUSH51,1,1,48,2,1,1,225,2,1,0,0,9,1,225,2,1,-148231.32996622226,-4791865.583077297,4197240.999669488,2.23146,2.88162,-0.222429,-109.483,30.6817,26.4366,-0.049385,-7.58534,7.15889,0.087438,0.00738507,-0.00774709,4,0,41.39257627683705,-91.77181976126782,9981.98784418414,-71.82106785602123,-1.1614607621377977,-5.19684266938033,191.2,10022.661867135384,12264.339701119052,150,True,20.127977742299823,False,171.02460016861482,179.10268845479177,False,9.665130311993574,True,False
1,1970-07-23 10:27:51.901265519,2025-09-12,2025-09-26 14:26:30.126,AH,C,3182448748,JASSM,3,128,76,2,2,1,225,9,2,0,1,26,0,0,0,0,-184914.8558367056,-4786834.198213424,4201963.079557896,-2.30145,-0.152919,0.128567,92.125,-14.125,-11.875,0.0,0.0,0.0,0.0,0.0,0.0,2,0,41.446789356523176,-92.21222941296006,10997.378860842524,99.84480858505844,-0.0044314626016005,0.0050482994283229,,10022.661867135384,12264.339701119052,150,1,2025-09-12,2025-09-26 14:26:30.023,AH,C,1568310590,AMBUSH51,1,1,48,2,1,1,225,2,1,0,0,9,1,225,2,1,-148347.71766421694,-4791832.928425373,4197268.857003732,2.29918,2.88422,-0.227354,-110.141,30.0789,26.6193,-0.20337,-7.62008,7.04975,0.0444363,0.000916502,0.00702721,4,0,41.39293716107716,-91.77322214008603,9970.94731186118,-71.71474252946756,-0.8617231164679496,-1.2859007270795924,192.056,10022.661867135384,12264.339701119052,150,True,20.006663591479036,False,171.28285725649306,179.07452215873334,False,9.424394228087042,True,False
1,1970-07-23 10:27:51.912287729,2025-09-12,2025-09-26 14:26:31.228,AH,C,3183761100,JASSM,3,128,76,2,2,1,225,9,2,0,1,26,0,0,0,0,-184813.5159929556,-4786849.823213424,4201949.825651646,-2.30145,-0.152919,0.128567,92.125,-14.125,-11.875,0.0,0.0,0.0,0.0,0.0,0.0,2,0,41.4466302419361,-92.21101102709522,10997.375175753588,99.84561506292994,-0.0035044379518054,0.00504768498103,,10022.661867135384,12264.339701119052,150,1,2025-09-12,2025-09-26 14:26:31.357,AH,C,1569901256,AMBUSH51,1,1,48,2,1,1,225,2,1,0,0,9,1,225,2,1,-148495.0859222011,-4791792.543187457,4197303.973240029,2.31736,2.88271,-0.226717,-110.74,30.0693,26.8197,-0.0550938,-7.16253,6.6825,-0.0318529,-0.000712604,-0.000941469,4,0,41.393387308483405,-91.77499747832584,9959.005778894209,-71.68504379798088,-0.946883440718902,-0.2638822869420174,192.826,10022.661867135384,12264.339701119052,150,True,19.86793941319732,False,171.3223894449295,179.04003942873538,False,9.421594895964965,True,False
1,1970-07-23 10:27:51.923304710,2025-09-12,2025-09-26 14:26:32.330,AH,C,3185014118,JASSM,3,128,76,2,2,1,225,9,2,0,1,26,0,0,0,0,-184716.75622733065,-4786864.741182174,4201937.169401646,-2.30145,-0.152919,0.128567,92.125,-14.125,-11.875,0.0,0.0,0.0,0.0,0.0,0.0,2,0,41.44647830246277,-92.20984771241724,10997.37172891885,99.84638508552914,-0.0026193099723905,0.0050470942054685,,10022.661867135384,12264.339701119052,150,1,2025-09-12,2025-09-26 14:26:32.390,AH,C,1571134020,AMBUSH51,1,1,48,2,1,1,225,2,1,0,0,9,1,225,2,1,-148610.49716102323,-4791761.076219028,4197331.521070865,2.28862,2.88079,-0.228599,-111.192,30.0308,26.8695,-0.038236,-7.22136,6.72623,-0.0187846,-0.0018278,0.00199009,4,0,41.393739180924655,-91.77638779089794,9950.158952610398,-71.53389156375563,-0.950628706607244,-1.9378544697730755,193.473,10022.661867135384,12264.339701119052,150,True,19.749773848727685,False,171.39397431367593,179.01203063994194,False,9.381358631158287,True,False
1,1970-07-23 10:27:51.933447864,2025-09-12,2025-09-26 14:26:33.344,AH,C,3186326150,JASSM,3,128,76,2,2,1,225,9,2,0,1,26,0,0,0,0,-184615.4417742056,-4786880.362275924,4201923.917448521,-2.30145,-0.152823,0.128567,92.125,-14.125,-11.875,0.0,0.0,0.0,0.0,0.0,0.0,2,0,41.4463191932409,-92.20862964344894,10997.37582090532,99.84355535959874,-0.0057494326075326,0.0043424104516879,,10022.661867135384,12264.339701119052,150,1,2025-09-12,2025-09-26 14:26:33.291,AH,C,1572207720,AMBUSH51,1,1,48,2,1,1,225,2,1,0,0,9,1,225,2,1,-148709.94656483675,-4791734.298020177,4197355.136645669,2.26703,2.885,-0.227944,-111.615,29.884,26.6556,-0.166774,-7.3541,6.92252,-0.0224007,0.0109075,-0.00616792,4,0,41.39403954609657,-91.77758570581156,9943.105052639705,-71.7226085917941,-0.8033820899825225,-3.117415048879772,194.207,10022.661867135384,12264.339701119052,150,True,19.63815232155918,False,171.57912341229195,178.98735226777563,False,9.2272945560273,True,False
1,1970-07-23 10:27:51.944464978,2025-09-12,2025-09-26 14:26:34.446,AH,C,3187638500,JASSM,3,128,76,2,2,1,225,9,2,0,1,26,0,0,0,0,-184514.09997733065,-4786895.985322799,4201910.661589146,-2.30145,-0.152823,0.128567,92.125,-14.125,-11.875,0.0,0.0,0.0,0.0,0.0,0.0,2,0,41.44616003941605,-92.20741125273346,10997.3791250167,99.84436183320584,-0.0048223911599975,0.0043417388206466,,10022.661867135384,12264.339701119052,150,1,2025-09-12,2025-09-26 14:26:34.397,AH,C,1573520018,AMBUSH51,1,1,48,2,1,1,225,2,1,0,0,9,1,225,2,1,-148833.75082290807,-4791701.457225585,4197384.373456735,2.24598,2.88862,-0.225192,-112.2,29.2804,26.5667,-0.254535,-7.34361,6.93105,-0.0030824,0.0071999,-0.0180856,4,0,41.394409411792665,-91.77907681917397,9935.198377015557,-71.97654209645918,-0.7620919103602637,-4.273698014078689,194.818,10022.661867135384,12264.339701119052,150,True,19.512838369181566,False,171.89684780089374,178.95747151364895,False,8.932843879090154,True,False
1,1970-07-23 10:27:51.955507316,2025-09-12,2025-09-26 14:26:35.550,AH,C,3188891416,JASSM,3,128,76,2,2,1,225,9,2,0,1,26,0,0,0,0,-184417.34997733065,-4786910.897432174,4201898.003386021,-2.30145,-0.152823,0.128567,92.125,-14.125,-11.875,0.0,0.0,0.0,0.0,0.0,0.0,2,0,41.44600808299224,-92.20624807426655,10997.373444853249,99.84513175850626,-0.0039373546667543,0.0043410956064091,,10022.661867135384,12264.339701119052,150,1,2025-09-12,2025-09-26 14:26:35.464,AH,C,1574792550,AMBUSH51,1,1,48,2,1,1,225,2,1,0,0,9,1,225,2,1,-148953.08296262135,-4791670.448734461,4197412.131728155,2.27316,2.89115,-0.219966,-112.802,28.9487,26.2721,-0.116077,-7.11279,6.58424,0.0609541,-0.00324885,0.00070012,4,0,41.39475920440733,-91.78051384697488,9928.25844972022,-72.29308338062309,-0.861365927138147,-2.680173599289665,195.392,10022.661867135384,12264.339701119052,150,True,19.392641936001507,False,172.19311919842636,178.92910315626688,False,8.669207558970824,True,False
1,1970-07-23 10:27:51.966265598,2025-09-12,2025-09-26 14:26:36.626,AH,C,3190144122,JASSM,3,128,76,2,2,1,225,9,2,0,1,26,0,0,0,0,-184320.61560233065,-4786925.807588424,4201885.347136021,-2.30145,-0.152823,0.128567,92.125,-14.125,-11.875,0.0,0.0,0.0,0.0,0.0,0.0,2,0,41.44585613602326,-92.20508508886824,10997.373687296567,99.84590155369,-0.0030524603589302,0.0043404492026773,,10022.661867135384,12264.339701119052,150,1,2025-09-12,2025-09-26 14:26:36.591,AH,C,1576144616,AMBUSH51,1,1,48,2,1,1,225,2,1,0,0,9,1,225,2,1,-149081.76219947488,-4791637.388272971,4197441.776338669,2.32681,2.89918,-0.223032,-113.169,28.6499,26.4709,-0.205831,-7.60291,7.15701,0.0462755,0.0106932,0.0100274,4,0,41.39513219027196,-91.78206331313962,9921.086594887818,-72.47099346892624,-0.4114574661178835,0.4973169676458323,195.807,10022.661867135384,12264.339701119052,150,True,19.267246837226327,False,172.27912129620427,178.89870494260202,False,8.605067146990038,True,False
1,1970-07-23 10:27:51.977283186,2025-09-12,2025-09-26 14:26:37.728,AH,C,3191456250,JASSM,3,128,76,2,2,1,225,9,2,0,1,26,0,0,0,0,-184219.29138358065,-4786941.424775924,4201872.089323521,-2.30145,-0.152823,0.128567,92.125,-14.125,-11.875,0.0,0.0,0.0,0.0,0.0,0.0,2,0,41.44569696232179,-92.20386692826,10997.375980397372,99.84670786757428,-0.0021255790073905,0.0043397675665397,,10022.661867135384,12264.339701119052,150,1,2025-09-12,2025-09-26 14:26:37.669,AH,C,1577417148,AMBUSH51,1,1,48,2,1,1,225,2,1,0,0,9,1,225,2,1,-149201.93268651247,-4791607.004559067,4197469.966167073,2.37512,2.89711,-0.228997,-113.393,28.4922,27.2282,-0.223043,-7.40477,6.96638,0.0443593,-0.000377628,0.00311153,4,0,41.39548098799305,-91.78351015727488,9916.701100386865,-72.14264495251945,-0.2628189492315591,3.236675414632619,196.296,10022.661867135384,12264.339701119052,150,True,19.144128008489396,False,172.10711611798226,178.86997993114386,False,8.785194678815582,True,False
1,1970-07-23 10:27:51.988312911,2025-09-12,2025-09-26 14:26:38.831,AH,C,3192768602,JASSM,3,128,76,2,2,1,225,9,2,0,1,26,0,0,0,0,-184117.95056326807,-4786957.041963424,4201858.827604771,-2.30145,-0.152823,0.128663,92.125,-14.125,-11.875,0.0,0.0,0.0,0.0,0.0,0.0,2,0,41.44553775316782,-92.20264857519376,10997.373708019106,99.8516050074243,-0.0048647696700204,0.0043388726511703,,10022.661867135384,12264.339701119052,150,1,2025-09-12,2025-09-26 14:26:38.656,AH,C,1578610146,AMBUSH51,1,1,48,2,1,1,225,2,1,0,0,9,1,225,2,1,-149315.99030826925,-4791578.007146493,4197497.34251539,2.41166,2.89352,-0.235209,-113.363,28.7782,27.9658,-0.122938,-7.34947,6.60437,0.04004,0.00226681,0.0104082,4,0,41.39581716267988,-91.78488347710288,9913.500711709226,-71.74637806382871,-0.1663830684286891,5.281259535409473,196.712,10022.661867135384,12264.339701119052,150,True,19.024390948067023,False,171.7658222276423,178.84153816213552,False,9.148023343185121,True,False
1,1970-07-23 10:27:51.998443347,2025-09-12,2025-09-26 14:26:39.844,AH,C,3194080952,JASSM,3,128,76,2,2,1,225,9,2,0,1,26,0,0,0,0,-184016.6097429556,-4786972.659150924,4201845.565886021,-2.30145,-0.152823,0.128663,92.125,-14.125,-11.875,0.0,0.0,0.0,0.0,0.0,0.0,2,0,41.44537853110673,-92.20143022808422,10997.376923960392,99.85241143969688,-0.0039377378287343,0.0043382603218567,,10022.661867135384,12264.339701119052,150,1,2025-09-12,2025-09-26 14:26:39.724,AH,C,1579882678,AMBUSH51,1,1,48,2,1,1,225,2,1,0,0,9,1,225,2,1,-149436.08198707504,-4791546.780887097,4197527.052075837,2.44903,2.88637,-0.242669,-113.216,29.5076,28.9166,-0.191443,-7.25682,6.75613,0.00790522,-0.012081,0.00385638,4,0,41.396181211517344,-91.78632972507178,9910.349791863367,-71.16343924885011,-0.165238306126216,7.323847343443259,196.932,10022.661867135384,12264.339701119052,150,True,18.901158989987906,False,171.2056245450927,178.80976913387565,False,9.741313788560992,True,False
1,1970-07-23 10:27:52.011402733,2025-09-12,2025-09-26 14:26:41.140,AH,C,3195393302,JASSM,3,128,76,2,2,1,225,9,2,0,1,26,0,0,0,0,-183915.26892264312,-4786988.272432174,4201832.302214146,-2.30145,-0.152823,0.128663,92.125,-14.125,-11.875,0.0,0.0,0.0,0.0,0.0,0.0,2,0,41.445219306214376,-92.20021188872606,10997.371787349566,99.85321786429036,-0.0030107090110954,0.0043376576400736,,10022.661867135384,12264.339701119052,150,1,2025-09-12,2025-09-26 14:26:41.057,AH,C,1581473344,AMBUSH51,1,1,48,2,1,1,225,2,1,0,0,9,1,225,2,1,-149586.70785106882,-4791506.202949681,4197566.044621624,2.45984,2.87781,-0.258205,-112.815,30.7166,30.294,-0.208397,-7.43227,6.85206,-0.0218618,-0.000100909,0.00608886,4,0,41.396657870456416,-91.78814424223158,9906.687043865202,-70.18971660165651,0.096631642228024,7.820733642214957,197.494,10022.661867135384,12264.339701119052,150,True,18.760522912336558,False,170.3237807062597,178.7670875467875,False,10.672030038780967,True,False
1,1970-07-23 10:27:52.020484321,2025-09-12,2025-09-26 14:26:42.048,AH,C,3196705654,JASSM,3,128,76,2,2,1,225,9,2,0,1,26,0,0,0,0,-183813.92810233065,-4787003.887666549,4201819.038542271,-2.30145,-0.152727,0.128663,92.125,-14.125,-11.875,0.0,0.0,0.0,0.0,0.0,0.0,2,0,41.44506005678978,-92.19899355442838,10997.376938794943,99.85038838925296,-0.0061405889078642,0.0036324858579691,,10022.661867135384,12264.339701119052,150,1,2025-09-12,2025-09-26 14:26:42.124,AH,C,1582745876,AMBUSH51,1,1,48,2,1,1,225,2,1,0,0,9,1,225,2,1,-149707.62500132155,-4791472.901169715,4197598.546771295,2.32326,2.86464,-0.269561,-112.655,31.3484,30.8128,0.0133227,-7.15027,6.62334,-0.178102,0.00514011,0.0185225,4,0,41.39705292417111,-91.789601163928,9904.571488225472,-69.2176699156018,0.0123623405740281,-0.2005195046162945,197.653,10022.661867135384,12264.339701119052,150,True,18.636547085078924,False,169.9410871027849,178.7296059412006,False,11.102145411858613,True,False
1,1970-07-23 10:27:52.031505294,2025-09-12,2025-09-26 14:26:43.150,AH,C,3198018004,JASSM,3,128,76,2,2,1,225,9,2,0,1,26,0,0,0,0,-183712.58728201807,-4787019.498994674,4201805.772917271,-2.30145,-0.152727,0.128663,92.125,-14.125,-11.875,0.0,0.0,0.0,0.0,0.0,0.0,2,0,41.44490080453407,-92.19777522788122,10997.373737636264,99.85119480031956,-0.005213560475572,0.0036318226077789,,10022.661867135384,12264.339701119052,150,1,2025-09-12,2025-09-26 14:26:43.256,AH,C,1584097940,AMBUSH51,1,1,48,2,1,1,225,2,1,0,0,9,1,225,2,1,-149834.73256965613,-4791437.648726818,4197633.09282709,2.16128,2.86795,-0.263895,-113.099,30.9642,30.4232,-0.114771,-7.04758,6.55184,-0.0994556,0.00540851,-0.0168143,4,0,41.397472209940055,-91.7911327846568,9902.57667856446,-69.58044105590938,-0.0757838853956256,-9.43073023836886,198.288,10022.661867135384,12264.339701119052,150,True,18.509038673906527,False,170.257590544572,178.68893278971723,False,10.83160119604323,True,False
1,1970-07-23 10:27:52.042267028,2025-09-12,2025-09-26 14:26:44.226,AH,C,3199270704,JASSM,3,128,76,2,2,1,225,9,2,0,1,26,0,0,0,0,-183615.85290701807,-4787034.401338424,4201793.108854771,-2.30145,-0.152727,0.128663,92.125,-14.0,-11.875,0.0,0.0,0.0,0.0,0.0,0.0,2,0,41.44474876568623,-92.19661228561696,10997.374248513155,99.85196455011932,-0.0043286675825015,0.0036311763326055,,10022.661867135384,12264.339701119052,150,1,2025-09-12,2025-09-26 14:26:44.157,AH,C,1585171640,AMBUSH51,1,1,48,2,1,1,225,2,1,0,0,9,1,225,2,1,-149936.97272218755,-4791410.081433214,4197659.690373917,2.14075,2.8767,-0.246923,-113.818,30.4378,29.1682,-0.080609,-6.91855,6.25688,0.0478984,0.0028577,-0.0210109,4,0,41.39779672917513,-91.79236447779746,9900.3367207073,-70.62220271139303,-0.3868552092055858,-10.476440204970448,198.765,10022.661867135384,12264.339701119052,150,False,18.398268792664737,False,170.9002654258268,178.7293069674598,False,10.191540560903732,True,False
1,1970-07-23 10:27:52.053395576,2025-09-12,2025-09-26 14:26:45.339,AH,C,3200583054,JASSM,3,128,76,2,2,1,225,9,2,0,1,26,0,0,0,0,-183514.5120867056,-4787050.010713424,4201779.841276646,-2.30145,-0.152727,0.128663,92.125,-14.0,-11.875,0.0,0.0,0.0,0.0,0.0,0.0,2,0,41.44458948665427,-92.19539397161084,10997.3727333295,99.8527709479022,-0.0034016394958626,0.0036305113439346,,10022.661867135384,12264.339701119052,150,1,2025-09-12,2025-09-26 14:26:45.190,AH,C,1586404404,AMBUSH51,1,1,48,2,1,1,225,2,1,0,0,9,1,225,2,1,-150055.65087440348,-4791378.509221236,4197689.47003749,2.23759,2.88802,-0.239265,-114.485,29.7904,28.2657,-0.291397,-7.30663,6.61963,0.100993,0.00235419,-0.00841705,4,0,41.39816347888304,-91.79379405631516,9896.421475754309,-71.37376275494208,-0.225012741497525,-4.767791230734972,199.07,10022.661867135384,12264.339701119052,150,True,18.27579813587576,False,171.4971064383626,178.69239140394808,False,9.640547174719222,True,False
1,1970-07-23 10:27:52.064302265,2025-09-12,2025-09-26 14:26:46.430,AH,C,3201835754,JASSM,3,128,76,2,2,1,225,9,2,0,1,26,0,0,0,0,-183417.77673514312,-4787064.911104049,4201767.175261021,-2.30145,-0.152727,0.128663,92.125,-14.0,-11.875,0.0,0.0,0.0,0.0,0.0,0.0,2,0,41.44443742239984,-92.1942310296883,10997.374350650036,99.85354069271855,-0.002516738369144,0.0036298650512759,,10022.661867135384,12264.339701119052,150,1,2025-09-12,2025-09-26 14:26:46.257,AH,C,1587676936,AMBUSH51,1,1,48,2,1,1,225,2,1,0,0,9,1,225,2,1,-150177.1850468642,-4791346.94884757,4197719.205673272,2.32529,2.89113,-0.242045,-114.805,29.4109,28.2728,-0.054172,-7.5306,6.85943,0.0691018,0.0103416,0.00630732,4,0,41.398529310799695,-91.79525776628608,9892.66822577318,-71.37596859702678,0.0112394413691354,0.2994300931996389,199.327,10022.661867135384,12264.339701119052,150,True,18.154352533382205,False,171.65681223976839,178.65575256575886,False,9.511264447584344,True,False
1,1970-07-23 10:27:52.075422362,2025-09-12,2025-09-26 14:26:47.542,AH,C,3203207758,JASSM,3,128,76,2,2,1,225,9,2,0,1,26,0,0,0,0,-183311.82946951807,-4787081.227510299,4201753.302214146,-2.30145,-0.152727,0.128663,92.125,-14.0,-11.875,0.0,0.0,0.0,0.0,0.0,0.0,2,0,41.44427087536896,-92.19295735069932,10997.372793446864,99.85438373111936,-0.0015475728045759,0.0036291683120903,,10022.661867135384,12264.339701119052,150,1,2025-09-12,2025-09-26 14:26:47.675,AH,C,1589347136,AMBUSH51,1,1,48,2,1,1,225,2,1,0,0,9,1,225,2,1,-150337.9723003507,-4791305.67575758,4197758.810903833,2.40005,2.88734,-0.247481,-114.801,29.6498,28.9183,-0.0573071,-7.18941,6.56444,0.0300885,0.00946151,0.00238124,4,0,41.39901220435864,-91.79719407084892,9889.47441431699,-71.00552578432021,0.0706392991098588,4.530447276334788,199.816,10022.661867135384,12264.339701119052,150,True,18.005792765282568,False,171.3704908007864,178.60788671240505,False,9.840857778995623,True,False
1,1970-07-23 10:27:52.085463000,2025-09-12,2025-09-26 14:26:48.546,AH,C,3204460456,JASSM,3,128,76,2,2,1,225,9,2,0,1,26,0,0,0,0,-183215.09509451807,-4787096.123994674,4201740.636198521,-2.30145,-0.152727,0.128759,92.125,-14.0,-11.875,0.0,0.0,0.0,0.0,0.0,0.0,2,0,41.444118809503486,-92.19179443361382,10997.375380736225,99.8592442012144,-0.0043288572131126,0.003628364696072,,10022.661867135384,12264.339701119052,150,1,2025-09-12,2025-09-26 14:26:48.689,AH,C,1590579900,AMBUSH51,1,1,48,2,1,1,225,2,1,0,0,9,1,225,2,1,-150457.29782556478,-4791274.312975917,4197789.110872724,2.44707,2.88188,-0.259375,-114.585,30.2159,29.8186,-0.198598,-7.53374,6.8926,0.0740473,0.00927841,0.020006,4,0,41.39938104016433,-91.79863136011268,9887.28085221118,-70.30177758676385,0.3154469538335466,7.148876086531594,199.999,10022.661867135384,12264.339701119052,150,True,17.88551585860333,False,170.87127884708656,178.56908941986404,False,10.375979349987317,True,False
1,1970-07-23 10:27:52.096480527,2025-09-12,2025-09-26 14:26:49.648,AH,C,3205772808,JASSM,3,128,76,2,2,1,225,9,2,0,1,26,0,0,0,0,-183113.75329764312,-4787111.729463424,4201727.362761021,-2.30145,-0.152727,0.128759,92.125,-14.0,-11.875,0.0,0.0,0.0,0.0,0.0,0.0,2,0,41.44395946338064,-92.19057613329228,10997.373153848546,99.86005057989468,-0.0034018189319783,0.0036277511515371,,10022.661867135384,12264.339701119052,150,1,2025-09-12,2025-09-26 14:26:49.623,AH,C,1591693366,AMBUSH51,1,1,48,2,1,1,225,2,1,0,0,9,1,225,2,1,-150563.28938252648,-4791245.785416998,4197817.117091339,2.51076,2.87345,-0.264834,-114.166,30.9076,31.0433,-0.244682,-7.31595,6.67107,0.0627081,-0.00223352,0.0154661,4,0,41.39972000022202,-91.79990830542576,9886.06226773882,-69.75527064153185,0.1895334732689109,10.675127879005354,200.182,10022.661867135384,12264.339701119052,150,False,17.770120601262803,False,170.19415806322826,178.53156069306968,False,11.084227659127706,True,False
1,1970-07-23 10:27:52.107781602,2025-09-12,2025-09-26 14:26:50.778,AH,C,3207085158,JASSM,3,128,76,2,2,1,225,9,2,0,1,26,0,0,0,0,-183012.41247733065,-4787127.332979049,4201714.089323521,-2.30145,-0.152631,0.128759,92.125,-14.0,-12.0,0.0,0.0,0.0,0.0,0.0,0.0,2,0,41.443800115754826,-92.18935785149549,10997.371707236878,99.85722114542618,-0.0065316979718274,0.0029220919818887,,10022.661867135384,12264.339701119052,150,1,2025-09-12,2025-09-26 14:26:50.790,AH,C,1593085198,AMBUSH51,1,1,48,2,1,1,225,2,1,0,0,9,1,225,2,1,-150696.03675233253,-4791208.155055287,4197853.919506975,2.5677,2.85553,-0.277554,-113.334,33.0046,32.4037,-0.255588,-7.45492,6.6705,0.0308209,0.0131171,0.0205844,4,0,41.40016747179856,-91.80150832785208,9883.61403584877,-68.54749118777008,-0.0288373156588313,13.664448194112198,200.256,10022.661867135384,12264.339701119052,150,False,17.639398140380553,False,169.06629230993687,178.45421347967863,False,12.34305960711182,True,False
1,1970-07-23 10:27:52.118261220,2025-09-12,2025-09-26 14:26:51.826,AH,C,3208337858,JASSM,3,128,76,2,2,1,225,9,2,0,1,26,0,0,0,0,-182915.67712576807,-4787142.227510299,4201701.419401646,-2.30145,-0.152631,0.128759,92.125,-14.0,-12.0,0.0,0.0,0.0,0.0,0.0,0.0,2,0,41.44364799898853,-92.1881949404427,10997.376398691998,99.85799085783356,-0.0056468001574898,0.0029214605372038,,10022.661867135384,12264.339701119052,150,1,2025-09-12,2025-09-26 14:26:52.023,AH,C,1594556562,AMBUSH51,1,1,48,2,1,1,225,2,1,0,0,9,1,225,2,1,-150835.25006505995,-4791166.329634145,4197894.88184776,2.56853,2.83834,-0.294421,-112.296,34.6031,34.4953,-0.139273,-7.34172,6.55171,-0.0694492,0.0066423,0.021427,4,0,41.4006667483152,-91.8031871975819,9880.383902227408,-67.1973886206747,-0.045250192910363,13.432894924187393,200.415,10022.661867135384,12264.339701119052,150,False,17.507251421948077,False,167.74459715768958,178.3940169596486,False,13.722998163046848,True,False
1,1970-07-23 10:27:52.131421064,2025-09-12,2025-09-26 14:26:53.142,AH,C,3209590820,JASSM,3,128,76,2,2,1,225,9,2,0,1,26,0,0,0,0,-182818.9222429556,-4787157.122041549,4201688.745573521,-2.30145,-0.152631,0.128759,92.125,-14.0,-12.0,0.0,0.0,0.0,0.0,0.0,0.0,2,0,41.44349584855173,-92.18703180140048,10997.375775338343,99.8587607188179,-0.0047617261772061,0.0029208374188311,,10022.661867135384,12264.339701119052,150,1,2025-09-12,2025-09-26 14:26:53.157,AH,C,1595908628,AMBUSH51,1,1,48,2,1,1,225,2,1,0,0,9,1,225,2,1,-150963.32975535162,-4791125.43485845,4197935.117411827,2.44373,2.82281,-0.306359,-111.524,36.0086,35.9726,-0.0648061,-7.63341,6.74632,-0.0984402,-0.000935227,0.020859,4,0,41.40115764493209,-91.8047327312465,9877.014799458091,-66.11624544804064,-0.1828776361942835,6.017165726826885,200.561,10022.661867135384,12264.339701119052,150,True,17.3811222344801,False,166.72763856811656,178.33145368754188,False,14.807323003375105,True,False
1,1970-07-23 10:27:52.140308236,2025-09-12,2025-09-26 14:26:54.030,AH,C,3210902908,JASSM,3,128,76,2,2,1,225,9,2,0,1,26,0,0,0,0,-182717.60095389312,-4787172.719697799,4201675.472136021,-2.30145,-0.152631,0.128759,92.125,-14.0,-12.0,0.0,0.0,0.0,0.0,0.0,0.0,2,0,41.44333649381866,-92.18581377304356,10997.377728017518,99.85956690756905,-0.0038348786454593,0.0029201741606704,,10022.661867135384,12264.339701119052,150,1,2025-09-12,2025-09-26 14:26:54.022,AH,C,1596942560,AMBUSH51,1,1,48,2,1,1,225,2,1,0,0,9,1,225,2,1,-151058.96985999923,-4791094.486287086,4197966.184864301,2.34199,2.82359,-0.307457,-111.355,36.0466,36.6668,-0.0407333,-7.57463,6.53397,-0.12626,0.00185485,0.00094355,4,0,41.40153354665108,-91.80588698792336,9875.712266088663,-66.10120341573267,-0.1076685201724188,0.2010747328692181,200.671,10022.661867135384,12264.339701119052,150,True,17.270926145948966,False,166.45989183084419,178.28084567436466,False,15.118948348848216,True,False
1,1970-07-23 10:27:52.152580453,2025-09-12,2025-09-26 14:26:55.258,AH,C,3212155606,JASSM,3,128,76,2,2,1,225,9,2,0,1,26,0,0,0,0,-182620.86560233065,-4787187.610322799,4201662.796354771,-2.30145,-0.152631,0.128759,92.125,-14.0,-12.0,0.0,0.0,0.0,0.0,0.0,0.0,2,0,41.44318432493939,-92.1846508803299,10997.375336275349,99.86033660075522,-0.0029499792897018,0.0029195263139672,,10022.661867135384,12264.339701119052,150,1,2025-09-12,2025-09-26 14:26:55.256,AH,C,1598413926,AMBUSH51,1,1,48,2,1,1,225,2,1,0,0,9,1,225,2,1,-151197.57156654805,-4791049.598089671,4198011.681367587,2.26272,2.82681,-0.304573,-111.513,35.8492,36.4495,-0.149261,-7.46777,6.53963,-0.0370294,0.00357966,-0.00413518,4,0,41.40208170290206,-91.80755977550974,9874.769911641057,-66.34341721917647,-0.0943771041984874,-4.284384589614079,200.671,10022.661867135384,12264.339701119052,150,True,17.13869143275613,False,166.61520552733782,178.2086675869173,False,15.040229207419147,True,False
1,1970-07-23 10:27:52.161786589,2025-09-12,2025-09-26 14:26:56.178,AH,C,3213467956,JASSM,3,128,76,2,2,1,225,9,2,0,1,26,0,0,0,0,-182519.52478201807,-4787203.207979049,4201649.519011021,-2.30145,-0.152631,0.128759,92.125,-14.0,-12.0,0.0,0.0,0.0,0.0,0.0,0.0,2,0,41.44302492307115,-92.18343263020404,10997.377700453668,99.86114293130385,-0.0020229555640184,0.0029188713305802,,10022.661867135384,12264.339701119052,150,1,2025-09-12,2025-09-26 14:26:56.190,AH,C,1599527392,AMBUSH51,1,1,48,2,1,1,225,2,1,0,0,9,1,225,2,1,-151300.4116098258,-4791016.657408536,4198045.1357798735,2.24415,2.83361,-0.298963,-111.664,35.5483,35.8824,-0.106588,-7.4149,6.5656,-0.00908492,0.000248631,-0.000997645,4,0,41.402484187983255,-91.80880083499302,9874.31976610316,-66.83358950975664,-0.0480618889215321,-5.232325131519391,200.635,10022.661867135384,12264.339701119052,150,True,17.024429588600068,False,166.9113724218797,178.15310700807944,False,14.806188180687784,True,False
1,1970-07-23 10:27:52.173480881,2025-09-12,2025-09-26 14:26:57.348,AH,C,3214780308,JASSM,3,128,76,2,2,1,225,9,2,0,1,26,0,0,0,0,-182418.18298514312,-4787218.803682174,4201636.239714146,-2.30145,-0.152631,0.128759,92.125,-14.0,-12.0,0.0,0.0,0.0,0.0,0.0,0.0,2,0,41.442865506968985,-92.18221437526,10997.376420233417,99.86194926249011,-0.0010959236227587,0.0029182163725374,,10022.661867135384,12264.339701119052,150,1,2025-09-12,2025-09-26 14:26:57.223,AH,C,1600760156,AMBUSH51,1,1,48,2,1,1,225,2,1,0,0,9,1,225,2,1,-151416.1692781702,-4790980.056324573,4198082.171729434,2.27656,2.83796,-0.293094,-111.836,35.1208,35.4448,-0.123041,-7.49074,6.32921,0.0427157,0.000837439,0.00903914,4,0,41.40293018404103,-91.8101976207841,9873.648134495968,-67.24253980453221,-0.1071729048767113,-3.3018731378422927,200.488,10022.661867135384,12264.339701119052,150,True,16.90288148470466,False,167.2047106081567,178.09155155260729,False,14.57697560511544,True,False
