Subject_cm,Timestamp,SampleDate_cm,SampleTime_cm,Configuration_cm,Scenario_cm,DisTime_cm,MarkingTxt_cm,Application_cm,EntId_cm,Site_cm,ExerciseId_cm,ForceId_cm,Category_cm,Country_cm,Domain_cm,Kind_cm,Extra_cm,Specific_cm,Subcategory_cm,AltCategory_cm,AltCountry_cm,AltDomain_cm,AltKind_cm,ECEF_X_cm,ECEF_Y_cm,ECEF_Z_cm,OriPhi_cm,OriPsi_cm,OriTheta_cm,LinVelX_cm,LinVelY_cm,LinVelZ_cm,LinAccX_cm,LinAccY_cm,LinAccZ_cm,AngVelX_cm,AngVelY_cm,AngVelZ_cm,DrAlg_cm,Appearance_cm,Latitude_cm,Longitude_cm,Altitude_cm,Heading_cm,Pitch_cm,Roll_cm,CalibratedAirspeed_cm,CM_Altitude_Lead_cm,CM_Altitude_Wing_cm,CM_Airspeed_cm,Subject_ac,SampleDate_ac,SampleTime_ac,Configuration_ac,Scenario_ac,DisTime_ac,MarkingTxt_ac,Application_ac,EntId_ac,Site_ac,ExerciseId_ac,ForceId_ac,Category_ac,Country_ac,Domain_ac,Kind_ac,Extra_ac,Specific_ac,Subcategory_ac,AltCategory_ac,AltCountry_ac,AltDomain_ac,AltKind_ac,ECEF_X_ac,ECEF_Y_ac,ECEF_Z_ac,OriPhi_ac,OriPsi_ac,OriTheta_ac,LinVelX_ac,LinVelY_ac,LinVelZ_ac,LinAccX_ac,LinAccY_ac,LinAccZ_ac,AngVelX_ac,AngVelY_ac,AngVelZ_ac,DrAlg_ac,Appearance_ac,Latitude_ac,Longitude_ac,Altitude_ac,Heading_ac,Pitch_ac,Roll_ac,CalibratedAirspeed_ac,CM_Altitude_Lead_ac,CM_Altitude_Wing_ac,CM_Airspeed_ac,Bank_Angle_Condition,distance_nm,Distance_Condition,angle_between_vel,angle_between_pos,Cone_Condition,angle_between_pos_nose,Nose_Cone_Condition,Intercept_Criteria
1,1970-07-23 10:28:05.553215431,2025-09-12,2025-09-26 14:49:15.321,HA,C,516109192,JASSM,3,152,76,2,2,1,225,9,2,0,1,26,0,0,0,0,-188365.0042742056,-4786301.446260299,4202413.644011021,-2.30155,-0.153302,0.128183,92.125,-14.125,-11.875,0.0,0.0,0.0,0.0,0.0,0.0,2,0,41.45219897431703,-92.2537136792909,10997.374929331982,99.8155302328161,-0.00509949942172,0.0023915359536885,,10150.171305463598,12127.771392007851,150,1,2025-09-12,2025-09-26 14:49:15.136,HA,C,3196912950,AMBUSH51,1,1,48,2,1,1,225,2,1,0,0,9,1,225,2,1,-144941.517549311,-4792622.100892999,4196573.524184828,2.32997,3.01041,-0.0958316,-117.162,14.6057,9.15341,-0.100057,-7.25367,6.1751,0.00983185,0.00679418,0.0138266,4,0,41.38416863941853,-91.73224732141594,10147.798453227117,-82.06089032205874,-0.6880266508623958,1.7880465734200242,194.207,10150.171305463598,12127.771392007851,150,True,23.803191853812763,False,176.74955779112858,179.46279844887997,False,3.357981529554846,True,False
1,1970-07-23 10:28:05.562255979,2025-09-12,2025-09-26 14:49:16.225,HA,C,517302238,JASSM,3,152,76,2,2,1,225,9,2,0,1,26,0,0,0,0,-188272.8792742056,-4786315.692354049,4202401.628386021,-2.30155,-0.153302,0.128183,92.125,-14.125,-11.875,0.0,0.0,0.0,0.0,0.0,0.0,2,0,41.45205470215159,-92.25260587759652,10997.376282371391,99.81626359097524,-0.0042567511991585,0.0023909290625472,,10150.171305463598,12127.771392007851,150,1,2025-09-12,2025-09-26 14:49:16.369,HA,C,3198384314,AMBUSH51,1,1,48,2,1,1,225,2,1,0,0,9,1,225,2,1,-145085.26729766637,-4792604.213999074,4196585.006541883,2.31945,3.00809,-0.0962575,-117.134,14.8092,9.44055,-0.346293,-7.28901,6.68292,-0.0133064,0.00702721,0.000625219,4,0,41.38432667939869,-91.73397074473958,10139.395281410145,-81.95580453786954,-0.769204284350886,1.1710772859962375,194.243,10150.171305463598,12127.771392007851,150,True,23.674697209654873,False,176.919035449783,179.45869908846245,False,3.2047305920858884,True,False
1,1970-07-23 10:28:05.573277243,2025-09-12,2025-09-26 14:49:17.327,HA,C,518554936,JASSM,3,152,76,2,2,1,225,9,2,0,1,26,0,0,0,0,-188176.14685233065,-4786330.647432174,4202389.013151646,-2.30155,-0.153302,0.128183,92.125,-14.125,-11.875,0.0,0.0,0.0,0.0,0.0,0.0,2,0,41.45190323283658,-92.25144267865498,10997.376858178091,99.8170336195222,-0.0033718611154007,0.0023903209079315,,10150.171305463598,12127.771392007851,150,1,2025-09-12,2025-09-26 14:49:17.303,HA,C,3199497780,AMBUSH51,1,1,48,2,1,1,225,2,1,0,0,9,1,225,2,1,-145194.65411807408,-4792590.454699097,4196594.057319565,2.3145,3.00961,-0.100712,-117.291,13.7487,10.7672,-0.0945508,-7.55304,6.98897,0.000227825,0.00223976,-0.00311985,4,0,41.38444991975038,-91.73528224925316,10133.322872996196,-81.82386987513487,-0.5336165140199236,0.8948511092538872,194.622,10150.171305463598,12127.771392007851,150,True,23.5622843921256,False,177.12147961147042,179.45518282943445,False,2.870724583692112,True,False
1,1970-07-23 10:28:05.586596371,2025-09-12,2025-09-26 14:49:18.659,HA,C,519747984,JASSM,3,152,76,2,2,1,225,9,2,0,1,26,0,0,0,0,-188084.0198992056,-4786344.889619674,4202376.995573521,-2.30155,-0.153302,0.128183,92.125,-14.125,-11.875,0.0,0.0,0.0,0.0,0.0,0.0,2,0,41.45175894933109,-92.25033486551564,10997.373480767836,99.81776698095295,-0.0025290987611375,0.0023897270638265,,10150.171305463598,12127.771392007851,150,1,2025-09-12,2025-09-26 14:49:18.670,HA,C,3201128212,AMBUSH51,1,1,48,2,1,1,225,2,1,0,0,9,1,225,2,1,-145355.57467301335,-4792570.27279458,4196608.236323983,2.30981,3.01189,-0.105597,-117.995,14.5112,10.7681,-0.142249,-7.53137,7.23909,0.00453674,0.00257474,0.00112664,4,0,41.3846366747993,-91.73721161155706,10126.422337044569,-81.70274163293456,-0.2488560902358593,0.6388011387335016,195.453,10150.171305463598,12127.771392007851,150,True,23.42436963525143,False,177.31210434261098,179.45120126434145,False,2.745618996694472,True,False
1,1970-07-23 10:28:05.594615308,2025-09-12,2025-09-26 14:49:19.461,HA,C,521000682,JASSM,3,152,76,2,2,1,225,9,2,0,1,26,0,0,0,0,-187987.28747733065,-4786359.842744674,4202364.378386021,-2.30155,-0.153302,0.128183,92.125,-14.125,-11.875,0.0,0.0,0.0,0.0,0.0,0.0,2,0,41.45160745549848,-92.24917167805806,10997.374778844547,99.81853699737896,-0.0016442090455544,0.0023891171794234,,10150.171305463598,12127.771392007851,150,1,2025-09-12,2025-09-26 14:49:19.436,HA,C,3202042844,AMBUSH51,1,1,48,2,1,1,225,2,1,0,0,9,1,225,2,1,-145446.05292418404,-4792559.073075025,4196616.731805995,2.30549,3.01429,-0.108446,-118.261,14.2305,11.3551,0.013714,-7.48747,7.10985,0.000899857,0.00563737,0.0077575,4,0,41.38474431977004,-91.73829635542404,10124.04670820479,-81.6724970674859,-0.0373684047732653,0.4054582898529613,196.027,10150.171305463598,12127.771392007851,150,True,23.322163413414167,False,177.41225745044875,179.4488701390903,False,2.5929608143785043,True,False
1,1970-07-23 10:28:05.610236176,2025-09-12,2025-09-26 14:49:21.023,HA,C,522253380,JASSM,3,152,76,2,2,1,225,9,2,0,1,26,0,0,0,0,-187890.5550554556,-4786374.795869674,4202351.759245396,-2.30155,-0.153302,0.128183,92.125,-14.125,-11.875,0.0,0.0,0.0,0.0,0.0,0.0,2,0,41.45145593672701,-92.24800849601336,10997.376835680298,99.8193070079072,-0.0007593170602155,0.0023884942690882,,10150.171305463598,12127.771392007851,150,1,2025-09-12,2025-09-26 14:49:21.003,HA,C,3203911876,AMBUSH51,1,1,48,2,1,1,225,2,1,0,0,9,1,225,2,1,-145632.91878040016,-4792536.530828169,4196635.1984207705,2.30508,3.01575,-0.112432,-118.993,13.936,12.1755,-0.199237,-7.57705,7.2402,0.00430163,0.00656948,-0.00890183,4,0,41.38496932455137,-91.74053648885,10122.599510374688,-81.55848866130393,0.1780123195548482,0.3913471458295969,197.201,10150.171305463598,12127.771392007851,150,True,23.167561355023707,False,177.5055534607214,179.4465816529839,False,2.4278547613486894,True,False
1,1970-07-23 10:28:05.614256847,2025-09-12,2025-09-26 14:49:21.425,HA,C,523506078,JASSM,3,152,76,2,2,1,225,9,2,0,1,26,0,0,0,0,-187793.82263358065,-4786389.747041549,4202339.138151646,-2.30145,-0.153206,0.128183,92.125,-14.125,-11.875,0.0,0.0,0.0,0.0,0.0,0.0,2,0,41.45130440464317,-92.24684532029842,10997.374852177036,99.8164406422106,-0.0039313631100165,0.0071772554564463,,10150.171305463598,12127.771392007851,150,1,2025-09-12,2025-09-26 14:49:21.436,HA,C,3204428842,AMBUSH51,1,1,48,2,1,1,225,2,1,0,0,9,1,225,2,1,-145683.85334771877,-4792530.66102987,4196640.288123203,2.31605,3.01663,-0.110605,-119.211,13.6572,12.4745,-0.217898,-7.52955,7.25599,0.0406683,0.00250192,-0.005602,4,0,41.38502939359184,-91.74114699152948,10123.005785573252,-81.67052381750396,0.1464534958140392,1.0252273874439866,197.421,10150.171305463598,12127.771392007851,150,True,23.08685484293332,False,177.45965309903573,179.44532782869865,False,2.433676188358396,True,False
1,1970-07-23 10:28:05.625215724,2025-09-12,2025-09-26 14:49:22.521,HA,C,524699126,JASSM,3,152,76,2,2,1,225,9,2,0,1,26,0,0,0,0,-187701.6956804556,-4786403.985322799,4202327.118620396,-2.30145,-0.153206,0.128279,92.125,-14.125,-11.875,0.0,0.0,0.0,0.0,0.0,0.0,2,0,41.45116008693086,-92.2457375293678,10997.376458311312,99.82126449983572,-0.0067550287907749,0.0071762662694743,,10150.171305463598,12127.771392007851,150,1,2025-09-12,2025-09-26 14:49:22.503,HA,C,3205701374,AMBUSH51,1,1,48,2,1,1,225,2,1,0,0,9,1,225,2,1,-145812.01354820354,-4792515.680793351,4196653.689161647,2.36907,3.01878,-0.112751,-119.544,13.8516,13.0475,-0.219887,-7.36491,7.0464,0.044195,0.0041227,0.00414559,4,0,41.385185791052656,-91.74268320356998,10124.804809100848,-81.66115584830467,0.3209027223447864,4.077024560295893,197.873,10150.171305463598,12127.771392007851,150,True,22.96667011794528,False,177.64783836937207,179.44437706509748,False,2.21558751280097,True,False
1,1970-07-23 10:28:05.634276068,2025-09-12,2025-09-26 14:49:23.427,HA,C,525892172,JASSM,3,152,76,2,2,1,225,9,2,0,1,26,0,0,0,0,-187609.5706804556,-4786418.221650924,4202315.097136021,-2.30145,-0.153206,0.128279,92.125,-14.125,-11.875,0.0,0.0,0.0,0.0,0.0,0.0,2,0,41.4510157565442,-92.24462976760704,10997.373747349764,99.82199781651876,-0.0059122869700539,0.0071756835165284,,10150.171305463598,12127.771392007851,150,1,2025-09-12,2025-09-26 14:49:23.536,HA,C,3206934140,AMBUSH51,1,1,48,2,1,1,225,2,1,0,0,9,1,225,2,1,-145934.770689726,-4792500.977568974,4196667.354516724,2.43379,3.01342,-0.122985,-119.693,14.2316,14.1671,-0.248618,-7.32347,7.08232,0.0833393,0.00332583,0.00609094,4,0,41.38534328376706,-91.74415478661184,10127.462536031107,-81.02131017878686,0.4840671043908395,7.753686674672949,198.581,10150.171305463598,12127.771392007851,150,True,22.84933792575745,False,177.99884812426794,179.44372554393985,False,1.776932382215687,True,False
1,1970-07-23 10:28:05.645301575,2025-09-12,2025-09-26 14:49:24.530,HA,C,527204524,JASSM,3,152,76,2,2,1,225,9,2,0,1,26,0,0,0,0,-187508.2308367056,-4786433.881807174,4202301.874479771,-2.30145,-0.153206,0.128279,92.125,-14.125,-11.875,0.0,0.0,0.0,0.0,0.0,0.0,2,0,41.450856986765366,-92.24341120723786,10997.378379231404,99.82280447729326,-0.0049852512054231,0.0071750519182179,,10150.171305463598,12127.771392007851,150,1,2025-09-12,2025-09-26 14:49:24.536,HA,C,3208127138,AMBUSH51,1,1,48,2,1,1,225,2,1,0,0,9,1,225,2,1,-146054.3679949091,-4792485.982127717,4196681.837048535,2.50057,3.00723,-0.13624,-119.611,15.1817,15.6142,-0.112285,-7.29222,7.00375,0.0566348,0.00439734,0.0104935,4,0,41.3855085859525,-91.7455887409028,10130.944786537231,-80.22132825516076,0.728011497661728,11.542613432059916,198.911,10150.171305463598,12127.771392007851,150,False,22.72853881599822,False,178.52405107275453,179.44328053362437,False,1.0951991522517737,True,False
1,1970-07-23 10:28:05.656315624,2025-09-12,2025-09-26 14:49:25.631,HA,C,528457304,JASSM,3,152,76,2,2,1,225,9,2,0,1,26,0,0,0,0,-187411.4925554556,-4786448.829072799,4202289.249479771,-2.30145,-0.153206,0.128279,92.125,-14.125,-11.875,0.0,0.0,0.0,0.0,0.0,0.0,2,0,41.45070540645379,-92.2422479847203,10997.377514577198,99.82357450322912,-0.004100308848042,0.0071744411745348,,10150.171305463598,12127.771392007851,150,1,2025-09-12,2025-09-26 14:49:25.669,HA,C,3209479204,AMBUSH51,1,1,48,2,1,1,225,2,1,0,0,9,1,225,2,1,-146189.96731103086,-4792467.223507767,4196700.272767413,2.55025,2.99247,-0.15309,-119.405,17.0107,17.6026,-0.136617,-7.27479,7.0689,0.0379344,0.0087978,0.0230249,4,0,41.38572004036695,-91.74721520527532,10134.95126458893,-78.94481100944948,0.7484521535150066,14.28326299934344,199.18,10150.171305463598,12127.771392007851,150,False,22.60125709593748,False,178.79555019114713,179.4430923424217,False,0.6907885158861872,True,False
1,1970-07-23 10:28:05.675805915,2025-09-12,2025-09-26 14:49:27.580,HA,C,529710072,JASSM,3,152,76,2,2,1,225,9,2,0,1,26,0,0,0,0,-187314.7542742056,-4786463.776338424,4202276.622526646,-2.30145,-0.153206,0.128279,92.125,-14.125,-11.875,0.0,0.0,0.0,0.0,0.0,0.0,2,0,41.450553801202446,-92.24108476761847,10997.37740935119,99.82434452326454,-0.0032153642195414,0.0071738174049233,,10150.171305463598,12127.771392007851,150,1,2025-09-12,2025-09-26 14:49:27.603,HA,C,3211785668,AMBUSH51,1,1,48,2,1,1,225,2,1,0,0,9,1,225,2,1,-146420.33980660298,-4792430.932608973,4196736.863562948,2.6216,2.95937,-0.191722,-118.541,20.6427,21.398,-0.225905,-7.44864,7.07755,0.0403313,0.0085502,0.0230977,4,0,41.38614111091617,-91.74998007564707,10142.332789423692,-76.05128296796829,0.8418454861374833,18.08651753344454,200.072,10150.171305463598,12127.771392007851,150,False,22.421376923087617,False,176.9527271453456,179.44403644920288,False,2.902456860252858,True,False
1,1970-07-23 10:28:05.678194485,2025-09-12,2025-09-26 14:49:27.819,HA,C,531081924,JASSM,3,152,76,2,2,1,225,9,2,0,1,26,0,0,0,0,-187208.8206804556,-4786480.141572799,4202262.796354771,-2.30145,-0.153206,0.128279,92.125,-14.125,-11.875,0.0,0.0,0.0,0.0,0.0,0.0,2,0,41.4503877955007,-92.23981099018876,10997.37830839222,99.82518772875709,-0.0022463074883506,0.0071731574325783,,10150.171305463598,12127.771392007851,150,1,2025-09-12,2025-09-26 14:49:27.836,HA,C,3212064034,AMBUSH51,1,1,48,2,1,1,225,2,1,0,0,9,1,225,2,1,-146449.16148942427,-4792425.79402294,4196742.089637864,2.63157,2.9547,-0.196303,-118.421,20.8663,22.0981,-0.321994,-7.32642,6.91945,0.0298805,0.0032218,0.0215851,4,0,41.386201720947945,-91.75032620667874,10143.19240808609,-75.680667477246,0.8235814678530251,18.61109697354238,200.072,10150.171305463598,12127.771392007851,150,False,22.347329182598727,False,176.6048724727633,179.44287024977314,False,3.2441842367525853,True,False
1,1970-07-23 10:28:05.691414542,2025-09-12,2025-09-26 14:49:29.141,HA,C,532334624,JASSM,3,152,76,2,2,1,225,9,2,0,1,26,0,0,0,0,-187112.0863054556,-4786495.084932174,4202250.169401646,-2.30145,-0.153206,0.128279,92.125,-14.125,-11.875,0.0,0.0,0.0,0.0,0.0,0.0,2,0,41.450236187943645,-92.23864783294826,10997.379457882034,99.82595770431236,-0.0013614024530045,0.0071725493790732,,10150.171305463598,12127.771392007851,150,1,2025-09-12,2025-09-26 14:49:29.136,HA,C,3213614932,AMBUSH51,1,1,48,2,1,1,225,2,1,0,0,9,1,225,2,1,-146602.19160267944,-4792395.867866997,4196772.423486794,2.67113,2.92874,-0.226813,-117.366,23.8944,25.3477,-0.229244,-7.76312,7.32539,0.0127197,0.0161048,0.0242545,4,0,41.38655669067201,-91.7521649819188,10146.8712111418,-73.40978293458349,0.9257850429952262,20.60012274846973,200.622,10150.171305463598,12127.771392007851,150,False,22.209160195541504,False,174.56450987999864,179.44224438625702,False,5.36595297532822,True,False
1,1970-07-23 10:28:05.700235848,2025-09-12,2025-09-26 14:49:30.023,HA,C,533646976,JASSM,3,152,76,2,2,1,225,9,2,0,1,26,0,0,0,0,-187010.74841483065,-4786510.737275924,4202236.938932896,-2.30145,-0.15311,0.128279,92.125,-14.125,-11.875,0.0,0.0,0.0,0.0,0.0,0.0,2,0,41.45007734813601,-92.23742932875324,10997.375055842744,99.8231280407632,-0.0044913177750419,0.006469334433726,,10150.171305463598,12127.771392007851,150,1,2025-09-12,2025-09-26 14:49:30.036,HA,C,3214688630,AMBUSH51,1,1,48,2,1,1,225,2,1,0,0,9,1,225,2,1,-146707.48855282986,-4792372.541762998,4196796.416257673,2.6665,2.9115,-0.23946,-116.618,26.023,27.9948,-0.207094,-7.71685,7.32171,-0.0210837,0.00471151,0.0357082,4,0,41.38683825491289,-91.75343121738278,10149.45119908623,-72.22678040153362,0.7087369143907917,20.12353920859566,201.136,10150.171305463598,12127.771392007851,150,False,22.094590488055477,False,172.96149411360173,179.44074275490476,False,7.000957737619031,True,False
1,1970-07-23 10:28:05.710274947,2025-09-12,2025-09-26 14:49:31.027,HA,C,534899930,JASSM,3,152,76,2,2,1,225,9,2,0,1,26,0,0,0,0,-186913.99450858065,-4786525.680635299,4202224.306120396,-2.30145,-0.15311,0.128279,92.125,-14.125,-11.875,0.0,0.0,0.0,0.0,0.0,0.0,2,0,41.44992568150799,-92.23626594916664,10997.371845520562,99.82389815880792,-0.0036062343602356,0.0064686655112681,,10150.171305463598,12127.771392007851,150,1,2025-09-12,2025-09-26 14:49:31.037,HA,C,3215881630,AMBUSH51,1,1,48,2,1,1,225,2,1,0,0,9,1,225,2,1,-146823.63210421725,-4792344.768718528,4196825.579651536,2.65321,2.89362,-0.257254,-115.707,28.2491,30.6658,-0.0970183,-7.63666,7.1694,-0.0133959,0.000259034,0.0244668,4,0,41.387179188471215,-91.7548286476554,10153.129718070211,-70.80487504371762,0.6732098247411615,19.127147257904003,201.466,10150.171305463598,12127.771392007851,150,False,21.976112892330946,False,171.3040392424744,179.43852922545142,False,8.693832685629738,True,False
1,1970-07-23 10:28:05.721297143,2025-09-12,2025-09-26 14:49:32.129,HA,C,536212024,JASSM,3,152,76,2,2,1,225,9,2,0,1,26,0,0,0,0,-186812.6761492056,-4786541.329072799,4202211.077604771,-2.30145,-0.15311,0.128375,92.125,-14.125,-11.875,0.0,0.0,0.0,0.0,0.0,0.0,2,0,41.44976684835245,-92.23504769185136,10997.374687851152,99.82879516648252,-0.006345770877295,0.0064676439011713,,10150.171305463598,12127.771392007851,150,1,2025-09-12,2025-09-26 14:49:32.169,HA,C,3217233694,AMBUSH51,1,1,48,2,1,1,225,2,1,0,0,9,1,225,2,1,-146952.9653672785,-4792311.065954467,4196861.1726403935,2.63183,2.87592,-0.277115,-114.585,30.7273,33.3993,-0.213403,-7.52564,7.12041,-0.04546,-0.00169464,0.0296641,4,0,41.38759637832945,-91.75638580878714,10157.168677821886,-69.30656550812175,0.7355835700768952,17.653427508317854,201.905,10150.171305463598,12127.771392007851,150,False,21.847276566025055,False,169.53176669865198,179.4339760512638,False,10.511092148991168,True,False
1,1970-07-23 10:28:05.732292954,2025-09-12,2025-09-26 14:49:33.229,HA,C,537524376,JASSM,3,152,76,2,2,1,225,9,2,0,1,26,0,0,0,0,-186711.3363054556,-4786556.979463424,4202197.845182896,-2.30145,-0.15311,0.128375,92.125,-14.125,-11.875,0.0,0.0,0.0,0.0,0.0,0.0,2,0,41.44960796930554,-92.23382918278875,10997.377272689986,99.82960177338929,-0.0054187369569499,0.0064670110550745,,10150.171305463598,12127.771392007851,150,1,2025-09-12,2025-09-26 14:49:33.236,HA,C,3218506226,AMBUSH51,1,1,48,2,1,1,225,2,1,0,0,9,1,225,2,1,-147075.82077673264,-4792276.105315806,4196898.4405306615,2.59363,2.85655,-0.295046,-113.656,32.6369,35.8996,-0.190754,-7.51984,7.22277,-0.0408931,0.0116128,0.0317093,4,0,41.388033519257824,-91.75786607493512,10161.266696415698,-67.82956010044977,0.6661183062926257,15.169150982319117,202.382,10150.171305463598,12127.771392007851,150,False,21.721639556770565,False,168.01829224949398,179.42649392284204,False,12.06417781192868,True,False
1,1970-07-23 10:28:05.744635611,2025-09-12,2025-09-26 14:49:34.463,HA,C,538777074,JASSM,3,152,76,2,2,1,225,9,2,0,1,26,0,0,0,0,-186614.6019304556,-4786571.916963424,4202185.212370396,-2.30145,-0.15311,0.128375,92.125,-14.125,-11.875,0.0,0.0,0.0,0.0,0.0,0.0,2,0,41.44945629660423,-92.23266605614148,10997.37701729126,99.83037171686,-0.0045338330234975,0.0064664048605651,,10150.171305463598,12127.771392007851,150,1,2025-09-12,2025-09-26 14:49:34.369,HA,C,3219858292,AMBUSH51,1,1,48,2,1,1,225,2,1,0,0,9,1,225,2,1,-147203.80031214686,-4792237.04346647,4196940.531449349,2.48728,2.84375,-0.311659,-112.748,34.3441,38.1404,-0.119929,-7.75056,7.39176,-0.169699,0.00215862,0.0222197,4,0,41.38852666116574,-91.75940907112164,10166.132901658822,-66.65852737521398,0.8158714532568825,8.871887255494439,202.785,10150.171305463598,12127.771392007851,150,True,21.59518798016858,False,166.6559884052675,179.41468177988844,False,13.473472729591636,True,False
1,1970-07-23 10:28:05.756630189,2025-09-12,2025-09-26 14:49:35.663,HA,C,540089574,JASSM,3,152,76,2,2,1,225,9,2,0,1,26,0,0,0,0,-186513.25232108065,-4786587.565400924,4202171.976042271,-2.30145,-0.15311,0.128375,92.125,-14.125,-11.875,0.0,0.0,0.0,0.0,0.0,0.0,2,0,41.44929737986558,-92.23144744289388,10997.376111546417,99.83117838776208,-0.0036067113984045,0.0064657744646125,,10150.171305463598,12127.771392007851,150,1,2025-09-12,2025-09-26 14:49:35.635,HA,C,3221369424,AMBUSH51,1,1,48,2,1,1,225,2,1,0,0,9,1,225,2,1,-147346.1711742879,-4792193.40892764,4196989.528269373,2.30993,2.84191,-0.325068,-112.445,34.1723,39.5212,0.00873822,-7.45894,7.04391,-0.112438,0.00557911,-0.0128487,4,0,41.38909097418428,-91.76112567029593,10175.828056613143,-66.03440967301717,1.2749956970888197,-1.3111757105355932,203.396,10150.171305463598,12127.771392007851,150,True,21.457804464966358,False,166.1540931964028,179.39835613326647,False,14.01108870470383,True,False
1,1970-07-23 10:28:05.765195260,2025-09-12,2025-09-26 14:49:36.519,HA,C,541401778,JASSM,3,152,76,2,2,1,225,9,2,0,1,26,0,0,0,0,-186411.92419608065,-4786603.209932174,4202158.741667271,-2.30145,-0.15311,0.128375,92.125,-14.125,-11.875,0.0,0.0,0.0,0.0,0.0,0.0,2,0,41.44913848166016,-92.23022909419156,10997.377394211086,99.8319848810034,-0.0026797861006548,0.0064651419051066,,10150.171305463598,12127.771392007851,150,1,2025-09-12,2025-09-26 14:49:36.569,HA,C,3222482890,AMBUSH51,1,1,48,2,1,1,225,2,1,0,0,9,1,225,2,1,-147450.96945737087,-4792161.354423012,4197026.106878453,2.1882,2.853,-0.319941,-112.697,33.7499,39.2422,-0.144239,-7.46557,7.01327,-0.149411,0.00584127,0.00632397,4,0,41.38950941982534,-91.7623892422044,10184.24301528933,-66.66359340078289,1.5101648156501215,-8.099512549287956,203.543,10150.171305463598,12127.771392007851,150,True,21.342003968746734,False,166.39664932578614,179.38323774418922,False,13.805669591300488,True,False
1,1970-07-23 10:28:05.776234108,2025-09-12,2025-09-26 14:49:37.623,HA,C,542714128,JASSM,3,152,76,2,2,1,225,9,2,0,1,26,0,0,0,0,-186310.58435233065,-4786618.854463424,4202145.503386021,-2.30145,-0.15311,0.128375,92.125,-14.125,-11.875,0.0,0.0,0.0,0.0,0.0,0.0,2,0,41.448979546913904,-92.22901061137436,10997.374559675129,99.83279146047973,-0.0017527533015507,0.0064645039378506,,10150.171305463598,12127.771392007851,150,1,2025-09-12,2025-09-26 14:49:37.636,HA,C,3223755422,AMBUSH51,1,1,48,2,1,1,225,2,1,0,0,9,1,225,2,1,-147571.7172210124,-4792125.806060519,4197067.182660144,2.05401,2.84928,-0.310757,-113.631,32.6885,37.9402,0.0151087,-6.30115,6.01368,-0.110653,-0.0139327,-0.0228085,4,0,41.38997607397023,-91.76384462942023,10195.032881366378,-66.90678224981639,1.0021924709465462,-15.859464701242995,203.8,10150.171305463598,12127.771392007851,150,False,21.21721960881127,False,167.27500966139536,179.36462575118293,False,12.968917079809971,True,False
1,1970-07-23 10:28:05.786277330,2025-09-12,2025-09-26 14:49:38.627,HA,C,543967004,JASSM,3,152,76,2,2,1,225,9,2,0,1,26,0,0,0,0,-186213.8363054556,-4786633.788057174,4202132.866667271,-2.30145,-0.153015,0.128375,92.125,-14.125,-11.875,0.0,0.0,0.0,0.0,0.0,0.0,2,0,41.448827825548136,-92.22784734559043,10997.375632648602,99.82992530692124,-0.0049246571126251,0.0057608503814831,,10150.171305463598,12127.771392007851,150,1,2025-09-12,2025-09-26 14:49:38.769,HA,C,3225107486,AMBUSH51,1,1,48,2,1,1,225,2,1,0,0,9,1,225,2,1,-147700.5118057579,-4792088.658675605,4197108.06075203,1.95511,2.85606,-0.283806,-115.079,32.4237,34.6888,-0.0541362,-6.72953,6.32092,-0.0526234,-0.0111905,-0.0147212,4,0,41.39044940973469,-91.76539674374268,10202.079165147034,-68.28382237606566,0.2101100265280415,-21.42642587644195,204.276,10150.171305463598,12127.771392007851,150,False,21.090610329856037,False,168.7460040552244,179.34230381313253,False,11.579175235277065,True,False
1,1970-07-23 10:28:05.797297735,2025-09-12,2025-09-26 14:49:39.729,HA,C,545279176,JASSM,3,152,76,2,2,1,225,9,2,0,1,26,0,0,0,0,-186112.5120867056,-4786649.428682174,4202119.628386021,-2.30145,-0.153015,0.128375,92.125,-14.125,-11.875,0.0,0.0,0.0,0.0,0.0,0.0,2,0,41.44866888520263,-92.22662906296245,10997.375420155491,99.8307317489603,-0.0039977669203889,0.0057601487008481,,10150.171305463598,12127.771392007851,150,1,2025-09-12,2025-09-26 14:49:39.836,HA,C,3226380018,AMBUSH51,1,1,48,2,1,1,225,2,1,0,0,9,1,225,2,1,-147824.88670165624,-4792054.264775118,4197143.630791451,1.92484,2.8637,-0.259762,-116.663,31.2493,31.7364,0.0433421,-6.69249,6.23603,-0.0229188,-0.0060951,-0.0248246,4,0,41.39087132015598,-91.76689507151714,10204.05956550571,-69.57539545446694,-0.4288561816712858,-23.04098721400168,204.777,10150.171305463598,12127.771392007851,150,False,20.964400010332874,False,170.3252498047891,179.31977322744757,False,10.060214500045829,True,False
1,1970-07-23 10:28:05.808648149,2025-09-12,2025-09-26 14:49:40.864,HA,C,546472224,JASSM,3,152,76,2,2,1,225,9,2,0,1,26,0,0,0,0,-186020.3831804556,-4786663.647432174,4202107.591276646,-2.30145,-0.153015,0.128375,92.125,-14.125,-11.875,0.0,0.0,0.0,0.0,0.0,0.0,2,0,41.448524370907,-92.22552134746984,10997.373449201254,99.83146499888802,-0.0031549963679458,0.0057595235119204,,10150.171305463598,12127.771392007851,150,1,2025-09-12,2025-09-26 14:49:40.877,HA,C,3227612784,AMBUSH51,1,1,48,2,1,1,225,2,1,0,0,9,1,225,2,1,-147945.49853376226,-4792022.702925555,4197174.0334660895,1.90526,2.87915,-0.229952,-118.171,30.209,27.981,0.0902657,-7.22115,6.18327,0.00341114,0.00198177,-0.0267762,4,0,41.391242169677646,-91.76834742374288,10201.521148566544,-71.40948252427977,-0.9709296649148584,-23.92585590765732,205.107,10150.171305463598,12127.771392007851,150,False,20.84578567287654,False,172.08497201114653,179.29868768772354,False,8.380489564199989,True,False
1,1970-07-23 10:28:05.817192561,2025-09-12,2025-09-26 14:49:41.719,HA,C,547665270,JASSM,3,152,76,2,2,1,225,9,2,0,1,26,0,0,0,0,-185928.25622733065,-4786677.866182174,4202095.554167271,-2.30145,-0.153015,0.128471,92.125,-14.125,-11.875,0.0,0.0,0.0,0.0,0.0,0.0,2,0,41.44837984549027,-92.224413660237,10997.37620063928,99.83628883828646,-0.0059785667541843,0.0057585988897801,,10150.171305463598,12127.771392007851,150,1,2025-09-12,2025-09-26 14:49:41.636,HA,C,3228527416,AMBUSH51,1,1,48,2,1,1,225,2,1,0,0,9,1,225,2,1,-148037.16445779544,-4792000.061880752,4197194.63590875,1.9265,2.89917,-0.208098,-119.123,28.5516,25.8534,-0.291414,-7.55578,6.88562,0.0343142,0.0157928,-0.0304381,4,0,41.39149909428789,-91.76945073715628,10197.477911404148,-73.0898123650989,-1.0036829721809428,-22.430909209629725,205.352,10150.171305463598,12127.771392007851,150,False,20.743785997591814,False,173.38843199813894,179.28333824143402,False,7.109113144694161,True,False
1,1970-07-23 10:28:05.827239709,2025-09-12,2025-09-26 14:49:42.723,HA,C,548798664,JASSM,3,152,76,2,2,1,225,9,2,0,1,26,0,0,0,0,-185840.73669608065,-4786691.372041549,4202084.116667271,-2.30145,-0.153015,0.128471,92.125,-14.125,-11.875,0.0,0.0,0.0,0.0,0.0,0.0,2,0,41.448242532689214,-92.22336137566538,10997.373440908572,99.83698539191992,-0.0051779604607777,0.0057580533043901,,10150.171305463598,12127.771392007851,150,1,2025-09-12,2025-09-26 14:49:42.736,HA,C,3229839716,AMBUSH51,1,1,48,2,1,1,225,2,1,0,0,9,1,225,2,1,-148168.09951278628,-4791970.027080658,4197221.133727083,1.96834,2.92713,-0.185359,-120.485,26.0799,22.9263,-0.153168,-8.24634,7.31036,0.040762,0.0190718,-0.0193859,4,0,41.39183256686032,-91.77102586766942,10191.025449326224,-75.11355920255524,-0.7292924061631824,-19.68978534156942,205.779,10150.171305463598,12127.771392007851,150,False,20.622629943407816,False,175.24061248560028,179.2649206507216,False,5.299438856580364,True,False
1,1970-07-23 10:28:05.836293734,2025-09-12,2025-09-26 14:49:43.629,HA,C,549991710,JASSM,3,152,76,2,2,1,225,9,2,0,1,26,0,0,0,0,-185748.6097429556,-4786705.588838424,4202072.077604771,-2.30145,-0.153015,0.128471,92.125,-14.125,-11.875,0.0,0.0,0.0,0.0,0.0,0.0,2,0,41.44809798491964,-92.22225369892702,10997.375995965249,99.83771861002428,-0.0043352073710838,0.0057574830883254,,10150.171305463598,12127.771392007851,150,1,2025-09-12,2025-09-26 14:49:43.768,HA,C,3231072480,AMBUSH51,1,1,48,2,1,1,225,2,1,0,0,9,1,225,2,1,-148293.90848549013,-4791944.394968326,4197243.712165726,2.00802,2.9512,-0.168314,-121.537,23.2832,20.8544,-0.237139,-8.36219,7.43265,0.0347137,0.0129756,-0.0284053,4,0,41.39211431349997,-91.7725381553604,10186.52107054455,-76.75101939549465,-0.3820567865448045,-17.15776269821924,205.853,10150.171305463598,12127.771392007851,150,False,20.502246852252256,False,176.87865503941688,179.25130322593935,False,3.6572414906882313,True,False
1,1970-07-23 10:28:05.846319111,2025-09-12,2025-09-26 14:49:44.631,HA,C,551184758,JASSM,3,152,76,2,2,1,225,9,2,0,1,26,0,0,0,0,-185656.4808367056,-4786719.803682174,4202060.036589146,-2.30145,-0.153015,0.128471,92.125,-14.125,-11.875,0.0,0.0,0.0,0.0,0.0,0.0,2,0,41.44795342538353,-92.22114600466853,10997.373859545416,99.83845183762266,-0.0034924375018183,0.0057569146235409,,10150.171305463598,12127.771392007851,150,1,2025-09-12,2025-09-26 14:49:44.802,HA,C,3232305246,AMBUSH51,1,1,48,2,1,1,225,2,1,0,0,9,1,225,2,1,-148419.25057435257,-4791921.868696621,4197263.8971039485,2.01543,2.9699,-0.153373,-122.426,20.5245,19.1735,-0.0625778,-8.27786,7.25176,0.00509434,0.0120269,-0.0182541,4,0,41.392361493673,-91.77404373059944,10184.438236490643,-78.09632254646839,-0.1705247553429328,-16.55503838498095,205.853,10150.171305463598,12127.771392007851,150,False,20.382501186409367,False,178.28653132133834,179.24192580982609,False,2.163780625984529,True,False
1,1970-07-23 10:28:05.857191887,2025-09-12,2025-09-26 14:49:45.719,HA,C,552377804,JASSM,3,152,76,2,2,1,225,9,2,0,1,26,0,0,0,0,-185564.35388358065,-4786734.018525924,4202047.995573521,-2.30145,-0.153015,0.128471,92.125,-14.125,-11.875,0.0,0.0,0.0,0.0,0.0,0.0,2,0,41.44780885472765,-92.22003833867096,10997.37644514202,99.83918504441095,-0.0026496847740769,0.0057563426838921,,10150.171305463598,12127.771392007851,150,1,2025-09-12,2025-09-26 14:49:45.768,HA,C,3233458478,AMBUSH51,1,1,48,2,1,1,225,2,1,0,0,9,1,225,2,1,-148538.83045556495,-4791902.951105931,4197281.306197544,2.02767,2.98963,-0.140153,-123.13,18.1903,17.3631,-0.191037,-8.17401,7.31589,0.0266951,0.00323012,-0.0295309,4,0,41.3925695116649,-91.77547914990096,10184.78045884349,-79.40819990341895,0.1560283478167043,-15.688023162911795,206.036,10150.171305463598,12127.771392007851,150,False,20.266253800531768,False,179.25201387161468,179.23659638324267,False,0.8127424830936771,True,False
1,1970-07-23 10:28:05.867357637,2025-09-12,2025-09-26 14:49:46.735,HA,C,553570850,JASSM,3,152,76,2,2,1,225,9,2,0,1,26,0,0,0,0,-185472.2269304556,-4786748.231416549,4202035.954557896,-2.30145,-0.153015,0.128471,92.125,-14.125,-11.875,0.0,0.0,0.0,0.0,0.0,0.0,2,0,41.44766428502913,-92.21893067849632,10997.378767025826,99.83991824524104,-0.0018069346802856,0.005755782042365,,10150.171305463598,12127.771392007851,150,1,2025-09-12,2025-09-26 14:49:46.902,HA,C,3234810544,AMBUSH51,1,1,48,2,1,1,225,2,1,0,0,9,1,225,2,1,-148677.83508321858,-4791883.952171675,4197299.688687939,2.0481,3.01155,-0.125316,-123.675,15.3731,15.8188,-0.11924,-8.22302,7.23107,0.00686284,0.00472815,-0.00388135,4,0,41.39278098293038,-91.77714664364942,10188.524462969744,-80.87279467879871,0.5191963468029492,-14.36005833695712,205.853,10150.171305463598,12127.771392007851,150,False,20.13967570953736,False,178.38151321568174,179.23517011841355,False,0.8539878158166767,True,False
1,1970-07-23 10:28:05.876274232,2025-09-12,2025-09-26 14:49:47.627,HA,C,554763898,JASSM,3,152,76,2,2,1,225,9,2,0,1,26,0,0,0,0,-185380.09997733065,-4786762.442354049,4202023.911589146,-2.30145,-0.152919,0.128471,92.125,-14.125,-11.875,0.0,0.0,0.0,0.0,0.0,0.0,2,0,41.44751970311332,-92.21782302414404,10997.376583532649,99.8370153558006,-0.0050211068997077,0.0050516355888832,,10150.171305463598,12127.771392007851,150,1,2025-09-12,2025-09-26 14:49:47.535,HA,C,3235566110,AMBUSH51,1,1,48,2,1,1,225,2,1,0,0,9,1,225,2,1,-148756.19850392974,-4791874.535175116,4197309.142971534,2.05868,3.02205,-0.119502,-123.881,14.1081,14.7537,-0.0240566,-8.01406,7.10074,0.0279497,0.00753279,-0.0123535,4,0,41.392886358757565,-91.77808621279928,10191.85052295075,-81.5192710489785,0.7444303350126261,-13.687374691927884,205.963,10150.171305463598,12127.771392007851,150,False,20.046434982686783,False,177.73788884488152,179.23542379434022,False,1.5285300254297252,True,False
1,1970-07-23 10:28:05.886293580,2025-09-12,2025-09-26 14:49:48.629,HA,C,555956944,JASSM,3,152,76,2,2,1,225,9,2,0,1,26,0,0,0,0,-185287.9730242056,-4786776.653291549,4202011.866667271,-2.30145,-0.152919,0.128471,92.125,-14.125,-11.875,0.0,0.0,0.0,0.0,0.0,0.0,2,0,41.44737509735449,-92.21671537471,10997.374694203578,99.83774854535956,-0.004178354953113,0.0050510067604699,,10150.171305463598,12127.771392007851,150,1,2025-09-12,2025-09-26 14:49:48.635,HA,C,3236878408,AMBUSH51,1,1,48,2,1,1,225,2,1,0,0,9,1,225,2,1,-148892.78004434356,-4791860.331964465,4197324.087821621,2.07784,3.04232,-0.106721,-124.205,11.6227,13.332,-0.180824,-8.16132,7.18432,-0.00186941,0.00906619,-0.025738,4,0,41.3930465065688,-91.77972299736156,10199.765689343472,-82.83384075988462,1.122415081937079,-12.480196917706674,205.315,10150.171305463598,12127.771392007851,150,False,19.921722182906958,False,176.45643266527415,179.24077049943608,False,2.8398453862601287,True,False
1,1970-07-23 10:28:05.896592090,2025-09-12,2025-09-26 14:49:49.659,HA,C,557090338,JASSM,3,152,76,2,2,1,225,9,2,0,1,26,0,0,0,0,-185200.45153983065,-4786790.153291549,4202000.423307896,-2.30145,-0.152919,0.128471,92.125,-14.125,-11.875,0.0,0.0,0.0,0.0,0.0,0.0,2,0,41.44723770991855,-92.21566310198008,10997.37457257248,99.8384450773088,-0.0033777326036191,0.0050504086049268,,10150.171305463598,12127.771392007851,150,1,2025-09-12,2025-09-26 14:49:49.669,HA,C,3238111174,AMBUSH51,1,1,48,2,1,1,225,2,1,0,0,9,1,225,2,1,-149022.24301807585,-4791849.25507202,4197336.878377786,2.07691,3.0575,-0.0969843,-124.416,9.50764,12.0021,-0.0489098,-7.94023,7.08349,0.0183165,0.00845658,-0.0241484,4,0,41.39317480825301,-91.78127359334856,10210.16351137218,-83.82655031987049,1.4023354103056835,-12.46650257207592,204.997,10150.171305463598,12127.771392007851,150,False,19.803671564900483,False,175.33273334676574,179.24952194304507,False,3.9879310971505446,True,False
1,1970-07-23 10:28:05.906212847,2025-09-12,2025-09-26 14:49:50.621,HA,C,558223744,JASSM,3,152,76,2,2,1,225,9,2,0,1,26,0,0,0,0,-185112.9300554556,-4786803.651338424,4201988.979948521,-2.30145,-0.152919,0.128471,92.125,-14.125,-11.875,0.0,0.0,0.0,0.0,0.0,0.0,2,0,41.44710032448022,-92.21461083459285,10997.37374500007,99.83914160382132,-0.0025771128884256,0.0050498217516481,,10150.171305463598,12127.771392007851,150,1,2025-09-12,2025-09-26 14:49:50.701,HA,C,3239343938,AMBUSH51,1,1,48,2,1,1,225,2,1,0,0,9,1,225,2,1,-149149.9116283165,-4791840.387490268,4197348.421042039,2.09049,3.07211,-0.0876454,-124.405,7.46189,10.954,-0.0807375,-7.91567,6.95398,0.0121059,0.0114714,-0.0126303,4,0,41.39328185537036,-91.78280193809928,10223.160573302144,-84.78065486808752,1.6742183527275474,-11.637120709041897,204.667,10150.171305463598,12127.771392007851,150,False,19.686817631166928,False,174.28944018134882,179.26132963522596,False,5.047504402468759,True,False
1,1970-07-23 10:28:05.915258650,2025-09-12,2025-09-26 14:49:51.525,HA,C,559416778,JASSM,3,152,76,2,2,1,225,9,2,0,1,26,0,0,0,0,-185020.80310233065,-4786817.860322799,4201976.933073521,-2.30145,-0.152919,0.128567,92.125,-14.125,-11.875,0.0,0.0,0.0,0.0,0.0,0.0,2,0,41.446955686234666,-92.21350320032776,10997.37596834029,99.84396543292505,-0.0054006344116122,0.005048936459929,,10150.171305463598,12127.771392007851,150,1,2025-09-12,2025-09-26 14:49:51.668,HA,C,3240497170,AMBUSH51,1,1,48,2,1,1,225,2,1,0,0,9,1,225,2,1,-149270.98359678985,-4791833.7941610245,4197357.887967655,2.10197,3.08489,-0.0777853,-124.34,5.94198,9.5638,-0.173413,-7.75041,6.96949,0.0107993,0.0121663,-0.0228793,4,0,41.39336256321921,-91.7842506403229,10236.752295782124,-85.68815552128619,1.8488870629558016,-10.94673253233152,204.447,10150.171305463598,12127.771392007851,150,False,19.571231470934002,False,173.39552442813212,179.27512699997797,False,5.973166603635346,True,False
1,1970-07-23 10:28:05.925804803,2025-09-12,2025-09-26 14:49:52.580,HA,C,560609824,JASSM,3,152,76,2,2,1,225,9,2,0,1,26,0,0,0,0,-184928.67419608065,-4786832.065400924,4201964.886198521,-2.30145,-0.152919,0.128567,92.125,-14.125,-11.875,0.0,0.0,0.0,0.0,0.0,0.0,2,0,41.44681106102177,-92.2123955494437,10997.372942864866,99.84469861526746,-0.004557870886675,0.0050483921109487,,10150.171305463598,12127.771392007851,150,1,2025-09-12,2025-09-26 14:49:52.635,HA,C,3241650402,AMBUSH51,1,1,48,2,1,1,225,2,1,0,0,9,1,225,2,1,-149390.2925987349,-4791828.756451173,4197366.214116348,2.12201,3.09442,-0.0709661,-124.197,4.43889,8.4935,-0.0855209,-7.85901,6.88573,0.0354232,0.00732889,0.00453466,4,0,41.39342662517884,-91.78567770563792,10251.56851597912,-86.34254106731937,2.000328861463674,-9.779763784564924,204.13,10150.171305463598,12127.771392007851,150,True,19.456769992615165,False,172.5645565550122,179.29093246145231,False,6.829148547899828,True,False
1,1970-07-23 10:28:05.937853902,2025-09-12,2025-09-26 14:49:53.785,HA,C,561922176,JASSM,3,152,76,2,2,1,225,9,2,0,1,26,0,0,0,0,-184827.33435233065,-4786847.692354049,4201951.632292271,-2.30145,-0.152919,0.128567,92.125,-14.125,-11.875,0.0,0.0,0.0,0.0,0.0,0.0,2,0,41.44665193656911,-92.21117716186532,10997.373309001758,99.84550509462125,-0.0036308435865929,0.0050477663314834,,10150.171305463598,12127.771392007851,150,1,2025-09-12,2025-09-26 14:49:53.736,HA,C,3242962702,AMBUSH51,1,1,48,2,1,1,225,2,1,0,0,9,1,225,2,1,-149527.71483767772,-4791824.567089384,4197374.64840084,2.15914,3.10649,-0.0617766,-124.002,2.84343,7.63092,-0.144596,-7.46114,6.74095,0.0297203,-0.000849923,-0.0136643,4,0,41.393482991896015,-91.7873208246133,10270.104022795727,-87.19531990909267,2.1716440411944262,-7.637514520562827,203.47,10150.171305463598,12127.771392007851,150,True,19.32775124076942,False,171.73580903989816,179.31162796387736,False,7.683374909580208,True,False
1,1970-07-23 10:28:05.948337483,2025-09-12,2025-09-26 14:49:54.833,HA,C,563234526,JASSM,3,152,76,2,2,1,225,9,2,0,1,26,0,0,0,0,-184725.99450858065,-4786863.317354049,4201938.378386021,-2.30145,-0.152919,0.128567,92.125,-14.125,-11.875,0.0,0.0,0.0,0.0,0.0,0.0,2,0,41.44649281083419,-92.20995878114192,10997.374363800996,99.8463115668904,-0.0027038189143959,0.0050471518415333,,10150.171305463598,12127.771392007851,150,1,2025-09-12,2025-09-26 14:49:54.735,HA,C,3244155700,AMBUSH51,1,1,48,2,1,1,225,2,1,0,0,9,1,225,2,1,-149650.6006549673,-4791821.985620189,4197381.193841984,2.18182,3.11339,-0.0600968,-123.658,1.99185,6.66311,-0.233815,-7.61531,6.78569,0.0270821,-0.000487899,-0.0145423,4,0,41.39351971959165,-91.78878970111754,10287.390254347703,-87.52947687226347,2.4054384474606803,-6.327654468334002,202.822,10150.171305463598,12127.771392007851,150,True,19.206659290658017,False,171.1866560403171,179.33152396013037,False,8.26690150642247,True,False
1,1970-07-23 10:28:05.959190647,2025-09-12,2025-09-26 14:49:55.919,HA,C,564606524,JASSM,3,152,76,2,2,1,225,9,2,0,1,26,0,0,0,0,-184620.0472429556,-4786879.651338424,4201924.520964146,-2.30145,-0.152823,0.128567,92.125,-14.125,-11.875,0.0,0.0,0.0,0.0,0.0,0.0,2,0,41.44632643876657,-92.20868501368344,10997.375865836748,99.84351870903376,-0.0057915644842784,0.0043424538249573,,10150.171305463598,12127.771392007851,150,1,2025-09-12,2025-09-26 14:49:56.035,HA,C,3245706598,AMBUSH51,1,1,48,2,1,1,225,2,1,0,0,9,1,225,2,1,-149812.06224784622,-4791819.820011085,4197388.883818559,2.21437,3.11688,-0.0476427,-123.314,1.12414,5.86714,-0.10906,-7.09329,6.18263,0.0125283,-0.0117668,-0.00195888,4,0,41.39355450973461,-91.79071922176158,10311.156730666156,-88.1988392064544,2.0853800666700333,-4.477859212975354,202.382,10150.171305463598,12127.771392007851,150,True,19.062633394488245,False,170.6622825706019,179.35968723300846,False,8.833220921077666,True,False
1,1970-07-23 10:28:05.970209854,2025-09-12,2025-09-26 14:49:57.020,HA,C,565859228,JASSM,3,152,76,2,2,1,225,9,2,0,1,26,0,0,0,0,-184523.3128679556,-4786894.563447799,4201911.866667271,-2.30145,-0.152823,0.128567,92.125,-14.125,-11.875,0.0,0.0,0.0,0.0,0.0,0.0,2,0,41.44617451799079,-92.2075220160159,10997.37467086246,99.84428851720344,-0.0049066698262414,0.0043418091574767,,10150.171305463598,12127.771392007851,150,1,2025-09-12,2025-09-26 14:49:57.102,HA,C,3246979130,AMBUSH51,1,1,48,2,1,1,225,2,1,0,0,9,1,225,2,1,-149942.4302941119,-4791818.233211987,4197394.453534315,2.22553,3.12152,-0.0467346,-122.948,0.908108,5.26016,-0.0797042,-7.20448,6.42334,-0.000388031,0.00461372,-0.0188887,4,0,41.39357729778183,-91.79227710184932,10329.367071793144,-88.41474152230492,2.2517771283797727,-3.833720018450372,201.905,10150.171305463598,12127.771392007851,150,True,18.940267559750374,False,170.439646218934,179.38190606201317,False,9.094824709316695,True,False
1,1970-07-23 10:28:05.980232306,2025-09-12,2025-09-26 14:49:58.023,HA,C,567111928,JASSM,3,152,76,2,2,1,225,9,2,0,1,26,0,0,0,0,-184426.5784929556,-4786909.475557174,4201899.210417271,-2.30145,-0.152823,0.128567,92.125,-14.125,-11.875,0.0,0.0,0.0,0.0,0.0,0.0,2,0,41.44602257227906,-92.2063590237743,10997.374235154422,99.84505831946096,-0.0040217728921596,0.0043411514639681,,10150.171305463598,12127.771392007851,150,1,2025-09-12,2025-09-26 14:49:58.202,HA,C,3248291430,AMBUSH51,1,1,48,2,1,1,225,2,1,0,0,9,1,225,2,1,-150077.45476007162,-4791817.1791177895,4197399.448184863,2.22468,3.12504,-0.0419767,-122.631,0.488725,4.74926,-0.198837,-7.31647,6.54565,-0.0114714,-0.00212741,-0.0069419,4,0,41.39359214639417,-91.79389040330037,10348.007830823906,-88.75367642223266,2.223977155113822,-3.886910212028196,201.356,10150.171305463598,12127.771392007851,150,True,18.815528631810857,False,170.1536521772543,179.40510925872388,False,9.418912296569122,True,False
1,1970-07-23 10:28:05.991256356,2025-09-12,2025-09-26 14:49:59.125,HA,C,568424578,JASSM,3,152,76,2,2,1,225,9,2,0,1,26,0,0,0,0,-184325.2152117056,-4786925.098604049,4201885.948698521,-2.30145,-0.152823,0.128567,92.125,-14.125,-11.875,0.0,0.0,0.0,0.0,0.0,0.0,2,0,41.445863359797855,-92.20514038738747,10997.373010330755,99.84586495093248,-0.0030945358451941,0.0043404785616072,,10150.171305463598,12127.771392007851,150,1,2025-09-12,2025-09-26 14:49:59.202,HA,C,3249484428,AMBUSH51,1,1,48,2,1,1,225,2,1,0,0,9,1,225,2,1,-150200.98117228813,-4791816.687311799,4197403.514632101,2.22359,3.12974,-0.0392518,-122.284,0.12062,4.24544,-0.148542,-7.32193,6.59223,-0.00423297,-0.00291387,-0.00683787,4,0,41.39359950510209,-91.79536614472676,10365.140909303833,-89.05001287962378,2.3240954309257016,-3.950004420387752,200.806,10150.171305463598,12127.771392007851,150,True,18.694431787972494,False,169.88753708924386,179.4259572452191,False,9.721806857176079,True,False
1,1970-07-23 10:28:06.002271380,2025-09-12,2025-09-26 14:50:00.227,HA,C,569736630,JASSM,3,152,76,2,2,1,225,9,2,0,1,26,0,0,0,0,-184223.89685233065,-4786940.713838424,4201872.692839146,-2.30145,-0.152823,0.128567,92.125,-14.125,-11.875,0.0,0.0,0.0,0.0,0.0,0.0,2,0,41.44570421014049,-92.20392229743548,10997.375050263365,99.84667121816376,-0.0021677108886316,0.0043398109485824,,10150.171305463598,12127.771392007851,150,1,2025-09-12,2025-09-26 14:50:00.135,HA,C,3250597894,AMBUSH51,1,1,48,2,1,1,225,2,1,0,0,9,1,225,2,1,-150313.71724052768,-4791816.564018104,4197406.80216951,2.22901,3.13278,-0.0350265,-121.997,-0.103657,3.69454,-0.112312,-7.17505,6.46026,0.0167977,-0.00481346,0.00235419,4,0,41.3936014076501,-91.79671285261136,10380.665910643942,-89.34792480927271,2.295870291666571,-3.6451022308815215,200.659,10150.171305463598,12127.771392007851,150,True,18.57914067433141,False,169.6634584443394,179.44438437675498,False,9.983169045426967,True,False
1,1970-07-23 10:28:06.012317665,2025-09-12,2025-09-26 14:50:01.231,HA,C,570989330,JASSM,3,152,76,2,2,1,225,9,2,0,1,26,0,0,0,0,-184127.16345389312,-4786955.622041549,4201860.034636021,-2.30145,-0.152823,0.128663,92.125,-14.125,-11.875,0.0,0.0,0.0,0.0,0.0,0.0,2,0,41.44555223787907,-92.20275933545994,10997.37634453901,99.85153169432044,-0.0049490479513414,0.0043389386303363,,10150.171305463598,12127.771392007851,150,1,2025-09-12,2025-09-26 14:50:01.235,HA,C,3251910192,AMBUSH51,1,1,48,2,1,1,225,2,1,0,0,9,1,225,2,1,-150447.70603931212,-4791816.751870882,4197410.362776717,2.24321,3.13451,-0.0304872,-121.667,-0.416989,3.27871,-0.21791,-7.34443,6.56363,0.0101169,-0.00489252,-0.00143249,4,0,41.39359931886775,-91.79831331070184,10399.196631064302,-89.60975393059378,2.199449318409472,-2.8386268569529194,200.476,10150.171305463598,12127.771392007851,150,True,18.455160621173558,False,169.43589721289376,179.46577400126765,False,10.252019760634356,True,False
1,1970-07-23 10:28:06.023363644,2025-09-12,2025-09-26 14:50:02.336,HA,C,572242028,JASSM,3,152,76,2,2,1,225,9,2,0,1,26,0,0,0,0,-184030.42907889312,-4786970.528291549,4201847.374479771,-2.30145,-0.152823,0.128663,92.125,-14.125,-11.875,0.0,0.0,0.0,0.0,0.0,0.0,2,0,41.44540025253127,-92.20159636813824,10997.373506040043,99.8523014706099,-0.0040641543258837,0.0043383519857903,,10150.171305463598,12127.771392007851,150,1,2025-09-12,2025-09-26 14:50:02.268,HA,C,3253142958,AMBUSH51,1,1,48,2,1,1,225,2,1,0,0,9,1,225,2,1,-150574.05565253156,-4791817.417667497,4197413.081976215,2.25525,3.13388,-0.0252722,-121.412,-0.641729,2.84722,-0.240439,-7.25947,6.42636,0.01629,-0.0116836,0.000161246,4,0,41.393590112298696,-91.79982233478762,10416.49643827183,-89.81130939499414,1.9760572652619488,-2.157005820093977,199.84,10150.171305463598,12127.771392007851,150,True,18.3353127231183,False,169.23693850314768,179.48463342753516,False,10.492964474347355,True,False
1,1970-07-23 10:28:06.035190400,2025-09-12,2025-09-26 14:50:03.519,HA,C,573614032,JASSM,3,152,76,2,2,1,225,9,2,0,1,26,0,0,0,0,-183924.48181326807,-4786986.854463424,4201833.509245396,-2.30145,-0.152823,0.128663,92.125,-14.125,-11.875,0.0,0.0,0.0,0.0,0.0,0.0,2,0,41.44523378164699,-92.20032264701214,10997.37822570373,99.85314455296133,-0.0030949846455522,0.0043377122893341,,10150.171305463598,12127.771392007851,150,1,2025-09-12,2025-09-26 14:50:03.335,HA,C,3254415490,AMBUSH51,1,1,48,2,1,1,225,2,1,0,0,9,1,225,2,1,-150704.03804337973,-4791817.993285653,4197415.752812715,2.25631,3.13645,-0.0229648,-121.18,-0.748772,2.4333,-0.209715,-7.30599,6.5197,-0.0264225,0.00227513,-0.00485923,4,0,41.39358041626651,-91.80137478404367,10433.758730842364,-90.00885774827007,2.000186598305944,-2.099107227253184,199.437,10150.171305463598,12127.771392007851,150,True,18.208499969867766,False,169.0866497686309,179.50166042181772,False,10.687726156395307,True,False
1,1970-07-23 10:28:06.046217539,2025-09-12,2025-09-26 14:50:04.621,HA,C,574926606,JASSM,3,152,76,2,2,1,225,9,2,0,1,26,0,0,0,0,-183823.12341483065,-4787002.469697799,4201820.241667271,-2.30145,-0.152727,0.128663,92.125,-14.125,-11.875,0.0,0.0,0.0,0.0,0.0,0.0,2,0,41.44507451106313,-92.19910410208988,10997.372736608077,99.8503152175634,-0.006224705565745,0.0036325507965343,,10150.171305463598,12127.771392007851,150,1,2025-09-12,2025-09-26 14:50:04.736,HA,C,3256085688,AMBUSH51,1,1,48,2,1,1,225,2,1,0,0,9,1,225,2,1,-150872.48433830478,-4791818.949351815,4197418.6282074405,2.22401,3.13847,-0.0213071,-120.771,-0.957914,1.76267,-0.172979,-7.25807,6.50799,-0.00651746,0.00103926,-0.00102677,4,0,41.39356261536303,-91.80338654477607,10455.388194217998,-90.15793713984438,2.025631432617878,-3.952403432527138,198.911,10150.171305463598,12127.771392007851,150,True,18.06394155607538,False,168.8248299053337,179.5203564789675,False,11.010308901976936,True,False
1,1970-07-23 10:28:06.057234586,2025-09-12,2025-09-26 14:50:05.723,HA,C,576238734,JASSM,3,152,76,2,2,1,225,9,2,0,1,26,0,0,0,0,-183721.80017264312,-4787018.081025924,4201806.979948521,-2.30145,-0.152727,0.128663,92.125,-14.125,-11.875,0.0,0.0,0.0,0.0,0.0,0.0,2,0,41.44491528231344,-92.1978859850848,10997.379178121646,99.85112149016597,-0.0052978361115972,0.0036318826140038,,10150.171305463598,12127.771392007851,150,1,2025-09-12,2025-09-26 14:50:05.702,HA,C,3257238920,AMBUSH51,1,1,48,2,1,1,225,2,1,0,0,9,1,225,2,1,-150988.96647883105,-4791820.031825166,4197420.022819821,2.21542,-3.13854,-0.0143005,-120.516,-1.38969,1.34996,-0.363387,-7.44857,6.85852,-0.010997,0.00488004,-0.00919727,4,0,41.39354377068902,-91.80477753390672,10470.10212106592,-90.69442405757748,2.0268680760896216,-4.4576187437772985,198.581,10150.171305463598,12127.771392007851,150,True,17.9469316975843,False,168.5441018977162,179.52988711786966,False,11.330315015345056,True,False
1,1970-07-23 10:28:06.067272138,2025-09-12,2025-09-26 14:50:06.727,HA,C,577551084,JASSM,3,152,76,2,2,1,225,9,2,0,1,26,0,0,0,0,-183620.45935233065,-4787033.692354049,4201793.712370396,-2.30145,-0.152727,0.128663,92.125,-14.0,-11.875,0.0,0.0,0.0,0.0,0.0,0.0,2,0,41.44475600514927,-92.19666766395422,10997.376724957408,99.85192789533085,-0.0043708054017686,0.0036312063379195,,10150.171305463598,12127.771392007851,150,1,2025-09-12,2025-09-26 14:50:06.702,HA,C,3258431918,AMBUSH51,1,1,48,2,1,1,225,2,1,0,0,9,1,225,2,1,-151109.26518958257,-4791821.716491953,4197420.837997415,2.1974,-3.13181,-0.0101743,-120.253,-2.05272,0.833913,-0.231671,-7.64653,6.87969,-0.0337088,0.00212949,-0.0147587,4,0,41.39351669975923,-91.80621388281708,10485.343467805978,-91.12803211149478,2.1609117812116088,-5.50125794426013,197.873,10150.171305463598,12127.771392007851,150,True,17.82799513452603,False,168.2046751571823,179.58928921144602,False,11.77197445342757,True,False
1,1970-07-23 10:28:06.078290398,2025-09-12,2025-09-26 14:50:07.829,HA,C,578863430,JASSM,3,152,76,2,2,1,225,9,2,0,1,26,0,0,0,0,-183519.11853201807,-4787049.301729049,4201780.444792271,-2.30145,-0.152727,0.128663,92.125,-14.0,-11.875,0.0,0.0,0.0,0.0,0.0,0.0,2,0,41.44459672670399,-92.1954493496774,10997.374960302735,99.85273429340882,-0.0034437773164066,0.0036305413514985,,10150.171305463598,12127.771392007851,150,1,2025-09-12,2025-09-26 14:50:07.701,HA,C,3259624918,AMBUSH51,1,1,48,2,1,1,225,2,1,0,0,9,1,225,2,1,-151229.25298363465,-4791824.23626847,4197421.149830664,2.1792,-3.12493,-0.00674666,-119.944,-2.9277,0.268033,0.0365326,-7.41425,6.7208,-0.0113091,0.00908076,-0.00520045,4,0,41.393481304058575,-91.80764619969403,10501.53053493959,-91.53719419363784,2.3275953090255337,-6.556254758828597,197.836,10150.171305463598,12127.771392007851,150,True,17.709332528876303,False,167.70625650376508,179.58729301896787,False,12.312395450695671,True,False
1,1970-07-23 10:28:06.089801453,2025-09-12,2025-09-26 14:50:08.980,HA,C,580116134,JASSM,3,152,76,2,2,1,225,9,2,0,1,26,0,0,0,0,-183422.3831804556,-4787064.202119674,4201767.778776646,-2.30145,-0.152727,0.128663,92.125,-14.0,-11.875,0.0,0.0,0.0,0.0,0.0,0.0,2,0,41.444444663009534,-92.1942864074964,10997.37633948518,99.85350403850688,-0.0025588761908898,0.003629895060974,,10150.171305463598,12127.771392007851,150,1,2025-09-12,2025-09-26 14:50:09.102,HA,C,3261295116,AMBUSH51,1,1,48,2,1,1,225,2,1,0,0,9,1,225,2,1,-151397.50371723005,-4791829.113122178,4197420.49462418,2.19038,-3.11718,0.00531236,-119.526,-4.05436,-0.700527,-0.318044,-7.18707,6.58083,0.0314763,-0.00593073,-0.00989427,4,0,41.39341627454141,-91.8096541269614,10525.176151864518,-92.3509058923014,2.204700770882212,-5.947442482743404,197.421,10150.171305463598,12127.771392007851,150,True,17.568021564469976,False,166.9934236795431,179.57658406803756,False,13.091400173835797,True,False
1,1970-07-23 10:28:06.102612768,2025-09-12,2025-09-26 14:50:10.261,HA,C,581488134,JASSM,3,152,76,2,2,1,225,9,2,0,1,26,0,0,0,0,-183316.43591483065,-4787080.518525924,4201753.905729771,-2.30145,-0.152727,0.128663,92.125,-14.0,-11.875,0.0,0.0,0.0,0.0,0.0,0.0,2,0,41.444278116592,-92.19301272822432,10997.374521471957,99.8543470772162,-0.0015897106276336,0.0036291983241351,,10150.171305463598,12127.771392007851,150,1,2025-09-12,2025-09-26 14:50:10.269,HA,C,3262686948,AMBUSH51,1,1,48,2,1,1,225,2,1,0,0,9,1,225,2,1,-151535.3875493898,-4791833.767746942,4197418.67540461,2.2261,-3.11652,0.0128503,-119.167,-4.04287,-1.89773,-0.109913,-7.08019,6.24344,0.0401732,-0.00541891,-0.00280568,4,0,41.39335038551551,-91.81129939656452,10543.401800256275,-92.7012884728808,1.948733698860488,-3.913934453234658,196.932,10150.171305463598,12127.771392007851,150,True,17.437747419456745,False,166.64687606246136,179.55849281184507,False,13.508386019442344,True,False
1,1970-07-23 10:28:06.112192865,2025-09-12,2025-09-26 14:50:11.219,HA,C,582800578,JASSM,3,152,76,2,2,1,225,9,2,0,1,26,0,0,0,0,-183215.08825858065,-4787096.125947799,4201740.634245396,-2.30145,-0.152727,0.128759,92.125,-14.0,-11.875,0.0,0.0,0.0,0.0,0.0,0.0,2,0,41.44411878626008,-92.19179435102215,10997.375296309145,99.85924425588186,-0.0043287922366886,0.0036283523968381,,10150.171305463598,12127.771392007851,150,1,2025-09-12,2025-09-26 14:50:11.301,HA,C,3263919712,AMBUSH51,1,1,48,2,1,1,225,2,1,0,0,9,1,225,2,1,-151658.30309931625,-4791837.80812556,4197416.357812478,2.26246,-3.11655,0.019404,-118.947,-4.06927,-2.33614,-0.105327,-6.81319,6.09608,0.0336193,-0.0151644,-0.00675673,4,0,41.393287579530096,-91.81276609628848,10557.879540706475,-92.98242997573428,1.699659589537272,-1.8395496030526293,196.663,10150.171305463598,12127.771392007851,150,True,17.317885262139235,False,166.50243912438407,179.5355396249052,False,13.708966537055485,True,False
1,1970-07-23 10:28:06.123231633,2025-09-12,2025-09-26 14:50:12.323,HA,C,584172494,JASSM,3,152,76,2,2,1,225,9,2,0,1,26,0,0,0,0,-183109.14685233065,-4787112.438447799,4201726.759245396,-2.30145,-0.152727,0.128759,92.125,-14.0,-11.875,0.0,0.0,0.0,0.0,0.0,0.0,2,0,41.44395222098429,-92.1905207563089,10997.371924762429,99.8600872332092,-0.0033596811044087,0.003627724143515,,10150.171305463598,12127.771392007851,150,1,2025-09-12,2025-09-26 14:50:12.335,HA,C,3265152478,AMBUSH51,1,1,48,2,1,1,225,2,1,0,0,9,1,225,2,1,-151782.34305901956,-4791841.62905151,4197413.2286709,2.29119,-3.12201,0.0250778,-118.833,-3.48116,-3.04149,-0.208586,-6.60651,5.98248,0.0249411,-0.00853356,0.0114089,4,0,41.39322036932387,-91.81424630522228,10570.15224771996,-93.02000102804575,1.2512357998775545,-0.1874254133042295,196.284,10150.171305463598,12127.771392007851,150,True,17.194966039141548,False,166.50263105126908,179.50609012388352,False,13.775422530809825,True,False
1,1970-07-23 10:28:06.134232340,2025-09-12,2025-09-26 14:50:13.423,HA,C,585425410,JASSM,3,152,76,2,2,1,225,9,2,0,1,26,0,0,0,0,-183012.3948992056,-4787127.336885299,4201714.087370396,-2.30145,-0.152631,0.128759,92.125,-14.0,-12.0,0.0,0.0,0.0,0.0,0.0,0.0,2,0,41.443800083328895,-92.18935763963012,10997.375414212507,99.85722128565725,-0.0065315359498537,0.0029220872228173,,10150.171305463598,12127.771392007851,150,1,2025-09-12,2025-09-26 14:50:13.335,HA,C,3266345476,AMBUSH51,1,1,48,2,1,1,225,2,1,0,0,9,1,225,2,1,-151901.00640741564,-4791844.685208325,4197409.768266748,2.29461,-3.12528,0.0254562,-118.724,-2.94231,-3.44024,-0.130655,-6.87705,6.18298,0.00191519,-0.00259346,0.00253104,4,0,41.39315646600749,-91.81566257570816,10579.413595950942,-92.91313663084904,1.09756687612334,0.015607962273675,196.406,10150.171305463598,12127.771392007851,150,True,17.079895658139446,False,166.51996678283103,179.5486710384128,False,13.769017046493788,True,False
1,1970-07-23 10:28:06.144250064,2025-09-12,2025-09-26 14:50:14.425,HA,C,586737542,JASSM,3,152,76,2,2,1,225,9,2,0,1,26,0,0,0,0,-182911.0706804556,-4787142.936494674,4201700.815886021,-2.30145,-0.152631,0.128759,92.125,-14.0,-12.0,0.0,0.0,0.0,0.0,0.0,0.0,2,0,41.44364075544561,-92.1881395639888,10997.375657199707,99.85802751057332,-0.0056046623293611,0.0029214308508626,,10150.171305463598,12127.771392007851,150,1,2025-09-12,2025-09-26 14:50:14.334,HA,C,3267538476,AMBUSH51,1,1,48,2,1,1,225,2,1,0,0,9,1,225,2,1,-152019.66183245915,-4791847.434977549,4197405.921029314,2.28855,-3.13306,0.0323282,-118.693,-2.52029,-3.81193,-0.115965,-6.10591,5.50921,-0.00329254,-0.0432837,0.00124524,4,0,41.39309175746318,-91.81707886362918,10587.08866121326,-92.91412870861522,0.5038900983432891,-0.3189926816910589,196.48,10150.171305463598,12127.771392007851,150,True,16.962339193383986,False,166.5480170673259,179.5116785399139,False,13.80008873512653,True,False
1,1970-07-23 10:28:06.155300839,2025-09-12,2025-09-26 14:50:15.530,HA,C,588049894,JASSM,3,152,76,2,2,1,225,9,2,0,1,26,0,0,0,0,-182809.72986014312,-4787158.538057174,4201687.540495396,-2.30145,-0.152631,0.128759,92.125,-14.0,-12.0,0.0,0.0,0.0,0.0,0.0,0.0,2,0,41.44348138045844,-92.18692129500698,10997.376146009632,99.85883386090862,-0.0046776356361481,0.0029207663118216,,10150.171305463598,12127.771392007851,150,1,2025-09-12,2025-09-26 14:50:15.701,HA,C,3269168908,AMBUSH51,1,1,48,2,1,1,225,2,1,0,0,9,1,225,2,1,-152180.99948437826,-4791848.199605399,4197398.33332736,2.30938,3.11176,0.0649816,-118.776,1.33566,-7.05441,-0.212848,-4.48481,4.16462,0.0170931,-0.030203,-0.00656116,4,0,41.393005524388926,-91.81900573475902,10585.10719467048,-92.86736655030587,-2.3784497014777823,0.9806720773675266,196.932,10150.171305463598,12127.771392007851,150,True,16.82243002399924,False,166.6222595111598,179.4532979573279,False,13.852873971784947,True,False
1,1970-07-23 10:28:06.166187804,2025-09-12,2025-09-26 14:50:16.618,HA,C,589242940,JASSM,3,152,76,2,2,1,225,9,2,0,1,26,0,0,0,0,-182717.60290701807,-4787172.719697799,4201675.472136021,-2.30145,-0.152631,0.128759,92.125,-14.0,-12.0,0.0,0.0,0.0,0.0,0.0,0.0,2,0,41.44333649337496,-92.18581379638574,10997.377911226518,99.8595668921196,-0.0038348958085967,0.0029201707273444,,10150.171305463598,12127.771392007851,150,1,2025-09-12,2025-09-26 14:50:16.768,HA,C,3270441440,AMBUSH51,1,1,48,2,1,1,225,2,1,0,0,9,1,225,2,1,-152307.80833529274,-4791845.107585621,4197389.399198717,2.32401,3.09648,0.0775712,-119.126,3.84661,-8.96966,-0.129359,-5.5688,5.04333,0.0136622,-0.00744957,0.00282233,4,0,41.39293963489524,-91.82052162387386,10568.030661796922,-92.83372555238309,-3.5094374721963737,1.8797686466116248,197.824,10150.171305463598,12127.771392007851,150,True,16.705557960091507,False,166.5290406699074,179.40005401668617,False,14.030930201635398,True,False
1,1970-07-23 10:28:06.175189626,2025-09-12,2025-09-26 14:50:17.518,HA,C,590316868,JASSM,3,152,76,2,2,1,225,9,2,0,1,26,0,0,0,0,-182634.67126639312,-4787185.485322799,4201664.606901646,-2.30145,-0.152631,0.128759,92.125,-14.0,-12.0,0.0,0.0,0.0,0.0,0.0,0.0,2,0,41.44320605200715,-92.18481684311502,10997.378969683214,99.86022675376888,-0.0030762699937468,0.0029196280862067,,10150.171305463598,12127.771392007851,150,1,2025-09-12,2025-09-26 14:50:17.502,HA,C,3271316304,AMBUSH51,1,1,48,2,1,1,225,2,1,0,0,9,1,225,2,1,-152395.97574480015,-4791841.71456911,4197382.415414409,2.33755,3.08514,0.082482,-119.41,4.10067,-8.90456,-0.0528769,-5.73195,5.10337,0.0217641,-0.0164003,0.00762642,4,0,41.39289599305327,-91.82157606021336,10551.429387590568,-92.61802242581268,-4.181452499240211,2.692661397406982,198.728,10150.171305463598,12127.771392007851,150,True,16.6139110349263,False,166.62361486439463,179.3607150741938,False,13.978795362199735,True,False
1,1970-07-23 10:28:06.184228355,2025-09-12,2025-09-26 14:50:18.422,HA,C,591450076,JASSM,3,152,76,2,2,1,225,9,2,0,1,26,0,0,0,0,-182547.16345389312,-4787198.954072799,4201653.140104771,-2.30145,-0.152631,0.128759,92.125,-14.0,-12.0,0.0,0.0,0.0,0.0,0.0,0.0,2,0,41.44306839752731,-92.18376488283,10997.376536346246,99.86092302151008,-0.0022757825594394,0.002919049499131,,10150.171305463598,12127.771392007851,150,1,2025-09-12,2025-09-26 14:50:18.335,HA,C,3272310470,AMBUSH51,1,1,48,2,1,1,225,2,1,0,0,9,1,225,2,1,-152495.74635308652,-4791836.6164492015,4197373.747037852,2.3557,3.07862,0.0860537,-120.027,6.62393,-10.5137,-0.0699031,-6.39128,5.50507,0.0321816,-0.00960507,0.0103437,4,0,41.39284891335697,-91.82276974350924,10527.891416109998,-92.5272402537238,-4.595269108452084,3.7571507629304826,199.657,10150.171305463598,12127.771392007851,150,True,16.51364202895576,False,166.50494102437247,179.31454889541894,False,14.163558874154523,True,False
