Subject_cm,Timestamp,SampleDate_cm,SampleTime_cm,Configuration_cm,Scenario_cm,DisTime_cm,MarkingTxt_cm,Application_cm,EntId_cm,Site_cm,ExerciseId_cm,ForceId_cm,Category_cm,Country_cm,Domain_cm,Kind_cm,Extra_cm,Specific_cm,Subcategory_cm,AltCategory_cm,AltCountry_cm,AltDomain_cm,AltKind_cm,ECEF_X_cm,ECEF_Y_cm,ECEF_Z_cm,OriPhi_cm,OriPsi_cm,OriTheta_cm,LinVelX_cm,LinVelY_cm,LinVelZ_cm,LinAccX_cm,LinAccY_cm,LinAccZ_cm,AngVelX_cm,AngVelY_cm,AngVelZ_cm,DrAlg_cm,Appearance_cm,Latitude_cm,Longitude_cm,Altitude_cm,Heading_cm,Pitch_cm,Roll_cm,CalibratedAirspeed_cm,CM_Altitude_Lead_cm,CM_Altitude_Wing_cm,CM_Airspeed_cm,Subject_ac,SampleDate_ac,SampleTime_ac,Configuration_ac,Scenario_ac,DisTime_ac,MarkingTxt_ac,Application_ac,EntId_ac,Site_ac,ExerciseId_ac,ForceId_ac,Category_ac,Country_ac,Domain_ac,Kind_ac,Extra_ac,Specific_ac,Subcategory_ac,AltCategory_ac,AltCountry_ac,AltDomain_ac,AltKind_ac,ECEF_X_ac,ECEF_Y_ac,ECEF_Z_ac,OriPhi_ac,OriPsi_ac,OriTheta_ac,LinVelX_ac,LinVelY_ac,LinVelZ_ac,LinAccX_ac,LinAccY_ac,LinAccZ_ac,AngVelX_ac,AngVelY_ac,AngVelZ_ac,DrAlg_ac,Appearance_ac,Latitude_ac,Longitude_ac,Altitude_ac,Heading_ac,Pitch_ac,Roll_ac,CalibratedAirspeed_ac,CM_Altitude_Lead_ac,CM_Altitude_Wing_ac,CM_Airspeed_ac,Bank_Angle_Condition,distance_nm,Distance_Condition,angle_between_vel,angle_between_pos,Cone_Condition,angle_between_pos_nose,Nose_Cone_Condition,Intercept_Criteria
1,1970-07-23 10:27:58.407233577,2025-09-12,2025-09-26 14:37:20.723,AA,C,3958644782,JASSM,3,137,76,2,2,1,225,9,2,0,1,26,0,0,0,0,-155755.26501639312,-4777375.551729049,4213813.030729771,-2.71093,-1.01118,0.751746,35.125,-56.0,-61.75,0.0,0.0,0.0,0.0,0.0,0.0,2,0,41.589212154622686,-91.86733475759236,10997.380785410907,155.93589171243207,0.0004603363708399,-0.0006561488508136,,10375.88117203898,11905.596102039404,150,1,2025-09-12,2025-09-26 14:37:20.614,AA,C,1665208122,HAWK11,1,1,73,2,1,1,225,2,1,0,0,12,1,225,2,1,-141215.37927420562,-4792254.920869674,4197926.466276646,2.50998,2.46511,-0.636027,-83.625,42.25,45.75,-0.046875,-7.34375,6.42188,0.0625,-0.00585938,0.0,4,0,41.39614842754583,-91.68787025982664,11905.596102039404,-39.95115738991519,1.662328206055249,0.5940342930433912,173.407,10375.88117203898,11905.596102039404,150,True,14.108311417844964,False,149.52070550950492,169.07593025188842,False,19.58472582465662,True,False
1,1970-07-23 10:27:58.417820398,2025-09-12,2025-09-26 14:37:21.782,AA,C,3959778342,JASSM,3,137,76,2,2,1,225,9,2,0,1,26,0,0,0,0,-155721.87732108062,-4777428.864229049,4213754.214323521,-2.71093,-1.01118,0.751842,35.125,-56.0,-61.75,0.0,0.0,0.0,0.0,0.0,0.0,2,0,41.58850449949077,-91.86691394021057,10997.373835327362,155.93846507881133,-0.0037582864202884,-0.0006573633418498,,10375.88117203898,11905.596102039404,150,1,2025-09-12,2025-09-26 14:37:21.910,AA,C,1666759020,HAWK11,1,1,73,2,1,1,225,2,1,0,0,12,1,225,2,1,-141324.55114920562,-4792199.113252486,4197985.952604771,2.57565,2.4514,-0.641108,-82.875,42.5,45.625,-0.0625,-7.21875,6.34375,0.0429688,0.0,0.0136719,4,0,41.39686279661919,-91.68919403581724,11905.279353018936,-39.27171173746492,1.521666573031006,3.907848239823221,173.151,10375.88117203898,11905.596102039404,150,True,13.993625168521508,False,149.7998182480196,169.13984416924956,False,19.365095808110876,True,False
1,1970-07-23 10:27:58.427366962,2025-09-12,2025-09-26 14:37:22.736,AA,C,3960971222,JASSM,3,137,76,2,2,1,225,9,2,0,1,26,0,0,0,0,-155686.74255545562,-4777484.967744674,4213692.323698521,-2.71093,-1.01118,0.751842,35.125,-56.0,-61.75,0.0,0.0,0.0,0.0,0.0,0.0,2,0,41.5877598285123,-91.86647111221302,10997.381465154189,155.93875901539843,-0.0029432824821334,-0.0006585490416592,,10375.88117203898,11905.596102039404,150,1,2025-09-12,2025-09-26 14:37:22.821,AA,C,1667832718,HAWK11,1,1,73,2,1,1,225,2,1,0,0,12,1,225,2,1,-141398.04919608062,-4792160.780244674,4198026.417448521,2.60777,2.44334,-0.644272,-82.25,43.0,45.875,-0.265625,-7.0625,6.8125,0.0195312,0.0,0.00976562,4,0,41.397351067050266,-91.69008552950768,11904.102240012156,-38.8670392953671,1.4505950196526085,5.482219395145762,173.029,10375.88117203898,11905.596102039404,150,True,13.898766245456159,False,150.23639362314736,169.16884202557515,False,18.954339287432035,True,False
1,1970-07-23 10:27:58.436342783,2025-09-12,2025-09-26 14:37:23.634,AA,C,3962044964,JASSM,3,137,76,2,2,1,225,9,2,0,1,26,0,0,0,0,-155655.11657889312,-4777535.465791549,4213636.608854771,-2.71093,-1.01118,0.751842,35.125,-56.0,-61.75,0.0,0.0,0.0,0.0,0.0,0.0,2,0,41.587089505459886,-91.86607251765466,10997.374626624634,155.93902358739564,-0.0022096537314458,-0.0006596244902122,,10375.88117203898,11905.596102039404,150,1,2025-09-12,2025-09-26 14:37:23.708,AA,C,1668946184,HAWK11,1,1,73,2,1,1,225,2,1,0,0,12,1,225,2,1,-141475.75818045562,-4792119.586885299,4198069.837370396,2.62387,2.42743,-0.64897,-81.75,43.75,46.5,-0.109375,-6.875,7.21875,-0.0117188,0.00195312,0.015625,4,0,41.3978755530467,-91.69102834855649,11902.610080728624,-38.11973430954244,1.2439927202709111,5.873481758341679,172.723,10375.88117203898,11905.596102039404,150,True,13.805605200673408,False,150.82691555483143,169.20479464585702,False,18.397785421323515,True,False
1,1970-07-23 10:27:58.445341993,2025-09-12,2025-09-26 14:37:24.534,AA,C,3963178358,JASSM,3,137,76,2,2,1,225,9,2,0,1,26,0,0,0,0,-155621.73278983062,-4777588.768525924,4213577.804167271,-2.71083,-1.01118,0.751842,35.125,-56.0,-61.75,0.0,0.0,0.0,0.0,0.0,0.0,2,0,41.586381981863234,-91.8656517784466,10997.381012494125,155.93930285437452,-0.0014353024811384,0.0048443960285954,,10375.88117203898,11905.596102039404,150,1,2025-09-12,2025-09-26 14:37:24.613,AA,C,1669980116,HAWK11,1,1,73,2,1,1,225,2,1,0,0,12,1,225,2,1,-141545.95739920562,-4792081.585908736,4198109.886198521,2.59013,2.41602,-0.648395,-81.5,44.375,47.375,0.0,-6.75,7.15625,-0.140625,0.0,0.00585938,4,0,41.39835960564271,-91.69188034532522,11901.116499531196,-37.7143871233389,0.9165555753722204,3.5528293192258458,172.552,10375.88117203898,11905.596102039404,150,True,13.71436331479496,False,151.37571677574905,169.23104511143427,False,17.87757995939625,True,False
1,1970-07-23 10:27:58.455322897,2025-09-12,2025-09-26 14:37:25.532,AA,C,3964311752,JASSM,3,137,76,2,2,1,225,9,2,0,1,26,0,0,0,0,-155588.34997733062,-4777642.069307174,4213518.995573521,-2.71083,-1.01118,0.751842,35.125,-56.0,-61.75,0.0,0.0,0.0,0.0,0.0,0.0,2,0,41.58567444181753,-91.86523106088632,10997.377997514412,155.93958210308395,-0.0006609414009464,0.0048432695082974,,10375.88117203898,11905.596102039404,150,1,2025-09-12,2025-09-26 14:37:25.520,AA,C,1670854982,HAWK11,1,1,73,2,1,1,225,2,1,0,0,12,1,225,2,1,-141607.14294608062,-4792048.207002486,4198144.950651646,2.49377,2.41334,-0.646285,-81.875,44.875,47.625,0.015625,-6.89062,7.25,-0.0507812,0.00195312,0.0078125,4,0,41.39878409684977,-91.69262304583214,11899.527761540536,-37.68398695098598,0.7478052754153527,-2.059925449137039,172.467,10375.88117203898,11905.596102039404,150,True,13.628851349755829,False,151.46865964331465,169.24917021028983,False,17.79971790060317,True,False
1,1970-07-23 10:27:58.467420642,2025-09-12,2025-09-26 14:37:26.742,AA,C,3965385494,JASSM,3,137,76,2,2,1,225,9,2,0,1,26,0,0,0,0,-155556.72400076812,-4777692.565400924,4213463.280729771,-2.71083,-1.01118,0.751842,35.125,-56.0,-61.75,0.0,0.0,0.0,0.0,0.0,0.0,2,0,41.58500412588207,-91.8648324927413,10997.377029598896,155.93984664665584,7.267673778177973e-05,0.004842198253041,,10375.88117203898,11905.596102039404,150,1,2025-09-12,2025-09-26 14:37:26.520,AA,C,1672326346,HAWK11,1,1,73,2,1,1,225,2,1,0,0,12,1,225,2,1,-141708.33239920562,-4791992.849580611,4198203.651823521,2.49646,2.42379,-0.642642,-82.75,44.875,48.375,-0.0625,-7.17188,7.51562,0.0957031,0.0234375,0.0,4,0,41.3994918374361,-91.6938514097856,11898.068857776676,-38.19624340282534,0.8545795130106248,-1.5532626771196254,172.418,10375.88117203898,11905.596102039404,150,True,13.519374653019945,False,151.41278865569748,169.30472762621758,False,17.920563829747863,True,False
1,1970-07-23 10:27:58.473343587,2025-09-12,2025-09-26 14:37:27.334,AA,C,3966459236,JASSM,3,137,76,2,2,1,225,9,2,0,1,26,0,0,0,0,-155525.09802420562,-4777743.061494674,4213407.565886021,-2.71083,-1.01118,0.751842,35.125,-56.0,-61.75,0.0,0.0,0.0,0.0,0.0,0.0,2,0,41.58433380848666,-91.86443393284068,10997.379488406685,155.94011118125422,0.000806294962241,0.0048411269849323,,10375.88117203898,11905.596102039404,150,1,2025-09-12,2025-09-26 14:37:27.316,AA,C,1673280746,HAWK11,1,1,73,2,1,1,225,2,1,0,0,12,1,225,2,1,-141774.65466483062,-4791956.829072799,4198242.431120396,2.62119,2.4281,-0.650408,-82.875,44.875,49.25,-0.28125,-7.23438,7.60938,0.1875,0.0,0.00390625,4,0,41.39995620124943,-91.69465643414476,11898.42408050698,-38.099116557271806,1.3321507527225969,5.744316315393458,172.332,10375.88117203898,11905.596102039404,150,True,13.432710817110506,False,151.6463467248499,169.32950631482726,False,17.7248293281171,True,False
1,1970-07-23 10:27:58.482340649,2025-09-12,2025-09-26 14:37:28.234,AA,C,3967532978,JASSM,3,137,76,2,2,1,225,9,2,0,1,26,0,0,0,0,-155493.47204764312,-4777793.555635299,4213351.851042271,-2.71083,-1.01118,0.751842,35.125,-56.0,-61.75,0.0,0.0,0.0,0.0,0.0,0.0,2,0,41.58366350129095,-91.86403538194574,10997.380583465456,155.94037570637403,0.0015399023935851,0.004840059937254,,10375.88117203898,11905.596102039404,150,1,2025-09-12,2025-09-26 14:37:28.114,AA,C,1674155612,HAWK11,1,1,73,2,1,1,225,2,1,0,0,12,1,225,2,1,-141835.23669608062,-4791923.453096236,4198278.657682896,2.76002,2.40845,-0.659132,-82.125,45.625,50.125,0.015625,-7.04688,7.4375,0.169922,0.00976562,0.03125,4,0,41.40038860780472,-91.69539196039835,11899.331729462176,-37.08139158909854,1.2258852928135076,13.035529592593674,172.418,10375.88117203898,11905.596102039404,150,False,13.34939734266276,False,152.38235727999663,169.3481964856908,False,17.00941577923468,True,False
1,1970-07-23 10:27:58.491340028,2025-09-12,2025-09-26 14:37:29.134,AA,C,3968606720,JASSM,3,137,76,2,2,1,225,9,2,0,1,26,0,0,0,0,-155461.84509451812,-4777844.047822799,4213296.132292271,-2.71083,-1.01109,0.751938,35.125,-56.0,-61.75,0.0,0.0,0.0,0.0,0.0,0.0,2,0,41.58299317819069,-91.8636368283572,10997.37173080716,155.93928836014544,-0.0043910487836888,0.0010882305726019,,10375.88117203898,11905.596102039404,150,1,2025-09-12,2025-09-26 14:37:29.020,AA,C,1675269078,HAWK11,1,1,73,2,1,1,225,2,1,0,0,12,1,225,2,1,-141912.09802420562,-4791879.523408736,4198326.183073521,2.91859,2.36751,-0.676102,-80.375,47.125,51.75,-0.21875,-7.0,7.35938,0.101562,0.0,0.0390625,4,0,41.40095718910104,-91.6963257082793,11899.982526918267,-35.01172158668197,0.9957055750526816,20.70922888669618,172.638,10375.88117203898,11905.596102039404,150,False,13.254310840178984,False,153.89822740692637,169.3788643005859,False,15.525805961739888,True,False
1,1970-07-23 10:27:58.500338502,2025-09-12,2025-09-26 14:37:30.033,AA,C,3969740114,JASSM,3,137,76,2,2,1,225,9,2,0,1,26,0,0,0,0,-155428.46228201812,-4777897.346650924,4213237.319792271,-2.71083,-1.01109,0.751938,35.125,-56.0,-61.75,0.0,0.0,0.0,0.0,0.0,0.0,2,0,41.582285615720245,-91.86321615555168,10997.373705559412,155.93956756059848,-0.0036166741422932,0.001087079226465,,10375.88117203898,11905.596102039404,150,1,2025-09-12,2025-09-26 14:37:30.019,AA,C,1676183710,HAWK11,1,1,73,2,1,1,225,2,1,0,0,12,1,225,2,1,-141973.05896170562,-4791842.572236861,4198365.919401646,3.00095,2.33721,-0.679745,-78.375,48.875,53.25,-0.171875,-7.01562,7.35938,0.078125,0.015625,0.0390625,4,0,41.40143447648578,-91.69706704878055,11899.74567769568,-33.764079000204376,0.4361890643921743,24.354907127004623,172.76,10375.88117203898,11905.596102039404,150,False,13.166230512695423,False,155.530137169182,169.39048475208247,False,13.899791049125762,True,False
1,1970-07-23 10:27:58.510316745,2025-09-12,2025-09-26 14:37:31.031,AA,C,3970873508,JASSM,3,137,76,2,2,1,225,9,2,0,1,26,0,0,0,0,-155395.07849295562,-4777950.643525924,4213178.507292271,-2.71083,-1.01109,0.751938,35.125,-56.0,-61.75,0.0,0.0,0.0,0.0,0.0,0.0,2,0,41.58157806347211,-91.86279548099324,10997.374629817654,155.93984675831285,-0.0028423068891883,0.0010859401670257,,10375.88117203898,11905.596102039404,150,1,2025-09-12,2025-09-26 14:37:31.020,AA,C,1677615308,HAWK11,1,1,73,2,1,1,225,2,1,0,0,12,1,225,2,1,-142066.55700858062,-4791780.638643111,4198431.804167271,3.11676,2.28966,-0.687032,-74.625,52.0,56.125,0.0,-7.40625,7.82812,0.0683594,0.0195312,0.0507812,4,0,41.40223113449921,-91.69820595439084,11897.167737542655,-31.746101463182885,-0.3126694964170387,29.272522689891275,173.42,10375.88117203898,11905.596102039404,150,False,13.052253620194184,False,158.55787898148517,169.41941359535178,False,10.892621718948424,True,False
1,1970-07-23 10:27:58.519322325,2025-09-12,2025-09-26 14:37:31.932,AA,C,3971949962,JASSM,3,137,76,2,2,1,225,9,2,0,1,26,0,0,0,0,-155363.37243826812,-4778001.260713424,4213122.647917271,-2.71083,-1.01109,0.751938,35.125,-56.0,-61.75,0.0,0.0,0.0,0.0,0.0,0.0,2,0,41.580906058420446,-91.8623959568101,10997.370534256224,155.94011191511177,-0.0021068471151086,0.0010848539358834,,10375.88117203898,11905.596102039404,150,1,2025-09-12,2025-09-26 14:37:32.022,AA,C,1678768540,HAWK11,1,1,73,2,1,1,225,2,1,0,0,12,1,225,2,1,-142137.85193045562,-4791727.738252486,4198487.630339146,-3.08819,2.25706,-0.692017,-70.75,55.25,58.875,-0.34375,-7.8125,8.03125,0.0429688,0.0292969,0.0488281,4,0,41.40291006892559,-91.69907643204466,11893.373184143458,-30.356673257582163,-0.7872108815671622,32.55357538686922,174.19,10375.88117203898,11905.596102039404,150,False,12.953212423181526,False,161.60297409467586,169.42440885368345,False,7.836996583192846,True,False
1,1970-07-23 10:27:58.529322080,2025-09-12,2025-09-26 14:37:32.932,AA,C,3973140296,JASSM,3,137,76,2,2,1,225,9,2,0,1,26,0,0,0,0,-155328.31189139312,-4778057.233369674,4213060.878386021,-2.71083,-1.01109,0.751938,35.125,-56.0,-61.75,0.0,0.0,0.0,0.0,0.0,0.0,2,0,41.58016295093019,-91.86195417264736,10997.369923265209,155.94040511497923,-0.0012935732363986,0.0010836516847004,,10375.88117203898,11905.596102039404,150,1,2025-09-12,2025-09-26 14:37:33.020,AA,C,1680001306,HAWK11,1,1,73,2,1,1,225,2,1,0,0,12,1,225,2,1,-142209.88122733062,-4791667.770479049,4198550.952604771,-3.02213,2.21823,-0.697578,-66.25,58.375,62.625,-0.234375,-8.1875,8.48438,0.0351562,0.0390625,0.0429688,4,0,41.40368150723079,-91.69995820743982,11888.518869118634,-28.70562948196293,-1.3294299605735274,34.8835986604556,175.094,10375.88117203898,11905.596102039404,150,False,12.844721654420669,False,165.09947517012372,169.41354318955388,False,4.335316248905847,True,False
1,1970-07-23 10:27:58.540198187,2025-09-12,2025-09-26 14:37:34.019,AA,C,3974273690,JASSM,3,137,76,2,2,1,225,9,2,0,1,26,0,0,0,0,-155294.92907889312,-4778110.528291549,4213002.065886021,-2.71083,-1.01109,0.751938,35.125,-56.0,-61.75,0.0,0.0,0.0,0.0,0.0,0.0,2,0,41.57945540527273,-91.86153353809809,10997.377588526902,155.94068427443702,-0.0005192199692464,0.0010825087483572,,10375.88117203898,11905.596102039404,150,1,2025-09-12,2025-09-26 14:37:34.009,AA,C,1681194304,HAWK11,1,1,73,2,1,1,225,2,1,0,0,12,1,225,2,1,-142274.18982108062,-4791606.396455611,4198615.755339146,-2.94774,2.16387,-0.712534,-60.875,61.625,66.25,-0.078125,-8.625,8.85938,0.0273438,0.0410156,0.0507812,4,0,41.40447266129871,-91.70074826375624,11882.860617944949,-26.202985483214487,-1.6419105311858535,37.06268636690068,176.023,10375.88117203898,11905.596102039404,150,False,12.73988084346739,False,168.89784318582159,169.3861487774529,False,0.5429960193121294,True,False
1,1970-07-23 10:27:58.548299743,2025-09-12,2025-09-26 14:37:34.829,AA,C,3975407234,JASSM,3,137,76,2,2,1,225,9,2,0,1,26,0,0,0,0,-155261.54040701812,-4778163.829072799,4212943.241667271,-2.71083,-1.01109,0.751938,35.125,-56.0,-61.75,0.0,0.0,0.0,0.0,0.0,0.0,2,0,41.57874774526515,-91.86111284026413,10997.377461652532,155.94096347199252,0.0002552584242829,0.0010813693417929,,10375.88117203898,11905.596102039404,150,1,2025-09-12,2025-09-26 14:37:34.910,AA,C,1682029404,HAWK11,1,1,73,2,1,1,225,2,1,0,0,12,1,225,2,1,-142315.58825858062,-4791561.183564986,4198663.435026646,-2.89779,2.1237,-0.721738,-56.625,64.0,69.0,-0.21875,-8.95312,9.25,0.0292969,0.0527344,0.0546875,4,0,41.40505614117169,-91.7012588940554,11878.13152342424,-24.408258425633846,-1.901857156904956,38.35638563799593,177.086,10375.88117203898,11905.596102039404,150,False,12.652409813585264,False,171.79420019125837,169.34336119702687,False,2.452272808033739,True,False
1,1970-07-23 10:27:58.558230915,2025-09-12,2025-09-26 14:37:35.823,AA,C,3976540774,JASSM,3,137,76,2,2,1,225,9,2,0,1,26,0,0,0,0,-155228.15271170562,-4778217.127900924,4212884.417448521,-2.71083,-1.01109,0.752034,35.125,-56.0,-61.75,0.0,0.0,0.0,0.0,0.0,0.0,2,0,41.578040095099794,-91.86069216407289,10997.376440769567,155.9435370155148,-0.003963240203897,0.0010801673517473,,10375.88117203898,11905.596102039404,150,1,2025-09-12,2025-09-26 14:37:35.820,AA,C,1683103102,HAWK11,1,1,73,2,1,1,225,2,1,0,0,12,1,225,2,1,-142363.97888358062,-4791501.173799361,4198727.274870396,-2.8441,2.05793,-0.739954,-50.5,66.75,72.375,-0.390625,-9.20312,9.5,0.00390625,0.0488281,0.0546875,4,0,41.40583548545983,-91.7018583233394,11872.586770938316,-21.41675610823448,-2.041040240847586,38.813760104444334,178.601,10375.88117203898,11905.596102039404,150,False,12.55300976655254,False,175.67264007360828,169.28455729706462,False,6.389960207406505,True,False
1,1970-07-23 10:27:58.568674029,2025-09-12,2025-09-26 14:37:36.867,AA,C,3977673874,JASSM,3,137,76,2,2,1,225,9,2,0,1,26,0,0,0,0,-155194.77771170562,-4778270.407197799,4212825.612761021,-2.71083,-1.01109,0.752034,35.125,-56.0,-61.75,0.0,0.0,0.0,0.0,0.0,0.0,2,0,41.57733268890639,-91.86027165673212,10997.37486532494,155.94381607894672,-0.003189048800536,0.0010790461428717,,10375.88117203898,11905.596102039404,150,1,2025-09-12,2025-09-26 14:37:36.741,AA,C,1683977968,HAWK11,1,1,73,2,1,1,225,2,1,0,0,12,1,225,2,1,-142399.06091483062,-4791450.097627486,4198781.778776646,-2.79031,2.00165,-0.750788,-44.875,69.125,75.25,-0.203125,-9.53125,9.8125,0.0136719,0.0566406,0.0507812,4,0,41.406501019515375,-91.70229559226884,11867.789452422998,-18.97926114309172,-2.294346232278395,39.61595147597927,179.591,10375.88117203898,11905.596102039404,150,False,12.463395442160248,False,179.0753331250627,169.21507662965138,False,9.90388349754232,True,False
1,1970-07-23 10:27:58.576299964,2025-09-12,2025-09-26 14:37:37.629,AA,C,3978807354,JASSM,3,137,76,2,2,1,225,9,2,0,1,26,0,0,0,0,-155161.39196951812,-4778323.700166549,4212766.792448521,-2.71083,-1.01109,0.752034,35.125,-56.0,-61.75,0.0,0.0,0.0,0.0,0.0,0.0,2,0,41.57662509638018,-91.85985102457929,10997.37576830454,155.9440952213069,-0.0024146477783869,0.001077941155375,,10375.88117203898,11905.596102039404,150,1,2025-09-12,2025-09-26 14:37:37.613,AA,C,1685568634,HAWK11,1,1,73,2,1,1,225,2,1,0,0,12,1,225,2,1,-142451.36950858062,-4791355.292939986,4198885.040495396,-2.74784,1.87568,-0.787603,-34.125,71.5,80.375,-0.0625,-10.1562,10.3906,-0.126953,0.0566406,0.0644531,4,0,41.40775274555011,-91.70295421727796,11862.502942981258,-13.403537243026973,-1.7826046462829723,36.82622180451797,180.874,10375.88117203898,11905.596102039404,150,False,12.339229928138813,False,174.72631482976766,169.0894926135812,False,16.183183288088966,True,False
1,1970-07-23 10:27:58.586287368,2025-09-12,2025-09-26 14:37:38.628,AA,C,3980000314,JASSM,3,137,76,2,2,1,225,9,2,0,1,26,0,0,0,0,-155126.25427420562,-4778379.791963424,4212704.882292271,-2.71083,-1.01109,0.752034,35.125,-56.0,-61.75,0.0,0.0,0.0,0.0,0.0,0.0,2,0,41.57588033571656,-91.8594083283503,10997.379360578989,155.94438900174487,-0.0015995771732007,0.0010767646150366,,10375.88117203898,11905.596102039404,150,1,2025-09-12,2025-09-26 14:37:38.613,AA,C,1686761632,HAWK11,1,1,73,2,1,1,225,2,1,0,0,12,1,225,2,1,-142481.03161795562,-4791282.724580611,4198967.128386021,-2.76011,1.76935,-0.815982,-26.0,71.75,84.25,-0.15625,-10.3438,10.5938,-0.0996094,0.0527344,0.0429688,4,0,41.40873327331704,-91.70333439109142,11864.315215245117,-8.921525300929884,-1.0748406191989093,31.631254683548125,183.013,10375.88117203898,11905.596102039404,150,False,12.233228222960612,False,170.22507335652725,168.9544458818101,False,20.792214658686014,True,False
1,1970-07-23 10:27:58.596259082,2025-09-12,2025-09-26 14:37:39.625,AA,C,3981193360,JASSM,3,137,76,2,2,1,225,9,2,0,1,26,0,0,0,0,-155091.11364920562,-4778435.883760299,4212642.964323521,-2.71083,-1.01109,0.752034,35.125,-56.0,-61.75,0.0,0.0,0.0,0.0,0.0,0.0,2,0,41.5751355212258,-91.85896560720104,10997.36994034251,155.94468279439843,-0.0007844482540132,0.0010755908234602,,10375.88117203898,11905.596102039404,150,1,2025-09-12,2025-09-26 14:37:39.614,AA,C,1687914864,HAWK11,1,1,73,2,1,1,225,2,1,0,0,12,1,225,2,1,-142502.27966483062,-4791212.618135299,4199050.360807896,-2.83182,1.70291,-0.842155,-20.875,68.625,89.625,-0.171875,-9.96875,10.2031,-0.152344,0.0410156,0.0390625,4,0,41.40970836570752,-91.7036131706095,11874.057488009974,-6.159550673608621,0.0356011094299914,24.689937570892702,184.467,10375.88117203898,11905.596102039404,150,False,12.130174347161715,False,166.81785209086837,168.7999959385806,False,24.124350469235736,True,False
1,1970-07-23 10:27:58.611402017,2025-09-12,2025-09-26 14:37:41.140,AA,C,3982446060,JASSM,3,137,76,2,2,1,225,9,2,0,1,26,0,0,0,0,-155054.21618826812,-4778494.782197799,4212577.952604771,-2.71083,-1.01109,0.752034,35.125,-56.0,-61.75,0.0,0.0,0.0,0.0,0.0,0.0,2,0,41.5743534662568,-91.85850076248389,10997.374325927822,155.94499126374507,7.143475966053442e-05,0.0010743581624796,,10375.88117203898,11905.596102039404,150,1,2025-09-12,2025-09-26 14:37:41.114,AA,C,1689465762,HAWK11,1,1,73,2,1,1,225,2,1,0,0,12,1,225,2,1,-142520.93786795562,-4791117.950166549,4199165.204557896,-2.87257,1.62602,-0.866987,-12.25,70.25,90.75,-0.21875,-9.0,9.20312,-0.00390625,0.03125,0.0175781,4,0,41.41104339407792,-91.70386974409703,11891.808198072227,-3.1486421340148887,1.1860520190557695,19.06355074585815,186.838,10375.88117203898,11905.596102039404,150,False,12.007759472117218,False,162.70105889052508,168.5769238955638,False,28.600798529488458,True,False
1,1970-07-23 10:27:58.617358866,2025-09-12,2025-09-26 14:37:41.735,AA,C,3983698758,JASSM,3,137,76,2,2,1,225,9,2,0,1,26,0,0,0,0,-155017.31775076812,-4778553.678682174,4212512.938932896,-2.71074,-1.01099,0.752034,35.125,-56.0,-61.75,0.0,0.0,0.0,0.0,0.0,0.0,2,0,41.57357140799978,-91.85803591804296,10997.37425449281,155.94165115223905,-0.0007494150759537,0.0028085672709694,,10375.88117203898,11905.596102039404,150,1,2025-09-12,2025-09-26 14:37:41.707,AA,C,1690300862,HAWK11,1,1,73,2,1,1,225,2,1,0,0,12,1,225,2,1,-142527.08239920562,-4791067.475557174,4199228.206511021,-2.86931,1.60301,-0.878875,-8.875,69.75,91.875,-0.140625,-8.57812,8.78125,-0.0410156,0.0234375,0.0214844,4,0,41.41176781637599,-91.70396110075238,11904.840321985224,-2.2650332940607214,1.8202268740750207,18.26334397669229,187.669,10375.88117203898,11905.596102039404,150,False,11.919660787137635,False,160.92828837598063,168.42275656588916,False,30.51428134545709,False,False
1,1970-07-23 10:27:58.628340051,2025-09-12,2025-09-26 14:37:42.834,AA,C,3984951456,JASSM,3,137,76,2,2,1,225,9,2,0,1,26,0,0,0,0,-154980.42028983062,-4778612.575166549,4212447.925261021,-2.71074,-1.01099,0.752034,35.125,-56.0,-61.75,0.0,0.0,0.0,0.0,0.0,0.0,2,0,41.57278934756802,-91.85757109651252,10997.378924904562,155.94195959670586,0.0001064692209435,0.0028072789461298,,10375.88117203898,11905.596102039404,150,1,2025-09-12,2025-09-26 14:37:42.909,AA,C,1691811994,HAWK11,1,1,73,2,1,1,225,2,1,0,0,12,1,225,2,1,-142532.39880545562,-4790977.448213424,4199343.472136021,-2.79165,1.52113,-0.886545,-3.25,69.0,93.125,-0.109375,-7.71875,8.03125,0.0214844,0.0078125,0.0332031,4,0,41.41308043718125,-91.70405662425404,11933.9613737024,0.7219796943681484,2.213764079409698,19.193425336547968,189.6,10375.88117203898,11905.596102039404,150,False,11.802869384636898,False,158.05637844519555,168.16659231864702,False,33.637626483090095,False,False
1,1970-07-23 10:27:58.638320324,2025-09-12,2025-09-26 14:37:43.832,AA,C,3986144504,JASSM,3,137,76,2,2,1,225,9,2,0,1,26,0,0,0,0,-154945.27966483062,-4778668.665010299,4212386.005339146,-2.71074,-1.01099,0.75213,35.125,-56.0,-61.75,0.0,0.0,0.0,0.0,0.0,0.0,2,0,41.57204452410996,-91.8571284183323,10997.37801787029,155.94454660916267,-0.0040681093551794,0.0028059890854409,,10375.88117203898,11905.596102039404,150,1,2025-09-12,2025-09-26 14:37:43.815,AA,C,1692925458,HAWK11,1,1,73,2,1,1,225,2,1,0,0,12,1,225,2,1,-142532.36560233062,-4790911.749971236,4199428.708464146,-2.8069,1.48259,-0.887216,0.375,69.125,93.125,0.0,-7.07812,7.39062,-0.0898438,0.015625,0.0195312,4,0,41.41404658386799,-91.7040795816378,11957.364544980876,2.116507532982121,2.294187069985176,16.663184981632437,190.895,10375.88117203898,11905.596102039404,150,False,11.707445979953627,False,156.32623458461944,167.9549048073583,False,35.60597509487147,False,False
1,1970-07-23 10:27:58.648317919,2025-09-12,2025-09-26 14:37:44.831,AA,C,3987397202,JASSM,3,137,76,2,2,1,225,9,2,0,1,26,0,0,0,0,-154908.38122733062,-4778727.557588424,4212320.989714146,-2.71074,-1.01099,0.75213,35.125,-56.0,-61.75,0.0,0.0,0.0,0.0,0.0,0.0,2,0,41.571262470155226,-91.85666360851384,10997.377881969913,155.94485503666263,-0.0032122311298819,0.0028047461576733,,10375.88117203898,11905.596102039404,150,1,2025-09-12,2025-09-26 14:37:44.707,AA,C,1693919624,HAWK11,1,1,73,2,1,1,225,2,1,0,0,12,1,225,2,1,-142530.03747733062,-4790853.384736861,4199504.101042271,-2.80153,1.44674,-0.885107,2.875,68.5,93.625,0.0,-6.90625,7.125,0.00585938,0.0,0.0253906,4,0,41.41490307077171,-91.70407251120336,11977.276203878264,3.4214967797907243,2.248814230717339,15.431018506231652,191.909,10375.88117203898,11905.596102039404,150,False,11.615903988829714,False,155.03442558954626,167.75108762252833,False,37.093066033162785,False,False
1,1970-07-23 10:27:58.658299291,2025-09-12,2025-09-26 14:37:45.829,AA,C,3988590248,JASSM,3,137,76,2,2,1,225,9,2,0,1,26,0,0,0,0,-154873.24060233062,-4778783.645479049,4212259.067839146,-2.71074,-1.01099,0.75213,35.125,-56.0,-61.75,0.0,0.0,0.0,0.0,0.0,0.0,2,0,41.5705176415125,-91.85622095193985,10997.37660407491,155.9451487598076,-0.0023970993190848,0.002803550733204,,10375.88117203898,11905.596102039404,150,1,2025-09-12,2025-09-26 14:37:45.909,AA,C,1695311456,HAWK11,1,1,73,2,1,1,225,2,1,0,0,12,1,225,2,1,-142523.39489920562,-4790770.379854049,4199610.657682896,-2.74535,1.40858,-0.879259,6.875,69.875,92.125,-0.109375,-6.5625,6.75,-0.0488281,-0.0136719,0.0253906,4,0,41.416117241274456,-91.70402264611324,12003.9172167957,4.835206583105806,2.034159997731676,17.014722665068575,193.449,10375.88117203898,11905.596102039404,150,False,11.510754830586443,False,153.2943733435487,167.4753554006476,False,39.17376533380613,False,False
1,1970-07-23 10:27:58.670196369,2025-09-12,2025-09-26 14:37:47.019,AA,C,3989842948,JASSM,3,137,76,2,2,1,225,9,2,0,1,26,0,0,0,0,-154836.34314139312,-4778842.536104049,4212194.050261021,-2.71074,-1.01099,0.75213,35.125,-56.0,-61.75,0.0,0.0,0.0,0.0,0.0,0.0,2,0,41.56973558199951,-91.85575617646502,10997.37660847486,155.94545715521642,-0.001541223128077,0.0028022985772516,,10375.88117203898,11905.596102039404,150,1,2025-09-12,2025-09-26 14:37:47.113,AA,C,1696822588,HAWK11,1,1,73,2,1,1,225,2,1,0,0,12,1,225,2,1,-142512.09411795562,-4790679.982393111,4199725.282682896,-2.71438,1.34252,-0.859509,10.375,70.875,91.375,-0.03125,-6.125,6.34375,0.0332031,-0.0078125,0.0351562,4,0,41.417430669590615,-91.7039197450528,12029.558255286256,7.399429914554679,1.2147117859371677,15.96988017189972,194.17,10375.88117203898,11905.596102039404,150,False,11.400140349211961,False,151.69522036343048,167.16438013496676,False,41.112170098996344,False,False
1,1970-07-23 10:27:58.679282908,2025-09-12,2025-09-26 14:37:47.928,AA,C,3991035994,JASSM,3,137,76,2,2,1,225,9,2,0,1,26,0,0,0,0,-154801.20153983062,-4778898.622041549,4212132.126432896,-2.71074,-1.01099,0.75213,35.125,-56.0,-61.75,0.0,0.0,0.0,0.0,0.0,0.0,2,0,41.56899074836062,-91.85531352979866,10997.374882133356,155.94575086292693,-0.0007260865733328,0.0028011100613206,,10375.88117203898,11905.596102039404,150,1,2025-09-12,2025-09-26 14:37:48.007,AA,C,1697816754,HAWK11,1,1,73,2,1,1,225,2,1,0,0,12,1,225,2,1,-142501.87341483062,-4790619.877900924,4199799.727995396,-2.73317,1.32593,-0.852893,12.75,71.875,90.375,-0.109375,-5.98438,6.29688,-0.150391,-0.0117188,0.0078125,4,0,41.4182925040244,-91.70381897885296,12042.577795276991,8.073313949721515,0.9369981315308116,14.18807473731744,194.818,10375.88117203898,11905.596102039404,150,False,11.313829217870296,False,150.62558720702566,166.93375122792008,False,42.43002893676619,False,False
1,1970-07-23 10:27:58.690604589,2025-09-12,2025-09-26 14:37:49.060,AA,C,3992288692,JASSM,3,137,76,2,2,1,225,9,2,0,1,26,0,0,0,0,-154764.30407889312,-4778957.510713424,4212067.106901646,-2.71074,-1.01099,0.75213,35.125,-56.0,-61.75,0.0,0.0,0.0,0.0,0.0,0.0,2,0,41.56820868347802,-91.85484877696857,10997.374949226474,155.94605923400752,0.0001297909784043,0.0027998567447304,,10375.88117203898,11905.596102039404,150,1,2025-09-12,2025-09-26 14:37:49.207,AA,C,1699208586,HAWK11,1,1,73,2,1,1,225,2,1,0,0,12,1,225,2,1,-142485.53357108062,-4790534.963838424,4199902.925261021,-2.75043,1.2848,-0.833623,15.125,73.25,89.375,-0.15625,-5.8125,6.15625,0.0566406,-0.00390625,0.0078125,4,0,41.41949707360228,-91.70365390676812,12056.549221927473,9.809731369797811,0.1256900439176706,11.45535691838374,195.013,10375.88117203898,11905.596102039404,150,False,11.210696482904392,False,149.56486712617124,166.62140173212765,False,43.81278836501403,False,False
1,1970-07-23 10:27:58.700360839,2025-09-12,2025-09-26 14:37:50.036,AA,C,3993541392,JASSM,3,137,76,2,2,1,225,9,2,0,1,26,0,0,0,0,-154727.40564139312,-4779016.399385299,4212002.085417271,-2.71074,-1.01099,0.75213,35.125,-56.0,-61.75,0.0,0.0,0.0,0.0,0.0,0.0,2,0,41.567426603649125,-91.85438402365216,10997.375351140456,155.94636760064586,0.0009856840492005,0.0027986061183486,,10375.88117203898,11905.596102039404,150,1,2025-09-12,2025-09-26 14:37:50.113,AA,C,1700481118,HAWK11,1,1,73,2,1,1,225,2,1,0,0,12,1,225,2,1,-142467.77966483062,-4790454.776338424,4199997.675261021,-2.74199,1.27483,-0.820104,17.375,74.5,88.5,-0.296875,-5.79688,6.03125,-0.0429688,-0.0117188,0.00195312,4,0,41.420616762920105,-91.7034702512099,12063.714593315395,10.339414338759548,-0.5581188501678155,11.51644537267808,195.209,10375.88117203898,11905.596102039404,150,False,11.112445750023449,False,148.54156555110254,166.31619691615168,False,45.14126657746359,False,False
1,1970-07-23 10:27:58.712199144,2025-09-12,2025-09-26 14:37:51.219,AA,C,3994853744,JASSM,3,137,76,2,2,1,225,9,2,0,1,26,0,0,0,0,-154688.75036795562,-4779078.090791549,4211933.968229771,-2.71074,-1.01099,0.752226,35.125,-56.0,-61.75,0.0,0.0,0.0,0.0,0.0,0.0,2,0,41.5666072923874,-91.85389715460984,10997.378357173604,155.94898532923168,-0.0031104901591071,0.0027972741614856,,10375.88117203898,11905.596102039404,150,1,2025-09-12,2025-09-26 14:37:51.315,AA,C,1701833182,HAWK11,1,1,73,2,1,1,225,2,1,0,0,12,1,225,2,1,-142446.97497733062,-4790369.452119674,4200095.239714146,-2.73681,1.23591,-0.801313,19.5,76.25,87.375,0.0,-5.95312,6.21875,-0.0546875,-0.00585938,0.03125,4,0,41.42178655048325,-91.70325195783636,12064.142390673522,12.069131809313118,-1.2844213927458854,10.168757510275016,195.551,10375.88117203898,11905.596102039404,150,False,11.010726791570528,False,147.58865425137745,165.98681795248248,False,46.41267563502149,False,False
1,1970-07-23 10:27:58.723066661,2025-09-12,2025-09-26 14:37:52.306,AA,C,3996225746,JASSM,3,137,76,2,2,1,225,9,2,0,1,26,0,0,0,0,-154648.33825858062,-4779142.582979049,4211862.753386021,-2.71074,-1.01099,0.752226,35.125,-56.0,-61.75,0.0,0.0,0.0,0.0,0.0,0.0,2,0,41.565750747900985,-91.8533881722751,10997.37562180456,155.949323031275,-0.0021731070555566,0.0027959464752518,,10375.88117203898,11905.596102039404,150,1,2025-09-12,2025-09-26 14:37:52.317,AA,C,1703026182,HAWK11,1,1,73,2,1,1,225,2,1,0,0,12,1,225,2,1,-142426.53357108062,-4790292.414033736,4200181.716276646,-2.81025,1.22105,-0.794986,21.125,77.375,86.75,-0.09375,-6.23438,6.46875,-0.0371094,-0.0136719,0.0117188,4,0,41.42283214400653,-91.70303505380537,12060.913727344108,12.731400861852809,-1.499036933908502,5.335277363442754,195.661,10375.88117203898,11905.596102039404,150,True,10.912827002481372,False,146.8481221965544,165.6727632911192,False,47.455168436239234,False,False
1,1970-07-23 10:27:58.733259259,2025-09-12,2025-09-26 14:37:53.325,AA,C,3997478770,JASSM,3,137,76,2,2,1,225,9,2,0,1,26,0,0,0,0,-154611.43103201812,-4779201.483369674,4211797.712370396,-2.71074,-1.01089,0.752226,35.125,-55.875,-61.75,0.0,0.0,0.0,0.0,0.0,0.0,2,0,41.56496846209485,-91.85292334438816,10997.376221920978,155.9459881527916,-0.0029915914679161,-0.0009572739515989,,10375.88117203898,11905.596102039404,150,1,2025-09-12,2025-09-26 14:37:53.503,AA,C,1704418014,HAWK11,1,1,73,2,1,1,225,2,1,0,0,12,1,225,2,1,-142401.33435233062,-4790200.830049361,4200282.931120396,-2.84256,1.21137,-0.790479,22.25,78.25,86.875,0.140625,-6.53125,6.78125,-0.0214844,-0.00195312,0.0078125,4,0,41.42406459228614,-91.7027664523408,12053.568229285149,13.171652444446917,-1.6552230508350978,3.076866573490017,195.82,10375.88117203898,11905.596102039404,150,True,10.812653738482123,False,146.35589301676683,165.32887154974375,False,48.28019452959034,False,False
1,1970-07-23 10:27:58.744281973,2025-09-12,2025-09-26 14:37:54.428,AA,C,3998790796,JASSM,3,137,76,2,2,1,225,9,2,0,1,26,0,0,0,0,-154572.78552420562,-4779263.155244674,4211729.606901646,-2.71074,-1.01089,0.752226,35.125,-55.875,-61.75,0.0,0.0,0.0,0.0,0.0,0.0,2,0,41.564149337868464,-91.85243663676904,10997.372949247849,155.94631106560337,-0.0020951683660184,-0.0009586086541333,,10375.88117203898,11905.596102039404,150,1,2025-09-12,2025-09-26 14:37:54.409,AA,C,1705412178,HAWK11,1,1,73,2,1,1,225,2,1,0,0,12,1,225,2,1,-142382.73474295562,-4790135.817354049,4200354.298307896,-2.84477,1.20312,-0.785302,22.875,79.0,87.125,-0.125,-6.70312,6.85938,0.0078125,0.00195312,0.0117188,4,0,41.42493634242136,-91.70256727176572,12047.261260105024,13.567869562601992,-1.8599592801224087,2.6035652116991974,195.856,10375.88117203898,11905.596102039404,150,True,10.725467987471262,False,146.12401078429446,165.04477986399303,False,48.791119274580986,False,False
1,1970-07-23 10:27:58.755358578,2025-09-12,2025-09-26 14:37:55.535,AA,C,4000103146,JASSM,3,137,76,2,2,1,225,9,2,0,1,26,0,0,0,0,-154534.13025076812,-4779324.842744674,4211661.485807896,-2.71074,-1.01089,0.752226,35.125,-55.875,-61.75,0.0,0.0,0.0,0.0,0.0,0.0,2,0,41.563330014903535,-91.85194981844238,10997.378344071532,155.94663404663655,-0.0011985281316449,-0.0009599394511813,,10375.88117203898,11905.596102039404,150,1,2025-09-12,2025-09-26 14:37:55.410,AA,C,1706724478,HAWK11,1,1,73,2,1,1,225,2,1,0,0,12,1,225,2,1,-142357.11364920562,-4790048.810518111,4200449.716276646,-2.8626,1.19353,-0.794506,23.75,79.5,87.25,-0.1875,-6.92188,7.07812,-0.144531,-0.00195312,0.00390625,4,0,41.42610251100478,-91.70229198499476,12038.57297697784,13.80938190144034,-1.2509927430534822,1.1851695613287752,195.661,10375.88117203898,11905.596102039404,150,True,10.627002538057848,False,145.75374178792677,164.68175659535316,False,49.52067975073538,False,False
1,1970-07-23 10:27:58.766781668,2025-09-12,2025-09-26 14:37:56.678,AA,C,4001355846,JASSM,3,137,76,2,2,1,225,9,2,0,1,26,0,0,0,0,-154497.23181326812,-4779383.723604049,4211596.458464146,-2.71074,-1.01089,0.752226,35.125,-55.875,-61.75,0.0,0.0,0.0,0.0,0.0,0.0,2,0,41.56254792986253,-91.85148513806796,10997.375919430577,155.94694233530268,-0.0003426418321842,-0.0009612094780368,,10375.88117203898,11905.596102039404,150,1,2025-09-12,2025-09-26 14:37:56.614,AA,C,1708116310,HAWK11,1,1,73,2,1,1,225,2,1,0,0,12,1,225,2,1,-142329.70153983062,-4789956.031221236,4200551.606901646,-3.05358,1.18893,-0.79767,23.125,80.0,88.125,0.0,-6.9375,6.98438,-0.015625,0.0078125,0.0,4,0,41.42734702433282,-91.70199733346472,12029.620046215809,13.941247151607952,-1.0271384712957516,-9.948164340747148,195.783,10375.88117203898,11905.596102039404,150,True,10.52825681880649,False,146.1354159706098,164.2956325394654,False,49.52890054054849,False,False
1,1970-07-23 10:27:58.776328438,2025-09-12,2025-09-26 14:37:57.632,AA,C,4002668196,JASSM,3,137,76,2,2,1,225,9,2,0,1,26,0,0,0,0,-154458.57653983062,-4779445.407197799,4211528.333464146,-2.71074,-1.01089,0.752226,35.125,-55.875,-61.75,0.0,0.0,0.0,0.0,0.0,0.0,2,0,41.561728599648085,-91.85099834529191,10997.373232732914,155.9472652891633,0.000554000924067,-0.0009625425656764,,10375.88117203898,11905.596102039404,150,1,2025-09-12,2025-09-26 14:37:57.707,AA,C,1709468374,HAWK11,1,1,73,2,1,1,225,2,1,0,0,12,1,225,2,1,-142304.08239920562,-4789865.336885299,4200651.397917271,-3.08004,1.23926,-0.807353,21.875,80.875,88.75,-0.21875,-7.01562,7.1875,0.00390625,0.00585938,-0.0175781,4,0,41.42856464520852,-91.70172335849618,12021.376805253643,11.862577236980968,-0.9701765906032498,-9.353900577679012,195.93,10375.88117203898,11905.596102039404,150,True,10.428291197208608,False,146.80512155736352,163.9080497102333,False,49.24416054621758,False,False
1,1970-07-23 10:27:58.788636640,2025-09-12,2025-09-26 14:37:58.863,AA,C,4003920896,JASSM,3,137,76,2,2,1,225,9,2,0,1,26,0,0,0,0,-154421.67810233062,-4779504.288057174,4211463.304167271,-2.71064,-1.01089,0.752322,35.125,-55.875,-61.75,0.0,0.0,0.0,0.0,0.0,0.0,2,0,41.5609464973925,-91.85053368786204,10997.3761073573,155.94986714736947,-0.003579658618025,0.0045276106756434,,10375.88117203898,11905.596102039404,150,1,2025-09-12,2025-09-26 14:37:58.815,AA,C,1710740906,HAWK11,1,1,73,2,1,1,225,2,1,0,0,12,1,225,2,1,-142281.26403983062,-4789779.580049361,4200745.839323521,-3.07103,1.24722,-0.821255,20.625,81.0,89.625,0.03125,-7.20312,7.28125,-0.103516,-0.00195312,-0.00976562,4,0,41.42971628974912,-91.7014810938458,12013.874412946563,11.38216581076596,-0.260891886400087,-8.500747825534493,196.418,10375.88117203898,11905.596102039404,150,True,10.333249398918836,False,147.44197582516165,163.53703005828316,False,48.9860032835422,False,False
1,1970-07-23 10:27:58.797255941,2025-09-12,2025-09-26 14:37:59.725,AA,C,4005173596,JASSM,3,137,76,2,2,1,225,9,2,0,1,26,0,0,0,0,-154384.77966483062,-4779563.165010299,4211398.274870396,-2.71064,-1.01089,0.752322,35.125,-55.875,-61.75,0.0,0.0,0.0,0.0,0.0,0.0,2,0,41.56016441646121,-91.85006904314815,10997.374061716975,155.95017539796464,-0.0027237816490561,0.0045263779639828,,10375.88117203898,11905.596102039404,150,1,2025-09-12,2025-09-26 14:37:59.739,AA,C,1711416940,HAWK11,1,1,73,2,1,1,225,2,1,0,0,12,1,225,2,1,-142269.70544608062,-4789733.779268111,4200796.519011021,-3.12347,1.25623,-0.829212,19.875,81.0,89.875,0.046875,-7.10938,7.20312,-0.0820312,0.00195312,-0.0136719,4,0,41.43033286977394,-91.70135920994012,12010.43947045406,10.942525175235936,0.1101611153540889,-11.125530020947284,196.761,10375.88117203898,11905.596102039404,150,False,10.259479432816692,False,147.80187155231997,163.29876902189648,False,48.866921026639,False,False
1,1970-07-23 10:27:58.808233371,2025-09-12,2025-09-26 14:38:00.823,AA,C,4006485946,JASSM,3,137,76,2,2,1,225,9,2,0,1,26,0,0,0,0,-154346.12439139312,-4779624.846650924,4211330.147917271,-2.71064,-1.01089,0.752322,35.125,-55.875,-61.75,0.0,0.0,0.0,0.0,0.0,0.0,2,0,41.55934507841447,-91.8495822869011,10997.377223117222,155.9504983124933,-0.0018271373307331,0.0045250795873469,,10375.88117203898,11905.596102039404,150,1,2025-09-12,2025-09-26 14:38:00.816,AA,C,1713126904,HAWK11,1,1,73,2,1,1,225,2,1,0,0,12,1,225,2,1,-142242.97302420562,-4789617.885713424,4200925.267057896,3.11887,1.30791,-0.838321,17.375,81.625,90.875,-0.125,-7.1875,7.17188,-0.0703125,-0.00390625,-0.0136719,4,0,41.4318960433171,-91.7010808486282,12003.047475848243,8.88972472682729,0.2416677192056893,-11.279202944099053,196.993,10375.88117203898,11905.596102039404,150,False,10.145269706884662,False,149.0345047323206,162.8135626406668,False,48.123239769188295,False,False
1,1970-07-23 10:27:58.819356504,2025-09-12,2025-09-26 14:38:01.935,AA,C,4007741356,JASSM,3,137,76,2,2,1,225,9,2,0,1,26,0,0,0,0,-154309.14587576812,-4779683.848604049,4211264.976042271,-2.71064,-1.01089,0.752322,35.125,-55.875,-61.75,0.0,0.0,0.0,0.0,0.0,0.0,2,0,41.55856130291996,-91.84911665787732,10997.37478128591,155.95080720630972,-0.0009694092146441,0.0045238462046793,,10375.88117203898,11905.596102039404,150,1,2025-09-12,2025-09-26 14:38:01.816,AA,C,1714319902,HAWK11,1,1,73,2,1,1,225,2,1,0,0,12,1,225,2,1,-142226.10778983062,-4789535.923799361,4201016.489714146,3.08416,1.31654,-0.847716,15.5,81.75,91.5,-0.359375,-7.32812,7.25,0.00390625,0.015625,0.00195312,4,0,41.43300233162368,-91.70090836565753,11998.346954968089,8.474172496205453,0.7173147917174996,-12.902031866968889,197.286,10375.88117203898,11905.596102039404,150,False,10.051404170842575,False,149.92894031499287,162.44519710110097,False,47.60199421832826,False,False
1,1970-07-23 10:27:58.831393931,2025-09-12,2025-09-26 14:38:03.139,AA,C,4009110630,JASSM,3,137,76,2,2,1,225,9,2,0,1,26,0,0,0,0,-154268.81384451812,-4779748.202119674,4211193.892057896,-2.71064,-1.01089,0.752322,35.125,-55.875,-61.75,0.0,0.0,0.0,0.0,0.0,0.0,2,0,41.5577064292524,-91.84860881431428,10997.375482072555,155.95114409939038,-3.387978985528029e-05,0.0045224943495379,,10375.88117203898,11905.596102039404,150,1,2025-09-12,2025-09-26 14:38:03.316,AA,C,1716109402,HAWK11,1,1,73,2,1,1,225,2,1,0,0,12,1,225,2,1,-142205.33435233062,-4789413.646455611,4201153.237761021,3.04562,1.37205,-0.855194,12.375,82.375,92.25,-0.171875,-7.20312,7.25,0.0644531,0.00585938,-0.00195312,4,0,41.43465642320485,-91.70070347180976,11993.090932998184,6.338485523329122,0.8355013017093721,-12.746358224601108,197.738,10375.88117203898,11905.596102039404,150,False,9.930033391178984,False,151.4143585572147,161.92899152434416,False,46.6344642673019,False,False
1,1970-07-23 10:27:58.841297494,2025-09-12,2025-09-26 14:38:04.129,AA,C,4010363346,JASSM,3,137,76,2,2,1,225,9,2,0,1,26,0,0,0,0,-154231.91443045562,-4779807.077119674,4211128.856901646,-2.71064,-1.01089,0.752322,35.125,-55.875,-61.75,0.0,0.0,0.0,0.0,0.0,0.0,2,0,41.55692431248788,-91.84814420507436,10997.37513672848,155.9514523067155,0.00082202621526,0.004521257787244,,10375.88117203898,11905.596102039404,150,1,2025-09-12,2025-09-26 14:38:04.113,AA,C,1717103566,HAWK11,1,1,73,2,1,1,225,2,1,0,0,12,1,225,2,1,-142195.50232108062,-4789344.745088424,4201230.575651646,3.07496,1.38988,-0.863248,10.875,82.375,92.75,0.03125,-7.3125,7.25,0.0253906,0.00390625,-0.0117188,4,0,41.43559005270304,-91.70061040568676,11990.887114943578,5.620832989875544,1.2147615415302422,-10.304452004577938,198.679,10375.88117203898,11905.596102039404,150,False,9.84255417753267,False,152.1157737974632,161.60024495018513,False,46.266254716254245,False,False
1,1970-07-23 10:27:58.852255561,2025-09-12,2025-09-26 14:38:05.225,AA,C,4011675694,JASSM,3,137,76,2,2,1,225,9,2,0,1,26,0,0,0,0,-154193.25915701812,-4779868.752900924,4211060.726042271,-2.71064,-1.0108,0.752322,35.125,-55.875,-61.75,0.0,0.0,0.0,0.0,0.0,0.0,2,0,41.55610497448794,-91.84765749971277,10997.375661969374,155.94813232394017,4.397938579684024e-05,0.0007673863631765,,10375.88117203898,11905.596102039404,150,1,2025-09-12,2025-09-26 14:38:05.315,AA,C,1718296566,HAWK11,1,1,73,2,1,1,225,2,1,0,0,12,1,225,2,1,-142185.21716483062,-4789263.088838424,4201322.702604771,3.10094,1.40129,-0.866603,9.5,82.5,93.25,-0.078125,-7.1875,7.17188,0.0175781,0.0,0.00585938,4,0,41.436699459329226,-91.70051644694404,11989.408076296671,5.178350653731079,1.360881586674228,-8.328237574741495,198.704,10375.88117203898,11905.596102039404,150,True,9.745363613588584,False,152.76024822411648,161.21883658817814,False,46.00630991999761,False,False
1,1970-07-23 10:27:58.862257750,2025-09-12,2025-09-26 14:38:06.225,AA,C,4012928396,JASSM,3,137,76,2,2,1,225,9,2,0,1,26,0,0,0,0,-154156.35974295562,-4779927.625947799,4210995.688932896,-2.71064,-1.0108,0.752418,35.125,-55.875,-61.75,0.0,0.0,0.0,0.0,0.0,0.0,2,0,41.55532285216236,-91.84719291416438,10997.375824018896,155.95073585448608,-0.0040926236776179,0.0007660302675844,,10375.88117203898,11905.596102039404,150,1,2025-09-12,2025-09-26 14:38:06.315,AA,C,1719688398,HAWK11,1,1,73,2,1,1,225,2,1,0,0,12,1,225,2,1,-142174.82653983062,-4789167.267549361,4201431.304167271,3.09826,1.415,-0.870055,8.0,82.375,93.75,-0.265625,-7.20312,7.01562,0.0390625,0.0078125,-0.0078125,4,0,41.43800434684727,-91.70042625074028,11988.875895167444,4.653576548936565,1.5084999380666937,-7.895583010886668,199.083,10375.88117203898,11905.596102039404,150,True,9.64223946791052,False,153.4503599409321,160.78769198322533,False,45.75198522538191,False,False
1,1970-07-23 10:27:58.878621792,2025-09-12,2025-09-26 14:38:07.862,AA,C,4014240748,JASSM,3,137,76,2,2,1,225,9,2,0,1,26,0,0,0,0,-154117.70446951812,-4779989.299775924,4210927.556120396,-2.71064,-1.0108,0.752418,35.125,-55.875,-61.75,0.0,0.0,0.0,0.0,0.0,0.0,2,0,41.55450350840806,-91.84670623358448,10997.377311155931,155.95105868807582,-0.0031959860902744,0.0007647115439528,,10375.88117203898,11905.596102039404,150,1,2025-09-12,2025-09-26 14:38:07.815,AA,C,1721477896,HAWK11,1,1,73,2,1,1,225,2,1,0,0,12,1,225,2,1,-142164.43786795562,-4789043.459932174,4201571.897917271,2.99155,1.43053,-0.869863,5.625,82.375,94.0,-0.09375,-7.54688,6.5,-0.0175781,-0.00390625,-0.0078125,4,0,41.439691655776514,-91.70034600489716,11989.019091630866,4.082813437971907,1.4484313337224364,-13.343978660708803,199.156,10375.88117203898,11905.596102039404,150,False,9.520450316760945,False,154.53835601161225,160.24918544921894,False,45.204790136773575,False,False
1,1970-07-23 10:27:58.884996417,2025-09-12,2025-09-26 14:38:08.499,AA,C,4015553100,JASSM,3,137,76,2,2,1,225,9,2,0,1,26,0,0,0,0,-154079.04821951812,-4780050.971650924,4210859.421354771,-2.71064,-1.0108,0.752418,35.125,-55.875,-61.75,0.0,0.0,0.0,0.0,0.0,0.0,2,0,41.5536841611648,-91.84621955435708,10997.374796642956,155.9513815155393,-0.0022993438405433,0.0007633997421245,,10375.88117203898,11905.596102039404,150,1,2025-09-12,2025-09-26 14:38:08.409,AA,C,1722193694,HAWK11,1,1,73,2,1,1,225,2,1,0,0,12,1,225,2,1,-142161.12927420562,-4788994.201143111,4201628.122526646,3.00353,1.44348,-0.869384,4.5,82.25,93.75,-0.0625,-7.5625,6.28125,0.0546875,-0.0136719,-0.03125,4,0,41.44036476940908,-91.70032393476446,11989.764907587336,3.6078809950902127,1.3844374597374762,-12.102407991165297,199.376,10375.88117203898,11905.596102039404,150,False,9.441430387804258,False,155.04956510327335,159.96536037894782,False,44.97723375261975,False,False
1,1970-07-23 10:27:58.896641721,2025-09-12,2025-09-26 14:38:09.664,AA,C,4016865450,JASSM,3,137,76,2,2,1,225,9,2,0,1,26,0,0,0,0,-154040.39294608062,-4780112.643525924,4210791.286589146,-2.71064,-1.0108,0.752418,35.125,-55.875,-61.75,0.0,0.0,0.0,0.0,0.0,0.0,2,0,41.552864811556994,-91.8457328991145,10997.377478259285,155.95170432186487,-0.001402704857134,0.0007620798535874,,10375.88117203898,11905.596102039404,150,1,2025-09-12,2025-09-26 14:38:09.739,AA,C,1723665060,HAWK11,1,1,73,2,1,1,225,2,1,0,0,12,1,225,2,1,-142156.67419608062,-4788892.321260299,4201743.714323521,3.00574,1.48413,-0.870342,2.375,82.125,93.125,-0.125,-7.76562,6.4375,0.015625,0.0078125,0.00976562,4,0,41.441751829990935,-91.70030683157644,11989.98126773096,2.10475504013743,1.353660321432949,-10.23183979081954,199.449,10375.88117203898,11905.596102039404,150,False,9.33183973327571,False,156.0243125207971,159.49451407711507,False,44.4713644508979,False,False
1,1970-07-23 10:27:58.906279226,2025-09-12,2025-09-26 14:38:10.627,AA,C,4018118308,JASSM,3,137,76,2,2,1,225,9,2,0,1,26,0,0,0,0,-154003.48962576812,-4780171.518525924,4210726.237761021,-2.71064,-1.0108,0.752418,35.125,-55.875,-61.75,0.0,0.0,0.0,0.0,0.0,0.0,2,0,41.55208259119532,-91.8452683124416,10997.375945552218,155.95201248487135,-0.00054670050391,0.0007608178040957,,10375.88117203898,11905.596102039404,150,1,2025-09-12,2025-09-26 14:38:10.503,AA,C,1724698992,HAWK11,1,1,73,2,1,1,225,2,1,0,0,12,1,225,2,1,-142154.98474295562,-4788821.715791549,4201824.128386021,3.01916,1.48451,-0.875232,1.125,81.375,93.0,-0.1875,-7.79688,6.34375,-0.0292969,-0.00195312,-0.0136719,4,0,41.4427149158936,-91.70031169022012,11990.904613245608,2.078708532822072,1.6339179148509078,-9.4465940863176,199.889,10375.88117203898,11905.596102039404,150,True,9.242517383376027,False,156.59069062102816,159.1334257573258,False,44.27055153941484,False,False
1,1970-07-23 10:27:58.917238755,2025-09-12,2025-09-26 14:38:11.723,AA,C,4019430500,JASSM,3,137,76,2,2,1,225,9,2,0,1,26,0,0,0,0,-153964.83825858062,-4780233.178682174,4210658.108854771,-2.71064,-1.0108,0.752418,35.125,-55.875,-61.75,0.0,0.0,0.0,0.0,0.0,0.0,2,0,41.55126334595607,-91.84478173251418,10997.37293488079,155.95233523102064,0.0003498238930873,0.0007595070883849,,10375.88117203898,11905.596102039404,150,1,2025-09-12,2025-09-26 14:38:11.815,AA,C,1726210124,HAWK11,1,1,73,2,1,1,225,2,1,0,0,12,1,225,2,1,-142154.54724295562,-4788718.889619674,4201941.126432896,2.923,1.51835,-0.873123,-0.875,81.375,91.875,0.078125,-7.51562,6.28125,-0.0410156,0.0078125,-0.015625,4,0,41.444116385418425,-91.70034294890918,11992.162429429069,0.838242564081441,1.477514293980951,-13.502486207896258,199.999,10375.88117203898,11905.596102039404,150,False,9.131928392843522,False,157.53141277418877,158.64819106195011,False,43.80920413866873,False,False
1,1970-07-23 10:27:58.928375815,2025-09-12,2025-09-26 14:38:12.837,AA,C,4020742850,JASSM,3,137,76,2,2,1,225,9,2,0,1,26,0,0,0,0,-153926.18200858062,-4780294.846650924,4210589.970182896,-2.71064,-1.0108,0.752513,35.125,-55.875,-61.75,0.0,0.0,0.0,0.0,0.0,0.0,2,0,41.55044398710338,-91.8442951033972,10997.372576825748,155.95495192734393,-0.0037429382532242,0.000758142982675,,10375.88117203898,11905.596102039404,150,1,2025-09-12,2025-09-26 14:38:13.012,AA,C,1727721256,HAWK11,1,1,73,2,1,1,225,2,1,0,0,12,1,225,2,1,-142157.49060233062,-4788617.065400924,4202056.804167271,2.83691,1.55373,-0.870726,-3.875,81.0,91.25,0.0625,-7.53125,6.25,-0.0527344,0.00390625,-0.0351562,4,0,41.44550238555616,-91.7004142697163,11993.275244231849,-0.4656921777492619,1.3366211957299334,-16.9154581217324,199.926,10375.88117203898,11905.596102039404,150,False,9.021363780839629,False,158.9430799908979,158.16330421400167,False,42.88219546571424,False,False
1,1970-07-23 10:27:58.938370292,2025-09-12,2025-09-26 14:38:13.837,AA,C,4021995550,JASSM,3,137,76,2,2,1,225,9,2,0,1,26,0,0,0,0,-153889.28357108062,-4780353.711885299,4210524.927214146,-2.71064,-1.0108,0.752513,35.125,-55.875,-61.75,0.0,0.0,0.0,0.0,0.0,0.0,2,0,41.54966185738572,-91.84383061361636,10997.37465360488,155.95526001144452,-0.0028870408485036,0.0007569120555786,,10375.88117203898,11905.596102039404,150,1,2025-09-12,2025-09-26 14:38:13.909,AA,C,1728794954,HAWK11,1,1,73,2,1,1,225,2,1,0,0,12,1,225,2,1,-142161.79919608062,-4788544.629854049,4202138.821745396,2.79568,1.58978,-0.864302,-6.25,80.875,90.5,-0.015625,-7.60938,6.04688,-0.0371094,0.00585938,-0.0253906,4,0,41.446486122428674,-91.70049148419594,11993.642961663212,-1.809842078094743,1.0003709833579009,-17.7294572455751,199.669,10375.88117203898,11905.596102039404,150,False,8.930245239474228,False,160.07559512441225,157.78531300603214,False,42.12353686795104,False,False
1,1970-07-23 10:27:58.949361459,2025-09-12,2025-09-26 14:38:14.936,AA,C,4023248412,JASSM,3,137,76,2,2,1,225,9,2,0,1,26,0,0,0,0,-153852.37927420562,-4780412.582979049,4210459.876432896,-2.71064,-1.0108,0.752513,35.125,-55.875,-61.75,0.0,0.0,0.0,0.0,0.0,0.0,2,0,41.54887963924028,-91.84336606261948,10997.378310845805,155.95556813138307,-0.0020310423022952,0.0007556953800949,,10375.88117203898,11905.596102039404,150,1,2025-09-12,2025-09-26 14:38:14.928,AA,C,1729868654,HAWK11,1,1,73,2,1,1,225,2,1,0,0,12,1,225,2,1,-142168.63318045562,-4788472.350557174,4202220.175261021,2.74189,1.62468,-0.862289,-8.875,80.75,89.875,0.34375,-7.73438,6.375,-0.00585938,0.0136719,-0.0273438,4,0,41.4474640031321,-91.70059883613526,11993.143099802495,-3.1137357477205074,0.950503654322252,-19.31360296615016,199.449,10375.88117203898,11905.596102039404,150,False,8.838778135261036,False,161.33082222413984,157.40727920137505,False,41.24259704437531,False,False
1,1970-07-23 10:27:58.960295435,2025-09-12,2025-09-26 14:38:16.029,AA,C,4024560600,JASSM,3,137,76,2,2,1,225,9,2,0,1,26,0,0,0,0,-153813.72790701812,-4780474.239229049,4210391.743620396,-2.71054,-1.0107,0.752513,35.125,-55.875,-61.75,0.0,0.0,0.0,0.0,0.0,0.0,2,0,41.54806038249097,-91.84287953222928,10997.377221415298,155.95224874536993,-0.0028091369323759,0.0024927280308152,,10375.88117203898,11905.596102039404,150,1,2025-09-12,2025-09-26 14:38:16.113,AA,C,1731459318,HAWK11,1,1,73,2,1,1,225,2,1,0,0,12,1,225,2,1,-142183.19958670562,-4788365.657197799,4202339.280729771,2.62991,1.68604,-0.85529,-12.875,80.125,88.875,0.03125,-7.78125,6.35938,-0.224609,0.015625,-0.0195312,4,0,41.448900058694576,-91.70081084887384,11990.609384795833,-5.43672694957473,0.7487735750014741,-23.1021337031886,199.303,10375.88117203898,11905.596102039404,150,False,8.723264436083111,False,163.27157574363986,156.9046929531265,False,39.80280575673528,False,False
1,1970-07-23 10:27:58.970274815,2025-09-12,2025-09-26 14:38:17.027,AA,C,4025813298,JASSM,3,137,76,2,2,1,225,9,2,0,1,26,0,0,0,0,-153776.82946951812,-4780533.100557174,4210326.698698521,-2.71054,-1.0107,0.752513,35.125,-55.875,-61.75,0.0,0.0,0.0,0.0,0.0,0.0,2,0,41.54727825688028,-91.8424150780752,10997.379676443405,155.95255679136184,-0.0019532489796564,0.0024914457513554,,10375.88117203898,11905.596102039404,150,1,2025-09-12,2025-09-26 14:38:17.007,AA,C,1732214884,HAWK11,1,1,73,2,1,1,225,2,1,0,0,12,1,225,2,1,-142192.53747733062,-4788314.440400924,4202395.895964146,2.51592,1.71365,-0.854044,-15.625,80.25,87.875,0.21875,-7.5,6.17188,-0.0566406,0.0136719,-0.0117188,4,0,41.44958522807462,-91.70094066684912,11988.3531774217,-6.476587827442664,0.8016148464938377,-28.454104071756472,199.217,10375.88117203898,11905.596102039404,150,False,8.643883760277744,False,164.6086705094322,156.5985552122255,False,38.755828205662226,False,False
1,1970-07-23 10:27:58.992592990,2025-09-12,2025-09-26 14:38:19.259,AA,C,4028259044,JASSM,3,137,76,2,2,1,225,9,2,0,1,26,0,0,0,0,-153704.78845389312,-4780648.014619674,4210199.702604771,-2.71054,-1.0107,0.752513,35.125,-55.875,-61.75,0.0,0.0,0.0,0.0,0.0,0.0,2,0,41.54575125366823,-91.84150830660438,10997.376000551583,155.95315818751146,-0.0002822343676826,0.0024889545343362,,10375.88117203898,11905.596102039404,150,1,2025-09-12,2025-09-26 14:38:19.315,AA,C,1735276914,HAWK11,1,1,73,2,1,1,225,2,1,0,0,12,1,225,2,1,-142245.75427420562,-4788111.446260299,4202616.173307896,2.60806,1.86206,-0.831322,-25.25,79.125,84.875,0.140625,-8.01562,6.54688,0.117188,0.00976562,-0.0078125,4,0,41.45227023922234,-91.7016489812589,11971.690891767366,-12.27553483313393,0.5614447219377058,-16.891328713777284,198.887,10375.88117203898,11905.596102039404,150,False,8.420424813459732,False,169.37618232926997,155.6704080446617,False,34.87016088468007,False,False
1,1970-07-23 10:27:59.002191935,2025-09-12,2025-09-26 14:38:20.219,AA,C,4029511742,JASSM,3,137,76,2,2,1,225,9,2,0,1,26,0,0,0,0,-153667.88903983062,-4780706.872041549,4210134.653776646,-2.71054,-1.0107,0.752513,35.125,-55.875,-61.75,0.0,0.0,0.0,0.0,0.0,0.0,2,0,41.54496911938506,-91.84104387531232,10997.3740624778,155.95346620427526,0.0005736596115375,0.0024876780175804,,10375.88117203898,11905.596102039404,150,1,2025-09-12,2025-09-26 14:38:20.315,AA,C,1736231314,HAWK11,1,1,73,2,1,1,225,2,1,0,0,12,1,225,2,1,-142266.96130545562,-4788048.661104049,4202683.997526646,2.65149,1.88373,-0.830842,-27.25,78.5,84.125,-0.1875,-7.95312,6.42188,0.0253906,0.00585938,-0.0253906,4,0,41.45309779309038,-91.70192483000868,11966.227859866958,-13.093976312863797,0.7399857873247612,-13.495168842521847,198.74,10375.88117203898,11905.596102039404,150,False,8.331503464263378,False,170.41821238668473,155.32753445201783,False,34.165296933412506,False,False
1,1970-07-23 10:27:59.014993967,2025-09-12,2025-09-26 14:38:21.499,AA,C,4030824094,JASSM,3,137,76,2,2,1,225,9,2,0,1,26,0,0,0,0,-153629.23278983062,-4780768.532197799,4210066.507292271,-2.71054,-1.0107,0.752609,35.125,-55.875,-61.75,0.0,0.0,0.0,0.0,0.0,0.0,2,0,41.54414973780618,-91.84055734359067,10997.376854401473,155.95608455047503,-0.0035220491007571,0.0024862970316799,,10375.88117203898,11905.596102039404,150,1,2025-09-12,2025-09-26 14:38:21.503,AA,C,1737821978,HAWK11,1,1,73,2,1,1,225,2,1,0,0,12,1,225,2,1,-142305.43005545562,-4787944.737275924,4202795.841276646,2.60681,1.92217,-0.830746,-30.125,77.375,83.125,-0.09375,-8.10938,6.71875,0.0507812,0.0117188,-0.0195312,4,0,41.45446414933384,-91.70242168593934,11956.527217424184,-14.527954337162624,1.1302302807171891,-14.451595498636909,198.814,10375.88117203898,11905.596102039404,150,False,8.211973178103783,False,171.95114511307727,154.84593464254058,False,33.11740162512205,False,False
1,1970-07-23 10:27:59.023255019,2025-09-12,2025-09-26 14:38:22.325,AA,C,4032076800,JASSM,3,137,76,2,2,1,225,9,2,0,1,26,0,0,0,0,-153592.33337576812,-4780827.387666549,4210001.456511021,-2.71054,-1.0107,0.752609,35.125,-55.875,-61.75,0.0,0.0,0.0,0.0,0.0,0.0,2,0,41.543367597959815,-91.84009293596944,10997.375423660174,155.95639254189493,-0.0026661536874232,0.0024850536458216,,10375.88117203898,11905.596102039404,150,1,2025-09-12,2025-09-26 14:38:22.315,AA,C,1738855910,HAWK11,1,1,73,2,1,1,225,2,1,0,0,12,1,225,2,1,-142332.43982108062,-4787878.299775924,4202867.745573521,2.55283,1.94806,-0.82509,-32.0,76.5,82.625,-0.0625,-7.65625,6.75,-0.0585938,0.00585938,-0.0273438,4,0,41.45533994164592,-91.70276823140294,11951.385759962544,-15.582415082519631,1.1094842606565014,-16.472418809254084,198.997,10375.88117203898,11905.596102039404,150,False,8.119498168603263,False,172.96806515075514,154.48437565727815,False,32.47751309061397,False,False
1,1970-07-23 10:27:59.034373773,2025-09-12,2025-09-26 14:38:23.437,AA,C,4033389144,JASSM,3,137,76,2,2,1,225,9,2,0,1,26,0,0,0,0,-153553.67712576812,-4780889.043916549,4209933.308073521,-2.71054,-1.0107,0.752609,35.125,-55.875,-61.75,0.0,0.0,0.0,0.0,0.0,0.0,2,0,41.54254822227492,-91.8396064297598,10997.374384123264,155.95671518381295,-0.0017695125451739,0.0024837527590175,,10375.88117203898,11905.596102039404,150,1,2025-09-12,2025-09-26 14:38:23.409,AA,C,1740128442,HAWK11,1,1,73,2,1,1,225,2,1,0,0,12,1,225,2,1,-142368.22497733062,-4787797.655244674,4202954.810026646,2.48026,1.98238,-0.815311,-35.125,76.0,81.875,-0.03125,-7.39062,7.09375,-0.0253906,0.0078125,-0.0195312,4,0,41.45640102564628,-91.703224759814,11944.902259053302,-17.031671637122116,0.9914315353272832,-19.21907805055344,199.107,10375.88117203898,11905.596102039404,150,False,8.014210386480652,False,174.5422677820013,154.06911705412404,False,31.301306315728972,False,False
1,1970-07-23 10:27:59.044356876,2025-09-12,2025-09-26 14:38:24.435,AA,C,4034641842,JASSM,3,137,76,2,2,1,225,9,2,0,1,26,0,0,0,0,-153516.77771170562,-4780947.897432174,4209868.257292271,-2.71054,-1.0107,0.752609,35.125,-55.875,-61.75,0.0,0.0,0.0,0.0,0.0,0.0,2,0,41.54176609002032,-91.83914204580655,10997.377710206889,155.95702314978303,-0.0009136277613193,0.0024825135706162,,10375.88117203898,11905.596102039404,150,1,2025-09-12,2025-09-26 14:38:24.613,AA,C,1741560042,HAWK11,1,1,73,2,1,1,225,2,1,0,0,12,1,225,2,1,-142413.09216483062,-4787706.352510299,4203053.479948521,2.51602,2.02648,-0.801026,-38.875,75.75,81.25,-0.078125,-7.3125,7.35938,0.144531,0.0214844,-0.0253906,4,0,41.45760223905607,-91.70379368487556,11938.104213638751,-18.951102227925585,0.8063748560550359,-15.373047636968622,198.997,10375.88117203898,11905.596102039404,150,False,7.902289480720675,False,176.33143884132875,153.62729740647163,False,29.90627122591243,True,False
