Subject_cm,Timestamp,SampleDate_cm,SampleTime_cm,Configuration_cm,Scenario_cm,DisTime_cm,MarkingTxt_cm,Application_cm,EntId_cm,Site_cm,ExerciseId_cm,ForceId_cm,Category_cm,Country_cm,Domain_cm,Kind_cm,Extra_cm,Specific_cm,Subcategory_cm,AltCategory_cm,AltCountry_cm,AltDomain_cm,AltKind_cm,ECEF_X_cm,ECEF_Y_cm,ECEF_Z_cm,OriPhi_cm,OriPsi_cm,OriTheta_cm,LinVelX_cm,LinVelY_cm,LinVelZ_cm,LinAccX_cm,LinAccY_cm,LinAccZ_cm,AngVelX_cm,AngVelY_cm,AngVelZ_cm,DrAlg_cm,Appearance_cm,Latitude_cm,Longitude_cm,Altitude_cm,Heading_cm,Pitch_cm,Roll_cm,CalibratedAirspeed_cm,CM_Altitude_Lead_cm,CM_Altitude_Wing_cm,CM_Airspeed_cm,Subject_ac,SampleDate_ac,SampleTime_ac,Configuration_ac,Scenario_ac,DisTime_ac,MarkingTxt_ac,Application_ac,EntId_ac,Site_ac,ExerciseId_ac,ForceId_ac,Category_ac,Country_ac,Domain_ac,Kind_ac,Extra_ac,Specific_ac,Subcategory_ac,AltCategory_ac,AltCountry_ac,AltDomain_ac,AltKind_ac,ECEF_X_ac,ECEF_Y_ac,ECEF_Z_ac,OriPhi_ac,OriPsi_ac,OriTheta_ac,LinVelX_ac,LinVelY_ac,LinVelZ_ac,LinAccX_ac,LinAccY_ac,LinAccZ_ac,AngVelX_ac,AngVelY_ac,AngVelZ_ac,DrAlg_ac,Appearance_ac,Latitude_ac,Longitude_ac,Altitude_ac,Heading_ac,Pitch_ac,Roll_ac,CalibratedAirspeed_ac,CM_Altitude_Lead_ac,CM_Altitude_Wing_ac,CM_Airspeed_ac,Bank_Angle_Condition,distance_nm,Distance_Condition,angle_between_vel,angle_between_pos,Cone_Condition,angle_between_pos_nose,Nose_Cone_Condition,Intercept_Criteria
1,1970-07-23 10:28:05.555449276,2025-09-12,2025-09-26 14:49:15.544,HA,C,516347800,JASSM,3,148,76,2,2,1,225,9,2,0,1,26,0,0,0,0,-155735.93884451812,-4777406.413057174,4213778.983854771,-2.71093,-1.01118,0.751842,35.125,-56.0,-61.75,0.0,0.0,0.0,0.0,0.0,0.0,2,0,41.58880251358814,-91.86709116932964,10997.37754941013,155.93834743796944,-0.0040844504631167,-0.0006568943807065,,10150.171305463598,12127.771392007851,150,1,2025-09-12,2025-09-26 14:49:15.711,HA,C,2518321526,HAWK11,1,1,73,2,1,1,225,2,1,0,0,12,1,225,2,1,-143408.49060233062,-4791414.883760299,4198907.770964146,2.22168,2.72646,-0.448402,-98.25,29.375,30.625,-0.046875,-7.46875,6.54688,-0.0214844,0.0,-0.015625,4,0,41.40738177809213,-91.71436813660912,12128.62375180193,-56.67348828330406,1.8780507088199507,-8.644891954946912,194.158,10150.171305463598,12127.771392007851,150,True,12.863112577214512,False,136.19700436906473,171.6858209497512,False,35.534552101447844,False,False
1,1970-07-23 10:28:05.570197910,2025-09-12,2025-09-26 14:49:17.019,HA,C,517660152,JASSM,3,148,76,2,2,1,225,9,2,0,1,26,0,0,0,0,-155697.28454764312,-4777468.133760299,4213710.894011021,-2.71093,-1.01118,0.751842,35.125,-56.0,-61.75,0.0,0.0,0.0,0.0,0.0,0.0,2,0,41.58798326821479,-91.86660397940652,10997.378477173052,155.93867082240092,-0.003187824630558,-0.0006581913126425,,10150.171305463598,12127.771392007851,150,1,2025-09-12,2025-09-26 14:49:17.007,HA,C,2519872426,HAWK11,1,1,73,2,1,1,225,2,1,0,0,12,1,225,2,1,-143535.40466483062,-4791377.506807174,4198946.985807896,2.24134,2.74563,-0.439965,-98.5,27.875,30.0,-0.09375,-7.78125,6.78125,0.115234,0.00195312,0.0,4,0,41.40784620538211,-91.7158977939197,12131.13406433375,-57.722865553344704,2.2257851051445865,-7.083975393327637,194.39,10150.171305463598,12127.771392007851,150,True,12.749807277084452,False,135.42159773718933,171.84482044038413,False,36.4796896211608,False,False
1,1970-07-23 10:28:05.576998188,2025-09-12,2025-09-26 14:49:17.699,HA,C,518912852,JASSM,3,148,76,2,2,1,225,9,2,0,1,26,0,0,0,0,-155660.38708670562,-4777527.047822799,4213645.894011021,-2.71093,-1.01118,0.751842,35.125,-56.0,-61.75,0.0,0.0,0.0,0.0,0.0,0.0,2,0,41.5872012314998,-91.86613894429412,10997.370079778126,155.93897949614686,-0.0023319285637606,-0.0006594394729699,,10150.171305463598,12127.771392007851,150,1,2025-09-12,2025-09-26 14:49:17.808,HA,C,2520826824,HAWK11,1,1,73,2,1,1,225,2,1,0,0,12,1,225,2,1,-143614.59216483062,-4791355.239229049,4198970.669401646,2.29953,2.75589,-0.432199,-98.375,27.5,29.125,-0.1875,-7.4375,6.34375,0.0527344,0.0,-0.0234375,4,0,41.4081244105016,-91.71685185076184,12133.59473922851,-58.415785085878376,2.283905784130541,-3.5284466798573324,194.891,10150.171305463598,12127.771392007851,150,True,12.66215843773563,False,134.9981239145567,171.9356473220263,False,36.990908651196534,False,False
1,1970-07-23 10:28:05.587256689,2025-09-12,2025-09-26 14:49:18.725,HA,C,520225202,JASSM,3,148,76,2,2,1,225,9,2,0,1,26,0,0,0,0,-155621.73278983062,-4777588.768525924,4213577.804167271,-2.71083,-1.01118,0.751842,35.125,-56.0,-61.75,0.0,0.0,0.0,0.0,0.0,0.0,2,0,41.586381981863234,-91.8656517784466,10997.381012494125,155.93930285437452,-0.0014353024811384,0.0048443960285954,,10150.171305463598,12127.771392007851,150,1,2025-09-12,2025-09-26 14:49:18.601,HA,C,2521781224,HAWK11,1,1,73,2,1,1,225,2,1,0,0,12,1,225,2,1,-143692.90857108062,-4791333.019502486,4198993.950651646,2.32877,2.76385,-0.432966,-98.0,27.375,28.875,-0.09375,-7.5,6.45312,0.0117188,0.00195312,0.0136719,4,0,41.40839976287084,-91.71779549101008,12135.239523101294,-58.67934559266261,2.6075429528596143,-1.6729807676651784,195.502,10150.171305463598,12127.771392007851,150,True,12.572514817096632,False,134.93933664401266,172.02482102470958,False,37.139017060534876,False,False
1,1970-07-23 10:28:05.597298369,2025-09-12,2025-09-26 14:49:19.729,HA,C,521477900,JASSM,3,148,76,2,2,1,225,9,2,0,1,26,0,0,0,0,-155584.83630545562,-4777647.680635299,4213512.804167271,-2.71083,-1.01118,0.751842,35.125,-56.0,-61.75,0.0,0.0,0.0,0.0,0.0,0.0,2,0,41.58559995254856,-91.86518677877542,10997.377453240682,155.9396114948376,-0.0005794204485214,0.0048431439981785,,10150.171305463598,12127.771392007851,150,1,2025-09-12,2025-09-26 14:49:19.805,HA,C,2523212822,HAWK11,1,1,73,2,1,1,225,2,1,0,0,12,1,225,2,1,-143809.72107108062,-4791300.364229049,4199028.479948521,2.34239,2.75407,-0.440061,-97.5,26.875,28.875,-0.421875,-7.375,6.26562,-0.0292969,0.00195312,-0.0117188,4,0,41.40880623372639,-91.71920281366026,12138.471331596977,-58.03288118914146,2.539362162974773,-1.1005748407632274,196.333,10150.171305463598,12127.771392007851,150,True,12.467686521153468,False,134.8735473189847,172.1788600169683,False,37.36566851459562,False,False
1,1970-07-23 10:28:05.610276953,2025-09-12,2025-09-26 14:49:21.027,HA,C,522551642,JASSM,3,148,76,2,2,1,225,9,2,0,1,26,0,0,0,0,-155553.21032889312,-4777698.176729049,4213457.089323521,-2.71083,-1.01118,0.751842,35.125,-56.0,-61.75,0.0,0.0,0.0,0.0,0.0,0.0,2,0,41.58492963645087,-91.86478821154644,10997.376866094946,155.93987603741235,0.000154197699747,0.0048420727414933,,10150.171305463598,12127.771392007851,150,1,2025-09-12,2025-09-26 14:49:21.007,HA,C,2524604654,HAWK11,1,1,73,2,1,1,225,2,1,0,0,12,1,225,2,1,-143923.78552420562,-4791268.364229049,4199061.870573521,2.31574,2.75628,-0.438335,-97.0,27.0,28.25,0.15625,-7.48438,6.48438,-0.00390625,-0.00195312,0.0,4,0,41.40920159482658,-91.72057708569626,12140.648965489056,-58.1847596541118,2.550637209989376,-2.580439960418868,197.201,10150.171305463598,12127.771392007851,150,True,12.371559918786895,False,134.78173571230087,172.33582951251242,False,37.60911601306595,False,False
1,1970-07-23 10:28:05.616236551,2025-09-12,2025-09-26 14:49:21.623,HA,C,523685036,JASSM,3,148,76,2,2,1,225,9,2,0,1,26,0,0,0,0,-155519.82653983062,-4777751.475557174,4213398.280729771,-2.71083,-1.01118,0.751842,35.125,-56.0,-61.75,0.0,0.0,0.0,0.0,0.0,0.0,2,0,41.58422210491539,-91.86436750190435,10997.376819623538,155.94015527285853,0.0009285514915139,0.0048409584926403,,10150.171305463598,12127.771392007851,150,1,2025-09-12,2025-09-26 14:49:21.805,HA,C,2525638586,HAWK11,1,1,73,2,1,1,225,2,1,0,0,12,1,225,2,1,-144007.79724295562,-4791244.773408736,4199086.358854771,2.356,2.75235,-0.43335,-96.75,26.875,28.0,-0.109375,-7.01562,6.20312,0.0644531,-0.0078125,0.0,4,0,41.4094922015723,-91.72158929453626,12141.97638083462,-58.24120581945412,2.2047805913680296,-0.3705544910923115,197.641,10150.171305463598,12127.771392007851,150,True,12.28693799481326,False,134.69540751653355,172.44444039034403,False,37.80439175193621,False,False
1,1970-07-23 10:28:05.626217884,2025-09-12,2025-09-26 14:49:22.621,HA,C,524818430,JASSM,3,148,76,2,2,1,225,9,2,0,1,26,0,0,0,0,-155486.44372733062,-4777804.776338424,4213339.468229771,-2.71083,-1.01118,0.751938,35.125,-56.0,-61.75,0.0,0.0,0.0,0.0,0.0,0.0,2,0,41.58351453361082,-91.86394681238478,10997.376953467552,155.94272710189512,-0.0032870732730407,0.0048397895156342,,10150.171305463598,12127.771392007851,150,1,2025-09-12,2025-09-26 14:49:22.711,HA,C,2526473684,HAWK11,1,1,73,2,1,1,225,2,1,0,0,12,1,225,2,1,-144075.40857108062,-4791225.365205611,4199105.931120396,2.43251,2.74573,-0.431049,-96.375,27.5,27.75,0.0,-6.40625,5.85938,0.142578,-0.00390625,0.00976562,4,0,41.409727670906506,-91.72240406282543,12141.71405215639,-58.088944060671686,1.8699905108329369,3.859786599484023,197.946,10150.171305463598,12127.771392007851,150,True,12.20979295311245,False,134.88759277549096,172.52724738809806,False,37.687936411038194,False,False
1,1970-07-23 10:28:05.635256922,2025-09-12,2025-09-26 14:49:23.525,HA,C,525951824,JASSM,3,148,76,2,2,1,225,9,2,0,1,26,0,0,0,0,-155453.05993826812,-4777858.073213424,4213280.655729771,-2.71083,-1.01109,0.751938,35.125,-56.0,-61.75,0.0,0.0,0.0,0.0,0.0,0.0,2,0,41.5828069841878,-91.8635261218744,10997.371246446077,155.93936183639286,-0.0041872712405151,0.0010879317519155,,10150.171305463598,12127.771392007851,150,1,2025-09-12,2025-09-26 14:49:23.307,HA,C,2527428084,HAWK11,1,1,73,2,1,1,225,2,1,0,0,12,1,225,2,1,-144152.35583670562,-4791202.650361861,4199127.849089146,2.59425,2.72588,-0.436513,-95.75,28.875,27.625,-0.21875,-5.89062,5.70312,0.164062,-0.00390625,0.0195312,4,0,41.40999696736699,-91.72333156877814,12139.102972538472,-57.13173504701242,1.3748238733510103,12.676080669847964,198.252,10150.171305463598,12127.771392007851,150,False,12.128314061374649,False,135.4289721014994,172.6266877501076,False,37.233988545545415,False,False
1,1970-07-23 10:28:05.644298189,2025-09-12,2025-09-26 14:49:24.429,HA,C,527085208,JASSM,3,148,76,2,2,1,225,9,2,0,1,26,0,0,0,0,-155419.67712576812,-4777911.370088424,4213221.843229771,-2.71083,-1.01109,0.751938,35.125,-56.0,-61.75,0.0,0.0,0.0,0.0,0.0,0.0,2,0,41.582099432948326,-91.86310545224693,10997.369435319995,155.9396410337098,-0.003412907452088,0.0010867846355382,,10150.171305463598,12127.771392007851,150,1,2025-09-12,2025-09-26 14:49:24.507,HA,C,2528819916,HAWK11,1,1,73,2,1,1,225,2,1,0,0,12,1,225,2,1,-144264.17810233062,-4791166.340791549,4199160.544401646,2.7882,2.69655,-0.434596,-94.625,32.5,28.625,-0.046875,-5.79688,6.14062,0.09375,-0.00585938,0.0273438,4,0,41.41041362781167,-91.72468065166952,12129.029711401909,-56.10644800413692,0.2437583514136846,23.09420742191871,198.948,10150.171305463598,12127.771392007851,150,False,12.029523723571842,False,137.23803741438323,172.78323197231626,False,35.5627817156827,False,False
1,1970-07-23 10:28:05.655037876,2025-09-12,2025-09-26 14:49:25.503,HA,C,528158960,JASSM,3,148,76,2,2,1,225,9,2,0,1,26,0,0,0,0,-155388.05114920562,-4777961.862275924,4213166.128386021,-2.71083,-1.01109,0.751938,35.125,-56.0,-61.75,0.0,0.0,0.0,0.0,0.0,0.0,2,0,41.58142913254605,-91.86270692959047,10997.377161912094,155.9399055285417,-0.0026793106387851,0.0010857044694053,,10150.171305463598,12127.771392007851,150,1,2025-09-12,2025-09-26 14:49:25.601,HA,C,2530132214,HAWK11,1,1,73,2,1,1,225,2,1,0,0,12,1,225,2,1,-144368.37536795562,-4791128.054658736,4199192.782682896,2.87094,2.66222,-0.441691,-93.25,36.625,30.5,-0.09375,-6.98438,7.34375,0.115234,0.0234375,0.0507812,4,0,41.41084031503031,-91.72593936218196,12112.545886276974,-54.52646257132417,-0.6703570624437278,26.99471241991772,199.144,10150.171305463598,12127.771392007851,150,False,11.934819463951607,False,139.55828134598096,172.9261899286187,False,33.373519948307305,False,False
1,1970-07-23 10:28:05.663213547,2025-09-12,2025-09-26 14:49:26.321,HA,C,529232702,JASSM,3,148,76,2,2,1,225,9,2,0,1,26,0,0,0,0,-155356.42419608062,-4778012.354463424,4213110.409636021,-2.71083,-1.01109,0.751938,35.125,-56.0,-61.75,0.0,0.0,0.0,0.0,0.0,0.0,2,0,41.58075880457963,-91.86230840347852,10997.37973164138,155.94017002216572,-0.0019456863358054,0.00108462163784,,10150.171305463598,12127.771392007851,150,1,2025-09-12,2025-09-26 14:49:26.305,HA,C,2531007080,HAWK11,1,1,73,2,1,1,225,2,1,0,0,12,1,225,2,1,-144436.30505545562,-4791100.123018111,4199215.718229771,2.95819,2.62292,-0.462879,-91.75,39.0,32.5,-0.390625,-7.09375,7.42188,0.0722656,0.00195312,0.0488281,4,0,41.41114910634072,-91.72676103801598,12098.657671822328,-52.20903045197358,-1.122854514401085,30.972920509678644,199.437,10150.171305463598,12127.771392007851,150,False,11.856316332105637,False,141.40544128756835,173.00749297131165,False,31.605088154496027,False,False
1,1970-07-23 10:28:05.671276584,2025-09-12,2025-09-26 14:49:27.127,HA,C,530306444,JASSM,3,148,76,2,2,1,225,9,2,0,1,26,0,0,0,0,-155324.79821951812,-4778062.844697799,4213054.690886021,-2.71083,-1.01109,0.751938,35.125,-56.0,-61.75,0.0,0.0,0.0,0.0,0.0,0.0,2,0,41.580088486622834,-91.8619098980677,10997.381015265482,155.94043449854962,-0.0012120762193345,0.0010835349594628,,10150.171305463598,12127.771392007851,150,1,2025-09-12,2025-09-26 14:49:26.900,HA,C,2531484280,HAWK11,1,1,73,2,1,1,225,2,1,0,0,12,1,225,2,1,-144473.65857108062,-4791083.854463424,4199229.142057896,2.9765,2.62665,-0.442266,-91.5,41.0,33.875,-0.171875,-7.09375,7.45312,0.0625,0.0078125,0.0488281,4,0,41.41132979363797,-91.72721319663732,12090.547481837964,-53.13705095385519,-1.8787092249859472,32.140166203115754,199.804,10150.171305463598,12127.771392007851,150,False,11.792934169988973,False,142.56361473345,173.03943937755488,False,30.476986896277293,False,False
1,1970-07-23 10:28:05.681836691,2025-09-12,2025-09-26 14:49:28.183,HA,C,531439804,JASSM,3,148,76,2,2,1,225,9,2,0,1,26,0,0,0,0,-155291.41540701812,-4778116.137666549,4212995.874479771,-2.71083,-1.01109,0.751938,35.125,-56.0,-61.75,0.0,0.0,0.0,0.0,0.0,0.0,2,0,41.57938092615781,-91.86148926524548,10997.37578624961,155.94071365645073,-0.0004377098092119,0.0010823855350761,,10150.171305463598,12127.771392007851,150,1,2025-09-12,2025-09-26 14:49:28.182,HA,C,2532995412,HAWK11,1,1,73,2,1,1,225,2,1,0,0,12,1,225,2,1,-144589.55896170562,-4791027.230439986,4199275.017057896,3.04725,2.57728,-0.464221,-88.5,46.875,38.125,-0.28125,-7.67188,7.96875,0.0351562,0.0390625,0.0585938,4,0,41.41195549042839,-91.72861838754751,12059.439493591572,-50.39040585794407,-2.593522867452424,34.84800631604913,200.292,10150.171305463598,12127.771392007851,150,False,11.682311480586828,False,146.54844357157492,173.1849905789732,False,26.6381619848833,True,False
1,1970-07-23 10:28:05.691197058,2025-09-12,2025-09-26 14:49:29.119,HA,C,532573230,JASSM,3,148,76,2,2,1,225,9,2,0,1,26,0,0,0,0,-155258.03161795562,-4778169.430635299,4212937.058073521,-2.71083,-1.01109,0.751938,35.125,-56.0,-61.75,0.0,0.0,0.0,0.0,0.0,0.0,2,0,41.57867336425584,-91.86106862990776,10997.374297367873,155.94099281212004,0.0003366600911396,0.0010812441638498,,10150.171305463598,12127.771392007851,150,1,2025-09-12,2025-09-26 14:49:29.101,HA,C,2534267944,HAWK11,1,1,73,2,1,1,225,2,1,0,0,12,1,225,2,1,-144683.35974295562,-4790974.065400924,4199318.493620396,3.09893,2.528,-0.488765,-85.375,51.5,42.875,-0.21875,-8.0625,8.375,0.015625,0.0273438,0.0507812,4,0,41.41254837620578,-91.72975831052884,12030.001520660078,-47.55770275459445,-3.105391201911506,36.37270989298018,200.622,10150.171305463598,12127.771392007851,150,False,11.579513223166574,False,150.3270163148305,173.28752657821977,False,22.96744910539455,True,False
1,1970-07-23 10:28:05.699255613,2025-09-12,2025-09-26 14:49:29.925,HA,C,533646976,JASSM,3,148,76,2,2,1,225,9,2,0,1,26,0,0,0,0,-155226.40466483062,-4778219.918916549,4212881.335417271,-2.71083,-1.01109,0.752034,35.125,-56.0,-61.75,0.0,0.0,0.0,0.0,0.0,0.0,2,0,41.57800302731081,-91.86067013919944,10997.372867937394,155.9435516320912,-0.0039226758405114,0.0010801019156113,,10150.171305463598,12127.771392007851,150,1,2025-09-12,2025-09-26 14:49:30.007,HA,C,2535381408,HAWK11,1,1,73,2,1,1,225,2,1,0,0,12,1,225,2,1,-144762.29724295562,-4790923.023408736,4199360.835417271,3.13661,2.48045,-0.514842,-82.0,56.0,47.25,-0.203125,-8.46875,8.8125,0.0292969,0.0488281,0.0664062,4,0,41.41312363450035,-91.73071989954592,12002.224544122097,-44.75221668926923,-3.402039044701336,37.06145564385842,201.099,10150.171305463598,12127.771392007851,150,False,11.484152300189303,False,153.91140829460727,173.36150860596737,False,19.47125111914048,True,False
1,1970-07-23 10:28:05.708294620,2025-09-12,2025-09-26 14:49:30.829,HA,C,534720716,JASSM,3,148,76,2,2,1,225,9,2,0,1,26,0,0,0,0,-155194.77868826812,-4778270.405244674,4212825.616667271,-2.71083,-1.01109,0.752034,35.125,-56.0,-61.75,0.0,0.0,0.0,0.0,0.0,0.0,2,0,41.577332726671045,-91.8602716691895,10997.378657103482,155.94381607067925,-0.0031890870838614,0.0010790530274686,,10150.171305463598,12127.771392007851,150,1,2025-09-12,2025-09-26 14:49:30.742,HA,C,2535739308,HAWK11,1,1,73,2,1,1,225,2,1,0,0,12,1,225,2,1,-144787.33435233062,-4790905.621064986,4199375.489714146,-3.13268,2.46818,-0.516952,-81.0,57.5,48.875,0.015625,-8.65625,8.9375,0.0234375,0.0488281,0.0546875,4,0,41.41332157252691,-91.73102533495108,11993.08959334195,-44.19090798260082,-3.674834936214116,37.47645718621135,201.429,10150.171305463598,12127.771392007851,150,False,11.423261690154677,False,155.09490056938057,173.36553063689905,False,18.2977287424546,True,False
1,1970-07-23 10:28:05.718338747,2025-09-12,2025-09-26 14:49:31.833,HA,C,535794458,JASSM,3,148,76,2,2,1,225,9,2,0,1,26,0,0,0,0,-155163.15173514312,-4778320.891572799,4212769.890104771,-2.71083,-1.01109,0.752034,35.125,-56.0,-61.75,0.0,0.0,0.0,0.0,0.0,0.0,2,0,41.57666237216912,-91.8598731957224,10997.370785276387,155.94408050806146,-0.0024554468229925,0.001077990755843,,10150.171305463598,12127.771392007851,150,1,2025-09-12,2025-09-26 14:49:31.899,HA,C,2537687874,HAWK11,1,1,73,2,1,1,225,2,1,0,0,12,1,225,2,1,-144913.57458670562,-4790805.849580611,4199462.477995396,-3.02587,2.36147,-0.591733,-72.625,63.625,57.75,-0.296875,-9.5,9.73438,0.0292969,0.0527344,0.0664062,4,0,41.414479553531166,-91.73256975746352,11945.890905877895,-37.46500958720098,-3.1665234355865297,39.971407192218976,201.905,10150.171305463598,12127.771392007851,150,False,11.284521565079269,False,162.01724164324463,173.46727292484368,False,11.513761566433297,True,False
1,1970-07-23 10:28:05.728194599,2025-09-12,2025-09-26 14:49:32.819,HA,C,536987504,JASSM,3,148,76,2,2,1,225,9,2,0,1,26,0,0,0,0,-155128.01111014312,-4778376.987275924,4212707.976042271,-2.71083,-1.01109,0.752034,35.125,-56.0,-61.75,0.0,0.0,0.0,0.0,0.0,0.0,2,0,41.57591756255137,-91.8594304623733,10997.37500994272,155.94437431334896,-0.0016403202743543,0.0010768192338539,,10150.171305463598,12127.771392007851,150,1,2025-09-12,2025-09-26 14:49:32.806,HA,C,2538522972,HAWK11,1,1,73,2,1,1,225,2,1,0,0,12,1,225,2,1,-144962.24060233062,-4790759.414033736,4199503.938932896,-2.97468,2.30807,-0.619728,-68.0,66.875,61.5,-0.265625,-10.0469,10.0938,0.0195312,0.0683594,0.0605469,4,0,41.41502689041885,-91.73316803657552,11925.29470772785,-34.47787406513179,-3.1590051063301643,40.99740331921504,202.162,10150.171305463598,12127.771392007851,150,False,11.19404028912276,False,165.33379385534542,173.47369062140376,False,8.290727043002722,True,False
1,1970-07-23 10:28:05.737867171,2025-09-12,2025-09-26 14:49:33.786,HA,C,538061248,JASSM,3,148,76,2,2,1,225,9,2,0,1,26,0,0,0,0,-155096.38415701812,-4778427.471650924,4212652.253386021,-2.71083,-1.01109,0.752034,35.125,-56.0,-61.75,0.0,0.0,0.0,0.0,0.0,0.0,2,0,41.575247242922885,-91.85903200706127,10997.378086097004,155.94463873129183,-0.0009067147217109,0.0010757718873419,,10150.171305463598,12127.771392007851,150,1,2025-09-12,2025-09-26 14:49:33.718,HA,C,2539715970,HAWK11,1,1,73,2,1,1,225,2,1,0,0,12,1,225,2,1,-145026.53747733062,-4790689.957002486,4199568.333464146,-2.90536,2.21756,-0.671308,-60.5,70.375,67.25,-0.234375,-10.6562,10.8125,0.00585938,0.0742188,0.0644531,4,0,41.41586315920581,-91.73396142446056,11899.022771737506,-29.41049409620761,-2.6487885858330094,41.59001415254838,202.675,10150.171305463598,12127.771392007851,150,False,11.089032000848114,False,170.28245376787842,173.47722716916002,False,3.723165999922896,True,False
1,1970-07-23 10:28:05.746294618,2025-09-12,2025-09-26 14:49:34.629,HA,C,539194642,JASSM,3,148,76,2,2,1,225,9,2,0,1,26,0,0,0,0,-155063.00134451812,-4778480.760713424,4212593.433073521,-2.71083,-1.01109,0.752034,35.125,-56.0,-61.75,0.0,0.0,0.0,0.0,0.0,0.0,2,0,41.57453966835264,-91.85861143857817,10997.380893371608,155.94491781990388,-0.0001323453540135,0.0010746511209896,,10150.171305463598,12127.771392007851,150,1,2025-09-12,2025-09-26 14:49:34.601,HA,C,2540590836,HAWK11,1,1,73,2,1,1,225,2,1,0,0,12,1,225,2,1,-145068.67419608062,-4790636.421846236,4199619.601042271,-2.86183,2.15045,-0.70937,-54.25,72.375,71.75,-0.296875,-11.2031,11.375,0.00195312,0.0800781,0.0527344,4,0,41.41652009186296,-91.73448428113198,11881.772462462535,-25.779191776389588,-2.036092390997103,41.48584569011212,202.785,10150.171305463598,12127.771392007851,150,False,10.997022516729794,False,174.1377718948402,173.45245755417102,False,2.2731104854937945,True,False
1,1970-07-23 10:28:05.756320776,2025-09-12,2025-09-26 14:49:35.632,HA,C,540328062,JASSM,3,148,76,2,2,1,225,9,2,0,1,26,0,0,0,0,-155029.61657889312,-4778534.047822799,4212534.608854771,-2.71074,-1.01099,0.752034,35.125,-56.0,-61.75,0.0,0.0,0.0,0.0,0.0,0.0,2,0,41.57383207789491,-91.85819085664002,10997.37406762024,155.94154833762732,-0.001034693429182,0.0028089930017536,,10150.171305463598,12127.771392007851,150,1,2025-09-12,2025-09-26 14:49:35.507,HA,C,2541704302,HAWK11,1,1,73,2,1,1,225,2,1,0,0,12,1,225,2,1,-145114.85778983062,-4790566.868135299,4199689.438932896,-2.79098,2.05755,-0.758074,-44.875,74.625,77.125,-0.234375,-11.3594,11.4062,-0.00195312,0.0703125,0.0429688,4,0,41.41739692900594,-91.73506130388074,11865.739349136751,-21.039172202729347,-1.0630145674127571,41.85020881220174,203.323,10150.171305463598,12127.771392007851,150,False,10.89240947046142,False,178.2853616905506,173.40300481046336,False,6.752329394566924,True,False
1,1970-07-23 10:28:05.766194636,2025-09-12,2025-09-26 14:49:36.619,HA,C,541521082,JASSM,3,148,76,2,2,1,225,9,2,0,1,26,0,0,0,0,-154994.47693045562,-4778590.137666549,4212472.692839146,-2.71074,-1.01099,0.752034,35.125,-56.0,-61.75,0.0,0.0,0.0,0.0,0.0,0.0,2,0,41.57308728306706,-91.857748175918,10997.375819893943,155.9418420916033,-0.0002195905718702,0.0028077687861222,,10150.171305463598,12127.771392007851,150,1,2025-09-12,2025-09-26 14:49:36.711,HA,C,2543374500,HAWK11,1,1,73,2,1,1,225,2,1,0,0,12,1,225,2,1,-145167.12732108062,-4790460.759736861,4199801.991667271,-2.65599,1.89159,-0.824131,-30.625,75.875,84.25,-0.265625,-11.8125,11.8594,0.0234375,0.0957031,0.0644531,4,0,41.418778435651866,-91.73572430251876,11852.982479397808,-13.50879502947453,0.4182854332566249,42.76896151926199,203.543,10150.171305463598,12127.771392007851,150,False,10.75734658037616,False,172.26450822018072,173.28658954281127,False,14.43222678792633,True,False
1,1970-07-23 10:28:05.775261607,2025-09-12,2025-09-26 14:49:37.526,HA,C,542654476,JASSM,3,148,76,2,2,1,225,9,2,0,1,26,0,0,0,0,-154961.09314139312,-4778643.424775924,4212413.868620396,-2.71074,-1.01099,0.75213,35.125,-56.0,-61.75,0.0,0.0,0.0,0.0,0.0,0.0,2,0,41.57237968908332,-91.85732762451832,10997.376908963895,155.94441442317705,-0.0044349134649817,0.0028065225940696,,10150.171305463598,12127.771392007851,150,1,2025-09-12,2025-09-26 14:49:37.601,HA,C,2544487966,HAWK11,1,1,73,2,1,1,225,2,1,0,0,12,1,225,2,1,-145190.66833670562,-4790388.124971236,4199883.370573521,-2.5884,1.76686,-0.859221,-19.875,76.125,88.125,-0.109375,-11.6094,11.75,-0.0859375,0.0683594,0.0566406,4,0,41.419755567504,-91.73603191015088,11852.749940136402,-8.430103551078052,1.36537040293689,41.38725299354007,203.763,10150.171305463598,12127.771392007851,150,False,10.653761234847543,False,166.77041671686277,173.16068788846738,False,20.06830594046243,True,False
1,1970-07-23 10:28:05.784296799,2025-09-12,2025-09-26 14:49:38.429,HA,C,543728322,JASSM,3,148,76,2,2,1,225,9,2,0,1,26,0,0,0,0,-154929.46325858062,-4778693.909150924,4212358.136198521,-2.71074,-1.01099,0.75213,35.125,-56.0,-61.75,0.0,0.0,0.0,0.0,0.0,0.0,2,0,41.57170929657794,-91.85692917759926,10997.37657721383,155.94467881719697,-0.003701237268264,0.0028054552299799,,10150.171305463598,12127.771392007851,150,1,2025-09-12,2025-09-26 14:49:38.508,HA,C,2545283298,HAWK11,1,1,73,2,1,1,225,2,1,0,0,12,1,225,2,1,-145201.21716483062,-4790336.710908736,4199942.464323521,-2.55427,1.68048,-0.87226,-12.75,76.125,90.0,-0.140625,-11.2344,11.2969,-0.101562,0.0683594,0.0488281,4,0,41.42045838241284,-91.73617658691296,11855.367980147192,-5.150154709149776,1.6676294924269883,39.65930787207322,204.166,10150.171305463598,12127.771392007851,150,False,10.570531738613472,False,163.2159693016668,173.04543162194045,False,23.73859777674075,True,False
1,1970-07-23 10:28:05.794334219,2025-09-12,2025-09-26 14:49:39.433,HA,C,544861612,JASSM,3,148,76,2,2,1,225,9,2,0,1,26,0,0,0,0,-154896.08239920562,-4778747.188447799,4212299.315886021,-2.71074,-1.01099,0.75213,35.125,-56.0,-61.75,0.0,0.0,0.0,0.0,0.0,0.0,2,0,41.571001771787145,-91.85650868219685,10997.37467295549,155.94495783794363,-0.0029269286176918,0.0028043211063225,,10150.171305463598,12127.771392007851,150,1,2025-09-12,2025-09-26 14:49:39.406,HA,C,2546476298,HAWK11,1,1,73,2,1,1,225,2,1,0,0,12,1,225,2,1,-145208.76599295562,-4790260.353486861,4200033.440886021,-2.66146,1.57971,-0.893352,-3.625,74.75,92.875,-0.171875,-10.7188,10.8438,-0.234375,0.0488281,0.0390625,4,0,41.42152531480477,-91.73629445269206,11865.632517759404,-1.4097919857879566,2.6275610654978303,29.19640320156914,204.521,10150.171305463598,12127.771392007851,150,False,10.466820556965507,False,158.6401590089553,172.85893997714913,False,28.49599847868585,True,False
1,1970-07-23 10:28:05.803219659,2025-09-12,2025-09-26 14:49:40.321,HA,C,545995006,JASSM,3,148,76,2,2,1,225,9,2,0,1,26,0,0,0,0,-154862.69861014312,-4778800.471650924,4212240.491667271,-2.71074,-1.01099,0.75213,35.125,-56.0,-61.75,0.0,0.0,0.0,0.0,0.0,0.0,2,0,41.57029419632627,-91.85608815936568,10997.377432417312,155.94523687299002,-0.0021525639230906,0.0028031919845645,,10150.171305463598,12127.771392007851,150,1,2025-09-12,2025-09-26 14:49:40.305,HA,C,2547669296,HAWK11,1,1,73,2,1,1,225,2,1,0,0,12,1,225,2,1,-145208.17614920562,-4790185.406221236,4200127.122526646,-2.71649,1.50196,-0.917608,3.125,72.25,95.5,-0.140625,-9.96875,10.2188,-0.0898438,0.0371094,0.00976562,4,0,41.42260357554976,-91.73631455344533,11884.63696929456,1.344807618520503,4.017106138285615,22.69728233967897,204.997,10150.171305463598,12127.771392007851,150,False,10.364912327454167,False,155.15540754594838,172.64532538365606,False,32.17461382708283,False,False
1,1970-07-23 10:28:05.812252052,2025-09-12,2025-09-26 14:49:41.225,HA,C,547068746,JASSM,3,148,76,2,2,1,225,9,2,0,1,26,0,0,0,0,-154831.07263358062,-4778850.948213424,4212184.763151646,-2.71074,-1.01099,0.75213,35.125,-56.0,-61.75,0.0,0.0,0.0,0.0,0.0,0.0,2,0,41.56962387145156,-91.8556897878921,10997.377410292287,155.94550120605695,-0.0014189685531614,0.0028021199634515,,10150.171305463598,12127.771392007851,150,1,2025-09-12,2025-09-26 14:49:41.179,HA,C,2548226028,HAWK11,1,1,73,2,1,1,225,2,1,0,0,12,1,225,2,1,-145206.10583670562,-4790151.515596236,4200171.688932896,-2.74065,1.48336,-0.931989,5.5,70.875,96.5,-0.3125,-9.84375,9.92188,-0.0996094,0.03125,0.00976562,4,0,41.42310635565524,-91.73630208985176,11897.883247024094,1.958132900122216,4.86410283350628,20.509530524558137,205.242,10150.171305463598,12127.771392007851,150,False,10.295802018593033,False,153.87745438044038,172.52303935631613,False,33.560727516908244,False,False
1,1970-07-23 10:28:05.822295223,2025-09-12,2025-09-26 14:49:42.229,HA,C,548261790,JASSM,3,148,76,2,2,1,225,9,2,0,1,26,0,0,0,0,-154795.93103201812,-4778907.034150924,4212122.839323521,-2.71074,-1.01099,0.75213,35.125,-56.0,-61.75,0.0,0.0,0.0,0.0,0.0,0.0,2,0,41.568879037542615,-91.85524714275086,10997.376318457087,155.9457949121073,-0.0006038319825725,0.0028009314451326,,10150.171305463598,12127.771392007851,150,1,2025-09-12,2025-09-26 14:49:42.101,HA,C,2549737160,HAWK11,1,1,73,2,1,1,225,2,1,0,0,12,1,225,2,1,-145193.63708670562,-4790061.060518111,4200293.431120396,-2.78178,1.41347,-0.948384,10.875,67.75,98.5,-0.109375,-8.75,8.79688,-0.03125,0.0214844,0.0214844,4,0,41.42446838660982,-91.73618585131032,11938.791409235537,4.258670618556668,5.965712369930553,15.135190409034792,205.425,10150.171305463598,12127.771392007851,150,False,10.180410562532522,False,150.9656136375808,172.21928787403084,False,36.740574784148166,False,False
1,1970-07-23 10:28:05.832613748,2025-09-12,2025-09-26 14:49:43.261,HA,C,549395454,JASSM,3,148,76,2,2,1,225,9,2,0,1,26,0,0,0,0,-154762.53943045562,-4778960.327119674,4212063.997526646,-2.71074,-1.01099,0.75213,35.125,-56.0,-61.75,0.0,0.0,0.0,0.0,0.0,0.0,2,0,41.56817128208862,-91.854826550096,10997.375604045876,155.94607398178044,0.0001707225977287,0.0027997974153508,,10150.171305463598,12127.771392007851,150,1,2025-09-12,2025-09-26 14:49:43.305,HA,C,2551248292,HAWK11,1,1,73,2,1,1,225,2,1,0,0,12,1,225,2,1,-145175.32653983062,-4789973.091768111,4200415.878386021,-2.73681,1.37387,-0.960943,15.625,66.625,97.75,-0.1875,-7.65625,7.79688,0.0117188,0.00585938,0.0253906,4,0,41.42582142602925,-91.73599889462422,11986.92022009171,5.489988703132619,6.826909313201157,15.997002435885388,205.853,10150.171305463598,12127.771392007851,150,False,10.069853514332317,False,148.652084071015,171.8961864406226,False,39.38774105386655,False,False
1,1970-07-23 10:28:05.842356938,2025-09-12,2025-09-26 14:49:44.235,HA,C,550588234,JASSM,3,148,76,2,2,1,225,9,2,0,1,26,0,0,0,0,-154727.40564139312,-4779016.399385299,4212002.085417271,-2.71074,-1.01099,0.75213,35.125,-56.0,-61.75,0.0,0.0,0.0,0.0,0.0,0.0,2,0,41.567426603649125,-91.85438402365216,10997.375351140456,155.94636760064586,0.0009856840492005,0.0027986061183486,,10150.171305463598,12127.771392007851,150,1,2025-09-12,2025-09-26 14:49:44.215,HA,C,2552242458,HAWK11,1,1,73,2,1,1,225,2,1,0,0,12,1,225,2,1,-145161.08435233062,-4789916.438447799,4200496.919401646,-2.6256,1.32584,-0.956054,18.375,65.875,97.625,-0.25,-7.125,7.3125,0.0820312,0.00585938,0.0292969,4,0,41.42670797303391,-91.7358492096586,12022.478429148954,7.106919509660719,6.776888800704529,20.30831479493912,205.926,10150.171305463598,12127.771392007851,150,False,9.979991893898697,False,147.28449605205296,171.6589103624793,False,40.994659539758025,False,False
1,1970-07-23 10:28:05.851270957,2025-09-12,2025-09-26 14:49:45.127,HA,C,551781280,JASSM,3,148,76,2,2,1,225,9,2,0,1,26,0,0,0,0,-154692.26501639312,-4779072.481416549,4211940.159636021,-2.71074,-1.01099,0.752226,35.125,-56.0,-61.75,0.0,0.0,0.0,0.0,0.0,0.0,2,0,41.5666817744012,-91.85394142171596,10997.37298194497,155.9489559584097,-0.0031920039003694,0.0027973847338887,,10150.171305463598,12127.771392007851,150,1,2025-09-12,2025-09-26 14:49:45.105,HA,C,2553157090,HAWK11,1,1,73,2,1,1,225,2,1,0,0,12,1,225,2,1,-145145.76013358062,-4789865.474580611,4200569.554167271,-2.53759,1.28883,-0.948,21.125,65.875,96.5,-0.03125,-6.29688,6.51562,0.0585938,0.00585938,0.0253906,4,0,41.42750413225247,-91.7356845294572,12053.701816237884,8.407246752575796,6.537891205984735,23.77444521831226,205.926,10150.171305463598,12127.771392007851,150,False,9.895227652244483,False,146.01382621447993,171.4312672537148,False,42.50971568550488,False,False
1,1970-07-23 10:28:05.861293745,2025-09-12,2025-09-26 14:49:46.129,HA,C,552974326,JASSM,3,148,76,2,2,1,225,9,2,0,1,26,0,0,0,0,-154657.12439139312,-4779128.563447799,4211878.233854771,-2.71074,-1.01099,0.752226,35.125,-56.0,-61.75,0.0,0.0,0.0,0.0,0.0,0.0,2,0,41.56593694335289,-91.85349882994612,10997.374843187696,155.94924961207877,-0.0023768799997182,0.0027962238378997,,10150.171305463598,12127.771392007851,150,1,2025-09-12,2025-09-26 14:49:46.007,HA,C,2554389856,HAWK11,1,1,73,2,1,1,225,2,1,0,0,12,1,225,2,1,-145121.74841483062,-4789795.316377486,4200667.007292271,-2.43999,1.23466,-0.919622,25.125,67.0,94.375,-0.203125,-5.57812,5.89062,0.0410156,-0.00976562,0.03125,4,0,41.42858354456184,-91.73542297127636,12090.96498502579,10.561764249597552,5.331531204562015,27.093798805950023,206.036,10150.171305463598,12127.771392007851,150,False,9.798668454888185,False,144.27121419949455,171.1241756594866,False,44.587564077449336,False,False
1,1970-07-23 10:28:05.874632824,2025-09-12,2025-09-26 14:49:47.463,HA,C,554107932,JASSM,3,148,76,2,2,1,225,9,2,0,1,26,0,0,0,0,-154623.73376639312,-4779181.850557174,4211819.392057896,-2.71074,-1.01089,0.752226,35.125,-56.0,-61.75,0.0,0.0,0.0,0.0,0.0,0.0,2,0,41.565229215919445,-91.8530782894174,10997.37570935744,155.9458853513009,-0.003276954747054,-0.0009568540958603,,10150.171305463598,12127.771392007851,150,1,2025-09-12,2025-09-26 14:49:47.507,HA,C,2556020288,HAWK11,1,1,73,2,1,1,225,2,1,0,0,12,1,225,2,1,-145083.96521170562,-4789699.943330611,4200792.954557896,-2.46616,1.1826,-0.871205,29.75,69.375,91.125,-0.046875,-4.71875,5.09375,-0.207031,-0.015625,0.0332031,4,0,41.43000775619568,-91.73500594688105,12127.072510325974,13.055964106238532,3.1006470666695307,23.44871971617801,205.963,10150.171305463598,12127.771392007851,150,False,9.691276432163319,False,142.28088434953767,170.71233754438978,False,47.00673305208222,False,False
1,1970-07-23 10:28:05.881216016,2025-09-12,2025-09-26 14:49:48.121,HA,C,555300766,JASSM,3,148,76,2,2,1,225,9,2,0,1,26,0,0,0,0,-154588.59900076812,-4779237.920869674,4211757.476042271,-2.71074,-1.01089,0.752226,35.125,-55.875,-61.75,0.0,0.0,0.0,0.0,0.0,0.0,2,0,41.564484515913605,-91.852635792184,10997.378791103329,155.9461789338574,-0.002461976368965,-0.0009580630566818,,10150.171305463598,12127.771392007851,150,1,2025-09-12,2025-09-26 14:49:48.101,HA,C,2556736086,HAWK11,1,1,73,2,1,1,225,2,1,0,0,12,1,225,2,1,-145065.68396170562,-4789657.373994674,4200846.362761021,-2.54679,1.15902,-0.846278,31.375,71.0,89.5,0.234375,-4.92188,5.25,-0.0859375,-0.00976562,0.0390625,4,0,41.43062475612123,-91.73480287066714,12136.99213958128,14.294440664156925,1.966062578886495,17.86061968057526,205.669,10150.171305463598,12127.771392007851,150,False,9.61709884664246,False,141.60124438848572,170.51095282606585,False,47.88226719509632,False,False
1,1970-07-23 10:28:05.891238672,2025-09-12,2025-09-26 14:49:49.123,HA,C,556434162,JASSM,3,148,76,2,2,1,225,9,2,0,1,26,0,0,0,0,-154555.21423514312,-4779291.196260299,4211698.642057896,-2.71074,-1.01089,0.752226,35.125,-55.875,-61.75,0.0,0.0,0.0,0.0,0.0,0.0,2,0,41.56377690654711,-91.85221534519982,10997.376214025517,155.94645788278615,-0.001687590883827,-0.0009592123355134,,10150.171305463598,12127.771392007851,150,1,2025-09-12,2025-09-26 14:49:49.140,HA,C,2558048386,HAWK11,1,1,73,2,1,1,225,2,1,0,0,12,1,225,2,1,-145029.44958670562,-4789576.914033736,4200943.352995396,-2.61457,1.15039,-0.821543,33.875,73.25,87.5,0.234375,-5.25,5.4375,-0.00390625,-0.0117188,0.0078125,4,0,41.4317645516356,-91.73439893569528,12147.034049551236,15.013598507785373,0.7013825683279384,13.627538309441784,205.168,10150.171305463598,12127.771392007851,150,False,9.524344426433082,False,140.53790214536517,170.14701370058506,False,49.29002778705977,False,False
1,1970-07-23 10:28:05.901817019,2025-09-12,2025-09-26 14:49:50.181,HA,C,557627208,JASSM,3,148,76,2,2,1,225,9,2,0,1,26,0,0,0,0,-154520.07361014312,-4779347.274385299,4211636.712370396,-2.71074,-1.01089,0.752226,35.125,-55.875,-61.75,0.0,0.0,0.0,0.0,0.0,0.0,2,0,41.563032065487306,-91.85177279458811,10997.376487494586,155.94675149233043,-0.0008724643762363,-0.0009604273778867,,10150.171305463598,12127.771392007851,150,1,2025-09-12,2025-09-26 14:49:50.182,HA,C,2559082318,HAWK11,1,1,73,2,1,1,225,2,1,0,0,12,1,225,2,1,-144999.52380545562,-4789512.425752486,4201017.390104771,-2.62004,1.14214,-0.801026,35.5,75.125,85.875,0.015625,-4.9375,5.20312,-0.0195312,-0.015625,0.03125,4,0,41.43265328640647,-91.73406460720189,12146.990015762953,15.66388693798726,-0.3297374780620082,12.973928132381346,204.741,10150.171305463598,12127.771392007851,150,False,9.440303037653889,False,139.83690348659567,169.84115654118952,False,50.271590337211784,False,False
1,1970-07-23 10:28:05.911049977,2025-09-12,2025-09-26 14:49:51.104,HA,C,558760604,JASSM,3,148,76,2,2,1,225,9,2,0,1,26,0,0,0,0,-154486.68884451812,-4779400.547822799,4211577.878386021,-2.71074,-1.01089,0.752226,35.125,-55.875,-61.75,0.0,0.0,0.0,0.0,0.0,0.0,2,0,41.56232446444084,-91.8513523671901,10997.376955493362,155.94703042025827,-9.808956823918876e-05,-0.0009615724524852,,10150.171305463598,12127.771392007851,150,1,2025-09-12,2025-09-26 14:49:51.211,HA,C,2560672982,HAWK11,1,1,73,2,1,1,225,2,1,0,0,12,1,225,2,1,-144950.34411795562,-4789409.819307174,4201129.919401646,-2.55216,1.10399,-0.764977,38.375,77.75,83.875,-0.046875,-5.84375,6.01562,0.00195312,-0.0136719,0.00195312,4,0,41.4340320649787,-91.73351393570404,12135.372522691348,17.76873573280198,-1.824677229054621,15.280957317293351,204.557,10150.171305463598,12127.771392007851,150,False,9.34017635640753,False,138.57664365586479,169.38309463377786,False,51.94521479616606,False,False
1,1970-07-23 10:28:05.921193329,2025-09-12,2025-09-26 14:49:52.119,HA,C,560013302,JASSM,3,148,76,2,2,1,225,9,2,0,1,26,0,0,0,0,-154449.79138358062,-4779459.426729049,4211512.851042271,-2.71074,-1.01089,0.752322,35.125,-55.875,-61.75,0.0,0.0,0.0,0.0,0.0,0.0,2,0,41.56154238831453,-91.85088771367376,10997.375812927356,155.9496322794156,-0.0042317755145957,-0.0009629158689955,,10150.171305463598,12127.771392007851,150,1,2025-09-12,2025-09-26 14:49:52.101,HA,C,2561706914,HAWK11,1,1,73,2,1,1,225,2,1,0,0,12,1,225,2,1,-144915.80700858062,-4789340.951143111,4201202.681120396,-2.59904,1.11003,-0.75376,40.375,78.75,83.25,-0.125,-5.875,6.01562,-0.0292969,-0.00390625,0.00195312,4,0,41.43493909416648,-91.73312605163795,12121.462111305193,17.733327430990467,-2.5127729791418214,12.834400821404929,204.276,10150.171305463598,12127.771392007851,150,False,9.254898853456542,False,137.70390713767046,169.04660191555396,False,53.13712927957203,False,False
1,1970-07-23 10:28:05.932643710,2025-09-12,2025-09-26 14:49:53.264,HA,C,561206348,JASSM,3,148,76,2,2,1,225,9,2,0,1,26,0,0,0,0,-154414.64978201812,-4779515.502900924,4211450.919401646,-2.71064,-1.01089,0.752322,35.125,-55.875,-61.75,0.0,0.0,0.0,0.0,0.0,0.0,2,0,41.56079754054702,-91.85044518261437,10997.37965706224,155.94992586312577,-0.0034166441112951,0.0045273807050038,,10150.171305463598,12127.771392007851,150,1,2025-09-12,2025-09-26 14:49:53.181,HA,C,2562939680,HAWK11,1,1,73,2,1,1,225,2,1,0,0,12,1,225,2,1,-144872.93396170562,-4789258.982393111,4201287.468229771,-2.53922,1.06372,-0.737845,43.0,80.0,82.625,-0.140625,-6.79688,6.82812,0.00976562,0.0078125,0.0292969,4,0,41.43600673218031,-91.73264325820924,12100.83915971557,19.87613428347104,-2.731693878822645,14.36351569673422,203.763,10150.171305463598,12127.771392007851,150,False,9.166928595574378,False,136.58962305349164,168.65104197891347,False,54.62643185954272,False,False
1,1970-07-23 10:28:05.940274059,2025-09-12,2025-09-26 14:49:54.027,HA,C,562399394,JASSM,3,148,76,2,2,1,225,9,2,0,1,26,0,0,0,0,-154379.50818045562,-4779571.577119674,4211388.985807896,-2.71064,-1.01089,0.752322,35.125,-55.875,-61.75,0.0,0.0,0.0,0.0,0.0,0.0,2,0,41.56005268948261,-91.85000266247351,10997.3786884134,155.95021943527118,-0.0026015114654135,0.0045262040439682,,10150.171305463598,12127.771392007851,150,1,2025-09-12,2025-09-26 14:49:54.101,HA,C,2564132678,HAWK11,1,1,73,2,1,1,225,2,1,0,0,12,1,225,2,1,-144828.26208670562,-4789178.087861861,4201370.431120396,-2.67325,1.03707,-0.727874,45.25,80.25,82.75,0.109375,-6.89062,6.96875,-0.154297,0.0,0.03125,4,0,41.43705599291749,-91.73213855893331,12078.770657673533,21.141633747142222,-2.8639304378159705,5.600657625166025,203.286,10150.171305463598,12127.771392007851,150,True,9.080878261868339,False,135.65622842358277,168.2468092017322,False,55.9662208939927,False,False
1,1970-07-23 10:28:05.951456194,2025-09-12,2025-09-26 14:49:55.145,HA,C,563711746,JASSM,3,148,76,2,2,1,225,9,2,0,1,26,0,0,0,0,-154340.85290701812,-4779633.256807174,4211320.858854771,-2.71064,-1.01089,0.752322,35.125,-55.875,-61.75,0.0,0.0,0.0,0.0,0.0,0.0,2,0,41.55923336279301,-91.84951590865862,10997.377755523312,155.95054234747323,-0.0017048780024136,0.0045249098978933,,10150.171305463598,12127.771392007851,150,1,2025-09-12,2025-09-26 14:49:54.897,HA,C,2565126844,HAWK11,1,1,73,2,1,1,225,2,1,0,0,12,1,225,2,1,-144790.34021170562,-4789110.915010299,4201439.841276646,-2.78437,1.03534,-0.727011,46.0,80.625,83.5,0.359375,-7.29688,7.45312,-0.140625,-0.00585938,-0.0175781,4,0,41.43793092885018,-91.73170956555578,12061.518640454347,21.22878169558415,-2.88228250089546,-0.8360015111965553,202.749,10150.171305463598,12127.771392007851,150,True,8.996974883570017,False,135.4752552107609,167.8842990522175,False,56.51652566657972,False,False
1,1970-07-23 10:28:05.962313298,2025-09-12,2025-09-26 14:49:56.231,HA,C,565024096,JASSM,3,148,76,2,2,1,225,9,2,0,1,26,0,0,0,0,-154302.19763358062,-4779694.936494674,4211252.729948521,-2.71064,-1.01089,0.752322,35.125,-55.875,-61.75,0.0,0.0,0.0,0.0,0.0,0.0,2,0,41.55841402077412,-91.84902916713936,10997.377690538506,155.95086524628994,-0.0008082324011329,0.0045236103729543,,10150.171305463598,12127.771392007851,150,1,2025-09-12,2025-09-26 14:49:56.101,HA,C,2566518676,HAWK11,1,1,73,2,1,1,225,2,1,0,0,12,1,225,2,1,-144736.58435233062,-4789017.254854049,4201537.294401646,-2.88542,1.05356,-0.73564,46.125,81.25,84.75,0.015625,-7.17188,7.21875,0.0,0.015625,0.00390625,4,0,41.43915556683362,-91.73110086474506,12038.869984852674,20.325944891342274,-2.6967684116003965,-5.88477609973007,202.272,10150.171305463598,12127.771392007851,150,True,8.90135340883186,False,135.65324705165116,167.39356650282446,False,56.83930482670332,False,False
1,1970-07-23 10:28:05.974615892,2025-09-12,2025-09-26 14:49:57.461,HA,C,566276796,JASSM,3,148,76,2,2,1,225,9,2,0,1,26,0,0,0,0,-154265.29919608062,-4779753.811494674,4211187.696745396,-2.71064,-1.01089,0.752322,35.125,-55.875,-61.75,0.0,0.0,0.0,0.0,0.0,0.0,2,0,41.55763191876864,-91.84856455945815,10997.377453451514,155.95117345689135,4.765809356398395e-05,0.0045223711185369,,10150.171305463598,12127.771392007851,150,1,2025-09-12,2025-09-26 14:49:57.601,HA,C,2568029808,HAWK11,1,1,73,2,1,1,225,2,1,0,0,12,1,225,2,1,-144678.26013358062,-4788914.834932174,4201645.544401646,-2.84956,1.05346,-0.754239,45.75,81.0,86.625,0.109375,-7.46875,7.40625,0.015625,-0.00195312,0.0,4,0,41.4405060071476,-91.73044069602648,12017.802702084004,19.95568993341084,-1.6960959113583214,-3.8198522048872783,201.759,10150.171305463598,12127.771392007851,150,True,8.804150464985673,False,136.02636689549473,166.85398527981815,False,57.03243016005442,False,False
1,1970-07-23 10:28:05.984190388,2025-09-12,2025-09-26 14:49:58.419,HA,C,567529538,JASSM,3,148,76,2,2,1,225,9,2,0,1,26,0,0,0,0,-154228.39880545562,-4779812.686494674,4211122.661589146,-2.71064,-1.01089,0.752322,35.125,-55.875,-61.75,0.0,0.0,0.0,0.0,0.0,0.0,2,0,41.556849802003214,-91.84809993959152,10997.377475136542,155.95148167081206,0.0009035675039653,0.0045211426221733,,10150.171305463598,12127.771392007851,150,1,2025-09-12,2025-09-26 14:49:58.507,HA,C,2569421640,HAWK11,1,1,73,2,1,1,225,2,1,0,0,12,1,225,2,1,-144624.94958670562,-4788819.985322799,4201747.669401646,-2.96049,1.04733,-0.767278,44.875,80.875,87.75,-0.203125,-8.1875,7.1875,-0.121094,0.0078125,0.00390625,4,0,41.44176915945819,-91.72983769713878,12002.4306716336,19.930591093687184,-0.9058935050831638,-10.417252418007273,201.246,10150.171305463598,12127.771392007851,150,False,8.710336146168453,False,136.51933419426888,166.33615284849074,False,57.07195553892959,False,False
1,1970-07-23 10:28:05.995214556,2025-09-12,2025-09-26 14:49:59.521,HA,C,568901498,JASSM,3,148,76,2,2,1,225,9,2,0,1,26,0,0,0,0,-154187.98767264312,-4779877.163057174,4211051.435026646,-2.71064,-1.0108,0.752418,35.125,-55.875,-61.75,0.0,0.0,0.0,0.0,0.0,0.0,2,0,41.555993244540176,-91.84759112810016,10997.374703852913,155.95047170026962,-0.0048262596275115,0.0007671101865189,,10150.171305463598,12127.771392007851,150,1,2025-09-12,2025-09-26 14:49:59.397,HA,C,2570495338,HAWK11,1,1,73,2,1,1,225,2,1,0,0,12,1,225,2,1,-144585.13513358062,-4788747.778291549,4201826.765104771,-3.01475,1.06938,-0.775907,43.25,80.75,88.25,0.0,-7.53125,6.375,-0.0449219,0.0,-0.0566406,4,0,41.44273973864627,-91.72938783185906,11993.72474391524,18.90977905264591,-0.756216647904022,-12.630580044302036,201.026,10150.171305463598,12127.771392007851,150,False,8.622104884135364,False,137.25135643181196,165.90631789690346,False,56.77698427776163,False,False
1,1970-07-23 10:28:06.006221823,2025-09-12,2025-09-26 14:50:00.622,HA,C,570213848,JASSM,3,148,76,2,2,1,225,9,2,0,1,26,0,0,0,0,-154149.33142264312,-4779938.838838424,4210983.302214146,-2.71064,-1.0108,0.752418,35.125,-55.875,-61.75,0.0,0.0,0.0,0.0,0.0,0.0,2,0,41.55517389110189,-91.84710442501456,10997.37671807332,155.9507945530662,-0.0039296078790132,0.0007657953126784,,10150.171305463598,12127.771392007851,150,1,2025-09-12,2025-09-26 14:50:00.541,HA,C,2571409972,HAWK11,1,1,73,2,1,1,225,2,1,0,0,12,1,225,2,1,-144552.58435233062,-4788685.854463424,4201894.645964146,-3.0833,1.11099,-0.783001,41.625,80.875,88.75,-0.203125,-8.28125,6.60938,-0.0273438,0.0273438,-0.0136719,4,0,41.44357214088581,-91.72902107177246,11986.48951637151,17.174339136829513,-0.924574969156072,-14.856891364949249,200.476,10150.171305463598,12127.771392007851,150,False,8.540914013587376,False,138.0105580133994,165.52572932390905,False,56.40274813805678,False,False
1,1970-07-23 10:28:06.017253129,2025-09-12,2025-09-26 14:50:01.725,HA,C,571526200,JASSM,3,148,76,2,2,1,225,9,2,0,1,26,0,0,0,0,-154110.67614920562,-4780000.512666549,4210915.167448521,-2.71064,-1.0108,0.752418,35.125,-55.875,-61.75,0.0,0.0,0.0,0.0,0.0,0.0,2,0,41.5543545337991,-91.84661774666954,10997.3748853111,155.95111738422312,-0.00303295825736,0.0007644712255911,,10150.171305463598,12127.771392007851,150,1,2025-09-12,2025-09-26 14:50:01.739,HA,C,2572801802,HAWK11,1,1,73,2,1,1,225,2,1,0,0,12,1,225,2,1,-144506.00818045562,-4788592.805635299,4201997.667448521,-3.05588,1.12,-0.80812,38.75,80.25,89.5,-0.1875,-8.42188,6.95312,0.0820312,0.00390625,-0.00585938,4,0,41.44482940544,-91.72849786930428,11978.018182366995,16.38602003135938,0.3336971281941668,-12.912943724863576,200.207,10150.171305463598,12127.771392007851,150,False,8.444655589281155,False,139.26300921585664,164.99259015406076,False,55.69787966349359,False,False
1,1970-07-23 10:28:06.028273754,2025-09-12,2025-09-26 14:50:02.827,HA,C,572898202,JASSM,3,148,76,2,2,1,225,9,2,0,1,26,0,0,0,0,-154070.26306326812,-4780064.987275924,4210843.936979771,-2.71064,-1.0108,0.752418,35.125,-55.875,-61.75,0.0,0.0,0.0,0.0,0.0,0.0,2,0,41.553497955128414,-91.84610895168224,10997.374963156592,155.9514548805487,-0.0020955715943239,0.0007631024011643,,10150.171305463598,12127.771392007851,150,1,2025-09-12,2025-09-26 14:50:02.897,HA,C,2574551534,HAWK11,1,1,73,2,1,1,225,2,1,0,0,12,1,225,2,1,-144450.97888358062,-4788475.081025924,4202129.810026646,-2.95042,1.16352,-0.82624,36.25,79.875,89.75,-0.109375,-8.64062,7.4375,0.113281,0.0175781,-0.0078125,4,0,41.44643152948359,-91.72788249271328,11971.515597637048,14.45159210710164,0.8316892682369783,-5.071354975983281,199.474,10150.171305463598,12127.771392007851,150,True,8.333463525943861,False,140.33863626224863,164.33023694398358,False,55.29177477367015,False,False
1,1970-07-23 10:28:06.041041267,2025-09-12,2025-09-26 14:50:04.104,HA,C,574151180,JASSM,3,148,76,2,2,1,225,9,2,0,1,26,0,0,0,0,-154033.35681326812,-4780123.870088424,4210778.884245396,-2.71064,-1.0108,0.752418,35.125,-55.875,-61.75,0.0,0.0,0.0,0.0,0.0,0.0,2,0,41.55271566401972,-91.84564431784848,10997.38009301166,155.95176307869477,-0.0012394896459851,0.0007618369147795,,10150.171305463598,12127.771392007851,150,1,2025-09-12,2025-09-26 14:50:04.007,HA,C,2575903600,HAWK11,1,1,73,2,1,1,225,2,1,0,0,12,1,225,2,1,-144410.47107108062,-4788386.223604049,4202231.048307896,-2.86116,1.16429,-0.830555,35.75,78.75,89.875,-0.125,-7.5,6.23438,0.0605469,0.0175781,0.00976562,4,0,41.44765071751091,-91.72743027878384,11969.949308123614,14.355146543113689,1.0623652346950183,0.0735336718970587,199.241,10150.171305463598,12127.771392007851,150,True,8.240928382223998,False,140.4647047754802,163.8012350661961,False,55.70576567659643,False,False
1,1970-07-23 10:28:06.050312096,2025-09-12,2025-09-26 14:50:05.031,HA,C,575463252,JASSM,3,148,76,2,2,1,225,9,2,0,1,26,0,0,0,0,-153994.70837576812,-4780185.526338424,4210710.761198521,-2.71064,-1.0108,0.752418,35.125,-55.875,-61.75,0.0,0.0,0.0,0.0,0.0,0.0,2,0,41.55189648266337,-91.84515776501236,10997.376524594714,155.9520858109137,-0.0003430333077356,0.0007605265580442,,10150.171305463598,12127.771392007851,150,1,2025-09-12,2025-09-26 14:50:04.897,HA,C,2576977298,HAWK11,1,1,73,2,1,1,225,2,1,0,0,12,1,225,2,1,-144377.62536795562,-4788315.229463424,4202312.399870396,-2.82598,1.1618,-0.834677,36.0,78.125,89.5,-0.15625,-7.75,6.5625,-0.0742188,-0.00585938,0.00195312,4,0,41.448628033463706,-91.72706320870188,11969.68054956418,14.382471735245725,1.316952870347956,1.984422698366228,198.911,10150.171305463598,12127.771392007851,150,True,8.155324415274176,False,140.2599274788446,163.34199748059544,False,56.37223074100966,False,False
1,1970-07-23 10:28:06.061188065,2025-09-12,2025-09-26 14:50:06.118,HA,C,576718662,JASSM,3,148,76,2,2,1,225,9,2,0,1,26,0,0,0,0,-153957.72986014312,-4780244.518525924,4210645.579557896,-2.71064,-1.0108,0.752418,35.125,-55.875,-61.75,0.0,0.0,0.0,0.0,0.0,0.0,2,0,41.5511126807379,-91.84469224666115,10997.373382487023,155.95239458599187,0.0005147015916591,0.0007592672036441,,10150.171305463598,12127.771392007851,150,1,2025-09-12,2025-09-26 14:50:06.100,HA,C,2578329364,HAWK11,1,1,73,2,1,1,225,2,1,0,0,12,1,225,2,1,-144337.30896170562,-4788226.791963424,4202413.552214146,-2.97372,1.14483,-0.824706,35.5,78.25,89.125,-0.171875,-7.04688,6.46875,-0.105469,-0.00976562,0.00390625,4,0,41.44984410379801,-91.7266131010338,11968.992336781615,15.17422239064194,0.9561949401371528,-7.182160278275719,198.093,10150.171305463598,12127.771392007851,150,True,8.06412348433567,False,140.4582495999372,162.79123770265483,False,56.72163633943732,False,False
1,1970-07-23 10:28:06.072210562,2025-09-12,2025-09-26 14:50:07.221,HA,C,578028304,JASSM,3,148,76,2,2,1,225,9,2,0,1,26,0,0,0,0,-153919.15368826812,-4780306.059541549,4210577.581511021,-2.71064,-1.0108,0.752513,35.125,-55.875,-61.75,0.0,0.0,0.0,0.0,0.0,0.0,2,0,41.55029501053365,-91.84420662755387,10997.37476227446,155.95501061145777,-0.0035799102953556,0.0007579091741019,,10150.171305463598,12127.771392007851,150,1,2025-09-12,2025-09-26 14:50:07.305,HA,C,2579760962,HAWK11,1,1,73,2,1,1,225,2,1,0,0,12,1,225,2,1,-144295.49450858062,-4788132.688447799,4202520.692839146,-3.04773,1.17723,-0.827774,34.0,79.0,89.375,-0.09375,-7.20312,7.17188,0.0175781,0.0078125,-0.015625,4,0,41.45113456776217,-91.72614710826576,11967.282217575668,13.916929215868658,0.7768870048802725,-10.07647545597374,197.836,10150.171305463598,12127.771392007851,150,False,7.968710175628092,False,141.216008518609,162.19799117201902,False,56.553631736737366,False,False
1,1970-07-23 10:28:06.083229783,2025-09-12,2025-09-26 14:50:08.322,HA,C,579340654,JASSM,3,148,76,2,2,1,225,9,2,0,1,26,0,0,0,0,-153880.49743826812,-4780367.727510299,4210509.440886021,-2.71064,-1.0108,0.752513,35.125,-55.875,-61.75,0.0,0.0,0.0,0.0,0.0,0.0,2,0,41.54947563595548,-91.84372001296045,10997.37620372841,155.9553333693067,-0.0026832530417143,0.0007566255597264,,10150.171305463598,12127.771392007851,150,1,2025-09-12,2025-09-26 14:50:08.211,HA,C,2580953962,HAWK11,1,1,73,2,1,1,225,2,1,0,0,12,1,225,2,1,-144262.41443045562,-4788053.483369674,4202610.743620396,3.11561,1.21405,-0.827007,32.375,79.625,90.125,-0.015625,-7.0625,7.0,-0.191406,0.00195312,-0.0078125,4,0,41.4522194859526,-91.72578015485918,11965.73159076041,12.547297192992628,0.3735925896258422,-15.403761822707333,197.677,10150.171305463598,12127.771392007851,150,False,7.880202387988506,False,142.05769409425793,161.67438419630187,False,56.23686838619968,False,False
1,1970-07-23 10:28:06.094592469,2025-09-12,2025-09-26 14:50:09.459,HA,C,580593354,JASSM,3,148,76,2,2,1,225,9,2,0,1,26,0,0,0,0,-153843.59900076812,-4780426.588838424,4210444.397917271,-2.71064,-1.0108,0.752513,35.125,-55.875,-61.75,0.0,0.0,0.0,0.0,0.0,0.0,2,0,41.54869352708637,-91.8432555385476,10997.37446903006,155.95564143731622,-0.0018273772329566,0.0007554030769785,,10150.171305463598,12127.771392007851,150,1,2025-09-12,2025-09-26 14:50:09.803,HA,C,2582862760,HAWK11,1,1,73,2,1,1,225,2,1,0,0,12,1,225,2,1,-144214.57849295562,-4787925.342744674,4202756.024870396,3.00881,1.26227,-0.832472,27.625,81.25,91.25,0.0625,-6.96875,7.03125,0.0722656,0.0,-0.0390625,4,0,41.45397094352532,-91.72525439407627,11962.778823716537,10.659648603758786,0.2640775693722096,-19.495033491117542,197.152,10150.171305463598,12127.771392007851,150,False,7.7702263253411665,False,144.38757256131478,160.9062889347492,False,54.67162621835129,False,False
1,1970-07-23 10:28:06.104295765,2025-09-12,2025-09-26 14:50:10.429,HA,C,581905720,JASSM,3,148,76,2,2,1,225,9,2,0,1,26,0,0,0,0,-153804.94275076812,-4780488.254854049,4210376.255339146,-2.71054,-1.0107,0.752513,35.125,-55.875,-61.75,0.0,0.0,0.0,0.0,0.0,0.0,2,0,41.547874146752726,-91.84276894872448,10997.376872590983,155.95232208954394,-0.002605340469819,0.0024924151447155,,10150.171305463598,12127.771392007851,150,1,2025-09-12,2025-09-26 14:50:10.601,HA,C,2583817158,HAWK11,1,1,73,2,1,1,225,2,1,0,0,12,1,225,2,1,-144193.37536795562,-4787860.387666549,4202829.222136021,3.04773,1.30177,-0.841293,25.25,81.5,91.875,-0.234375,-7.98438,7.29688,0.078125,0.0117188,-0.00585938,4,0,41.45485520728224,-91.72502428038317,11960.54553598698,9.075230826541764,0.4703393789164297,-15.594313049577687,196.895,10150.171305463598,12127.771392007851,150,False,7.687897703307129,False,145.5084234555325,160.44948560444396,False,54.01166294989204,False,False
1,1970-07-23 10:28:06.127328690,2025-09-12,2025-09-26 14:50:12.732,HA,C,584590058,JASSM,3,148,76,2,2,1,225,9,2,0,1,26,0,0,0,0,-153725.87341483062,-4780614.381807174,4210236.872526646,-2.71054,-1.0107,0.752513,35.125,-55.875,-61.75,0.0,0.0,0.0,0.0,0.0,0.0,2,0,41.54619818109682,-91.84177369592902,10997.377347758009,155.95298217578335,-0.0007713099857928,0.0024896851248679,,10150.171305463598,12127.771392007851,150,1,2025-09-12,2025-09-26 14:50:12.601,HA,C,2586083856,HAWK11,1,1,73,2,1,1,225,2,1,0,0,12,1,225,2,1,-144149.40271170562,-4787707.344697799,4203004.419401646,-3.12769,1.33351,-0.866028,21.375,80.125,92.5,0.203125,-7.5625,6.28125,0.00976562,0.00390625,-0.0136719,4,0,41.45695602039755,-91.72455363303288,11961.686684752238,7.661891410917484,1.6718511964362182,-8.075937258663838,196.247,10150.171305463598,12127.771392007851,150,True,7.508566146585821,False,147.2006237144435,159.39033625604648,False,53.39610585171502,False,False
1,1970-07-23 10:28:06.130211470,2025-09-12,2025-09-26 14:50:13.021,HA,C,583277708,JASSM,3,148,76,2,2,1,225,9,2,0,1,26,0,0,0,0,-153764.52966483062,-4780552.719697799,4210305.015104771,-2.71054,-1.0107,0.752513,35.125,-55.875,-61.75,0.0,0.0,0.0,0.0,0.0,0.0,2,0,41.5470175425785,-91.84226025911568,10997.37406013116,155.95265947290278,-0.0016679470715966,0.0024910184723383,,10150.171305463598,12127.771392007851,150,1,2025-09-12,2025-09-26 14:50:12.897,HA,C,2586521288,HAWK11,1,1,73,2,1,1,225,2,1,0,0,12,1,225,2,1,-144141.79138358062,-4787678.473604049,4203037.655729771,-3.14159,1.33897,-0.868617,20.875,80.125,92.375,0.140625,-7.67188,6.45312,-0.0234375,0.00585938,0.0,4,0,41.45735346317313,-91.72447302144906,11962.359589457265,7.439084004749398,1.788004562622654,-8.640404426122446,196.284,10150.171305463598,12127.771392007851,150,True,7.544426818276046,False,147.4218373786623,159.38781406594555,False,53.1770133181248,False,False
1,1970-07-23 10:28:06.137190974,2025-09-12,2025-09-26 14:50:13.719,HA,C,585842760,JASSM,3,148,76,2,2,1,225,9,2,0,1,26,0,0,0,0,-153688.97400076812,-4780673.239229049,4210171.823698521,-2.71054,-1.0107,0.752513,35.125,-55.875,-61.75,0.0,0.0,0.0,0.0,0.0,0.0,2,0,41.5454160479465,-91.8413092582406,10997.372744463815,155.95329019951157,8.45839266387596e-05,0.0024884086180918,,10150.171305463598,12127.771392007851,150,1,2025-09-12,2025-09-26 14:50:13.709,HA,C,2587475688,HAWK11,1,1,73,2,1,1,225,2,1,0,0,12,1,225,2,1,-144125.36169608062,-4787614.577119674,4203111.493620396,-3.12414,1.33936,-0.871109,19.75,79.625,92.125,-0.203125,-8.01562,6.6875,0.0175781,-0.00195312,-0.015625,4,0,41.45823488579543,-91.72429957847544,11964.492356167886,7.403732006186721,1.9279730330413567,-7.625014817460394,196.37,10150.171305463598,12127.771392007851,150,True,7.414234667994888,False,147.89248817286878,158.77231533520126,False,53.32416126990048,False,False
1,1970-07-23 10:28:06.148209253,2025-09-12,2025-09-26 14:50:14.820,HA,C,587155118,JASSM,3,148,76,2,2,1,225,9,2,0,1,26,0,0,0,0,-153650.31775076812,-4780734.899385299,4210103.677214146,-2.71054,-1.0107,0.752609,35.125,-55.875,-61.75,0.0,0.0,0.0,0.0,0.0,0.0,2,0,41.54459666755414,-91.84082271981822,10997.37274424382,155.95590855294486,-0.0040111248842682,0.0024870080468017,,10150.171305463598,12127.771392007851,150,1,2025-09-12,2025-09-26 14:50:14.896,HA,C,2588947052,HAWK11,1,1,73,2,1,1,225,2,1,0,0,12,1,225,2,1,-144101.43396170562,-4787515.973604049,4203225.560026646,3.08263,1.38346,-0.861714,18.375,79.625,91.5,-0.0625,-7.5625,6.25,-0.0996094,0.0078125,0.00585938,4,0,41.45959563891354,-91.72404896882595,11968.163037366328,5.853750199178688,1.1771626217362212,-10.119451512751471,196.516,10150.171305463598,12127.771392007851,150,False,7.314983234470622,False,148.4977032791162,158.1046066607158,False,53.3836002883461,False,False
1,1970-07-23 10:28:06.159229686,2025-09-12,2025-09-26 14:50:15.922,HA,C,588467460,JASSM,3,148,76,2,2,1,225,9,2,0,1,26,0,0,0,0,-153611.66150076812,-4780796.557588424,4210035.530729771,-2.71054,-1.0107,0.752609,35.125,-55.875,-61.75,0.0,0.0,0.0,0.0,0.0,0.0,2,0,41.54377729663686,-91.8403361944318,10997.373069507015,155.9562312154223,-0.003114485079096,0.0024857083152862,,10150.171305463598,12127.771392007851,150,1,2025-09-12,2025-09-26 14:50:16.396,HA,C,2590696784,HAWK11,1,1,73,2,1,1,225,2,1,0,0,12,1,225,2,1,-144076.27380545562,-4787398.957979049,4203359.421354771,3.05406,1.39142,-0.861234,15.875,80.0,91.0,-0.21875,-7.0,6.35938,-0.00195312,-0.00390625,-0.0292969,4,0,41.46119975581952,-91.72379023810716,11969.505700794283,5.562001091405765,1.1175118901774472,-11.416333169138689,197.421,10150.171305463598,12127.771392007851,150,False,7.206972035831663,False,149.65574327029435,157.33278238098342,False,52.992097985702436,False,False
1,1970-07-23 10:28:06.170259161,2025-09-12,2025-09-26 14:50:17.025,HA,C,589779810,JASSM,3,148,76,2,2,1,225,9,2,0,1,26,0,0,0,0,-153573.00525076812,-4780858.215791549,4209967.384245396,-2.71054,-1.0107,0.752609,35.125,-55.875,-61.75,0.0,0.0,0.0,0.0,0.0,0.0,2,0,41.54295792354439,-91.83984968132924,10997.378513631524,155.95655386452543,-0.0022178451460458,0.0024844085645859,,10150.171305463598,12127.771392007851,150,1,2025-09-12,2025-09-26 14:50:17.210,HA,C,2591651184,HAWK11,1,1,73,2,1,1,225,2,1,0,0,12,1,225,2,1,-144064.22107108062,-4787334.723604049,4203432.097136021,2.94687,1.43648,-0.852989,14.25,80.5,90.875,0.015625,-7.07812,6.875,-0.0800781,0.00585938,-0.0117188,4,0,41.46207456722282,-91.72366923420591,11968.62929916384,3.924255491496468,0.488041487417694,-15.628788693776636,198.203,10150.171305463598,12127.771392007851,150,False,7.125491913330103,False,150.4301592950433,156.82998061424885,False,52.71551919524638,False,False
