Subject_cm,Timestamp,SampleDate_cm,SampleTime_cm,Configuration_cm,Scenario_cm,DisTime_cm,MarkingTxt_cm,Application_cm,EntId_cm,Site_cm,ExerciseId_cm,ForceId_cm,Category_cm,Country_cm,Domain_cm,Kind_cm,Extra_cm,Specific_cm,Subcategory_cm,AltCategory_cm,AltCountry_cm,AltDomain_cm,AltKind_cm,ECEF_X_cm,ECEF_Y_cm,ECEF_Z_cm,OriPhi_cm,OriPsi_cm,OriTheta_cm,LinVelX_cm,LinVelY_cm,LinVelZ_cm,LinAccX_cm,LinAccY_cm,LinAccZ_cm,AngVelX_cm,AngVelY_cm,AngVelZ_cm,DrAlg_cm,Appearance_cm,Latitude_cm,Longitude_cm,Altitude_cm,Heading_cm,Pitch_cm,Roll_cm,CalibratedAirspeed_cm,CM_Altitude_Lead_cm,CM_Altitude_Wing_cm,CM_Airspeed_cm,Subject_ac,SampleDate_ac,SampleTime_ac,Configuration_ac,Scenario_ac,DisTime_ac,MarkingTxt_ac,Application_ac,EntId_ac,Site_ac,ExerciseId_ac,ForceId_ac,Category_ac,Country_ac,Domain_ac,Kind_ac,Extra_ac,Specific_ac,Subcategory_ac,AltCategory_ac,AltCountry_ac,AltDomain_ac,AltKind_ac,ECEF_X_ac,ECEF_Y_ac,ECEF_Z_ac,OriPhi_ac,OriPsi_ac,OriTheta_ac,LinVelX_ac,LinVelY_ac,LinVelZ_ac,LinAccX_ac,LinAccY_ac,LinAccZ_ac,AngVelX_ac,AngVelY_ac,AngVelZ_ac,DrAlg_ac,Appearance_ac,Latitude_ac,Longitude_ac,Altitude_ac,Heading_ac,Pitch_ac,Roll_ac,CalibratedAirspeed_ac,CM_Altitude_Lead_ac,CM_Altitude_Wing_ac,CM_Airspeed_ac,Bank_Angle_Condition,distance_nm,Distance_Condition,angle_between_vel,angle_between_pos,Cone_Condition,angle_between_pos_nose,Nose_Cone_Condition,Intercept_Criteria
9,1970-07-23 10:31:29.537072034,2025-09-12,2025-09-26 20:29:13.707,AH,C,3716098746,JASSM,3,126,76,2,2,1,225,9,2,0,1,26,0,0,0,0,-173057.83288748687,-4769749.250947799,4221260.671354771,-2.51458,-0.703426,0.607361,56.125,-47.5,-51.0,0.0,0.0,0.0,0.0,0.0,0.0,2,0,41.68131269561171,-92.077915504218,10002.631248464537,139.82782961860923,-0.0019811312601172,0.0009632838173583,,9026.08902586808,11243.505992254835,150,9,2025-09-12,2025-09-26 20:29:13.736,AH,C,1083829938,HAWK11,1,1,73,2,1,1,225,2,1,0,0,12,1,225,2,1,-145040.60388358062,-4790861.568330611,4199071.331511021,2.37642,2.62857,-0.506597,-92.5,38.25,39.125,-0.0625,-6.71875,6.3125,-0.015625,-0.0136719,0.00390625,4,0,41.41148535203908,-91.7340674225137,11243.505992254835,-50.7668820816042,0.946372210512998,-2.2076281313628394,181.595,9026.08902586808,11243.505992254835,150,True,22.349935394576946,False,159.4310502047633,176.36449524365545,False,16.950846403611653,True,False
9,1970-07-23 10:31:29.545840889,2025-09-12,2025-09-26 20:29:14.584,AH,C,3717291792,JASSM,3,126,76,2,2,1,225,9,2,0,1,26,0,0,0,0,-173001.74597342435,-4769796.829072799,4221209.550261021,-2.51458,-0.703426,0.607361,56.125,-47.5,-51.0,0.0,0.0,0.0,0.0,0.0,0.0,2,0,41.68069673287249,-92.0772219533372,10002.623213854597,139.82829081804817,-0.0011763234338814,0.0009617345841649,,9026.08902586808,11243.505992254835,150,9,2025-09-12,2025-09-26 20:29:14.736,AH,C,1085261538,HAWK11,1,1,73,2,1,1,225,2,1,0,0,12,1,225,2,1,-145152.33239920562,-4790815.217744674,4199118.034636021,2.36156,2.6257,-0.507172,-92.75,38.375,38.75,-0.125,-6.92188,6.46875,0.0,0.00390625,0.0,4,0,41.41205620557013,-91.73541918239437,11239.186108169431,-50.638126751340295,0.8765209416134365,-3.1368058491841206,181.84,9026.08902586808,11243.505992254835,150,True,22.235274833349155,False,159.2698556624417,176.40901775740156,False,17.153549782376622,True,False
9,1970-07-23 10:31:29.555283052,2025-09-12,2025-09-26 20:29:15.528,AH,C,3718484850,JASSM,3,126,76,2,2,1,225,9,2,0,1,26,0,0,0,0,-172945.65905936187,-4769844.411104049,4221158.429167271,-2.51458,-0.703426,0.607361,56.125,-47.5,-51.0,0.0,0.0,0.0,0.0,0.0,0.0,2,0,41.68008074252105,-92.07652841398436,10002.628872467463,139.82875200423086,-0.0003714968518,0.0009601712268721,,9026.08902586808,11243.505992254835,150,9,2025-09-12,2025-09-26 20:29:15.626,AH,C,1086335236,HAWK11,1,1,73,2,1,1,225,2,1,0,0,12,1,225,2,1,-145236.16052420562,-4790780.549775924,4199152.372526646,2.35936,2.62618,-0.502187,-93.125,38.5,38.25,-0.171875,-6.92188,6.46875,0.00390625,0.0,-0.00585938,4,0,41.412479111453415,-91.73643336302884,11234.691552913202,-50.84630871186577,0.6795954664992282,-3.2525316731330283,182.206,9026.08902586808,11243.505992254835,150,True,22.13747794981341,False,159.02994723351028,176.44136140048124,False,17.422438547488156,True,False
9,1970-07-23 10:31:29.566243217,2025-09-12,2025-09-26 20:29:16.624,AH,C,3719737538,JASSM,3,126,76,2,2,1,225,9,2,0,1,26,0,0,0,0,-172886.76843436187,-4769894.368135299,4221104.749479771,-2.51458,-0.703426,0.607456,56.125,-47.5,-51.0,0.0,0.0,0.0,0.0,0.0,0.0,2,0,41.67943395540208,-92.07580022129876,10002.623729971703,139.8324581639763,-0.0039733923409056,0.0009584306331018,,9026.08902586808,11243.505992254835,150,9,2025-09-12,2025-09-26 20:29:16.736,AH,C,1087568002,HAWK11,1,1,73,2,1,1,225,2,1,0,0,12,1,225,2,1,-145332.60388358062,-4790740.410127486,4199191.349089146,2.36041,2.62656,-0.498544,-93.5,38.875,37.625,0.3125,-6.78125,6.35938,0.0722656,0.0,0.00976562,4,0,41.412963594717695,-91.73760027604884,11227.752992651562,-51.00002280679983,0.53721116738396,-3.183002005895853,182.243,9026.08902586808,11243.505992254835,150,True,22.029892588752475,False,158.8159170434655,176.48001213439534,False,17.670568519329187,True,False
9,1970-07-23 10:31:29.577450863,2025-09-12,2025-09-26 20:29:17.745,AH,C,3720870932,JASSM,3,126,76,2,2,1,225,9,2,0,1,26,0,0,0,0,-172833.48620779935,-4769939.567354049,4221056.183073521,-2.51458,-0.703426,0.607456,56.125,-47.375,-51.0,0.0,0.0,0.0,0.0,0.0,0.0,2,0,41.67884876931954,-92.07514139007344,10002.625007115048,139.83289625948677,-0.0032088194720144,0.0009569934702276,,9026.08902586808,11243.505992254835,150,9,2025-09-12,2025-09-26 20:29:17.736,AH,C,1088761000,HAWK11,1,1,73,2,1,1,225,2,1,0,0,12,1,225,2,1,-145425.90857108062,-4790701.324189986,4199228.954557896,2.63758,2.62627,-0.507172,-93.0,39.5,37.875,-0.3125,-7.29688,6.60938,0.289062,0.0195312,0.0,4,0,41.41343311020356,-91.73872932167974,11220.202345137885,-50.6618696318469,0.8984298357541747,12.694204589327468,183.147,9026.08902586808,11243.505992254835,150,False,21.928945895125867,False,159.24599402482002,176.54412806517968,False,17.306228513091003,True,False
9,1970-07-23 10:31:29.585223310,2025-09-12,2025-09-26 20:29:18.522,AH,C,3722063980,JASSM,3,126,76,2,2,1,225,9,2,0,1,26,0,0,0,0,-172777.39929373687,-4769987.145479049,4221005.061979771,-2.51458,-0.703426,0.607456,56.125,-47.375,-51.0,0.0,0.0,0.0,0.0,0.0,0.0,2,0,41.67823278957635,-92.07444789210022,10002.633483831283,139.83335740150002,-0.0024040112139977,0.000955489396324,,9026.08902586808,11243.505992254835,150,9,2025-09-12,2025-09-26 20:29:18.329,AH,C,1089556332,HAWK11,1,1,73,2,1,1,225,2,1,0,0,12,1,225,2,1,-145487.94372733062,-4790674.526338424,4199254.552214146,2.78389,2.61927,-0.518294,-92.0,40.375,39.125,-0.46875,-7.54688,7.14062,0.136719,0.0175781,0.0410156,4,0,41.41375411032288,-91.73948028995092,11214.482537053893,-49.9784062146972,1.1450107862034846,20.89236281309593,183.098,9026.08902586808,11243.505992254835,150,False,21.843718795595574,False,160.21328776622428,176.56593480138744,False,16.361385939271,True,False
9,1970-07-23 10:31:29.595341091,2025-09-12,2025-09-26 20:29:19.534,AH,C,3723257026,JASSM,3,126,76,2,2,1,225,9,2,0,1,26,0,0,0,0,-172721.31237967435,-4770034.719697799,4220953.936979771,-2.51448,-0.703426,0.607456,56.125,-47.375,-51.0,0.0,0.0,0.0,0.0,0.0,0.0,2,0,41.6776168026867,-92.07375440905014,10002.628000819172,139.83381852800056,-0.0015992014742627,0.0064454545539846,,9026.08902586808,11243.505992254835,150,9,2025-09-12,2025-09-26 20:29:19.532,AH,C,1090908398,HAWK11,1,1,73,2,1,1,225,2,1,0,0,12,1,225,2,1,-145591.35583670562,-4790627.013643111,4199300.505339146,2.85761,2.55801,-0.557027,-89.25,42.625,42.5,-0.171875,-8.85938,8.70312,0.0449219,0.0449219,0.0546875,4,0,41.4143282583152,-91.74073319703736,11205.089887378015,-46.245402023559656,0.8734920421786289,23.38420608430349,183.514,9026.08902586808,11243.505992254835,150,False,21.73200518095101,False,162.81367520793543,176.60370878484954,False,13.80168834945169,True,False
9,1970-07-23 10:31:29.605386142,2025-09-12,2025-09-26 20:29:20.538,AH,C,3724450072,JASSM,3,126,76,2,2,1,225,9,2,0,1,26,0,0,0,0,-172665.22546561187,-4770082.293916549,4220902.811979771,-2.51448,-0.70333,0.607456,56.125,-47.375,-51.0,0.0,0.0,0.0,0.0,0.0,0.0,2,0,41.67700081154644,-92.07306093922506,10002.626645607284,139.83062830814652,-0.003440031655079,0.0033096560076369,,9026.08902586808,11243.505992254835,150,9,2025-09-12,2025-09-26 20:29:20.538,AH,C,1091862798,HAWK11,1,1,73,2,1,1,225,2,1,0,0,12,1,225,2,1,-145662.68591483062,-4790591.965791549,4199336.175261021,2.90258,2.55427,-0.546193,-87.25,44.375,45.5,-0.03125,-7.875,7.70312,0.0605469,0.0,0.0292969,4,0,41.4147646296969,-91.74159824894926,11201.642846940716,-46.50103689376808,0.2796674832779706,25.845789875009203,183.795,9026.08902586808,11243.505992254835,150,False,21.638241974160046,False,164.9200721317152,176.62314090587043,False,11.721682837271992,True,False
9,1970-07-23 10:31:29.616302854,2025-09-12,2025-09-26 20:29:21.630,AH,C,3725702770,JASSM,3,126,76,2,2,1,225,9,2,0,1,26,0,0,0,0,-172606.33435233062,-4770132.247041549,4220849.128386021,-2.51448,-0.70333,0.607456,56.125,-47.375,-51.0,0.0,0.0,0.0,0.0,0.0,0.0,2,0,41.67635399932134,-92.07233281181436,10002.62504356435,139.8311124593538,-0.0025949691975173,0.0033080079304172,,9026.08902586808,11243.505992254835,150,9,2025-09-12,2025-09-26 20:29:21.735,AH,C,1093572762,HAWK11,1,1,73,2,1,1,225,2,1,0,0,12,1,225,2,1,-145785.19763358062,-4790524.812471236,4199404.056120396,2.97813,2.51103,-0.565176,-83.25,48.5,49.875,-0.21875,-8.1875,7.96875,0.03125,0.0234375,0.0527344,4,0,41.41560015005259,-91.74308656130228,11192.981407394012,-44.18111417105435,-0.1938562841104763,28.86923087980172,183.831,9026.08902586808,11243.505992254835,150,False,21.505487173680972,False,168.72470396593772,176.65304397705597,False,7.941224398265309,True,False
9,1970-07-23 10:31:29.626320249,2025-09-12,2025-09-26 20:29:22.632,AH,C,3726955468,JASSM,3,126,76,2,2,1,225,9,2,0,1,26,0,0,0,0,-172547.44275076812,-4770182.200166549,4220795.444792271,-2.51448,-0.70333,0.607456,56.125,-47.375,-51.0,0.0,0.0,0.0,0.0,0.0,0.0,2,0,41.6757071825162,-92.07160469312666,10002.627949303098,139.83159659859697,-0.0017499039033859,0.0033063632374157,,9026.08902586808,11243.505992254835,150,9,2025-09-12,2025-09-26 20:29:22.735,AH,C,1094765760,HAWK11,1,1,73,2,1,1,225,2,1,0,0,12,1,225,2,1,-145867.60974295562,-4790474.076143111,4199456.061979771,3.03805,2.46952,-0.574859,-80.0,51.5,53.375,-0.40625,-7.54688,7.39062,0.0585938,0.0,0.0390625,4,0,41.416238095130176,-91.74408977680076,11187.247973620322,-42.25650383929802,-0.9746697959537278,30.99921669175502,184.003,9026.08902586808,11243.505992254835,150,False,21.396274165832345,False,171.67545930010536,176.66257460430305,False,4.997118831185998,True,False
9,1970-07-23 10:31:29.639068148,2025-09-12,2025-09-26 20:29:23.906,AH,C,3728208168,JASSM,3,126,76,2,2,1,225,9,2,0,1,26,0,0,0,0,-172488.55163748687,-4770232.149385299,4220741.761198521,-2.51448,-0.70333,0.607456,56.125,-47.375,-51.0,0.0,0.0,0.0,0.0,0.0,0.0,2,0,41.67506038427865,-92.07087659657051,10002.6258831419,139.83208071696072,-0.0009048599213234,0.003304729206084,,9026.08902586808,11243.505992254835,150,9,2025-09-12,2025-09-26 20:29:24.031,AH,C,1096276892,HAWK11,1,1,73,2,1,1,225,2,1,0,0,12,1,225,2,1,-145967.10388358062,-4790403.658174361,4199526.106901646,3.11082,2.41477,-0.582337,-75.5,56.75,56.375,-0.3125,-7.39062,7.21875,0.0253906,0.015625,0.0507812,4,0,41.41711178870879,-91.7453042985548,11173.551181686027,-39.8811004456769,-2.172268588280516,33.387814658396245,183.514,9026.08902586808,11243.505992254835,150,False,21.270273668225354,False,175.2097313236078,176.66514087821233,False,1.6762785954062278,True,False
9,1970-07-23 10:31:29.648661755,2025-09-12,2025-09-26 20:29:24.866,AH,C,3729401214,JASSM,3,126,76,2,2,1,225,9,2,0,1,26,0,0,0,0,-172432.46472342435,-4770279.719697799,4220690.632292271,-2.51448,-0.70333,0.607552,56.125,-47.375,-51.0,0.0,0.0,0.0,0.0,0.0,0.0,2,0,41.67444437260287,-92.07018318332058,10002.623570944092,139.83576595239873,-0.0045495902467189,0.0033030371959301,,9026.08902586808,11243.505992254835,150,9,2025-09-12,2025-09-26 20:29:25.031,AH,C,1097469892,HAWK11,1,1,73,2,1,1,225,2,1,0,0,12,1,225,2,1,-146041.14099295562,-4790344.097627486,4199584.083464146,-3.12999,2.35178,-0.600745,-71.5,60.5,59.375,-0.28125,-7.84375,7.71875,0.0,0.015625,0.0566406,4,0,41.41784403741092,-91.74621069771725,11158.462596278929,-36.80662240654968,-2.976626077093219,33.664631396653135,183.392,9026.08902586808,11243.505992254835,150,False,21.162325440668635,False,177.5957813601809,176.6567431304366,False,2.527762452960988,True,False
9,1970-07-23 10:31:29.657222274,2025-09-12,2025-09-26 20:29:25.722,AH,C,3730594262,JASSM,3,126,76,2,2,1,225,9,2,0,1,26,0,0,0,0,-172376.37732108062,-4770327.290010299,4220639.503386021,-2.51448,-0.70333,0.607552,56.125,-47.375,-51.0,0.0,0.0,0.0,0.0,0.0,0.0,2,0,41.673828356783055,-92.06948977743656,10002.625343353677,139.83622699340015,-0.0037447758466906,0.0033015246852228,,9026.08902586808,11243.505992254835,150,9,2025-09-12,2025-09-26 20:29:25.625,AH,C,1098185690,HAWK11,1,1,73,2,1,1,225,2,1,0,0,12,1,225,2,1,-146083.19372733062,-4790306.790986861,4199620.120573521,-3.13344,2.32475,-0.60899,-69.0,62.875,61.125,-0.234375,-8.07812,7.875,-0.0410156,0.0292969,0.0429688,4,0,41.41830160155259,-91.74672680476752,11148.088749778744,-35.476635542793886,-3.262823206678057,32.513593554520604,183.147,9026.08902586808,11243.505992254835,150,False,21.078368169903897,False,177.61759995513887,176.64409256181736,False,4.356190742526286,True,False
9,1970-07-23 10:31:29.669859861,2025-09-12,2025-09-26 20:29:26.985,AH,C,3731906610,JASSM,3,126,76,2,2,1,225,9,2,0,1,26,0,0,0,0,-172314.68200858062,-4770379.618135299,4220583.257292271,-2.51448,-0.70333,0.607552,56.125,-47.375,-51.0,0.0,0.0,0.0,0.0,0.0,0.0,2,0,41.67315070073904,-92.06872705585492,10002.624674344435,139.83673411549742,-0.0028594587606483,0.0032998336471943,,9026.08902586808,11243.505992254835,150,9,2025-09-12,2025-09-26 20:29:27.125,AH,C,1099855888,HAWK11,1,1,73,2,1,1,225,2,1,0,0,12,1,225,2,1,-146176.06091483062,-4790214.524385299,4199709.716276646,3.09135,2.24594,-0.640629,-63.0,66.5,66.0,-0.1875,-8.25,8.0,-0.0820312,0.0253906,0.046875,4,0,41.41943842565685,-91.74787018060384,11122.623980230328,-31.395811253169335,-3.5666266169844745,26.282662481297244,182.622,9026.08902586808,11243.505992254835,150,False,20.940665863665963,False,174.6974155779832,176.61095917376548,False,8.418255970322061,True,False
9,1970-07-23 10:31:29.678321260,2025-09-12,2025-09-26 20:29:27.832,AH,C,3733159308,JASSM,3,126,76,2,2,1,225,9,2,0,1,26,0,0,0,0,-172255.79040701812,-4770429.563447799,4220529.569792271,-2.51448,-0.70333,0.607552,56.125,-47.375,-51.0,0.0,0.0,0.0,0.0,0.0,0.0,2,0,41.672503881190245,-92.06799901275264,10002.62246444545,139.83721817408474,-0.0020144101694977,0.0032982476368095,,9026.08902586808,11243.505992254835,150,9,2025-09-12,2025-09-26 20:29:27.738,AH,C,1100651222,HAWK11,1,1,73,2,1,1,225,2,1,0,0,12,1,225,2,1,-146216.84802420562,-4790169.170869674,4199754.224089146,3.03076,2.22168,-0.653955,-60.625,68.0,68.25,-0.265625,-9.45312,9.23438,-0.162109,0.0292969,0.0234375,4,0,41.42000126242206,-91.74837412467237,11110.760622363608,-30.05454130468662,-3.4286640969427884,21.891050867981576,182.292,9026.08902586808,11243.505992254835,150,False,20.850090596685295,False,173.10625239223464,176.58469754187186,False,10.13585979454137,True,False
9,1970-07-23 10:31:29.689300644,2025-09-12,2025-09-26 20:29:28.930,AH,C,3734412008,JASSM,3,126,76,2,2,1,225,9,2,0,1,26,0,0,0,0,-172196.89880545562,-4770479.508760299,4220475.882292271,-2.51448,-0.70333,0.607552,56.125,-47.375,-51.0,0.0,0.0,0.0,0.0,0.0,0.0,2,0,41.67185705695691,-92.06727098422708,10002.624805432371,139.8377022168178,-0.0011693614829933,0.0032966615994826,,9026.08902586808,11243.505992254835,150,9,2025-09-12,2025-09-26 20:29:28.922,AH,C,1102202120,HAWK11,1,1,73,2,1,1,225,2,1,0,0,12,1,225,2,1,-146292.95935233062,-4790079.460908736,4199845.872526646,2.87219,2.18707,-0.687703,-57.125,68.75,72.5,-0.078125,-8.5,8.34375,-0.113281,0.0253906,0.0136719,4,0,41.42113975716148,-91.74931639410308,11094.79894848789,-27.78049190288556,-2.432180146253751,11.456147015991553,181.962,9026.08902586808,11243.505992254835,150,False,20.720932234819447,False,170.8665457661286,176.53246843466883,False,12.553558079686828,True,False
9,1970-07-23 10:31:29.701469637,2025-09-12,2025-09-26 20:29:30.146,AH,C,3735664708,JASSM,3,126,76,2,2,1,225,9,2,0,1,26,0,0,0,0,-172138.00720389312,-4770529.454072799,4220422.190886021,-2.51448,-0.703234,0.607552,56.125,-47.375,-51.0,0.0,0.0,0.0,0.0,0.0,0.0,2,0,41.67121020178089,-92.06654297027794,10002.623176665857,139.83453303013044,-0.0029716022981298,0.0001583552006365,,9026.08902586808,11243.505992254835,150,9,2025-09-12,2025-09-26 20:29:30.327,AH,C,1103832552,HAWK11,1,1,73,2,1,1,225,2,1,0,0,12,1,225,2,1,-146368.20935233062,-4789984.214814986,4199947.403776646,2.76385,2.18861,-0.716081,-54.75,68.5,75.875,-0.0625,-8.15625,7.90625,-0.0722656,0.00390625,0.00390625,4,0,41.42237803854009,-91.75025042629092,11086.622438608369,-27.10477477344216,-0.950454377182052,5.285711882539447,181.681,9026.08902586808,11243.505992254835,150,True,20.5877020492406,False,169.27327342447845,176.46704228012499,False,14.25343514714823,True,False
9,1970-07-23 10:31:29.710282674,2025-09-12,2025-09-26 20:29:31.028,AH,C,3736917406,JASSM,3,126,76,2,2,1,225,9,2,0,1,26,0,0,0,0,-172079.11560233062,-4770579.395479049,4220368.503386021,-2.51448,-0.703234,0.607552,56.125,-47.375,-51.0,0.0,0.0,0.0,0.0,0.0,0.0,2,0,41.67056339153604,-92.06581497259512,10002.625052620911,139.8350170401073,-0.0021265721874756,0.000156729328506,,9026.08902586808,11243.505992254835,150,9,2025-09-12,2025-09-26 20:29:31.127,AH,C,1104786950,HAWK11,1,1,73,2,1,1,225,2,1,0,0,12,1,225,2,1,-146411.73474295562,-4789929.383760299,4200008.069792271,2.72377,2.17202,-0.723847,-54.375,68.25,77.125,-0.015625,-7.96875,7.70312,-0.0410156,0.00976562,0.0175781,4,0,41.42310580754735,-91.75079060177416,11086.74846639624,-26.266936046692177,-0.8718258275344831,2.349655039537962,181.717,9026.08902586808,11243.505992254835,150,True,20.488860593672623,False,168.8943616687144,176.42342262199676,False,14.681422288427035,True,False
9,1970-07-23 10:31:29.720264012,2025-09-12,2025-09-26 20:29:32.026,AH,C,3738110454,JASSM,3,126,76,2,2,1,225,9,2,0,1,26,0,0,0,0,-172023.02917654935,-4770626.961885299,4220317.366667271,-2.51448,-0.703234,0.607552,56.125,-47.375,-51.0,0.0,0.0,0.0,0.0,0.0,0.0,2,0,41.6699473195783,-92.0651216634124,10002.626308849218,139.83547798167208,-0.0013217413555768,0.000155138752454,,9026.08902586808,11243.505992254835,150,9,2025-09-12,2025-09-26 20:29:32.125,AH,C,1106019716,HAWK11,1,1,73,2,1,1,225,2,1,0,0,12,1,225,2,1,-146466.90857108062,-4789858.561494674,4200087.567839146,2.69348,2.17471,-0.738037,-53.875,68.125,78.0,0.140625,-7.35938,7.07812,-0.0195312,-0.00195312,0.00585938,4,0,41.424053699625496,-91.75147583980534,11089.311769690104,-26.009308357772586,-0.091349635442413,0.7143771747359488,181.51,9026.08902586808,11243.505992254835,150,True,20.378386249203754,False,168.51183710153782,176.3674343572717,False,15.120722198480546,True,False
9,1970-07-23 10:31:29.730240727,2025-09-12,2025-09-26 20:29:33.024,AH,C,3739363152,JASSM,3,126,76,2,2,1,225,9,2,0,1,26,0,0,0,0,-171964.13659842435,-4770676.903291549,4220263.675261021,-2.51448,-0.703234,0.607648,56.125,-47.375,-51.0,0.0,0.0,0.0,0.0,0.0,0.0,2,0,41.66930047414055,-92.06439368247212,10002.628463149957,139.83918439315292,-0.0049232847754322,0.0001533508609344,,9026.08902586808,11243.505992254835,150,9,2025-09-12,2025-09-26 20:29:32.828,AH,C,1106854814,HAWK11,1,1,73,2,1,1,225,2,1,0,0,12,1,225,2,1,-146504.06091483062,-4789810.515596236,4200142.114714146,2.82329,2.1794,-0.738899,-53.125,68.25,78.125,0.0,-6.65625,6.46875,0.314453,0.00390625,0.0195312,4,0,41.42470095064351,-91.75193739923644,11092.369732607389,-26.16573387586733,0.0423897010642966,8.333407802583876,181.595,9026.08902586808,11243.505992254835,150,True,20.28549753132194,False,168.14797331397315,176.32492198628904,False,15.527099498007244,True,False
9,1970-07-23 10:31:29.741201256,2025-09-12,2025-09-26 20:29:34.120,AH,C,3740615852,JASSM,3,126,76,2,2,1,225,9,2,0,1,26,0,0,0,0,-171905.24450858062,-4770726.844697799,4220209.979948521,-2.51448,-0.703234,0.607648,56.125,-47.375,-51.0,0.0,0.0,0.0,0.0,0.0,0.0,2,0,41.6686535976545,-92.06366572196308,10002.626691293424,139.83966836034378,-0.0040782114159523,0.0001517419754496,,9026.08902586808,11243.505992254835,150,9,2025-09-12,2025-09-26 20:29:34.032,AH,C,1108286414,HAWK11,1,1,73,2,1,1,225,2,1,0,0,12,1,225,2,1,-146565.38708670562,-4789726.890596236,4200235.997526646,-3.11724,2.1376,-0.762772,-49.25,69.875,79.25,0.140625,-7.34375,7.125,0.138672,0.00976562,0.0488281,4,0,41.42582097470864,-91.75270087901596,11095.154060247807,-23.99487381684456,0.5143925798047094,26.34230669931348,181.558,9026.08902586808,11243.505992254835,150,False,20.1627641788931,False,166.05646613486172,176.25437209975513,False,17.687221147995626,True,False
9,1970-07-23 10:31:29.751339089,2025-09-12,2025-09-26 20:29:35.133,AH,C,3741928202,JASSM,3,126,76,2,2,1,225,9,2,0,1,26,0,0,0,0,-171843.54846365875,-4770779.161104049,4220153.729948521,-2.51448,-0.703234,0.607648,56.125,-47.375,-51.0,0.0,0.0,0.0,0.0,0.0,0.0,2,0,41.66797594632273,-92.06290311882528,10002.62687805905,139.8401753522494,-0.0031929253560808,0.0001500745331336,,9026.08902586808,11243.505992254835,150,9,2025-09-12,2025-09-26 20:29:35.235,AH,C,1109718012,HAWK11,1,1,73,2,1,1,225,2,1,0,0,12,1,225,2,1,-146621.14880545562,-4789641.174775924,4200331.282682896,-2.97142,2.03099,-0.786261,-43.5,72.125,80.75,-0.109375,-8.09375,7.92188,0.0429688,0.0390625,0.0488281,4,0,41.4269639132844,-91.75339864769737,11095.432895885877,-19.45049717081205,0.0613690713412936,30.4459291135883,181.644,9026.08902586808,11243.505992254835,150,False,20.03870474723175,False,162.98287928131964,176.17383051503316,False,20.83541678992673,True,False
9,1970-07-23 10:31:29.763279910,2025-09-12,2025-09-26 20:29:36.327,AH,C,3743240554,JASSM,3,126,76,2,2,1,225,9,2,0,1,26,0,0,0,0,-171781.85217459625,-4770831.477510299,4220097.476042271,-2.51439,-0.703234,0.607648,56.125,-47.375,-51.0,0.0,0.0,0.0,0.0,0.0,0.0,2,0,41.66729826364367,-92.06214052875328,10002.623517891094,139.8406823287059,-0.0023076177516874,0.0056398639239573,,9026.08902586808,11243.505992254835,150,9,2025-09-12,2025-09-26 20:29:36.421,AH,C,1110871244,HAWK11,1,1,73,2,1,1,225,2,1,0,0,12,1,225,2,1,-146660.46130545562,-4789570.416963424,4200410.069792271,-2.92894,1.96848,-0.800546,-38.125,73.375,82.625,0.0,-8.15625,7.9375,-0.0390625,0.0234375,0.0351562,4,0,41.42790949851701,-91.75389437485263,11095.4467563037,-16.80972442632342,-0.0012248950778941,30.32765037378244,181.803,9026.08902586808,11243.505992254835,150,False,19.92949567325769,False,160.12516007173193,176.09704391601275,False,23.76992308720664,True,False
9,1970-07-23 10:31:29.774260859,2025-09-12,2025-09-26 20:29:37.426,AH,C,3744552904,JASSM,3,126,76,2,2,1,225,9,2,0,1,26,0,0,0,0,-171720.15612967435,-4770883.793916549,4220041.222136021,-2.51439,-0.703234,0.607648,56.125,-47.375,-51.0,0.0,0.0,0.0,0.0,0.0,0.0,2,0,41.6666205757724,-92.06137795760336,10002.625174080902,139.8411892858191,-0.0014223114130855,0.0056381794868627,,9026.08902586808,11243.505992254835,150,9,2025-09-12,2025-09-26 20:29:37.626,AH,C,1112422142,HAWK11,1,1,73,2,1,1,225,2,1,0,0,12,1,225,2,1,-146706.08435233062,-4789471.205049361,4200518.235807896,-2.93431,1.90041,-0.77351,-32.25,76.75,83.5,-0.140625,-6.78125,6.4375,-0.0351562,0.015625,0.0292969,4,0,41.42922151710575,-91.75447595409196,11089.759997586478,-14.619338994611413,-2.275831599039545,27.213456911829905,181.925,9026.08902586808,11243.505992254835,150,False,19.801830518571983,False,156.99294656509866,175.9837197559934,False,27.000124980675515,True,False
9,1970-07-23 10:31:29.785218961,2025-09-12,2025-09-26 20:29:38.521,AH,C,3745865256,JASSM,3,126,76,2,2,1,225,9,2,0,1,26,0,0,0,0,-171658.45959647125,-4770936.106416549,4219984.968229771,-2.51439,-0.703234,0.607648,56.125,-47.375,-51.0,0.0,0.0,0.0,0.0,0.0,0.0,2,0,41.66594290622151,-92.06061539827635,10002.62221441222,139.84169622830842,-0.0005370208901155,0.0056365125303787,,9026.08902586808,11243.505992254835,150,9,2025-09-12,2025-09-26 20:29:38.532,AH,C,1113654908,HAWK11,1,1,73,2,1,1,225,2,1,0,0,12,1,225,2,1,-146737.34216483062,-4789389.917939986,4200604.741667271,-2.93518,1.8473,-0.775523,-27.75,78.875,84.25,-0.125,-7.51562,7.1875,-0.0449219,0.0,0.0214844,4,0,41.43028331749075,-91.75487930163916,11080.051319302387,-12.480919252222346,-2.697524603538587,24.94266844723524,182.096,9026.08902586808,11243.505992254835,150,False,19.69058514282975,False,154.64032418126115,175.88268167418295,False,29.444371675487787,True,False
9,1970-07-23 10:31:29.795384390,2025-09-12,2025-09-26 20:29:39.538,AH,C,3747177606,JASSM,3,126,76,2,2,1,225,9,2,0,1,26,0,0,0,0,-171596.76330740875,-4770988.418916549,4219928.714323521,-2.51439,-0.703138,0.607648,56.125,-47.375,-51.0,0.0,0.0,0.0,0.0,0.0,0.0,2,0,41.66526523147892,-92.05985285786969,10002.624270878252,139.83855259718155,-0.0022974204317638,0.0024996148744197,,9026.08902586808,11243.505992254835,150,9,2025-09-12,2025-09-26 20:29:39.626,AH,C,1114887672,HAWK11,1,1,73,2,1,1,225,2,1,0,0,12,1,225,2,1,-146763.60778983062,-4789307.511689986,4200691.694792271,-2.96058,1.79342,-0.781276,-23.625,80.125,85.625,-0.21875,-7.90625,7.625,-0.0683594,0.0195312,0.0449219,4,0,41.4313557069076,-91.75522340575762,11068.193703876736,-10.259996405608897,-2.830310856625539,21.21200695699721,182.622,9026.08902586808,11243.505992254835,150,False,19.580798531109288,False,152.51091995855504,175.77370434684684,False,31.683616982802025,False,False
9,1970-07-23 10:31:29.806322423,2025-09-12,2025-09-26 20:29:40.632,AH,C,3748430306,JASSM,3,126,76,2,2,1,225,9,2,0,1,26,0,0,0,0,-171537.871217565,-4771038.352510299,4219875.015104771,-2.51439,-0.703138,0.607648,56.125,-47.375,-51.0,0.0,0.0,0.0,0.0,0.0,0.0,2,0,41.66461834622949,-92.05912499163848,10002.62323379492,139.83903646332757,-0.0014523638339104,0.0024979632408524,,9026.08902586808,11243.505992254835,150,9,2025-09-12,2025-09-26 20:29:40.626,AH,C,1116040906,HAWK11,1,1,73,2,1,1,225,2,1,0,0,12,1,225,2,1,-146784.48278983062,-4789228.788057174,4200775.399870396,-2.95905,1.73196,-0.791438,-19.75,80.75,87.0,0.046875,-7.90625,7.65625,-0.0351562,0.0117188,0.0253906,4,0,41.4323852450719,-91.75550174247606,11057.940075654682,-7.70796370169866,-2.667171252162148,18.684911067948995,184.003,9026.08902586808,11243.505992254835,150,False,19.477386143401073,False,150.56777175018254,175.66300706563067,False,33.74186260094367,False,False
9,1970-07-23 10:31:29.817260758,2025-09-12,2025-09-26 20:29:41.726,AH,C,3749742656,JASSM,3,126,76,2,2,1,225,9,2,0,1,26,0,0,0,0,-171476.1749285025,-4771090.665010299,4219818.757292271,-2.51439,-0.703138,0.607744,56.125,-47.375,-51.0,0.0,0.0,0.0,0.0,0.0,0.0,2,0,41.663940635181895,-92.05836248248832,10002.626533093857,139.8427680257348,-0.0050162417659221,0.002496064031728,,9026.08902586808,11243.505992254835,150,9,2025-09-12,2025-09-26 20:29:41.625,AH,C,1117273670,HAWK11,1,1,73,2,1,1,225,2,1,0,0,12,1,225,2,1,-146802.73278983062,-4789145.133760299,4200865.278776646,-3.02463,1.70281,-0.803327,-16.375,81.0,88.625,0.0,-8.15625,7.78125,-0.107422,0.0214844,0.0195312,4,0,41.43348626604149,-91.75575051962636,11048.777211388324,-6.460620722417072,-2.145259470526266,13.6803142778127,184.577,9026.08902586808,11243.505992254835,150,False,19.369510163870522,False,148.8846662701503,175.53884221990913,False,35.55586555250519,False,False
9,1970-07-23 10:31:29.828222176,2025-09-12,2025-09-26 20:29:42.822,AH,C,3751055008,JASSM,3,126,76,2,2,1,225,9,2,0,1,26,0,0,0,0,-171414.47839529935,-4771142.973604049,4219762.499479771,-2.51439,-0.703138,0.607744,56.125,-47.375,-51.0,0.0,0.0,0.0,0.0,0.0,0.0,2,0,41.663262942401865,-92.05759998808468,10002.625237702949,139.84327489852572,-0.0041309494308466,0.0024943875411277,,9026.08902586808,11243.505992254835,150,9,2025-09-12,2025-09-26 20:29:42.625,AH,C,1118506436,HAWK11,1,1,73,2,1,1,225,2,1,0,0,12,1,225,2,1,-146818.32263358062,-4789060.654268111,4200957.936979771,-3.08838,1.66044,-0.816557,-13.875,80.625,90.25,0.09375,-8.125,7.8125,-0.0429688,0.015625,0.0117188,4,0,41.43461143605692,-91.7559678118614,11043.427269744274,-4.714954350369995,-1.5674781964824176,8.212241165730514,185.017,9026.08902586808,11243.505992254835,150,True,19.26168642424395,False,147.64594369304655,175.4071066659549,False,36.93414480177016,False,False
9,1970-07-23 10:31:29.839340222,2025-09-12,2025-09-26 20:29:43.934,AH,C,3752307706,JASSM,3,126,76,2,2,1,225,9,2,0,1,26,0,0,0,0,-171355.58630545562,-4771192.903291549,4219708.796354771,-2.51439,-0.703138,0.607744,56.125,-47.375,-51.0,0.0,0.0,0.0,0.0,0.0,0.0,2,0,41.66261603975223,-92.05687216863464,10002.620199626544,139.84375871462154,-0.0032858910343092,0.0024927805481402,,9026.08902586808,11243.505992254835,150,9,2025-09-12,2025-09-26 20:29:44.032,AH,C,1120136868,HAWK11,1,1,73,2,1,1,225,2,1,0,0,12,1,225,2,1,-146835.41833670562,-4788951.348604049,4201081.479948521,-3.13862,1.64404,-0.838129,-11.75,79.5,92.25,-0.109375,-8.25,7.96875,-0.0429688,0.00195312,0.0117188,4,0,41.43609248314935,-91.7562122095865,11044.221474360247,-3.977813324167816,-0.3877263892434789,4.629786369459343,186.654,9026.08902586808,11243.505992254835,150,True,19.14034476575574,False,146.57622366028224,175.23202174253942,False,38.18732119509332,False,False
9,1970-07-23 10:31:29.850301439,2025-09-12,2025-09-26 20:29:45.030,AH,C,3753620058,JASSM,3,126,76,2,2,1,225,9,2,0,1,26,0,0,0,0,-171293.8897722525,-4771245.211885299,4219652.538542271,-2.51439,-0.703138,0.607744,56.125,-47.375,-51.0,0.0,0.0,0.0,0.0,0.0,0.0,2,0,41.66193833692964,-92.05610970548372,10002.62866654067,139.84426555341778,-0.002400598494826,0.0024911039997425,,9026.08902586808,11243.505992254835,150,9,2025-09-12,2025-09-26 20:29:45.031,AH,C,1121329866,HAWK11,1,1,73,2,1,1,225,2,1,0,0,12,1,225,2,1,-146846.16443045562,-4788871.463838424,4201174.030729771,3.11858,1.62966,-0.845799,-10.75,79.0,93.5,-0.03125,-7.92188,7.65625,-0.0332031,0.00585938,0.0136719,4,0,41.43719046041579,-91.75636993656109,11049.587968476111,-3.3987801971169582,0.0119438733276877,2.524636909965442,187.534,9026.08902586808,11243.505992254835,150,True,19.035803383954267,False,146.05197717303864,175.09427551457273,False,38.85203328696084,False,False
9,1970-07-23 10:31:29.860280664,2025-09-12,2025-09-26 20:29:46.028,AH,C,3754872758,JASSM,3,126,76,2,2,1,225,9,2,0,1,26,0,0,0,0,-171234.99743826812,-4771295.141572799,4219598.835417271,-2.51439,-0.703138,0.607744,56.125,-47.375,-51.0,0.0,0.0,0.0,0.0,0.0,0.0,2,0,41.66129142474679,-92.055381912937,10002.632925639658,139.84474933901106,-0.001555538532693,0.002489498657245,,9026.08902586808,11243.505992254835,150,9,2025-09-12,2025-09-26 20:29:46.038,AH,C,1122522864,HAWK11,1,1,73,2,1,1,225,2,1,0,0,12,1,225,2,1,-146856.24060233062,-4788792.852510299,4201267.005339146,3.09835,1.62055,-0.86459,-10.0,78.25,94.125,0.0,-7.82812,7.4375,-0.0253906,0.0175781,-0.00390625,4,0,41.43828383756463,-91.75651919418073,11058.962579814235,-2.988682392284522,1.0657307711624346,0.9756341335860842,188.402,9026.08902586808,11243.505992254835,150,True,18.93423719565011,False,145.6721935955217,174.95528329633484,False,39.37208361994303,False,False
9,1970-07-23 10:31:29.872261396,2025-09-12,2025-09-26 20:29:47.226,AH,C,3756185108,JASSM,3,126,76,2,2,1,225,9,2,0,1,26,0,0,0,0,-171173.30066092435,-4771347.446260299,4219542.569792271,-2.51439,-0.703138,0.607744,56.125,-47.375,-51.0,0.0,0.0,0.0,0.0,0.0,0.0,2,0,41.660613682762175,-92.05461947979066,10002.6245272303,139.84525614464303,-0.000670222931775,0.0024878039841112,,9026.08902586808,11243.505992254835,150,9,2025-09-12,2025-09-26 20:29:46.922,AH,C,1123676098,HAWK11,1,1,73,2,1,1,225,2,1,0,0,12,1,225,2,1,-146865.39294608062,-4788717.391572799,4201357.497526646,3.07918,1.62449,-0.872068,-9.625,77.875,94.25,0.015625,-7.29688,6.92188,-0.015625,-0.00195312,-0.00195312,4,0,41.43934188027464,-91.75665625874748,11070.62977729213,-3.107600432118538,1.5034227591559963,0.0462801422072303,188.72,9026.08902586808,11243.505992254835,150,True,18.832264544295295,False,145.49015066835096,174.81741101575562,False,39.69226299235292,False,False
9,1970-07-23 10:31:29.882201185,2025-09-12,2025-09-26 20:29:48.220,AH,C,3757497458,JASSM,3,126,76,2,2,1,225,9,2,0,1,26,0,0,0,0,-171111.60388358062,-4771399.747041549,4219486.308073521,-2.51439,-0.703043,0.607744,56.125,-47.375,-51.0,0.0,0.0,0.0,0.0,0.0,0.0,2,0,41.659935985254826,-92.05385706431213,10002.62007392549,139.8421104964201,-0.0024323043110958,-0.0006514625119625,,9026.08902586808,11243.505992254835,150,9,2025-09-12,2025-09-26 20:29:48.327,AH,C,1125306528,HAWK11,1,1,73,2,1,1,225,2,1,0,0,12,1,225,2,1,-146877.87536795562,-4788610.731416549,4201485.378386021,3.08647,1.61231,-0.874177,-9.125,78.0,94.125,0.234375,-7.39062,7.14062,-0.0175781,0.0078125,0.0214844,4,0,41.44083727954536,-91.75684457344246,11087.044086218451,-2.653057232313201,1.5992867227794147,-0.058484494166965,189.624,9026.08902586808,11243.505992254835,150,True,18.710324049899782,False,145.2649493226706,174.62589556702483,False,40.108852262312816,False,False
9,1970-07-23 10:31:29.893321492,2025-09-12,2025-09-26 20:29:49.332,AH,C,3758809806,JASSM,3,126,76,2,2,1,225,9,2,0,1,26,0,0,0,0,-171049.90759451812,-4771452.051729049,4219430.042448521,-2.51439,-0.703043,0.607744,56.125,-47.375,-51.0,0.0,0.0,0.0,0.0,0.0,0.0,2,0,41.65925823289052,-92.05309466899634,10002.621707993332,139.84261726345864,-0.0015469913513539,-0.000653217091613,,9026.08902586808,11243.505992254835,150,9,2025-09-12,2025-09-26 20:29:49.327,AH,C,1126499528,HAWK11,1,1,73,2,1,1,225,2,1,0,0,12,1,225,2,1,-146886.92224295562,-4788532.717744674,4201578.950651646,3.09107,1.6102,-0.878012,-8.875,77.875,94.0,0.125,-6.84375,6.54688,-0.0078125,-0.0078125,-0.00195312,4,0,41.4419313134684,-91.75698132358096,11099.133681821671,-2.5641456658485584,1.8156762267543785,0.1150527872452678,189.929,9026.08902586808,11243.505992254835,150,True,18.607111677001853,False,145.15410616831866,174.47979324853347,False,40.36580845991226,False,False
9,1970-07-23 10:31:29.904283156,2025-09-12,2025-09-26 20:29:50.428,AH,C,3760062508,JASSM,3,126,76,2,2,1,225,9,2,0,1,26,0,0,0,0,-170991.0147722525,-4771501.977510299,4219376.335417271,-2.51439,-0.703043,0.60784,56.125,-47.375,-51.0,0.0,0.0,0.0,0.0,0.0,0.0,2,0,41.65861129850933,-92.05236693262437,10002.626691067317,139.84632389982303,-0.005148171864885,-0.0006550403769353,,9026.08902586808,11243.505992254835,150,9,2025-09-12,2025-09-26 20:29:50.328,AH,C,1127732292,HAWK11,1,1,73,2,1,1,225,2,1,0,0,12,1,225,2,1,-146896.17028983062,-4788451.954072799,4201675.546354771,3.07659,1.61288,-0.883285,-8.75,77.75,93.75,-0.03125,-6.75,6.53125,0.00585938,-0.00390625,0.0117188,4,0,41.443062076954,-91.75712149147304,11111.0514754549,-2.645897895759041,2.1237413099567064,-0.5985616459208281,190.76,9026.08902586808,11243.505992254835,150,True,18.50477009095913,False,145.1072965437678,174.32829429645747,False,40.564075803451374,False,False
9,1970-07-23 10:31:29.915259091,2025-09-12,2025-09-26 20:29:51.525,AH,C,3761374860,JASSM,3,126,76,2,2,1,225,9,2,0,1,26,0,0,0,0,-170929.31799490875,-4771554.278291549,4219320.069792271,-2.51439,-0.703043,0.60784,56.125,-47.375,-51.0,0.0,0.0,0.0,0.0,0.0,0.0,2,0,41.65793355956117,-92.05160456437852,10002.628476099251,139.8468306357771,-0.0042628745191671,-0.0006567277047044,,9026.08902586808,11243.505992254835,150,9,2025-09-12,2025-09-26 20:29:51.531,AH,C,1129124124,HAWK11,1,1,73,2,1,1,225,2,1,0,0,12,1,225,2,1,-146906.38318045562,-4788360.377900924,4201784.327604771,3.09481,1.60349,-0.881176,-8.5,78.25,93.25,-0.15625,-6.51562,6.26562,0.00976562,-0.00585938,0.0136719,4,0,41.44433923714309,-91.75727716373468,11122.933011363875,-2.310319214274114,1.9868808047930755,0.0415649366595868,191.42,9026.08902586808,11243.505992254835,150,True,18.39354219399285,False,145.01659837713865,174.1562985812031,False,40.825944074281516,False,False
9,1970-07-23 10:31:29.926233010,2025-09-12,2025-09-26 20:29:52.623,AH,C,3762687212,JASSM,3,126,76,2,2,1,225,9,2,0,1,26,0,0,0,0,-170867.62097342435,-4771606.575166549,4219263.804167271,-2.51429,-0.703043,0.60784,56.125,-47.375,-51.0,0.0,0.0,0.0,0.0,0.0,0.0,2,0,41.65725583887968,-92.05084221086796,10002.62566543913,139.8473373551724,-0.0033775943542362,0.0048330728354518,,9026.08902586808,11243.505992254835,150,9,2025-09-12,2025-09-26 20:29:52.543,AH,C,1129959224,HAWK11,1,1,73,2,1,1,225,2,1,0,0,12,1,225,2,1,-146912.39685233062,-4788305.149385299,4201849.198698521,3.10602,1.59246,-0.877533,-8.375,78.5,93.0,-0.078125,-6.92188,6.53125,0.00976562,-0.00390625,0.0136719,4,0,41.445104554494826,-91.7573693101056,11128.49961608806,-1.9167909151615656,1.761638098535138,0.2105452948371611,192.117,9026.08902586808,11243.505992254835,150,True,18.30587302119322,False,144.97013595784625,174.04516571099794,False,40.982947230713826,False,False
9,1970-07-23 10:31:29.936337813,2025-09-12,2025-09-26 20:29:53.633,AH,C,3763999562,JASSM,3,126,76,2,2,1,225,9,2,0,1,26,0,0,0,0,-170805.92419608062,-4771658.875947799,4219207.534636021,-2.51429,-0.703043,0.60784,56.125,-47.375,-51.0,0.0,0.0,0.0,0.0,0.0,0.0,2,0,41.65657806339468,-92.05007987459256,10002.628921581898,139.84784405635045,-0.0024922767248792,0.0048313685125829,,9026.08902586808,11243.505992254835,150,9,2025-09-12,2025-09-26 20:29:53.465,AH,C,1130993156,HAWK11,1,1,73,2,1,1,225,2,1,0,0,12,1,225,2,1,-146919.72107108062,-4788237.620088424,4201928.296354771,3.12271,1.58489,-0.88108,-8.25,78.75,92.625,-0.125,-6.79688,6.48438,0.00976562,-0.0078125,-0.00195312,4,0,41.4460388351738,-91.75748163778572,11134.82716670025,-1.63276794168704,1.955612037408653,0.8413500106949549,192.459,9026.08902586808,11243.505992254835,150,True,18.21058584344249,False,144.9282405607032,173.9120200472756,False,41.157087359059354,False,False
9,1970-07-23 10:31:29.948665840,2025-09-12,2025-09-26 20:29:54.866,AH,C,3765311914,JASSM,3,126,76,2,2,1,225,9,2,0,1,26,0,0,0,0,-170744.22717459625,-4771711.172822799,4219151.265104771,-2.51429,-0.703043,0.60784,56.125,-47.375,-51.0,0.0,0.0,0.0,0.0,0.0,0.0,2,0,41.65590030617626,-92.04931755305078,10002.627582063162,139.848350740971,-0.0016069762756288,0.0048296799649326,,9026.08902586808,11243.505992254835,150,9,2025-09-12,2025-09-26 20:29:54.923,AH,C,1133220088,HAWK11,1,1,73,2,1,1,225,2,1,0,0,12,1,225,2,1,-146934.63708670562,-4788089.071260299,4202100.565886021,3.1042,1.57262,-0.876766,-7.875,79.375,92.125,0.03125,-6.71875,6.34375,0.0,-0.00195312,0.00585938,4,0,41.44808260273938,-91.75771445067733,11144.925248225882,-1.1914665844268422,1.6975810752942049,-0.7460798418315873,193.046,9026.08902586808,11243.505992254835,150,True,18.065488887253018,False,144.77242647031625,173.6373195140574,False,41.58544821525807,False,False
9,1970-07-23 10:31:29.959258776,2025-09-12,2025-09-26 20:29:55.925,AH,C,3766624264,JASSM,3,126,76,2,2,1,225,9,2,0,1,26,0,0,0,0,-170682.53015311187,-4771763.469697799,4219094.995573521,-2.51429,-0.703043,0.60784,56.125,-47.375,-51.0,0.0,0.0,0.0,0.0,0.0,0.0,2,0,41.655222543822056,-92.04855524749271,10002.631237281332,139.84885740820442,-0.0007216757217657,0.0048279913877127,,9026.08902586808,11243.505992254835,150,9,2025-09-12,2025-09-26 20:29:55.733,AH,C,1134174486,HAWK11,1,1,73,2,1,1,225,2,1,0,0,12,1,225,2,1,-146940.95153983062,-4788025.055635299,4202174.286589146,3.11178,1.56543,-0.870438,-7.75,79.75,92.125,-0.15625,-6.71875,6.5,0.00390625,0.00195312,0.00195312,4,0,41.44895987547927,-91.7578134271238,11148.153549329469,-0.9348338887296028,1.3302637870791034,-0.6211437942954304,193.51,9026.08902586808,11243.505992254835,150,True,17.973297658221206,False,144.71304401293983,173.5069182606964,False,41.7743180867418,False,False
9,1970-07-23 10:31:29.970219991,2025-09-12,2025-09-26 20:29:57.021,AH,C,3767936616,JASSM,3,126,76,2,2,1,225,9,2,0,1,26,0,0,0,0,-170620.8331316275,-4771815.762666549,4219038.722136021,-2.51429,-0.703043,0.60784,56.125,-47.375,-51.0,0.0,0.0,0.0,0.0,0.0,0.0,2,0,41.6545447734166,-92.04779295959308,10002.621799982828,139.84936405693776,0.0001636263582542,0.0048262999440961,,9026.08902586808,11243.505992254835,150,9,2025-09-12,2025-09-26 20:29:57.031,AH,C,1135566318,HAWK11,1,1,73,2,1,1,225,2,1,0,0,12,1,225,2,1,-146949.88903983062,-4787932.311494674,4202280.770964146,3.10506,1.55891,-0.869767,-7.625,80.0,92.0,-0.25,-6.98438,6.65625,-0.015625,-0.00390625,0.00585938,4,0,41.450228722647445,-91.7579543070927,11152.128008891968,-0.6946944578434225,1.2891073234168564,-1.2856074620637676,193.926,9026.08902586808,11243.505992254835,150,True,17.863703952151926,False,144.65833280093304,173.324707233663,False,42.01033926612715,False,False
9,1970-07-23 10:31:29.980357366,2025-09-12,2025-09-26 20:29:58.035,AH,C,3769248966,JASSM,3,126,76,2,2,1,225,9,2,0,1,26,0,0,0,0,-170559.1358660025,-4771868.055635299,4218982.452604771,-2.51429,-0.702947,0.607936,56.125,-47.375,-51.0,0.0,0.0,0.0,0.0,0.0,0.0,2,0,41.65386702419326,-92.04703068474772,10002.625853799738,139.8494460761196,-0.0060456603862121,0.0016882739773384,,9026.08902586808,11243.505992254835,150,9,2025-09-12,2025-09-26 20:29:58.031,AH,C,1136918384,HAWK11,1,1,73,2,1,1,225,2,1,0,0,12,1,225,2,1,-146958.89099295562,-4787840.790010299,4202385.538542271,3.07208,1.5499,-0.860467,-7.875,80.5,91.875,-0.015625,-6.375,6.07812,-0.015625,-0.0078125,0.0,4,0,41.45147869703833,-91.75809551440103,11155.394138223655,-0.3655784953604201,0.7539681141415513,-3.5623380337657284,193.962,9026.08902586808,11243.505992254835,150,True,17.755058219784814,False,144.77713852766337,173.14296393714645,False,42.07155041113869,False,False
9,1970-07-23 10:31:29.992301102,2025-09-12,2025-09-26 20:29:59.230,AH,C,3770561318,JASSM,3,126,76,2,2,1,225,9,2,0,1,26,0,0,0,0,-170497.43884451812,-4771920.348604049,4218926.179167271,-2.51429,-0.702947,0.607936,56.125,-47.375,-51.0,0.0,0.0,0.0,0.0,0.0,0.0,2,0,41.65318924351699,-92.0462684288118,10002.626405901712,139.84995269029204,-0.0051603581089544,0.0016865759136761,,9026.08902586808,11243.505992254835,150,9,2025-09-12,2025-09-26 20:29:59.531,AH,C,1138668114,HAWK11,1,1,73,2,1,1,225,2,1,0,0,12,1,225,2,1,-146971.00622733062,-4787722.366182174,4202519.591276646,3.03028,1.55747,-0.858454,-8.625,81.0,91.75,-0.203125,-6.85938,6.42188,-0.03125,-0.00585938,0.0,4,0,41.4530858191395,-91.75828382274662,11156.389036755952,-0.6501922057472919,0.6431100041732691,-5.631975353323265,194.659,9026.08902586808,11243.505992254835,150,True,17.63044779908312,False,145.12721225309357,172.91295023986996,False,41.94972866048589,False,False
9,1970-07-23 10:31:30.005057429,2025-09-12,2025-09-26 20:30:00.505,AH,C,3771933322,JASSM,3,126,76,2,2,1,225,9,2,0,1,26,0,0,0,0,-170432.93713553375,-4771975.016572799,4218867.347136021,-2.51429,-0.702947,0.607936,56.125,-47.375,-51.0,0.0,0.0,0.0,0.0,0.0,0.0,2,0,41.65248065609583,-92.0454715394761,10002.625965787614,139.8504823154475,-0.0042348188259401,0.0016848065422462,,9026.08902586808,11243.505992254835,150,9,2025-09-12,2025-09-26 20:30:00.531,AH,C,1139622514,HAWK11,1,1,73,2,1,1,225,2,1,0,0,12,1,225,2,1,-146978.40857108062,-4787657.957979049,4202591.933073521,3.01494,1.55948,-0.857495,-9.375,81.5,91.375,0.015625,-6.78125,6.46875,-0.00585938,0.00390625,0.0,4,0,41.45395592785686,-91.75839596537516,11155.767727054326,-0.7264580514950163,0.5900930933653946,-6.424362054637752,194.769,9026.08902586808,11243.505992254835,150,True,17.536253433331883,False,145.48348487514966,172.7769779594623,False,41.72637227514754,False,False
9,1970-07-23 10:31:30.014221976,2025-09-12,2025-09-26 20:30:01.422,AH,C,3773186020,JASSM,3,126,76,2,2,1,225,9,2,0,1,26,0,0,0,0,-170374.04431326812,-4772024.930635299,4218813.628386021,-2.51429,-0.702947,0.607936,56.125,-47.375,-51.0,0.0,0.0,0.0,0.0,0.0,0.0,2,0,41.65183366394666,-92.04474396070144,10002.624364432177,139.85096586926136,-0.0033897490752976,0.0016831802720568,,9026.08902586808,11243.505992254835,150,9,2025-09-12,2025-09-26 20:30:01.421,AH,C,1140696212,HAWK11,1,1,73,2,1,1,225,2,1,0,0,12,1,225,2,1,-146987.32849295562,-4787584.489229049,4202674.142057896,3.00794,1.56658,-0.853181,-10.125,80.875,92.25,-0.078125,-6.73438,6.5,0.0,-0.00585938,-0.00976562,4,0,41.45494626393002,-91.75852958153855,11154.428849468031,-0.9974060358028854,0.3485086221852408,-6.520677388525544,194.805,9026.08902586808,11243.505992254835,150,True,17.441344236614427,False,145.80626786492513,172.62638604120798,False,41.55984615243272,False,False
9,1970-07-23 10:31:30.025338807,2025-09-12,2025-09-26 20:30:02.533,AH,C,3774498370,JASSM,3,126,76,2,2,1,225,9,2,0,1,26,0,0,0,0,-170312.34704764312,-4772077.219697799,4218757.351042271,-2.51429,-0.702947,0.607936,56.125,-47.375,-51.0,0.0,0.0,0.0,0.0,0.0,0.0,2,0,41.651155865000405,-92.04398175145292,10002.621792255415,139.851472432114,-0.0025044436888241,0.0016814809884772,,9026.08902586808,11243.505992254835,150,9,2025-09-12,2025-09-26 20:30:02.733,AH,C,1142445944,HAWK11,1,1,73,2,1,1,225,2,1,0,0,12,1,225,2,1,-147003.26989920562,-4787463.836885299,4202807.702604771,2.97055,1.58968,-0.856441,-11.625,82.375,91.0,-0.203125,-7.0,6.625,-0.0292969,0.0078125,-0.0078125,4,0,41.45656263606336,-91.75876447678898,11149.20216014216,-1.8608290806836287,0.5615738067422389,-7.670929378407395,195.001,9026.08902586808,11243.505992254835,150,True,17.315469787121664,False,146.52460578151317,172.39200103122394,False,41.06544125439887,False,False
9,1970-07-23 10:31:30.035318363,2025-09-12,2025-09-26 20:30:03.531,AH,C,3775751070,JASSM,3,126,76,2,2,1,225,9,2,0,1,26,0,0,0,0,-170253.45398123687,-4772127.129854049,4218703.632292271,-2.51429,-0.702947,0.607936,56.125,-47.375,-51.0,0.0,0.0,0.0,0.0,0.0,0.0,2,0,41.65050888667195,-92.04325420123608,10002.619918411729,139.85195595432884,-0.0016593910240983,0.0016798704680358,,9026.08902586808,11243.505992254835,150,9,2025-09-12,2025-09-26 20:30:03.421,AH,C,1143320810,HAWK11,1,1,73,2,1,1,225,2,1,0,0,12,1,225,2,1,-147012.32068045562,-4787403.344697799,4202874.491667271,2.95128,1.58863,-0.860084,-12.625,82.25,91.125,-0.03125,-6.92188,6.57812,-0.00195312,-0.0136719,0.00585938,4,0,41.45737167249468,-91.75889490401522,11146.28771793706,-1.81376192310798,0.7695334056992813,-8.820162706607636,195.453,9026.08902586808,11243.505992254835,150,True,17.22829611954465,False,146.98478238624455,172.26377872422094,False,40.73506182395539,False,False
9,1970-07-23 10:31:30.047038000,2025-09-12,2025-09-26 20:30:04.703,AH,C,3777063420,JASSM,3,126,76,2,2,1,225,9,2,0,1,26,0,0,0,0,-170191.75671561187,-4772179.418916549,4218647.354948521,-2.51429,-0.702947,0.607936,56.125,-47.375,-51.0,0.0,0.0,0.0,0.0,0.0,0.0,2,0,41.649831077690926,-92.04249202321984,10002.627108711114,139.85246248320527,-0.000774085433177,0.0016781711266583,,9026.08902586808,11243.505992254835,150,9,2025-09-12,2025-09-26 20:30:04.625,AH,C,1144752408,HAWK11,1,1,73,2,1,1,225,2,1,0,0,12,1,225,2,1,-147028.54138358062,-4787304.680635299,4202983.616667271,2.92185,1.61787,-0.858933,-14.25,82.375,91.125,-0.046875,-7.14062,6.82812,-0.0234375,0.0,-0.0117188,4,0,41.45869224693328,-91.75912508214395,11142.067379902934,-2.9096104193963943,0.7567541206513825,-9.25183517876352,195.905,9026.08902586808,11243.505992254835,150,True,17.114924452348614,False,147.73049543578568,172.06727095703872,False,40.185789060937346,False,False
9,1970-07-23 10:31:30.057837618,2025-09-12,2025-09-26 20:30:05.783,AH,C,3778375772,JASSM,3,126,76,2,2,1,225,9,2,0,1,26,0,0,0,0,-170130.05920584625,-4772231.704072799,4218591.073698521,-2.51429,-0.702947,0.607936,56.125,-47.375,-51.0,0.0,0.0,0.0,0.0,0.0,0.0,2,0,41.64915326070809,-92.04172985992513,10002.621185285465,139.85296899553455,0.0001112230602798,0.0016764706244904,,9026.08902586808,11243.505992254835,150,9,2025-09-12,2025-09-26 20:30:05.827,AH,C,1146144240,HAWK11,1,1,73,2,1,1,225,2,1,0,0,12,1,225,2,1,-147046.37732108062,-4787208.661104049,4203089.585417271,2.8858,1.62842,-0.862385,-16.125,82.25,91.25,-0.09375,-7.28125,6.98438,0.0,0.0,0.0,5,0,41.45997549015734,-91.75937361215315,11137.623244185312,-3.2906891430183043,0.9799091263828296,-10.864727317562783,196.59,9026.08902586808,11243.505992254835,150,False,17.002640161273543,False,148.58941217051893,171.8755944756741,False,39.520392359156084,False,False
9,1970-07-23 10:31:30.068357882,2025-09-12,2025-09-26 20:30:06.835,AH,C,3779688124,JASSM,3,126,76,2,2,1,225,9,2,0,1,26,0,0,0,0,-170068.36169608062,-4772283.989229049,4218534.796354771,-2.51429,-0.702947,0.608032,56.125,-47.375,-51.0,0.0,0.0,0.0,0.0,0.0,0.0,2,0,41.6484754648594,-92.04096771260808,10002.628773520548,139.8566986493989,-0.0034495554861904,0.0016747180312185,,9026.08902586808,11243.505992254835,150,9,2025-09-12,2025-09-26 20:30:06.733,AH,C,1147257706,HAWK11,1,1,73,2,1,1,225,2,1,0,0,12,1,225,2,1,-147062.21911795562,-4787131.918916549,4203174.397917271,2.86567,1.6543,-0.863152,-17.75,82.375,91.125,-0.078125,-7.20312,6.85938,-0.0175781,0.00585938,-0.0136719,4,0,41.461001612272256,-91.75959122590132,11134.45633210952,-4.249421240014986,1.0978497147976831,-10.90889121774376,197.873,9026.08902586808,11243.505992254835,150,False,16.90184893552732,False,149.3353385032202,171.71713298785463,False,38.932197663254364,False,False
9,1970-07-23 10:31:30.079315478,2025-09-12,2025-09-26 20:30:07.931,AH,C,3781000474,JASSM,3,126,76,2,2,1,225,9,2,0,1,26,0,0,0,0,-170006.664186315,-4772336.274385299,4218478.515104771,-2.51429,-0.702851,0.608032,56.125,-47.375,-51.0,0.0,0.0,0.0,0.0,0.0,0.0,2,0,41.64779763760971,-92.04020558126844,10002.63283962065,139.8535537138142,-0.0052114771933656,-0.0014656556458132,,9026.08902586808,11243.505992254835,150,9,2025-09-12,2025-09-26 20:30:08.235,AH,C,1149086970,HAWK11,1,1,73,2,1,1,225,2,1,0,0,12,1,225,2,1,-147091.88708670562,-4787005.936494674,4203313.517057896,2.86231,1.68575,-0.868808,-20.5,82.25,90.875,-0.140625,-7.35938,7.01562,0.0390625,0.0,-0.0136719,4,0,41.46268470264384,-91.7599922666597,11129.306020079885,-5.380304865522668,1.5354744045035784,-9.754463867050246,198.911,9026.08902586808,11243.505992254835,150,True,16.768900981553905,False,150.60849637683773,171.47500534375897,False,37.9014809070708,False,False
9,1970-07-23 10:31:30.090276261,2025-09-12,2025-09-26 20:30:09.027,AH,C,3782312826,JASSM,3,126,76,2,2,1,225,9,2,0,1,26,0,0,0,0,-169944.96667654935,-4772388.555635299,4218422.229948521,-2.51419,-0.702851,0.608032,56.125,-47.375,-51.0,0.0,0.0,0.0,0.0,0.0,0.0,2,0,41.64711980230493,-92.03944346757396,10002.623813384356,139.85406017310203,-0.0043261669689571,0.0040377667802639,,9026.08902586808,11243.505992254835,150,9,2025-09-12,2025-09-26 20:30:08.827,AH,C,1149643704,HAWK11,1,1,73,2,1,1,225,2,1,0,0,12,1,225,2,1,-147101.62341483062,-4786967.940400924,4203355.601042271,2.86941,1.69802,-0.874177,-21.25,81.875,91.0,-0.140625,-7.45312,7.01562,0.03125,0.0078125,0.0,4,0,41.46319302433106,-91.76012265295816,11128.08934403054,-5.795371519478291,1.892934152694553,-8.822236813214998,198.911,9026.08902586808,11243.505992254835,150,True,16.69190358157858,False,150.95774864938724,171.382811652143,False,37.64720461706028,False,False
9,1970-07-23 10:31:30.102232698,2025-09-12,2025-09-26 20:30:10.223,AH,C,3783684830,JASSM,3,126,76,2,2,1,225,9,2,0,1,26,0,0,0,0,-169880.46447928375,-4772443.211885299,4218363.390104771,-2.51419,-0.702851,0.608032,56.125,-47.375,-51.0,0.0,0.0,0.0,0.0,0.0,0.0,2,0,41.64641118443434,-92.03864672697516,10002.62434428713,139.85458963631294,-0.0034006397741546,0.0040360020510601,,9026.08902586808,11243.505992254835,150,9,2025-09-12,2025-09-26 20:30:10.327,AH,C,1151512734,HAWK11,1,1,73,2,1,1,225,2,1,0,0,12,1,225,2,1,-147136.70349295562,-4786840.116182174,4203497.888151646,2.89002,1.71557,-0.880026,-23.25,81.125,91.25,-0.1875,-7.54688,7.04688,0.0175781,0.00976562,-0.0117188,4,0,41.464907455759175,-91.76058911692532,11125.728307194884,-6.392114246588299,2.307128749293251,-6.889957794375303,199.021,9026.08902586808,11243.505992254835,150,True,16.55355198950581,False,151.8801636184158,171.13532891996059,False,36.97734322772144,False,False
9,1970-07-23 10:31:30.112356137,2025-09-12,2025-09-26 20:30:11.235,AH,C,3784997178,JASSM,3,126,76,2,2,1,225,9,2,0,1,26,0,0,0,0,-169818.76696951812,-4772495.493135299,4218307.104948521,-2.51419,-0.702851,0.608032,56.125,-47.375,-51.0,0.0,0.0,0.0,0.0,0.0,0.0,2,0,41.64573333863027,-92.03788464595776,10002.625534623136,139.8550960600511,-0.0025153293350942,0.0040342919456217,,9026.08902586808,11243.505992254835,150,9,2025-09-12,2025-09-26 20:30:11.327,AH,C,1152785266,HAWK11,1,1,73,2,1,1,225,2,1,0,0,12,1,225,2,1,-147161.78552420562,-4786754.313447799,4203594.438932896,2.89817,1.71988,-0.884052,-24.25,80.5,91.5,-0.078125,-7.625,7.20312,0.00195312,0.00195312,0.0,4,0,41.46606500703831,-91.76092059540424,11126.529139103122,-6.517583977286793,2.5578090822473243,-6.237404094200576,199.168,9026.08902586808,11243.505992254835,150,True,16.444354683673076,False,152.34040829500145,170.95885449376757,False,36.696853826162766,False,False
9,1970-07-23 10:31:30.124298659,2025-09-12,2025-09-26 20:30:12.429,AH,C,3786309532,JASSM,3,126,76,2,2,1,225,9,2,0,1,26,0,0,0,0,-169757.06909354156,-4772547.770479049,4218250.819792271,-2.51419,-0.702851,0.608032,56.125,-47.375,-51.0,0.0,0.0,0.0,0.0,0.0,0.0,2,0,41.64505551111709,-92.03712257819063,10002.622117008345,139.85560246822007,-0.0016300353839364,0.0040325984684749,,9026.08902586808,11243.505992254835,150,9,2025-09-12,2025-09-26 20:30:12.531,AH,C,1154177098,HAWK11,1,1,73,2,1,1,225,2,1,0,0,12,1,225,2,1,-147191.07068045562,-4786659.973604049,4203701.407682896,2.90018,1.72717,-0.890668,-25.375,80.0,91.5,-0.203125,-7.59375,7.1875,0.0078125,0.00195312,-0.0136719,4,0,41.46734288885479,-91.761305488306,11129.311911667011,-6.727341982687225,2.970652295536376,-5.808286165422644,199.131,9026.08902586808,11243.505992254835,150,True,16.328787735279544,False,152.8702524954144,170.76632758395147,False,36.361160498646406,False,False
9,1970-07-23 10:31:30.135259270,2025-09-12,2025-09-26 20:30:13.525,AH,C,3787621882,JASSM,3,126,76,2,2,1,225,9,2,0,1,26,0,0,0,0,-169695.3713396353,-4772600.049775924,4218194.534636021,-2.51419,-0.702851,0.608032,56.125,-47.375,-51.0,0.0,0.0,0.0,0.0,0.0,0.0,2,0,41.64437766677318,-92.03636052702824,10002.628490172978,139.8561088585918,-0.0007447326893841,0.0040308970592446,,9026.08902586808,11243.505992254835,150,9,2025-09-12,2025-09-26 20:30:13.625,AH,C,1155449630,HAWK11,1,1,73,2,1,1,225,2,1,0,0,12,1,225,2,1,-147218.49646170562,-4786575.405244674,4203798.251432896,2.91015,1.72745,-0.896324,-26.25,79.375,91.625,-0.109375,-7.5625,7.125,0.0175781,-0.00390625,-0.00390625,4,0,41.468494630953,-91.76166456624232,11133.978318918216,-6.69246871988603,3.2941879963020115,-5.2221010715182095,199.425,9026.08902586808,11243.505992254835,150,True,16.219210201976995,False,153.28085287845423,170.58858361709105,False,36.129838606030894,False,False
9,1970-07-23 10:31:30.146218347,2025-09-12,2025-09-26 20:30:14.621,AH,C,3788936632,JASSM,3,126,76,2,2,1,225,9,2,0,1,26,0,0,0,0,-169633.5607927603,-4772652.422822799,4218138.144011021,-2.51419,-0.702851,0.608032,56.125,-47.375,-51.0,0.0,0.0,0.0,0.0,0.0,0.0,2,0,41.64369857169512,-92.03559709951487,10002.629808141128,139.85661615678023,0.0001421930850263,0.0040291879492741,,9026.08902586808,11243.505992254835,150,9,2025-09-12,2025-09-26 20:30:14.717,AH,C,1156801696,HAWK11,1,1,73,2,1,1,225,2,1,0,0,12,1,225,2,1,-147249.02185233062,-4786485.243135299,4203902.606901646,2.92722,1.73234,-0.900639,-27.0,78.625,91.75,-0.109375,-7.57812,7.20312,0.0214844,0.00585938,0.0,4,0,41.46972977503065,-91.76206278287674,11141.463354616912,-6.830668455678588,3.564867312419564,-4.033236684749277,199.938,9026.08902586808,11243.505992254835,150,True,16.10511522376568,False,153.63838409387614,170.39880838147002,False,35.96280006710379,False,False
9,1970-07-23 10:31:30.157335459,2025-09-12,2025-09-26 20:30:15.733,AH,C,3790306238,JASSM,3,126,76,2,2,1,225,9,2,0,1,26,0,0,0,0,-169569.17126639312,-4772706.979463424,4218079.397917271,-2.51419,-0.702851,0.608128,56.125,-47.375,-51.0,0.0,0.0,0.0,0.0,0.0,0.0,2,0,41.64299112859059,-92.03480183653598,10002.62681952139,139.86037001058804,-0.0033825237590418,0.0040273367287831,,9026.08902586808,11243.505992254835,150,9,2025-09-12,2025-09-26 20:30:15.827,AH,C,1158074228,HAWK11,1,1,73,2,1,1,225,2,1,0,0,12,1,225,2,1,-147277.91638358062,-4786402.034150924,4203999.911589146,2.95905,1.7264,-0.903515,-27.5,78.0,91.875,-0.234375,-7.625,7.26562,0.0351562,0.00195312,0.00195312,4,0,41.47087625452143,-91.76243895187268,11150.600937770623,-6.598124281161266,3.6993406727353286,-2.461835053089782,200.683,9026.08902586808,11243.505992254835,150,True,15.993204584606147,False,153.87599880342023,170.21713308607443,False,35.90654130534355,False,False
9,1970-07-23 10:31:30.168314579,2025-09-12,2025-09-26 20:30:16.831,AH,C,3791618588,JASSM,3,126,76,2,2,1,225,9,2,0,1,26,0,0,0,0,-169507.47339041656,-4772759.252900924,4218023.108854771,-2.51419,-0.702755,0.608128,56.125,-47.375,-51.0,0.0,0.0,0.0,0.0,0.0,0.0,2,0,41.64231327739127,-92.0340398350521,10002.625520683854,139.85722759268515,-0.0051428372112915,0.0008884813473987,,9026.08902586808,11243.505992254835,150,9,2025-09-12,2025-09-26 20:30:17.031,AH,C,1159505826,HAWK11,1,1,73,2,1,1,225,2,1,0,0,12,1,225,2,1,-147311.40857108062,-4786308.088838424,4204111.122526646,2.98839,1.72525,-0.903706,-27.625,77.125,92.25,-0.15625,-7.375,6.95312,0.0253906,-0.00195312,-0.00390625,4,0,41.47217961086305,-91.7628740709188,11163.929715487804,-6.556395208274547,3.705895521562696,-0.829820960449276,200.793,9026.08902586808,11243.505992254835,150,True,15.875658508520626,False,153.924683374588,170.01443655140483,False,36.05832330493116,False,False
9,1970-07-23 10:31:30.180695776,2025-09-12,2025-09-26 20:30:18.069,AH,C,3792871286,JASSM,3,126,76,2,2,1,225,9,2,0,1,26,0,0,0,0,-169448.57995779935,-4772809.149385299,4217969.378386021,-2.51419,-0.702755,0.608128,56.125,-47.375,-51.0,0.0,0.0,0.0,0.0,0.0,0.0,2,0,41.64166623812998,-92.0333124852098,10002.626764369248,139.8577108979254,-0.0042977862420168,0.0008868589960535,,9026.08902586808,11243.505992254835,150,9,2025-09-12,2025-09-26 20:30:18.424,AH,C,1161096492,HAWK11,1,1,73,2,1,1,225,2,1,0,0,12,1,225,2,1,-147348.61950858062,-4786204.979463424,4204234.569792271,3.01667,1.71403,-0.905432,-27.625,76.625,92.625,-0.15625,-7.20312,6.89062,-0.00585938,-0.0117188,0.00195312,4,0,41.473619377630506,-91.76335705598608,11181.622065044045,-6.148962133511951,3.7520675375951167,0.312120970569115,201.013,9026.08902586808,11243.505992254835,150,True,15.753797943399615,False,153.89980731345253,169.7923479793703,False,36.302586977773075,False,False
9,1970-07-23 10:31:30.190251899,2025-09-12,2025-09-26 20:30:19.025,AH,C,3794183638,JASSM,3,126,76,2,2,1,225,9,2,0,1,26,0,0,0,0,-169386.8818376822,-4772861.422822799,4217913.085417271,-2.51419,-0.702755,0.608128,56.125,-47.375,-51.0,0.0,0.0,0.0,0.0,0.0,0.0,2,0,41.64098835068252,-92.03255051201562,10002.62669100315,139.8582172028831,-0.0034124687879213,0.000885140732477,,9026.08902586808,11243.505992254835,150,9,2025-09-12,2025-09-26 20:30:19.035,AH,C,1161931590,HAWK11,1,1,73,2,1,1,225,2,1,0,0,12,1,225,2,1,-147367.98083670562,-4786151.229463424,4204299.167448521,3.02031,1.70406,-0.904761,-27.5,76.625,92.375,-0.15625,-6.875,6.4375,0.00585938,-0.0136719,0.00195312,4,0,41.47437157661575,-91.76360840458908,11191.38159547037,-5.803244954345141,3.6701271126575934,0.0940350043461758,201.013,9026.08902586808,11243.505992254835,150,True,15.664110403061338,False,153.87080688890316,169.65721203584542,False,36.467566072785516,False,False
