Subject_cm,Timestamp,SampleDate_cm,SampleTime_cm,Configuration_cm,Scenario_cm,DisTime_cm,MarkingTxt_cm,Application_cm,EntId_cm,Site_cm,ExerciseId_cm,ForceId_cm,Category_cm,Country_cm,Domain_cm,Kind_cm,Extra_cm,Specific_cm,Subcategory_cm,AltCategory_cm,AltCountry_cm,AltDomain_cm,AltKind_cm,ECEF_X_cm,ECEF_Y_cm,ECEF_Z_cm,OriPhi_cm,OriPsi_cm,OriTheta_cm,LinVelX_cm,LinVelY_cm,LinVelZ_cm,LinAccX_cm,LinAccY_cm,LinAccZ_cm,AngVelX_cm,AngVelY_cm,AngVelZ_cm,DrAlg_cm,Appearance_cm,Latitude_cm,Longitude_cm,Altitude_cm,Heading_cm,Pitch_cm,Roll_cm,CalibratedAirspeed_cm,CM_Altitude_Lead_cm,CM_Altitude_Wing_cm,CM_Airspeed_cm,Subject_ac,SampleDate_ac,SampleTime_ac,Configuration_ac,Scenario_ac,DisTime_ac,MarkingTxt_ac,Application_ac,EntId_ac,Site_ac,ExerciseId_ac,ForceId_ac,Category_ac,Country_ac,Domain_ac,Kind_ac,Extra_ac,Specific_ac,Subcategory_ac,AltCategory_ac,AltCountry_ac,AltDomain_ac,AltKind_ac,ECEF_X_ac,ECEF_Y_ac,ECEF_Z_ac,OriPhi_ac,OriPsi_ac,OriTheta_ac,LinVelX_ac,LinVelY_ac,LinVelZ_ac,LinAccX_ac,LinAccY_ac,LinAccZ_ac,AngVelX_ac,AngVelY_ac,AngVelZ_ac,DrAlg_ac,Appearance_ac,Latitude_ac,Longitude_ac,Altitude_ac,Heading_ac,Pitch_ac,Roll_ac,CalibratedAirspeed_ac,CM_Altitude_Lead_ac,CM_Altitude_Wing_ac,CM_Airspeed_ac,Bank_Angle_Condition,distance_nm,Distance_Condition,angle_between_vel,angle_between_pos,Cone_Condition,angle_between_pos_nose,Nose_Cone_Condition,Intercept_Criteria
9,1970-07-23 10:31:35.634281033,2025-09-12,2025-09-26 20:39:23.428,AA,C,148710842,JASSM,3,139,76,2,2,1,225,9,2,0,1,26,0,0,0,0,-188091.91638358065,-4786115.211885299,4202178.476042271,-2.30155,-0.153302,0.128183,89.75,-13.75,-11.625,0.0,0.0,0.0,0.0,0.0,0.0,2,0,41.45178530570667,-92.2505371293438,10002.625602608468,99.817633084439,-0.00268297216754,0.0023898476496429,,8790.15738098984,10980.456319326084,150,9,2025-09-12,2025-09-26 20:39:23.115,AA,C,1811042210,HAWK11,1,1,73,2,1,1,225,2,1,0,0,12,1,225,2,1,-146690.20739920562,-4791822.750947799,4197803.591276646,2.34574,2.7047,-0.470453,-93.5,30.875,35.5,0.109375,-6.78125,7.10938,0.0,0.00976562,-0.0117188,4,0,41.39691128345086,-91.75342583497284,10980.456319326084,-55.01629551155915,2.033909720047401,-2.0071691247838706,171.623,8790.15738098984,10980.456319326084,150,True,22.596633517647316,False,164.4110384283908,178.42706831436388,False,17.160445803497925,True,False
9,1970-07-23 10:31:35.644260275,2025-09-12,2025-09-26 20:39:24.426,AA,C,149963542,JASSM,3,139,76,2,2,1,225,9,2,0,1,26,0,0,0,0,-187997.6292742056,-4786129.788057174,4202166.175261021,-2.30155,-0.153302,0.128183,89.75,-13.75,-11.625,0.0,0.0,0.0,0.0,0.0,0.0,2,0,41.45163761319986,-92.2494032909967,10002.623008086688,99.81838367252054,-0.0018204064245922,0.0023892301277993,,8790.15738098984,10980.456319326084,150,9,2025-09-12,2025-09-26 20:39:24.413,AA,C,1812593108,HAWK11,1,1,73,2,1,1,225,2,1,0,0,12,1,225,2,1,-146811.41052420562,-4791782.567354049,4197849.216276646,2.36693,2.70796,-0.480615,-93.5,30.625,35.5,-0.109375,-7.35938,6.89062,0.0527344,0.00585938,0.0136719,4,0,41.39743622771503,-91.75488840869464,10989.722954633937,-54.73534884986687,2.5710870784863147,-0.696152572408269,171.501,8790.15738098984,10980.456319326084,150,True,22.475298303415034,False,164.47888853395776,178.3687533439133,False,17.151401570169508,True,False
9,1970-07-23 10:31:35.655120850,2025-09-12,2025-09-26 20:39:25.512,AA,C,151216240,JASSM,3,139,76,2,2,1,225,9,2,0,1,26,0,0,0,0,-187903.3402117056,-4786144.362275924,4202153.876432896,-2.30155,-0.153302,0.128183,89.75,-13.75,-11.625,0.0,0.0,0.0,0.0,0.0,0.0,2,0,41.45148993477227,-92.2482694353644,10002.624419290987,99.81913426984416,-0.0009578284024784,0.0023886403180601,,8790.15738098984,10980.456319326084,150,9,2025-09-12,2025-09-26 20:39:25.615,AA,C,1814024706,HAWK11,1,1,73,2,1,1,225,2,1,0,0,12,1,225,2,1,-146923.87927420562,-4791745.348604049,4197891.856901646,2.4374,2.70163,-0.485793,-92.875,30.5,35.625,0.0,-7.14062,6.375,0.0429688,-0.00390625,0.0,4,0,41.39792496368871,-91.7562455781902,10999.158672300056,-54.29875134038148,2.565506267482864,3.192672773993918,171.147,8790.15738098984,10980.456319326084,150,True,22.358988677469927,False,164.3079241575216,178.31348097176848,False,17.377926083619382,True,False
9,1970-07-23 10:31:35.665100570,2025-09-12,2025-09-26 20:39:26.510,AA,C,152468938,JASSM,3,139,76,2,2,1,225,9,2,0,1,26,0,0,0,0,-187809.05310233065,-4786158.936494674,4202141.575651646,-2.30145,-0.153206,0.128183,89.75,-13.75,-11.625,0.0,0.0,0.0,0.0,0.0,0.0,2,0,41.45134223153478,-92.24713560822076,10002.626528360855,99.81624847637733,-0.0041522029097337,0.0071774338507946,,8790.15738098984,10980.456319326084,150,9,2025-09-12,2025-09-26 20:39:26.321,AA,C,1814899572,HAWK11,1,1,73,2,1,1,225,2,1,0,0,12,1,225,2,1,-146991.47497733062,-4791722.226533736,4197918.077604771,2.46607,2.69712,-0.48771,-92.125,31.125,35.75,-0.203125,-7.20312,6.15625,0.0214844,0.0,0.0175781,4,0,41.39822717614002,-91.75706154611962,11004.26787023166,-54.05787890759842,2.488855495376856,4.725119869592455,171.232,8790.15738098984,10980.456319326084,150,True,22.26838889463017,False,163.89958852082736,178.27707360578052,False,17.82173265674303,True,False
9,1970-07-23 10:31:35.675080370,2025-09-12,2025-09-26 20:39:27.508,AA,C,153661984,JASSM,3,139,76,2,2,1,225,9,2,0,1,26,0,0,0,0,-187719.2542742056,-4786172.815400924,4202129.858854771,-2.30145,-0.153206,0.128279,89.75,-13.75,-11.625,0.0,0.0,0.0,0.0,0.0,0.0,2,0,41.451201547592646,-92.24605575934054,10002.625764590766,99.82105383741128,-0.0069971251047343,0.0071764342019089,,8790.15738098984,10980.456319326084,150,9,2025-09-12,2025-09-26 20:39:27.524,AA,C,1816251638,HAWK11,1,1,73,2,1,1,225,2,1,0,0,12,1,225,2,1,-147094.62146170562,-4791686.426729049,4197958.151823521,2.46702,2.67689,-0.498544,-91.0,31.75,35.875,-0.203125,-6.90625,6.01562,-0.0488281,-0.00585938,0.0117188,4,0,41.39869182289756,-91.75830686157887,11010.935030189024,-52.88845977270707,2.2438615257824988,4.279851325439556,171.232,8790.15738098984,10980.456319326084,150,True,22.159759244895262,False,163.38712281049644,178.22297846136001,False,18.38697541110957,True,False
9,1970-07-23 10:31:35.687839828,2025-09-12,2025-09-26 20:39:28.783,AA,C,154855032,JASSM,3,139,76,2,2,1,225,9,2,0,1,26,0,0,0,0,-187629.4573992056,-4786186.692354049,4202118.142057896,-2.30145,-0.153206,0.128279,89.75,-13.75,-11.625,0.0,0.0,0.0,0.0,0.0,0.0,2,0,41.45106086468213,-92.24497593938682,10002.624699509704,99.82176865777645,-0.0061756420352601,0.0071758697367859,,8790.15738098984,10980.456319326084,150,9,2025-09-12,2025-09-26 20:39:28.725,AA,C,1817603702,HAWK11,1,1,73,2,1,1,225,2,1,0,0,12,1,225,2,1,-147198.01599295562,-4791649.268525924,4197998.606901646,2.38783,2.66002,-0.496626,-90.25,32.5,35.5,-0.1875,-7.03125,5.89062,-0.0742188,-0.00195312,0.00195312,4,0,41.39916706183536,-91.75955565569664,11015.11272462635,-52.33921819108077,1.5879332096442802,-0.7003831162299853,170.976,8790.15738098984,10980.456319326084,150,True,22.050905897717644,False,163.123981069372,178.16694561879171,False,18.702823268567638,True,False
9,1970-07-23 10:31:35.695303948,2025-09-12,2025-09-26 20:39:29.530,AA,C,156048078,JASSM,3,139,76,2,2,1,225,9,2,0,1,26,0,0,0,0,-187539.65857108065,-4786200.569307174,4202106.423307896,-2.30145,-0.153206,0.128279,89.75,-13.75,-11.625,0.0,0.0,0.0,0.0,0.0,0.0,2,0,41.45092015891355,-92.24389610075404,10002.623514010582,99.82248348851223,-0.0053541395347235,0.0071752956852682,,8790.15738098984,10980.456319326084,150,9,2025-09-12,2025-09-26 20:39:29.414,AA,C,1818399036,HAWK11,1,1,73,2,1,1,225,2,1,0,0,12,1,225,2,1,-147257.60778983062,-4791627.578096236,4198021.776823521,2.35322,2.65868,-0.496722,-90.125,32.625,35.125,0.03125,-7.0625,6.21875,-0.0234375,-0.00390625,0.0,4,0,41.39944160310476,-91.76027551121588,11016.53147549472,-52.28608644354616,1.5469267895603842,-2.7184870492952258,170.805,8790.15738098984,10980.456319326084,150,True,21.96731490918958,False,163.20161839549158,178.13250529350898,False,18.658014101685215,True,False
9,1970-07-23 10:31:35.706261450,2025-09-12,2025-09-26 20:39:30.626,AA,C,157300778,JASSM,3,139,76,2,2,1,225,9,2,0,1,26,0,0,0,0,-187445.36950858065,-4786215.137666549,4202094.118620396,-2.30145,-0.153206,0.128279,89.75,-13.75,-11.625,0.0,0.0,0.0,0.0,0.0,0.0,2,0,41.450772421546006,-92.24276227285335,10002.620880384256,99.8232340568722,-0.004491562636631,0.0071747075789235,,8790.15738098984,10980.456319326084,150,9,2025-09-12,2025-09-26 20:39:30.523,AA,C,1819870400,HAWK11,1,1,73,2,1,1,225,2,1,0,0,12,1,225,2,1,-147369.25818045562,-4791586.646455611,4198064.864714146,2.36358,2.66299,-0.488189,-89.875,32.75,34.5,-0.1875,-7.10938,6.0,0.0507812,0.0,0.0,4,0,41.39995552891085,-91.76162434645924,11017.775113241796,-52.77803102057642,1.3347897401502948,-2.020482584163801,170.719,8790.15738098984,10980.456319326084,150,True,21.851254816183847,False,163.3420759701735,178.07115868456356,False,18.576169269731995,True,False
9,1970-07-23 10:31:35.718273735,2025-09-12,2025-09-26 20:39:31.827,AA,C,158613128,JASSM,3,139,76,2,2,1,225,9,2,0,1,26,0,0,0,0,-187346.59216483065,-4786230.401338424,4202081.227995396,-2.30145,-0.153206,0.128279,89.75,-13.75,-11.625,0.0,0.0,0.0,0.0,0.0,0.0,2,0,41.45061762727367,-92.24157447793638,10002.627263674884,99.82402034781416,-0.003587923183606,0.0071740792986516,,8790.15738098984,10980.456319326084,150,9,2025-09-12,2025-09-26 20:39:32.025,AA,C,1821301998,HAWK11,1,1,73,2,1,1,225,2,1,0,0,12,1,225,2,1,-147477.10388358062,-4791547.033174361,4198106.360807896,2.49051,2.66299,-0.498544,-89.375,33.0,34.625,-0.1875,-7.3125,6.79688,0.0722656,-0.0078125,0.0078125,4,0,41.40045154781125,-91.76292726585956,11018.528144305425,-52.37746512995491,1.772833011764021,5.263551831411987,170.45,8790.15738098984,10980.456319326084,150,True,21.734953887099362,False,163.08322703220128,178.01094527088105,False,18.89462552700425,True,False
9,1970-07-23 10:31:35.727098522,2025-09-12,2025-09-26 20:39:32.709,AA,C,159865826,JASSM,3,139,76,2,2,1,225,9,2,0,1,26,0,0,0,0,-187252.3050554556,-4786244.967744674,4202068.921354771,-2.30145,-0.153206,0.128279,89.75,-13.75,-11.625,0.0,0.0,0.0,0.0,0.0,0.0,2,0,41.45046986501428,-92.24044068483,10002.625505840137,99.82477088863595,-0.0027253638144472,0.0071734860287738,,8790.15738098984,10980.456319326084,150,9,2025-09-12,2025-09-26 20:39:32.725,AA,C,1822534764,HAWK11,1,1,73,2,1,1,225,2,1,0,0,12,1,225,2,1,-147568.24255545562,-4791512.973604049,4198142.087370396,2.54363,2.64324,-0.512733,-88.625,33.75,35.25,-0.046875,-6.90625,7.0,0.03125,0.00390625,0.0214844,4,0,41.40087862969315,-91.7640285720039,11019.165949209248,-51.0982451642796,1.7084583899735155,7.797677574532919,170.401,8790.15738098984,10980.456319326084,150,True,21.630687798796096,False,162.40458334886162,177.9577340967567,False,19.625313880056208,True,False
9,1970-07-23 10:31:35.738323852,2025-09-12,2025-09-26 20:39:33.832,AA,C,161118526,JASSM,3,139,76,2,2,1,225,9,2,0,1,26,0,0,0,0,-187158.0159929556,-4786259.534150924,4202056.612761021,-2.30145,-0.153206,0.128279,89.75,-13.75,-11.625,0.0,0.0,0.0,0.0,0.0,0.0,2,0,41.4503220788569,-92.23930687352428,10002.624069763902,99.82552143930486,-0.0018627850113651,0.0071728831685422,,8790.15738098984,10980.456319326084,150,9,2025-09-12,2025-09-26 20:39:34.025,AA,C,1823608464,HAWK11,1,1,73,2,1,1,225,2,1,0,0,12,1,225,2,1,-147649.06091483062,-4791481.729463424,4198174.935026646,2.56156,2.62455,-0.525484,-88.25,34.625,36.5,-0.109375,-6.875,7.3125,0.0507812,0.0175781,0.0214844,4,0,41.40127141133794,-91.76500556440234,11019.705917903484,-49.918117645836034,1.633771423086951,8.32807461369395,170.181,8790.15738098984,10980.456319326084,150,True,21.532258788144084,False,161.5503401493264,177.90732586880605,False,20.53095873071414,True,False
9,1970-07-23 10:31:35.748296606,2025-09-12,2025-09-26 20:39:34.829,AA,C,162311572,JASSM,3,139,76,2,2,1,225,9,2,0,1,26,0,0,0,0,-187068.21716483065,-4786273.405244674,4202044.892057896,-2.30145,-0.153206,0.128279,89.75,-13.75,-11.625,0.0,0.0,0.0,0.0,0.0,0.0,2,0,41.4501813415641,-92.23822706213494,10002.626870545526,99.82623624152616,-0.0010412881333819,0.0071723299503929,,8790.15738098984,10980.456319326084,150,9,2025-09-12,2025-09-26 20:39:34.819,AA,C,1824960528,HAWK11,1,1,73,2,1,1,225,2,1,0,0,12,1,225,2,1,-147748.51599295562,-4791442.009736861,4198216.921354771,2.61611,2.61333,-0.535168,-87.5,35.875,38.0,-0.1875,-6.96875,7.3125,0.0292969,0.0078125,0.00585938,4,0,41.40177287332688,-91.7662083354874,11020.644344950226,-49.13578967760164,1.6841533646249252,11.151457568532308,169.876,8790.15738098984,10980.456319326084,150,False,21.42536297716222,False,160.38769714286073,177.84330066478296,False,21.757723772088887,True,False
9,1970-07-23 10:31:35.758276543,2025-09-12,2025-09-26 20:39:35.827,AA,C,163504640,JASSM,3,139,76,2,2,1,225,9,2,0,1,26,0,0,0,0,-186978.4183367056,-4786287.276338424,4202033.167448521,-2.30145,-0.15311,0.128279,89.75,-13.75,-11.625,0.0,0.0,0.0,0.0,0.0,0.0,2,0,41.450040567782885,-92.23714725541362,10002.625497354957,99.82331476401308,-0.0042767191564378,0.0064691640078686,,8790.15738098984,10980.456319326084,150,9,2025-09-12,2025-09-26 20:39:35.725,AA,C,1825994460,HAWK11,1,1,73,2,1,1,225,2,1,0,0,12,1,225,2,1,-147825.33630545562,-4791410.124971236,4198250.679167271,2.6255,2.59463,-0.542742,-86.875,37.0,39.375,0.0,-7.0625,7.39062,-0.015625,0.00390625,0.0214844,4,0,41.40217632478895,-91.76713782714523,11021.2898333572,-48.15751994715997,1.4093461983221804,11.166587453257804,169.656,8790.15738098984,10980.456319326084,150,False,21.331463468758198,False,159.35370297366663,177.78965754126017,False,22.84554242291502,True,False
9,1970-07-23 10:31:35.769136382,2025-09-12,2025-09-26 20:39:36.913,AA,C,164816970,JASSM,3,139,76,2,2,1,225,9,2,0,1,26,0,0,0,0,-186879.6409929556,-4786302.532197799,4202020.270964146,-2.30145,-0.15311,0.128375,89.75,-13.75,-11.625,0.0,0.0,0.0,0.0,0.0,0.0,2,0,41.44988572250016,-92.2359594908478,10002.624609133522,99.8281915883749,-0.0070394579732703,0.0064681128743912,,8790.15738098984,10980.456319326084,150,9,2025-09-12,2025-09-26 20:39:36.745,AA,C,1826789794,HAWK11,1,1,73,2,1,1,225,2,1,0,0,12,1,225,2,1,-147884.03943045562,-4791385.144502486,4198277.354948521,2.5978,2.58035,-0.541879,-86.875,37.5,40.75,-0.140625,-6.9375,7.42188,-0.0820312,0.00585938,0.0292969,4,0,41.40249421823749,-91.76784834349436,11022.180272903704,-47.65718075513057,0.9168059352170316,9.16691370143502,168.996,8790.15738098984,10980.456319326084,150,True,21.243108804317476,False,158.69783774587037,177.74498206406457,False,23.54885947046142,True,False
9,1970-07-23 10:31:35.783858848,2025-09-12,2025-09-26 20:39:38.385,AA,C,166069668,JASSM,3,139,76,2,2,1,225,9,2,0,1,26,0,0,0,0,-186785.3519304556,-4786317.092744674,4202007.960417271,-2.30145,-0.15311,0.128375,89.75,-13.75,-11.625,0.0,0.0,0.0,0.0,0.0,0.0,2,0,41.44973791386863,-92.2348257026194,10002.6233128779,99.82894211514532,-0.0061768848029597,0.0064675377213512,,8790.15738098984,10980.456319326084,150,9,2025-09-12,2025-09-26 20:39:38.615,AA,C,1829255324,HAWK11,1,1,73,2,1,1,225,2,1,0,0,12,1,225,2,1,-148064.48278983062,-4791305.765596236,4198364.079557896,2.40269,2.57392,-0.549069,-87.0,38.25,43.125,0.0,-6.9375,7.3125,-0.00585938,0.0,0.00390625,4,0,41.40351868046144,-91.77003334952336,11028.812674104824,-47.152248487287935,1.0300089862354338,-2.1936651888241934,168.813,8790.15738098984,10980.456319326084,150,True,21.085889793439776,False,157.64806660838616,177.61101248508342,False,24.73670189782565,True,False
9,1970-07-23 10:31:35.790082662,2025-09-12,2025-09-26 20:39:39.008,AA,C,167322368,JASSM,3,139,76,2,2,1,225,9,2,0,1,26,0,0,0,0,-186691.06482108065,-4786331.655244674,4201995.647917271,-2.30145,-0.15311,0.128375,89.75,-13.75,-11.625,0.0,0.0,0.0,0.0,0.0,0.0,2,0,41.44959006880428,-92.23369194197232,10002.627512776182,99.82969262145949,-0.0053143238674142,0.0064669347704777,,8790.15738098984,10980.456319326084,150,9,2025-09-12,2025-09-26 20:39:38.913,AA,C,1829732524,HAWK11,1,1,73,2,1,1,225,2,1,0,0,12,1,225,2,1,-148098.82653983062,-4791290.643525924,4198381.020964146,2.41794,2.57575,-0.548782,-87.25,38.375,43.25,-0.015625,-7.125,7.45312,0.0527344,0.00195312,-0.0078125,4,0,41.4037166811805,-91.7704492340524,11030.987680750506,-47.23120073694989,1.0752078379783214,-1.267171767328028,169.216,8790.15738098984,10980.456319326084,150,True,21.014125263954707,False,157.6435711136777,177.57976367264575,False,24.772447058020756,True,False
9,1970-07-23 10:31:35.800316000,2025-09-12,2025-09-26 20:39:40.031,AA,C,168515414,JASSM,3,139,76,2,2,1,225,9,2,0,1,26,0,0,0,0,-186601.2659929556,-4786345.520479049,4201983.921354771,-2.30145,-0.15311,0.128375,89.75,-13.75,-11.625,0.0,0.0,0.0,0.0,0.0,0.0,2,0,41.44944927414678,-92.23261215759314,10002.625600432935,99.8304073954936,-0.0044928281071027,0.0064663829380968,,8790.15738098984,10980.456319326084,150,9,2025-09-12,2025-09-26 20:39:39.913,AA,C,1831084588,HAWK11,1,1,73,2,1,1,225,2,1,0,0,12,1,225,2,1,-148198.80896170562,-4791246.753877486,4198430.474089146,2.46539,2.58121,-0.547535,-87.75,38.5,44.0,0.09375,-6.71875,7.125,0.123047,0.00390625,0.0253906,4,0,41.404293196159806,-91.77165993227628,11037.942745332017,-47.48209759539985,1.1945377581639731,1.610344696345341,169.265,8790.15738098984,10980.456319326084,150,True,20.90643220906488,False,157.4852289341581,177.500104773848,False,25.011746872768033,True,False
9,1970-07-23 10:31:35.810295713,2025-09-12,2025-09-26 20:39:41.029,AA,C,169708464,JASSM,3,139,76,2,2,1,225,9,2,0,1,26,0,0,0,0,-186511.46716483065,-4786359.385713424,4201972.192839146,-2.30145,-0.15311,0.128375,89.75,-13.75,-11.625,0.0,0.0,0.0,0.0,0.0,0.0,2,0,41.44930845617603,-92.23153237788318,10002.62375598335,99.83112216444096,-0.0036713300770921,0.0064658180854102,,8790.15738098984,10980.456319326084,150,9,2025-09-12,2025-09-26 20:39:41.115,AA,C,1832476420,HAWK11,1,1,73,2,1,1,225,2,1,0,0,12,1,225,2,1,-148300.57263358062,-4791201.623018111,4198481.677214146,2.63921,2.56597,-0.563642,-87.375,39.375,45.125,-0.203125,-6.78125,7.15625,0.0722656,-0.00585938,0.0234375,4,0,41.40488856632809,-91.7728923908486,11045.785148717974,-46.32043132819585,1.4228029911258464,11.135504792124127,169.656,8790.15738098984,10980.456319326084,150,False,20.79766435306166,False,156.73108591019522,177.41685091322296,False,25.849158104444502,True,False
9,1970-07-23 10:31:35.821257541,2025-09-12,2025-09-26 20:39:42.125,AA,C,171020812,JASSM,3,139,76,2,2,1,225,9,2,0,1,26,0,0,0,0,-186412.6878679556,-4786374.635713424,4201959.292448521,-2.30145,-0.15311,0.128375,89.75,-13.75,-11.625,0.0,0.0,0.0,0.0,0.0,0.0,2,0,41.44915356188593,-92.23034461941091,10002.62445013341,99.8319084084991,-0.0027676805877693,0.0064652144291654,,8790.15738098984,10980.456319326084,150,9,2025-09-12,2025-09-26 20:39:42.319,AA,C,1833908020,HAWK11,1,1,73,2,1,1,225,2,1,0,0,12,1,225,2,1,-148404.56482108062,-4791153.025361861,4198536.020964146,2.66318,2.52685,-0.584638,-86.0,41.125,46.5,-0.203125,-6.78125,7.09375,-0.0429688,0.00390625,0.0332031,4,0,41.40552533520727,-91.77415277842556,11052.092915434743,-44.10276733820552,1.1613608926096928,11.341638452832434,170.01,8790.15738098984,10980.456319326084,150,False,20.682460754372737,False,155.35540464556686,177.32583233240194,False,27.314159233005647,True,False
9,1970-07-23 10:31:35.831138089,2025-09-12,2025-09-26 20:39:43.113,AA,C,172273510,JASSM,3,139,76,2,2,1,225,9,2,0,1,26,0,0,0,0,-186318.40075858065,-4786389.192354049,4201946.976042271,-2.30145,-0.15311,0.128375,89.75,-13.75,-11.625,0.0,0.0,0.0,0.0,0.0,0.0,2,0,41.44900568117524,-92.22921088184202,10002.624547531175,99.8326588908331,-0.0019051230369991,0.0064646193647211,,8790.15738098984,10980.456319326084,150,9,2025-09-12,2025-09-26 20:39:43.021,AA,C,1834703352,HAWK11,1,1,73,2,1,1,225,2,1,0,0,12,1,225,2,1,-148461.91247733062,-4791124.933564986,4198567.200651646,2.67258,2.5094,-0.589336,-85.375,42.0,47.5,-0.109375,-6.76562,7.04688,0.0527344,0.00195312,0.0234375,4,0,41.405892344664124,-91.77484832180788,11055.025208637531,-43.2839991401124,0.8546831215919125,11.340768110736564,169.79,8790.15738098984,10980.456319326084,150,False,20.597000892907115,False,154.57932465826755,177.26965538768164,False,28.146199378920876,True,False
9,1970-07-23 10:31:35.841117133,2025-09-12,2025-09-26 20:39:44.111,AA,C,173466556,JASSM,3,139,76,2,2,1,225,9,2,0,1,26,0,0,0,0,-186228.6019304556,-4786403.055635299,4201935.245573521,-2.30145,-0.153015,0.128375,89.75,-13.75,-11.625,0.0,0.0,0.0,0.0,0.0,0.0,2,0,41.44886482972132,-92.22813111775234,10002.627237379078,99.8297374636088,-0.0051405525077245,0.0057609985204289,,8790.15738098984,10980.456319326084,150,9,2025-09-12,2025-09-26 20:39:43.725,AA,C,1835578218,HAWK11,1,1,73,2,1,1,225,2,1,0,0,12,1,225,2,1,-148524.51794608062,-4791093.178682174,4198602.194792271,2.68552,2.50192,-0.591829,-84.75,43.25,48.5,-0.25,-6.89062,7.1875,0.00195312,0.00195312,0.0136719,4,0,41.40630591918,-91.77560804628956,11057.628438305885,-42.91627383174542,0.7481939036961136,11.849047515997531,169.974,8790.15738098984,10980.456319326084,150,False,20.510807575732024,False,153.71098607983143,177.20671111055367,False,29.07626883584071,True,False
9,1970-07-23 10:31:35.850095507,2025-09-12,2025-09-26 20:39:45.009,AA,C,174540298,JASSM,3,139,76,2,2,1,225,9,2,0,1,26,0,0,0,0,-186147.7816179556,-4786415.530244674,4201924.686979771,-2.30145,-0.153015,0.128375,89.75,-13.75,-11.625,0.0,0.0,0.0,0.0,0.0,0.0,2,0,41.44873806110827,-92.22715931881392,10002.624908048969,99.83038074647624,-0.0044011944292823,0.0057604498322743,,8790.15738098984,10980.456319326084,150,9,2025-09-12,2025-09-26 20:39:44.819,AA,C,1836970050,HAWK11,1,1,73,2,1,1,225,2,1,0,0,12,1,225,2,1,-148623.01403983062,-4791041.039033736,4198659.608854771,2.68514,2.47182,-0.600937,-83.625,44.75,50.25,-0.109375,-6.82812,7.17188,0.0351562,0.00390625,0.0292969,4,0,41.40698546759466,-91.77680413475412,11061.485649201595,-41.46718743975157,0.2944382358997899,10.871637785802054,170.01,8790.15738098984,10980.456319326084,150,False,20.408117858098013,False,152.37030926536053,177.10668007262188,False,30.516790545985227,False,False
9,1970-07-23 10:31:35.859097032,2025-09-12,2025-09-26 20:39:45.909,AA,C,175614040,JASSM,3,139,76,2,2,1,225,9,2,0,1,26,0,0,0,0,-186066.96325858065,-4786428.004854049,4201914.128386021,-2.30145,-0.153015,0.128375,89.75,-13.75,-11.625,0.0,0.0,0.0,0.0,0.0,0.0,2,0,41.44861128383139,-92.22618754700343,10002.626256220936,99.83102400976786,-0.0036618534982335,0.0057598976797164,,8790.15738098984,10980.456319326084,150,9,2025-09-12,2025-09-26 20:39:46.021,AA,C,1838282348,HAWK11,1,1,73,2,1,1,225,2,1,0,0,12,1,225,2,1,-148715.39489920562,-4790990.035127486,4198715.714323521,2.68571,2.45456,-0.609278,-82.625,46.5,51.75,0.0625,-6.95312,7.25,-0.046875,-0.00390625,0.0292969,4,0,41.40765054315098,-91.7779267643758,11064.837809565814,-40.53038965689461,0.1919125416804022,10.346296779932866,169.839,8790.15738098984,10980.456319326084,150,False,20.30887705910598,False,151.1049133634829,177.00692150470314,False,31.88048867602925,False,False
9,1970-07-23 10:31:35.869076130,2025-09-12,2025-09-26 20:39:46.907,AA,C,176747434,JASSM,3,139,76,2,2,1,225,9,2,0,1,26,0,0,0,0,-185981.65466483065,-4786441.170869674,4201902.981901646,-2.30145,-0.153015,0.128375,89.75,-13.75,-11.625,0.0,0.0,0.0,0.0,0.0,0.0,2,0,41.44847745544477,-92.22516178884044,10002.624607951037,99.8317030075104,-0.0028814359057661,0.0057593161853806,,8790.15738098984,10980.456319326084,150,9,2025-09-12,2025-09-26 20:39:46.743,AA,C,1838799314,HAWK11,1,1,73,2,1,1,225,2,1,0,0,12,1,225,2,1,-148750.84021170562,-4790969.924775924,4198737.933073521,2.67124,2.44545,-0.60947,-82.25,47.0,52.5,0.078125,-6.8125,7.23438,-0.03125,0.0,0.0234375,4,0,41.407913607968695,-91.77835770909988,11066.297024299149,-40.179377757567,-0.05225922351368,9.21865029329278,170.01,8790.15738098984,10980.456319326084,150,True,20.241011725635847,False,150.61307199159128,176.96247176982556,False,32.41714852384134,False,False
9,1970-07-23 10:31:35.879858774,2025-09-12,2025-09-26 20:39:47.985,AA,C,177880828,JASSM,3,139,76,2,2,1,225,9,2,0,1,26,0,0,0,0,-185896.34607108065,-4786454.336885299,4201891.835417271,-2.30145,-0.153015,0.128471,89.75,-13.75,-11.625,0.0,0.0,0.0,0.0,0.0,0.0,2,0,41.44834361790905,-92.22413603489342,10002.62684910494,99.83647261094748,-0.0057673420811264,0.0057584537767481,,8790.15738098984,10980.456319326084,150,9,2025-09-12,2025-09-26 20:39:48.021,AA,C,1840787646,HAWK11,1,1,73,2,1,1,225,2,1,0,0,12,1,225,2,1,-148888.14099295562,-4790888.942354049,4198826.888151646,2.62224,2.41103,-0.622029,-81.375,49.0,54.375,0.0,-6.8125,7.125,-0.125,-0.00390625,0.0,4,0,41.40897043828015,-91.78002819138764,11070.645657769464,-38.45262223095143,-0.4026197726348595,5.26599057116992,170.413,8790.15738098984,10980.456319326084,150,True,20.11216316711805,False,149.23772388775964,176.8031912243246,False,33.950702682053716,False,False
9,1970-07-23 10:31:35.887094807,2025-09-12,2025-09-26 20:39:48.709,AA,C,178954570,JASSM,3,139,76,2,2,1,225,9,2,0,1,26,0,0,0,0,-185815.52575858065,-4786466.807588424,4201881.272917271,-2.30145,-0.153015,0.128471,89.75,-13.75,-11.625,0.0,0.0,0.0,0.0,0.0,0.0,2,0,41.4482168124398,-92.22316425332431,10002.620788911145,99.83711587569228,-0.0050279847085521,0.0057579544615565,,8790.15738098984,10980.456319326084,150,9,2025-09-12,2025-09-26 20:39:49.225,AA,C,1842139710,HAWK11,1,1,73,2,1,1,225,2,1,0,0,12,1,225,2,1,-148980.23669608062,-4790833.052705611,4198888.269011021,2.45562,2.4002,-0.623563,-81.875,49.625,55.0,0.0625,-6.75,7.04688,-0.105469,-0.00976562,0.0,4,0,41.4097002080556,-91.78114929529548,11073.429212827674,-37.98932457767622,-0.6174218273043586,-4.647124713262416,170.853,8790.15738098984,10980.456319326084,150,True,20.01273273693393,False,149.0721367522337,176.68946850354106,False,34.23003942121073,False,False
9,1970-07-23 10:31:35.897316132,2025-09-12,2025-09-26 20:39:49.731,AA,C,180087966,JASSM,3,139,76,2,2,1,225,9,2,0,1,26,0,0,0,0,-185730.21716483065,-4786479.971650924,4201870.124479771,-2.30145,-0.153015,0.128471,89.75,-13.75,-11.625,0.0,0.0,0.0,0.0,0.0,0.0,2,0,41.44808295553876,-92.22213850849454,10002.621563164725,99.83779485932482,-0.0042475674277073,0.0057574269396224,,8790.15738098984,10980.456319326084,150,9,2025-09-12,2025-09-26 20:39:49.615,AA,C,1842616910,HAWK11,1,1,73,2,1,1,225,2,1,0,0,12,1,225,2,1,-149013.53552420562,-4790812.810518111,4198910.519011021,2.42752,2.40346,-0.624426,-82.125,49.5,55.25,0.265625,-6.85938,7.125,-0.0292969,-0.00390625,-0.00390625,4,0,41.409964652967865,-91.78155466906414,11074.476219064403,-38.08604059994396,-0.490077414135802,-6.146499571673005,170.89,8790.15738098984,10980.456319326084,150,True,19.946088850518624,False,149.1125916620489,176.64266254831222,False,34.237491168335254,False,False
9,1970-07-23 10:31:35.907861268,2025-09-12,2025-09-26 20:39:50.786,AA,C,181281012,JASSM,3,139,76,2,2,1,225,9,2,0,1,26,0,0,0,0,-185640.4183367056,-4786493.829072799,4201858.388151646,-2.30145,-0.153015,0.128471,89.75,-13.75,-11.625,0.0,0.0,0.0,0.0,0.0,0.0,2,0,41.44794203303774,-92.2210587777263,10002.62535797434,99.83850957657222,-0.0034260708215114,0.0057568616581146,,8790.15738098984,10980.456319326084,150,9,2025-09-12,2025-09-26 20:39:50.819,AA,C,1844048508,HAWK11,1,1,73,2,1,1,225,2,1,0,0,12,1,225,2,1,-149112.21130545562,-4790753.304658736,4198975.817839146,2.42273,2.42398,-0.609278,-83.5,50.0,55.0,-0.15625,-6.65625,6.82812,0.0214844,0.00390625,-0.00976562,4,0,41.41074114778551,-91.78275577082468,11077.382981683531,-39.37049656147019,-0.6473080521729566,-5.728144282360975,171.379,8790.15738098984,10980.456319326084,150,True,19.83796602275088,False,149.54196808632935,176.51946630669755,False,33.929638182434196,False,False
9,1970-07-23 10:31:35.916684493,2025-09-12,2025-09-26 20:39:51.668,AA,C,182354752,JASSM,3,139,76,2,2,1,225,9,2,0,1,26,0,0,0,0,-185559.59997733065,-4786506.297822799,4201847.825651646,-2.30145,-0.153015,0.128471,89.75,-13.75,-11.625,0.0,0.0,0.0,0.0,0.0,0.0,2,0,41.44781521274148,-92.22008703239156,10002.625738808283,99.83915281220582,-0.0026867332159646,0.0057563701487087,,8790.15738098984,10980.456319326084,150,9,2025-09-12,2025-09-26 20:39:51.725,AA,C,1845122208,HAWK11,1,1,73,2,1,1,225,2,1,0,0,12,1,225,2,1,-149187.13513358062,-4790708.596650924,4199024.448698521,2.45188,2.4375,-0.617715,-84.125,50.0,54.875,-0.1875,-6.85938,7.09375,0.0585938,0.00390625,0.00195312,4,0,41.41132149153388,-91.78366760133972,11078.700935243647,-39.60353000377813,0.1156078005953269,-3.611052043716336,171.77,8790.15738098984,10980.456319326084,150,True,19.74908415116497,False,149.7913108544965,176.42535061846021,False,33.77438284840444,False,False
9,1970-07-23 10:31:35.925298911,2025-09-12,2025-09-26 20:39:52.529,AA,C,183428494,JASSM,3,139,76,2,2,1,225,9,2,0,1,26,0,0,0,0,-185478.77966483065,-4786518.766572799,4201837.261198521,-2.30145,-0.153015,0.128471,89.75,-13.75,-11.625,0.0,0.0,0.0,0.0,0.0,0.0,2,0,41.447688371509535,-92.2191152674974,10002.625182783024,99.8397960591682,-0.0019473761790549,0.0057558690605774,,8790.15738098984,10980.456319326084,150,9,2025-09-12,2025-09-26 20:39:52.115,AA,C,1845599406,HAWK11,1,1,73,2,1,1,225,2,1,0,0,12,1,225,2,1,-149221.44177420562,-4790688.173799361,4199046.681120396,2.47786,2.43663,-0.620591,-84.375,49.875,55.0,-0.203125,-6.89062,7.17188,0.0703125,0.0078125,0.0,4,0,41.41158669684928,-91.78408510398329,11079.349074354255,-39.47457579450037,0.2259120739273104,-2.150645046395917,171.978,8790.15738098984,10980.456319326084,150,True,19.684425958068566,False,149.86770259571324,176.37753355206934,False,33.746664435836685,False,False
9,1970-07-23 10:31:35.936350202,2025-09-12,2025-09-26 20:39:53.635,AA,C,184681194,JASSM,3,139,76,2,2,1,225,9,2,0,1,26,0,0,0,0,-185384.49060233065,-4786533.311494674,4201824.936979771,-2.30145,-0.152919,0.128471,89.75,-13.75,-11.625,0.0,0.0,0.0,0.0,0.0,0.0,2,0,41.44754039760798,-92.21798156303905,10002.626391421602,99.83691041352424,-0.0051417300976479,0.0050517234845606,,8790.15738098984,10980.456319326084,150,9,2025-09-12,2025-09-26 20:39:54.021,AA,C,1847905872,HAWK11,1,1,73,2,1,1,225,2,1,0,0,12,1,225,2,1,-149384.02380545562,-4790591.195283736,4199151.968229771,2.54324,2.44334,-0.633342,-84.375,50.75,55.375,-0.015625,-6.71875,7.01562,0.0117188,0.0078125,0.015625,4,0,41.41284415308476,-91.78606380154206,11081.799801357782,-39.29846915464434,1.0019411681785908,1.8235531834306575,173.065,8790.15738098984,10980.456319326084,150,True,19.536184539474224,False,149.54824676843177,176.17840757050183,False,34.263871914854015,False,False
9,1970-07-23 10:31:35.944295863,2025-09-12,2025-09-26 20:39:54.429,AA,C,185754936,JASSM,3,139,76,2,2,1,225,9,2,0,1,26,0,0,0,0,-185303.6722429556,-4786545.778291549,4201814.370573521,-2.30145,-0.152919,0.128471,89.75,-13.75,-11.625,0.0,0.0,0.0,0.0,0.0,0.0,2,0,41.44741353658616,-92.21700983059506,10002.624543656775,99.83755363553875,-0.0044023906256164,0.0050511703324353,,8790.15738098984,10980.456319326084,150,9,2025-09-12,2025-09-26 20:39:54.319,AA,C,1848303538,HAWK11,1,1,73,2,1,1,225,2,1,0,0,12,1,225,2,1,-149411.24841483062,-4790574.776338424,4199169.800261021,2.53567,2.44459,-0.639862,-84.25,50.625,55.625,0.15625,-6.84375,7.09375,-0.0351562,0.0078125,0.00976562,4,0,41.4130571423693,-91.78639521186668,11082.207885158568,-39.12478475714008,1.3378174270804746,1.435645579504727,173.151,8790.15738098984,10980.456319326084,150,True,19.475780888571453,False,149.46158265787483,176.13712162309,False,34.392970763805586,False,False
9,1970-07-23 10:31:35.955048659,2025-09-12,2025-09-26 20:39:55.504,AA,C,186888328,JASSM,3,139,76,2,2,1,225,9,2,0,1,26,0,0,0,0,-185218.3636492056,-4786558.936494674,4201803.218229771,-2.30145,-0.152919,0.128471,89.75,-13.75,-11.625,0.0,0.0,0.0,0.0,0.0,0.0,2,0,41.44727963332178,-92.21598411378378,10002.625772703172,99.8382325898426,-0.0036219767324861,0.0050506011295307,,8790.15738098984,10980.456319326084,150,9,2025-09-12,2025-09-26 20:39:55.522,AA,C,1849655602,HAWK11,1,1,73,2,1,1,225,2,1,0,0,12,1,225,2,1,-149507.58239920562,-4790516.485322799,4199232.655729771,2.42014,2.43711,-0.64293,-84.625,51.0,55.625,0.078125,-6.5625,6.73438,-0.0820312,0.0,0.00195312,4,0,41.41381030187831,-91.78756799285917,11082.656003428983,-38.74442409128797,1.2791839102301534,-5.431052872107902,173.114,8790.15738098984,10980.456319326084,150,True,19.371914152627305,False,149.4993728005297,176.01235442010548,False,34.479043981906976,False,False
9,1970-07-23 10:31:35.963443416,2025-09-12,2025-09-26 20:39:56.344,AA,C,187962072,JASSM,3,139,76,2,2,1,225,9,2,0,1,26,0,0,0,0,-185137.5433367056,-4786571.401338424,4201792.649870396,-2.30145,-0.152919,0.128471,89.75,-13.75,-11.625,0.0,0.0,0.0,0.0,0.0,0.0,2,0,41.44715275432301,-92.2150123666808,10002.62187359948,99.83887581823043,-0.0028826204653741,0.0050500497039001,,8790.15738098984,10980.456319326084,150,9,2025-09-12,2025-09-26 20:39:56.319,AA,C,1850689534,HAWK11,1,1,73,2,1,1,225,2,1,0,0,12,1,225,2,1,-149580.80700858062,-4790472.558564986,4199279.782682896,2.40384,2.44497,-0.641587,-85.375,51.0,55.25,-0.046875,-6.67188,6.82812,0.0195312,0.0,-0.0195312,4,0,41.414376124305214,-91.7884593136299,11082.527969572831,-39.08201310118928,1.4300449334812175,-6.102876732583305,172.894,8790.15738098984,10980.456319326084,150,True,19.28433262635616,False,149.8603229854257,175.91589939521253,False,34.213764938529636,False,False
9,1970-07-23 10:31:35.973077208,2025-09-12,2025-09-26 20:39:57.307,AA,C,189095468,JASSM,3,139,76,2,2,1,225,9,2,0,1,26,0,0,0,0,-185052.2347429556,-4786584.559541549,4201781.495573521,-2.30145,-0.152919,0.128567,89.75,-13.75,-11.625,0.0,0.0,0.0,0.0,0.0,0.0,2,0,41.447018820068,-92.21398665808448,10002.626435231652,99.8436454192569,-0.0057684774335025,0.0050491864859026,,8790.15738098984,10980.456319326084,150,9,2025-09-12,2025-09-26 20:39:57.319,AA,C,1851564400,HAWK11,1,1,73,2,1,1,225,2,1,0,0,12,1,225,2,1,-149643.80310233062,-4790434.808564986,4199319.964323521,2.42465,2.45149,-0.63363,-86.125,51.375,54.875,-0.046875,-6.67188,6.875,0.0703125,0.0078125,-0.00585938,4,0,41.41486021555239,-91.78922612577372,11081.735698960692,-39.594371769973954,1.2407745825630443,-4.7002942413508,172.686,8790.15738098984,10980.456319326084,150,True,19.200415196698028,False,150.12829263800882,175.83079290109023,False,34.028568606422915,False,False
9,1970-07-23 10:31:35.983873202,2025-09-12,2025-09-26 20:39:58.387,AA,C,190228860,JASSM,3,139,76,2,2,1,225,9,2,0,1,26,0,0,0,0,-184966.9261492056,-4786597.713838424,4201770.339323521,-2.30145,-0.152919,0.128567,89.75,-13.75,-11.625,0.0,0.0,0.0,0.0,0.0,0.0,2,0,41.44688488674193,-92.21296095551182,10002.62104556263,99.84432435884764,-0.0049880642517457,0.0050486696137196,,8790.15738098984,10980.456319326084,150,9,2025-09-12,2025-09-26 20:39:58.529,AA,C,1853314132,HAWK11,1,1,73,2,1,1,225,2,1,0,0,12,1,225,2,1,-149770.98278983062,-4790358.963838424,4199400.659636021,2.53682,2.4466,-0.647052,-86.375,51.25,55.375,-0.125,-7.0625,7.20312,0.0429688,-0.00976562,0.00195312,4,0,41.41583245379204,-91.79077410257312,11080.126141412098,-38.95882426379498,1.729037549701057,1.5761049344525482,172.992,8790.15738098984,10980.456319326084,150,True,19.078699059631226,False,150.09458988986074,175.66863083752187,False,34.22698528210054,False,False
9,1970-07-23 10:31:35.991114334,2025-09-12,2025-09-26 20:39:59.111,AA,C,191362254,JASSM,3,139,76,2,2,1,225,9,2,0,1,26,0,0,0,0,-184881.61560233065,-4786610.870088424,4201759.183073521,-2.30145,-0.152919,0.128567,89.75,-13.75,-11.625,0.0,0.0,0.0,0.0,0.0,0.0,2,0,41.44675093309059,-92.21193523291184,10002.62415948009,99.84500330989118,-0.0042076312341111,0.0050481448014117,,8790.15738098984,10980.456319326084,150,9,2025-09-12,2025-09-26 20:39:59.115,AA,C,1853950398,HAWK11,1,1,73,2,1,1,225,2,1,0,0,12,1,225,2,1,-149816.25622733062,-4790331.905244674,4199429.548307896,2.55657,2.43893,-0.649737,-86.375,51.5,55.625,0.0,-6.84375,6.96875,0.00390625,0.0,0.0,4,0,41.4161799978886,-91.79132518489452,11079.76389022415,-38.58538641335468,1.6474663834591623,2.45341608599298,173.078,8790.15738098984,10980.456319326084,150,True,19.005352651540694,False,149.9624157157348,175.60303290128482,False,34.42473623622726,False,False
9,1970-07-23 10:31:36.001095515,2025-09-12,2025-09-26 20:40:00.109,AA,C,192495648,JASSM,3,139,76,2,2,1,225,9,2,0,1,26,0,0,0,0,-184796.30700858065,-4786624.024385299,4201748.026823521,-2.30145,-0.152919,0.128567,89.75,-13.75,-11.625,0.0,0.0,0.0,0.0,0.0,0.0,2,0,41.44661698146827,-92.21090953877716,10002.626548661734,99.84568224028774,-0.0034272180158539,0.005047627859211,,8790.15738098984,10980.456319326084,150,9,2025-09-12,2025-09-26 20:40:00.021,AA,C,1855103630,HAWK11,1,1,73,2,1,1,225,2,1,0,0,12,1,225,2,1,-149900.95544608062,-4790281.303682174,4199483.513151646,2.53682,2.42973,-0.657215,-86.375,51.75,56.125,-0.234375,-7.14062,7.21875,-0.0488281,0.0078125,0.00976562,4,0,41.41682951855192,-91.7923561781574,11078.96583450671,-37.99553912403505,1.7508276519232262,1.018942653864113,173.591,8790.15738098984,10980.456319326084,150,True,18.908826131302963,False,149.75835359766288,175.48898400232946,False,34.74370109122923,False,False
9,1970-07-23 10:31:36.010080815,2025-09-12,2025-09-26 20:40:01.008,AA,C,193629042,JASSM,3,139,76,2,2,1,225,9,2,0,1,26,0,0,0,0,-184710.9964617056,-4786637.176729049,4201736.868620396,-2.30145,-0.152919,0.128567,89.75,-13.75,-11.625,0.0,0.0,0.0,0.0,0.0,0.0,2,0,41.44648301959735,-92.209883826419,10002.623600879026,99.84636118094215,-0.0026467880164071,0.0050471126743007,,8790.15738098984,10980.456319326084,150,9,2025-09-12,2025-09-26 20:40:00.945,AA,C,1855739896,HAWK11,1,1,73,2,1,1,225,2,1,0,0,12,1,225,2,1,-149946.39685233062,-4790253.999971236,4199512.817839146,2.52167,2.4257,-0.658653,-86.5,51.875,56.25,0.15625,-7.125,7.23438,0.00976562,-0.00195312,0.0117188,4,0,41.41718128983486,-91.79290937617256,11078.921991071236,-37.79941668404702,1.7120811265589109,0.0159894209523562,174.41,8790.15738098984,10980.456319326084,150,True,18.835430635340888,False,149.7339629863369,175.4213368032146,False,34.835791224695996,False,False
9,1970-07-23 10:31:36.019074709,2025-09-12,2025-09-26 20:40:01.907,AA,C,194702784,JASSM,3,139,76,2,2,1,225,9,2,0,1,26,0,0,0,0,-184630.17810233065,-4786649.637666549,4201726.298307896,-2.30145,-0.152823,0.128567,89.75,-13.75,-11.625,0.0,0.0,0.0,0.0,0.0,0.0,2,0,41.4463560986824,-92.2089121282362,10002.627961042408,99.8433683777327,-0.0059643684771741,0.0043425735164777,,8790.15738098984,10980.456319326084,150,9,2025-09-12,2025-09-26 20:40:01.913,AA,C,1857211262,HAWK11,1,1,73,2,1,1,225,2,1,0,0,12,1,225,2,1,-150054.27575858062,-4790189.014619674,4199582.987761021,2.57316,2.42072,-0.660571,-86.5,52.375,56.75,-0.125,-6.90625,6.96875,0.0664062,-0.00585938,0.00585938,4,0,41.41802142687919,-91.794222766485,11079.720036057688,-37.5525740008698,1.6719245864751262,2.7983627742594246,175.179,8790.15738098984,10980.456319326084,150,True,18.727791061309386,False,149.47345810339235,175.2748486270514,False,35.24275198007938,False,False
9,1970-07-23 10:31:36.031054224,2025-09-12,2025-09-26 20:40:03.105,AA,C,195836178,JASSM,3,139,76,2,2,1,225,9,2,0,1,26,0,0,0,0,-184544.8675554556,-4786662.788057174,4201715.138151646,-2.30145,-0.152823,0.128567,89.75,-13.75,-11.625,0.0,0.0,0.0,0.0,0.0,0.0,2,0,41.446222117447405,-92.2078864249958,10002.623546408264,99.8440473088788,-0.0051839388765441,0.0043420070953062,,8790.15738098984,10980.456319326084,150,9,2025-09-12,2025-09-26 20:40:03.225,AA,C,1858921226,HAWK11,1,1,73,2,1,1,225,2,1,0,0,12,1,225,2,1,-150178.20935233062,-4790113.158174361,4199664.954557896,2.67871,2.40212,-0.67035,-85.75,53.0,57.875,-0.109375,-6.92188,6.89062,0.0742188,0.0078125,0.0253906,4,0,41.41900285354323,-91.79573210853322,11080.63846153985,-36.5451069659004,1.6505861159508557,8.21789092303732,176.035,8790.15738098984,10980.456319326084,150,True,18.60829728494371,False,148.76085567170824,175.1025875963887,False,36.12887559805569,False,False
9,1970-07-23 10:31:36.038313340,2025-09-12,2025-09-26 20:40:03.831,AA,C,196909920,JASSM,3,139,76,2,2,1,225,9,2,0,1,26,0,0,0,0,-184464.04919608065,-4786675.247041549,4201704.565886021,-2.30145,-0.152823,0.128567,89.75,-13.75,-11.625,0.0,0.0,0.0,0.0,0.0,0.0,2,0,41.446095178106624,-92.20691473549888,10002.626040877029,99.844690485706,-0.0044446030873331,0.0043414658973213,,8790.15738098984,10980.456319326084,150,9,2025-09-12,2025-09-26 20:40:03.819,AA,C,1859637026,HAWK11,1,1,73,2,1,1,225,2,1,0,0,12,1,225,2,1,-150229.95935233062,-4790080.291963424,4199700.341276646,2.7487,2.39109,-0.667282,-85.25,53.75,58.75,-0.03125,-6.92188,6.9375,0.0878906,0.00195312,0.0136719,4,0,41.419427575416,-91.79636281283304,11080.615239352926,-36.23687862191987,1.2253690149872685,11.844061104374628,176.548,8790.15738098984,10980.456319326084,150,False,18.533658447748156,False,148.17749043355178,175.02051923575513,False,36.79431755839047,False,False
9,1970-07-23 10:31:36.047314552,2025-09-12,2025-09-26 20:40:04.731,AA,C,198043314,JASSM,3,139,76,2,2,1,225,9,2,0,1,26,0,0,0,0,-184378.7386492056,-4786688.397432174,4201693.403776646,-2.30145,-0.152823,0.128567,89.75,-13.75,-11.625,0.0,0.0,0.0,0.0,0.0,0.0,2,0,41.44596116588165,-92.20588904047702,10002.624959048657,99.84536940789656,-0.0036641711983151,0.0043408864263561,,8790.15738098984,10980.456319326084,150,9,2025-09-12,2025-09-26 20:40:04.725,AA,C,1860591424,HAWK11,1,1,73,2,1,1,225,2,1,0,0,12,1,225,2,1,-150297.91443045562,-4790036.347627486,4199747.661589146,2.80076,2.3723,-0.673034,-84.0,54.875,59.75,0.0625,-6.96875,7.07812,0.0410156,0.00390625,0.0234375,4,0,41.41999572261311,-91.79719132421256,11080.505462127014,-35.35351906624077,1.0271201963670316,14.175668293817672,177.477,8790.15738098984,10980.456319326084,150,False,18.447010829045706,False,147.2264927543328,174.91301848565274,False,37.85188236237439,False,False
9,1970-07-23 10:31:36.058273081,2025-09-12,2025-09-26 20:40:05.827,AA,C,199355664,JASSM,3,139,76,2,2,1,225,9,2,0,1,26,0,0,0,0,-184279.95935233065,-4786703.622041549,4201680.479948521,-2.30145,-0.152823,0.128567,89.75,-13.75,-11.625,0.0,0.0,0.0,0.0,0.0,0.0,2,0,41.445805999801024,-92.20470141584865,10002.62494981182,99.8461555113502,-0.002760528703638,0.0043402303831455,,8790.15738098984,10980.456319326084,150,9,2025-09-12,2025-09-26 20:40:05.913,AA,C,1861784424,HAWK11,1,1,73,2,1,1,225,2,1,0,0,12,1,225,2,1,-150382.07849295562,-4789979.655244674,4199808.122526646,2.82473,2.34296,-0.666131,-82.625,56.75,60.875,-0.359375,-6.57812,6.57812,-0.0605469,0.00390625,0.0253906,4,0,41.42072537279139,-91.79821832650232,11078.826337196786,-34.46765080561771,-0.0242272511649962,14.51360959527532,178.357,8790.15738098984,10980.456319326084,150,False,18.34337815827574,False,146.03624952300515,174.77479924916852,False,39.17713820303559,False,False
9,1970-07-23 10:31:36.069134199,2025-09-12,2025-09-26 20:40:06.913,AA,C,200668016,JASSM,3,139,76,2,2,1,225,9,2,0,1,26,0,0,0,0,-184181.1800554556,-4786718.844697799,4201667.554167271,-2.30145,-0.152823,0.128567,89.75,-13.75,-11.625,0.0,0.0,0.0,0.0,0.0,0.0,2,0,41.44565081990646,-92.20351379777772,10002.621114076564,99.84694160804209,-0.0018568865830844,0.0043395726509959,,8790.15738098984,10980.456319326084,150,9,2025-09-12,2025-09-26 20:40:06.819,AA,C,1863176256,HAWK11,1,1,73,2,1,1,225,2,1,0,0,12,1,225,2,1,-150477.66052420562,-4789911.670869674,4199879.647917271,2.82933,2.32408,-0.669007,-81.0,58.625,62.375,-0.40625,-7.28125,7.21875,-0.00390625,0.0117188,0.0117188,4,0,41.42159474132624,-91.79938603515916,11074.286074396276,-33.66221020911453,-0.338302530923765,14.105022114597206,179.102,8790.15738098984,10980.456319326084,150,False,18.23288064719183,False,144.6693080584091,174.61061626246473,False,40.70617989644122,False,False
9,1970-07-23 10:31:36.080095538,2025-09-12,2025-09-26 20:40:08.009,AA,C,201980368,JASSM,3,139,76,2,2,1,225,9,2,0,1,26,0,0,0,0,-184082.40075858065,-4786734.067354049,4201654.628386021,-2.30145,-0.152823,0.128663,89.75,-13.75,-11.625,0.0,0.0,0.0,0.0,0.0,0.0,2,0,41.44549562774774,-92.20232618536612,10002.622492965678,99.85181839970043,-0.0046194668583034,0.0043387159366896,,8790.15738098984,10980.456319326084,150,9,2025-09-12,2025-09-26 20:40:07.863,AA,C,1863852288,HAWK11,1,1,73,2,1,1,225,2,1,0,0,12,1,225,2,1,-150524.54919608062,-4789877.181611861,4199916.026823521,2.79741,2.32149,-0.661529,-80.25,59.625,63.375,-0.09375,-7.40625,6.98438,-0.107422,0.0,0.015625,4,0,41.42203670628442,-91.79995930497736,11072.065136410838,-33.79032233004216,-0.7630026149314709,12.185570990967475,179.395,8790.15738098984,10980.456319326084,150,False,18.15116413036226,False,143.93668432219837,174.51799165889955,False,41.53100121017744,False,False
9,1970-07-23 10:31:36.092639152,2025-09-12,2025-09-26 20:40:09.263,AA,C,203292718,JASSM,3,139,76,2,2,1,225,9,2,0,1,26,0,0,0,0,-183983.62048514312,-4786749.290010299,4201641.700651646,-2.30145,-0.152823,0.128663,89.75,-13.75,-11.625,0.0,0.0,0.0,0.0,0.0,0.0,2,0,41.44534041037269,-92.20113856694292,10002.624752825475,99.8526044918204,-0.0037158138080456,0.0043381113630428,,8790.15738098984,10980.456319326084,150,9,2025-09-12,2025-09-26 20:40:09.319,AA,C,1866118986,HAWK11,1,1,73,2,1,1,225,2,1,0,0,12,1,225,2,1,-150674.88708670562,-4789761.830049361,4200038.614714146,2.71294,2.29081,-0.673801,-77.625,60.625,65.375,-0.140625,-7.875,6.53125,-0.140625,-0.00976562,0.0,4,0,41.42352226340535,-91.80179921087682,11066.142023165885,-32.2467967992978,-0.8787627667617521,6.235885396774739,180.19,8790.15738098984,10980.456319326084,150,True,18.00803262561948,False,142.28605752715933,174.24121306445443,False,43.46140899439244,False,False
9,1970-07-23 10:31:36.102272430,2025-09-12,2025-09-26 20:40:10.227,AA,C,204605070,JASSM,3,139,76,2,2,1,225,9,2,0,1,26,0,0,0,0,-183884.84118826807,-4786764.508760299,4201628.772917271,-2.30145,-0.152823,0.128663,89.75,-13.75,-11.625,0.0,0.0,0.0,0.0,0.0,0.0,2,0,41.4451852037622,-92.19995096764642,10002.622720149728,99.853390568858,-0.0028121746191958,0.004337527704093,,8790.15738098984,10980.456319326084,150,9,2025-09-12,2025-09-26 20:40:10.115,AA,C,1867073384,HAWK11,1,1,73,2,1,1,225,2,1,0,0,12,1,225,2,1,-150736.84411795562,-4789713.172822799,4200091.110807896,2.62483,2.27662,-0.679937,-77.125,60.625,65.75,-0.046875,-7.70312,6.3125,-0.0683594,-0.00195312,0.0371094,4,0,41.42415446769953,-91.8025579156431,11065.245755782627,-31.52273055881768,-0.8971233835376069,0.6673527474659681,180.556,8790.15738098984,10980.456319326084,150,True,17.917383273182878,False,142.01075367283946,174.11141415509974,False,43.86772705907043,False,False
9,1970-07-23 10:31:36.115036633,2025-09-12,2025-09-26 20:40:11.503,AA,C,205977074,JASSM,3,139,76,2,2,1,225,9,2,0,1,26,0,0,0,0,-183781.5706804556,-4786780.420869674,4201615.255339146,-2.30145,-0.152727,0.128663,89.75,-13.75,-11.625,0.0,0.0,0.0,0.0,0.0,0.0,2,0,41.44502290499259,-92.19870937702738,10002.62516064578,99.85057648667248,-0.0059243566431159,0.0036323241874193,,8790.15738098984,10980.456319326084,150,9,2025-09-12,2025-09-26 20:40:11.319,AA,C,1868544750,HAWK11,1,1,73,2,1,1,225,2,1,0,0,12,1,225,2,1,-150830.48864920562,-4789637.684541549,4200172.810026646,2.63816,2.28352,-0.676581,-76.375,60.875,66.0,-0.125,-7.42188,6.26562,0.015625,-0.00195312,-0.0078125,4,0,41.42513746484913,-91.80370541504904,11064.226531070291,-31.886455660179937,-0.9058016257000562,1.684997627631337,181.387,8790.15738098984,10980.456319326084,150,True,17.805509151646817,False,141.6231140864302,173.91618010609955,False,44.450628745503124,False,False
9,1970-07-23 10:31:36.125095998,2025-09-12,2025-09-26 20:40:12.509,AA,C,207289424,JASSM,3,139,76,2,2,1,225,9,2,0,1,26,0,0,0,0,-183682.7933367056,-4786795.637666549,4201602.325651646,-2.30145,-0.152727,0.128663,89.75,-13.75,-11.625,0.0,0.0,0.0,0.0,0.0,0.0,2,0,41.44486767130116,-92.19752181354964,10002.624937296408,99.85136253509675,-0.0050207350039102,0.0036316780136548,,8790.15738098984,10980.456319326084,150,9,2025-09-12,2025-09-26 20:40:12.225,AA,C,1869618448,HAWK11,1,1,73,2,1,1,225,2,1,0,0,12,1,225,2,1,-150898.86169608062,-4789583.141572799,4200231.993620396,2.65053,2.27835,-0.681759,-75.875,60.75,66.125,-0.21875,-7.6875,6.1875,0.0117188,-0.00195312,0.0371094,4,0,41.425848607089605,-91.80454304923522,11063.884124989008,-31.53772140367621,-0.766020215187926,2.202357937016209,181.998,8790.15738098984,10980.456319326084,150,True,17.71124768182442,False,141.43194566566928,173.76875244199974,False,44.79008460480009,False,False
9,1970-07-23 10:31:36.135313796,2025-09-12,2025-09-26 20:40:13.531,AA,C,208542124,JASSM,3,139,76,2,2,1,225,9,2,0,1,26,0,0,0,0,-183588.50134451807,-4786810.163057174,4201589.981901646,-2.30145,-0.152727,0.128663,89.75,-13.75,-11.625,0.0,0.0,0.0,0.0,0.0,0.0,2,0,41.444719469717306,-92.19638818127416,10002.625960339625,99.85211288419184,-0.0041581448529497,0.0036310557790433,,8790.15738098984,10980.456319326084,150,9,2025-09-12,2025-09-26 20:40:13.319,AA,C,1870851214,HAWK11,1,1,73,2,1,1,225,2,1,0,0,12,1,225,2,1,-150976.61560233062,-4789520.481416549,4200300.724089146,2.70613,2.26214,-0.689524,-75.25,59.0,67.75,-0.03125,-7.42188,6.07812,0.0371094,0.00195312,0.00585938,4,0,41.42667071121963,-91.80549586880092,11065.04061715973,-30.693512280203684,-0.7394691918031909,4.789656712597068,182.573,8790.15738098984,10980.456319326084,150,True,17.613969235394325,False,141.13390307785824,173.60016298437944,False,45.26422933297273,False,False
9,1970-07-23 10:31:36.146273210,2025-09-12,2025-09-26 20:40:14.627,AA,C,209794822,JASSM,3,139,76,2,2,1,225,9,2,0,1,26,0,0,0,0,-183494.2113054556,-4786824.686494674,4201577.636198521,-2.30145,-0.152727,0.128663,89.75,-13.75,-11.625,0.0,0.0,0.0,0.0,0.0,0.0,2,0,41.44457125496328,-92.1952545783966,10002.622877823744,99.85286321162144,-0.0032955722395122,0.0036304284262838,,8790.15738098984,10980.456319326084,150,9,2025-09-12,2025-09-26 20:40:14.725,AA,C,1872640712,HAWK11,1,1,73,2,1,1,225,2,1,0,0,12,1,225,2,1,-151086.87341483062,-4789428.808564986,4200400.099089146,2.80805,2.25035,-0.699975,-72.875,61.5,66.375,-0.140625,-7.65625,6.15625,0.113281,0.00390625,0.0410156,4,0,41.42786615121253,-91.80684810456262,11063.915885610622,-29.94767463995648,-0.4726508487360063,10.188699824736638,184.161,8790.15738098984,10980.456319326084,150,False,17.497616491967978,False,140.0896053116611,173.36047924029526,False,46.53881324383644,False,False
9,1970-07-23 10:31:36.157134049,2025-09-12,2025-09-26 20:40:15.713,AA,C,211107172,JASSM,3,139,76,2,2,1,225,9,2,0,1,26,0,0,0,0,-183395.43200858065,-4786839.901338424,4201564.704557896,-2.30145,-0.152727,0.128663,89.75,-13.75,-11.625,0.0,0.0,0.0,0.0,0.0,0.0,2,0,41.44441598449268,-92.19406700894125,10002.62859895256,99.85364925695508,-0.0023919337616239,0.0036297839073442,,8790.15738098984,10980.456319326084,150,9,2025-09-12,2025-09-26 20:40:16.063,AA,C,1873555344,HAWK11,1,1,73,2,1,1,225,2,1,0,0,12,1,225,2,1,-151141.98278983062,-4789381.497041549,4200451.310026646,2.90766,2.22724,-0.706686,-71.25,61.875,66.875,0.0,-7.17188,6.0,0.142578,0.00390625,0.0253906,4,0,41.42848292745856,-91.80752456401528,11063.038267641688,-28.878229076403443,-0.6225826228406723,15.029778630599807,184.675,8790.15738098984,10980.456319326084,150,False,17.411355368818903,False,139.26884747138425,173.22458981063977,False,47.49556516926676,False,False
9,1970-07-23 10:31:36.167133152,2025-09-12,2025-09-26 20:40:16.713,AA,C,212359872,JASSM,3,139,76,2,2,1,225,9,2,0,1,26,0,0,0,0,-183301.14196951807,-4786854.422822799,4201552.356901646,-2.30145,-0.152727,0.128663,89.75,-13.75,-11.625,0.0,0.0,0.0,0.0,0.0,0.0,2,0,41.444267745308906,-92.19293341752264,10002.6262042832,99.85439957227965,-0.0015293614978779,0.0036291548249999,,8790.15738098984,10980.456319326084,150,9,2025-09-12,2025-09-26 20:40:16.819,AA,C,1875066476,HAWK11,1,1,73,2,1,1,225,2,1,0,0,12,1,225,2,1,-151230.41052420562,-4789301.790010299,4200536.894011021,2.99788,2.17892,-0.719341,-67.625,63.5,67.375,-0.015625,-7.48438,6.29688,0.0,0.0,0.0234375,4,0,41.42951817596142,-91.80861145919047,11059.722660400266,-26.686639546204265,-0.9457144746569242,18.357870989047026,185.445,8790.15738098984,10980.456319326084,150,False,17.307901905418948,False,137.40333673788,173.00915871626376,False,49.57153345375992,False,False
9,1970-07-23 10:31:36.178333923,2025-09-12,2025-09-26 20:40:17.833,AA,C,213612570,JASSM,3,139,76,2,2,1,225,9,2,0,1,26,0,0,0,0,-183206.8519304556,-4786868.942354049,4201540.009245396,-2.30145,-0.152727,0.128759,89.75,-13.75,-11.625,0.0,0.0,0.0,0.0,0.0,0.0,2,0,41.444119506577294,-92.19179983215756,10002.623761159402,99.85924062797667,-0.0043329635639973,0.0036283585557318,,8790.15738098984,10980.456319326084,150,9,2025-09-12,2025-09-26 20:40:17.819,AA,C,1876219708,HAWK11,1,1,73,2,1,1,225,2,1,0,0,12,1,225,2,1,-151294.37341483062,-4789240.297822799,4200602.493620396,2.94246,2.1399,-0.723368,-65.125,64.5,68.125,-0.15625,-7.625,6.29688,-0.0820312,0.00976562,0.0214844,4,0,41.43031476269064,-91.80939911922044,11055.915702480634,-25.07531830355965,-1.4687893444742848,13.67247313170721,186.166,8790.15738098984,10980.456319326084,150,False,17.218824769038257,False,136.02994137392218,172.83629125336884,False,51.116180292281456,False,False
9,1970-07-23 10:31:36.188314338,2025-09-12,2025-09-26 20:40:18.831,AA,C,214865270,JASSM,3,139,76,2,2,1,225,9,2,0,1,26,0,0,0,0,-183112.56189139312,-4786883.461885299,4201527.661589146,-2.30145,-0.152727,0.128759,89.75,-13.75,-11.625,0.0,0.0,0.0,0.0,0.0,0.0,2,0,41.44397125667215,-92.19066625195256,10002.626069403366,99.8599909314984,-0.0034703938634228,0.0036278023123333,,8790.15738098984,10980.456319326084,150,9,2025-09-12,2025-09-26 20:40:19.065,AA,C,1877651306,HAWK11,1,1,73,2,1,1,225,2,1,0,0,12,1,225,2,1,-151371.37146170562,-4789162.262666549,4200685.876432896,2.89817,2.12197,-0.723847,-62.75,65.25,69.25,-0.3125,-7.51562,6.5625,-0.0078125,-0.0195312,0.00195312,4,0,41.431327341484376,-91.81034883967358,11051.062944356489,-24.364973550756527,-1.7646971180336222,10.434659873721714,187.155,8790.15738098984,10980.456319326084,150,False,17.122046771222532,False,134.66407004889138,172.61968899432006,False,52.69969425481109,False,False
9,1970-07-23 10:31:36.200654714,2025-09-12,2025-09-26 20:40:20.065,AA,C,216117968,JASSM,3,139,76,2,2,1,225,9,2,0,1,26,0,0,0,0,-183018.27087576807,-4786897.981416549,4201515.311979771,-2.30145,-0.152631,0.128759,89.75,-13.75,-11.625,0.0,0.0,0.0,0.0,0.0,0.0,2,0,41.44382298263983,-92.18953266523668,10002.6287959664,99.85710543877856,-0.0066647194121117,0.0029221880057221,,8790.15738098984,10980.456319326084,150,9,2025-09-12,2025-09-26 20:40:20.225,AA,C,1879122672,HAWK11,1,1,73,2,1,1,225,2,1,0,0,12,1,225,2,1,-151447.97107108062,-4789080.691377486,4200773.147917271,2.95349,2.09561,-0.728066,-60.75,66.25,70.5,-0.21875,-7.25,6.95312,0.0566406,0.00195312,0.0234375,4,0,41.43238727218488,-91.81129516452783,11045.937742920076,-23.23406852619228,-1.9994360092672627,12.564419831620778,186.997,8790.15738098984,10980.456319326084,150,False,17.025555913302124,False,133.38457409352785,172.39108661523127,False,54.208300194100985,False,False
9,1970-07-23 10:31:36.219460383,2025-09-12,2025-09-26 20:40:21.946,AA,C,217370666,JASSM,3,139,76,2,2,1,225,9,2,0,1,26,0,0,0,0,-182923.9808367056,-4786912.497041549,4201502.960417271,-2.30145,-0.152631,0.128759,89.75,-13.75,-11.625,0.0,0.0,0.0,0.0,0.0,0.0,2,0,41.4436747072872,-92.18839909713832,10002.622524669758,99.85785572991816,-0.0058021504916767,0.0029215736569709,,8790.15738098984,10980.456319326084,150,9,2025-09-12,2025-09-26 20:40:21.725,AA,C,1880951936,HAWK11,1,1,73,2,1,1,225,2,1,0,0,12,1,225,2,1,-151538.99060233062,-4788977.968721236,4200883.431120396,3.05579,2.04297,-0.735352,-57.75,68.25,72.75,-0.09375,-7.04688,7.07812,0.0742188,0.0117188,0.0351562,4,0,41.4337256357972,-91.8124218681142,11039.904940179307,-20.998793382064985,-2.4628285087374056,16.323622142107247,187.278,8790.15738098984,10980.456319326084,150,False,16.920637338828925,False,131.32544233627826,172.10468413971333,False,56.553837491791754,False,False
9,1970-07-23 10:31:36.220115221,2025-09-12,2025-09-26 20:40:22.011,AA,C,218683018,JASSM,3,139,76,2,2,1,225,9,2,0,1,26,0,0,0,0,-182825.20056326807,-4786927.704072799,4201490.020964146,-2.30145,-0.152631,0.128759,89.75,-13.75,-11.625,0.0,0.0,0.0,0.0,0.0,0.0,2,0,41.443519360047496,-92.18721155227809,10002.622092075297,99.85864174507049,-0.0048985048631721,0.0029209311909433,,8790.15738098984,10980.456319326084,150,9,2025-09-12,2025-09-26 20:40:22.225,AA,C,1881468902,HAWK11,1,1,73,2,1,1,225,2,1,0,0,12,1,225,2,1,-151564.21521170562,-4788947.808564986,4200915.614714146,3.09577,2.02677,-0.738899,-56.75,68.875,73.375,-0.296875,-7.04688,7.10938,0.0507812,0.015625,0.0332031,4,0,41.4341175449722,-91.81273476444046,11037.593624735582,-20.28371267494021,-2.5178672316428,17.95926954231895,187.192,8790.15738098984,10980.456319326084,150,False,16.85210427569825,False,130.67744737045885,172.00142513305784,False,57.30476918148338,False,False
9,1970-07-23 10:31:36.231273842,2025-09-12,2025-09-26 20:40:23.127,AA,C,219995370,JASSM,3,139,76,2,2,1,225,9,2,0,1,26,0,0,0,0,-182726.42028983065,-4786942.911104049,4201477.081511021,-2.30145,-0.152631,0.128759,89.75,-13.75,-11.625,0.0,0.0,0.0,0.0,0.0,0.0,2,0,41.44336400054532,-92.18602401308284,10002.626874154095,99.8594277540494,-0.0039948592103891,0.0029202886779993,,8790.15738098984,10980.456319326084,150,9,2025-09-12,2025-09-26 20:40:23.021,AA,C,1882542602,HAWK11,1,1,73,2,1,1,225,2,1,0,0,12,1,225,2,1,-151614.43103201812,-4788885.584932174,4200981.903776646,3.12865,1.99523,-0.741776,-54.5,70.5,74.5,-0.296875,-7.20312,7.15625,0.00976562,0.00390625,0.0351562,4,0,41.43492570071784,-91.8133584991643,11032.450308658965,-18.972362418109867,-2.81717404654124,18.56341790519745,187.388,8790.15738098984,10980.456319326084,150,False,16.768880454672797,False,129.24857767765795,171.81412622555104,False,58.918256790478836,False,False
9,1970-07-23 10:31:36.243052196,2025-09-12,2025-09-26 20:40:24.305,AA,C,221307720,JASSM,3,139,76,2,2,1,225,9,2,0,1,26,0,0,0,0,-182627.64001639312,-4786958.116182174,4201464.138151646,-2.30145,-0.152631,0.128759,89.75,-13.75,-11.625,0.0,0.0,0.0,0.0,0.0,0.0,2,0,41.443208614054,-92.18483648044412,10002.62358848278,99.86021375626548,-0.0030912116695897,0.0029196314944887,,8790.15738098984,10980.456319326084,150,9,2025-09-12,2025-09-26 20:40:24.225,AA,C,1883854900,HAWK11,1,1,73,2,1,1,225,2,1,0,0,12,1,225,2,1,-151673.88611014312,-4788806.700166549,4201065.552214146,3.13411,1.95132,-0.745515,-51.75,72.0,76.25,0.015625,-7.07812,7.20312,-0.0332031,0.0195312,0.0253906,4,0,41.43594840521734,-91.81409898914856,11024.762762653205,-17.145811157856105,-3.197462454105899,17.077541389676934,188.267,8790.15738098984,10980.456319326084,150,False,16.680248526944943,False,127.5284083324522,171.5815450572524,False,60.87131660145945,False,False
9,1970-07-23 10:31:36.253094899,2025-09-12,2025-09-26 20:40:25.309,AA,C,222620064,JASSM,3,139,76,2,2,1,225,9,2,0,1,26,0,0,0,0,-182528.86071951807,-4786973.319307174,4201451.196745396,-2.30145,-0.152631,0.128759,89.75,-13.75,-11.625,0.0,0.0,0.0,0.0,0.0,0.0,2,0,41.44305323988064,-92.18364896603316,10002.62505027733,99.86099974399151,-0.0021875775911344,0.0029189968684856,,8790.15738098984,10980.456319326084,150,9,2025-09-12,2025-09-26 20:40:25.021,AA,C,1884928598,HAWK11,1,1,73,2,1,1,225,2,1,0,0,12,1,225,2,1,-151719.93103201812,-4788741.678682174,4201134.612761021,3.0717,1.92658,-0.750021,-49.875,73.25,77.625,0.03125,-7.45312,7.40625,-0.113281,0.0,0.0253906,4,0,41.4367926934685,-91.81467396515455,11018.446453422624,-16.07530550105127,-3.2533493809597056,12.47766208315518,188.573,8790.15738098984,10980.456319326084,150,False,16.59957877851726,False,126.3106923001923,171.3825821312964,False,62.287984244287045,False,False
