Subject_cm,Timestamp,SampleDate_cm,SampleTime_cm,Configuration_cm,Scenario_cm,DisTime_cm,MarkingTxt_cm,Application_cm,EntId_cm,Site_cm,ExerciseId_cm,ForceId_cm,Category_cm,Country_cm,Domain_cm,Kind_cm,Extra_cm,Specific_cm,Subcategory_cm,AltCategory_cm,AltCountry_cm,AltDomain_cm,AltKind_cm,ECEF_X_cm,ECEF_Y_cm,ECEF_Z_cm,OriPhi_cm,OriPsi_cm,OriTheta_cm,LinVelX_cm,LinVelY_cm,LinVelZ_cm,LinAccX_cm,LinAccY_cm,LinAccZ_cm,AngVelX_cm,AngVelY_cm,AngVelZ_cm,DrAlg_cm,Appearance_cm,Latitude_cm,Longitude_cm,Altitude_cm,Heading_cm,Pitch_cm,Roll_cm,CalibratedAirspeed_cm,CM_Altitude_Lead_cm,CM_Altitude_Wing_cm,CM_Airspeed_cm,Subject_ac,SampleDate_ac,SampleTime_ac,Configuration_ac,Scenario_ac,DisTime_ac,MarkingTxt_ac,Application_ac,EntId_ac,Site_ac,ExerciseId_ac,ForceId_ac,Category_ac,Country_ac,Domain_ac,Kind_ac,Extra_ac,Specific_ac,Subcategory_ac,AltCategory_ac,AltCountry_ac,AltDomain_ac,AltKind_ac,ECEF_X_ac,ECEF_Y_ac,ECEF_Z_ac,OriPhi_ac,OriPsi_ac,OriTheta_ac,LinVelX_ac,LinVelY_ac,LinVelZ_ac,LinAccX_ac,LinAccY_ac,LinAccZ_ac,AngVelX_ac,AngVelY_ac,AngVelZ_ac,DrAlg_ac,Appearance_ac,Latitude_ac,Longitude_ac,Altitude_ac,Heading_ac,Pitch_ac,Roll_ac,CalibratedAirspeed_ac,CM_Altitude_Lead_ac,CM_Altitude_Wing_ac,CM_Airspeed_ac,Bank_Angle_Condition,distance_nm,Distance_Condition,angle_between_vel,angle_between_pos,Cone_Condition,angle_between_pos_nose,Nose_Cone_Condition,Intercept_Criteria
9,1970-07-23 10:31:21.546255829,2025-09-12,2025-09-26 20:15:54.625,HA,C,2763033574,JASSM,3,113,76,2,2,1,225,9,2,0,1,26,0,0,0,0,-155735.85486014312,-4778602.565400924,4214723.030729771,-2.71093,-1.01118,0.751842,37.625,-59.875,-66.125,0.0,0.0,0.0,0.0,0.0,0.0,2,0,41.58801547240071,-91.8666231345501,15986.875148946909,155.93865810779678,-0.0032230718390875,-0.0006581431802672,,14957.496266617703,17020.816047025746,150,9,2025-09-12,2025-09-26 20:15:54.835,HA,C,130902304,HAWK11,1,1,73,2,1,1,225,2,1,0,0,12,1,225,2,1,-140816.34411795562,-4793343.904268111,4199062.729948521,2.41391,2.71438,-0.430857,-116.5,37.5,39.0,-0.078125,-7.20312,6.35938,-0.0332031,-0.00195312,0.00390625,4,0,41.3974110526129,-91.68272139920388,17020.816047025746,-56.89864274297283,0.6941424705609576,2.064133889018902,172.65,14957.496266617703,17020.816047025746,150,True,14.103088415410324,False,137.76501162922227,168.08054646680924,False,30.342258449647698,False,False
9,1970-07-23 10:31:21.557959312,2025-09-12,2025-09-26 20:15:55.795,HA,C,2764286272,JASSM,3,113,76,2,2,1,225,9,2,0,1,26,0,0,0,0,-155696.36853201812,-4778665.616182174,4214653.472136021,-2.71093,-1.01118,0.751842,37.625,-59.875,-66.125,0.0,0.0,0.0,0.0,0.0,0.0,2,0,41.58717876029492,-91.8661255879124,15986.87816692714,155.93898836156708,-0.0023073368833661,-0.0006594793334779,,14957.496266617703,17020.816047025746,150,9,2025-09-12,2025-09-26 20:15:55.475,HA,C,131101138,HAWK11,1,1,73,2,1,1,225,2,1,0,0,12,1,225,2,1,-140835.78552420562,-4793337.637666549,4199069.222136021,2.40701,2.71352,-0.431528,-116.5,37.375,39.125,-0.03125,-7.15625,6.40625,-0.0371094,-0.00390625,0.00976562,4,0,41.3974887361216,-91.68295578468675,17020.890258248328,-56.8397599536399,0.6910543559322838,1.6487072587518323,172.821,14957.496266617703,17020.816047025746,150,True,14.03944162288525,False,137.76958974190333,168.05783050326482,False,30.317080753361186,False,False
9,1970-07-23 10:31:21.568339685,2025-09-12,2025-09-26 20:15:56.833,HA,C,2765538972,JASSM,3,113,76,2,2,1,225,9,2,0,1,26,0,0,0,0,-155656.88122733062,-4778728.665010299,4214583.913542271,-2.71083,-1.01118,0.751842,37.625,-59.875,-66.125,0.0,0.0,0.0,0.0,0.0,0.0,2,0,41.586342057761485,-91.86562804318817,15986.881657134987,155.93931860861116,-0.0013916092778218,0.0048443292622285,,14957.496266617703,17020.816047025746,150,9,2025-09-12,2025-09-26 20:15:56.741,HA,C,133248536,HAWK11,1,1,73,2,1,1,225,2,1,0,0,12,1,225,2,1,-141045.29528983062,-4793270.086885299,4199140.050261021,2.38592,2.69894,-0.438527,-116.5,37.875,39.625,0.0,-7.17188,6.82812,-0.0996094,0.00585938,-0.00585938,4,0,41.39833181170737,-91.68548167518948,17023.535638245547,-56.01637491409658,0.4618022432600964,0.096970209378562,173.078,14957.496266617703,17020.816047025746,150,True,13.878449530995514,False,138.0544504951487,168.2685283989336,False,30.243578046485673,False,False
9,1970-07-23 10:31:21.579158274,2025-09-12,2025-09-26 20:15:57.915,HA,C,2766851322,JASSM,3,113,76,2,2,1,225,9,2,0,1,26,0,0,0,0,-155615.51501639312,-4778794.713838424,4214511.038542271,-2.71083,-1.01118,0.751842,37.625,-59.875,-66.125,0.0,0.0,0.0,0.0,0.0,0.0,2,0,41.58546549586961,-91.86510683781,15986.876542471966,155.9396645546458,-0.0004322682649639,0.0048429242284886,,14957.496266617703,17020.816047025746,150,9,2025-09-12,2025-09-26 20:15:58.039,HA,C,134680134,HAWK11,1,1,73,2,1,1,225,2,1,0,0,12,1,225,2,1,-141185.47693045562,-4793225.064424361,4199187.302214146,2.37048,2.70259,-0.441786,-116.875,37.75,39.75,-0.296875,-7.20312,6.95312,0.0429688,0.00976562,0.00390625,4,0,41.39889389836049,-91.68717170674203,17025.451388315665,-56.02619884635567,0.7286281446785546,-0.6983358610879351,173.383,14957.496266617703,17020.816047025746,150,True,13.750578462532888,False,137.98809547568268,168.3950391540318,False,30.439257979599617,False,False
9,1970-07-23 10:31:21.589198228,2025-09-12,2025-09-26 20:15:58.919,HA,C,2768044368,JASSM,3,113,76,2,2,1,225,9,2,0,1,26,0,0,0,0,-155577.90857108062,-4778854.756807174,4214444.788542271,-2.71083,-1.01118,0.751842,37.625,-59.875,-66.125,0.0,0.0,0.0,0.0,0.0,0.0,2,0,41.58466862788869,-91.86463301795752,15986.873431249474,155.93997904370872,0.0004398549224025,0.0048416565831975,,14957.496266617703,17020.816047025746,150,9,2025-09-12,2025-09-26 20:15:58.631,HA,C,135236866,HAWK11,1,1,73,2,1,1,225,2,1,0,0,12,1,225,2,1,-141239.31872733062,-4793207.740205611,4199205.640104771,2.38793,2.70316,-0.441595,-117.0,36.875,40.625,-0.296875,-7.29688,6.92188,0.0410156,0.00195312,-0.0078125,4,0,41.39911124598744,-91.68782084291868,17026.522654986806,-56.055809523840665,0.7416914999770917,0.3152203141715788,173.42,14957.496266617703,17020.816047025746,150,True,13.671829865399808,False,137.99240557244272,168.4185730817459,False,30.474704805088958,False,False
9,1970-07-23 10:31:21.601157031,2025-09-12,2025-09-26 20:16:00.115,HA,C,2769356720,JASSM,3,113,76,2,2,1,225,9,2,0,1,26,0,0,0,0,-155536.54138358062,-4778920.803682174,4214371.913542271,-2.71083,-1.01118,0.751842,37.625,-59.875,-66.125,0.0,0.0,0.0,0.0,0.0,0.0,2,0,41.58379207307682,-91.86411182855954,15986.874637788907,155.9403249677061,0.0013991887326801,0.0048402638054192,,14957.496266617703,17020.816047025746,150,9,2025-09-12,2025-09-26 20:16:00.241,HA,C,137344498,HAWK11,1,1,73,2,1,1,225,2,1,0,0,12,1,225,2,1,-141446.81872733062,-4793140.888643111,4199276.876432896,2.40672,2.69722,-0.453195,-117.0,37.875,40.625,-0.015625,-7.1875,6.89062,-0.0234375,0.0,0.0078125,4,0,41.39995316331233,-91.69032260812789,17031.680709240583,-55.37745295406231,1.015334015310116,1.255333786871739,174.116,14957.496266617703,17020.816047025746,150,True,13.509281352714154,False,138.26001510458008,168.63331884439827,False,30.413426786062566,False,False
9,1970-07-23 10:31:21.616783506,2025-09-12,2025-09-26 20:16:01.678,HA,C,2770609418,JASSM,3,113,76,2,2,1,225,9,2,0,1,26,0,0,0,0,-155497.05407889312,-4778983.846650924,4214302.351042271,-2.71083,-1.01109,0.751938,37.625,-59.875,-66.125,0.0,0.0,0.0,0.0,0.0,0.0,2,0,41.582955370019896,-91.86361433811518,15986.876866601566,155.93930328701248,-0.0043496669681854,0.0010881769670947,,14957.496266617703,17020.816047025746,150,9,2025-09-12,2025-09-26 20:16:01.335,HA,C,138736330,HAWK11,1,1,73,2,1,1,225,2,1,0,0,12,1,225,2,1,-141582.86755545562,-4793096.976533736,4199324.095182896,2.35974,2.693,-0.459044,-117.125,37.875,41.0,0.0,-7.14062,6.875,-0.0878906,0.0078125,0.0,4,0,41.40050907694902,-91.69196297075617,17035.990680564068,-54.990717494749575,1.1116321813773251,-1.5353412917247615,174.495,14957.496266617703,17020.816047025746,150,True,13.385754944585237,False,138.34789911300916,168.76192417461843,False,30.458510926282756,False,False
9,1970-07-23 10:31:21.620339305,2025-09-12,2025-09-26 20:16:02.033,HA,C,2771862116,JASSM,3,113,76,2,2,1,225,9,2,0,1,26,0,0,0,0,-155457.56775076812,-4779046.889619674,4214232.784636021,-2.71083,-1.01109,0.751938,37.625,-59.875,-66.125,0.0,0.0,0.0,0.0,0.0,0.0,2,0,41.58211863821139,-91.86311687221064,15986.876007933124,155.93963345436174,-0.0034339267364172,0.0010868145815165,,14957.496266617703,17020.816047025746,150,9,2025-09-12,2025-09-26 20:16:02.037,HA,C,139571428,HAWK11,1,1,73,2,1,1,225,2,1,0,0,12,1,225,2,1,-141664.98474295562,-4793070.428682174,4199352.700651646,2.33088,2.68964,-0.459715,-117.25,37.875,40.875,0.015625,-7.10938,6.79688,0.0292969,-0.00195312,0.00390625,4,0,41.40084557145779,-91.69295309933058,17038.719274419323,-54.83943342282864,1.0224457276530257,-3.271043750460692,174.63,14957.496266617703,17020.816047025746,150,True,13.289829051194017,False,138.28705814418103,168.82230101052625,False,30.579383617309677,False,False
9,1970-07-23 10:31:21.631298836,2025-09-12,2025-09-26 20:16:03.129,HA,C,2773114816,JASSM,3,113,76,2,2,1,225,9,2,0,1,26,0,0,0,0,-155418.08044608062,-4779109.930635299,4214163.218229771,-2.71083,-1.01109,0.751938,37.625,-59.875,-66.125,0.0,0.0,0.0,0.0,0.0,0.0,2,0,41.5812819159742,-91.86261940821484,15986.875621284522,155.9399636149876,-0.0025181938529065,0.0010854644740105,,14957.496266617703,17020.816047025746,150,9,2025-09-12,2025-09-26 20:16:03.131,HA,C,140804194,HAWK11,1,1,73,2,1,1,225,2,1,0,0,12,1,225,2,1,-141787.29724295562,-4793031.032197799,4199395.118620396,2.38083,2.69367,-0.456839,-117.625,37.75,40.875,-0.078125,-7.10938,6.75,0.0332031,-0.0078125,0.0,4,0,41.40134461136044,-91.69442784997791,17042.739799694198,-55.104074063882805,1.0452719373935777,-0.3115765092038289,175.094,14957.496266617703,17020.816047025746,150,True,13.173455953616571,False,138.18302859981577,168.93674304733608,False,30.800134917620554,False,False
9,1970-07-23 10:31:21.641315360,2025-09-12,2025-09-26 20:16:04.131,HA,C,2774307862,JASSM,3,113,76,2,2,1,225,9,2,0,1,26,0,0,0,0,-155380.47400076812,-4779169.967744674,4214096.964323521,-2.71083,-1.01109,0.751938,37.625,-59.875,-66.125,0.0,0.0,0.0,0.0,0.0,0.0,2,0,41.5804850458435,-91.86214565180752,15986.875063175396,155.94027803611186,-0.0016460786827482,0.0010841781360664,,14957.496266617703,17020.816047025746,150,9,2025-09-12,2025-09-26 20:16:04.037,HA,C,141798360,HAWK11,1,1,73,2,1,1,225,2,1,0,0,12,1,225,2,1,-141884.60583670562,-4792999.861299361,4199428.661589146,2.43376,2.69147,-0.467001,-117.625,37.625,41.25,0.03125,-7.1875,7.03125,0.078125,0.00585938,0.0175781,4,0,41.40173922403788,-91.6956010775669,17045.92613846286,-54.62336841493679,1.3928045689612365,2.674763610886043,175.228,14957.496266617703,17020.816047025746,150,True,13.072578799811568,False,138.2607192415188,169.0223665914332,False,30.81373049050821,False,False
9,1970-07-23 10:31:21.651255635,2025-09-12,2025-09-26 20:16:05.125,HA,C,2775500910,JASSM,3,113,76,2,2,1,225,9,2,0,1,26,0,0,0,0,-155342.86755545562,-4779230.004854049,4214030.710417271,-2.71083,-1.01109,0.751938,37.625,-59.875,-66.125,0.0,0.0,0.0,0.0,0.0,0.0,2,0,41.57968817365024,-91.8616719070482,15986.87934892769,155.94059244455738,-0.0007739633915663,0.0010828917799832,,14957.496266617703,17020.816047025746,150,9,2025-09-12,2025-09-26 20:16:05.073,HA,C,142712992,HAWK11,1,1,73,2,1,1,225,2,1,0,0,12,1,225,2,1,-141975.36950858062,-4792970.446260299,4199460.528776646,2.48591,2.68006,-0.474671,-117.25,38.125,41.625,-0.15625,-6.9375,6.625,0.0253906,0.0,0.0234375,4,0,41.4021132264869,-91.69669552752237,17049.324613191588,-53.89825432356567,1.3166264788305009,5.383856671050248,175.399,14957.496266617703,17020.816047025746,150,True,12.974763506503056,False,138.5754615289819,169.09957065243788,False,30.575621769535363,False,False
9,1970-07-23 10:31:21.661235104,2025-09-12,2025-09-26 20:16:06.123,HA,C,2776693954,JASSM,3,113,76,2,2,1,225,9,2,0,1,26,0,0,0,0,-155305.26111014312,-4779290.041963424,4213964.452604771,-2.71083,-1.01109,0.751938,37.625,-59.875,-66.125,0.0,0.0,0.0,0.0,0.0,0.0,2,0,41.5788912731057,-91.86119817393656,15986.879973332443,155.9409068403246,9.817602553698392e-05,0.0010815946882161,,14957.496266617703,17020.816047025746,150,9,2025-09-12,2025-09-26 20:16:06.241,HA,C,144303658,HAWK11,1,1,73,2,1,1,225,2,1,0,0,12,1,225,2,1,-142130.59607108062,-4792918.879854049,4199515.962370396,2.47757,2.66606,-0.481191,-116.625,38.875,42.625,-0.1875,-7.25,6.90625,-0.0332031,-0.00585938,0.00976562,4,0,41.40276662401238,-91.6985677608825,17054.07485538117,-53.12291654791795,1.1086879415354411,4.553811960254509,175.57,14957.496266617703,17020.816047025746,150,True,12.843322761416836,False,139.18881785351152,169.26341581314287,False,30.129459968185927,False,False
9,1970-07-23 10:31:21.674355213,2025-09-12,2025-09-26 20:16:07.435,HA,C,2777887002,JASSM,3,113,76,2,2,1,225,9,2,0,1,26,0,0,0,0,-155267.65368826812,-4779350.075166549,4213898.194792271,-2.71083,-1.01109,0.752034,37.625,-59.875,-66.125,0.0,0.0,0.0,0.0,0.0,0.0,2,0,41.5780943939988,-91.86072444229708,15986.875782227946,155.9435155943911,-0.0040226656409556,0.0010802529940649,,14957.496266617703,17020.816047025746,150,9,2025-09-12,2025-09-26 20:16:07.427,HA,C,146013622,HAWK11,1,1,73,2,1,1,225,2,1,0,0,12,1,225,2,1,-142297.91247733062,-4792862.135713424,4199577.101042271,2.40845,2.65225,-0.484738,-116.5,39.625,43.25,-0.015625,-7.09375,6.82812,-0.0214844,-0.00390625,0.00585938,4,0,41.40348714858251,-91.7005862663355,17059.36612535418,-52.46991144425556,0.7877901799348642,0.2370563093270396,175.607,14957.496266617703,17020.816047025746,150,True,12.704953244802123,False,139.5936407058106,169.44472805180817,False,29.90580097235669,True,False
9,1970-07-23 10:31:21.681340684,2025-09-12,2025-09-26 20:16:08.134,HA,C,2779139700,JASSM,3,113,76,2,2,1,225,9,2,0,1,26,0,0,0,0,-155228.16736014312,-4779413.110322799,4213828.624479771,-2.71083,-1.01109,0.752034,37.625,-59.875,-66.125,0.0,0.0,0.0,0.0,0.0,0.0,2,0,41.57725766931343,-91.86022705403822,15986.878280690276,155.943845678631,-0.0031069440748926,0.0010789333741132,,14957.496266617703,17020.816047025746,150,9,2025-09-12,2025-09-26 20:16:08.335,HA,C,147087320,HAWK11,1,1,73,2,1,1,225,2,1,0,0,12,1,225,2,1,-142403.97497733062,-4792825.842744674,4199616.450651646,2.42129,2.64986,-0.481478,-116.625,39.875,43.5,-0.109375,-7.01562,6.59375,0.0410156,0.00390625,-0.00976562,4,0,41.40394979764158,-91.70186594160803,17063.22390504112,-52.50616544637976,0.5687940105856215,0.9091369423990814,175.656,14957.496266617703,17020.816047025746,150,True,12.595614209262122,False,139.70723348285273,169.54275648582782,False,29.891289793689566,True,False
9,1970-07-23 10:31:21.691537407,2025-09-12,2025-09-26 20:16:09.153,HA,C,2780273096,JASSM,3,113,76,2,2,1,225,9,2,0,1,26,0,0,0,0,-155192.44079764312,-4779470.141572799,4213765.675261021,-2.71083,-1.01109,0.752034,37.625,-59.875,-66.125,0.0,0.0,0.0,0.0,0.0,0.0,2,0,41.57650060292895,-91.85977703734618,15986.873582568009,155.94414432074265,-0.0022784055907124,0.0010777347798252,,14957.496266617703,17020.816047025746,150,9,2025-09-12,2025-09-26 20:16:09.242,HA,C,147962186,HAWK11,1,1,73,2,1,1,225,2,1,0,0,12,1,225,2,1,-142488.79138358062,-4792796.565400924,4199647.944792271,2.4421,2.64966,-0.483012,-116.625,40.0,43.875,-0.140625,-7.07812,6.8125,0.015625,0.0,0.00390625,4,0,41.40432145501157,-91.70288937958972,17065.746611105722,-52.44060598908879,0.6282200598095806,2.096920046731978,175.277,14957.496266617703,17020.816047025746,150,True,12.502441349747425,False,139.8487792629661,169.61735701989068,False,29.827774309328788,True,False
9,1970-07-23 10:31:21.701156075,2025-09-12,2025-09-26 20:16:10.115,HA,C,2781406490,JASSM,3,113,76,2,2,1,225,9,2,0,1,26,0,0,0,0,-155156.71423514312,-4779527.170869674,4213702.729948521,-2.71083,-1.01109,0.752034,37.625,-59.875,-66.125,0.0,0.0,0.0,0.0,0.0,0.0,2,0,41.57574357262829,-91.85932703192344,15986.876969920932,155.94444295090997,-0.0014499018781459,0.0010765511178051,,14957.496266617703,17020.816047025746,150,9,2025-09-12,2025-09-26 20:16:10.131,HA,C,149155186,HAWK11,1,1,73,2,1,1,225,2,1,0,0,12,1,225,2,1,-142605.19177420562,-4792755.916963424,4199691.446745396,2.49818,2.62445,-0.482725,-116.375,41.0,43.875,-0.046875,-5.75,5.5,0.0976562,-0.015625,0.0078125,4,0,41.404836172918046,-91.70429411120618,17068.670792204462,-51.499300557761295,-0.2364510925004091,4.643063064974879,175.069,14957.496266617703,17020.816047025746,150,True,12.392575194856583,False,140.15842070411267,169.736212499844,False,29.627787224985077,True,False
9,1970-07-23 10:31:21.712335639,2025-09-12,2025-09-26 20:16:11.233,HA,C,2782599536,JASSM,3,113,76,2,2,1,225,9,2,0,1,26,0,0,0,0,-155119.10681326812,-4779587.202119674,4213636.468229771,-2.71083,-1.01109,0.752034,37.625,-59.875,-66.125,0.0,0.0,0.0,0.0,0.0,0.0,2,0,41.57494667074008,-91.85885334704362,15986.878616660017,155.944757290287,-0.000577767033786,0.0010752989057331,,14957.496266617703,17020.816047025746,150,9,2025-09-12,2025-09-26 20:16:11.039,HA,C,150268650,HAWK11,1,1,73,2,1,1,225,2,1,0,0,12,1,225,2,1,-142714.36755545562,-4792715.998994674,4199731.858854771,2.62704,2.61764,-0.482149,-115.875,42.875,43.5,-0.109375,-6.1875,6.0,0.128906,-0.00585938,0.0,4,0,41.405326958453,-91.70561231281704,17066.16670502648,-51.2628727412983,-0.4886496666921888,11.843656238845831,174.727,14957.496266617703,17020.816047025746,150,False,12.28355173903241,False,140.6281444055715,169.84402876969617,False,29.246532557213722,True,False
9,1970-07-23 10:31:21.720276125,2025-09-12,2025-09-26 20:16:12.027,HA,C,2783792582,JASSM,3,113,76,2,2,1,225,9,2,0,1,26,0,0,0,0,-155081.50036795562,-4779647.231416549,4213570.206511021,-2.71083,-1.01099,0.752034,37.625,-59.875,-66.125,0.0,0.0,0.0,0.0,0.0,0.0,2,0,41.57414977825541,-91.85837968626142,15986.880393998152,155.94142303279358,-0.0013823837666541,-0.0026819540977754,,14957.496266617703,17020.816047025746,150,9,2025-09-12,2025-09-26 20:16:12.037,HA,C,151382116,HAWK11,1,1,73,2,1,1,225,2,1,0,0,12,1,225,2,1,-142821.46130545562,-4792674.717744674,4199772.019011021,2.73931,2.58993,-0.489244,-114.875,45.375,43.875,-0.21875,-6.39062,6.09375,0.142578,-0.00195312,0.0390625,4,0,41.40582450613099,-91.70690615151274,17059.61783222172,-49.93681118244363,-1.1006500611022727,17.516839976215408,174.471,14957.496266617703,17020.816047025746,150,False,12.174846528389908,False,141.5656256525749,169.9486474116954,False,28.398751989570513,True,False
9,1970-07-23 10:31:21.731143111,2025-09-12,2025-09-26 20:16:13.114,HA,C,2784925976,JASSM,3,113,76,2,2,1,225,9,2,0,1,26,0,0,0,0,-155045.77380545562,-4779704.258760299,4213507.253386021,-2.71074,-1.01099,0.752034,37.625,-59.875,-66.125,0.0,0.0,0.0,0.0,0.0,0.0,2,0,41.57339270124894,-91.85792971423048,15986.87555643416,155.94172162697282,-0.0005538426515365,0.0028082643197586,,14957.496266617703,17020.816047025746,150,9,2025-09-12,2025-09-26 20:16:12.927,HA,C,152575116,HAWK11,1,1,73,2,1,1,225,2,1,0,0,12,1,225,2,1,-142935.96716483062,-4792627.502900924,4199816.419401646,2.88168,2.55552,-0.499311,-113.125,48.375,45.125,-0.1875,-6.64062,6.34375,0.09375,0.00585938,0.0351562,4,0,41.4063846283476,-91.7082906572652,17048.226662126464,-48.23755756686126,-1.775922424966836,24.69615742733856,173.957,14957.496266617703,17020.816047025746,150,False,12.06337066455271,False,143.03011205853005,170.06369844398554,False,27.039652946736158,True,False
9,1970-07-23 10:31:21.741212251,2025-09-12,2025-09-26 20:16:14.121,HA,C,2786178676,JASSM,3,113,76,2,2,1,225,9,2,0,1,26,0,0,0,0,-155006.28650076812,-4779767.286104049,4213437.679167271,-2.71074,-1.01099,0.75213,37.625,-59.875,-66.125,0.0,0.0,0.0,0.0,0.0,0.0,2,0,41.572555984307165,-91.85743238945018,15986.880315929608,155.94434490462342,-0.0046278455390702,0.0028068151799338,,14957.496266617703,17020.816047025746,150,9,2025-09-12,2025-09-26 20:16:14.131,HA,C,154006714,HAWK11,1,1,73,2,1,1,225,2,1,0,0,12,1,225,2,1,-143071.97302420562,-4792565.990205611,4199872.153776646,2.96998,2.51295,-0.50583,-110.625,52.5,47.5,0.0,-6.95312,6.65625,0.0625,0.00195312,0.0527344,4,0,41.407102436684255,-91.70993709241526,17027.849770038883,-46.34040322781246,-2.828223069352219,28.50446928117394,173.701,14957.496266617703,17020.816047025746,150,False,11.932397360223312,False,145.24023755985962,170.1988730658937,False,24.959001377368928,True,False
9,1970-07-23 10:31:21.751354948,2025-09-12,2025-09-26 20:16:15.135,HA,C,2787491026,JASSM,3,113,76,2,2,1,225,9,2,0,1,26,0,0,0,0,-154964.91833670562,-4779833.315400924,4213364.784636021,-2.71074,-1.01099,0.75213,37.625,-59.875,-66.125,0.0,0.0,0.0,0.0,0.0,0.0,2,0,41.57167936865029,-91.8569113899264,15986.876793046024,155.94469062032954,-0.0036684841609384,0.002805407757719,,14957.496266617703,17020.816047025746,150,9,2025-09-12,2025-09-26 20:16:15.039,HA,C,154961112,HAWK11,1,1,73,2,1,1,225,2,1,0,0,12,1,225,2,1,-143160.81286795562,-4792522.304658736,4199911.116667271,3.02357,2.49099,-0.504104,-108.75,55.375,49.5,-0.375,-7.67188,6.78125,0.0546875,0.0136719,0.0332031,4,0,41.40760940204264,-91.71101382566522,17011.473702743402,-45.533329892099935,-3.583165744387931,30.921596496113644,173.31,14957.496266617703,17020.816047025746,150,False,11.823597887027999,False,146.89692092615167,170.26526193650457,False,23.368717721212505,True,False
9,1970-07-23 10:31:21.762456667,2025-09-12,2025-09-26 20:16:16.245,HA,C,2788684072,JASSM,3,113,76,2,2,1,225,9,2,0,1,26,0,0,0,0,-154927.31189139312,-4779893.338838424,4213298.519011021,-2.71074,-1.01099,0.75213,37.625,-59.875,-66.125,0.0,0.0,0.0,0.0,0.0,0.0,2,0,41.57088247638317,-91.85643777915396,15986.875552400872,155.9450048854457,-0.0027963716074087,0.002804132969648,,14957.496266617703,17020.816047025746,150,9,2025-09-12,2025-09-26 20:16:16.241,HA,C,156472244,HAWK11,1,1,73,2,1,1,225,2,1,0,0,12,1,225,2,1,-143296.43005545562,-4792448.792939986,4199975.995573521,3.09135,2.44718,-0.515897,-104.5,59.875,53.125,-0.1875,-8.39062,7.15625,0.0449219,0.03125,0.0449219,4,0,41.40846031624103,-91.71265997014083,16981.421216663097,-43.37294639904314,-4.360634783096773,33.430123626396515,173.102,14957.496266617703,17020.816047025746,150,False,11.688647584056884,False,149.93659525178393,170.38652415486106,False,20.456872266114477,True,False
9,1970-07-23 10:31:21.773155326,2025-09-12,2025-09-26 20:16:17.315,HA,C,2789936772,JASSM,3,113,76,2,2,1,225,9,2,0,1,26,0,0,0,0,-154887.82458670562,-4779956.364229049,4213228.936979771,-2.71074,-1.01099,0.75213,37.625,-59.875,-66.125,0.0,0.0,0.0,0.0,0.0,0.0,2,0,41.57004571169238,-91.85594049363674,15986.874533812606,155.94533485464868,-0.0018806278728714,0.0028027885920855,,14957.496266617703,17020.816047025746,150,9,2025-09-12,2025-09-26 20:16:17.427,HA,C,157784544,HAWK11,1,1,73,2,1,1,225,2,1,0,0,12,1,225,2,1,-143411.71521170562,-4792378.800752486,4200038.147917271,-3.13076,2.42235,-0.515034,-100.5,64.125,57.5,-0.078125,-8.8125,7.4375,0.0332031,0.0351562,0.0527344,4,0,41.4092754965078,-91.71406203986912,16952.62613469572,-42.39706051895164,-5.125527529918123,36.14735420935249,172.76,14957.496266617703,17020.816047025746,150,False,11.558991050847231,False,153.05359602958833,170.46887461483774,False,17.432921022977297,True,False
9,1970-07-23 10:31:21.782278330,2025-09-12,2025-09-26 20:16:18.227,HA,C,2791189470,JASSM,3,113,76,2,2,1,225,9,2,0,1,26,0,0,0,0,-154848.33630545562,-4780019.387666549,4213159.354948521,-2.71074,-1.01099,0.75213,37.625,-59.875,-66.125,0.0,0.0,0.0,0.0,0.0,0.0,2,0,41.56920895657108,-91.85544321001773,15986.873986648354,155.94566481713696,-0.0009648914837171,0.0028014564924868,,14957.496266617703,17020.816047025746,150,9,2025-09-12,2025-09-26 20:16:18.333,HA,C,158977542,HAWK11,1,1,73,2,1,1,225,2,1,0,0,12,1,225,2,1,-143510.06286795562,-4792312.071260299,4200097.788542271,-3.08196,2.3746,-0.540537,-95.625,67.75,61.5,-0.328125,-9.60938,8.23438,0.03125,0.0507812,0.0410156,4,0,41.41005732420236,-91.7152606618797,16925.16876222893,-39.61177607350596,-5.269299215579875,37.31309158945464,172.76,14957.496266617703,17020.816047025746,150,False,11.436051631377332,False,156.17022608086663,170.520280881025,False,14.386700071026286,True,False
9,1970-07-23 10:31:21.796052853,2025-09-12,2025-09-26 20:16:19.605,HA,C,2792501822,JASSM,3,113,76,2,2,1,225,9,2,0,1,26,0,0,0,0,-154806.96911795562,-4780085.411104049,4213086.460417271,-2.71074,-1.01099,0.75213,37.625,-59.875,-66.125,0.0,0.0,0.0,0.0,0.0,0.0,2,0,41.56833236616216,-91.85492227824184,15986.878546245547,155.94601046503143,-5.565557182285916e-06,0.0028000536178109,,14957.496266617703,17020.816047025746,150,9,2025-09-12,2025-09-26 20:16:19.833,HA,C,160528440,HAWK11,1,1,73,2,1,1,225,2,1,0,0,12,1,225,2,1,-143628.86169608062,-4792220.372041549,4200181.507292271,-2.9951,2.30011,-0.578407,-87.75,72.5,67.125,-0.328125,-10.0625,8.46875,0.0234375,0.0332031,0.0351562,4,0,41.41114648649955,-91.7167125487476,16890.06814496991,-35.37847004540404,-5.387336800437691,39.63026358102688,172.149,14957.496266617703,17020.816047025746,150,False,11.288888036644916,False,160.789659466344,170.5678619947528,False,9.87577657566774,True,False
9,1970-07-23 10:31:21.807134852,2025-09-12,2025-09-26 20:16:20.713,HA,C,2793754520,JASSM,3,113,76,2,2,1,225,9,2,0,1,26,0,0,0,0,-154767.48083670562,-4780148.432588424,4213016.874479771,-2.71074,-1.01099,0.75213,37.625,-59.875,-66.125,0.0,0.0,0.0,0.0,0.0,0.0,2,0,41.56749559174738,-91.854425021657,15986.87563933348,155.9463403984131,0.0009101842433443,0.0027987149924227,,14957.496266617703,17020.816047025746,150,9,2025-09-12,2025-09-26 20:16:20.741,HA,C,161721438,HAWK11,1,1,73,2,1,1,225,2,1,0,0,12,1,225,2,1,-143713.51013358062,-4792145.374971236,4200251.718229771,-2.94601,2.23942,-0.608319,-80.875,75.75,72.0,-0.25,-10.7188,9.03125,0.0253906,0.0429688,0.046875,4,0,41.412051234715456,-91.71775056278166,16864.2268837976,-32.01112917603064,-5.350049660604331,40.18279811639784,171.978,14957.496266617703,17020.816047025746,150,False,11.163759303255981,False,164.68421336244086,170.56973962725098,False,6.0867736680197835,True,False
9,1970-07-23 10:31:21.818753733,2025-09-12,2025-09-26 20:16:21.875,HA,C,2795007218,JASSM,3,113,76,2,2,1,225,9,2,0,1,26,0,0,0,0,-154727.99353201812,-4780211.452119674,4212947.292448521,-2.71074,-1.01099,0.752226,37.625,-59.875,-66.125,0.0,0.0,0.0,0.0,0.0,0.0,2,0,41.56665885281849,-91.853927790354,15986.881862032073,155.94896500269857,-0.003166915794688,0.0027973563770049,,14957.496266617703,17020.816047025746,150,9,2025-09-12,2025-09-26 20:16:22.241,HA,C,163590470,HAWK11,1,1,73,2,1,1,225,2,1,0,0,12,1,225,2,1,-143830.42810233062,-4792021.959932174,4200371.780729771,-2.83911,2.1214,-0.670254,-68.125,79.75,80.25,-0.34375,-11.7969,10.3281,0.0175781,0.0625,0.046875,4,0,41.413574587651205,-91.71919144742571,16829.88732756776,-25.54787852586956,-4.617069393932712,41.70637525771639,172.198,14957.496266617703,17020.816047025746,150,False,10.9976854405467,False,171.47953997812158,170.54463710498555,False,1.843184110935897,True,False
9,1970-07-23 10:31:21.826912838,2025-09-12,2025-09-26 20:16:22.691,HA,C,2796200266,JASSM,3,113,76,2,2,1,225,9,2,0,1,26,0,0,0,0,-154690.38611014312,-4780271.469697799,4212881.019011021,-2.71074,-1.01099,0.752226,37.625,-59.875,-66.125,0.0,0.0,0.0,0.0,0.0,0.0,2,0,41.56586193012708,-91.85345424348952,15986.879678774168,155.94927919435133,-0.0022947836302395,0.0027961157317941,,14957.496266617703,17020.816047025746,150,9,2025-09-12,2025-09-26 20:16:22.833,HA,C,164107436,HAWK11,1,1,73,2,1,1,225,2,1,0,0,12,1,225,2,1,-143858.97107108062,-4791986.034150924,4200407.667448521,-2.8092,2.08746,-0.685402,-63.875,81.125,82.75,-0.109375,-12.0312,10.5625,0.0214844,0.0683594,0.0625,4,0,41.41402533075126,-91.71954529770684,16821.52311112369,-23.80693706177324,-4.430641930334166,42.06338367211574,171.281,14957.496266617703,17020.816047025746,150,False,10.914781812165618,False,173.66702880081317,170.4913888396989,False,3.6267076926302524,True,False
9,1970-07-23 10:31:21.835315096,2025-09-12,2025-09-26 20:16:23.531,HA,C,2797393312,JASSM,3,113,76,2,2,1,225,9,2,0,1,26,0,0,0,0,-154652.77868826812,-4780331.487275924,4212814.745573521,-2.71074,-1.01089,0.752226,37.625,-59.875,-66.125,0.0,0.0,0.0,0.0,0.0,0.0,2,0,41.565065005374784,-91.8529807082626,15986.882339548794,155.9459500936019,-0.0030972451129814,-0.0009571158552089,,14957.496266617703,17020.816047025746,150,9,2025-09-12,2025-09-26 20:16:23.429,HA,C,164902768,HAWK11,1,1,73,2,1,1,225,2,1,0,0,12,1,225,2,1,-143899.38318045562,-4791930.512666549,4200464.692839146,-2.75474,2.02811,-0.710425,-57.25,82.375,86.375,-0.203125,-12.3594,10.6562,0.0195312,0.0664062,0.046875,4,0,41.41473314509672,-91.72004797030507,16811.72176842516,-20.84795172630207,-4.06734784183459,42.77864879322899,170.89,14957.496266617703,17020.816047025746,150,False,10.81533704519703,False,176.9310627305594,170.4218832711473,False,6.788776999735024,True,False
9,1970-07-23 10:31:21.846431345,2025-09-12,2025-09-26 20:16:24.643,HA,C,2798646010,JASSM,3,113,76,2,2,1,225,9,2,0,1,26,0,0,0,0,-154613.29138358062,-4780394.502900924,4212745.155729771,-2.71074,-1.01089,0.752226,37.625,-59.875,-66.125,0.0,0.0,0.0,0.0,0.0,0.0,2,0,41.56422823056224,-91.85248351574178,15986.87748524055,155.94627996333674,-0.0021815068193914,-0.0009584821984881,,14957.496266617703,17020.816047025746,150,9,2025-09-12,2025-09-26 20:16:24.631,HA,C,166413900,HAWK11,1,1,73,2,1,1,225,2,1,0,0,12,1,225,2,1,-143962.45153983062,-4791824.602510299,4200578.136198521,-2.68562,1.90281,-0.756732,-43.5,84.0,92.125,-0.3125,-12.5312,10.7969,-0.119141,0.0625,0.0605469,4,0,41.41611730988832,-91.72083939215536,16802.12407457252,-14.946981793971275,-3.195531091562382,41.55352052080096,170.719,14957.496266617703,17020.816047025746,150,False,10.672355041086247,False,176.3609062346005,170.28630552144108,False,13.325521946362104,True,False
9,1970-07-23 10:31:21.859153819,2025-09-12,2025-09-26 20:16:25.915,HA,C,2799839056,JASSM,3,113,76,2,2,1,225,9,2,0,1,26,0,0,0,0,-154575.68396170562,-4780454.516572799,4212678.882292271,-2.71074,-1.01089,0.752226,37.625,-59.875,-66.125,0.0,0.0,0.0,0.0,0.0,0.0,2,0,41.5634313248902,-91.85201000588263,15986.880492251465,155.94659411538763,-0.0013093961084019,-0.0009597698903288,,14957.496266617703,17020.816047025746,150,9,2025-09-12,2025-09-26 20:16:25.834,HA,C,167964800,HAWK11,1,1,73,2,1,1,225,2,1,0,0,12,1,225,2,1,-144010.12146170562,-4791714.845674361,4200702.741667271,-2.73154,1.77731,-0.803327,-30.75,82.75,97.875,-0.390625,-12.4219,11.0469,0.0,0.0683594,0.0234375,4,0,41.41760241522503,-91.72144827264528,16806.169227063405,-9.368971966625931,-1.7237718829231463,33.620979210845576,170.145,14957.496266617703,17020.816047025746,150,False,10.53153579682668,False,170.44209792875532,170.0933024871431,False,19.435744629073298,True,False
9,1970-07-23 10:31:21.865313877,2025-09-12,2025-09-26 20:16:26.531,HA,C,2801091756,JASSM,3,113,76,2,2,1,225,9,2,0,1,26,0,0,0,0,-154536.19568045562,-4780517.530244674,4212609.288542271,-2.71074,-1.01089,0.752226,37.625,-59.875,-66.125,0.0,0.0,0.0,0.0,0.0,0.0,2,0,41.56259453118672,-91.85151282747192,15986.872692574372,155.94692396511138,-0.0003936410184798,-0.0009611346922542,,14957.496266617703,17020.816047025746,150,9,2025-09-12,2025-09-26 20:16:26.427,HA,C,168521532,HAWK11,1,1,73,2,1,1,225,2,1,0,0,12,1,225,2,1,-144022.29919608062,-4791675.660127486,4200748.774870396,-2.71112,1.7542,-0.82068,-26.25,82.0,99.625,-0.1875,-12.1406,10.625,-0.0273438,0.0410156,0.0175781,4,0,41.41814392730131,-91.72160782400591,16810.615603449107,-8.304394921030841,-0.8954533810803796,33.80598440206444,169.925,14957.496266617703,17020.816047025746,150,False,10.446484611068012,False,168.3418015514546,169.97444357726545,False,21.631358985904946,True,False
9,1970-07-23 10:31:21.882395413,2025-09-12,2025-09-26 20:16:28.239,HA,C,2802404106,JASSM,3,113,76,2,2,1,225,9,2,0,1,26,0,0,0,0,-154494.82751639312,-4780583.543916549,4212536.386198521,-2.71074,-1.01089,0.752226,37.625,-59.875,-66.125,0.0,0.0,0.0,0.0,0.0,0.0,2,0,41.56171792782609,-91.85099199403376,15986.880434254632,155.94726950275614,0.0005656830386252,-0.0009625525194897,,14957.496266617703,17020.816047025746,150,9,2025-09-12,2025-09-26 20:16:28.537,HA,C,171146130,HAWK11,1,1,73,2,1,1,225,2,1,0,0,12,1,225,2,1,-144058.84802420562,-4791498.584932174,4200972.636198521,-2.83278,1.5986,-0.867658,-11.25,76.5,105.5,-0.0625,-9.85938,8.75,-0.140625,0.0371094,0.0078125,4,0,41.42070113926101,-91.72210805861722,16863.752717371983,-2.1433707213885103,1.1803363982848598,20.179320260233908,168.984,14957.496266617703,17020.816047025746,150,False,10.250293126616207,False,161.08717357244984,169.54042282674314,False,29.16875368532015,True,False
9,1970-07-23 10:31:21.886255337,2025-09-12,2025-09-26 20:16:28.625,HA,C,2803597154,JASSM,3,113,76,2,2,1,225,9,2,0,1,26,0,0,0,0,-154457.22009451812,-4780643.555635299,4212470.104948521,-2.71064,-1.01089,0.752322,37.625,-59.875,-66.125,0.0,0.0,0.0,0.0,0.0,0.0,2,0,41.56092097472366,-91.85051852158102,15986.876902846148,155.9498772089281,-0.0035517268025151,0.0045275723108776,,14957.496266617703,17020.816047025746,150,9,2025-09-12,2025-09-26 20:16:28.537,HA,C,171146130,HAWK11,1,1,73,2,1,1,225,2,1,0,0,12,1,225,2,1,-144058.84802420562,-4791498.584932174,4200972.636198521,-2.83278,1.5986,-0.867658,-11.25,76.5,105.5,-0.0625,-9.85938,8.75,-0.140625,0.0371094,0.0078125,4,0,41.42070113926101,-91.72210805861722,16863.752717371983,-2.1433707213885103,1.1803363982848598,20.179320260233908,168.984,14957.496266617703,17020.816047025746,150,False,10.198868493809035,False,161.08717357244984,169.48682126165312,False,29.221659323399738,True,False
9,1970-07-23 10:31:21.900411807,2025-09-12,2025-09-26 20:16:30.041,HA,C,2804849852,JASSM,3,113,76,2,2,1,225,9,2,0,1,26,0,0,0,0,-154417.73181326812,-4780706.565400924,4212400.511198521,-2.71064,-1.01089,0.752322,37.625,-59.875,-66.125,0.0,0.0,0.0,0.0,0.0,0.0,2,0,41.560084197508175,-91.85002138316288,15986.875540612677,155.95020701587222,-0.0026359929983695,0.0045262525716302,,14957.496266617703,17020.816047025746,150,9,2025-09-12,2025-09-26 20:16:30.037,HA,C,172736794,HAWK11,1,1,73,2,1,1,225,2,1,0,0,12,1,225,2,1,-144067.42224295562,-4791394.560518111,4201110.802214146,-2.86135,1.55555,-0.883956,-4.625,76.375,105.375,0.0,-8.28125,7.875,0.0410156,0.0175781,0.0273438,4,0,41.42225060325574,-91.72224786264066,16908.48386294344,-0.5385871205125099,2.072215074540232,16.69342549133038,168.36,14957.496266617703,17020.816047025746,150,False,10.064803665360825,False,158.3081390185775,169.15701282305773,False,32.387984326607956,False,False
9,1970-07-23 10:31:21.907354133,2025-09-12,2025-09-26 20:16:30.735,HA,C,2806102550,JASSM,3,113,76,2,2,1,225,9,2,0,1,26,0,0,0,0,-154378.24450858062,-4780769.575166549,4212330.917448521,-2.71064,-1.01089,0.752322,37.625,-59.875,-66.125,0.0,0.0,0.0,0.0,0.0,0.0,2,0,41.55924741783336,-91.84952426926206,15986.879596244564,155.95053680109805,-0.0017202624541674,0.0045249247466975,,14957.496266617703,17020.816047025746,150,9,2025-09-12,2025-09-26 20:16:30.631,HA,C,173532126,HAWK11,1,1,73,2,1,1,225,2,1,0,0,12,1,225,2,1,-144068.56872733062,-4791343.712861861,4201179.040495396,-2.80095,1.5313,-0.88923,-1.875,76.0,105.25,-0.140625,-7.59375,7.39062,0.0390625,0.0,0.0273438,4,0,41.4230132671279,-91.7222798263058,16931.65301585033,0.3410627470255928,2.3733198801150657,19.111268321188,168.055,14957.496266617703,17020.816047025746,150,False,9.972516285129737,False,157.11669693684524,168.9528065795304,False,33.796065846587034,False,False
9,1970-07-23 10:31:21.918344007,2025-09-12,2025-09-26 20:16:31.834,HA,C,2807355250,JASSM,3,113,76,2,2,1,225,9,2,0,1,26,0,0,0,0,-154338.75622733062,-4780832.582979049,4212261.321745396,-2.71064,-1.01089,0.752322,37.625,-59.875,-66.125,0.0,0.0,0.0,0.0,0.0,0.0,2,0,41.55841063457812,-91.84902715724976,15986.879871687504,155.95086657961716,-0.000804527245835,0.0045236038412215,,14957.496266617703,17020.816047025746,150,9,2025-09-12,2025-09-26 20:16:31.834,HA,C,175122792,HAWK11,1,1,73,2,1,1,225,2,1,0,0,12,1,225,2,1,-144067.17224295562,-4791240.795869674,4201317.591276646,-2.72454,1.46831,-0.893256,3.0,76.0,104.5,-0.109375,-7.14062,6.95312,0.015625,0.0175781,0.03125,4,0,41.42456051082927,-91.7223001143112,16979.228124762147,2.6029338432685583,2.6750566089099563,20.781354680476447,167.603,14957.496266617703,17020.816047025746,150,False,9.842207735345093,False,155.07421572257533,168.58283653022005,False,36.247674392123066,False,False
9,1970-07-23 10:31:21.929576316,2025-09-12,2025-09-26 20:16:32.957,HA,C,2808607942,JASSM,3,113,76,2,2,1,225,9,2,0,1,26,0,0,0,0,-154299.26794608062,-4780895.588838424,4212191.724089146,-2.71064,-1.01089,0.752322,37.625,-59.875,-66.125,0.0,0.0,0.0,0.0,0.0,0.0,2,0,41.55757384755378,-91.84853005881656,15986.87644434393,155.95119634367438,0.0001112092339188,0.0045222817895071,,14957.496266617703,17020.816047025746,150,9,2025-09-12,2025-09-26 20:16:33.037,HA,C,176474856,HAWK11,1,1,73,2,1,1,225,2,1,0,0,12,1,225,2,1,-144060.99060233062,-4791154.270479049,4201433.267057896,-2.78456,1.41721,-0.886545,7.0,76.0,103.75,0.03125,-6.85938,6.60938,-0.181641,-0.00195312,0.0253906,4,0,41.42585676435029,-91.72225734193614,17017.11350946707,4.470998630272658,2.42824801470826,15.150667941307626,167.028,14957.496266617703,17020.816047025746,150,False,9.72619726680921,False,153.37748107765387,168.24182140873316,False,38.31154265903963,False,False
9,1970-07-23 10:31:21.939296292,2025-09-12,2025-09-26 20:16:33.929,HA,C,2809860648,JASSM,3,113,76,2,2,1,225,9,2,0,1,26,0,0,0,0,-154259.77966483062,-4780958.594697799,4212122.126432896,-2.71064,-1.0108,0.752322,37.625,-59.875,-66.125,0.0,0.0,0.0,0.0,0.0,0.0,2,0,41.55673705825839,-91.84803297320704,15986.878357515225,155.94788325087092,-0.0006477371458156,0.000768428745116,,14957.496266617703,17020.816047025746,150,9,2025-09-12,2025-09-26 20:16:33.928,HA,C,177349722,HAWK11,1,1,73,2,1,1,225,2,1,0,0,12,1,225,2,1,-144055.06286795562,-4791097.601533736,4201508.034636021,-2.85186,1.38662,-0.880793,8.625,76.375,103.125,0.109375,-6.59375,6.45312,-0.03125,-0.00195312,0.0175781,4,0,41.42669936686274,-91.7222068759099,17039.637154448323,5.61168664327891,2.2167217167033337,9.986012043923534,166.796,14957.496266617703,17020.816047025746,150,True,9.632770077290392,False,152.72472245771516,167.98718157385233,False,39.23582302362531,False,False
9,1970-07-23 10:31:21.952732993,2025-09-12,2025-09-26 20:16:35.273,HA,C,2811053694,JASSM,3,113,76,2,2,1,225,9,2,0,1,26,0,0,0,0,-154222.17224295562,-4781018.598604049,4212055.841276646,-2.71064,-1.0108,0.752418,37.625,-59.875,-66.125,0.0,0.0,0.0,0.0,0.0,0.0,2,0,41.55594011258714,-91.84755957647629,15986.877430115906,155.95049263008846,-0.0047681180419514,0.0007670183408094,,14957.496266617703,17020.816047025746,150,9,2025-09-12,2025-09-26 20:16:35.427,HA,C,179377820,HAWK11,1,1,73,2,1,1,225,2,1,0,0,12,1,225,2,1,-144037.48669608062,-4790965.011689986,4201680.671354771,-2.89529,1.38317,-0.870534,11.375,77.5,101.375,-0.046875,-5.95312,5.89062,0.00585938,-0.0078125,0.0136719,4,0,41.42865597421865,-91.72204450333436,17087.089163732424,5.806146781170905,1.6496597064563692,7.352368792322237,165.672,14957.496266617703,17020.816047025746,150,True,9.491189678534608,False,151.652102225577,167.46659213426986,False,40.86054847755797,False,False
9,1970-07-23 10:31:21.960233502,2025-09-12,2025-09-26 20:16:36.023,HA,C,2812306392,JASSM,3,113,76,2,2,1,225,9,2,0,1,26,0,0,0,0,-154182.68396170562,-4781081.600557174,4211986.241667271,-2.71064,-1.0108,0.752418,37.625,-59.875,-66.125,0.0,0.0,0.0,0.0,0.0,0.0,2,0,41.55510332900999,-91.84706251740998,15986.875934096475,155.95082235208554,-0.0038523909294894,0.0007656777996953,,14957.496266617703,17020.816047025746,150,9,2025-09-12,2025-09-26 20:16:36.037,HA,C,179974320,HAWK11,1,1,73,2,1,1,225,2,1,0,0,12,1,225,2,1,-144031.62732108062,-4790925.635713424,4201730.827604771,-2.85742,1.36735,-0.860084,12.0,78.25,100.75,-0.015625,-5.73438,5.64062,0.09375,-0.00976562,0.0253906,4,0,41.42922964634405,-91.7219886377336,17098.723157121163,6.463538503489731,1.128682327436845,8.848092780284809,166.075,14957.496266617703,17020.816047025746,150,True,9.41143889267264,False,151.44239971416016,167.2562574442239,False,41.28982709465294,False,False
9,1970-07-23 10:31:21.969353805,2025-09-12,2025-09-26 20:16:36.935,HA,C,2813499438,JASSM,3,113,76,2,2,1,225,9,2,0,1,26,0,0,0,0,-154145.07556326812,-4781141.602510299,4211919.954557896,-2.71064,-1.0108,0.752418,37.625,-59.875,-66.125,0.0,0.0,0.0,0.0,0.0,0.0,2,0,41.55430637780525,-91.8465891335837,15986.875816339776,155.95113636414348,-0.0029802565861161,0.0007644002502439,,14957.496266617703,17020.816047025746,150,9,2025-09-12,2025-09-26 20:16:36.929,HA,C,181087786,HAWK11,1,1,73,2,1,1,225,2,1,0,0,12,1,225,2,1,-144019.81091483062,-4790851.570283736,4201822.731901646,-2.77373,1.35681,-0.848387,13.625,79.625,99.25,-0.1875,-5.4375,5.39062,0.0136719,-0.015625,0.015625,4,0,41.43029240331902,-91.7218740535438,17115.25927926141,6.946294749270304,0.5184509698196953,13.194946822407072,165.318,14957.496266617703,17020.816047025746,150,False,9.312480556078016,False,150.82650222910803,166.92441924712492,False,42.248114583338335,False,False
9,1970-07-23 10:31:21.984791984,2025-09-12,2025-09-26 20:16:38.479,HA,C,2814752138,JASSM,3,113,76,2,2,1,225,9,2,0,1,26,0,0,0,0,-154105.58728201812,-4781204.604463424,4211850.352995396,-2.71064,-1.0108,0.752418,37.625,-59.875,-66.125,0.0,0.0,0.0,0.0,0.0,0.0,2,0,41.5534695766457,-91.84609209954964,15986.88049641614,155.95146605888826,-0.0020645172048607,0.0007630543113994,,14957.496266617703,17020.816047025746,150,9,2025-09-12,2025-09-26 20:16:38.537,HA,C,183115884,HAWK11,1,1,73,2,1,1,225,2,1,0,0,12,1,225,2,1,-143994.01208670562,-4790712.963838424,4201986.942839146,-2.84084,1.31405,-0.818762,16.375,81.75,97.125,-0.0625,-5.625,5.53125,-0.103516,-0.0195312,0.0117188,4,0,41.43222943458591,-91.7216155721067,17129.06303200795,8.833409397674979,-0.9051060490215568,7.529331260613182,165.036,14957.496266617703,17020.816047025746,150,True,9.173560089541667,False,149.7130125701991,166.3514721817338,False,43.929323653046346,False,False
9,1970-07-23 10:31:21.990292117,2025-09-12,2025-09-26 20:16:39.029,HA,C,2816004836,JASSM,3,113,76,2,2,1,225,9,2,0,1,26,0,0,0,0,-154066.09900076812,-4781267.602510299,4211780.749479771,-2.71064,-1.0108,0.752418,37.625,-59.875,-66.125,0.0,0.0,0.0,0.0,0.0,0.0,2,0,41.55263278336562,-91.84559507984312,15986.876680963427,155.95179573867557,-0.0011487874184634,0.0007617114587005,,14957.496266617703,17020.816047025746,150,9,2025-09-12,2025-09-26 20:16:39.131,HA,C,183672616,HAWK11,1,1,73,2,1,1,225,2,1,0,0,12,1,225,2,1,-143986.14685233062,-4790673.935518111,4202031.563932896,-2.89021,1.31002,-0.807162,17.125,83.25,96.0,0.265625,-5.32812,5.32812,-0.117188,-0.0273438,0.00390625,4,0,41.43276405819388,-91.72153560701716,17129.399505414527,9.10280842246826,-1.5326001547153836,4.527064819709618,164.951,14957.496266617703,17020.816047025746,150,True,9.097013881991174,False,149.43176488206117,166.1286724618013,False,44.41891074341176,False,False
9,1970-07-23 10:31:22.001269687,2025-09-12,2025-09-26 20:16:40.126,HA,C,2817317188,JASSM,3,113,76,2,2,1,225,9,2,0,1,26,0,0,0,0,-154024.72986014312,-4781333.600557174,4211707.829557896,-2.71064,-1.0108,0.752418,37.625,-59.875,-66.125,0.0,0.0,0.0,0.0,0.0,0.0,2,0,41.55175612673586,-91.84507440067854,15986.874352910523,155.95214110624704,-0.0001894371660134,0.0007603029197082,,14957.496266617703,17020.816047025746,150,9,2025-09-12,2025-09-26 20:16:40.037,HA,C,184786082,HAWK11,1,1,73,2,1,1,225,2,1,0,0,12,1,225,2,1,-143970.15271170562,-4790595.471650924,4202119.153776646,-2.95426,1.3197,-0.800738,17.625,84.75,95.125,-0.15625,-5.9375,5.78125,-0.0410156,-0.0117188,-0.00976562,4,0,41.43382463061585,-91.7213726684632,17125.469866397078,8.785104333375246,-1.959014429307672,1.2668773067631482,164.633,14957.496266617703,17020.816047025746,150,True,8.995519987198909,False,149.251191598092,165.75609079041666,False,44.95222345374899,False,False
9,1970-07-23 10:31:22.013953569,2025-09-12,2025-09-26 20:16:41.395,HA,C,2818510234,JASSM,3,113,76,2,2,1,225,9,2,0,1,26,0,0,0,0,-153987.12243826812,-4781393.598604049,4211641.538542271,-2.71064,-1.0108,0.752418,37.625,-59.875,-66.125,0.0,0.0,0.0,0.0,0.0,0.0,2,0,41.55095916369431,-91.84460107888802,15986.87657082414,155.95245505638013,0.0006826965729466,0.0007590149759136,,14957.496266617703,17020.816047025746,150,9,2025-09-12,2025-09-26 20:16:41.537,HA,C,186456280,HAWK11,1,1,73,2,1,1,225,2,1,0,0,12,1,225,2,1,-143945.15661795562,-4790474.927705611,4202250.370573521,-2.94668,1.31357,-0.796999,18.125,86.625,94.375,-0.125,-6.46875,6.3125,0.0332031,0.00390625,0.00585938,4,0,41.43543148536807,-91.72111726532876,17112.147798691207,9.062955506030567,-2.127745111125762,1.4390794438761354,164.633,14957.496266617703,17020.816047025746,150,True,8.876442981810625,False,149.07540306750278,165.23172513291814,False,45.62331701404422,False,False
9,1970-07-23 10:31:22.025932506,2025-09-12,2025-09-26 20:16:42.593,HA,C,2819703286,JASSM,3,113,76,2,2,1,225,9,2,0,1,26,0,0,0,0,-153949.51403983062,-4781453.594697799,4211575.247526646,-2.71064,-1.0108,0.752513,37.625,-59.875,-66.125,0.0,0.0,0.0,0.0,0.0,0.0,2,0,41.550162210430784,-91.84412775778704,15986.878762597778,155.9550629239231,-0.0034345842078932,0.0007577016824524,,14957.496266617703,17020.816047025746,150,9,2025-09-12,2025-09-26 20:16:42.427,HA,C,187649278,HAWK11,1,1,73,2,1,1,225,2,1,0,0,12,1,225,2,1,-143927.02966483062,-4790387.612275924,4202344.022917271,-2.99701,1.31222,-0.798916,18.375,87.375,94.5,-0.1875,-6.70312,6.57812,-0.0742188,-0.00390625,-0.00585938,4,0,41.43658600589468,-91.72093200445576,17099.480360412286,9.097394459071838,-2.009210060942586,-1.501080880032793,164.401,14957.496266617703,17020.816047025746,150,True,8.77719786470601,False,149.00019837481247,164.82084147907943,False,46.10172715200436,False,False
9,1970-07-23 10:31:22.032332213,2025-09-12,2025-09-26 20:16:43.233,HA,C,2821015632,JASSM,3,113,76,2,2,1,225,9,2,0,1,26,0,0,0,0,-153908.14489920562,-4781519.588838424,4211502.325651646,-2.71064,-1.0108,0.752513,37.625,-59.875,-66.125,0.0,0.0,0.0,0.0,0.0,0.0,2,0,41.54928555692804,-91.84360711977524,15986.879116448425,155.9554082474513,-0.0024752432133427,0.000756334596398,,14957.496266617703,17020.816047025746,150,9,2025-09-12,2025-09-26 20:16:43.333,HA,C,188842278,HAWK11,1,1,73,2,1,1,225,2,1,0,0,12,1,225,2,1,-143908.83239920562,-4790299.623994674,4202437.802214146,-3.0416,1.31002,-0.800163,18.125,88.125,94.625,-0.3125,-6.84375,6.64062,0.015625,0.00390625,-0.00585938,4,0,41.43774540044591,-91.7207461381111,17085.437811169202,9.172140451562411,-1.922645032200829,-4.148514935420194,164.218,14957.496266617703,17020.816047025746,150,True,8.673170867186128,False,149.14161515820183,164.389969431289,False,46.38308644070249,False,False
9,1970-07-23 10:31:22.043310369,2025-09-12,2025-09-26 20:16:44.331,HA,C,2822268330,JASSM,3,113,76,2,2,1,225,9,2,0,1,26,0,0,0,0,-153868.65661795562,-4781582.582979049,4211432.716276646,-2.71064,-1.0108,0.752513,37.625,-59.875,-66.125,0.0,0.0,0.0,0.0,0.0,0.0,2,0,41.54844873614506,-91.84311016566596,15986.879666872916,155.95573785657734,-0.00155949841389,0.0007550206956765,,14957.496266617703,17020.816047025746,150,9,2025-09-12,2025-09-26 20:16:44.239,HA,C,189876210,HAWK11,1,1,73,2,1,1,225,2,1,0,0,12,1,225,2,1,-143893.14880545562,-4790221.922822799,4202520.274870396,-3.1042,1.3267,-0.798245,17.75,89.0,95.0,0.015625,-7.0,6.75,-0.128906,0.00976562,-0.00390625,4,0,41.43876686692576,-91.7205866110716,17072.329144155214,8.53274593772427,-2.1402383098329847,-7.027710719829097,164.316,14957.496266617703,17020.816047025746,150,True,8.577749715519312,False,149.35155325546634,163.99490679662605,False,46.561113909320646,False,False
9,1970-07-23 10:31:22.053311872,2025-09-12,2025-09-26 20:16:45.331,HA,C,2823521030,JASSM,3,113,76,2,2,1,225,9,2,0,1,26,0,0,0,0,-153829.16833670562,-4781645.575166549,4211363.106901646,-2.71054,-1.0107,0.752513,37.625,-59.875,-66.125,0.0,0.0,0.0,0.0,0.0,0.0,2,0,41.54761192474119,-91.84261322512532,15986.880764678604,155.95242537228987,-0.0023183862578693,0.00249198961241,,14957.496266617703,17020.816047025746,150,9,2025-09-12,2025-09-26 20:16:45.427,HA,C,191347574,HAWK11,1,1,73,2,1,1,225,2,1,0,0,12,1,225,2,1,-143872.43200858062,-4790112.360322799,4202636.485807896,3.09509,1.34185,-0.812339,15.875,89.625,95.25,-0.109375,-7.14062,6.85938,0.0,0.0,-0.00976562,4,0,41.44020640007256,-91.72037836614832,17053.78710271722,7.814135136844478,-1.433389389054931,-11.185932679756698,164.364,14957.496266617703,17020.816047025746,150,False,8.465051527405038,False,150.19081878036482,163.47033150441743,False,46.24125756702771,False,False
9,1970-07-23 10:31:22.064273173,2025-09-12,2025-09-26 20:16:46.427,HA,C,2824773728,JASSM,3,113,76,2,2,1,225,9,2,0,1,26,0,0,0,0,-153789.67907889312,-4781708.565400924,4211293.495573521,-2.71054,-1.0107,0.752513,37.625,-59.875,-66.125,0.0,0.0,0.0,0.0,0.0,0.0,2,0,41.54677510975253,-91.8421162864629,15986.8780826895,155.95275496030504,-0.0014026476070575,0.0024906286330874,,14957.496266617703,17020.816047025746,150,9,2025-09-12,2025-09-26 20:16:46.427,HA,C,192381506,HAWK11,1,1,73,2,1,1,225,2,1,0,0,12,1,225,2,1,-143859.33825858062,-4790035.092744674,4202718.282682896,3.04045,1.37349,-0.813681,14.375,90.25,95.625,-0.21875,-7.03125,6.84375,-0.0429688,0.0,-0.0214844,4,0,41.44122026755345,-91.72024962160232,17040.484358696514,6.569071986205959,-1.5263054343500584,-12.968096091593363,164.45,14957.496266617703,17020.816047025746,150,False,8.370054137266912,False,150.86879644686204,163.06418279237622,False,45.96531417530267,False,False
9,1970-07-23 10:31:22.077993060,2025-09-12,2025-09-26 20:16:47.799,HA,C,2826026426,JASSM,3,113,76,2,2,1,225,9,2,0,1,26,0,0,0,0,-153750.19079764312,-4781771.555635299,4211223.882292271,-2.71054,-1.0107,0.752513,37.625,-59.875,-66.125,0.0,0.0,0.0,0.0,0.0,0.0,2,0,41.54593827915575,-91.84161937230478,15986.876568453055,155.95308452661482,-0.0004869002065259,0.0024892542092687,,14957.496266617703,17020.816047025746,150,9,2025-09-12,2025-09-26 20:16:47.927,HA,C,194330072,HAWK11,1,1,73,2,1,1,225,2,1,0,0,12,1,225,2,1,-143838.41247733062,-4789887.118135299,4202874.843229771,3.14025,1.40867,-0.824035,11.625,90.625,97.0,-0.109375,-7.45312,7.21875,0.201172,0.00976562,-0.00585938,4,0,41.443160585121454,-91.72005264863844,17015.1418570479,5.134134642908935,-1.0888458925961932,-5.7444078276800905,164.682,14957.496266617703,17020.816047025746,150,True,8.235805497154272,False,152.1124558087413,162.37876329179434,False,45.42373604095642,False,False
9,1970-07-23 10:31:22.085210925,2025-09-12,2025-09-26 20:16:48.521,HA,C,2827219474,JASSM,3,113,76,2,2,1,225,9,2,0,1,26,0,0,0,0,-153712.58239920562,-4781831.543916549,4211157.585417271,-2.71054,-1.0107,0.752513,37.625,-59.875,-66.125,0.0,0.0,0.0,0.0,0.0,0.0,2,0,41.54514132006484,-91.84114612744682,15986.877354406224,155.95339838976284,0.0003852194727812,0.0024879587638669,,14957.496266617703,17020.816047025746,150,9,2025-09-12,2025-09-26 20:16:48.536,HA,C,194807270,HAWK11,1,1,73,2,1,1,225,2,1,0,0,12,1,225,2,1,-143833.89099295562,-4789851.092744674,4202913.259245396,-3.09759,1.41922,-0.831801,11.25,90.5,97.25,-0.328125,-7.54688,7.21875,0.111328,0.0078125,0.00390625,4,0,41.44363489167012,-91.72001154084164,17009.670165943357,4.685038716475479,-0.6841916658947718,-2.6941390733330777,164.682,14957.496266617703,17020.816047025746,150,True,8.165954499279174,False,152.27984151887154,162.1258880569141,False,45.51509181278968,False,False
9,1970-07-23 10:31:22.095333147,2025-09-12,2025-09-26 20:16:49.533,HA,C,2828531826,JASSM,3,113,76,2,2,1,225,9,2,0,1,26,0,0,0,0,-153671.21325858062,-4781897.530244674,4211084.655729771,-2.71054,-1.0107,0.752609,37.625,-59.875,-66.125,0.0,0.0,0.0,0.0,0.0,0.0,2,0,41.54426464628554,-91.8406255729962,15986.875104431032,155.95603930087773,-0.0036477934920198,0.0024864799232796,,14957.496266617703,17020.816047025746,150,9,2025-09-12,2025-09-26 20:16:49.427,HA,C,196000270,HAWK11,1,1,73,2,1,1,225,2,1,0,0,12,1,225,2,1,-143823.05505545562,-4789760.405244674,4203010.110807896,-3.06029,1.40829,-0.837937,11.0,90.25,97.875,-0.28125,-7.64062,7.29688,0.0175781,0.00390625,0.0175781,4,0,41.44482976233213,-91.7199145831067,16996.260080090073,5.07019551438444,-0.2931040027151911,-1.0247190570579368,164.865,14957.496266617703,17020.816047025746,150,True,8.060923793254515,False,152.40297563424835,161.6388019235453,False,45.892533242538015,False,False
9,1970-07-23 10:31:22.106270626,2025-09-12,2025-09-26 20:16:50.627,HA,C,2829844176,JASSM,3,113,76,2,2,1,225,9,2,0,1,26,0,0,0,0,-153629.84411795562,-4781963.516572799,4211011.726042271,-2.71054,-1.0107,0.752609,37.625,-59.875,-66.125,0.0,0.0,0.0,0.0,0.0,0.0,2,0,41.54338797001595,-91.84010503260792,15986.878715719986,155.95638451956154,-0.0026884469711603,0.0024850856408364,,14957.496266617703,17020.816047025746,150,9,2025-09-12,2025-09-26 20:16:50.630,HA,C,197511402,HAWK11,1,1,73,2,1,1,225,2,1,0,0,12,1,225,2,1,-143809.11169608062,-4789645.201143111,4203134.704557896,-3.11609,1.40474,-0.84043,10.75,90.25,98.625,0.046875,-7.28125,7.01562,-0.117188,0.0,-0.0078125,4,0,41.44635820434398,-91.7197892807533,16982.610703580107,5.191046047874461,-0.1358505322715322,-4.373383347995298,165.403,14957.496266617703,17020.816047025746,150,True,7.9426759826903135,False,152.53192658063162,161.03422794575673,False,46.37880562811422,False,False
9,1970-07-23 10:31:22.116409436,2025-09-12,2025-09-26 20:16:51.640,HA,C,2831037222,JASSM,3,113,76,2,2,1,225,9,2,0,1,26,0,0,0,0,-153592.23571951812,-4782023.500947799,4210945.425261021,-2.71054,-1.0107,0.752609,37.625,-59.875,-66.125,0.0,0.0,0.0,0.0,0.0,0.0,2,0,41.54259100133111,-91.83963182644156,15986.876915935996,155.95669834133267,-0.0018163245641051,0.0024838228282178,,14957.496266617703,17020.816047025746,150,9,2025-09-12,2025-09-26 20:16:51.833,HA,C,198704400,HAWK11,1,1,73,2,1,1,225,2,1,0,0,12,1,225,2,1,-143798.86560233062,-4789554.540986861,4203233.155729771,3.10727,1.41884,-0.840717,9.875,90.375,99.125,-0.125,-7.20312,6.96875,-0.0351562,0.0,-0.0078125,4,0,41.44756359637216,-91.71969935454904,16972.806022227534,4.653400396988319,-0.1701737136159941,-7.198024471290725,166.136,14957.496266617703,17020.816047025746,150,True,7.843256614567183,False,152.91984447768542,160.5298014394874,False,46.50053247309642,False,False
9,1970-07-23 10:31:22.128370252,2025-09-12,2025-09-26 20:16:52.837,HA,C,2832349572,JASSM,3,113,76,2,2,1,225,9,2,0,1,26,0,0,0,0,-153550.86657889312,-4782089.485322799,4210872.491667271,-2.71054,-1.0107,0.752609,37.625,-59.875,-66.125,0.0,0.0,0.0,0.0,0.0,0.0,2,0,41.54171430565141,-91.8391113136484,15986.878424223343,155.95704353029117,-0.0008569646077335,0.0024824220191259,,14957.496266617703,17020.816047025746,150,9,2025-09-12,2025-09-26 20:16:52.738,HA,C,199778100,HAWK11,1,1,73,2,1,1,225,2,1,0,0,12,1,225,2,1,-143790.27771170562,-4789473.349580611,4203321.685026646,3.08014,1.43485,-0.841388,8.875,90.625,99.625,-0.0625,-7.51562,7.20312,0.00976562,0.0,-0.0175781,4,0,41.44864542172467,-91.71962584630096,16964.859737361356,4.040811940014154,-0.1829000230063261,-8.066915795156314,166.674,14957.496266617703,17020.816047025746,150,True,7.744379841153551,False,153.36034817340573,160.0410127838688,False,46.55217573725044,False,False
9,1970-07-23 10:31:22.138352650,2025-09-12,2025-09-26 20:16:53.835,HA,C,2833602272,JASSM,3,113,76,2,2,1,225,9,2,0,1,26,0,0,0,0,-153511.37732108062,-4782152.467744674,4210802.872526646,-2.71054,-1.0107,0.752609,37.625,-59.875,-66.125,0.0,0.0,0.0,0.0,0.0,0.0,2,0,41.54087746865447,-91.83861446829184,15986.877207686248,155.95737301811073,5.877961669239092e-05,0.0024810930848296,,14957.496266617703,17020.816047025746,150,9,2025-09-12,2025-09-26 20:16:53.927,HA,C,201328998,HAWK11,1,1,73,2,1,1,225,2,1,0,0,12,1,225,2,1,-143779.79333670562,-4789355.568330611,4203451.280729771,3.09874,1.44798,-0.84925,7.25,90.5,100.5,-0.09375,-7.4375,7.17188,0.0351562,0.0,-0.0136719,4,0,41.45022231973776,-91.7195427972506,16956.031564677935,3.5094371414203493,0.2307372900604425,-6.438359066630866,166.857,14957.496266617703,17020.816047025746,150,True,7.6276219248743,False,154.06189366033922,159.38842303738252,False,46.51547102456854,False,False
9,1970-07-23 10:31:22.149308953,2025-09-12,2025-09-26 20:16:54.930,HA,C,2834914624,JASSM,3,113,76,2,2,1,225,9,2,0,1,26,0,0,0,0,-153470.00818045562,-4782218.448213424,4210729.938932896,-2.71054,-1.0107,0.752609,37.625,-59.875,-66.125,0.0,0.0,0.0,0.0,0.0,0.0,2,0,41.54000079140261,-91.83809398448018,15986.88058477262,155.957718176153,0.0010181181284769,0.0024797006973019,,14957.496266617703,17020.816047025746,150,9,2025-09-12,2025-09-26 20:16:54.955,HA,C,201686896,HAWK11,1,1,73,2,1,1,225,2,1,0,0,12,1,225,2,1,-143777.60388358062,-4789327.768525924,4203482.065886021,3.10171,1.45172,-0.849442,7.0,90.375,100.75,-0.125,-7.48438,7.17188,0.0175781,0.0,-0.0078125,4,0,41.45059578978899,-91.71952660307532,16954.398622083183,3.367534464668682,0.2324411711108629,-6.107792234583047,167.212,14957.496266617703,17020.816047025746,150,True,7.5583943960588265,False,154.168886880928,159.11190659780422,False,46.68896705085638,False,False
9,1970-07-23 10:31:22.167769604,2025-09-12,2025-09-26 20:16:56.776,HA,C,2836167322,JASSM,3,113,76,2,2,1,225,9,2,0,1,26,0,0,0,0,-153430.51892264312,-4782281.426729049,4210660.317839146,-2.71054,-1.01061,0.752705,37.625,-59.875,-66.125,0.0,0.0,0.0,0.0,0.0,0.0,2,0,41.53916395990162,-91.8375971668538,15986.876466664506,155.95669604173565,-0.0047320468560305,-0.0012801252969766,,14957.496266617703,17020.816047025746,150,9,2025-09-12,2025-09-26 20:16:56.673,HA,C,204351260,HAWK11,1,1,73,2,1,1,225,2,1,0,0,12,1,225,2,1,-143765.39294608062,-4789126.672822799,4203706.061979771,2.92808,1.48748,-0.85251,3.625,90.0,101.375,0.140625,-7.5625,6.32812,-0.101562,0.0,-0.0195312,4,0,41.45330551736783,-91.71945280602588,16945.7153388659,2.0093862640210203,0.3386621808124485,-14.521874261938764,167.297,14957.496266617703,17020.816047025746,150,False,7.395295903538286,False,155.5929896088065,158.0558858258992,False,46.332263448076475,False,False
9,1970-07-23 10:31:22.172349712,2025-09-12,2025-09-26 20:16:57.234,HA,C,2837420020,JASSM,3,113,76,2,2,1,225,9,2,0,1,26,0,0,0,0,-153391.02966483062,-4782344.405244674,4210590.694792271,-2.71054,-1.01061,0.752705,37.625,-59.875,-66.125,0.0,0.0,0.0,0.0,0.0,0.0,2,0,41.53832711297921,-91.83710036203615,15986.87343983243,155.95702548621108,-0.0038162999629088,-0.0012814781469748,,14957.496266617703,17020.816047025746,150,9,2025-09-12,2025-09-26 20:16:57.239,HA,C,205345426,HAWK11,1,1,73,2,1,1,225,2,1,0,0,12,1,225,2,1,-143763.23474295562,-4789050.582979049,4203790.722136021,2.89951,1.50704,-0.853948,1.625,90.0,101.25,0.0,-7.73438,6.48438,0.0292969,-0.00195312,-0.0214844,4,0,41.45432973601361,-91.71945431149304,16942.418057945022,1.2702257193782889,0.3980059581017453,-15.319278097986995,167.346,14957.496266617703,17020.816047025746,150,False,7.301789912161086,False,156.43805471387594,157.54968366974973,False,45.993437254927784,False,False
9,1970-07-23 10:31:22.180232672,2025-09-12,2025-09-26 20:16:58.023,HA,C,2838613068,JASSM,3,113,76,2,2,1,225,9,2,0,1,26,0,0,0,0,-153353.42126639312,-4782404.383760299,4210524.388151646,-2.71054,-1.01061,0.752705,37.625,-59.875,-66.125,0.0,0.0,0.0,0.0,0.0,0.0,2,0,41.537530126711474,-91.8366272319004,15986.87526988135,155.95733922630637,-0.0029441733777552,-0.0012827650268259,,14957.496266617703,17020.816047025746,150,9,2025-09-12,2025-09-26 20:16:58.131,HA,C,206260058,HAWK11,1,1,73,2,1,1,225,2,1,0,0,12,1,225,2,1,-143762.96521170562,-4788982.284150924,4203866.948698521,2.91121,1.53753,-0.852222,-0.125,89.75,100.875,-0.140625,-7.6875,6.29688,0.0585938,-0.00390625,-0.0175781,4,0,41.45525036885521,-91.71947559725088,16940.097455662722,0.1228753990401469,0.2841358791812116,-13.33996405589163,167.615,14957.496266617703,17020.816047025746,150,False,7.214881109261337,False,157.17874544794827,157.0792673560492,False,45.72328127596254,False,False
