Subject_cm,Timestamp,SampleDate_cm,SampleTime_cm,Configuration_cm,Scenario_cm,DisTime_cm,MarkingTxt_cm,Application_cm,EntId_cm,Site_cm,ExerciseId_cm,ForceId_cm,Category_cm,Country_cm,Domain_cm,Kind_cm,Extra_cm,Specific_cm,Subcategory_cm,AltCategory_cm,AltCountry_cm,AltDomain_cm,AltKind_cm,ECEF_X_cm,ECEF_Y_cm,ECEF_Z_cm,OriPhi_cm,OriPsi_cm,OriTheta_cm,LinVelX_cm,LinVelY_cm,LinVelZ_cm,LinAccX_cm,LinAccY_cm,LinAccZ_cm,AngVelX_cm,AngVelY_cm,AngVelZ_cm,DrAlg_cm,Appearance_cm,Latitude_cm,Longitude_cm,Altitude_cm,Heading_cm,Pitch_cm,Roll_cm,CalibratedAirspeed_cm,CM_Altitude_Lead_cm,CM_Altitude_Wing_cm,CM_Airspeed_cm,Subject_ac,SampleDate_ac,SampleTime_ac,Configuration_ac,Scenario_ac,DisTime_ac,MarkingTxt_ac,Application_ac,EntId_ac,Site_ac,ExerciseId_ac,ForceId_ac,Category_ac,Country_ac,Domain_ac,Kind_ac,Extra_ac,Specific_ac,Subcategory_ac,AltCategory_ac,AltCountry_ac,AltDomain_ac,AltKind_ac,ECEF_X_ac,ECEF_Y_ac,ECEF_Z_ac,OriPhi_ac,OriPsi_ac,OriTheta_ac,LinVelX_ac,LinVelY_ac,LinVelZ_ac,LinAccX_ac,LinAccY_ac,LinAccZ_ac,AngVelX_ac,AngVelY_ac,AngVelZ_ac,DrAlg_ac,Appearance_ac,Latitude_ac,Longitude_ac,Altitude_ac,Heading_ac,Pitch_ac,Roll_ac,CalibratedAirspeed_ac,CM_Altitude_Lead_ac,CM_Altitude_Wing_ac,CM_Airspeed_ac,Bank_Angle_Condition,distance_nm,Distance_Condition,angle_between_vel,angle_between_pos,Cone_Condition,angle_between_pos_nose,Nose_Cone_Condition,Intercept_Criteria
9,1970-07-23 10:31:29.537071415,2025-09-12,2025-09-26 20:29:13.707,AH,C,3716098746,JASSM,3,125,76,2,2,1,225,9,2,0,1,26,0,0,0,0,-163293.53454764312,-4785309.163057174,4204119.745573521,-2.36559,-0.397301,0.382249,73.0,-30.5,-31.625,0.0,0.0,0.0,0.0,0.0,0.0,2,0,41.47509882484754,-91.9543985662348,10002.623782862762,119.8531311597818,-0.0043803457196838,0.005046424773371,,9026.08902586808,11243.505992254835,150,9,2025-09-12,2025-09-26 20:29:14.034,AH,C,1764561220,AMBUSH51,1,1,48,2,1,1,225,2,1,0,0,9,1,225,2,1,-144429.93618408497,-4792752.569942345,4195925.842898593,2.30695,2.91842,-0.225657,-96.0005,28.7727,29.9306,-0.228708,-6.98412,6.57416,0.0283741,0.00874994,-0.00807375,4,0,41.379110915960666,-91.72608997630311,9026.08902586808,-73.05197386775093,0.4353393634904123,-0.3927506561421844,181.546,9026.08902586808,11243.505992254835,150,True,11.768993020397808,False,172.3447389819604,178.91926926133632,False,7.056544546879429,True,False
9,1970-07-23 10:31:29.545840038,2025-09-12,2025-09-26 20:29:14.584,AH,C,3717291792,JASSM,3,125,76,2,2,1,225,9,2,0,1,26,0,0,0,0,-163220.54626639312,-4785339.797822799,4204087.925261021,-2.36559,-0.397301,0.382249,73.0,-30.5,-31.625,0.0,0.0,0.0,0.0,0.0,0.0,2,0,41.4747166091602,-91.95351317772509,10002.626039755653,119.85371754558456,-0.0036147402071539,0.0050451445114614,,9026.08902586808,11243.505992254835,150,9,2025-09-12,2025-09-26 20:29:14.467,AH,C,1765078186,AMBUSH51,1,1,48,2,1,1,225,2,1,0,0,9,1,225,2,1,-144472.17753804114,-4792740.043912689,4195938.796093509,2.31924,2.91703,-0.226766,-96.0647,28.8324,29.819,-0.150888,-7.0599,6.63145,0.0342976,0.000887374,0.0113028,4,0,41.37926531061736,-91.72659900928036,9026.491847124766,-72.9530746899866,0.4216056927095214,0.293888174076201,181.717,9026.08902586808,11243.505992254835,150,True,11.698622971864896,False,172.31127405927526,178.9224042467179,False,7.110676798708534,True,False
9,1970-07-23 10:31:29.555282405,2025-09-12,2025-09-26 20:29:15.528,AH,C,3718484850,JASSM,3,125,76,2,2,1,225,9,2,0,1,26,0,0,0,0,-163147.55749686187,-4785370.432588424,4204056.102995396,-2.36559,-0.397301,0.382249,73.0,-30.5,-31.625,0.0,0.0,0.0,0.0,0.0,0.0,2,0,41.47433437356208,-91.95262779377865,10002.627752005092,119.85430392392306,-0.0028491243427706,0.0050438550617273,,9026.08902586808,11243.505992254835,150,9,2025-09-12,2025-09-26 20:29:15.699,AH,C,1766549552,AMBUSH51,1,1,48,2,1,1,225,2,1,0,0,9,1,225,2,1,-144590.27494555412,-4792704.58322172,4195975.162246265,2.34087,2.91383,-0.23054,-96.3082,29.0521,29.9931,-0.160857,-7.05659,6.71703,-0.0259169,-0.000298565,-0.00122027,4,0,41.379700598305725,-91.72802232346284,9026.868832031869,-72.6740893080672,0.4378485752735696,1.494119244481043,182.121,9026.08902586808,11243.505992254835,150,True,11.584164647105787,False,172.39770641921857,178.93751122393604,False,7.06777688487427,True,False
9,1970-07-23 10:31:29.566242626,2025-09-12,2025-09-26 20:29:16.624,AH,C,3719737538,JASSM,3,125,76,2,2,1,225,9,2,0,1,26,0,0,0,0,-163070.92028983062,-4785402.596650924,4204022.688932896,-2.36559,-0.397301,0.382249,73.0,-30.5,-31.75,0.0,0.0,0.0,0.0,0.0,0.0,2,0,41.47393302855269,-91.95169816479697,10002.626175750753,119.85491960039472,-0.0020452408997402,0.0050425047104633,,9026.08902586808,11243.505992254835,150,9,2025-09-12,2025-09-26 20:29:16.699,AH,C,1767742550,AMBUSH51,1,1,48,2,1,1,225,2,1,0,0,9,1,225,2,1,-144687.13173775983,-4792675.363312519,4196005.006915289,2.28085,2.91143,-0.233084,-96.4413,29.0585,30.0285,0.10046,-6.97913,6.52565,-0.0607211,-0.000949792,-0.000918583,4,0,41.3800585282382,-91.72918970853952,9026.888761608388,-72.47687164018264,0.4389911864833479,-1.975452919559106,182.243,9026.08902586808,11243.505992254835,150,True,11.479720270041113,False,172.33154788534685,178.96654964090837,False,7.113011465953975,True,False
9,1970-07-23 10:31:29.577450053,2025-09-12,2025-09-26 20:29:17.745,AH,C,3720870932,JASSM,3,125,76,2,2,1,225,9,2,0,1,26,0,0,0,0,-163001.58142264312,-4785431.698213424,4203992.456511021,-2.36559,-0.397301,0.382249,73.0,-30.5,-31.75,0.0,0.0,0.0,0.0,0.0,0.0,2,0,41.47356989164726,-91.9508570762046,10002.628679092746,119.85547663394648,-0.0013179097589014,0.0050412774460388,,9026.08902586808,11243.505992254835,150,9,2025-09-12,2025-09-26 20:29:17.800,AH,C,1769054850,AMBUSH51,1,1,48,2,1,1,225,2,1,0,0,9,1,225,2,1,-144793.29688957357,-4792643.51786381,4196037.909415453,2.24932,2.9166,-0.227323,-96.7099,27.2681,31.4442,-0.0623633,-7.08475,6.67172,-0.0152144,-0.00143457,-0.0137122,4,0,41.38045103772605,-91.73046923321094,9027.7778011888,-72.915817824753,0.4286265847725878,-3.717702806789843,183.098,9026.08902586808,11243.505992254835,150,True,11.374456308652157,False,172.08043099865642,178.98088645677768,False,7.26383102274961,True,False
9,1970-07-23 10:31:29.585222558,2025-09-12,2025-09-26 20:29:18.522,AH,C,3722063980,JASSM,3,125,76,2,2,1,225,9,2,0,1,26,0,0,0,0,-162928.59314139312,-4785462.329072799,4203960.630339146,-2.36559,-0.397205,0.382249,73.0,-30.5,-31.75,0.0,0.0,0.0,0.0,0.0,0.0,2,0,41.47318763235894,-91.94997173089712,10002.623568322457,119.85242509165327,-0.0041219523550596,0.0029911310664194,,9026.08902586808,11243.505992254835,150,9,2025-09-12,2025-09-26 20:29:18.333,AH,C,1769691116,AMBUSH51,1,1,48,2,1,1,225,2,1,0,0,9,1,225,2,1,-144845.03701998104,-4792627.701946997,4196053.3464786615,2.23589,2.91992,-0.220841,-97.0469,28.9841,29.3558,-0.0438192,-7.05055,6.70647,-0.029429,0.000167488,0.000236147,4,0,41.380640044290764,-91.73109292845368,9026.18827920356,-73.3154547718313,0.314685662307233,-4.447423423842072,183.098,9026.08902586808,11243.505992254835,150,True,11.298579262861194,False,171.92780544823577,178.9840470195071,False,7.5940037053883325,True,False
9,1970-07-23 10:31:29.595340367,2025-09-12,2025-09-26 20:29:19.534,AH,C,3723257026,JASSM,3,125,76,2,2,1,225,9,2,0,1,26,0,0,0,0,-162855.60486014312,-4785492.959932174,4203928.806120396,-2.36559,-0.397205,0.382249,73.0,-30.5,-31.75,0.0,0.0,0.0,0.0,0.0,0.0,2,0,41.4728053794011,-91.9490863959919,10002.626441437413,119.85301141982475,-0.0033563461765638,0.0029897987880684,,9026.08902586808,11243.505992254835,150,9,2025-09-12,2025-09-26 20:29:19.466,AH,C,1771043180,AMBUSH51,1,1,48,2,1,1,225,2,1,0,0,9,1,225,2,1,-144954.52650092164,-4792595.104253869,4196085.79474995,2.23172,2.92448,-0.216336,-97.4752,28.5779,28.7953,0.0272241,-7.13587,6.63416,0.0210567,0.00540851,-0.00848779,4,0,41.38103334074506,-91.73241245391864,9024.498812054975,-73.67874427153654,0.3289952456534446,-4.631889412291566,183.673,9026.08902586808,11243.505992254835,150,True,11.189438222569596,False,171.49276119937588,178.99674024639643,False,8.072827043208257,True,False
9,1970-07-23 10:31:29.605385699,2025-09-12,2025-09-26 20:29:20.538,AH,C,3724450072,JASSM,3,125,76,2,2,1,225,9,2,0,1,26,0,0,0,0,-162782.61657889312,-4785523.588838424,4203896.979948521,-2.36559,-0.397205,0.382249,73.0,-30.5,-31.75,0.0,0.0,0.0,0.0,0.0,0.0,2,0,41.47242311806783,-91.94820107228364,10002.624012475952,119.85359773613747,-0.0025907396990002,0.0029884648513525,,9026.08902586808,11243.505992254835,150,9,2025-09-12,2025-09-26 20:29:20.567,AH,C,1772355480,AMBUSH51,1,1,48,2,1,1,225,2,1,0,0,9,1,225,2,1,-145062.6991391814,-4792563.249537531,4196117.429187021,2.34871,2.93276,-0.208574,-97.7559,28.7522,28.5491,-0.231521,-7.14113,6.49358,0.0755474,-0.000581526,-0.0122225,4,0,41.38141694481321,-91.73371599825164,9022.78156840527,-74.32088769910104,0.3721660245186067,2.167089774991608,183.88,9026.08902586808,11243.505992254835,150,True,11.081214160683743,False,171.39797155428022,179.00830434669146,False,8.228346082268715,True,False
9,1970-07-23 10:31:29.616302075,2025-09-12,2025-09-26 20:29:21.630,AH,C,3725702770,JASSM,3,125,76,2,2,1,225,9,2,0,1,26,0,0,0,0,-162705.97839529935,-4785555.748994674,4203863.561979771,-2.36559,-0.397205,0.382345,73.0,-30.5,-31.75,0.0,0.0,0.0,0.0,0.0,0.0,2,0,41.47202173427687,-91.94727148782532,10002.62390580468,119.85806075414698,-0.0057076362762913,0.002986812947143,,9026.08902586808,11243.505992254835,150,9,2025-09-12,2025-09-26 20:29:21.799,AH,C,1773826844,AMBUSH51,1,1,48,2,1,1,225,2,1,0,0,9,1,225,2,1,-145182.51292267395,-4792527.718789944,4196152.525902302,2.40621,2.92184,-0.221567,-97.566,29.0454,29.2588,-0.263819,-7.53258,6.72022,0.0380052,0.000462932,0.0285281,4,0,41.38184367925318,-91.7351599331214,9020.403236918017,-73.35991681667066,0.4250387549827806,5.334742015690351,183.758,9026.08902586808,11243.505992254835,150,True,10.963934639897396,False,171.8019618645783,179.01877508590348,False,7.8619921844811,True,False
9,1970-07-23 10:31:29.626319685,2025-09-12,2025-09-26 20:29:22.631,AH,C,3726955468,JASSM,3,125,76,2,2,1,225,9,2,0,1,26,0,0,0,0,-162629.34069998687,-4785587.909150924,4203830.144011021,-2.36559,-0.397205,0.382345,73.0,-30.5,-31.75,0.0,0.0,0.0,0.0,0.0,0.0,2,0,41.47162034284703,-91.9463419206747,10002.627963413492,119.85867636162322,-0.0049037482631214,0.0029854643534663,,9026.08902586808,11243.505992254835,150,9,2025-09-12,2025-09-26 20:29:22.566,AH,C,1774741476,AMBUSH51,1,1,48,2,1,1,225,2,1,0,0,9,1,225,2,1,-145257.15637594365,-4792505.30758274,4196174.901971444,2.40756,2.91728,-0.229401,-97.2927,29.2875,29.8726,-0.136651,-7.4657,6.41531,-0.0176091,0.00773669,0.00896216,4,0,41.38211461402244,-91.73605960763447,9019.355769007436,-72.85776669532783,0.541862137552048,5.358161387781792,184.003,9026.08902586808,11243.505992254835,150,True,10.872554258345891,False,172.16844051481067,179.02224328106718,False,7.513237924675658,True,False
9,1970-07-23 10:31:29.639067531,2025-09-12,2025-09-26 20:29:23.906,AH,C,3728208168,JASSM,3,125,76,2,2,1,225,9,2,0,1,26,0,0,0,0,-162552.70251639312,-4785620.067354049,4203796.724089146,-2.36559,-0.397205,0.382345,73.0,-30.5,-31.75,0.0,0.0,0.0,0.0,0.0,0.0,2,0,41.471218942439656,-91.94541235994691,10002.627061579711,119.85929195994746,-0.0040998561993561,0.0029841163623767,,9026.08902586808,11243.505992254835,150,9,2025-09-12,2025-09-26 20:29:24.099,AH,C,1776570742,AMBUSH51,1,1,48,2,1,1,225,2,1,0,0,9,1,225,2,1,-145405.82396382958,-4792459.683932211,4196220.708124302,2.32831,2.91216,-0.238346,-96.737,29.8936,30.3442,-0.161642,-7.25868,6.40556,-0.0404749,-0.00252688,3.22492e-05,4,0,41.382668456970094,-91.7378518723097,9017.539340667568,-72.288401360969,0.6801385989084767,0.7551115008027225,183.428,9026.08902586808,11243.505992254835,150,True,10.73790364173411,False,172.6635329288457,179.030074396874,False,7.089475216553889,True,False
9,1970-07-23 10:31:29.648661066,2025-09-12,2025-09-26 20:29:24.866,AH,C,3729401214,JASSM,3,125,76,2,2,1,225,9,2,0,1,26,0,0,0,0,-162479.71423514312,-4785650.694307174,4203764.894011021,-2.36559,-0.397205,0.382345,73.0,-30.5,-31.75,0.0,0.0,0.0,0.0,0.0,0.0,2,0,41.470836638017815,-91.94452708020114,10002.626868379162,119.85987822879363,-0.0033342426160378,0.0029828206619148,,9026.08902586808,11243.505992254835,150,9,2025-09-12,2025-09-26 20:29:24.900,AH,C,1777525140,AMBUSH51,1,1,48,2,1,1,225,2,1,0,0,9,1,225,2,1,-145483.21219433792,-4792435.729585217,4196244.881770878,2.29792,2.91337,-0.237413,-96.5737,29.9325,30.3246,0.0415419,-7.33051,6.21491,-0.0304048,-0.00234587,0.00819026,4,0,41.38296019132381,-91.73878491401096,9016.808923213704,-72.37392572812132,0.6941766241336493,-0.9710426357650026,183.355,9026.08902586808,11243.505992254835,150,True,10.646902874672293,False,172.70463613554995,179.0307558627062,False,7.081195144391545,True,False
9,1970-07-23 10:31:29.657221994,2025-09-12,2025-09-26 20:29:25.722,AH,C,3730594262,JASSM,3,125,76,2,2,1,225,9,2,0,1,26,0,0,0,0,-162406.72546561187,-4785681.319307174,4203733.063932896,-2.36559,-0.397205,0.382345,73.0,-30.5,-31.75,0.0,0.0,0.0,0.0,0.0,0.0,2,0,41.47045433848982,-91.94364180581114,10002.625575979606,119.86046448964905,-0.0025686315438665,0.0029815369891692,,9026.08902586808,11243.505992254835,150,9,2025-09-12,2025-09-26 20:29:25.734,AH,C,1778519306,AMBUSH51,1,1,48,2,1,1,225,2,1,0,0,9,1,225,2,1,-145563.6217751446,-4792411.034901608,4196269.637539646,2.27175,2.91559,-0.236367,-96.4467,29.8991,29.8442,-0.108051,-7.10575,6.35203,-0.0173927,-0.000660589,-0.0160549,4,0,41.38325970625622,-91.73975432123449,9015.74896795059,-72.50263701936115,0.745704220634556,-2.441749714551259,183.184,9026.08902586808,11243.505992254835,150,True,10.554252948892,False,172.5397016078249,179.03066707733524,False,7.297672621166668,True,False
9,1970-07-23 10:31:29.669859091,2025-09-12,2025-09-26 20:29:26.985,AH,C,3731906610,JASSM,3,125,76,2,2,1,225,9,2,0,1,26,0,0,0,0,-162326.43835623687,-4785715.004854049,4203698.050261021,-2.36559,-0.397205,0.382345,73.0,-30.5,-31.75,0.0,0.0,0.0,0.0,0.0,0.0,2,0,41.47003380868451,-91.94266802321152,10002.622447255091,119.86110935872368,-0.0017264677651896,0.0029801287912742,,9026.08902586808,11243.505992254835,150,9,2025-09-12,2025-09-26 20:29:27.032,AH,C,1780070204,AMBUSH51,1,1,48,2,1,1,225,2,1,0,0,9,1,225,2,1,-145689.65080823802,-4792372.155482401,4196308.346872118,2.26285,2.91881,-0.233833,-96.3632,29.5174,29.4477,-0.191574,-7.26395,6.41077,0.0308042,0.00241661,-0.00420176,4,0,41.38372955209797,-91.7412737919704,9013.4681689817,-72.7319851942561,0.7807833227994523,-2.9122740179840605,182.573,9026.08902586808,11243.505992254835,150,True,10.430475757084682,False,172.28331872068244,179.0297952857417,False,7.601663386696117,True,False
9,1970-07-23 10:31:29.678320351,2025-09-12,2025-09-26 20:29:27.832,AH,C,3733159308,JASSM,3,125,76,2,2,1,225,9,2,0,1,26,0,0,0,0,-162249.80017264312,-4785747.161104049,4203664.628386021,-2.36559,-0.397205,0.382345,73.0,-30.5,-31.75,0.0,0.0,0.0,0.0,0.0,0.0,2,0,41.469632376941775,-91.94173850860294,10002.62880092551,119.86172490714505,-0.000922575229327,0.0029787790421582,,9026.08902586808,11243.505992254835,150,9,2025-09-12,2025-09-26 20:29:27.832,AH,C,1781024604,AMBUSH51,1,1,48,2,1,1,225,2,1,0,0,9,1,225,2,1,-145766.11027387876,-4792349.307362832,4196332.103438975,2.29719,2.91692,-0.232954,-96.386,26.6088,31.7425,-0.159521,-7.37874,6.31141,0.0392556,-0.00525454,0.00524206,4,0,41.38401203127713,-91.74219536877322,9014.498888531056,-72.69845144549822,0.66988496008726,-0.9692727546453755,182.255,9026.08902586808,11243.505992254835,150,True,10.337912112825896,False,171.96680764880261,179.02842712807973,False,7.703736826481675,True,False
9,1970-07-23 10:31:29.689300024,2025-09-12,2025-09-26 20:29:28.930,AH,C,3734412008,JASSM,3,125,76,2,2,1,225,9,2,0,1,26,0,0,0,0,-162173.16198904935,-4785779.313447799,4203631.204557896,-2.36559,-0.397109,0.382345,73.0,-30.5,-31.75,0.0,0.0,0.0,0.0,0.0,0.0,2,0,41.46923094775622,-91.94080900704589,10002.625437188704,119.85870282906023,-0.0036883374189149,0.0009280699307922,,9026.08902586808,11243.505992254835,150,9,2025-09-12,2025-09-26 20:29:28.732,AH,C,1782098302,AMBUSH51,1,1,48,2,1,1,225,2,1,0,0,9,1,225,2,1,-145853.2871715596,-4792322.02263503,4196358.067514799,2.32825,2.92334,-0.231723,-96.0668,29.4342,29.2307,-0.199355,-7.45367,6.35111,0.0268449,-0.00764515,0.00422465,4,0,41.38433385578199,-91.74324658251254,9010.207699472863,-72.99310730907025,0.8866892183825312,0.8908837198291382,182.084,9026.08902586808,11243.505992254835,150,True,10.239120969921297,False,172.23689440142496,179.02121082290162,False,7.7241971121144894,True,False
9,1970-07-23 10:31:29.701469383,2025-09-12,2025-09-26 20:29:30.146,AH,C,3735664708,JASSM,3,125,76,2,2,1,225,9,2,0,1,26,0,0,0,0,-162096.52380545562,-4785811.467744674,4203597.778776646,-2.36559,-0.397109,0.382345,73.0,-30.5,-31.75,0.0,0.0,0.0,0.0,0.0,0.0,2,0,41.468829486227705,-91.93987951616508,10002.62675231522,119.85931835205876,-0.0028844380499431,0.0009266560271883,,9026.08902586808,11243.505992254835,150,9,2025-09-12,2025-09-26 20:29:30.299,AH,C,1783967334,AMBUSH51,1,1,48,2,1,1,225,2,1,0,0,9,1,225,2,1,-146003.85829920543,-4792275.5840665065,4196403.803580696,2.36824,2.91853,-0.23543,-95.7483,29.7289,29.6152,-0.172524,-7.17078,6.48675,0.0146755,0.0136789,0.00785737,4,0,41.38489161543623,-91.7450620044011,9006.431027880164,-72.65652926719304,0.8341896072288675,3.123704031970873,181.766,9026.08902586808,11243.505992254835,150,True,10.103489855450977,False,172.54959011368942,179.0116734432232,False,7.479893459526811,True,False
9,1970-07-23 10:31:29.710281746,2025-09-12,2025-09-26 20:29:31.028,AH,C,3736917406,JASSM,3,125,76,2,2,1,225,9,2,0,1,26,0,0,0,0,-162019.88562186187,-4785843.618135299,4203564.352995396,-2.36559,-0.397109,0.382441,73.0,-30.5,-31.75,0.0,0.0,0.0,0.0,0.0,0.0,2,0,41.46842804042712,-91.938950038334,10002.622593400632,119.86378139686802,-0.0060012009712489,0.0009249903249334,,9026.08902586808,11243.505992254835,150,9,2025-09-12,2025-09-26 20:29:31.099,AH,C,1784921732,AMBUSH51,1,1,48,2,1,1,225,2,1,0,0,9,1,225,2,1,-146080.32472802437,-4792251.48458785,4196427.447080962,2.36422,2.91728,-0.237109,-95.4585,30.0713,29.8312,-0.207327,-7.19836,6.29898,-0.0621983,0.00807583,0.00349436,4,0,41.38518074182338,-91.74598415293174,9004.152805585756,-72.53913550253598,0.8486906561702816,2.8778769526880925,181.717,9026.08902586808,11243.505992254835,150,True,10.010716601921256,False,172.80628567489074,179.00218213630697,False,7.268477107555025,True,False
9,1970-07-23 10:31:29.720263405,2025-09-12,2025-09-26 20:29:32.026,AH,C,3738110454,JASSM,3,125,76,2,2,1,225,9,2,0,1,26,0,0,0,0,-161946.89782889312,-4785874.237275924,4203532.519011021,-2.36559,-0.397109,0.382441,73.0,-30.5,-31.75,0.0,0.0,0.0,0.0,0.0,0.0,2,0,41.46804570618168,-91.93806484352584,10002.622061908143,119.8643675771974,-0.0052356028677117,0.0009237112782622,,9026.08902586808,11243.505992254835,150,9,2025-09-12,2025-09-26 20:29:31.899,AH,C,1785876132,AMBUSH51,1,1,48,2,1,1,225,2,1,0,0,9,1,225,2,1,-146156.31824656745,-4792227.695175238,4196450.698879511,2.2859,2.91183,-0.240718,-95.4082,30.2439,29.6487,0.0285842,-7.23172,6.20608,-0.0747069,0.0011204,0.00778246,4,0,41.385465457540604,-91.7469005480227,9001.755957828478,-72.18212483057431,0.7662327197466012,-1.6780268509569576,181.265,9026.08902586808,11243.505992254835,150,True,9.920597221698614,False,172.7994306181345,178.99160348487564,False,7.3286392457861576,True,False
9,1970-07-23 10:31:29.730240043,2025-09-12,2025-09-26 20:29:33.024,AH,C,3739363152,JASSM,3,125,76,2,2,1,225,9,2,0,1,26,0,0,0,0,-161870.25866873687,-4785906.389619674,4203499.091276646,-2.36559,-0.397109,0.382441,73.0,-30.5,-31.75,0.0,0.0,0.0,0.0,0.0,0.0,2,0,41.467644221056254,-91.93713537561536,10002.626427959513,119.86498307061046,-0.0044316954972653,0.0009223541609315,,9026.08902586808,11243.505992254835,150,9,2025-09-12,2025-09-26 20:29:33.033,AH,C,1787228196,AMBUSH51,1,1,48,2,1,1,225,2,1,0,0,9,1,225,2,1,-146264.49491019832,-4792193.853895586,4196483.932024867,2.21578,2.91953,-0.233375,-95.4725,30.0522,28.964,0.063304,-7.21876,6.26325,-0.0385565,-0.00101637,-0.0239633,4,0,41.38587150765893,-91.74820504090548,8998.69770654035,-72.7827910462961,0.7978966003367898,-5.600368457968875,181.595,9026.08902586808,11243.505992254835,150,True,9.809433212186045,False,172.4521965346346,178.97646921856108,False,7.742444311069133,True,False
9,1970-07-23 10:31:29.741200514,2025-09-12,2025-09-26 20:29:34.120,AH,C,3740615852,JASSM,3,125,76,2,2,1,225,9,2,0,1,26,0,0,0,0,-161793.61999686187,-4785938.538057174,4203465.663542271,-2.36549,-0.397109,0.382441,73.0,-30.5,-31.75,0.0,0.0,0.0,0.0,0.0,0.0,2,0,41.46724275156046,-91.93620592659144,10002.625360418757,119.86559854661635,-0.0036278044280564,0.0064124864263574,,9026.08902586808,11243.505992254835,150,9,2025-09-12,2025-09-26 20:29:34.099,AH,C,1788500728,AMBUSH51,1,1,48,2,1,1,225,2,1,0,0,9,1,225,2,1,-146366.56843563754,-4792162.09433109,4196514.722351566,2.2002,2.92825,-0.221899,-95.7759,29.3604,28.419,-0.286375,-7.53087,6.80555,-8.42641e-05,-0.00110584,-0.00767011,4,0,41.3862497755006,-91.74943588889728,8995.011123973982,-73.59747494881488,0.7136411048922549,-6.391567512613959,181.595,9026.08902586808,11243.505992254835,150,True,9.701976999549977,False,171.9557117424185,178.95862630743767,False,8.268787531025481,True,False
9,1970-07-23 10:31:29.751338670,2025-09-12,2025-09-26 20:29:35.133,AH,C,3741928202,JASSM,3,125,76,2,2,1,225,9,2,0,1,26,0,0,0,0,-161713.33239920562,-4785972.215791549,4203430.644011021,-2.36549,-0.397109,0.382441,73.0,-30.5,-31.75,0.0,0.0,0.0,0.0,0.0,0.0,2,0,41.466822165694346,-91.93523223742326,10002.624824303266,119.86624331294664,-0.0027856419780428,0.0064110882110608,,9026.08902586808,11243.505992254835,150,9,2025-09-12,2025-09-26 20:29:35.166,AH,C,1789773260,AMBUSH51,1,1,48,2,1,1,225,2,1,0,0,9,1,225,2,1,-146470.25900971697,-4792130.968326546,4196544.958952492,2.23412,2.93164,-0.217417,-96.1825,28.4768,28.0034,0.0630862,-7.45723,6.54273,0.0370065,-0.00273286,-0.00963419,4,0,41.3866202291632,-91.7506858360269,8991.810202318871,-73.91587223487011,0.6814234297713844,-4.409279257613834,181.803,9026.08902586808,11243.505992254835,150,True,9.591724988814565,False,171.42520236163563,178.93771839683959,False,8.821481759964195,True,False
9,1970-07-23 10:31:29.763279210,2025-09-12,2025-09-26 20:29:36.327,AH,C,3743240554,JASSM,3,125,76,2,2,1,225,9,2,0,1,26,0,0,0,0,-161633.04431326812,-4786005.895479049,4203395.620573521,-2.36549,-0.397109,0.382441,73.0,-30.5,-31.75,0.0,0.0,0.0,0.0,0.0,0.0,2,0,41.46640153367842,-91.93425855421246,10002.62508575192,119.8668880699566,-0.0019434562972013,0.0064096595862647,,9026.08902586808,11243.505992254835,150,9,2025-09-12,2025-09-26 20:29:36.099,AH,C,1790886726,AMBUSH51,1,1,48,2,1,1,225,2,1,0,0,9,1,225,2,1,-146560.26774975288,-4792104.413274239,4196570.789719164,2.27822,2.93561,-0.213648,-96.3713,28.2517,27.6438,-0.152916,-7.42499,6.63343,0.039601,0.0105205,-0.00360255,4,0,41.38693622175822,-91.75177069661945,8989.275612752004,-74.22579405085084,0.7007216286064121,-1.838176326818481,181.717,9026.08902586808,11243.505992254835,150,True,9.489538541884773,False,171.17157633882607,178.9162886324082,False,9.127537287041122,True,False
9,1970-07-23 10:31:29.774259907,2025-09-12,2025-09-26 20:29:37.425,AH,C,3744552904,JASSM,3,125,76,2,2,1,225,9,2,0,1,26,0,0,0,0,-161552.75671561187,-4786039.571260299,4203360.599089146,-2.36549,-0.397013,0.382441,73.0,-30.5,-31.75,0.0,0.0,0.0,0.0,0.0,0.0,2,0,41.46598092972895,-91.9332848910033,10002.62455853105,119.86389546403257,-0.0046709353875679,0.0043584659306955,,9026.08902586808,11243.505992254835,150,9,2025-09-12,2025-09-26 20:29:37.465,AH,C,1792517158,AMBUSH51,1,1,48,2,1,1,225,2,1,0,0,9,1,225,2,1,-146691.55549307843,-4792066.162921568,4196608.231519949,2.32314,2.93321,-0.21619,-96.5546,27.8706,27.948,-0.169913,-7.34999,6.77864,0.0361743,-0.00640719,-0.00499239,4,0,41.38739265182742,-91.75335292891512,8986.265771585351,-74.02848193025017,0.7006535666543299,0.7089364092481332,181.925,9026.08902586808,11243.505992254835,150,True,9.363795799260188,False,171.12699298271446,178.8836674405317,False,9.216518193462658,True,False
9,1970-07-23 10:31:29.785218256,2025-09-12,2025-09-26 20:29:38.521,AH,C,3745865256,JASSM,3,125,76,2,2,1,225,9,2,0,1,26,0,0,0,0,-161472.46862967435,-4786073.247041549,4203325.575651646,-2.36549,-0.397013,0.382441,73.0,-30.5,-31.75,0.0,0.0,0.0,0.0,0.0,0.0,2,0,41.46556030443408,-91.93231123454017,10002.624273209614,119.86454019266786,-0.0038287622851429,0.0043570033566506,,9026.08902586808,11243.505992254835,150,9,2025-09-12,2025-09-26 20:29:38.733,AH,C,1794028290,AMBUSH51,1,1,48,2,1,1,225,2,1,0,0,9,1,225,2,1,-146814.5802760428,-4792030.270106815,4196643.600666767,2.35539,2.92809,-0.213855,-96.7844,28.3148,28.2668,-0.105167,-6.94494,6.74055,-0.00094355,0.00759521,0.00333831,4,0,41.387822548722994,-91.75483561774954,8983.947785696246,-73.93488915067577,0.4001417654780257,2.49491221154436,181.974,9026.08902586808,11243.505992254835,150,True,9.24273500623603,False,171.34885039645658,178.8486428034261,False,9.076643950475077,True,False
9,1970-07-23 10:31:29.795383114,2025-09-12,2025-09-26 20:29:39.538,AH,C,3747177606,JASSM,3,125,76,2,2,1,225,9,2,0,1,26,0,0,0,0,-161392.18103201812,-4786106.922822799,4203290.550261021,-2.36549,-0.397013,0.382441,73.0,-30.5,-31.75,0.0,0.0,0.0,0.0,0.0,0.0,2,0,41.46513965759765,-91.9313375965009,10002.624310844458,119.8651849037264,-0.0029865863075206,0.0043555270604074,,9026.08902586808,11243.505992254835,150,9,2025-09-12,2025-09-26 20:29:39.532,AH,C,1794982688,AMBUSH51,1,1,48,2,1,1,225,2,1,0,0,9,1,225,2,1,-146892.11538828386,-4792007.323524949,4196665.951111752,2.32823,2.92228,-0.213243,-96.9753,28.7209,28.3557,-0.216269,-6.63035,6.4229,-0.0555176,-0.00778663,0.0130131,4,0,41.38809581416044,-91.75577019662596,8981.819583911645,-73.74149783077547,0.1371978217474627,0.8690757550771925,182.622,9026.08902586808,11243.505992254835,150,True,9.147701544306715,False,171.47546795252092,178.82146399467658,False,9.01433989341115,True,False
9,1970-07-23 10:31:29.806321979,2025-09-12,2025-09-26 20:29:40.632,AH,C,3748430306,JASSM,3,125,76,2,2,1,225,9,2,0,1,26,0,0,0,0,-161315.54236014312,-4786139.065400924,4203257.118620396,-2.36549,-0.397013,0.382441,73.0,-30.5,-31.75,0.0,0.0,0.0,0.0,0.0,0.0,2,0,41.46473814963893,-91.93040822137424,10002.626082710158,119.86580030032324,-0.0021827007711998,0.004354142531421,,9026.08902586808,11243.505992254835,150,9,2025-09-12,2025-09-26 20:29:40.699,AH,C,1796374520,AMBUSH51,1,1,48,2,1,1,225,2,1,0,0,9,1,225,2,1,-147006.2951796089,-4791973.267559744,4196698.627722666,2.2012,2.91908,-0.211429,-97.5573,28.9709,27.786,0.0085355,-6.88294,6.59564,-0.0764504,0.00124107,-0.00342778,4,0,41.38849818798593,-91.7571465880547,8977.527401668782,-73.6980636129279,-0.0637207201751808,-6.4479294063565495,184.125,9026.08902586808,11243.505992254835,150,True,9.033915823743882,False,171.2095623246443,178.78036701278776,False,9.383125936007563,True,False
9,1970-07-23 10:31:29.817260018,2025-09-12,2025-09-26 20:29:41.726,AH,C,3749742656,JASSM,3,125,76,2,2,1,225,9,2,0,1,26,0,0,0,0,-161235.25427420562,-4786172.739229049,4203222.091276646,-2.36549,-0.397013,0.382536,73.0,-30.5,-31.75,0.0,0.0,0.0,0.0,0.0,0.0,2,0,41.4643174851943,-91.9294346028817,10002.625883245788,119.87029266451314,-0.0052610317999451,0.0043524451376296,,9026.08902586808,11243.505992254835,150,9,2025-09-12,2025-09-26 20:29:41.932,AH,C,1797845886,AMBUSH51,1,1,48,2,1,1,225,2,1,0,0,9,1,225,2,1,-147126.56418398407,-4791937.792896407,4196731.949180295,2.12844,2.92706,-0.190388,-98.4909,28.5551,26.5602,-0.0872547,-6.66521,6.32313,-0.0504014,-0.0033508,-0.0199623,4,0,41.38891222584049,-91.75859625566858,8971.611441571145,-74.89008801467797,-0.547403264530681,-10.519365880122864,184.577,9026.08902586808,11243.505992254835,150,False,8.914652617216568,False,170.4032244283938,178.73039109180084,False,10.286738624798215,True,False
9,1970-07-23 10:31:29.828220993,2025-09-12,2025-09-26 20:29:42.822,AH,C,3751055008,JASSM,3,125,76,2,2,1,225,9,2,0,1,26,0,0,0,0,-161154.96618826812,-4786206.409150924,4203187.065886021,-2.36549,-0.397013,0.382536,73.0,-30.5,-31.75,0.0,0.0,0.0,0.0,0.0,0.0,2,0,41.46389684891499,-91.9284609985472,10002.624854054868,119.87093733745742,-0.0044188707116256,0.0043510569354226,,9026.08902586808,11243.505992254835,150,9,2025-09-12,2025-09-26 20:29:42.899,AH,C,1798999118,AMBUSH51,1,1,48,2,1,1,225,2,1,0,0,9,1,225,2,1,-147222.2360500286,-4791910.3385692425,4196756.855897134,2.12633,2.93938,-0.180914,-99.2606,26.8772,26.6396,-0.135942,-7.05127,6.88013,0.0192653,0.015256,-0.0166,4,0,41.38922621881007,-91.75974917352976,8965.323477275417,-75.759735964543,-0.3999857100282013,-10.50304874074402,185.493,9026.08902586808,11243.505992254835,150,False,8.809946999740637,False,169.75703381458868,178.6821723337035,False,10.919809212990335,True,False
9,1970-07-23 10:31:29.839339412,2025-09-12,2025-09-26 20:29:43.933,AH,C,3752307706,JASSM,3,125,76,2,2,1,225,9,2,0,1,26,0,0,0,0,-161078.32751639312,-4786238.549775924,4203153.628386021,-2.36549,-0.397013,0.382536,73.0,-30.5,-31.75,0.0,0.0,0.0,0.0,0.0,0.0,2,0,41.463495289746135,-91.92753165969891,10002.621860992404,119.87155269495828,-0.0036149715340663,0.004349701816938,,9026.08902586808,11243.505992254835,150,9,2025-09-12,2025-09-26 20:29:43.899,AH,C,1800192116,AMBUSH51,1,1,48,2,1,1,225,2,1,0,0,9,1,225,2,1,-147323.0621961142,-4791882.40862097,4196781.313954259,2.1287,2.94491,-0.169996,-100.433,26.963,24.0924,-0.0423293,-7.27298,6.78571,0.0020962,0.00314898,-0.00247695,4,0,41.389539057378194,-91.76096384856096,8957.287397675347,-76.43318658140056,-0.5893367581891696,-10.306048258091687,186.532,9026.08902586808,11243.505992254835,150,False,8.705193305980819,False,168.55837192219934,178.62432369709416,False,12.28168570322719,True,False
9,1970-07-23 10:31:29.850300741,2025-09-12,2025-09-26 20:29:45.030,AH,C,3753620058,JASSM,3,125,76,2,2,1,225,9,2,0,1,26,0,0,0,0,-160998.03943045562,-4786272.219697799,4203118.601042271,-2.36549,-0.397013,0.382536,73.0,-30.5,-31.75,0.0,0.0,0.0,0.0,0.0,0.0,2,0,41.46307462412916,-91.92655807996098,10002.625434200403,119.87219734110704,-0.0027728037646905,0.0043483021224625,,9026.08902586808,11243.505992254835,150,9,2025-09-12,2025-09-26 20:29:45.098,AH,C,1801623716,AMBUSH51,1,1,48,2,1,1,225,2,1,0,0,9,1,225,2,1,-147444.52609398126,-4791850.68811107,4196809.153572066,2.16565,2.95523,-0.159548,-101.578,25.7228,22.9786,-0.0218974,-7.3756,7.09213,0.0279434,0.00820899,-0.0147275,4,0,41.38989348537812,-91.76242645983582,8948.829189584347,-77.26934125993542,-0.5586279054853864,-8.083953702324855,187.412,9026.08902586808,11243.505992254835,150,True,8.587304881232017,False,167.5321224270301,178.54770419803356,False,13.394229626311764,True,False
9,1970-07-23 10:31:29.860279778,2025-09-12,2025-09-26 20:29:46.027,AH,C,3754872758,JASSM,3,125,76,2,2,1,225,9,2,0,1,26,0,0,0,0,-160921.40075858062,-4786304.358369674,4203085.163542271,-2.36549,-0.397013,0.382536,73.0,-30.5,-31.75,0.0,0.0,0.0,0.0,0.0,0.0,2,0,41.46267306116194,-91.92562876537752,10002.626085325684,119.8728126725079,-0.0019689107759827,0.0043469567303418,,9026.08902586808,11243.505992254835,150,9,2025-09-12,2025-09-26 20:29:45.965,AH,C,1802657648,AMBUSH51,1,1,48,2,1,1,225,2,1,0,0,9,1,225,2,1,-147532.57744238045,-4791828.577924441,4196828.683902317,2.26586,2.95732,-0.158835,-102.354,25.1089,22.7609,-0.255081,-7.30839,7.14065,0.153882,0.0131171,-0.0157074,4,0,41.390140747330776,-91.76348641819908,8943.466828105595,-77.37969570165588,-0.4975977687197214,-2.3221491542370507,188.439,9026.08902586808,11243.505992254835,150,True,8.490580143564337,False,167.1257544304998,178.4851210632422,False,13.865802121685896,True,False
9,1970-07-23 10:31:29.872260828,2025-09-12,2025-09-26 20:29:47.226,AH,C,3756185108,JASSM,3,125,76,2,2,1,225,9,2,0,1,26,0,0,0,0,-160841.11267264312,-4786338.026338424,4203050.132292271,-2.36549,-0.396918,0.382536,73.0,-30.5,-31.75,0.0,0.0,0.0,0.0,0.0,0.0,2,0,41.462252364667904,-91.92465521102172,10002.62521892983,119.86982021584345,-0.004696371263565,0.002295263179626,,9026.08902586808,11243.505992254835,150,9,2025-09-12,2025-09-26 20:29:47.065,AH,C,1803969946,AMBUSH51,1,1,48,2,1,1,225,2,1,0,0,9,1,225,2,1,-147646.4066116868,-4791800.5907730535,4196853.687960416,2.40255,2.95793,-0.159999,-102.898,24.9355,23.4732,-0.345891,-7.26617,7.1124,0.0731111,-0.00937204,0.0176362,4,0,41.39045519101488,-91.7648564822048,8937.478206371137,-77.35433999647884,-0.4261045241910911,5.514545887310388,188.879,9026.08902586808,11243.505992254835,150,True,8.377545655381985,False,167.26027079127033,178.40083863892252,False,13.815392722090058,True,False
9,1970-07-23 10:31:29.882200614,2025-09-12,2025-09-26 20:29:48.220,AH,C,3757497458,JASSM,3,125,76,2,2,1,225,9,2,0,1,26,0,0,0,0,-160760.82458670562,-4786371.692354049,4203015.101042271,-2.36549,-0.396918,0.382536,73.0,-30.5,-31.75,0.0,0.0,0.0,0.0,0.0,0.0,2,0,41.46183167153568,-91.92368167003478,10002.624078783798,119.87046482053768,-0.0038542028887046,0.0022938066616577,,9026.08902586808,11243.505992254835,150,9,2025-09-12,2025-09-26 20:29:48.165,AH,C,1805282244,AMBUSH51,1,1,48,2,1,1,225,2,1,0,0,9,1,225,2,1,-147758.90093214597,-4791772.235744225,4196879.415188204,2.47405,2.94144,-0.173579,-102.97,26.1166,24.5045,-0.0826871,-7.07699,6.67903,0.0383339,0.00869168,0.0189948,4,0,41.390776934420686,-91.76621074992688,8932.059398193212,-76.15287277208672,-0.5921589430305826,9.443590453097466,189.624,9026.08902586808,11243.505992254835,150,True,8.264924975714669,False,168.0201134738663,178.31471346414958,False,13.180321755122065,True,False
9,1970-07-23 10:31:29.893321146,2025-09-12,2025-09-26 20:29:49.332,AH,C,3758809806,JASSM,3,125,76,2,2,1,225,9,2,0,1,26,0,0,0,0,-160680.53650076812,-4786405.358369674,4202980.067839146,-2.36549,-0.396918,0.382536,73.0,-30.5,-31.75,0.0,0.0,0.0,0.0,0.0,0.0,2,0,41.46141095696127,-91.9227081416318,10002.62322140784,119.87110941152211,-0.0030120278916187,0.0022923386852854,,9026.08902586808,11243.505992254835,150,9,2025-09-12,2025-09-26 20:29:49.265,AH,C,1806594544,AMBUSH51,1,1,48,2,1,1,225,2,1,0,0,9,1,225,2,1,-147872.7089844273,-4791742.540181296,4196906.651371746,2.44011,2.93429,-0.187873,-102.905,27.0359,25.986,-0.152082,-7.32591,7.01902,-0.0806948,0.00582046,0.013552,4,0,41.39111658299865,-91.767581219478,8926.72299332016,-75.27710720484285,-0.3370221236277683,7.4181564650148575,189.978,9026.08902586808,11243.505992254835,150,True,8.151153883294649,False,168.88616735706086,178.22594758616785,False,12.414980901608864,True,False
9,1970-07-23 10:31:29.904282859,2025-09-12,2025-09-26 20:29:50.428,AH,C,3760062508,JASSM,3,125,76,2,2,1,225,9,2,0,1,26,0,0,0,0,-160603.89734061187,-4786437.493135299,4202946.628386021,-2.36549,-0.396918,0.382536,73.0,-30.5,-31.75,0.0,0.0,0.0,0.0,0.0,0.0,2,0,41.46100937296593,-91.9217788702818,10002.627073862906,119.87172469408316,-0.0022081370572202,0.0022909525561396,,9026.08902586808,11243.505992254835,150,9,2025-09-12,2025-09-26 20:29:50.332,AH,C,1807867076,AMBUSH51,1,1,48,2,1,1,225,2,1,0,0,9,1,225,2,1,-147981.61552522262,-4791713.31211886,4196934.073182961,2.38267,2.92082,-0.204224,-102.861,27.6139,26.9603,0.0612107,-7.21371,6.66119,-0.0222072,-0.00709795,-0.000550317,4,0,41.39145558842952,-91.76889297869646,8922.574468407909,-74.0757161121341,-0.2619822494923327,3.970413837426515,190.76,9026.08902586808,11243.505992254835,150,True,8.041982498897115,False,169.4423129178849,178.14079575531235,False,11.953564179363118,True,False
9,1970-07-23 10:31:29.915258429,2025-09-12,2025-09-26 20:29:51.525,AH,C,3761374860,JASSM,3,125,76,2,2,1,225,9,2,0,1,26,0,0,0,0,-160523.60876639312,-4786471.157197799,4202911.593229771,-2.36549,-0.396918,0.382632,73.0,-30.5,-31.75,0.0,0.0,0.0,0.0,0.0,0.0,2,0,41.46058864078513,-91.92080536142038,10002.625979580234,119.876217079375,-0.0052863305084149,0.0022892617704505,,9026.08902586808,11243.505992254835,150,9,2025-09-12,2025-09-26 20:29:51.498,AH,C,1809258908,AMBUSH51,1,1,48,2,1,1,225,2,1,0,0,9,1,225,2,1,-148102.29357670018,-4791680.114093239,4196965.5467283055,2.29814,2.9207,-0.202939,-103.102,28.1635,27.3773,-0.158403,-7.20249,6.91586,-0.0896414,0.00172377,0.002375,4,0,41.39184338601486,-91.7703468394695,8918.350740194506,-74.12639842484315,-0.3155422998897496,-0.8739002214273554,191.42,9026.08902586808,11243.505992254835,150,True,7.923561141936855,False,169.72576279227303,178.0458341923439,False,11.791504004724231,True,False
9,1970-07-23 10:31:29.926232259,2025-09-12,2025-09-26 20:29:52.623,AH,C,3762687212,JASSM,3,125,76,2,2,1,225,9,2,0,1,26,0,0,0,0,-160443.32068045562,-4786504.819307174,4202876.558073521,-2.36549,-0.396918,0.382632,73.0,-30.5,-31.75,0.0,0.0,0.0,0.0,0.0,0.0,2,0,41.46016791186916,-91.91983187176425,10002.6246516847,119.87686162890822,-0.0044441612767545,0.0022878584106283,,9026.08902586808,11243.505992254835,150,9,2025-09-12,2025-09-26 20:29:52.566,AH,C,1810531440,AMBUSH51,1,1,48,2,1,1,225,2,1,0,0,9,1,225,2,1,-148211.66437807254,-4791650.077520615,4196994.348590458,2.23573,2.9185,-0.204719,-103.52,27.9556,27.3059,0.0891065,-7.12971,6.52745,-0.0135624,-0.01665,-0.00647793,4,0,41.39219640191261,-91.77166447353513,8915.256899378594,-73.96877388839664,-0.3363003684496209,-4.476197474066648,192.117,9026.08902586808,11243.505992254835,150,True,7.811482993989618,False,169.5579514953835,177.95553390865751,False,12.055405967898126,True,False
9,1970-07-23 10:31:29.936337563,2025-09-12,2025-09-26 20:29:53.633,AH,C,3763999562,JASSM,3,125,76,2,2,1,225,9,2,0,1,26,0,0,0,0,-160363.03210623687,-4786538.481416549,4202841.522917271,-2.36549,-0.396918,0.382632,73.0,-30.5,-31.75,0.0,0.0,0.0,0.0,0.0,0.0,2,0,41.4597471747818,-91.91885838885344,10002.6278091311,119.87750616859742,-0.0036019882381208,0.0022864572789292,,9026.08902586808,11243.505992254835,150,9,2025-09-12,2025-09-26 20:29:53.666,AH,C,1811843738,AMBUSH51,1,1,48,2,1,1,225,2,1,0,0,9,1,225,2,1,-148326.22043421963,-4791619.097160548,4197023.938354642,2.21016,2.93138,-0.193049,-104.036,27.5085,26.8215,-0.0653427,-7.03432,6.5833,-0.0191071,0.00852524,-0.0100482,4,0,41.392559381744114,-91.77304441456394,8911.952375083938,-74.95140007029532,-0.2534884531318564,-5.790572571939831,192.581,9026.08902586808,11243.505992254835,150,True,7.696729603274776,False,169.14569631264703,177.8553334242949,False,12.577550730807435,True,False
9,1970-07-23 10:31:29.948665234,2025-09-12,2025-09-26 20:29:54.866,AH,C,3765311914,JASSM,3,125,76,2,2,1,225,9,2,0,1,26,0,0,0,0,-160282.74353201812,-4786572.141572799,4202806.485807896,-2.36549,-0.396918,0.382632,73.0,-30.5,-31.75,0.0,0.0,0.0,0.0,0.0,0.0,2,0,41.45932642788426,-91.91788491930863,10002.62645002037,119.87815069405926,-0.0027598148782851,0.0022850544826013,,9026.08902586808,11243.505992254835,150,9,2025-09-12,2025-09-26 20:29:54.831,AH,C,1813235570,AMBUSH51,1,1,48,2,1,1,225,2,1,0,0,9,1,225,2,1,-148447.13489262012,-4791587.423424087,4197054.094368843,2.23411,2.94098,-0.191753,-104.647,26.7568,26.2597,-0.148907,-7.47651,7.07548,0.0387251,0.00963211,-0.00254353,4,0,41.39292912102404,-91.77450058617438,8908.662764539697,-75.37089297745173,0.0962832025963959,-4.312411533615678,192.777,9026.08902586808,11243.505992254835,150,True,7.578876535078902,False,168.5940837076412,177.74172930290376,False,13.242882059321973,True,False
9,1970-07-23 10:31:29.959258089,2025-09-12,2025-09-26 20:29:55.925,AH,C,3766624264,JASSM,3,125,76,2,2,1,225,9,2,0,1,26,0,0,0,0,-160202.45495779935,-4786605.801729049,4202771.446745396,-2.36549,-0.396918,0.382632,73.0,-30.5,-31.75,0.0,0.0,0.0,0.0,0.0,0.0,2,0,41.45890565954529,-91.9169114623474,10002.625373933322,119.87879520581214,-0.0019176348943955,0.0022836402283119,,9026.08902586808,11243.505992254835,150,9,2025-09-12,2025-09-26 20:29:55.898,AH,C,1814508102,AMBUSH51,1,1,48,2,1,1,225,2,1,0,0,9,1,225,2,1,-148559.66707048492,-4791558.408755125,4197081.9177404335,2.26592,2.94259,-0.188875,-105.129,26.4204,26.0734,-0.11532,-7.31479,6.88871,0.0248454,0.0109595,0.00848987,4,0,41.39326882142115,-91.7758556536952,8906.223403115515,-75.55473473619658,0.0533928819349489,-2.4729552343169914,193.547,9026.08902586808,11243.505992254835,150,True,7.465873422583594,False,168.33586440434323,177.62933527242444,False,13.617960008547689,True,False
9,1970-07-23 10:31:29.970219312,2025-09-12,2025-09-26 20:29:57.021,AH,C,3767936616,JASSM,3,125,76,2,2,1,225,9,2,0,1,26,0,0,0,0,-160122.16638358062,-4786639.459932174,4202736.409636021,-2.36549,-0.396822,0.382632,73.0,-30.5,-31.75,0.0,0.0,0.0,0.0,0.0,0.0,2,0,41.458484907742246,-91.91593801875116,10002.628266405,119.87580289671972,-0.0046450961752232,0.0002314745721687,,9026.08902586808,11243.505992254835,150,9,2025-09-12,2025-09-26 20:29:56.965,AH,C,1815780634,AMBUSH51,1,1,48,2,1,1,225,2,1,0,0,9,1,225,2,1,-148671.41913847404,-4791530.221121588,4197109.349639921,2.33461,2.94312,-0.190163,-105.52,26.2369,26.3125,-0.251259,-7.37789,6.99437,0.0623377,0.0039188,-0.00868752,4,0,41.39360108729693,-91.7772011097196,8904.917126727541,-75.52115966420868,0.1261858138034219,1.4685311411164743,193.852,9026.08902586808,11243.505992254835,150,True,7.353509232861694,False,168.29675120747507,177.5120379698321,False,13.770800733810328,True,False
9,1970-07-23 10:31:29.980356532,2025-09-12,2025-09-26 20:29:58.035,AH,C,3769248966,JASSM,3,125,76,2,2,1,225,9,2,0,1,26,0,0,0,0,-160041.87780936187,-4786673.116182174,4202701.368620396,-2.36549,-0.396822,0.382632,73.0,-30.5,-31.75,0.0,0.0,0.0,0.0,0.0,0.0,2,0,41.45806413295603,-91.91496458851904,10002.622399775362,119.87644738011072,-0.0038029222000725,0.000230014954311,,9026.08902586808,11243.505992254835,150,9,2025-09-12,2025-09-26 20:29:58.066,AH,C,1817092932,AMBUSH51,1,1,48,2,1,1,225,2,1,0,0,9,1,225,2,1,-148788.18747385062,-4791500.641186992,4197138.367580995,2.39147,2.94125,-0.189233,-105.638,26.6385,26.8744,-0.246274,-7.02113,6.60385,0.0264808,-0.00393753,0.0149335,4,0,41.39395140138234,-91.77860702179886,8904.01688932502,-75.49065986274029,0.0135593494764636,4.70610438578273,193.926,9026.08902586808,11243.505992254835,150,True,7.238303965852168,False,168.60724140761937,177.38626748430377,False,13.596448733756974,True,False
9,1970-07-23 10:31:29.992300497,2025-09-12,2025-09-26 20:29:59.230,AH,C,3770561318,JASSM,3,125,76,2,2,1,225,9,2,0,1,26,0,0,0,0,-159961.58923514312,-4786706.772432174,4202666.327604771,-2.3654,-0.396822,0.382632,73.0,-30.5,-31.75,0.0,0.0,0.0,0.0,0.0,0.0,2,0,41.4576433499019,-91.91399117086982,10002.621058734978,119.87709184979192,-0.0029607481628608,0.0057200273932255,,9026.08902586808,11243.505992254835,150,9,2025-09-12,2025-09-26 20:29:59.232,AH,C,1818484764,AMBUSH51,1,1,48,2,1,1,225,2,1,0,0,9,1,225,2,1,-148911.06282949806,-4791468.808400484,4197169.436223094,2.43237,2.93128,-0.196734,-105.767,27.511,27.7126,-0.218062,-7.28142,6.79051,0.0425367,-0.000835359,-0.00150739,4,0,41.39432781593717,-91.78008674199668,8902.49818475618,-74.79636389873457,-0.1097014437617256,6.939555716779162,194.537,9026.08902586808,11243.505992254835,150,True,7.119498200499282,False,169.16265912076705,177.2511844047909,False,13.19659249561762,True,False
9,1970-07-23 10:31:30.005056637,2025-09-12,2025-09-26 20:30:00.505,AH,C,3771933322,JASSM,3,125,76,2,2,1,225,9,2,0,1,26,0,0,0,0,-159877.65124686187,-4786741.957979049,4202629.694792271,-2.3654,-0.396822,0.382632,73.0,-30.5,-31.75,0.0,0.0,0.0,0.0,0.0,0.0,2,0,41.457203441251046,-91.91297352142676,10002.625313217077,119.87776559822235,-0.0020802989318917,0.0057185094267228,,9026.08902586808,11243.505992254835,150,9,2025-09-12,2025-09-26 20:30:00.404,AH,C,1819876596,AMBUSH51,1,1,48,2,1,1,225,2,1,0,0,9,1,225,2,1,-149034.596803961,-4791435.54931732,4197201.944643141,2.44968,2.92285,-0.211573,-105.474,28.7135,28.6241,-0.144668,-7.18806,6.73918,0.0489304,-0.00386054,0.0155368,4,0,41.39472229477926,-91.78157487759208,8900.653449088803,-73.85078267331974,0.1165778643419116,7.833424515763168,194.573,9026.08902586808,11243.505992254835,150,True,6.997545737679891,False,169.9182262922798,177.11387768786548,False,12.611912777935228,True,False
9,1970-07-23 10:31:30.014221714,2025-09-12,2025-09-26 20:30:01.422,AH,C,3773186020,JASSM,3,125,76,2,2,1,225,9,2,0,1,26,0,0,0,0,-159801.01208670562,-4786774.082979049,4202596.245573521,-2.3654,-0.396822,0.382728,73.0,-30.5,-31.75,0.0,0.0,0.0,0.0,0.0,0.0,2,0,41.456801770622256,-91.91204437410082,10002.627153666986,119.8822287064784,-0.0051966401729647,0.0057169004082387,,9026.08902586808,11243.505992254835,150,9,2025-09-12,2025-09-26 20:30:01.432,AH,C,1821109362,AMBUSH51,1,1,48,2,1,1,225,2,1,0,0,9,1,225,2,1,-149142.57536848082,-4791405.219716089,4197231.595934853,2.51354,2.91187,-0.222144,-105.152,29.8416,29.8257,-0.11891,-7.01763,6.53051,0.0665613,0.000864487,0.0123743,4,0,41.395082918548056,-91.7828761099479,8898.634586640437,-72.9900411712136,0.0753064554859264,11.358099138599629,194.805,9026.08902586808,11243.505992254835,150,False,6.8884029936398115,False,170.75425006800694,176.99338368482955,False,11.914008675546354,True,False
9,1970-07-23 10:31:30.025338253,2025-09-12,2025-09-26 20:30:02.533,AH,C,3774498370,JASSM,3,125,76,2,2,1,225,9,2,0,1,26,0,0,0,0,-159720.72302420562,-4786807.735322799,4202561.200651646,-2.3654,-0.396822,0.382728,73.0,-30.5,-31.75,0.0,0.0,0.0,0.0,0.0,0.0,2,0,41.456380959777945,-91.91107098992204,10002.621265068155,119.88287313795784,-0.0043544615852967,0.0057154962133729,,9026.08902586808,11243.505992254835,150,9,2025-09-12,2025-09-26 20:30:02.565,AH,C,1822461426,AMBUSH51,1,1,48,2,1,1,225,2,1,0,0,9,1,225,2,1,-149261.96432123636,-4791369.743166336,4197265.991794668,2.55895,2.89523,-0.237127,-104.6,31.7106,31.3178,-0.345857,-7.04475,6.65443,0.0241713,-0.00688573,0.0241526,4,0,41.39550406338967,-91.78431558681022,8895.128840945814,-71.73036323275723,-0.022306771770713,13.743562112985147,195.038,9026.08902586808,11243.505992254835,150,False,6.769807003264588,False,171.95531518727324,176.86329305437798,False,10.89159696126617,True,False
9,1970-07-23 10:31:30.035318104,2025-09-12,2025-09-26 20:30:03.531,AH,C,3775751070,JASSM,3,125,76,2,2,1,225,9,2,0,1,26,0,0,0,0,-159644.08386404935,-4786839.858369674,4202527.749479771,-2.3654,-0.396822,0.382728,73.0,-30.5,-31.75,0.0,0.0,0.0,0.0,0.0,0.0,2,0,41.45597927218254,-91.9101418668513,10002.62250680413,119.8834882612404,-0.0035505683884359,0.0057141568516951,,9026.08902586808,11243.505992254835,150,9,2025-09-12,2025-09-26 20:30:03.531,AH,C,1823614658,AMBUSH51,1,1,48,2,1,1,225,2,1,0,0,9,1,225,2,1,-149362.9051823693,-4791337.873613978,4197296.550389648,2.54345,2.8748,-0.251962,-104.005,33.482,32.529,-0.225391,-6.8556,6.45608,-0.081964,-0.00190062,0.0139681,4,0,41.3958812475637,-91.78553334748092,8890.765052766747,-70.33504621046032,-0.271649696402013,12.568445067786424,195.575,9026.08902586808,11243.505992254835,150,False,6.663351503140307,False,173.01870643585858,176.75335596608656,False,9.99786115591976,True,False
9,1970-07-23 10:31:30.047037239,2025-09-12,2025-09-26 20:30:04.703,AH,C,3777063420,JASSM,3,125,76,2,2,1,225,9,2,0,1,26,0,0,0,0,-159563.79528983062,-4786873.510713424,4202492.704557896,-2.3654,-0.396822,0.382728,73.0,-30.5,-31.75,0.0,0.0,0.0,0.0,0.0,0.0,2,0,41.4555584450834,-91.90916851310408,10002.62550374405,119.88413266206015,-0.002708393425162,0.0057127503226028,,9026.08902586808,11243.505992254835,150,9,2025-09-12,2025-09-26 20:30:04.732,AH,C,1825046258,AMBUSH51,1,1,48,2,1,1,225,2,1,0,0,9,1,225,2,1,-149487.50876970467,-4791296.444846561,4197335.933339408,2.41807,2.86151,-0.266275,-103.691,34.9059,33.7381,-0.0265009,-7.45547,6.81094,-0.0797482,0.00662357,0.00222936,4,0,41.39637046940376,-91.78703737614951,8883.852827808943,-69.23429408564985,-0.2445691057640243,5.184341092060963,195.991,9026.08902586808,11243.505992254835,150,True,6.540167479744354,False,173.9118136667916,176.62465055244192,False,9.27635368807156,True,False
9,1970-07-23 10:31:30.056255216,2025-09-12,2025-09-26 20:30:05.625,AH,C,3778196814,JASSM,3,125,76,2,2,1,225,9,2,0,1,26,0,0,0,0,-159494.45446951812,-4786902.571260299,4202462.438932896,-2.3654,-0.396822,0.382728,73.0,-30.5,-31.75,0.0,0.0,0.0,0.0,0.0,0.0,2,0,41.45519501689298,-91.90832789244516,10002.625660150024,119.8846891837044,-0.001981065831626,0.0057115555950335,,9026.08902586808,11243.505992254835,150,9,2025-09-12,2025-09-26 20:30:05.731,AH,C,1826239256,AMBUSH51,1,1,48,2,1,1,225,2,1,0,0,9,1,225,2,1,-149591.17173400056,-4791261.081100484,4197369.780068216,2.32261,2.85854,-0.266019,-103.762,35.3701,34.2494,-0.229561,-7.10052,6.67265,-0.128392,-0.00754528,-0.0132253,4,0,41.39679010502558,-91.7882889935238,8878.250334109869,-69.13304990815855,-0.3729000185520217,-0.3301882734298148,196.59,9026.08902586808,11243.505992254835,150,True,6.43568557075401,False,174.20724655261745,176.51770667914064,False,9.097768054535445,True,False
9,1970-07-23 10:31:30.067216124,2025-09-12,2025-09-26 20:30:06.721,AH,C,3779509166,JASSM,3,125,76,2,2,1,225,9,2,0,1,26,0,0,0,0,-159414.16540701812,-4786936.221650924,4202427.392057896,-2.3654,-0.396726,0.382728,73.0,-30.5,-31.75,0.0,0.0,0.0,0.0,0.0,0.0,2,0,41.45477417294207,-91.9073545570879,10002.628009047688,119.88169702463163,-0.0047085084433892,0.0036588925053915,,9026.08902586808,11243.505992254835,150,9,2025-09-12,2025-09-26 20:30:06.732,AH,C,1827432254,AMBUSH51,1,1,48,2,1,1,225,2,1,0,0,9,1,225,2,1,-149694.92631999217,-4791225.269268401,4197403.747627351,2.25353,2.86324,-0.263271,-104.099,35.4752,34.0239,-0.154117,-7.39112,6.80531,-0.0519098,0.00251232,-0.00570603,4,0,41.39721319150537,-91.78954188950784,8871.821531708274,-69.42669556466184,-0.2912254335298382,-4.216283220258547,197.873,9026.08902586808,11243.505992254835,150,True,6.324186326303128,False,174.07822149528832,176.40380575232254,False,9.354388201149265,True,False
9,1970-07-23 10:31:30.077354865,2025-09-12,2025-09-26 20:30:07.735,AH,C,3780821518,JASSM,3,125,76,2,2,1,225,9,2,0,1,26,0,0,0,0,-159333.87732108062,-4786969.870088424,4202392.343229771,-2.3654,-0.396726,0.382728,73.0,-30.5,-31.75,0.0,0.0,0.0,0.0,0.0,0.0,2,0,41.45435331898798,-91.90638124676651,10002.62592133896,119.88234138139146,-0.0038663366130655,0.0036574268997057,,9026.08902586808,11243.505992254835,150,9,2025-09-12,2025-09-26 20:30:07.731,AH,C,1828625254,AMBUSH51,1,1,48,2,1,1,225,2,1,0,0,9,1,225,2,1,-149799.26756242168,-4791189.642661074,4197437.607430738,2.23377,2.86588,-0.256972,-104.658,35.1014,33.7499,-0.0966516,-7.17743,6.77081,0.00949479,0.00216278,-0.0151145,4,0,41.39763432610345,-91.79080174204452,8865.666477659186,-69.79067509362669,-0.4311222009005647,-5.307344934369334,198.459,9026.08902586808,11243.505992254835,150,True,6.212512707931924,False,173.76589246248258,176.28372075768942,False,9.771361735584081,True,False
9,1970-07-23 10:31:30.089835323,2025-09-12,2025-09-26 20:30:08.983,AH,C,3782133868,JASSM,3,125,76,2,2,1,225,9,2,0,1,26,0,0,0,0,-159253.58825858062,-4787003.516572799,4202357.294401646,-2.3654,-0.396726,0.382728,73.0,-30.5,-31.75,0.0,0.0,0.0,0.0,0.0,0.0,2,0,41.45393246859181,-91.9054079381288,10002.623479373204,119.88298573165604,-0.0030241635293651,0.0036559755794189,,9026.08902586808,11243.505992254835,150,9,2025-09-12,2025-09-26 20:30:08.998,AH,C,1830136386,AMBUSH51,1,1,48,2,1,1,225,2,1,0,0,9,1,225,2,1,-149931.52844018332,-4791145.328450586,4197479.740736352,2.26783,2.87744,-0.251734,-105.315,34.5229,33.3996,-0.144225,-7.60591,6.92007,0.090846,0.00638639,-0.00313026,4,0,41.39815778817328,-91.79239841437838,8858.246935135725,-70.44935119917452,-0.1680301558576059,-3.185602389601481,198.911,9026.08902586808,11243.505992254835,150,True,6.084836637346803,False,173.35247666926045,176.12949976177072,False,10.314826987946676,True,False
9,1970-07-23 10:31:30.100254998,2025-09-12,2025-09-26 20:30:10.025,AH,C,3783446220,JASSM,3,125,76,2,2,1,225,9,2,0,1,26,0,0,0,0,-159173.29919608062,-4787037.163057174,4202322.245573521,-2.3654,-0.396726,0.382728,73.0,-30.5,-31.75,0.0,0.0,0.0,0.0,0.0,0.0,2,0,41.45351160993008,-91.90443464207308,10002.625562978366,119.88363006821152,-0.0021819903838726,0.003654524223246,,9026.08902586808,11243.505992254835,150,9,2025-09-12,2025-09-26 20:30:09.831,AH,C,1831130550,AMBUSH51,1,1,48,2,1,1,225,2,1,0,0,9,1,225,2,1,-150019.4598679245,-4791116.700210797,4197507.338701188,2.32363,2.8833,-0.249447,-105.599,34.2384,33.395,-0.186502,-7.51515,6.86117,0.05651,0.00718117,-0.00684828,4,0,41.39849804105887,-91.79345963828902,8854.472582591308,-70.76781781165646,-0.0192047132929111,0.0951685441985125,198.985,9026.08902586808,11243.505992254835,150,True,5.983348934615374,False,173.21752783754496,176.00985966895348,False,10.551618487051256,True,False
9,1970-07-23 10:31:30.113835348,2025-09-12,2025-09-26 20:30:11.383,AH,C,3784758572,JASSM,3,125,76,2,2,1,225,9,2,0,1,26,0,0,0,0,-159093.01013358062,-4787070.807588424,4202287.194792271,-2.3654,-0.396726,0.382824,73.0,-30.5,-31.75,0.0,0.0,0.0,0.0,0.0,0.0,2,0,41.45309074145888,-91.90346135937575,10002.623130047785,119.88812249073672,-0.0052599122574052,0.0036528495768335,,9026.08902586808,11243.505992254835,150,9,2025-09-12,2025-09-26 20:30:11.231,AH,C,1832800750,AMBUSH51,1,1,48,2,1,1,225,2,1,0,0,9,1,225,2,1,-150168.56916508975,-4791068.620291907,4197554.315081511,2.3563,2.87512,-0.255921,-105.91,34.103,33.9634,-0.151047,-7.16872,6.6004,0.00877699,-0.00346939,-0.00174458,4,0,41.399073424008506,-91.795259055217,8849.614740075178,-70.18804625453497,-0.0957426761415523,1.8487675604512204,199.021,9026.08902586808,11243.505992254835,150,True,5.846432779995835,False,173.31922979673305,175.8223909951131,False,10.604589108662992,True,False
9,1970-07-23 10:31:30.121838814,2025-09-12,2025-09-26 20:30:12.183,AH,C,3786070920,JASSM,3,125,76,2,2,1,225,9,2,0,1,26,0,0,0,0,-159012.72107108062,-4787104.452119674,4202252.144011021,-2.3654,-0.396726,0.382824,73.0,-30.5,-31.75,0.0,0.0,0.0,0.0,0.0,0.0,2,0,41.45266986472255,-91.90248808926034,10002.62522269423,119.8887667994548,-0.0044177386278323,0.0036514530821469,,9026.08902586808,11243.505992254835,150,9,2025-09-12,2025-09-26 20:30:12.331,AH,C,1834113048,AMBUSH51,1,1,48,2,1,1,225,2,1,0,0,9,1,225,2,1,-150284.22263673294,-4791030.979498067,4197591.309415488,2.35764,2.87744,-0.255973,-105.919,34.6262,34.1237,-0.124287,-7.06046,6.52575,0.0300427,0.00561032,-0.00271206,4,0,41.399525530155,-91.79665488796633,8846.2096504321,-70.27478503525847,0.0013437932820416,1.959570219285484,199.241,9026.08902586808,11243.505992254835,150,True,5.728773190876133,False,173.5189303156087,175.66494174160457,False,10.592835497256354,True,False
9,1970-07-23 10:31:30.132315670,2025-09-12,2025-09-26 20:30:13.231,AH,C,3787323620,JASSM,3,125,76,2,2,1,225,9,2,0,1,26,0,0,0,0,-158936.08142264312,-4787136.565400924,4202218.685026646,-2.3654,-0.396726,0.382824,73.0,-30.5,-31.75,0.0,0.0,0.0,0.0,0.0,0.0,2,0,41.452268113103166,-91.9015590701468,10002.623549463784,119.8893818088144,-0.003613846404037,0.0036501219290213,,9026.08902586808,11243.505992254835,150,9,2025-09-12,2025-09-26 20:30:13.131,AH,C,1835067446,AMBUSH51,1,1,48,2,1,1,225,2,1,0,0,9,1,225,2,1,-150368.96709642198,-4791003.048213287,4197618.637249027,2.37896,2.87555,-0.257751,-105.94,34.9911,34.3941,-0.200835,-7.26383,6.69216,0.0260189,-0.000922744,-0.00552918,4,0,41.399860369321125,-91.79767782079388,8843.336718354078,-70.12940428308568,-0.004689454806282,3.153241719321205,199.351,9026.08902586808,11243.505992254835,150,True,5.6312855605478935,False,173.70950973024551,175.53785365779547,False,10.542788105063076,True,False
9,1970-07-23 10:31:30.143279592,2025-09-12,2025-09-26 20:30:14.327,AH,C,3788635972,JASSM,3,125,76,2,2,1,225,9,2,0,1,26,0,0,0,0,-158855.79236014312,-4787170.207979049,4202183.632292271,-2.3654,-0.396726,0.382824,73.0,-30.5,-31.75,0.0,0.0,0.0,0.0,0.0,0.0,2,0,41.451847218668505,-91.9005858253986,10002.625445441665,119.89002609022596,-0.002771672388059,0.0036487237354334,,9026.08902586808,11243.505992254835,150,9,2025-09-12,2025-09-26 20:30:14.332,AH,C,1836499046,AMBUSH51,1,1,48,2,1,1,225,2,1,0,0,9,1,225,2,1,-150496.86822631976,-4790960.6642328575,4197660.025949165,2.40777,2.87008,-0.261149,-105.934,35.4144,35.0103,-0.216201,-7.1186,6.57994,0.032502,8.42641e-05,0.0127697,4,0,41.40036804191687,-91.79922179502458,8838.759533910576,-69.78115824066688,-0.0910673865884607,4.723054690226877,199.681,9026.08902586808,11243.505992254835,150,True,5.5063174667394135,False,174.04307073450693,175.35665475705682,False,10.393412944890944,True,False
9,1970-07-23 10:31:30.154236112,2025-09-12,2025-09-26 20:30:15.423,AH,C,3789948322,JASSM,3,125,76,2,2,1,225,9,2,0,1,26,0,0,0,0,-158775.50329764312,-4787203.850557174,4202148.577604771,-2.3654,-0.39663,0.382824,73.0,-30.5,-31.75,0.0,0.0,0.0,0.0,0.0,0.0,2,0,41.45142630279505,-91.8996125932324,10002.627625087944,119.8870340891379,-0.0054991065844416,0.0015956185763741,,9026.08902586808,11243.505992254835,150,9,2025-09-12,2025-09-26 20:30:15.498,AH,C,1837890878,AMBUSH51,1,1,48,2,1,1,225,2,1,0,0,9,1,225,2,1,-150619.56760419256,-4790918.7553114295,4197700.926464012,2.44915,2.86586,-0.267175,-105.703,36.3343,35.9071,-0.235845,-7.31101,6.75585,-0.0104082,-0.000654347,0.00633437,4,0,41.400870544937455,-91.8007034679082,8833.899603230446,-69.37063596133602,-0.0232957115145035,7.030691732670944,200.647,9026.08902586808,11243.505992254835,150,True,5.3838920002719695,False,174.65214299154587,175.17970539983878,False,9.987947622168772,True,False
9,1970-07-23 10:31:30.165355398,2025-09-12,2025-09-26 20:30:16.535,AH,C,3791260674,JASSM,3,125,76,2,2,1,225,9,2,0,1,26,0,0,0,0,-158695.21325858062,-4787237.489229049,4202113.522917271,-2.3654,-0.39663,0.382824,73.0,-30.5,-31.75,0.0,0.0,0.0,0.0,0.0,0.0,2,0,41.45100540210926,-91.89863936352153,10002.62465037999,119.88767834992709,-0.0046569310763308,0.0015941795550846,,9026.08902586808,11243.505992254835,150,9,2025-09-12,2025-09-26 20:30:16.565,AH,C,1839163410,AMBUSH51,1,1,48,2,1,1,225,2,1,0,0,9,1,225,2,1,-150733.04898217515,-4790879.218579201,4197739.581177494,2.41432,2.85641,-0.274056,-105.501,37.1883,36.5977,-0.0602022,-7.22286,6.38782,-0.00848154,0.00663814,0.0131816,4,0,41.4013454805578,-91.80207414032726,8829.297954601274,-68.72668453121281,-0.1306991142872489,4.889095831085842,200.867,9026.08902586808,11243.505992254835,150,True,5.266567712224925,False,175.15917773746864,175.00979314596816,False,9.683778772294,True,False
9,1970-07-23 10:31:30.176348755,2025-09-12,2025-09-26 20:30:17.634,AH,C,3792573024,JASSM,3,125,76,2,2,1,225,9,2,0,1,26,0,0,0,0,-158614.92419608062,-4787271.127900924,4202078.466276646,-2.3654,-0.39663,0.382824,73.0,-30.5,-31.75,0.0,0.0,0.0,0.0,0.0,0.0,2,0,41.450584479791935,-91.89766615806684,10002.622038939797,119.88832258928048,-0.0038147564321329,0.001592724547794,,9026.08902586808,11243.505992254835,150,9,2025-09-12,2025-09-26 20:30:17.801,AH,C,1840634774,AMBUSH51,1,1,48,2,1,1,225,2,1,0,0,9,1,225,2,1,-150862.26210046432,-4790833.262454355,4197784.885548022,2.36023,2.85855,-0.280425,-105.245,37.4181,37.4587,-0.236357,-7.5962,6.72494,-0.0474948,0.00537938,-0.00683579,4,0,41.40190053486999,-91.80363520496624,8824.561142801693,-68.54375360533945,0.207105770164564,1.82364421922402,201.05,9026.08902586808,11243.505992254835,150,True,5.139509807347233,False,175.57852797400395,174.82102973779695,False,9.432273946501343,True,False
9,1970-07-23 10:31:30.187308819,2025-09-12,2025-09-26 20:30:18.730,AH,C,3793825724,JASSM,3,125,76,2,2,1,225,9,2,0,1,26,0,0,0,0,-158538.28454764312,-4787303.237275924,4202045.003386021,-2.3654,-0.39663,0.382824,73.0,-30.5,-31.75,0.0,0.0,0.0,0.0,0.0,0.0,2,0,41.45018268599825,-91.89673720000437,10002.623684523896,119.8889375328713,-0.0030108634689474,0.0015913389484334,,9026.08902586808,11243.505992254835,150,9,2025-09-12,2025-09-26 20:30:18.542,AH,C,1841509640,AMBUSH51,1,1,48,2,1,1,225,2,1,0,0,9,1,225,2,1,-150939.41806201715,-4790805.849130853,4197812.204669034,2.33072,2.85669,-0.282671,-105.142,37.4368,37.5692,-0.183753,-7.5638,6.51343,-0.0208049,-0.00191311,-0.00352349,4,0,41.40223359461706,-91.80456735302867,8822.38596171024,-68.38058502279397,0.2220456625460091,0.1037236714110903,200.977,9026.08902586808,11243.505992254835,150,True,5.045619527928233,False,175.64430576863847,174.68645999049937,False,9.498151414544509,True,False
