Subject_cm,Timestamp,SampleDate_cm,SampleTime_cm,Configuration_cm,Scenario_cm,DisTime_cm,MarkingTxt_cm,Application_cm,EntId_cm,Site_cm,ExerciseId_cm,ForceId_cm,Category_cm,Country_cm,Domain_cm,Kind_cm,Extra_cm,Specific_cm,Subcategory_cm,AltCategory_cm,AltCountry_cm,AltDomain_cm,AltKind_cm,ECEF_X_cm,ECEF_Y_cm,ECEF_Z_cm,OriPhi_cm,OriPsi_cm,OriTheta_cm,LinVelX_cm,LinVelY_cm,LinVelZ_cm,LinAccX_cm,LinAccY_cm,LinAccZ_cm,AngVelX_cm,AngVelY_cm,AngVelZ_cm,DrAlg_cm,Appearance_cm,Latitude_cm,Longitude_cm,Altitude_cm,Heading_cm,Pitch_cm,Roll_cm,CalibratedAirspeed_cm,CM_Altitude_Lead_cm,CM_Altitude_Wing_cm,CM_Airspeed_cm,Subject_ac,SampleDate_ac,SampleTime_ac,Configuration_ac,Scenario_ac,DisTime_ac,MarkingTxt_ac,Application_ac,EntId_ac,Site_ac,ExerciseId_ac,ForceId_ac,Category_ac,Country_ac,Domain_ac,Kind_ac,Extra_ac,Specific_ac,Subcategory_ac,AltCategory_ac,AltCountry_ac,AltDomain_ac,AltKind_ac,ECEF_X_ac,ECEF_Y_ac,ECEF_Z_ac,OriPhi_ac,OriPsi_ac,OriTheta_ac,LinVelX_ac,LinVelY_ac,LinVelZ_ac,LinAccX_ac,LinAccY_ac,LinAccZ_ac,AngVelX_ac,AngVelY_ac,AngVelZ_ac,DrAlg_ac,Appearance_ac,Latitude_ac,Longitude_ac,Altitude_ac,Heading_ac,Pitch_ac,Roll_ac,CalibratedAirspeed_ac,CM_Altitude_Lead_ac,CM_Altitude_Wing_ac,CM_Airspeed_ac,Bank_Angle_Condition,distance_nm,Distance_Condition,angle_between_vel,angle_between_pos,Cone_Condition,angle_between_pos_nose,Nose_Cone_Condition,Intercept_Criteria
9,1970-07-23 11:40:16.034404145,2025-09-17,2025-09-26 15:06:43.440,AA,D,365905048,JASSM,3,102,76,2,2,1,225,9,2,0,1,26,0,0,0,0,-188193.24450858065,-4786098.944307174,4202191.165495396,-2.30155,-0.153302,0.128183,87.875,-13.5,-11.375,0.0,0.0,0.0,0.0,0.0,0.0,2,0,41.451944029680895,-92.25175592767911,10000.001362531324,99.81682625136033,-0.0036101629300757,0.0023904896049608,,9000.684068445347,11088.532817195925,150,9,2025-09-17,2025-09-26 15:06:43.339,AA,D,160923184,AMBUSH51,1,1,48,2,1,1,225,2,1,0,0,9,1,225,2,1,-144421.68103313568,-4793510.544321157,4195055.089053821,2.31447,2.97402,-0.181165,-104.888,24.1184,25.8982,-0.209106,-7.25842,6.57825,0.141473,0.00802797,-0.00115785,4,0,41.36872444748747,-91.72571862069276,9002.486762810931,-77.03668916672738,1.027521218430535,0.6409473234950339,180.08,9000.684068445347,11088.532817195925,150,True,24.17746980172844,False,172.51009304793968,177.96515290720816,False,5.482665941533288,True,False
9,1970-07-23 11:40:16.044442275,2025-09-17,2025-09-26 15:06:44.444,AA,D,367098096,JASSM,3,102,76,2,2,1,225,9,2,0,1,26,0,0,0,0,-188105.2972429556,-4786112.541963424,4202179.694792271,-2.30155,-0.153302,0.128183,87.875,-13.5,-11.375,0.0,0.0,0.0,0.0,0.0,0.0,2,0,41.4518062901804,-92.2506983221706,10000.004383227912,99.81752637644416,-0.0028055971009763,0.0023899242422311,,9000.684068445347,11088.532817195925,150,9,2025-09-17,2025-09-26 15:06:44.339,AA,D,162116182,AMBUSH51,1,1,48,2,1,1,225,2,1,0,0,9,1,225,2,1,-144526.4123886021,-4793485.853610195,4195080.739474195,2.41542,2.9696,-0.182933,-104.755,24.5772,26.2235,-0.106543,-6.97251,6.14453,0.0815271,0.00445559,0.024111,4,0,41.36902573223148,-91.72697820552044,9005.108379943847,-76.79561375727191,0.9111921641336922,6.38303399136013,179.701,9000.684068445347,11088.532817195925,150,True,24.070119879624063,False,172.2329568497324,177.97455268558699,False,5.775163548371319,True,False
9,1970-07-23 11:40:16.055203307,2025-09-17,2025-09-26 15:06:45.520,AA,D,368350796,JASSM,3,102,76,2,2,1,225,9,2,0,1,26,0,0,0,0,-188012.9534929556,-4786126.817354049,4202167.647917271,-2.30155,-0.153302,0.128183,87.875,-13.5,-11.375,0.0,0.0,0.0,0.0,0.0,0.0,2,0,41.4516616480358,-92.24958785271696,10000.001083198707,99.81826149491236,-0.0019608105767217,0.0023893239744886,,9000.684068445347,11088.532817195925,150,9,2025-09-17,2025-09-26 15:06:45.340,AA,D,163309180,AMBUSH51,1,1,48,2,1,1,225,2,1,0,0,9,1,225,2,1,-144630.80537009105,-4793460.450694872,4195106.790899592,2.46515,2.95473,-0.196787,-104.389,25.5908,26.9477,-0.22533,-7.16837,6.48231,0.0316656,0.00240829,0.0132836,4,0,41.36933400679688,-91.72823401740392,9006.82791035721,-75.64649893105343,0.8231938274752173,9.088995566780165,179.664,9000.684068445347,11088.532817195925,150,True,23.960440640478346,False,171.6020636767325,177.98475150753225,False,6.428890895334853,True,False
9,1970-07-23 11:40:16.065344461,2025-09-17,2025-09-26 15:06:46.534,AA,D,369603494,JASSM,3,102,76,2,2,1,225,9,2,0,1,26,0,0,0,0,-187920.60778983065,-4786141.090791549,4202155.602995396,-2.30155,-0.153302,0.128183,87.875,-13.5,-11.375,0.0,0.0,0.0,0.0,0.0,0.0,2,0,41.451517020426486,-92.24847736576808,10000.00159503809,99.81899662285156,-0.0011160117741425,0.0023887514206192,,9000.684068445347,11088.532817195925,150,9,2025-09-17,2025-09-26 15:06:46.572,AA,D,164780546,AMBUSH51,1,1,48,2,1,1,225,2,1,0,0,9,1,225,2,1,-144759.08314028475,-4793427.484550745,4195140.17446503,2.48987,2.9391,-0.209514,-103.82,27.3246,28.0728,-0.111821,-6.94203,6.53214,0.00340905,-0.0110199,0.0263975,4,0,41.36973247083504,-91.72977780261668,9007.614157117914,-74.51772763966567,0.6649250764911243,10.339051536065046,179.701,9000.684068445347,11088.532817195925,150,False,23.8369740606566,False,170.56643393830663,178.00080841902488,False,7.5030966466352,True,False
9,1970-07-23 11:40:16.076386676,2025-09-17,2025-09-26 15:06:47.638,AA,D,370856192,JASSM,3,102,76,2,2,1,225,9,2,0,1,26,0,0,0,0,-187828.26403983065,-4786155.364229049,4202143.554167271,-2.30145,-0.153206,0.128183,87.875,-13.5,-11.375,0.0,0.0,0.0,0.0,0.0,0.0,2,0,41.45137235528871,-92.24736690709771,9999.998368983031,99.81609536022042,-0.0043281632472176,0.007177560397026,,9000.684068445347,11088.532817195925,150,9,2025-09-17,2025-09-26 15:06:47.706,AA,D,166132612,AMBUSH51,1,1,48,2,1,1,225,2,1,0,0,9,1,225,2,1,-144875.68331992553,-4793395.69832739,4195171.961570922,2.45045,2.92058,-0.223535,-103.351,28.6061,29.176,-0.114352,-7.11322,6.59025,-0.0541423,0.000375547,0.0151623,4,0,41.37011521438901,-91.73118172501704,9006.983420124614,-73.22646217476158,0.4430853525236868,7.864783686199274,179.872,9000.684068445347,11088.532817195925,150,True,23.719859359191158,False,169.68237473422172,178.01776203429762,False,8.414537034676634,True,False
9,1970-07-23 11:40:16.086426181,2025-09-17,2025-09-26 15:06:48.642,AA,D,372108892,JASSM,3,102,76,2,2,1,225,9,2,0,1,26,0,0,0,0,-187735.9183367056,-4786169.637666549,4202131.507292271,-2.30145,-0.153206,0.128279,87.875,-13.5,-11.375,0.0,0.0,0.0,0.0,0.0,0.0,2,0,41.45122769305902,-92.24625643001626,10000.003754074884,99.82092099700304,-0.0071497872265577,0.0071765415964793,,9000.684068445347,11088.532817195925,150,9,2025-09-17,2025-09-26 15:06:48.740,AA,D,167365376,AMBUSH51,1,1,48,2,1,1,225,2,1,0,0,9,1,225,2,1,-144982.24995642094,-4793365.533775246,4195202.023166741,2.30247,2.91119,-0.23245,-103.155,29.3689,29.5098,-0.0592619,-7.21092,6.47161,-0.157144,-0.00388135,0.000336016,4,0,41.37047844884077,-91.73246525541356,9005.863151413538,-72.49677356663915,0.4041880992802146,-0.7296063664148378,180.288,9000.684068445347,11088.532817195925,150,True,23.608285065739825,False,169.29235682077234,178.03477016947608,False,8.834411364504367,True,False
9,1970-07-23 11:40:16.097426497,2025-09-17,2025-09-26 15:06:49.742,AA,D,373361588,JASSM,3,102,76,2,2,1,225,9,2,0,1,26,0,0,0,0,-187643.57263358065,-4786183.909150924,4202119.458464146,-2.30145,-0.153206,0.128279,87.875,-13.5,-11.375,0.0,0.0,0.0,0.0,0.0,0.0,2,0,41.45108301855888,-92.245145958785,10000.004655737552,99.82165610828592,-0.006304986521417,0.0071759609922148,,9000.684068445347,11088.532817195925,150,9,2025-09-17,2025-09-26 15:06:49.740,AA,D,168558376,AMBUSH51,1,1,48,2,1,1,225,2,1,0,0,9,1,225,2,1,-145085.3899871091,-4793336.444061269,4195231.22789166,2.17596,2.91852,-0.228571,-103.35,29.0089,29.0544,-0.0389368,-7.31585,6.72224,-0.0810714,-0.00119946,-0.0187451,4,0,41.37083010750533,-91.73370749023049,9005.281502332518,-72.93769036455659,0.5553715666695028,-7.886249878908716,180.569,9000.684068445347,11088.532817195925,150,True,23.498672978314428,False,169.6073155652683,178.0513046521128,False,8.538424470317594,True,False
9,1970-07-23 11:40:16.107755306,2025-09-17,2025-09-26 15:06:50.775,AA,D,374614186,JASSM,3,102,76,2,2,1,225,9,2,0,1,26,0,0,0,0,-187551.23669608065,-4786198.176729049,4202107.407682896,-2.30145,-0.153206,0.128279,87.875,-13.5,-11.375,0.0,0.0,0.0,0.0,0.0,0.0,2,0,41.450938341137146,-92.2440356110436,9999.997215108546,99.82239113571156,-0.0054602746832128,0.007175372874734,,9000.684068445347,11088.532817195925,150,9,2025-09-17,2025-09-26 15:06:50.740,AA,D,169751374,AMBUSH51,1,1,48,2,1,1,225,2,1,0,0,9,1,225,2,1,-145188.97346437586,-4793308.028635881,4195259.455974005,2.12128,2.92939,-0.208756,-103.732,28.2182,27.7513,0.107739,-7.35164,6.16798,-0.0194796,0.00458875,-0.00794267,4,0,41.3711710673492,-91.73495479036828,9004.28086941656,-74.18636918322126,0.2377186634201649,-10.892537311232118,180.288,9000.684068445347,11088.532817195925,150,False,23.388976582394204,False,170.40370597264865,178.06635084795576,False,7.768483316259625,True,False
9,1970-07-23 11:40:16.118319795,2025-09-17,2025-09-26 15:06:51.831,AA,D,375866986,JASSM,3,102,76,2,2,1,225,9,2,0,1,26,0,0,0,0,-187458.8831804556,-4786212.448213424,4202095.356901646,-2.30145,-0.153206,0.128279,87.875,-13.5,-11.375,0.0,0.0,0.0,0.0,0.0,0.0,2,0,41.450793633839616,-92.2429250563015,10000.00223781874,99.82312629805595,-0.0046154030342387,0.0071747929426632,,9000.684068445347,11088.532817195925,150,9,2025-09-17,2025-09-26 15:06:51.740,AA,D,170944372,AMBUSH51,1,1,48,2,1,1,225,2,1,0,0,9,1,225,2,1,-145292.92737994928,-4793280.115384905,4195286.437504807,2.15937,2.93684,-0.19684,-104.029,27.4608,26.4087,0.0577723,-7.35654,6.28718,0.0696906,0.000363064,-0.0161693,4,0,41.37150054175979,-91.73620634578128,9001.846962041214,-74.9734197820768,0.0872969228074932,-8.626534333748868,180.116,9000.684068445347,11088.532817195925,150,True,23.279225751897318,False,171.18987067080107,178.0796673901136,False,7.012289796590312,True,False
9,1970-07-23 11:40:16.128422651,2025-09-17,2025-09-26 15:06:52.842,AA,D,377060034,JASSM,3,102,76,2,2,1,225,9,2,0,1,26,0,0,0,0,-187370.93591483065,-4786226.036104049,4202083.878386021,-2.30145,-0.153206,0.128279,87.875,-13.5,-11.375,0.0,0.0,0.0,0.0,0.0,0.0,2,0,41.45065581856512,-92.24186749274132,9999.99881263542,99.8238263794637,-0.0038108413487065,0.0071742384179955,,9000.684068445347,11088.532817195925,150,9,2025-09-17,2025-09-26 15:06:52.740,AA,D,172137372,AMBUSH51,1,1,48,2,1,1,225,2,1,0,0,9,1,225,2,1,-145397.0330081107,-4793252.948455435,4195312.299410359,2.23388,2.94732,-0.186268,-104.12,26.8155,25.5896,-0.236206,-7.43469,6.37824,0.0507301,0.000367225,-0.00415391,4,0,41.3718179757153,-91.73745945557052,8998.839499450494,-75.81906696872048,0.1168117700597738,-4.244542345392494,179.701,9000.684068445347,11088.532817195925,150,True,23.17197008770161,False,171.71326399621154,178.09151792135498,False,6.507501994843067,True,False
9,1970-07-23 11:40:16.138462559,2025-09-17,2025-09-26 15:06:53.846,AA,D,378312732,JASSM,3,102,76,2,2,1,225,9,2,0,1,26,0,0,0,0,-187278.5902117056,-4786240.303682174,4202071.825651646,-2.30145,-0.153206,0.128279,87.875,-13.5,-11.375,0.0,0.0,0.0,0.0,0.0,0.0,2,0,41.45051109858997,-92.24075704284408,9999.99964552138,99.82456146828252,-0.0029660413820825,0.0071736543675787,,9000.684068445347,11088.532817195925,150,9,2025-09-17,2025-09-26 15:06:53.739,AA,D,173330370,AMBUSH51,1,1,48,2,1,1,225,2,1,0,0,9,1,225,2,1,-145501.21157489312,-4793226.451577171,4195337.436784449,2.2727,2.94923,-0.186787,-104.066,26.3389,25.1937,-0.14352,-7.53007,6.2808,0.0419625,0.0044119,0.0114838,4,0,41.37212650537492,-91.7387132060624,8995.921595603606,-75.87018469250678,0.2174696083342218,-2.000637327956568,179.285,9000.684068445347,11088.532817195925,150,True,23.06238551054931,False,172.00338690774439,178.10203485256824,False,6.22649638951072,True,False
9,1970-07-23 11:40:16.148207043,2025-09-17,2025-09-26 15:06:54.820,AA,D,379505778,JASSM,3,102,76,2,2,1,225,9,2,0,1,26,0,0,0,0,-187190.64294608065,-4786253.891572799,4202060.345182896,-2.30145,-0.153206,0.128279,87.875,-13.5,-11.375,0.0,0.0,0.0,0.0,0.0,0.0,2,0,41.45037325020376,-92.2396994884613,10000.00045284486,99.82526153969069,-0.002161477408859,0.007173086785113,,9000.684068445347,11088.532817195925,150,9,2025-09-17,2025-09-26 15:06:54.739,AA,D,174523370,AMBUSH51,1,1,48,2,1,1,225,2,1,0,0,9,1,225,2,1,-145605.24491984418,-4793200.360886958,4195362.5668996,2.30543,2.95085,-0.187463,-103.873,26.0346,25.2027,-0.149938,-7.53159,6.51708,0.0278019,7.38611e-05,-0.000456691,4,0,41.37243258348232,-91.73996508707496,8993.982942990659,-75.90340837118532,0.3118377184102953,-0.1080401045409165,179.127,9000.684068445347,11088.532817195925,150,True,22.95532439001218,False,172.06395508706467,178.11265353859469,False,6.167060848277832,True,False
9,1970-07-23 11:40:16.158362067,2025-09-17,2025-09-26 15:06:55.836,AA,D,380698824,JASSM,3,102,76,2,2,1,225,9,2,0,1,26,0,0,0,0,-187102.6956804556,-4786267.477510299,4202048.864714146,-2.30145,-0.153206,0.128279,87.875,-13.5,-11.375,0.0,0.0,0.0,0.0,0.0,0.0,2,0,41.45023540371923,-92.2386419394689,10000.000594749336,99.82596160561516,-0.0013569160746817,0.0071725305049485,,9000.684068445347,11088.532817195925,150,9,2025-09-17,2025-09-26 15:06:55.972,AA,D,175994734,AMBUSH51,1,1,48,2,1,1,225,2,1,0,0,9,1,225,2,1,-145733.66732193666,-4793167.947813368,4195393.858502541,2.3387,2.94843,-0.185686,-103.445,26.2535,25.2741,-0.0337759,-7.3329,6.29795,0.0177631,-0.000119634,0.0154619,4,0,41.37281344634475,-91.7415105440477,8991.677646051208,-75.88821315363275,0.1436500062980922,1.7720914614939711,178.418,9000.684068445347,11088.532817195925,150,True,22.83442469332535,False,171.89397465434826,178.12719121520604,False,6.359340190218602,True,False
9,1970-07-23 11:40:16.168403278,2025-09-17,2025-09-26 15:06:56.840,AA,D,381832220,JASSM,3,102,76,2,2,1,225,9,2,0,1,26,0,0,0,0,-187019.1448992056,-4786280.381807174,4202037.958464146,-2.30145,-0.15311,0.128279,87.875,-13.5,-11.375,0.0,0.0,0.0,0.0,0.0,0.0,2,0,41.45010445602517,-92.23763726266291,9999.99913916666,99.82299039528444,-0.0046495108805721,0.0064694553918755,,9000.684068445347,11088.532817195925,150,9,2025-09-17,2025-09-26 15:06:56.873,AA,D,177068434,AMBUSH51,1,1,48,2,1,1,225,2,1,0,0,9,1,225,2,1,-145826.6759493766,-4793144.32978069,4195416.522880141,2.35825,2.94513,-0.189069,-103.155,26.4561,25.4628,-0.319005,-7.47795,6.4353,0.0217037,-0.00143873,-0.00354013,4,0,41.37309013274135,-91.74262988914435,8989.665416624208,-75.62077340176964,0.1375174577184895,2.857985421400533,177.782,9000.684068445347,11088.532817195925,150,True,22.735969801508812,False,171.70792530116498,178.13700761528537,False,6.557852450449275,True,False
9,1970-07-23 11:40:16.178422020,2025-09-17,2025-09-26 15:06:57.842,AA,D,383084918,JASSM,3,102,76,2,2,1,225,9,2,0,1,26,0,0,0,0,-186926.79919608065,-4786294.645479049,4202025.901823521,-2.30145,-0.15311,0.128279,87.875,-13.5,-11.375,0.0,0.0,0.0,0.0,0.0,0.0,2,0,41.44995969210797,-92.23652683339624,9999.999252162856,99.82372546244947,-0.0038047116917857,0.006468814285985,,9000.684068445347,11088.532817195925,150,9,2025-09-17,2025-09-26 15:06:57.739,AA,D,178102366,AMBUSH51,1,1,48,2,1,1,225,2,1,0,0,9,1,225,2,1,-145915.89424701204,-4793121.606954631,4195438.356881943,2.31502,2.94572,-0.192653,-102.861,26.3834,25.6567,-0.0840625,-7.46176,6.34702,-0.0601656,-0.0041872,0.0111822,4,0,41.373356563202826,-91.74370365176024,8987.776521345275,-75.49168471152036,0.3008693541299189,0.3878317906813121,177.147,9000.684068445347,11088.532817195925,150,True,22.634827089787528,False,171.60655513496562,178.14611019515118,False,6.661372994207631,True,False
9,1970-07-23 11:40:16.188207217,2025-09-17,2025-09-26 15:06:58.820,AA,D,384277966,JASSM,3,102,76,2,2,1,225,9,2,0,1,26,0,0,0,0,-186838.8519304556,-4786308.229463424,4202014.419401646,-2.30145,-0.15311,0.128375,87.875,-13.5,-11.375,0.0,0.0,0.0,0.0,0.0,0.0,2,0,41.44982181490034,-92.23546929874928,10000.002754449177,99.82851607807248,-0.0066665251821505,0.006467860120258,,9000.684068445347,11088.532817195925,150,9,2025-09-17,2025-09-26 15:06:58.772,AA,D,179335130,AMBUSH51,1,1,48,2,1,1,225,2,1,0,0,9,1,225,2,1,-146022.02860952594,-4793094.638239891,4195464.4411269,2.28583,2.94208,-0.195965,-102.628,26.371,25.3599,-0.165513,-7.27919,6.36374,-0.00845034,-0.00895176,-0.00427666,4,0,41.37367387144967,-91.74498099203508,8985.928614982757,-75.21470681803797,0.2783941922421437,-1.3237099030503985,177.061,9000.684068445347,11088.532817195925,150,True,22.52651137511461,False,171.68153920036036,178.158070949282,False,6.609675391319027,True,False
9,1970-07-23 11:40:16.198345440,2025-09-17,2025-09-26 15:06:59.834,AA,D,385471012,JASSM,3,102,76,2,2,1,225,9,2,0,1,26,0,0,0,0,-186750.9027117056,-4786321.811494674,4202002.935026646,-2.30145,-0.15311,0.128375,87.875,-13.5,-11.375,0.0,0.0,0.0,0.0,0.0,0.0,2,0,41.44968392687345,-92.23441174614716,10000.00116219002,99.82921613880028,-0.0058619474212522,0.0064673102205523,,9000.684068445347,11088.532817195925,150,9,2025-09-17,2025-09-26 15:07:00.006,AA,D,180806496,AMBUSH51,1,1,48,2,1,1,225,2,1,0,0,9,1,225,2,1,-146148.03955893914,-4793062.379029247,4195495.484220389,2.25673,2.94641,-0.189069,-102.604,26.1564,25.1027,-0.147199,-7.44629,6.26428,-0.0250285,0.00090818,0.0118646,4,0,41.374052511089765,-91.74649765326676,8983.312988115002,-75.67171049664974,0.193812550660696,-2.94542222559041,176.646,9000.684068445347,11088.532817195925,150,True,22.40691055418993,False,171.84350486746186,178.17330113508788,False,6.466421383204927,True,False
9,1970-07-23 11:40:16.208382638,2025-09-17,2025-09-26 15:07:00.838,AA,D,386604406,JASSM,3,102,76,2,2,1,225,9,2,0,1,26,0,0,0,0,-186667.35388358065,-4786334.711885299,4201992.024870396,-2.30145,-0.15311,0.128375,87.875,-13.5,-11.375,0.0,0.0,0.0,0.0,0.0,0.0,2,0,41.44955293867458,-92.2334071115243,9999.997520284753,99.82988116800716,-0.0050976277303153,0.0064667973716154,,9000.684068445347,11088.532817195925,150,9,2025-09-17,2025-09-26 15:07:00.672,AA,D,181601828,AMBUSH51,1,1,48,2,1,1,225,2,1,0,0,9,1,225,2,1,-146217.14785040522,-4793044.72638114,4195512.291694281,2.24952,2.94766,-0.189289,-102.618,26.0801,24.7855,-0.0846521,-7.57685,6.27681,0.00326341,0.00677962,0.000827036,4,0,41.37425845755737,-91.7473294303793,8981.507407941826,-75.71030551913128,0.2551017879014692,-3.345009805726365,176.731,9000.684068445347,11088.532817195925,150,True,22.321983642502644,False,171.9897896652236,178.1798970878997,False,6.336857384935245,True,False
9,1970-07-23 11:40:16.219406539,2025-09-17,2025-09-26 15:07:01.940,AA,D,387916758,JASSM,3,102,76,2,2,1,225,9,2,0,1,26,0,0,0,0,-186570.6097429556,-4786349.651338424,4201979.390104771,-2.30145,-0.15311,0.128375,87.875,-13.5,-11.375,0.0,0.0,0.0,0.0,0.0,0.0,2,0,41.44940123192597,-92.23224381387926,9999.998701872808,99.83065122383104,-0.0042125909643678,0.0064661839543583,,9000.684068445347,11088.532817195925,150,9,2025-09-17,2025-09-26 15:07:01.939,AA,D,183112960,AMBUSH51,1,1,48,2,1,1,225,2,1,0,0,9,1,225,2,1,-146346.581896358,-4793012.252354912,4195543.36891664,2.25272,2.95359,-0.182034,-102.824,25.7083,24.4191,-0.198851,-7.20789,6.63123,-0.0237011,-0.00150323,-0.0117273,4,0,41.37463795271086,-91.74888707941366,8978.708586465043,-76.24367616426218,0.2245800259667506,-3.101647498831452,176.646,9000.684068445347,11088.532817195925,150,True,22.195748864261336,False,172.28448601289577,178.19412162188124,False,6.05833268329388,True,False
9,1970-07-23 11:40:16.230421795,2025-09-17,2025-09-26 15:07:03.042,AA,D,389229094,JASSM,3,102,76,2,2,1,225,9,2,0,1,26,0,0,0,0,-186473.8675554556,-4786364.588838424,4201966.755339146,-2.30145,-0.15311,0.128375,87.875,-13.5,-11.375,0.0,0.0,0.0,0.0,0.0,0.0,2,0,41.44924952458393,-92.231080545909,10000.00027320776,99.8314212576928,-0.0033275739957806,0.0064655783975131,,9000.684068445347,11088.532817195925,150,9,2025-09-17,2025-09-26 15:07:03.039,AA,D,184425258,AMBUSH51,1,1,48,2,1,1,225,2,1,0,0,9,1,225,2,1,-146459.77402505284,-4792984.228350475,4195569.711339692,2.20531,2.95492,-0.179772,-103.298,25.4162,23.8153,-0.0637193,-7.14554,6.83463,-0.081604,-0.00259138,0.000901938,4,0,41.37496193987314,-91.75024914654132,8975.380802483065,-76.39076960557004,0.1940289725697642,-5.804630320221,177.281,9000.684068445347,11088.532817195925,150,True,22.07880374358003,False,172.68636261016601,178.20489141019314,False,5.682275069902718,True,False
9,1970-07-23 11:40:16.240199761,2025-09-17,2025-09-26 15:07:04.019,AA,D,390481806,JASSM,3,102,76,2,2,1,225,9,2,0,1,26,0,0,0,0,-186381.52185233065,-4786378.844697799,4201954.694792271,-2.30145,-0.15311,0.128375,87.875,-13.5,-11.375,0.0,0.0,0.0,0.0,0.0,0.0,2,0,41.44910471751519,-92.22997014944048,9999.999616802545,99.83215629070864,-0.0024827807686766,0.0064650167578014,,9000.684068445347,11088.532817195925,150,9,2025-09-17,2025-09-26 15:07:04.039,AA,D,185618258,AMBUSH51,1,1,48,2,1,1,225,2,1,0,0,9,1,225,2,1,-146564.55173852597,-4792959.057641281,4195593.424512514,2.04946,2.95788,-0.171484,-104.113,24.6006,22.7769,0.0536234,-6.97411,6.66937,-0.198494,-0.00724151,-0.0106578,4,0,41.37525271751491,-91.7515096922603,8972.746718674323,-76.85591150056327,0.0003744036733922,-14.705470280938949,178.247,9000.684068445347,11088.532817195925,150,False,21.969143146622024,False,173.47645403712485,178.21358489614818,False,4.914792038630592,True,False
9,1970-07-23 11:40:16.251741724,2025-09-17,2025-09-26 15:07:05.174,AA,D,391734506,JASSM,3,102,76,2,2,1,225,9,2,0,1,26,0,0,0,0,-186289.1761492056,-4786393.102510299,4201942.632292271,-2.30145,-0.15311,0.128375,87.875,-13.5,-11.375,0.0,0.0,0.0,0.0,0.0,0.0,2,0,41.44895987492356,-92.22885975700186,10000.00407560729,99.8328913189457,-0.0016379826138516,0.0064644307560397,,9000.684068445347,11088.532817195925,150,9,2025-09-17,2025-09-26 15:07:05.206,AA,D,187010090,AMBUSH51,1,1,48,2,1,1,225,2,1,0,0,9,1,225,2,1,-146686.7011900555,-4792931.468304749,4195618.385251222,1.87607,2.97523,-0.134871,-105.372,23.1471,19.7923,0.0368267,-6.65423,6.42935,-0.0867847,0.00590577,-0.0477694,4,0,41.37556312765709,-91.75297860481442,8968.18089860018,-79.07243300212852,-0.6742044009721961,-24.47509800992109,179.457,9000.684068445347,11088.532817195925,150,False,21.85006665575019,False,175.23737099712255,178.2201497734316,False,3.302818622463436,True,False
9,1970-07-23 11:40:16.262342155,2025-09-17,2025-09-26 15:07:06.234,AA,D,393046856,JASSM,3,102,76,2,2,1,225,9,2,0,1,26,0,0,0,0,-186192.43200858065,-4786408.036104049,4201929.993620396,-2.30145,-0.153015,0.128375,87.875,-13.5,-11.375,0.0,0.0,0.0,0.0,0.0,0.0,2,0,41.448808130707214,-92.22769648327368,10000.00192907674,99.8300251703528,-0.0048098763998282,0.0057607500050523,,9000.684068445347,11088.532817195925,150,9,2025-09-17,2025-09-26 15:07:06.206,AA,D,188203088,AMBUSH51,1,1,48,2,1,1,225,2,1,0,0,9,1,225,2,1,-146792.03774010795,-4792909.207857943,4195636.487972274,1.83424,2.99757,-0.0937984,-106.703,21.4683,16.2009,-0.106864,-7.23781,7.06253,0.00733098,0.0105101,-0.0444613,4,0,41.37579857749721,-91.75424478478664,8960.596924360985,-81.67488503226788,-1.2968817647408608,-26.68099594652593,180.043,9000.684068445347,11088.532817195925,150,False,21.738416111168807,False,177.13128858401413,178.21992560652737,False,2.0427882176748855,True,False
9,1970-07-23 11:40:16.273381521,2025-09-17,2025-09-26 15:07:07.338,AA,D,394359206,JASSM,3,102,76,2,2,1,225,9,2,0,1,26,0,0,0,0,-186095.68982108065,-4786422.967744674,4201917.354948521,-2.30145,-0.153015,0.128375,87.875,-13.5,-11.375,0.0,0.0,0.0,0.0,0.0,0.0,2,0,41.44865638589873,-92.22653323921908,10000.00017182254,99.83079517936756,-0.003924862849671,0.0057600961617791,,9000.684068445347,11088.532817195925,150,9,2025-09-17,2025-09-26 15:07:07.306,AA,D,189515386,AMBUSH51,1,1,48,2,1,1,225,2,1,0,0,9,1,225,2,1,-146911.16632889275,-4792886.882224005,4195652.375782119,1.93444,3.0225,-0.0613771,-108.209,18.7315,12.8036,-0.000338897,-7.67315,7.54065,0.234744,0.0215914,-0.0316927,4,0,41.37601692879944,-91.75567571858456,8949.09557727998,-84.01091057824533,-1.4677074873619758,-20.773015448101848,181.363,9000.684068445347,11088.532817195925,150,False,21.6197157172693,False,178.7450378921381,178.21283943770945,False,2.357842888828721,True,False
9,1970-07-23 11:40:16.284399530,2025-09-17,2025-09-26 15:07:08.439,AA,D,395671558,JASSM,3,102,76,2,2,1,225,9,2,0,1,26,0,0,0,0,-185998.9456804556,-4786437.899385299,4201904.714323521,-2.30145,-0.153015,0.128375,87.875,-13.5,-11.375,0.0,0.0,0.0,0.0,0.0,0.0,2,0,41.44850461660087,-92.22536997724114,9999.99898823312,99.83156519792772,-0.0030398298626898,0.0057594327248,,9000.684068445347,11088.532817195925,150,9,2025-09-17,2025-09-26 15:07:08.305,AA,D,190708386,AMBUSH51,1,1,48,2,1,1,225,2,1,0,0,9,1,225,2,1,-147020.1638299671,-4792869.197594097,4195663.967119472,2.14968,3.05004,-0.0429301,-109.333,16.4397,11.2937,-0.313383,-8.01824,7.77787,0.152103,0.0185808,-0.0217016,4,0,41.37618049686416,-91.75698396614447,8938.939956608872,-85.84803346253729,-0.9885977183298535,-8.319366716409762,181.778,9000.684068445347,11088.532817195925,150,True,21.507081058724452,False,178.53011411906164,178.20074930540002,False,3.247345804841402,True,False
9,1970-07-23 11:40:16.294422142,2025-09-17,2025-09-26 15:07:09.442,AA,D,396924256,JASSM,3,102,76,2,2,1,225,9,2,0,1,26,0,0,0,0,-185906.59997733065,-4786452.151338424,4201892.647917271,-2.30145,-0.153015,0.128471,87.875,-13.5,-11.375,0.0,0.0,0.0,0.0,0.0,0.0,2,0,41.44835973812316,-92.22425960799136,9999.999446903392,99.83639081239092,-0.0058613589169634,0.0057585134035026,,9000.684068445347,11088.532817195925,150,9,2025-09-17,2025-09-26 15:07:09.305,AA,D,191901384,AMBUSH51,1,1,48,2,1,1,225,2,1,0,0,9,1,225,2,1,-147129.14147076773,-4792853.695594687,4195674.52723297,2.27189,3.06136,-0.0566303,-110.038,14.6262,11.4163,-0.262568,-8.45523,8.03009,0.128195,0.00833174,0.00810704,4,0,41.37632411068189,-91.7582911841208,8931.923672529005,-85.6898756982238,0.0177633230368703,-1.286585945897945,182.389,9000.684068445347,11088.532817195925,150,True,21.397144808612406,False,178.17031643521966,178.18634681005952,False,3.5943998030182307,True,False
9,1970-07-23 11:40:16.305441052,2025-09-17,2025-09-26 15:07:10.544,AA,D,398236608,JASSM,3,102,76,2,2,1,225,9,2,0,1,26,0,0,0,0,-185809.85778983065,-4786467.081025924,4201880.007292271,-2.30145,-0.153015,0.128471,87.875,-13.5,-11.375,0.0,0.0,0.0,0.0,0.0,0.0,2,0,41.44820795700279,-92.22309638086271,10000.003426898931,99.83716080338404,-0.00497634565878,0.0057579209703903,,9000.684068445347,11088.532817195925,150,9,2025-09-17,2025-09-26 15:07:10.706,AA,D,193571582,AMBUSH51,1,1,48,2,1,1,225,2,1,0,0,9,1,225,2,1,-147283.6875199028,-4792833.955936261,4195690.828509751,2.34485,3.06738,-0.0640027,-110.618,13.6165,12.7676,-0.147339,-7.77033,7.46308,0.0121413,0.00668807,0.00728312,4,0,41.37652335635038,-91.76014419581692,8930.3817814495,-85.60227122011841,0.5567397613373728,2.914858288479674,182.915,9000.684068445347,11088.532817195925,150,True,21.260085681125716,False,178.13592087232342,178.16794502622142,False,3.4064762568636255,True,False
9,1970-07-23 11:40:16.316199771,2025-09-17,2025-09-26 15:07:11.619,AA,D,399548960,JASSM,3,102,76,2,2,1,225,9,2,0,1,26,0,0,0,0,-185713.1136492056,-4786482.008760299,4201867.362761021,-2.30145,-0.153015,0.128471,87.875,-13.5,-11.375,0.0,0.0,0.0,0.0,0.0,0.0,2,0,41.44805614984392,-92.22193313671842,9999.998939769512,99.83793080332237,-0.004091313367321,0.0057573173029239,,9000.684068445347,11088.532817195925,150,9,2025-09-17,2025-09-26 15:07:11.605,AA,D,194645282,AMBUSH51,1,1,48,2,1,1,225,2,1,0,0,9,1,225,2,1,-147383.99535110957,-4792821.642454542,4195702.131777216,2.33144,3.06654,-0.0736553,-110.817,13.2233,13.618,-0.184171,-7.57082,7.22666,-0.0239071,0.00698352,0.0067817,4,0,41.376654578637456,-91.76134671279026,8932.18228500699,-85.15665190807182,0.8876717226039554,2.149092591806765,183.123,9000.684068445347,11088.532817195925,150,True,21.152502226082646,False,178.05672199707593,178.1550546389088,False,3.2875092376340254,True,False
9,1970-07-23 11:40:16.327343616,2025-09-17,2025-09-26 15:07:12.734,AA,D,400801658,JASSM,3,102,76,2,2,1,225,9,2,0,1,26,0,0,0,0,-185620.76794608065,-4786496.256807174,4201855.294401646,-2.30145,-0.153015,0.128471,87.875,-13.5,-11.375,0.0,0.0,0.0,0.0,0.0,0.0,2,0,41.447911248261214,-92.22082278457395,9999.999664612273,99.83866578966976,-0.0032465215824869,0.0057567554574934,,9000.684068445347,11088.532817195925,150,9,2025-09-17,2025-09-26 15:07:12.672,AA,D,195917814,AMBUSH51,1,1,48,2,1,1,225,2,1,0,0,9,1,225,2,1,-147501.59216193465,-4792807.491273803,4195715.801390652,2.22834,3.06488,-0.0779279,-111.07,12.9038,13.791,0.019079,-7.26825,6.97475,-0.118697,0.00140752,0.00334248,4,0,41.37680953348385,-91.76275639592012,8935.907075229868,-84.91118527421452,0.9795505408223616,-3.761500883072278,183.648,9000.684068445347,11088.532817195925,150,True,21.03791844359276,False,177.89318222312505,178.14117263541,False,3.396384759820934,True,False
9,1970-07-23 11:40:16.337374813,2025-09-17,2025-09-26 15:07:13.737,AA,D,402054358,JASSM,3,102,76,2,2,1,225,9,2,0,1,26,0,0,0,0,-185528.4222429556,-4786510.504854049,4201843.224089146,-2.30145,-0.153015,0.128471,87.875,-13.5,-11.375,0.0,0.0,0.0,0.0,0.0,0.0,2,0,41.4477663227829,-92.21971243737096,10000.000705374448,99.8394007706336,-0.002401727525065,0.0057561805895322,,9000.684068445347,11088.532817195925,150,9,2025-09-17,2025-09-26 15:07:13.639,AA,D,197071046,AMBUSH51,1,1,48,2,1,1,225,2,1,0,0,9,1,225,2,1,-147609.51094820013,-4792795.061998921,4195728.349010208,2.14908,3.06983,-0.0744545,-111.256,12.3577,12.9956,0.0293475,-7.09864,6.66877,-0.0579227,0.000354741,-0.0250306,4,0,41.37694842691654,-91.76404986490112,8940.709550360501,-85.24874456001159,1.061240995554652,-8.287402242391954,184.015,9000.684068445347,11088.532817195925,150,True,20.928648828269374,False,177.5295527571524,178.12766853567072,False,3.8867464509497616,True,False
9,1970-07-23 11:40:16.348399395,2025-09-17,2025-09-26 15:07:14.839,AA,D,403366708,JASSM,3,102,76,2,2,1,225,9,2,0,1,26,0,0,0,0,-185431.67810233065,-4786525.428682174,4201830.577604771,-2.30145,-0.152919,0.128471,87.875,-13.5,-11.375,0.0,0.0,0.0,0.0,0.0,0.0,2,0,41.44761449147369,-92.21854921081348,9999.99692895601,99.83653466783964,-0.0055736201308136,0.0050520374227765,,9000.684068445347,11088.532817195925,150,9,2025-09-17,2025-09-26 15:07:14.772,AA,D,198423110,AMBUSH51,1,1,48,2,1,1,225,2,1,0,0,9,1,225,2,1,-147734.85469883578,-4792781.546009388,4195741.671168052,2.11037,3.08208,-0.0612047,-111.559,11.2143,11.7014,0.0247976,-7.09972,6.62073,0.00378148,0.00119946,-0.00985058,4,0,41.37709580493534,-91.76555184955478,8945.84541143189,-86.28215260097718,1.0851555012802965,-10.47702457847246,184.1,9000.684068445347,11088.532817195925,150,False,20.80768408003647,False,176.7413186296903,178.11013206050248,False,4.786326622244237,True,False
9,1970-07-23 11:40:16.359739713,2025-09-17,2025-09-26 15:07:15.973,AA,D,404679060,JASSM,3,102,76,2,2,1,225,9,2,0,1,26,0,0,0,0,-185334.93591483065,-4786540.352510299,4201817.931120396,-2.30145,-0.152919,0.128471,87.875,-13.375,-11.375,0.0,0.0,0.0,0.0,0.0,0.0,2,0,41.44746264794864,-92.21738601302408,9999.99834039864,99.83730462807326,-0.0046886080095542,0.0050513836782257,,9000.684068445347,11088.532817195925,150,9,2025-09-17,2025-09-26 15:07:15.939,AA,D,199814942,AMBUSH51,1,1,48,2,1,1,225,2,1,0,0,9,1,225,2,1,-147865.79738845964,-4792768.773205947,4195753.731546582,2.11591,3.09293,-0.0467126,-111.899,10.0674,9.97274,-0.119895,-7.16898,6.89464,0.0156887,-0.000517028,-0.0165688,4,0,41.377229195398215,-91.76712043601972,8950.506919024816,-87.31694533106331,1.0033735180064802,-10.14505639621456,184.381,9000.684068445347,11088.532817195925,150,False,20.683960538752732,False,175.86150679279123,178.0598476439211,False,5.844926215732626,True,False
9,1970-07-23 11:40:16.370441660,2025-09-17,2025-09-26 15:07:17.044,AA,D,405991410,JASSM,3,102,76,2,2,1,225,9,2,0,1,26,0,0,0,0,-185238.1917742056,-4786555.276338424,4201805.282682896,-2.30145,-0.152919,0.128471,87.875,-13.375,-11.375,0.0,0.0,0.0,0.0,0.0,0.0,2,0,41.44731077993317,-92.21622279731513,10000.00032635854,99.8380745978482,-0.0038035764501716,0.0050507203401468,,9000.684068445347,11088.532817195925,150,9,2025-09-17,2025-09-26 15:07:17.072,AA,D,201167008,AMBUSH51,1,1,48,2,1,1,225,2,1,0,0,9,1,225,2,1,-147992.07509592705,-4792757.92412908,4195763.728244346,2.20792,3.10645,-0.0328295,-112.231,8.91626,8.92277,-0.364834,-7.1833,6.87008,0.113674,0.00381893,-0.02228,4,0,41.37733804465203,-91.7686326035868,8955.08112876342,-88.42667969411518,1.0596877947331664,-4.862207027512868,184.589,9000.684068445347,11088.532817195925,150,True,20.563023198890374,False,175.06553315090477,178.03530914803468,False,6.675598145682256,True,False
9,1970-07-23 11:40:16.381203035,2025-09-17,2025-09-26 15:07:18.120,AA,D,407244110,JASSM,3,102,76,2,2,1,225,9,2,0,1,26,0,0,0,0,-185145.84607108065,-4786569.518525924,4201793.210417271,-2.30145,-0.152919,0.128471,87.875,-13.375,-11.375,0.0,0.0,0.0,0.0,0.0,0.0,2,0,41.44716583174681,-92.21511247329948,10000.00160825016,99.8388095547486,-0.0029587880539054,0.005050112727503,,9000.684068445347,11088.532817195925,150,9,2025-09-17,2025-09-26 15:07:18.139,AA,D,202439540,AMBUSH51,1,1,48,2,1,1,225,2,1,0,0,9,1,225,2,1,-148112.74648336845,-4792748.12122424,4195772.654431237,2.27639,3.11087,-0.0302091,-112.498,8.59158,8.55703,-0.229676,-7.36675,7.11189,0.034206,0.00759313,0.0174572,4,0,41.37743445359352,-91.77007743156584,8959.489986973831,-88.70763882117058,1.1515153492033283,-0.9365607821796298,184.711,9000.684068445347,11088.532817195925,150,True,20.447617931540613,False,174.8115473116167,178.01039089428184,False,6.961796942431408,True,False
9,1970-07-23 11:40:16.392340118,2025-09-17,2025-09-26 15:07:19.234,AA,D,408556454,JASSM,3,102,76,2,2,1,225,9,2,0,1,26,0,0,0,0,-185049.1019304556,-4786584.438447799,4201780.560026646,-2.30145,-0.152919,0.128567,87.875,-13.375,-11.375,0.0,0.0,0.0,0.0,0.0,0.0,2,0,41.44701395081278,-92.2139492700002,9999.999530178544,99.84367016744662,-0.0057400326521022,0.0050491800645911,,9000.684068445347,11088.532817195925,150,9,2025-09-17,2025-09-26 15:07:19.172,AA,D,203672306,AMBUSH51,1,1,48,2,1,1,225,2,1,0,0,9,1,225,2,1,-148228.15068661733,-4792739.167176978,4195781.103544922,2.32168,3.10811,-0.0361474,-112.603,8.37239,8.89034,-0.0970534,-7.14763,6.83759,0.0334924,-0.00155733,0.00980064,4,0,41.377523543479576,-91.77145904218813,8964.559688693214,-88.34851757341612,1.2586010787973492,1.660156285642942,184.944,9000.684068445347,11088.532817195925,150,True,20.332678317107025,False,174.80802891862567,177.98547699910634,False,6.9600395791491785,True,False
9,1970-07-23 11:40:16.402390754,2025-09-17,2025-09-26 15:07:20.239,AA,D,409809160,JASSM,3,102,76,2,2,1,225,9,2,0,1,26,0,0,0,0,-184956.75622733065,-4786598.680635299,4201768.483854771,-2.30145,-0.152919,0.128567,87.875,-13.375,-11.375,0.0,0.0,0.0,0.0,0.0,0.0,2,0,41.44686895432555,-92.21283895610648,10000.001661064827,99.84440511335244,-0.0048952396662384,0.0050486067190015,,9000.684068445347,11088.532817195925,150,9,2025-09-17,2025-09-26 15:07:20.305,AA,D,205024370,AMBUSH51,1,1,48,2,1,1,225,2,1,0,0,9,1,225,2,1,-148356.3483152294,-4792729.333611934,4195790.599400301,2.3181,3.10958,-0.0429821,-112.626,8.39808,9.17849,-0.173179,-7.35325,6.98946,-0.0171826,0.00491749,0.00451801,4,0,41.377622561087406,-91.77299377657808,8970.716587210221,-88.11111212527685,1.5816481590900038,1.464344202992098,184.992,9000.684068445347,11088.532817195925,150,True,20.213291137399747,False,174.89489863739152,177.95831272549682,False,6.883646361656262,True,False
9,1970-07-23 11:40:16.413381790,2025-09-17,2025-09-26 15:07:21.338,AA,D,411061858,JASSM,3,102,76,2,2,1,225,9,2,0,1,26,0,0,0,0,-184864.4105242056,-4786612.920869674,4201756.407682896,-2.30145,-0.152919,0.128567,87.875,-13.375,-11.375,0.0,0.0,0.0,0.0,0.0,0.0,2,0,41.44672395874503,-92.2117286480588,10000.003549901958,99.84514005327308,-0.0040504493131316,0.0050480446718381,,9000.684068445347,11088.532817195925,150,9,2025-09-17,2025-09-26 15:07:21.339,AA,D,206257136,AMBUSH51,1,1,48,2,1,1,225,2,1,0,0,9,1,225,2,1,-148472.0662328922,-4792720.194995352,4195799.81042437,2.30079,3.10563,-0.0454532,-112.727,8.74669,9.24463,-0.0620088,-7.08759,6.75066,-0.0209859,-0.00228969,-0.000999726,4,0,41.377717801123424,-91.77437920878332,8977.02299201129,-87.85627775046633,1.50652486010696,0.4696758135392482,185.359,9000.684068445347,11088.532817195925,150,True,20.100526185682025,False,175.05570283654538,177.93403773332327,False,6.761827654906619,True,False
9,1970-07-23 11:40:16.424403772,2025-09-17,2025-09-26 15:07:22.440,AA,D,412433862,JASSM,3,102,76,2,2,1,225,9,2,0,1,26,0,0,0,0,-184763.26794608065,-4786628.514619674,4201743.179167271,-2.30145,-0.152919,0.128567,87.875,-13.375,-11.375,0.0,0.0,0.0,0.0,0.0,0.0,2,0,41.44656514322986,-92.21051257884942,9999.999178335374,99.84594499665434,-0.0031251858204362,0.0050474334704335,,9000.684068445347,11088.532817195925,150,9,2025-09-17,2025-09-26 15:07:22.439,AA,D,207569434,AMBUSH51,1,1,48,2,1,1,225,2,1,0,0,9,1,225,2,1,-148596.93585093002,-4792710.43315239,4195809.782787227,2.25195,3.10508,-0.0425269,-112.865,8.59201,9.28484,-0.0502256,-7.10208,6.60828,-0.0587737,-0.00447224,-0.00183404,4,0,41.3778201848217,-91.77587417642552,8984.15211264766,-87.96223445011915,1.3731107114420067,-2.333127175854884,185.481,9000.684068445347,11088.532817195925,150,True,19.978034932804388,False,174.9929880829616,177.90740571753187,False,6.841831532047917,True,False
9,1970-07-23 11:40:16.435760573,2025-09-17,2025-09-26 15:07:23.576,AA,D,413746214,JASSM,3,102,76,2,2,1,225,9,2,0,1,26,0,0,0,0,-184666.52575858065,-4786643.430635299,4201730.524870396,-2.30145,-0.152919,0.128567,87.875,-13.375,-11.375,0.0,0.0,0.0,0.0,0.0,0.0,2,0,41.446413212223824,-92.20934942215504,9999.998983808726,99.84671491368672,-0.0022401750997517,0.0050468360325276,,9000.684068445347,11088.532817195925,150,9,2025-09-17,2025-09-26 15:07:23.606,AA,D,208961266,AMBUSH51,1,1,48,2,1,1,225,2,1,0,0,9,1,225,2,1,-148728.0825839564,-4792700.35335207,4195819.959071678,2.21696,3.10537,-0.0372223,-113.095,8.35866,8.69592,-0.128453,-7.03893,6.57597,-0.00563737,0.00461164,-0.0113611,4,0,41.37792465861176,-91.7774442350463,8991.428508683792,-88.20250523200001,1.186007312620494,-4.342527287410338,185.555,9000.684068445347,11088.532817195925,150,True,19.854629579677997,False,174.72284091184724,177.87905170156958,False,7.168863071865136,True,False
9,1970-07-23 11:40:16.446458461,2025-09-17,2025-09-26 15:07:24.645,AA,D,415058564,JASSM,3,102,76,2,2,1,225,9,2,0,1,26,0,0,0,0,-184569.7816179556,-4786658.344697799,4201717.870573521,-2.30145,-0.152823,0.128567,87.875,-13.375,-11.375,0.0,0.0,0.0,0.0,0.0,0.0,2,0,41.44626128152809,-92.208186248444,9999.998806392992,99.84384885061364,-0.0054120665189825,0.0043421716896025,,9000.684068445347,11088.532817195925,150,9,2025-09-17,2025-09-26 15:07:24.738,AA,D,210313332,AMBUSH51,1,1,48,2,1,1,225,2,1,0,0,9,1,225,2,1,-148857.1037875903,-4792690.548646292,4195829.5895244,2.20654,3.10932,-0.0283103,-113.304,8.13569,8.04654,-0.22742,-6.80844,6.43652,-0.029585,-0.0088186,-0.00786153,4,0,41.378024181416826,-91.77898880970965,8998.044547869793,-88.73643865282833,1.019591423125248,-4.942090963928471,185.762,9000.684068445347,11088.532817195925,150,True,19.732411171037263,False,174.43469350031242,177.8500813576412,False,7.514467954150272,True,False
9,1970-07-23 11:40:16.456338354,2025-09-17,2025-09-26 15:07:25.633,AA,D,416191958,JASSM,3,102,76,2,2,1,225,9,2,0,1,26,0,0,0,0,-184486.22888358065,-4786671.225557174,4201706.940886021,-2.30145,-0.152823,0.128567,87.875,-13.375,-11.375,0.0,0.0,0.0,0.0,0.0,0.0,2,0,41.44613004965248,-92.20718168178014,10000.001774287137,99.84451378985236,-0.0046477161096522,0.0043416120327445,,9000.684068445347,11088.532817195925,150,9,2025-09-17,2025-09-26 15:07:25.505,AA,D,211227964,AMBUSH51,1,1,48,2,1,1,225,2,1,0,0,9,1,225,2,1,-148943.9803580917,-4792684.143039502,4195835.507907382,2.18287,3.10864,-0.0235364,-113.45,7.92956,7.51126,-0.0441032,-6.8151,6.47536,-0.0397779,-0.00352349,-0.000485819,4,0,41.37808619118925,-91.78002877997672,9001.759479896238,-88.91667923585825,0.8103679313310237,-6.302571595504531,185.799,9000.684068445347,11088.532817195925,150,True,19.640093826457374,False,174.1846843888456,177.8283793605372,False,7.8053754070010335,True,False
9,1970-07-23 11:40:16.466358381,2025-09-17,2025-09-26 15:07:26.635,AA,D,417385004,JASSM,3,102,76,2,2,1,225,9,2,0,1,26,0,0,0,0,-184398.27966483065,-4786684.782197799,4201695.435026646,-2.30145,-0.152823,0.128567,87.875,-13.375,-11.375,0.0,0.0,0.0,0.0,0.0,0.0,2,0,41.44599190772937,-92.20612426084097,10000.001712318128,99.8452137123358,-0.0038431476106165,0.0043410274610929,,9000.684068445347,11088.532817195925,150,9,2025-09-17,2025-09-26 15:07:26.605,AA,D,212540262,AMBUSH51,1,1,48,2,1,1,225,2,1,0,0,9,1,225,2,1,-149068.11706782776,-4792675.227807842,4195842.795716746,2.16974,3.1103,-0.0107418,-113.725,7.88332,6.17853,-0.23993,-6.75101,6.46714,-0.00359215,-0.00781159,-0.0173823,4,0,41.378165472624815,-91.78151469337152,9005.124268903304,-89.53079024787705,0.3984460521517891,-7.05962421407867,186.447,9000.684068445347,11088.532817195925,150,True,19.525537859287923,False,173.72673563659166,177.79704027862942,False,8.349956783863627,True,False
9,1970-07-23 11:40:16.476398476,2025-09-17,2025-09-26 15:07:27.639,AA,D,418578052,JASSM,3,102,76,2,2,1,225,9,2,0,1,26,0,0,0,0,-184310.3323992056,-4786698.336885299,4201683.927214146,-2.30145,-0.152823,0.128567,87.875,-13.375,-11.375,0.0,0.0,0.0,0.0,0.0,0.0,2,0,41.44585375408648,-92.2050668686305,9999.996927886576,99.84591361388428,-0.0030385966550816,0.0043404377769844,,9000.684068445347,11088.532817195925,150,9,2025-09-17,2025-09-26 15:07:27.738,AA,D,213892328,AMBUSH51,1,1,48,2,1,1,225,2,1,0,0,9,1,225,2,1,-149197.8729949629,-4792666.218556377,4195848.85454873,2.17722,3.11355,0.00466315,-114.046,7.70677,4.76243,-0.0708738,-6.48952,6.17034,0.0346034,-0.00455962,-0.000435885,4,0,41.37823595399382,-91.78306775692126,9006.03080364467,-90.3171446461948,-0.0441824967025438,-6.63301568143823,186.764,9000.684068445347,11088.532817195925,150,True,19.408145806122402,False,173.1569477951028,177.7617018975062,False,8.993737965383621,True,False
9,1970-07-23 11:40:16.486463173,2025-09-17,2025-09-26 15:07:28.646,AA,D,419830750,JASSM,3,102,76,2,2,1,225,9,2,0,1,26,0,0,0,0,-184217.9847429556,-4786712.571260299,4201671.845182896,-2.30145,-0.152823,0.128567,87.875,-13.375,-11.375,0.0,0.0,0.0,0.0,0.0,0.0,2,0,41.44570867927099,-92.20395657455596,10000.003411370775,99.84664852979324,-0.0021937902269209,0.0043398203394998,,9000.684068445347,11088.532817195925,150,9,2025-09-17,2025-09-26 15:07:28.506,AA,D,214806960,AMBUSH51,1,1,48,2,1,1,225,2,1,0,0,9,1,225,2,1,-149285.40424078456,-4792660.050845129,4195852.111711989,2.18721,3.11379,0.0131824,-114.309,7.70576,3.96406,-0.14994,-6.70798,6.33647,0.00687949,-0.00242077,-0.00444519,4,0,41.37827841872709,-91.78411546380518,9004.625166079679,-90.6932717328244,-0.3556524783556426,-6.059604583424784,187.155,9000.684068445347,11088.532817195925,150,True,19.310925498684632,False,172.85459070688592,177.73447691038987,False,9.34251256070006,True,False
9,1970-07-23 11:40:16.496401578,2025-09-17,2025-09-26 15:07:29.640,AA,D,421023796,JASSM,3,102,76,2,2,1,225,9,2,0,1,26,0,0,0,0,-184130.0355242056,-4786726.123994674,4201660.335417271,-2.30145,-0.152823,0.128663,87.875,-13.375,-11.375,0.0,0.0,0.0,0.0,0.0,0.0,2,0,41.44557050459523,-92.2028991690966,9999.997875369829,99.85143913729232,-0.0050554449079937,0.0043390023079395,,9000.684068445347,11088.532817195925,150,9,2025-09-17,2025-09-26 15:07:29.705,AA,D,216238558,AMBUSH51,1,1,48,2,1,1,225,2,1,0,0,9,1,225,2,1,-149422.14334631295,-4792650.758775609,4195855.903456971,2.20017,3.12126,0.0210691,-114.797,7.4427,2.81465,-0.0207931,-7.08609,6.60518,0.0280641,0.00492581,-0.00443271,4,0,41.37833394166647,-91.78575204038412,9000.469379127475,-91.31619886822766,-0.3321553433883454,-5.320847890363537,187.876,9000.684068445347,11088.532817195925,150,True,19.190061947420247,False,172.31935348115232,177.69284132003745,False,9.935399830771738,True,False
9,1970-07-23 11:40:16.507399681,2025-09-17,2025-09-26 15:07:30.739,AA,D,422276496,JASSM,3,102,76,2,2,1,225,9,2,0,1,26,0,0,0,0,-184037.68884451807,-4786740.354463424,4201648.251432896,-2.30145,-0.152823,0.128663,87.875,-13.375,-11.375,0.0,0.0,0.0,0.0,0.0,0.0,2,0,41.44542541870504,-92.20178889814792,9999.99950855157,99.85217403379586,-0.00421065002887,0.0043384530864987,,9000.684068445347,11088.532817195925,150,9,2025-09-17,2025-09-26 15:07:30.705,AA,D,217431558,AMBUSH51,1,1,48,2,1,1,225,2,1,0,0,9,1,225,2,1,-149537.1524023537,-4792643.480694841,4195858.14911139,2.165,3.12674,0.028206,-115.188,6.91246,2.02116,-0.0511172,-7.26424,6.71889,-0.0558754,0.000319371,0.00225016,4,0,41.378371055953096,-91.78712834096852,8996.257403896732,-91.83130710964322,-0.3660830737893904,-7.340170481836583,188.622,9000.684068445347,11088.532817195925,150,True,19.078474176398057,False,171.8371553093437,177.65451539693285,False,10.45786718509011,True,False
9,1970-07-23 11:40:16.517770322,2025-09-17,2025-09-26 15:07:31.777,AA,D,423529194,JASSM,3,102,76,2,2,1,225,9,2,0,1,26,0,0,0,0,-183945.34216483065,-4786754.584932174,4201636.165495396,-2.30145,-0.152823,0.128663,87.875,-13.375,-11.375,0.0,0.0,0.0,0.0,0.0,0.0,2,0,41.4452803089204,-92.20067863214626,10000.001457888002,99.85290892491008,-0.0033658528740557,0.0043378908425594,,9000.684068445347,11088.532817195925,150,9,2025-09-17,2025-09-26 15:07:31.838,AA,D,218783622,AMBUSH51,1,1,48,2,1,1,225,2,1,0,0,9,1,225,2,1,-149668.66635329952,-4792636.167424437,4195859.478712012,2.13789,3.13523,0.038078,-115.586,5.98984,0.776656,-0.157088,-7.12585,6.59519,-0.0149855,-0.00347147,-0.0273775,4,0,41.37839911178284,-91.78870177995012,8991.247188774003,-92.578314600173,-0.3739822651006007,-8.904983963416187,189.453,9000.684068445347,11088.532817195925,150,True,18.958343974502753,False,171.0619789241829,177.6085351172653,False,11.280103031584938,True,False
9,1970-07-23 11:40:16.528456738,2025-09-17,2025-09-26 15:07:32.845,AA,D,424781892,JASSM,3,102,76,2,2,1,225,9,2,0,1,26,0,0,0,0,-183852.99548514312,-4786768.813447799,4201624.077604771,-2.30145,-0.152727,0.128663,87.875,-13.375,-11.375,0.0,0.0,0.0,0.0,0.0,0.0,2,0,41.445135186867375,-92.19956837198907,9999.99892366692,99.85000791628264,-0.0065779674681559,0.0036327969588316,,9000.684068445347,11088.532817195925,150,9,2025-09-17,2025-09-26 15:07:33.005,AA,D,220175454,AMBUSH51,1,1,48,2,1,1,225,2,1,0,0,9,1,225,2,1,-149802.9291041742,-4792629.922435383,4195859.320555495,2.12831,-3.13562,0.0522966,-115.961,4.78291,-0.596109,-0.172488,-7.28989,6.9832,0.0112529,0.00574348,-0.0108742,4,0,41.37841023532764,-91.7903076520061,8985.85937027324,-93.65730597239144,-0.3821865525912761,-9.478769649322118,189.966,9000.684068445347,11088.532817195925,150,True,18.83701634548514,False,170.1537381721941,177.55807839124046,False,12.236632211157087,True,False
9,1970-07-23 11:40:16.539322447,2025-09-17,2025-09-26 15:07:33.932,AA,D,426094244,JASSM,3,102,76,2,2,1,225,9,2,0,1,26,0,0,0,0,-183756.25134451807,-4786783.717744674,4201611.415495396,-2.30145,-0.152727,0.128663,87.875,-13.375,-11.375,0.0,0.0,0.0,0.0,0.0,0.0,2,0,41.444983162674205,-92.19840524841815,9999.999843977428,99.85077778966912,-0.0056929462960029,0.00363216950418,,9000.684068445347,11088.532817195925,150,9,2025-09-17,2025-09-26 15:07:33.905,AA,D,221249154,AMBUSH51,1,1,48,2,1,1,225,2,1,0,0,9,1,225,2,1,-149907.3055061685,-4792625.875792685,4195858.393533263,2.17296,-3.12618,0.0599512,-116.207,3.91987,-1.42103,-0.208386,-7.26611,6.96099,0.0278852,-0.00185485,-0.0237906,4,0,41.378408630997065,-91.79155576240804,8981.922206746643,-94.34416828541322,-0.2667970909974961,-6.94696029269229,190.394,9000.684068445347,11088.532817195925,150,True,18.72917687045044,False,169.56683907572597,177.5149293151412,False,12.863283357913064,True,False
9,1970-07-23 11:40:16.549363279,2025-09-17,2025-09-26 15:07:34.936,AA,D,427346944,JASSM,3,102,76,2,2,1,225,9,2,0,1,26,0,0,0,0,-183663.90466483065,-4786797.944307174,4201599.327604771,-2.30145,-0.152727,0.128663,87.875,-13.375,-11.375,0.0,0.0,0.0,0.0,0.0,0.0,2,0,41.44483803029994,-92.1972949992882,10000.001842156353,99.85151266321044,-0.0048481521617416,0.0036315632234149,,9000.684068445347,11088.532817195925,150,9,2025-09-17,2025-09-26 15:07:35.071,AA,D,222640986,AMBUSH51,1,1,48,2,1,1,225,2,1,0,0,9,1,225,2,1,-150043.3800815937,-4792621.815487468,4195855.970467329,2.19007,-3.1219,0.067506,-116.659,2.77873,-2.14571,0.0260872,-7.34574,6.80778,0.0315158,0.00251232,-0.00514635,4,0,41.37839109050745,-91.79318245891024,8977.154109724692,-94.83198808051682,-0.3683873748262301,-5.9795698985885455,190.858,9000.684068445347,11088.532817195925,150,True,18.607329988829488,False,168.93000845666504,177.45769513917367,False,13.548089982060377,True,False
9,1970-07-23 11:40:16.560379110,2025-09-17,2025-09-26 15:07:36.037,AA,D,428599642,JASSM,3,102,76,2,2,1,225,9,2,0,1,26,0,0,0,0,-183571.55798514312,-4786812.170869674,4201587.237761021,-2.30145,-0.152727,0.128663,87.875,-13.375,-11.375,0.0,0.0,0.0,0.0,0.0,0.0,2,0,41.444692874031546,-92.19618475510671,10000.004156532746,99.8522475313602,-0.004003355751948,0.0036309439200012,,9000.684068445347,11088.532817195925,150,9,2025-09-17,2025-09-26 15:07:36.004,AA,D,223754450,AMBUSH51,1,1,48,2,1,1,225,2,1,0,0,9,1,225,2,1,-150153.5512834778,-4792619.299377877,4195853.537581239,2.24584,-3.11469,0.0723642,-116.961,2.26774,-2.5997,-0.137501,-7.35612,6.87228,0.0620985,-0.0109595,-0.015697,4,0,41.378369104510426,-91.79449920617124,8974.176794715837,-95.31409022228742,-0.2432731762583821,-2.810867494527708,191.628,9000.684068445347,11088.532817195925,150,True,18.499172663366995,False,168.59775239536185,177.40825566337512,False,13.927898506388535,True,False
9,1970-07-23 11:40:16.570417993,2025-09-17,2025-09-26 15:07:37.041,AA,D,429852340,JASSM,3,102,76,2,2,1,225,9,2,0,1,26,0,0,0,0,-183479.2113054556,-4786826.393525924,4201575.145964146,-2.30145,-0.152727,0.128663,87.875,-13.375,-11.375,0.0,0.0,0.0,0.0,0.0,0.0,2,0,41.444547717120855,-92.19507451766404,9999.997187520254,99.85298239293142,-0.0031585623669412,0.0036303342731605,,9000.684068445347,11088.532817195925,150,9,2025-09-17,2025-09-26 15:07:37.005,AA,D,224947450,AMBUSH51,1,1,48,2,1,1,225,2,1,0,0,9,1,225,2,1,-150270.7429555228,-4792617.201187764,4195850.508736558,2.34709,-3.10952,0.0736763,-117.331,2.02496,-2.56928,-0.406659,-7.42367,7.05073,0.0750502,0.0136851,0.00110376,4,0,41.37833928464229,-91.79589964377789,8971.483206206483,-95.56708718842826,-0.0707522748615507,2.969348573086237,191.982,9000.684068445347,11088.532817195925,150,True,18.38745578897227,False,168.53108509247588,177.35437789931245,False,14.044218166475265,True,False
9,1970-07-23 11:40:16.581438580,2025-09-17,2025-09-26 15:07:38.143,AA,D,431105040,JASSM,3,102,76,2,2,1,225,9,2,0,1,26,0,0,0,0,-183386.86462576807,-4786840.618135299,4201563.056120396,-2.30145,-0.152727,0.128663,87.875,-13.375,-11.375,0.0,0.0,0.0,0.0,0.0,0.0,2,0,41.44440255104227,-92.19396428427534,10000.003817223323,99.85371724970176,-0.0023137685649982,0.0036297262273171,,9000.684068445347,11088.532817195925,150,9,2025-09-17,2025-09-26 15:07:38.204,AA,D,226379048,AMBUSH51,1,1,48,2,1,1,225,2,1,0,0,9,1,225,2,1,-150410.32000499978,-4792614.601891237,4195847.408241945,2.39913,-3.11549,0.0586643,-117.641,2.27347,-1.68168,-0.101613,-7.48383,6.92569,0.0526255,-0.00236668,0.0149023,4,0,41.37830776635703,-91.79756762249744,8969.136800060893,-94.69791424800968,0.2448633297227139,5.9747819065923,192.361,9000.684068445347,11088.532817195925,150,True,18.26403148514787,False,168.93307496798718,177.29149570883186,False,13.696206360570494,True,False
9,1970-07-23 11:40:16.590338631,2025-09-17,2025-09-26 15:07:39.033,AA,D,432238434,JASSM,3,102,76,2,2,1,225,9,2,0,1,26,0,0,0,0,-183303.31189139312,-4786853.485322799,4201552.114714146,-2.30145,-0.152727,0.128663,87.875,-13.375,-11.375,0.0,0.0,0.0,0.0,0.0,0.0,2,0,41.44427119726876,-92.19295978122776,10000.000559451964,99.85438212237364,-0.0015494229389836,0.0036291736498721,,9000.684068445347,11088.532817195925,150,9,2025-09-17,2025-09-26 15:07:39.038,AA,D,227373214,AMBUSH51,1,1,48,2,1,1,225,2,1,0,0,9,1,225,2,1,-150509.79438350402,-4792612.479547714,4195845.998599309,2.42797,-3.11863,0.0571384,-117.98,2.94689,-0.97736,-0.367663,-7.31497,6.95877,0.0179815,0.0014533,-0.00323637,4,0,41.378292296667766,-91.79875646528694,8968.541678918682,-94.51407355722272,0.1689188666630799,7.638354609605534,192.752,9000.684068445347,11088.532817195925,150,True,18.16626846942851,False,169.4056493083216,177.24610181306488,False,13.27063588542381,True,False
9,1970-07-23 11:40:16.601362391,2025-09-17,2025-09-26 15:07:40.136,AA,D,433491132,JASSM,3,102,76,2,2,1,225,9,2,0,1,26,0,0,0,0,-183210.9652117056,-4786867.706025924,4201540.020964146,-2.30145,-0.152727,0.128759,87.875,-13.375,-11.375,0.0,0.0,0.0,0.0,0.0,0.0,2,0,41.44412600767475,-92.19184955905452,9999.997787926948,99.85920771427293,-0.0043708015906658,0.0036283810565731,,9000.684068445347,11088.532817195925,150,9,2025-09-17,2025-09-26 15:07:40.038,AA,D,228566212,AMBUSH51,1,1,48,2,1,1,225,2,1,0,0,9,1,225,2,1,-150626.84251949115,-4792609.175976568,4195845.336250631,2.43467,-3.12825,0.0449031,-118.174,3.4857,0.250032,-0.115496,-7.24783,6.60032,0.00153236,0.000856165,0.0137746,4,0,41.37828560137559,-91.80015563839189,8968.024759306974,-93.62538972160527,0.221817455168758,8.053379019866112,193.29,9000.684068445347,11088.532817195925,150,True,18.054353487460673,False,170.0165159112787,177.1945975680474,False,12.700134685842814,True,False
9,1970-07-23 11:40:16.611737673,2025-09-17,2025-09-26 15:07:41.173,AA,D,434684178,JASSM,3,102,76,2,2,1,225,9,2,0,1,26,0,0,0,0,-183123.0159929556,-4786881.248994674,4201528.503386021,-2.30145,-0.152727,0.128759,87.875,-13.375,-11.375,0.0,0.0,0.0,0.0,0.0,0.0,2,0,41.44398772711059,-92.19079220946072,9999.998620064303,99.8599075618014,-0.0035662377988538,0.0036278612629259,,9000.684068445347,11088.532817195925,150,9,2025-09-17,2025-09-26 15:07:41.171,AA,D,229918278,AMBUSH51,1,1,48,2,1,1,225,2,1,0,0,9,1,225,2,1,-150761.35611696987,-4792604.430753531,4195845.896242786,2.43289,-3.13582,0.0272284,-118.329,4.41207,1.56682,-0.256054,-7.4037,6.79505,-0.0369254,0.00480929,-0.000643944,4,0,41.378292449835065,-91.80176394674996,8967.970278911536,-92.5804118599124,0.5682375977208696,7.974331184406761,194.011,9000.684068445347,11088.532817195925,150,True,17.93550762132883,False,170.78373630873563,177.13879096630532,False,11.982934086020599,True,False
9,1970-07-23 11:40:16.621419343,2025-09-17,2025-09-26 15:07:42.141,AA,D,435877224,JASSM,3,102,76,2,2,1,225,9,2,0,1,26,0,0,0,0,-183035.0667742056,-4786894.791963424,4201516.983854771,-2.30145,-0.152631,0.128759,87.875,-13.375,-11.375,0.0,0.0,0.0,0.0,0.0,0.0,2,0,41.44384942364921,-92.18973486435684,9999.999344726792,99.85697160608623,-0.0068185778346693,0.0029222914576604,,9000.684068445347,11088.532817195925,150,9,2025-09-17,2025-09-26 15:07:42.271,AA,D,231230576,AMBUSH51,1,1,48,2,1,1,225,2,1,0,0,9,1,225,2,1,-150890.5268771211,-4792598.950503875,4195847.790357562,2.33342,3.13639,0.0115387,-118.392,5.11364,2.38269,-0.165868,-7.40651,6.83324,-0.0514521,0.00501735,0.0129902,4,0,41.37831365672787,-91.80330872119303,8968.595928365668,-91.49121565880576,0.6923330379027476,2.299384162579885,194.28,9000.684068445347,11088.532817195925,150,True,17.819275824215445,False,171.3011706174424,177.08690904929318,False,11.51677793294303,True,False
9,1970-07-23 11:40:16.630269066,2025-09-17,2025-09-26 15:07:43.026,AA,D,437010618,JASSM,3,102,76,2,2,1,225,9,2,0,1,26,0,0,0,0,-182951.51403983065,-4786907.655244674,4201506.040495396,-2.30145,-0.152631,0.128759,87.875,-13.375,-11.375,0.0,0.0,0.0,0.0,0.0,0.0,2,0,41.44371804301,-92.18873038015576,9999.99795467586,99.85763645905628,-0.0060542351741203,0.0029217545055445,,9000.684068445347,11088.532817195925,150,9,2025-09-17,2025-09-26 15:07:43.038,AA,D,232145208,AMBUSH51,1,1,48,2,1,1,225,2,1,0,0,9,1,225,2,1,-150981.31331574143,-4792594.932037045,4195849.6287415335,2.29909,3.13818,0.0120115,-118.494,5.06464,2.81797,-0.0605624,-7.27531,6.81746,-0.0268802,0.00453466,-0.0197022,4,0,41.3783329655988,-91.80439451447369,8969.730365347414,-91.57983436047964,0.7518883380407198,0.3299511012190401,194.854,9000.684068445347,11088.532817195925,150,True,17.72562342815056,False,171.4295109205416,177.04900480321498,False,11.414366845176863,True,False
9,1970-07-23 11:40:16.640338627,2025-09-17,2025-09-26 15:07:44.033,AA,D,438203664,JASSM,3,102,76,2,2,1,225,9,2,0,1,26,0,0,0,0,-182863.56482108065,-4786921.196260299,4201494.520964146,-2.30145,-0.152631,0.128759,87.875,-13.375,-11.375,0.0,0.0,0.0,0.0,0.0,0.0,2,0,41.44357973221827,-92.18767304470046,10000.0019404555,99.85833629160342,-0.0052496717538369,0.0029211819051885,,9000.684068445347,11088.532817195925,150,9,2025-09-17,2025-09-26 15:07:44.171,AA,D,233497274,AMBUSH51,1,1,48,2,1,1,225,2,1,0,0,9,1,225,2,1,-151116.43793838902,-4792589.157533623,4195852.455300555,2.27919,-3.13983,0.0145215,-118.623,4.88953,2.89431,-0.231228,-7.2787,6.85912,0.00123275,-0.00430579,0.00741212,4,0,41.378361067764665,-91.8060105095251,8972.13073740909,-91.88504494776146,0.8805525144561052,-0.8186693640055498,194.854,9000.684068445347,11088.532817195925,150,True,17.606202430279698,False,171.39103222368598,176.9950635151779,False,11.500609150186083,True,False
9,1970-07-23 11:40:16.650375817,2025-09-17,2025-09-26 15:07:45.037,AA,D,439396712,JASSM,3,102,76,2,2,1,225,9,2,0,1,26,0,0,0,0,-182775.61462576807,-4786934.735322799,4201482.999479771,-2.30145,-0.152631,0.128759,87.875,-13.375,-11.375,0.0,0.0,0.0,0.0,0.0,0.0,2,0,41.44344141037718,-92.18661570295596,10000.000927235782,99.85903612639189,-0.0044451001254188,0.0029206093423552,,9000.684068445347,11088.532817195925,150,9,2025-09-17,2025-09-26 15:07:44.871,AA,D,234332374,AMBUSH51,1,1,48,2,1,1,225,2,1,0,0,9,1,225,2,1,-151199.39833248773,-4792585.744261579,4195854.182890473,2.29335,-3.14082,0.0108383,-118.663,4.75433,2.90987,-0.126097,-7.30579,6.8774,0.0426158,0.00250816,0.00891015,4,0,41.37837747237669,-91.80700260801022,8973.917044841788,-91.6900413251698,0.9785156204623696,-0.0034742912143324,195.038,9000.684068445347,11088.532817195925,150,True,17.514307233590458,False,171.34785634181821,176.9583460584735,False,11.576650636579775,True,False
9,1970-07-23 11:40:16.660415693,2025-09-17,2025-09-26 15:07:46.041,AA,D,440530108,JASSM,3,102,76,2,2,1,225,9,2,0,1,26,0,0,0,0,-182692.06189139312,-4786947.596650924,4201472.052214146,-2.30145,-0.152631,0.128759,87.875,-13.375,-11.375,0.0,0.0,0.0,0.0,0.0,0.0,2,0,41.443309987768025,-92.1856112322312,9999.99783996246,99.85970096505868,-0.0036807555474712,0.0029200576623368,,9000.684068445347,11088.532817195925,150,9,2025-09-17,2025-09-26 15:07:46.205,AA,D,235923038,AMBUSH51,1,1,48,2,1,1,225,2,1,0,0,9,1,225,2,1,-151357.9287887157,-4792579.143557115,4195857.925522578,2.37524,-3.13951,0.0118025,-118.867,5.06013,3.3251,-0.208087,-7.28522,6.79722,0.106367,0.00123899,0.0017633,4,0,41.37841224219243,-91.80889845663582,8978.105073464509,-91.78217130167364,0.9994524740328916,4.685717558647646,195.233,9000.684068445347,11088.532817195925,150,True,17.3849641296841,False,171.5870413127589,176.89577415513747,False,11.39811786174492,True,False
