Subject_cm,Timestamp,SampleDate_cm,SampleTime_cm,Configuration_cm,Scenario_cm,DisTime_cm,MarkingTxt_cm,Application_cm,EntId_cm,Site_cm,ExerciseId_cm,ForceId_cm,Category_cm,Country_cm,Domain_cm,Kind_cm,Extra_cm,Specific_cm,Subcategory_cm,AltCategory_cm,AltCountry_cm,AltDomain_cm,AltKind_cm,ECEF_X_cm,ECEF_Y_cm,ECEF_Z_cm,OriPhi_cm,OriPsi_cm,OriTheta_cm,LinVelX_cm,LinVelY_cm,LinVelZ_cm,LinAccX_cm,LinAccY_cm,LinAccZ_cm,AngVelX_cm,AngVelY_cm,AngVelZ_cm,DrAlg_cm,Appearance_cm,Latitude_cm,Longitude_cm,Altitude_cm,Heading_cm,Pitch_cm,Roll_cm,CalibratedAirspeed_cm,CM_Altitude_Lead_cm,CM_Altitude_Wing_cm,CM_Airspeed_cm,Subject_ac,SampleDate_ac,SampleTime_ac,Configuration_ac,Scenario_ac,DisTime_ac,MarkingTxt_ac,Application_ac,EntId_ac,Site_ac,ExerciseId_ac,ForceId_ac,Category_ac,Country_ac,Domain_ac,Kind_ac,Extra_ac,Specific_ac,Subcategory_ac,AltCategory_ac,AltCountry_ac,AltDomain_ac,AltKind_ac,ECEF_X_ac,ECEF_Y_ac,ECEF_Z_ac,OriPhi_ac,OriPsi_ac,OriTheta_ac,LinVelX_ac,LinVelY_ac,LinVelZ_ac,LinAccX_ac,LinAccY_ac,LinAccZ_ac,AngVelX_ac,AngVelY_ac,AngVelZ_ac,DrAlg_ac,Appearance_ac,Latitude_ac,Longitude_ac,Altitude_ac,Heading_ac,Pitch_ac,Roll_ac,CalibratedAirspeed_ac,CM_Altitude_Lead_ac,CM_Altitude_Wing_ac,CM_Airspeed_ac,Bank_Angle_Condition,distance_nm,Distance_Condition,angle_between_vel,angle_between_pos,Cone_Condition,angle_between_pos_nose,Nose_Cone_Condition,Intercept_Criteria
9,1970-07-23 10:31:35.638120173,2025-09-12,2025-09-26 20:39:23.812,AA,C,149247714,JASSM,3,135,76,2,2,1,225,9,2,0,1,26,0,0,0,0,-155618.74157889312,-4777355.096650924,4213384.288542271,-2.71083,-1.01118,0.751842,34.375,-54.625,-60.375,0.0,0.0,0.0,0.0,0.0,0.0,2,0,41.58647504126274,-91.86570713128042,10002.62333948537,155.9392661139793,-0.0015371558710454,0.0048445325249776,,8790.15738098984,10980.456319326084,150,9,2025-09-12,2025-09-26 20:39:24.024,AA,C,1812036376,HAWK11,1,1,73,2,1,1,225,2,1,0,0,12,1,225,2,1,-146768.13122733062,-4791796.888643111,4197832.860807896,2.34814,2.70815,-0.472083,-93.75,30.875,35.375,-0.34375,-7.25,6.90625,0.0214844,0.00585938,0.0117188,4,0,41.397248516234505,-91.75436615935192,10986.20717694488,-55.0800331612595,2.2238514274858834,-1.7822776067922166,171.538,8790.15738098984,10980.456319326084,150,True,12.404469321903425,False,139.48718939978357,179.26950842486679,False,40.77605749695802,False,False
9,1970-07-23 10:31:35.647097976,2025-09-12,2025-09-26 20:39:24.709,AA,C,150321456,JASSM,3,135,76,2,2,1,225,9,2,0,1,26,0,0,0,0,-155587.83630545562,-4777404.440400924,4213329.847136021,-2.71083,-1.01118,0.751842,34.375,-54.625,-60.375,0.0,0.0,0.0,0.0,0.0,0.0,2,0,41.58582000642361,-91.86531761827572,10002.622629153277,155.93952465146452,-0.0008202539712645,0.0048434995150056,,8790.15738098984,10980.456319326084,150,9,2025-09-12,2025-09-26 20:39:24.819,AA,C,1813070308,HAWK11,1,1,73,2,1,1,225,2,1,0,0,12,1,225,2,1,-146849.47888358062,-4791770.026338424,4197863.552214146,2.39205,2.70422,-0.484834,-93.5,30.5,35.625,-0.359375,-7.40625,6.8125,0.0546875,0.00390625,-0.00390625,4,0,41.39760066391074,-91.75534775974224,10992.844952302146,-54.43120721011403,2.615391615760169,0.6574569431274769,171.11,8790.15738098984,10980.456319326084,150,True,12.324433647532347,False,139.5131633692488,179.20060881647908,False,40.90421268295379,False,False
9,1970-07-23 10:31:35.658319112,2025-09-12,2025-09-26 20:39:25.831,AA,C,151633806,JASSM,3,135,76,2,2,1,225,9,2,0,1,26,0,0,0,0,-155550.06384451812,-4777464.750947799,4213263.304167271,-2.71083,-1.01118,0.751842,34.375,-54.625,-60.375,0.0,0.0,0.0,0.0,0.0,0.0,2,0,41.58501937382522,-91.86484156472522,10002.622421439002,155.9398406253028,5.598711373978016e-05,0.0048422187303729,,8790.15738098984,10980.456319326084,150,9,2025-09-12,2025-09-26 20:39:26.023,AA,C,1814462140,HAWK11,1,1,73,2,1,1,225,2,1,0,0,12,1,225,2,1,-146957.29919608062,-4791734.202119674,4197904.589323521,2.45025,2.69789,-0.48608,-92.625,30.75,35.625,0.109375,-6.95312,6.21875,0.0195312,0.0,0.0175781,4,0,41.39807112245933,-91.75664889464151,11001.884198260095,-54.15010374832853,2.447409846818591,3.835276824382013,171.11,8790.15738098984,10980.456319326084,150,True,12.222710215509359,False,139.81341412599267,179.0776119132197,False,40.803072075531,False,False
9,1970-07-23 10:31:35.669276775,2025-09-12,2025-09-26 20:39:26.927,AA,C,152886504,JASSM,3,135,76,2,2,1,225,9,2,0,1,26,0,0,0,0,-155514.00915701812,-4777522.317354049,4213199.788542271,-2.71083,-1.01118,0.751842,34.375,-54.625,-60.375,0.0,0.0,0.0,0.0,0.0,0.0,2,0,41.58425516586902,-91.86438717212155,10002.625900100038,155.94014221733332,0.0008923645407132,0.0048410024528017,,8790.15738098984,10980.456319326084,150,9,2025-09-12,2025-09-26 20:39:27.115,AA,C,1815814204,HAWK11,1,1,73,2,1,1,225,2,1,0,0,12,1,225,2,1,-147061.88513358062,-4791697.938447799,4197945.288542271,2.47527,2.68226,-0.496818,-91.375,31.5,35.875,-0.03125,-7.10938,6.21875,-0.0175781,-0.0117188,0.0214844,4,0,41.398542489380745,-91.75791157030312,11008.872657433289,-53.1535385785825,2.355556120666696,4.888415736294854,170.927,8790.15738098984,10980.456319326084,150,True,12.12415689721258,False,140.4713794352591,178.93508733352547,False,40.33768699384209,False,False
9,1970-07-23 10:31:35.680141789,2025-09-12,2025-09-26 20:39:28.014,AA,C,154198856,JASSM,3,135,76,2,2,1,225,9,2,0,1,26,0,0,0,0,-155476.23571951812,-4777582.623994674,4213133.245573521,-2.71083,-1.01118,0.751938,34.375,-54.625,-60.375,0.0,0.0,0.0,0.0,0.0,0.0,2,0,41.583454552709824,-91.86391113138274,10002.625587853358,155.94275078376015,-0.003221422641587,0.0048397091006519,,8790.15738098984,10980.456319326084,150,9,2025-09-12,2025-09-26 20:39:28.115,AA,C,1816967436,HAWK11,1,1,73,2,1,1,225,2,1,0,0,12,1,225,2,1,-147149.76013358062,-4791667.066377486,4197979.905729771,2.43989,2.6652,-0.49538,-90.75,30.5,37.125,-0.234375,-6.95312,5.875,-0.046875,-0.015625,0.00195312,4,0,41.39894376645535,-91.75897265445666,11014.672811668628,-52.57940109970601,1.711272529056283,2.4165534412612937,171.061,8790.15738098984,10980.456319326084,150,True,12.030765602834887,False,140.74373491314464,178.80096339792965,False,40.24952820495058,False,False
9,1970-07-23 10:31:35.690125629,2025-09-12,2025-09-26 20:39:29.012,AA,C,155451556,JASSM,3,135,76,2,2,1,225,9,2,0,1,26,0,0,0,0,-155440.18005545562,-4777640.190400924,4213069.726042271,-2.71083,-1.01109,0.751938,34.375,-54.625,-60.375,0.0,0.0,0.0,0.0,0.0,0.0,2,0,41.58269031476353,-91.86345674902132,10002.629602397665,155.9394078792399,-0.0040595826708939,0.0010877474971396,,8790.15738098984,10980.456319326084,150,9,2025-09-12,2025-09-26 20:39:29.115,AA,C,1818160436,HAWK11,1,1,73,2,1,1,225,2,1,0,0,12,1,225,2,1,-147239.56286795562,-4791634.159150924,4198014.786589146,2.35965,2.65916,-0.497106,-90.125,32.625,35.25,0.15625,-7.01562,6.25,-0.0390625,0.00390625,-0.00585938,4,0,41.39935856704438,-91.76005752721146,11016.189624192042,-52.28892768080069,1.5792590367986146,-2.337455382803586,170.927,8790.15738098984,10980.456319326084,150,True,11.938701705460254,False,140.9416357118088,178.65641766008363,False,40.19477364847096,False,False
9,1970-07-23 10:31:35.701077855,2025-09-12,2025-09-26 20:39:30.107,AA,C,156763892,JASSM,3,135,76,2,2,1,225,9,2,0,1,26,0,0,0,0,-155402.40857108062,-4777700.495088424,4213003.179167271,-2.71083,-1.01109,0.751938,34.375,-54.625,-60.375,0.0,0.0,0.0,0.0,0.0,0.0,2,0,41.58188968251921,-91.8629807554272,10002.625703911188,155.93972379390917,-0.0031833531596444,0.0010864398790591,,8790.15738098984,10980.456319326084,150,9,2025-09-12,2025-09-26 20:39:30.115,AA,C,1819393200,HAWK11,1,1,73,2,1,1,225,2,1,0,0,12,1,225,2,1,-147332.74060233062,-4791600.178682174,4198050.753386021,2.34881,2.66126,-0.489819,-90.0,32.75,34.5,0.078125,-6.96875,6.01562,0.00195312,-0.0136719,-0.00585938,4,0,41.39978645476332,-91.76118312642392,11017.683126987877,-52.6502478205112,1.344218926305831,-2.909966605979549,170.756,8790.15738098984,10980.456319326084,150,True,11.842928877179324,False,140.73673053845798,178.49726328980847,False,40.57576877447242,False,False
9,1970-07-23 10:31:35.712316568,2025-09-12,2025-09-26 20:39:31.231,AA,C,158016592,JASSM,3,135,76,2,2,1,225,9,2,0,1,26,0,0,0,0,-155366.35290701812,-4777758.057588424,4212939.659636021,-2.71083,-1.01109,0.751938,34.375,-54.625,-60.375,0.0,0.0,0.0,0.0,0.0,0.0,2,0,41.58112546400712,-91.8625263965274,10002.629257230808,155.94002534507476,-0.0023469696585932,0.0010852096138742,,8790.15738098984,10980.456319326084,150,9,2025-09-12,2025-09-26 20:39:31.227,AA,C,1820586200,HAWK11,1,1,73,2,1,1,225,2,1,0,0,12,1,225,2,1,-147422.64489920562,-4791567.155244674,4198085.214323521,2.42513,2.66491,-0.494038,-89.75,32.875,34.25,-0.375,-7.375,6.65625,0.113281,0.0,0.0078125,4,0,41.40019907237466,-91.76226928294258,11018.021519435397,-52.62298556057195,1.6475881733953992,1.5620765327730406,170.805,8790.15738098984,10980.456319326084,150,True,11.751189472722569,False,140.7497150049576,178.33696221880575,False,40.7388919574919,False,False
9,1970-07-23 10:31:35.723278082,2025-09-12,2025-09-26 20:39:32.327,AA,C,159328950,JASSM,3,135,76,2,2,1,225,9,2,0,1,26,0,0,0,0,-155328.57946951812,-4777818.360322799,4212873.108854771,-2.71083,-1.01109,0.751938,34.375,-54.625,-60.375,0.0,0.0,0.0,0.0,0.0,0.0,2,0,41.58032481343523,-91.86205040327935,10002.621461067563,155.94034124975056,-0.0014707199859648,0.0010839116088445,,8790.15738098984,10980.456319326084,150,9,2025-09-12,2025-09-26 20:39:32.413,AA,C,1822137098,HAWK11,1,1,73,2,1,1,225,2,1,0,0,12,1,225,2,1,-147539.50622733062,-4791523.815400924,4198130.694792271,2.52973,2.65053,-0.506789,-88.875,33.375,35.125,-0.046875,-6.92188,6.90625,0.0351562,0.00585938,0.0214844,4,0,41.40074249637656,-91.76368128716464,11018.939428152678,-51.59695957984494,1.700242112258885,7.189994987643827,170.279,8790.15738098984,10980.456319326084,150,True,11.644362552485378,False,141.4755607823453,178.12206550865764,False,40.24984499928479,False,False
9,1970-07-23 10:31:35.735066400,2025-09-12,2025-09-26 20:39:33.506,AA,C,160581654,JASSM,3,135,76,2,2,1,225,9,2,0,1,26,0,0,0,0,-155292.52380545562,-4777875.920869674,4212809.585417271,-2.71083,-1.01109,0.751938,34.375,-54.625,-60.375,0.0,0.0,0.0,0.0,0.0,0.0,2,0,41.57956057640144,-91.86159606707746,10002.62083816002,155.94064277653305,-0.000634323123422,0.0010826748226067,,8790.15738098984,10980.456319326084,150,9,2025-09-12,2025-09-26 20:39:33.319,AA,C,1823091498,HAWK11,1,1,73,2,1,1,225,2,1,0,0,12,1,225,2,1,-147610.49060233062,-4791496.791963424,4198159.052214146,2.55082,2.63298,-0.521937,-88.375,34.125,35.875,0.0,-6.84375,7.1875,0.0,0.0136719,0.03125,4,0,41.40108166527915,-91.76453924064072,11019.372147575214,-50.36581767073,1.7599126256881858,7.94124207598274,170.145,8790.15738098984,10980.456319326084,150,True,11.560827105695811,False,142.13649341488372,177.98529598294053,False,39.73463384373222,False,False
9,1970-07-23 10:31:35.744118213,2025-09-12,2025-09-26 20:39:34.411,AA,C,161894006,JASSM,3,135,76,2,2,1,225,9,2,0,1,26,0,0,0,0,-155254.75036795562,-4777936.221650924,4212743.038542271,-2.71083,-1.01109,0.751938,34.375,-54.625,-60.375,0.0,0.0,0.0,0.0,0.0,0.0,2,0,41.57875995971489,-91.86112009757088,10002.62631097586,155.94095865568917,0.0002418918987988,0.0010813917360614,,8790.15738098984,10980.456319326084,150,9,2025-09-12,2025-09-26 20:39:34.115,AA,C,1824125430,HAWK11,1,1,73,2,1,1,225,2,1,0,0,12,1,225,2,1,-147686.69177420562,-4791466.887666549,4198190.642057896,2.58648,2.61927,-0.530566,-88.0,35.0,37.125,-0.1875,-6.84375,7.26562,0.0507812,0.00585938,0.0117188,4,0,41.40145882828566,-91.76546058638895,11020.1309547273,-49.52988706204444,1.6793310088918332,9.615383248750677,170.145,8790.15738098984,10980.456319326084,150,True,11.4718011353906,False,142.98526322041153,177.83625012833795,False,39.04601326865917,False,False
9,1970-07-23 10:31:35.755078227,2025-09-12,2025-09-26 20:39:35.507,AA,C,163206356,JASSM,3,135,76,2,2,1,225,9,2,0,1,26,0,0,0,0,-155216.97790701812,-4777996.522432174,4212676.487761021,-2.71083,-1.01109,0.752034,34.375,-54.625,-60.375,0.0,0.0,0.0,0.0,0.0,0.0,2,0,41.57795931446044,-91.8606441515195,10002.62824467414,155.94356887852803,-0.0038748351795312,0.0010800346476532,,8790.15738098984,10980.456319326084,150,9,2025-09-12,2025-09-26 20:39:35.725,AA,C,1825994460,HAWK11,1,1,73,2,1,1,225,2,1,0,0,12,1,225,2,1,-147825.33630545562,-4791410.124971236,4198250.679167271,2.6255,2.59463,-0.542742,-86.875,37.0,39.375,0.0,-7.0625,7.39062,-0.015625,0.00390625,0.0214844,4,0,41.40217632478895,-91.76713782714523,11021.2898333572,-48.15751994715997,1.4093461983221804,11.166587453257804,169.656,8790.15738098984,10980.456319326084,150,False,11.351318796111373,False,144.7601396151598,177.5681819623013,False,37.5532495394713,False,False
9,1970-07-23 10:31:35.766279550,2025-09-12,2025-09-26 20:39:36.627,AA,C,164518708,JASSM,3,135,76,2,2,1,225,9,2,0,1,26,0,0,0,0,-155179.20544608062,-4778056.819307174,4212609.936979771,-2.71083,-1.01109,0.752034,34.375,-54.625,-60.375,0.0,0.0,0.0,0.0,0.0,0.0,2,0,41.57715869044133,-91.86016821874418,10002.625484750935,155.94388472342857,-0.0029986209992954,0.0010787762907659,,8790.15738098984,10980.456319326084,150,9,2025-09-12,2025-09-26 20:39:36.725,AA,C,1827306760,HAWK11,1,1,73,2,1,1,225,2,1,0,0,12,1,225,2,1,-147921.39099295562,-4791368.794893111,4198294.876432896,2.56539,2.57392,-0.549261,-86.625,37.875,41.375,0.046875,-7.125,7.48438,-0.0644531,0.00585938,0.0214844,4,0,41.402702892666206,-91.76830060150044,11022.81836312896,-47.14402379180182,1.036899844969673,7.128087151482301,168.996,8790.15738098984,10980.456319326084,150,True,11.250222427387191,False,145.8131033480944,177.37649227451865,False,36.70806955244536,False,False
9,1970-07-23 10:31:35.777156189,2025-09-12,2025-09-26 20:39:37.715,AA,C,165771406,JASSM,3,135,76,2,2,1,225,9,2,0,1,26,0,0,0,0,-155143.14880545562,-4778114.375947799,4212546.409636021,-2.71083,-1.01109,0.752034,34.375,-54.625,-60.375,0.0,0.0,0.0,0.0,0.0,0.0,2,0,41.57639444275847,-91.8597139167424,10002.6251491723,155.94418620876556,-0.0021622179746941,0.0010775787431637,,8790.15738098984,10980.456319326084,150,9,2025-09-12,2025-09-26 20:39:38.025,AA,C,1828300924,HAWK11,1,1,73,2,1,1,225,2,1,0,0,12,1,225,2,1,-147994.82458670562,-4791336.536104049,4198330.032682896,2.47767,2.57651,-0.546289,-86.625,38.25,42.625,0.203125,-7.14062,7.67188,-0.132812,-0.00976562,0.00390625,4,0,41.40311861401916,-91.76918979674178,11025.330249418765,-47.351243573408205,0.9892504340277908,2.1755657226076424,168.861,8790.15738098984,10980.456319326084,150,True,11.162307945972003,False,146.35911819636385,177.22548521578744,False,36.3245793716514,False,False
9,1970-07-23 10:31:35.787114857,2025-09-12,2025-09-26 20:39:38.711,AA,C,167024106,JASSM,3,135,76,2,2,1,225,9,2,0,1,26,0,0,0,0,-155107.09314139312,-4778171.932588424,4212482.880339146,-2.71083,-1.01109,0.752034,34.375,-54.625,-60.375,0.0,0.0,0.0,0.0,0.0,0.0,2,0,41.5756301798407,-91.85925963714928,10002.625093030169,155.94448767468157,-0.0013258062259771,0.0010763677510487,,8790.15738098984,10980.456319326084,150,9,2025-09-12,2025-09-26 20:39:38.666,AA,C,1828937190,HAWK11,1,1,73,2,1,1,225,2,1,0,0,12,1,225,2,1,-148040.55700858062,-4791316.305635299,4198352.536589146,2.40864,2.57507,-0.548398,-86.75,37.5,43.875,0.09375,-6.98438,7.48438,-0.09375,0.00585938,0.00585938,4,0,41.40338246119772,-91.7697436205872,11027.873412494642,-47.219845902104375,1.0366342203625665,-1.8199750645901025,168.776,8790.15738098984,10980.456319326084,150,True,11.088417480399546,False,146.5052344350229,177.12550633856307,False,36.29662522978432,False,False
9,1970-07-23 10:31:35.798100100,2025-09-12,2025-09-26 20:39:39.810,AA,C,168336456,JASSM,3,135,76,2,2,1,225,9,2,0,1,26,0,0,0,0,-155069.31970389312,-4778232.227510299,4212416.325651646,-2.71083,-1.01109,0.752034,34.375,-54.625,-60.375,0.0,0.0,0.0,0.0,0.0,0.0,2,0,41.57482953531514,-91.85878372763167,10002.623179840542,155.94480348961903,-0.0004495751587311,0.0010751109225224,,8790.15738098984,10980.456319326084,150,9,2025-09-12,2025-09-26 20:39:39.913,AA,C,1831084588,HAWK11,1,1,73,2,1,1,225,2,1,0,0,12,1,225,2,1,-148198.80896170562,-4791246.753877486,4198430.474089146,2.46539,2.58121,-0.547535,-87.75,38.5,44.0,0.09375,-6.71875,7.125,0.123047,0.00390625,0.0253906,4,0,41.404293196159806,-91.77165993227628,11037.942745332017,-47.48209759539985,1.1945377581639731,1.610344696345341,169.265,8790.15738098984,10980.456319326084,150,True,10.954003281456249,False,146.55672459102823,176.80208333262996,False,36.56890587558358,False,False
9,1970-07-23 10:31:35.809295830,2025-09-12,2025-09-26 20:39:40.929,AA,C,169589156,JASSM,3,135,76,2,2,1,225,9,2,0,1,26,0,0,0,0,-155033.26403983062,-4778289.780244674,4212352.796354771,-2.71083,-1.01099,0.752034,34.375,-54.625,-60.375,0.0,0.0,0.0,0.0,0.0,0.0,2,0,41.57406529182972,-91.85832947148684,10002.622661505126,155.94145635472916,-0.0012899223755954,-0.0026820944647684,,8790.15738098984,10980.456319326084,150,9,2025-09-12,2025-09-26 20:39:40.744,AA,C,1831601554,HAWK11,1,1,73,2,1,1,225,2,1,0,0,12,1,225,2,1,-148236.26208670562,-4791230.376924361,4198449.067839146,2.54075,2.57632,-0.553959,-87.75,38.5,44.375,-0.328125,-6.85938,7.21875,0.205078,0.0,0.0253906,4,0,41.40450923705671,-91.77211343797018,11040.856549128916,-47.062216514190986,1.3213341129314684,5.790668364560746,169.301,8790.15738098984,10980.456319326084,150,True,10.884545599426529,False,146.6801336580391,176.7130247878753,False,36.53872355347567,False,False
9,1970-07-23 10:31:35.820275252,2025-09-12,2025-09-26 20:39:42.027,AA,C,170901508,JASSM,3,135,76,2,2,1,225,9,2,0,1,26,0,0,0,0,-154995.49060233062,-4778350.075166549,4212286.239714146,-2.71074,-1.01099,0.752034,34.375,-54.625,-60.375,0.0,0.0,0.0,0.0,0.0,0.0,2,0,41.57326463008661,-91.8578535849423,10002.626050480529,155.94177214469826,-0.0004136791441005,0.0028080596048774,,8790.15738098984,10980.456319326084,150,9,2025-09-12,2025-09-26 20:39:41.913,AA,C,1833470586,HAWK11,1,1,73,2,1,1,225,2,1,0,0,12,1,225,2,1,-148373.50232108062,-4791167.894502486,4198519.497526646,2.67114,2.53979,-0.578982,-86.375,40.5,46.125,-0.109375,-6.73438,6.98438,-0.0253906,-0.00390625,0.0410156,4,0,41.40533106975632,-91.77377616714568,11050.444860187425,-44.78824282079417,1.2984481524808986,12.190307267181431,170.059,8790.15738098984,10980.456319326084,150,False,10.759584626508028,False,148.282388339598,176.42259595251647,False,35.229367575873205,False,False
9,1970-07-23 10:31:35.831137511,2025-09-12,2025-09-26 20:39:43.113,AA,C,172213858,JASSM,3,135,76,2,2,1,225,9,2,0,1,26,0,0,0,0,-154957.71814139312,-4778410.366182174,4212219.683073521,-2.71074,-1.01099,0.75213,34.375,-54.625,-60.375,0.0,0.0,0.0,0.0,0.0,0.0,2,0,41.57246398938835,-91.85737772336556,10002.62482289467,155.94438117926467,-0.0045271699546027,0.0028066606201743,,8790.15738098984,10980.456319326084,150,9,2025-09-12,2025-09-26 20:39:43.021,AA,C,1834703352,HAWK11,1,1,73,2,1,1,225,2,1,0,0,12,1,225,2,1,-148461.91247733062,-4791124.933564986,4198567.200651646,2.67258,2.5094,-0.589336,-85.375,42.0,47.5,-0.109375,-6.76562,7.04688,0.0527344,0.00195312,0.0234375,4,0,41.405892344664124,-91.77484832180788,11055.025208637531,-43.2839991401124,0.8546831215919125,11.340768110736564,169.79,8790.15738098984,10980.456319326084,150,False,10.658767344813043,False,149.48556546370966,176.22855254803517,False,34.22153733559301,False,False
9,1970-07-23 10:31:35.842186595,2025-09-12,2025-09-26 20:39:44.218,AA,C,173526210,JASSM,3,135,76,2,2,1,225,9,2,0,1,26,0,0,0,0,-154919.94470389312,-4778470.657197799,4212153.124479771,-2.71074,-1.01099,0.75213,34.375,-54.625,-60.375,0.0,0.0,0.0,0.0,0.0,0.0,2,0,41.5716633336482,-91.85690186184348,10002.624153787656,155.94469694275165,-0.0036509361716861,0.0028053807391557,,8790.15738098984,10980.456319326084,150,9,2025-09-12,2025-09-26 20:39:44.521,AA,C,1836532616,HAWK11,1,1,73,2,1,1,225,2,1,0,0,12,1,225,2,1,-148592.82068045562,-4791057.293916549,4198641.761198521,2.67382,2.48419,-0.594801,-84.0,44.375,49.75,0.09375,-6.76562,7.15625,-0.0253906,0.00976562,0.03125,4,0,41.40677386849646,-91.77643737802534,11060.433321858663,-42.14600670588976,0.3684455704844316,10.618334853732648,169.925,8790.15738098984,10980.456319326084,150,False,10.532057387039902,False,151.324272724957,175.94879545816735,False,32.66439894890759,False,False
9,1970-07-23 10:31:35.852080656,2025-09-12,2025-09-26 20:39:45.208,AA,C,174778908,JASSM,3,135,76,2,2,1,225,9,2,0,1,26,0,0,0,0,-154883.88806326812,-4778528.206025924,4212089.591276646,-2.71074,-1.01099,0.75213,34.375,-54.625,-60.375,0.0,0.0,0.0,0.0,0.0,0.0,2,0,41.570899079511285,-91.85644763988132,10002.623922967538,155.94499834239593,-0.002814539858717,0.0028041641405873,,8790.15738098984,10980.456319326084,150,9,2025-09-12,2025-09-26 20:39:45.225,AA,C,1837407482,HAWK11,1,1,73,2,1,1,225,2,1,0,0,12,1,225,2,1,-148654.18786795562,-4791024.031221236,4198678.321745396,2.70182,2.46367,-0.606881,-83.25,45.375,50.75,0.109375,-6.98438,7.3125,0.0410156,0.00976562,0.0195312,4,0,41.40720720394837,-91.77718288706949,11062.63923914742,-40.9556002827726,0.336437157447731,11.565187467584693,169.925,8790.15738098984,10980.456319326084,150,False,10.446137737242783,False,152.16242398007225,175.80721683503896,False,31.968918513570962,False,False
9,1970-07-23 10:31:35.863279668,2025-09-12,2025-09-26 20:39:46.327,AA,C,176091260,JASSM,3,135,76,2,2,1,225,9,2,0,1,26,0,0,0,0,-154846.11560233062,-4778588.495088424,4212023.030729771,-2.71074,-1.01099,0.75213,34.375,-54.625,-60.375,0.0,0.0,0.0,0.0,0.0,0.0,2,0,41.57009841802185,-91.85597181378284,10002.62384247902,155.94531407261647,-0.0019383080991568,0.0028028750292714,,8790.15738098984,10980.456319326084,150,9,2025-09-12,2025-09-26 20:39:46.021,AA,C,1838282348,HAWK11,1,1,73,2,1,1,225,2,1,0,0,12,1,225,2,1,-148715.39489920562,-4790990.035127486,4198715.714323521,2.68571,2.45456,-0.609278,-82.625,46.5,51.75,0.0625,-6.95312,7.25,-0.046875,-0.00390625,0.0292969,4,0,41.40765054315098,-91.7779267643758,11064.837809565814,-40.53038965689461,0.1919125416804022,10.346296779932866,169.839,8790.15738098984,10980.456319326084,150,False,10.357359852666965,False,152.98723801356644,175.66367068738802,False,31.28728823326699,False,False
9,1970-07-23 10:31:35.875060987,2025-09-12,2025-09-26 20:39:47.506,AA,C,177403610,JASSM,3,135,76,2,2,1,225,9,2,0,1,26,0,0,0,0,-154808.34216483062,-4778648.782197799,4211956.470182896,-2.71074,-1.01099,0.75213,34.375,-54.625,-60.375,0.0,0.0,0.0,0.0,0.0,0.0,2,0,41.56929776629725,-91.85549598849585,10002.623781096672,155.94562979730395,-0.0010620836984413,0.0028015982010955,,8790.15738098984,10980.456319326084,150,9,2025-09-12,2025-09-26 20:39:47.115,AA,C,1839634414,HAWK11,1,1,73,2,1,1,225,2,1,0,0,12,1,225,2,1,-148808.30700858062,-4790936.431611861,4198774.727995396,2.66692,2.4258,-0.616852,-81.75,47.75,53.375,0.125,-6.6875,7.01562,-0.046875,-0.00390625,0.0273438,4,0,41.40835060449432,-91.77905672844707,11068.155024133164,-39.18561083168565,-0.2480167630110908,8.32094212721175,170.279,8790.15738098984,10980.456319326084,150,True,10.248325417592833,False,154.10802292066248,175.45547715251422,False,30.37969311939649,False,False
9,1970-07-23 10:31:35.885115013,2025-09-12,2025-09-26 20:39:48.511,AA,C,178656310,JASSM,3,135,76,2,2,1,225,9,2,0,1,26,0,0,0,0,-154772.28552420562,-4778706.329072799,4211892.933073521,-2.71074,-1.01099,0.75213,34.375,-54.625,-60.375,0.0,0.0,0.0,0.0,0.0,0.0,2,0,41.56853349164821,-91.85504180043066,10002.624041167286,155.94593116037169,-0.0002256738997549,0.0028003750641891,,8790.15738098984,10980.456319326084,150,9,2025-09-12,2025-09-26 20:39:48.021,AA,C,1840787646,HAWK11,1,1,73,2,1,1,225,2,1,0,0,12,1,225,2,1,-148888.14099295562,-4790888.942354049,4198826.888151646,2.62224,2.41103,-0.622029,-81.375,49.0,54.375,0.0,-6.8125,7.125,-0.125,-0.00390625,0.0,4,0,41.40897043828015,-91.78002819138764,11070.645657769464,-38.45262223095143,-0.4026197726348595,5.26599057116992,170.413,8790.15738098984,10980.456319326084,150,True,10.148710316832423,False,154.86030838083704,175.2725104190415,False,29.808782776461978,True,False
9,1970-07-23 10:31:35.896075965,2025-09-12,2025-09-26 20:39:49.607,AA,C,180028312,JASSM,3,135,76,2,2,1,225,9,2,0,1,26,0,0,0,0,-154732.79528983062,-4778769.354463424,4211823.345182896,-2.71074,-1.01099,0.75213,34.375,-54.625,-60.375,0.0,0.0,0.0,0.0,0.0,0.0,2,0,41.567696441961694,-91.85454437392822,10002.62502791703,155.94626120780558,0.0006903786113465,0.0027990380031171,,8790.15738098984,10980.456319326084,150,9,2025-09-12,2025-09-26 20:39:49.615,AA,C,1842616910,HAWK11,1,1,73,2,1,1,225,2,1,0,0,12,1,225,2,1,-149013.53552420562,-4790812.810518111,4198910.519011021,2.42752,2.40346,-0.624426,-82.125,49.5,55.25,0.265625,-6.85938,7.125,-0.0292969,-0.00390625,-0.00390625,4,0,41.409964652967865,-91.78155466906414,11074.476219064403,-38.08604059994396,-0.490077414135802,-6.146499571673005,170.89,8790.15738098984,10980.456319326084,150,True,10.015049044872965,False,154.97896552939656,174.99138943647972,False,29.97697122052491,True,False
9,1970-07-23 10:31:35.907860297,2025-09-12,2025-09-26 20:39:50.786,AA,C,181281012,JASSM,3,135,76,2,2,1,225,9,2,0,1,26,0,0,0,0,-154696.73864920562,-4778826.899385299,4211759.806120396,-2.71074,-1.01099,0.752226,34.375,-54.625,-60.375,0.0,0.0,0.0,0.0,0.0,0.0,2,0,41.56693216184641,-91.85409020905055,10002.62557688404,155.94885723904974,-0.0034660219360519,0.0027977748715915,,8790.15738098984,10980.456319326084,150,9,2025-09-12,2025-09-26 20:39:50.819,AA,C,1844048508,HAWK11,1,1,73,2,1,1,225,2,1,0,0,12,1,225,2,1,-149112.21130545562,-4790753.304658736,4198975.817839146,2.42273,2.42398,-0.609278,-83.5,50.0,55.0,-0.15625,-6.65625,6.82812,0.0214844,0.00390625,-0.00976562,4,0,41.41074114778551,-91.78275577082468,11077.382981683531,-39.37049656147019,-0.6473080521729566,-5.728144282360975,171.379,8790.15738098984,10980.456319326084,150,True,9.90347307081779,False,154.5641713244146,174.76044751088725,False,30.616509152103117,False,False
9,1970-07-23 10:31:35.917282242,2025-09-12,2025-09-26 20:39:51.728,AA,C,182474058,JASSM,3,135,76,2,2,1,225,9,2,0,1,26,0,0,0,0,-154662.39978201812,-4778881.702119674,4211699.292448521,-2.71074,-1.01099,0.752226,34.375,-54.625,-60.375,0.0,0.0,0.0,0.0,0.0,0.0,2,0,41.56620428388467,-91.85365769124928,10002.624904290677,155.94914421024433,-0.0026694516310127,0.0027966376967764,,8790.15738098984,10980.456319326084,150,9,2025-09-12,2025-09-26 20:39:51.725,AA,C,1845122208,HAWK11,1,1,73,2,1,1,225,2,1,0,0,12,1,225,2,1,-149187.13513358062,-4790708.596650924,4199024.448698521,2.45188,2.4375,-0.617715,-84.125,50.0,54.875,-0.1875,-6.85938,7.09375,0.0585938,0.00390625,0.00195312,4,0,41.41132149153388,-91.78366760133972,11078.700935243647,-39.60353000377813,0.1156078005953269,-3.611052043716336,171.77,8790.15738098984,10980.456319326084,150,True,9.809745354721443,False,154.31642757503187,174.57540044086846,False,31.049392753822403,False,False
9,1970-07-23 10:31:35.926274701,2025-09-12,2025-09-26 20:39:52.627,AA,C,183607452,JASSM,3,135,76,2,2,1,225,9,2,0,1,26,0,0,0,0,-154629.77771170562,-4778933.762666549,4211641.806120396,-2.71074,-1.01089,0.752226,34.375,-54.625,-60.375,0.0,0.0,0.0,0.0,0.0,0.0,2,0,41.56551282167394,-91.85324680737092,10002.626577927507,155.94577354397063,-0.0035873245883121,-0.0009563921834962,,8790.15738098984,10980.456319326084,150,9,2025-09-12,2025-09-26 20:39:53.064,AA,C,1845917540,HAWK11,1,1,73,2,1,1,225,2,1,0,0,12,1,225,2,1,-149242.89294608062,-4790675.594697799,4199060.464323521,2.4884,2.44929,-0.624043,-84.25,49.75,55.0,-0.03125,-6.84375,7.09375,0.0605469,0.00390625,0.00585938,4,0,41.41175058951973,-91.78434608968382,11079.96767160324,-39.83439104837088,0.7330098232805871,-1.1266724236721932,172.894,8790.15738098984,10980.456319326084,150,True,9.730432505528237,False,154.24580788528698,174.42944691995146,False,31.27084822660551,False,False
9,1970-07-23 10:31:35.937175280,2025-09-12,2025-09-26 20:39:53.717,AA,C,184860150,JASSM,3,135,76,2,2,1,225,9,2,0,1,26,0,0,0,0,-154593.72009451812,-4778991.303682174,4211578.263151646,-2.71074,-1.01089,0.752226,34.375,-54.625,-60.375,0.0,0.0,0.0,0.0,0.0,0.0,2,0,41.5647485333411,-91.85279266289366,10002.621688422723,155.9460748557257,-0.0027509074697106,-0.0009576304018272,,8790.15738098984,10980.456319326084,150,9,2025-09-12,2025-09-26 20:39:54.021,AA,C,1847905872,HAWK11,1,1,73,2,1,1,225,2,1,0,0,12,1,225,2,1,-149384.02380545562,-4790591.195283736,4199151.968229771,2.54324,2.44334,-0.633342,-84.375,50.75,55.375,-0.015625,-6.71875,7.01562,0.0117188,0.0078125,0.015625,4,0,41.41284415308476,-91.78606380154206,11081.799801357782,-39.29846915464434,1.0019411681785908,1.8235531834306575,173.065,8790.15738098984,10980.456319326084,150,True,9.593931032354167,False,154.56412010488341,174.08945561153323,False,31.28794677228404,False,False
9,1970-07-23 10:31:35.947136068,2025-09-12,2025-09-26 20:39:54.713,AA,C,186112848,JASSM,3,135,76,2,2,1,225,9,2,0,1,26,0,0,0,0,-154557.66345389312,-4779048.844697799,4211514.722136021,-2.71074,-1.01089,0.752226,34.375,-54.625,-60.375,0.0,0.0,0.0,0.0,0.0,0.0,2,0,41.56398425607547,-91.85233854081532,10002.62558190426,155.94637614806942,-0.0019145056434747,-0.0009588713443258,,8790.15738098984,10980.456319326084,150,9,2025-09-12,2025-09-26 20:39:54.725,AA,C,1848740970,HAWK11,1,1,73,2,1,1,225,2,1,0,0,12,1,225,2,1,-149442.75232108062,-4790555.676729049,4199190.429167271,2.50691,2.44152,-0.641683,-84.25,50.875,55.625,0.0,-6.79688,7.03125,-0.103516,0.0,0.00195312,4,0,41.41330416242873,-91.78677875478796,11082.422264258625,-38.94963936188231,1.339487959308219,-0.3132210704430464,173.371,8790.15738098984,10980.456319326084,150,True,9.507808162479026,False,154.708478918456,173.92716648702017,False,31.307979191602254,False,False
9,1970-07-23 10:31:35.958315489,2025-09-12,2025-09-26 20:39:55.831,AA,C,187365548,JASSM,3,135,76,2,2,1,225,9,2,0,1,26,0,0,0,0,-154521.60681326812,-4779106.383760299,4211451.179167271,-2.71074,-1.01089,0.752226,34.375,-54.625,-60.375,0.0,0.0,0.0,0.0,0.0,0.0,2,0,41.56321997541875,-91.8518844301958,10002.624886040054,155.94667742826024,-0.0010781025705671,-0.0009601134300936,,8790.15738098984,10980.456319326084,150,9,2025-09-12,2025-09-26 20:39:55.913,AA,C,1850132802,HAWK11,1,1,73,2,1,1,225,2,1,0,0,12,1,225,2,1,-149541.01403983062,-4790496.252900924,4199254.374479771,2.40442,2.43836,-0.643697,-85.0,51.25,55.375,-0.0625,-6.65625,6.78125,-0.0078125,0.0,-0.00390625,4,0,41.41407105551036,-91.78797500099655,11082.600533277173,-38.76517489714058,1.3486849564473864,-6.289491418542983,173.065,8790.15738098984,10980.456319326084,150,True,9.397619905499054,False,154.4786545896193,173.67118359896972,False,31.78842776235864,False,False
9,1970-07-23 10:31:35.968295195,2025-09-12,2025-09-26 20:39:56.829,AA,C,188558594,JASSM,3,135,76,2,2,1,225,9,2,0,1,26,0,0,0,0,-154487.26794608062,-4779161.182588424,4211390.661589146,-2.71074,-1.01089,0.752226,34.375,-54.625,-60.375,0.0,0.0,0.0,0.0,0.0,0.0,2,0,41.56249208569826,-91.85145196341686,10002.626730129088,155.94696434459087,-0.0002815295538772,-0.0009613035870263,,8790.15738098984,10980.456319326084,150,9,2025-09-12,2025-09-26 20:39:56.725,AA,C,1851166734,HAWK11,1,1,73,2,1,1,225,2,1,0,0,12,1,225,2,1,-149615.96325858062,-4790451.464814986,4199302.265104771,2.41353,2.44862,-0.636123,-85.75,51.125,55.125,0.03125,-6.60938,6.6875,0.0351562,-0.00390625,-0.00390625,4,0,41.41464683319941,-91.7888872572398,11082.14637731381,-39.402602946978014,1.2769042440656364,-5.431092753102292,172.772,8790.15738098984,10980.456319326084,150,True,9.304773807609342,False,154.1268056103813,173.46433450734594,False,32.347217044174386,False,False
9,1970-07-23 10:31:35.978274566,2025-09-12,2025-09-26 20:39:57.827,AA,C,189811294,JASSM,3,135,76,2,2,1,225,9,2,0,1,26,0,0,0,0,-154451.21130545562,-4779218.719697799,4211327.116667271,-2.71074,-1.01089,0.752226,34.375,-54.625,-60.375,0.0,0.0,0.0,0.0,0.0,0.0,2,0,41.561727799845016,-91.85099787444696,10002.625686830828,155.94726560153433,0.0005548748726077,-0.0009625468319978,,8790.15738098984,10980.456319326084,150,9,2025-09-12,2025-09-26 20:39:57.913,AA,C,1852518800,HAWK11,1,1,73,2,1,1,225,2,1,0,0,12,1,225,2,1,-149712.52771170562,-4790393.814424361,4199363.487761021,2.49349,2.45303,-0.642067,-86.375,51.25,55.0,-0.015625,-7.03125,7.14062,0.0703125,0.00390625,0.0136719,4,0,41.41538509283132,-91.79006261017386,11080.662032914694,-39.36477366744071,1.6725359466102512,-0.6978637228815877,172.858,8790.15738098984,10980.456319326084,150,True,9.196852570618496,False,153.91578236776613,173.19962075253557,False,32.82186073230189,False,False
9,1970-07-23 10:31:35.989133694,2025-09-12,2025-09-26 20:39:58.913,AA,C,191063992,JASSM,3,135,76,2,2,1,225,9,2,0,1,26,0,0,0,0,-154415.15466483062,-4779276.254854049,4211263.571745396,-2.71064,-1.01089,0.752322,34.375,-54.625,-60.375,0.0,0.0,0.0,0.0,0.0,0.0,2,0,41.56096352375164,-91.8505437969336,10002.6243053323,155.94986044084297,-0.0035982895540744,0.0045276420584438,,8790.15738098984,10980.456319326084,150,9,2025-09-12,2025-09-26 20:39:58.819,AA,C,1853672032,HAWK11,1,1,73,2,1,1,225,2,1,0,0,12,1,225,2,1,-149796.93786795562,-4790343.467744674,4199417.204557896,2.54957,2.44123,-0.64849,-86.375,51.375,55.625,-0.078125,-6.95312,7.03125,0.0273438,-0.0078125,0.0078125,4,0,41.41603148800179,-91.79109002895136,11079.922243489353,-38.71222527378263,1.651220852385146,2.1284080202653954,173.029,8790.15738098984,10980.456319326084,150,True,9.0963493938698,False,154.12446376325477,172.9581881814663,False,32.86125704657335,False,False
9,1970-07-23 10:31:35.999115199,2025-09-12,2025-09-26 20:39:59.911,AA,C,192257048,JASSM,3,135,76,2,2,1,225,9,2,0,1,26,0,0,0,0,-154380.81384451812,-4779331.051729049,4211203.050261021,-2.71064,-1.01089,0.752322,34.375,-54.625,-60.375,0.0,0.0,0.0,0.0,0.0,0.0,2,0,41.560235614430674,-91.85011133760864,10002.625223910329,155.9501473395348,-0.0028016962416958,0.0045264933915171,,8790.15738098984,10980.456319326084,150,9,2025-09-12,2025-09-26 20:40:00.021,AA,C,1855103630,HAWK11,1,1,73,2,1,1,225,2,1,0,0,12,1,225,2,1,-149900.95544608062,-4790281.303682174,4199483.513151646,2.53682,2.42973,-0.657215,-86.375,51.75,56.125,-0.234375,-7.14062,7.21875,-0.0488281,0.0078125,0.00976562,4,0,41.41682951855192,-91.7923561781574,11078.96583450671,-37.99553912403505,1.7508276519232262,1.018942653864113,173.591,8790.15738098984,10980.456319326084,150,True,8.986572721998243,False,154.35745662613417,172.66459737837272,False,32.92444770480763,False,False
9,1970-07-23 10:31:36.009093741,2025-09-12,2025-09-26 20:40:00.909,AA,C,193509738,JASSM,3,135,76,2,2,1,225,9,2,0,1,26,0,0,0,0,-154344.75818045562,-4779388.584932174,4211139.503386021,-2.71064,-1.01089,0.752322,34.375,-54.625,-60.375,0.0,0.0,0.0,0.0,0.0,0.0,2,0,41.559471332951965,-91.84965729343632,10002.623572334354,155.95044855343173,-0.0019653045677981,0.0045252786180122,,8790.15738098984,10980.456319326084,150,9,2025-09-12,2025-09-26 20:40:00.913,AA,C,1856018262,HAWK11,1,1,73,2,1,1,225,2,1,0,0,12,1,225,2,1,-149967.46911795562,-4790241.332979049,4199526.483854771,2.52464,2.42474,-0.660187,-86.5,52.0,56.25,0.0,-7.14062,7.1875,0.0195312,0.0078125,0.00390625,4,0,41.41734496488307,-91.7931659114326,11079.055045733989,-37.71314828377452,1.758642782177435,0.1552968178070655,174.373,8790.15738098984,10980.456319326084,150,True,8.896750515212775,False,154.4124760634785,172.45705545077777,False,33.076197983322174,False,False
9,1970-07-23 10:31:36.020316261,2025-09-12,2025-09-26 20:40:02.031,AA,C,194822088,JASSM,3,135,76,2,2,1,225,9,2,0,1,26,0,0,0,0,-154306.98376639312,-4779448.858369674,4211072.929167271,-2.71064,-1.01089,0.752322,34.375,-54.625,-60.375,0.0,0.0,0.0,0.0,0.0,0.0,2,0,41.55867064333631,-91.84918161765346,10002.625010809172,155.95076411290617,-0.0010890671818083,0.0045240161808368,,8790.15738098984,10980.456319326084,150,9,2025-09-12,2025-09-26 20:40:01.945,AA,C,1856932894,HAWK11,1,1,73,2,1,1,225,2,1,0,0,12,1,225,2,1,-150033.18982108062,-4790201.765596236,4199569.218229771,2.55034,2.42148,-0.659804,-86.5,52.125,56.75,0.078125,-6.8125,6.9375,0.0703125,0.0078125,0.0136719,4,0,41.41785655843798,-91.793966031123,11079.566104099886,-37.606173934902245,1.65594432293925,1.5163194607494797,175.143,8790.15738098984,10980.456319326084,150,True,8.805020589728874,False,154.58233840201171,172.24536086075614,False,33.12263767320739,False,False
9,1970-07-23 10:31:36.031274172,2025-09-12,2025-09-26 20:40:03.127,AA,C,196074778,JASSM,3,135,76,2,2,1,225,9,2,0,1,26,0,0,0,0,-154270.92712576812,-4779506.389619674,4211009.380339146,-2.71064,-1.01089,0.752322,34.375,-54.625,-60.375,0.0,0.0,0.0,0.0,0.0,0.0,2,0,41.55790635666799,-91.84872758444855,10002.623358524315,155.95106531021128,-0.0002526707473979,0.0045228083145898,,8790.15738098984,10980.456319326084,150,9,2025-09-12,2025-09-26 20:40:03.225,AA,C,1858921226,HAWK11,1,1,73,2,1,1,225,2,1,0,0,12,1,225,2,1,-150178.20935233062,-4790113.158174361,4199664.954557896,2.67871,2.40212,-0.67035,-85.75,53.0,57.875,-0.109375,-6.92188,6.89062,0.0742188,0.0078125,0.0253906,4,0,41.41900285354323,-91.79573210853322,11080.63846153985,-36.5451069659004,1.6505861159508557,8.21789092303732,176.035,8790.15738098984,10980.456319326084,150,True,8.667199280517625,False,155.35185123165184,171.8256251587563,False,32.776456806486514,False,False
9,1970-07-23 10:31:36.041254468,2025-09-12,2025-09-26 20:40:04.125,AA,C,197267834,JASSM,3,135,76,2,2,1,225,9,2,0,1,26,0,0,0,0,-154236.58728201812,-4779561.180635299,4210948.856901646,-2.71064,-1.01089,0.752322,34.375,-54.625,-60.375,0.0,0.0,0.0,0.0,0.0,0.0,2,0,41.55717846175144,-91.84829517984258,10002.622694174748,155.95135215527057,0.0005438989870331,0.004521658856268,,8790.15738098984,10980.456319326084,150,9,2025-09-12,2025-09-26 20:40:04.115,AA,C,1859875626,HAWK11,1,1,73,2,1,1,225,2,1,0,0,12,1,225,2,1,-150246.99060233062,-4790069.431611861,4199712.042448521,2.76519,2.38783,-0.670158,-84.875,54.0,58.875,-0.09375,-6.95312,7.0,0.0546875,0.00976562,0.0175781,4,0,41.41956798675301,-91.79657039982182,11080.62003860986,-36.02304461975996,1.2791319985322598,12.6778229993578,176.841,8790.15738098984,10980.456319326084,150,False,8.577009277966523,False,156.1540828422984,171.60083441771943,False,32.19879862155278,False,False
9,1970-07-23 10:31:36.051444889,2025-09-12,2025-09-26 20:40:05.144,AA,C,198460880,JASSM,3,135,76,2,2,1,225,9,2,0,1,26,0,0,0,0,-154202.24743826812,-4779615.971650924,4210888.333464146,-2.71064,-1.0108,0.752322,34.375,-54.625,-60.375,0.0,0.0,0.0,0.0,0.0,0.0,2,0,41.55645056511662,-91.84786278493972,10002.626069675309,155.94799614687963,-0.0003342141999409,0.000767958476461,,8790.15738098984,10980.456319326084,150,9,2025-09-12,2025-09-26 20:40:05.021,AA,C,1861068624,HAWK11,1,1,73,2,1,1,225,2,1,0,0,12,1,225,2,1,-150331.40075858062,-4790014.125947799,4199771.503386021,2.82626,2.35591,-0.676677,-83.25,55.5,60.125,-0.015625,-6.67188,6.76562,0.0449219,-0.00195312,0.0332031,4,0,41.420282596236895,-91.79759980905628,11080.195062328125,-34.62656055429664,0.7978489219060488,15.06163146734102,177.514,8790.15738098984,10980.456319326084,150,False,8.476021341732185,False,157.389922722215,171.33146743584993,False,31.228741465211062,False,False
9,1970-07-23 10:31:36.062258319,2025-09-12,2025-09-26 20:40:06.225,AA,C,199713580,JASSM,3,135,76,2,2,1,225,9,2,0,1,26,0,0,0,0,-154166.19079764312,-4779673.500947799,4210824.780729771,-2.71064,-1.0108,0.752418,34.375,-54.625,-60.375,0.0,0.0,0.0,0.0,0.0,0.0,2,0,41.55568625829344,-91.84740878356358,10002.624061058725,155.95059265849588,-0.0044903147602293,0.0007666110118344,,8790.15738098984,10980.456319326084,150,9,2025-09-12,2025-09-26 20:40:06.225,AA,C,1862142322,HAWK11,1,1,73,2,1,1,225,2,1,0,0,12,1,225,2,1,-150406.25036795562,-4789962.750947799,4199825.860807896,2.81821,2.33414,-0.66987,-82.125,57.5,61.0,0.015625,-6.59375,6.65625,-0.00585938,0.00195312,0.0253906,4,0,41.42094115266177,-91.79851351880116,11077.626894282248,-34.01813712382111,-0.0565071274689011,13.826777034193322,178.772,8790.15738098984,10980.456319326084,150,False,8.377467590647953,False,158.4561871585216,171.08163499068607,False,30.39548389808231,False,False
9,1970-07-23 10:31:36.073057184,2025-09-12,2025-09-26 20:40:07.305,AA,C,200966278,JASSM,3,135,76,2,2,1,225,9,2,0,1,26,0,0,0,0,-154130.13318045562,-4779731.030244674,4210761.227995396,-2.71064,-1.0108,0.752418,34.375,-54.625,-60.375,0.0,0.0,0.0,0.0,0.0,0.0,2,0,41.55492194976386,-91.84695478119006,10002.626429218388,155.95089381772533,-0.0036539013747564,0.0007653849909666,,8790.15738098984,10980.456319326084,150,9,2025-09-12,2025-09-26 20:40:07.225,AA,C,1863613688,HAWK11,1,1,73,2,1,1,225,2,1,0,0,12,1,225,2,1,-150507.77380545562,-4789889.549775924,4199902.954557896,2.82329,2.31717,-0.673034,-80.25,59.25,62.875,-0.125,-7.3125,7.14062,-0.0488281,0.0078125,0.015625,4,0,41.421878028037504,-91.7997541940955,11072.806918286004,-33.27757103780158,-0.3055468194452776,13.51093872320211,179.444,8790.15738098984,10980.456319326084,150,False,8.259162688086683,False,159.9774955738238,170.75733346353334,False,29.19796558322845,True,False
9,1970-07-23 10:31:36.083294682,2025-09-12,2025-09-26 20:40:08.329,AA,C,202338280,JASSM,3,135,76,2,2,1,225,9,2,0,1,26,0,0,0,0,-154090.64196951812,-4779794.036104049,4210691.622526646,-2.71064,-1.0108,0.752418,34.375,-54.625,-60.375,0.0,0.0,0.0,0.0,0.0,0.0,2,0,41.5540848614847,-91.84645755927065,10002.628034047955,155.9512236411113,-0.0027378439487893,0.0007640433315705,,8790.15738098984,10980.456319326084,150,9,2025-09-12,2025-09-26 20:40:08.225,AA,C,1864846454,HAWK11,1,1,73,2,1,1,225,2,1,0,0,12,1,225,2,1,-150590.98474295562,-4789827.060518111,4199969.071745396,2.75867,2.2911,-0.674856,-79.125,59.625,64.625,-0.1875,-7.67188,6.73438,-0.0292969,0.0117188,0.0371094,4,0,41.42268049972533,-91.800772043268,11069.095870003152,-32.22622385083087,-0.8213924939085352,8.865912129040135,179.811,8790.15738098984,10980.456319326084,150,True,8.146735071345283,False,160.90058242150124,170.4718017507274,False,28.580449183992,True,False
9,1970-07-23 10:31:36.094252451,2025-09-12,2025-09-26 20:40:09.425,AA,C,203590980,JASSM,3,135,76,2,2,1,225,9,2,0,1,26,0,0,0,0,-154054.58532889312,-4779851.561494674,4210628.067839146,-2.71064,-1.0108,0.752418,34.375,-54.625,-60.375,0.0,0.0,0.0,0.0,0.0,0.0,2,0,41.55332055895188,-91.84600359251,10002.625975721112,155.95152476718502,-0.0019014434563458,0.000762812314847,,8790.15738098984,10980.456319326084,150,9,2025-09-12,2025-09-26 20:40:09.319,AA,C,1866118986,HAWK11,1,1,73,2,1,1,225,2,1,0,0,12,1,225,2,1,-150674.88708670562,-4789761.830049361,4200038.614714146,2.71294,2.29081,-0.673801,-77.625,60.625,65.375,-0.140625,-7.875,6.53125,-0.140625,-0.00976562,0.0,4,0,41.42352226340535,-91.80179921087682,11066.142023165885,-32.2467967992978,-0.8787627667617521,6.235885396774739,180.19,8790.15738098984,10980.456319326084,150,True,8.036836865910086,False,161.8357442930637,170.18509808110554,False,27.927617751812257,True,False
9,1970-07-23 10:31:36.105113102,2025-09-12,2025-09-26 20:40:10.511,AA,C,204903332,JASSM,3,135,76,2,2,1,225,9,2,0,1,26,0,0,0,0,-154016.81091483062,-4779911.825166549,4210561.485807896,-2.71064,-1.0108,0.752418,34.375,-54.625,-60.375,0.0,0.0,0.0,0.0,0.0,0.0,2,0,41.552519859021146,-91.84552801068398,10002.62399948999,155.95184022612403,-0.0010252114759059,0.0007615288566861,,8790.15738098984,10980.456319326084,150,9,2025-09-12,2025-09-26 20:40:10.521,AA,C,1867590350,HAWK11,1,1,73,2,1,1,225,2,1,0,0,12,1,225,2,1,-150769.71716483062,-4789686.940400924,4200119.507292271,2.61726,2.27058,-0.680321,-77.0,60.625,66.0,0.125,-7.375,6.20312,0.0117188,0.0,0.0136719,4,0,41.42449604038019,-91.80296063028992,11064.92844227005,-31.27930071279141,-1.012875399851126,0.011787417086282,181.094,8790.15738098984,10980.456319326084,150,True,7.915647178725789,False,162.21648028058095,169.8585355005578,False,27.883052647710073,True,False
9,1970-07-23 10:31:36.115095882,2025-09-12,2025-09-26 20:40:11.509,AA,C,206156030,JASSM,3,135,76,2,2,1,225,9,2,0,1,26,0,0,0,0,-153980.75427420562,-4779969.348604049,4210497.929167271,-2.71064,-1.0108,0.752418,34.375,-54.625,-60.375,0.0,0.0,0.0,0.0,0.0,0.0,2,0,41.55175555110922,-91.84507406657563,10002.62201795754,155.95214132785628,-0.0001888096142742,0.0007602966791974,,8790.15738098984,10980.456319326084,150,9,2025-09-12,2025-09-26 20:40:11.319,AA,C,1868544750,HAWK11,1,1,73,2,1,1,225,2,1,0,0,12,1,225,2,1,-150830.48864920562,-4789637.684541549,4200172.810026646,2.63816,2.28352,-0.676581,-76.375,60.875,66.0,-0.125,-7.42188,6.26562,0.015625,-0.00195312,-0.0078125,4,0,41.42513746484913,-91.80370541504904,11064.226531070291,-31.886455660179937,-0.9058016257000562,1.684997627631337,181.387,8790.15738098984,10980.456319326084,150,True,7.8208727000454825,False,162.4981117293036,169.62399769971114,False,27.832330138942595,True,False
9,1970-07-23 10:31:36.127302937,2025-09-12,2025-09-26 20:40:12.730,AA,C,207528032,JASSM,3,135,76,2,2,1,225,9,2,0,1,26,0,0,0,0,-153941.26306326812,-4780032.350557174,4210428.319792271,-2.71064,-1.0108,0.752418,34.375,-54.625,-60.375,0.0,0.0,0.0,0.0,0.0,0.0,2,0,41.55091845123507,-91.84457689469056,10002.62574579626,155.95247109741038,0.0007272505984634,0.0007589526908768,,8790.15738098984,10980.456319326084,150,9,2025-09-12,2025-09-26 20:40:13.063,AA,C,1870055882,HAWK11,1,1,73,2,1,1,225,2,1,0,0,12,1,225,2,1,-150926.82068045562,-4789560.344697799,4200256.798307896,2.67172,2.27096,-0.686361,-75.5,60.875,66.125,0.0,-7.625,6.14062,0.0546875,0.0078125,0.0214844,4,0,41.426146411735296,-91.80488576414244,11063.842869906211,-31.12195826590723,-0.7026600660940613,3.143774006081144,182.573,8790.15738098984,10980.456319326084,150,True,7.695537555511813,False,162.85353239169484,169.27344640860576,False,27.829771221827446,True,False
9,1970-07-23 10:31:36.137294908,2025-09-12,2025-09-26 20:40:13.729,AA,C,208780732,JASSM,3,135,76,2,2,1,225,9,2,0,1,26,0,0,0,0,-153905.20544608062,-4780089.872041549,4210364.761198521,-2.71064,-1.0108,0.752513,34.375,-54.625,-60.375,0.0,0.0,0.0,0.0,0.0,0.0,2,0,41.55015413804136,-91.84412296204796,10002.623976014427,155.95506610481976,-0.0034257499364416,0.0007576901438876,,8790.15738098984,10980.456319326084,150,9,2025-09-12,2025-09-26 20:40:13.319,AA,C,1870851214,HAWK11,1,1,73,2,1,1,225,2,1,0,0,12,1,225,2,1,-150976.61560233062,-4789520.481416549,4200300.724089146,2.70613,2.26214,-0.689524,-75.25,59.0,67.75,-0.03125,-7.42188,6.07812,0.0371094,0.00195312,0.00585938,4,0,41.42667071121963,-91.80549586880092,11065.04061715973,-30.693512280203684,-0.7394691918031909,4.789656712597068,182.573,8790.15738098984,10980.456319326084,150,True,7.609316315094915,False,162.9148246259562,169.0569904011294,False,28.02256077154656,True,False
9,1970-07-23 10:31:36.148132078,2025-09-12,2025-09-26 20:40:14.813,AA,C,210093082,JASSM,3,135,76,2,2,1,225,9,2,0,1,26,0,0,0,0,-153867.43103201812,-4780150.131807174,4210298.175261021,-2.71064,-1.0108,0.752513,34.375,-54.625,-60.375,0.0,0.0,0.0,0.0,0.0,0.0,2,0,41.54935342688813,-91.84364742814098,10002.623244260078,155.95538151233887,-0.002549515138378,0.0007564394414622,,8790.15738098984,10980.456319326084,150,9,2025-09-12,2025-09-26 20:40:14.725,AA,C,1872640712,HAWK11,1,1,73,2,1,1,225,2,1,0,0,12,1,225,2,1,-151086.87341483062,-4789428.808564986,4200400.099089146,2.80805,2.25035,-0.699975,-72.875,61.5,66.375,-0.140625,-7.65625,6.15625,0.113281,0.00390625,0.0410156,4,0,41.42786615121253,-91.80684810456262,11063.915885610622,-29.94767463995648,-0.4726508487360063,10.188699824736638,184.161,8790.15738098984,10980.456319326084,150,False,7.474182563025107,False,164.03220338929307,168.65176866129934,False,27.266042109601536,True,False
9,1970-07-23 10:31:36.157133219,2025-09-12,2025-09-26 20:40:15.713,AA,C,211166826,JASSM,3,135,76,2,2,1,225,9,2,0,1,26,0,0,0,0,-153836.52478201812,-4780199.434541549,4210243.694792271,-2.71064,-1.0108,0.752513,34.375,-54.625,-60.375,0.0,0.0,0.0,0.0,0.0,0.0,2,0,41.548698295080094,-91.84325836500972,10002.622227309572,155.95563956264692,-0.0018325933760931,0.000755414008245,,8790.15738098984,10980.456319326084,150,9,2025-09-12,2025-09-26 20:40:16.063,AA,C,1873555344,HAWK11,1,1,73,2,1,1,225,2,1,0,0,12,1,225,2,1,-151141.98278983062,-4789381.497041549,4200451.310026646,2.90766,2.22724,-0.706686,-71.25,61.875,66.875,0.0,-7.17188,6.0,0.142578,0.00390625,0.0253906,4,0,41.42848292745856,-91.80752456401528,11063.038267641688,-28.878229076403443,-0.6225826228406723,15.029778630599807,184.675,8790.15738098984,10980.456319326084,150,False,7.38924233855025,False,164.85296249505714,168.41961655928682,False,26.678795767701327,True,False
9,1970-07-23 10:31:36.167132671,2025-09-12,2025-09-26 20:40:16.713,AA,C,212300218,JASSM,3,135,76,2,2,1,225,9,2,0,1,26,0,0,0,0,-153803.90173514312,-4780251.475557174,4210186.188932896,-2.71054,-1.0107,0.752513,34.375,-54.625,-60.375,0.0,0.0,0.0,0.0,0.0,0.0,2,0,41.54800677881074,-91.84284769867324,10002.625690433288,155.9522698589069,-0.002750477397765,0.0024926410916173,,8790.15738098984,10980.456319326084,150,9,2025-09-12,2025-09-26 20:40:16.819,AA,C,1875066476,HAWK11,1,1,73,2,1,1,225,2,1,0,0,12,1,225,2,1,-151230.41052420562,-4789301.790010299,4200536.894011021,2.99788,2.17892,-0.719341,-67.625,63.5,67.375,-0.015625,-7.48438,6.29688,0.0,0.0,0.0234375,4,0,41.42951817596142,-91.80861145919047,11059.722660400266,-26.686639546204265,-0.9457144746569242,18.357870989047026,185.445,8790.15738098984,10980.456319326084,150,False,7.273637670569028,False,166.7056720690884,168.07829942831677,False,25.137456712417265,True,False
9,1970-07-23 10:31:36.177093402,2025-09-12,2025-09-26 20:40:17.709,AA,C,213493266,JASSM,3,135,76,2,2,1,225,9,2,0,1,26,0,0,0,0,-153769.56189139312,-4780306.254854049,4210125.653776646,-2.71054,-1.0107,0.752513,34.375,-54.625,-60.375,0.0,0.0,0.0,0.0,0.0,0.0,2,0,41.547278851526144,-91.84241543051304,10002.625709200292,155.95255655761173,-0.001953899498633,0.0024914471906528,,8790.15738098984,10980.456319326084,150,9,2025-09-12,2025-09-26 20:40:17.819,AA,C,1876219708,HAWK11,1,1,73,2,1,1,225,2,1,0,0,12,1,225,2,1,-151294.37341483062,-4789240.297822799,4200602.493620396,2.94246,2.1399,-0.723368,-65.125,64.5,68.125,-0.15625,-7.625,6.29688,-0.0820312,0.00976562,0.0214844,4,0,41.43031476269064,-91.80939911922044,11055.915702480634,-25.07531830355965,-1.4687893444742848,13.67247313170721,186.166,8790.15738098984,10980.456319326084,150,False,7.172740163341387,False,168.06781661535152,167.80387804572663,False,24.035608006384653,True,False
9,1970-07-23 10:31:36.186093858,2025-09-12,2025-09-26 20:40:18.609,AA,C,214626660,JASSM,3,135,76,2,2,1,225,9,2,0,1,26,0,0,0,0,-153736.93786795562,-4780358.293916549,4210068.144011021,-2.71054,-1.0107,0.752513,34.375,-54.625,-60.375,0.0,0.0,0.0,0.0,0.0,0.0,2,0,41.54658731760515,-91.84200477120042,10002.623285949598,155.95282892058322,-0.0011971449831598,0.0024903216517704,,8790.15738098984,10980.456319326084,150,9,2025-09-12,2025-09-26 20:40:18.521,AA,C,1877094574,HAWK11,1,1,73,2,1,1,225,2,1,0,0,12,1,225,2,1,-151342.24646170562,-4789192.025361861,4200653.911589146,2.91169,2.12514,-0.722505,-63.625,65.0,68.875,0.078125,-7.85938,6.65625,-0.0644531,0.00585938,0.0136719,4,0,41.43094000142427,-91.80998950567752,11052.57856666611,-24.520351417885266,-1.7789353120667872,11.3338909812664,186.801,8790.15738098984,10980.456319326084,150,False,7.086205684400506,False,168.94433230669276,167.57931626050274,False,23.386401269401638,True,False
9,1970-07-23 10:31:36.196315131,2025-09-12,2025-09-26 20:40:19.631,AA,C,215819706,JASSM,3,135,76,2,2,1,225,9,2,0,1,26,0,0,0,0,-153702.59802420562,-4780413.071260299,4210007.606901646,-2.71054,-1.0107,0.752513,34.375,-54.625,-60.375,0.0,0.0,0.0,0.0,0.0,0.0,2,0,41.545859385468496,-91.84157252270126,10002.622139411418,155.95311559820112,-0.0004005657432799,0.0024891265946561,,8790.15738098984,10980.456319326084,150,9,2025-09-12,2025-09-26 20:40:19.725,AA,C,1878605706,HAWK11,1,1,73,2,1,1,225,2,1,0,0,12,1,225,2,1,-151421.04333670562,-4789109.629854049,4200742.101042271,2.91792,2.10798,-0.724422,-61.5,65.875,70.0,-0.21875,-7.375,6.78125,0.0722656,0.0117188,0.0253906,4,0,41.43201062088556,-91.81096239168068,11047.586887432904,-23.803263405939333,-1.979177253108331,11.01671678453622,187.119,8790.15738098984,10980.456319326084,150,False,6.96785282712451,False,170.2274672974049,167.24979232595697,False,22.432909327047454,True,False
9,1970-07-23 10:31:36.206296711,2025-09-12,2025-09-26 20:40:20.629,AA,C,217012752,JASSM,3,135,76,2,2,1,225,9,2,0,1,26,0,0,0,0,-153668.25720389312,-4780467.848604049,4209947.069792271,-2.71054,-1.0107,0.752513,34.375,-54.625,-60.375,0.0,0.0,0.0,0.0,0.0,0.0,2,0,41.54513145180204,-91.84114027220588,10002.62495577925,155.95340227301622,0.0003960169925055,0.0024879395902333,,8790.15738098984,10980.456319326084,150,9,2025-09-12,2025-09-26 20:40:20.225,AA,C,1879122672,HAWK11,1,1,73,2,1,1,225,2,1,0,0,12,1,225,2,1,-151447.97107108062,-4789080.691377486,4200773.147917271,2.95349,2.09561,-0.728066,-60.75,66.25,70.5,-0.21875,-7.25,6.95312,0.0566406,0.00195312,0.0234375,4,0,41.43238727218488,-91.81129516452783,11045.937742920076,-23.23406852619228,-1.9994360092672627,12.564419831620778,186.997,8790.15738098984,10980.456319326084,150,False,6.896136789601973,False,170.71317354717152,167.07764142976225,False,22.120139748758014,True,False
9,1970-07-23 10:31:36.216271841,2025-09-12,2025-09-26 20:40:21.627,AA,C,218146146,JASSM,3,135,76,2,2,1,225,9,2,0,1,26,0,0,0,0,-153635.63415701812,-4780519.883760299,4209889.560026646,-2.71054,-1.0107,0.752609,34.375,-54.625,-60.375,0.0,0.0,0.0,0.0,0.0,0.0,2,0,41.544439936184055,-91.8407296532632,10002.624344672124,155.95597027486676,-0.003839612636185,0.002486760581351,,8790.15738098984,10980.456319326084,150,9,2025-09-12,2025-09-26 20:40:21.725,AA,C,1880951936,HAWK11,1,1,73,2,1,1,225,2,1,0,0,12,1,225,2,1,-151538.99060233062,-4788977.968721236,4200883.431120396,3.05579,2.04297,-0.735352,-57.75,68.25,72.75,-0.09375,-7.04688,7.07812,0.0742188,0.0117188,0.0351562,4,0,41.4337256357972,-91.8124218681142,11039.904940179307,-20.998793382064985,-2.4628285087374056,16.323622142107247,187.278,8790.15738098984,10980.456319326084,150,False,6.763395648405873,False,172.76222993691002,166.7026429149344,False,20.4366711183909,True,False
9,1970-07-23 10:31:36.225439590,2025-09-12,2025-09-26 20:40:22.543,AA,C,219219888,JASSM,3,135,76,2,2,1,225,9,2,0,1,26,0,0,0,0,-153604.72790701812,-4780569.180635299,4209835.075651646,-2.71054,-1.0107,0.752609,34.375,-54.625,-60.375,0.0,0.0,0.0,0.0,0.0,0.0,2,0,41.54378480258859,-91.84034065129526,10002.62499041052,155.95622825966478,-0.0031226988665124,0.002485720189412,,8790.15738098984,10980.456319326084,150,9,2025-09-12,2025-09-26 20:40:22.725,AA,C,1882065402,HAWK11,1,1,73,2,1,1,225,2,1,0,0,12,1,225,2,1,-151592.75818045562,-4788913.129854049,4200952.634245396,3.11273,2.01249,-0.738995,-55.625,69.75,74.125,-0.203125,-7.14062,7.09375,0.0253906,0.00390625,0.0234375,4,0,41.43456835133496,-91.81308903610704,11034.932720336094,-19.71400894648588,-2.7220665878952985,18.354337459182787,187.314,8790.15738098984,10980.456319326084,150,False,6.66628036534125,False,174.1448504610351,166.44621254558152,False,19.282546560037535,True,False
9,1970-07-23 10:31:36.235113928,2025-09-12,2025-09-26 20:40:23.511,AA,C,220412936,JASSM,3,135,76,2,2,1,225,9,2,0,1,26,0,0,0,0,-153570.38708670562,-4780623.956025924,4209774.534636021,-2.71054,-1.0107,0.752609,34.375,-54.625,-60.375,0.0,0.0,0.0,0.0,0.0,0.0,2,0,41.54305684936911,-91.83990842918377,10002.62602775968,155.95651490399732,-0.0023261026373059,0.0024845585720208,,8790.15738098984,10980.456319326084,150,9,2025-09-12,2025-09-26 20:40:23.319,AA,C,1882900502,HAWK11,1,1,73,2,1,1,225,2,1,0,0,12,1,225,2,1,-151631.58825858062,-4788863.891572799,4201005.009245396,3.12223,1.98603,-0.740146,-53.875,70.75,75.125,-0.296875,-7.15625,7.09375,-0.0078125,0.00390625,0.03125,4,0,41.43520748221956,-91.81357177809709,11030.619860131164,-18.635027889714664,-3.032524596727833,17.822262344173513,187.595,8790.15738098984,10980.456319326084,150,False,6.578157577145346,False,175.20877258173357,166.22447031693824,False,18.414895369398522,True,False
9,1970-07-23 10:31:36.245073014,2025-09-12,2025-09-26 20:40:24.507,AA,C,221605982,JASSM,3,135,76,2,2,1,225,9,2,0,1,26,0,0,0,0,-153536.04626639312,-4780678.727510299,4209713.993620396,-2.71054,-1.0107,0.752609,34.375,-54.625,-60.375,0.0,0.0,0.0,0.0,0.0,0.0,2,0,41.54232891773421,-91.83947621826928,10002.621517982743,155.9568015367777,-0.0015295280448639,0.0024834054063746,,8790.15738098984,10980.456319326084,150,9,2025-09-12,2025-09-26 20:40:24.725,AA,C,1884451400,HAWK11,1,1,73,2,1,1,225,2,1,0,0,12,1,225,2,1,-151700.12927420562,-4788770.372041549,4201104.153776646,3.10459,1.93962,-0.747049,-50.75,72.75,77.125,-0.125,-7.4375,7.46875,-0.0917969,0.00976562,0.0234375,4,0,41.43642013304479,-91.81442641645542,11021.309792080328,-16.64928436291068,-3.2590419923660714,14.902786199795774,188.5,8790.15738098984,10980.456319326084,150,False,6.453332027496941,False,177.0996593021088,165.9042578300805,False,16.747201414982147,True,False
9,1970-07-23 10:31:36.254073268,2025-09-12,2025-09-26 20:40:25.407,AA,C,222739376,JASSM,3,135,76,2,2,1,225,9,2,0,1,26,0,0,0,0,-153503.42321951812,-4780730.760713424,4209656.479948521,-2.71054,-1.0107,0.752609,34.375,-54.625,-60.375,0.0,0.0,0.0,0.0,0.0,0.0,2,0,41.54163738117623,-91.83906563553582,10002.6223898327,155.95707382240235,-0.000772784805974,0.0024823040030037,,8790.15738098984,10980.456319326084,150,9,2025-09-12,2025-09-26 20:40:25.725,AA,C,1885763698,HAWK11,1,1,73,2,1,1,225,2,1,0,0,12,1,225,2,1,-151754.97400076812,-4788689.995088424,4201189.763151646,3.02185,1.90779,-0.749637,-48.875,73.875,78.875,-0.1875,-7.375,7.46875,-0.0820312,0.00390625,0.0175781,4,0,41.4374658132525,-91.81511239956292,11013.865044364731,-15.323370401277066,-3.492132787684653,8.843319926059042,188.891,8790.15738098984,10980.456319326084,150,True,6.342185095415565,False,178.2943105862692,165.62897448540278,False,15.778928720779817,True,False
9,1970-07-23 10:31:36.266632328,2025-09-12,2025-09-26 20:40:26.663,AA,C,223992074,JASSM,3,135,76,2,2,1,225,9,2,0,1,26,0,0,0,0,-153467.36560233062,-4780788.270479049,4209592.911589146,-2.71054,-1.0107,0.752609,34.375,-54.625,-60.375,0.0,0.0,0.0,0.0,0.0,0.0,2,0,41.5408730491268,-91.83861183721372,10002.62469503642,155.9573747629212,6.361804915887186e-05,0.0024810909617078,,8790.15738098984,10980.456319326084,150,9,2025-09-12,2025-09-26 20:40:26.615,AA,C,1886797630,HAWK11,1,1,73,2,1,1,225,2,1,0,0,12,1,225,2,1,-151797.72009451812,-4788625.090791549,4201259.560026646,2.97132,1.89792,-0.755006,-48.0,74.375,80.25,0.125,-7.28125,7.32812,-0.00585938,0.00390625,0.0078125,4,0,41.43831498960081,-91.81564792752135,11009.188781230125,-14.84262448221696,-3.3051472763303464,5.533437598684647,189.013,8790.15738098984,10980.456319326084,150,True,6.239303641000433,False,178.98341253618557,165.3761207517747,False,15.388045255061796,True,False
9,1970-07-23 10:31:36.274291685,2025-09-12,2025-09-26 20:40:27.429,AA,C,225125468,JASSM,3,135,76,2,2,1,225,9,2,0,1,26,0,0,0,0,-153434.74157889312,-4780840.301729049,4209535.395964146,-2.71054,-1.0107,0.752609,34.375,-54.625,-60.375,0.0,0.0,0.0,0.0,0.0,0.0,2,0,41.54018150798857,-91.8382012619568,10002.624122569405,155.9576470357485,0.0008203660207397,0.0024799964709598,,8790.15738098984,10980.456319326084,150,9,2025-09-12,2025-09-26 20:40:27.526,AA,C,1887911096,HAWK11,1,1,73,2,1,1,225,2,1,0,0,12,1,225,2,1,-151841.62732108062,-4788556.290010299,4201334.013151646,2.90009,1.89169,-0.759896,-47.375,74.875,81.375,-0.125,-7.39062,7.32812,-0.236328,0.0,0.0136719,4,0,41.43921855252718,-91.81619882570166,11005.140326745332,-14.518833078843112,-3.101600440234477,1.1887498428083223,189.441,8790.15738098984,10980.456319326084,150,True,6.137836914832031,False,179.46484235235405,165.12455305080547,False,15.150842434206238,True,False
