Subject_cm,Timestamp,SampleDate_cm,SampleTime_cm,Configuration_cm,Scenario_cm,DisTime_cm,MarkingTxt_cm,Application_cm,EntId_cm,Site_cm,ExerciseId_cm,ForceId_cm,Category_cm,Country_cm,Domain_cm,Kind_cm,Extra_cm,Specific_cm,Subcategory_cm,AltCategory_cm,AltCountry_cm,AltDomain_cm,AltKind_cm,ECEF_X_cm,ECEF_Y_cm,ECEF_Z_cm,OriPhi_cm,OriPsi_cm,OriTheta_cm,LinVelX_cm,LinVelY_cm,LinVelZ_cm,LinAccX_cm,LinAccY_cm,LinAccZ_cm,AngVelX_cm,AngVelY_cm,AngVelZ_cm,DrAlg_cm,Appearance_cm,Latitude_cm,Longitude_cm,Altitude_cm,Heading_cm,Pitch_cm,Roll_cm,CalibratedAirspeed_cm,CM_Altitude_Lead_cm,CM_Altitude_Wing_cm,CM_Airspeed_cm,Subject_ac,SampleDate_ac,SampleTime_ac,Configuration_ac,Scenario_ac,DisTime_ac,MarkingTxt_ac,Application_ac,EntId_ac,Site_ac,ExerciseId_ac,ForceId_ac,Category_ac,Country_ac,Domain_ac,Kind_ac,Extra_ac,Specific_ac,Subcategory_ac,AltCategory_ac,AltCountry_ac,AltDomain_ac,AltKind_ac,ECEF_X_ac,ECEF_Y_ac,ECEF_Z_ac,OriPhi_ac,OriPsi_ac,OriTheta_ac,LinVelX_ac,LinVelY_ac,LinVelZ_ac,LinAccX_ac,LinAccY_ac,LinAccZ_ac,AngVelX_ac,AngVelY_ac,AngVelZ_ac,DrAlg_ac,Appearance_ac,Latitude_ac,Longitude_ac,Altitude_ac,Heading_ac,Pitch_ac,Roll_ac,CalibratedAirspeed_ac,CM_Altitude_Lead_ac,CM_Altitude_Wing_ac,CM_Airspeed_ac,Bank_Angle_Condition,distance_nm,Distance_Condition,angle_between_vel,angle_between_pos,Cone_Condition,angle_between_pos_nose,Nose_Cone_Condition,Intercept_Criteria
9,1970-07-23 10:31:29.539242324,2025-09-12,2025-09-26 20:29:13.924,AH,C,3716516312,JASSM,3,128,76,2,2,1,225,9,2,0,1,26,0,0,0,0,-188356.8206804556,-4786074.256807174,4202213.024870396,-2.30155,-0.153302,0.128183,89.75,-13.75,-11.625,0.0,0.0,0.0,0.0,0.0,0.0,2,0,41.45220013775657,-92.25372273299809,10002.62841366886,99.81552423930832,-0.0051063842564853,0.0023915255379541,,9026.08902586808,11243.505992254835,150,9,2025-09-12,2025-09-26 20:29:14.032,AH,C,1084307138,HAWK11,1,1,73,2,1,1,225,2,1,0,0,12,1,225,2,1,-145078.27185233062,-4790845.939424361,4199087.175261021,2.37278,2.62733,-0.505063,-92.5,38.25,39.125,0.078125,-6.79688,6.40625,-0.015625,-0.0078125,0.00585938,4,0,41.41167848805086,-91.73452315076766,11242.256262069057,-50.77885843895269,0.8395681053416837,-2.451071221155969,181.546,9026.08902586808,11243.505992254835,150,True,23.474906980559137,False,160.66074523698788,176.0044972070521,False,23.322998265969698,True,False
9,1970-07-23 10:31:29.550201746,2025-09-12,2025-09-26 20:29:15.020,AH,C,3717828664,JASSM,3,128,76,2,2,1,225,9,2,0,1,26,0,0,0,0,-188258.0433367056,-4786089.528291549,4202200.142057896,-2.30155,-0.153302,0.128183,89.75,-13.75,-11.625,0.0,0.0,0.0,0.0,0.0,0.0,2,0,41.45204546288174,-92.25253488232678,10002.62284424052,99.81631058935112,-0.0042027433821784,0.0023908970962254,,9026.08902586808,11243.505992254835,150,9,2025-09-12,2025-09-26 20:29:15.032,AH,C,1085380838,HAWK11,1,1,73,2,1,1,225,2,1,0,0,12,1,225,2,1,-145161.62341483062,-4790811.360322799,4199121.886198521,2.36195,2.62426,-0.50631,-92.75,38.375,38.75,-0.171875,-6.73438,6.40625,0.00195312,-0.0234375,0.0,4,0,41.41210347660977,-91.7355315929736,11238.750051070623,-50.61706031024769,0.7918467353410843,-3.154485893563656,181.791,9026.08902586808,11243.505992254835,150,True,23.373135455700886,False,160.82086758895795,175.9451065959661,False,23.219626362359197,True,False
9,1970-07-23 10:31:29.560346177,2025-09-12,2025-09-26 20:29:16.034,AH,C,3719141014,JASSM,3,128,76,2,2,1,225,9,2,0,1,26,0,0,0,0,-188159.26403983065,-4786104.799775924,4202187.259245396,-2.30155,-0.153302,0.128183,89.75,-13.75,-11.625,0.0,0.0,0.0,0.0,0.0,0.0,2,0,41.45189077619472,-92.25134701395326,10002.62230076428,99.81709694869896,-0.0032990853198182,0.0023902720413404,,9026.08902586808,11243.505992254835,150,9,2025-09-12,2025-09-26 20:29:15.924,AH,C,1086573836,HAWK11,1,1,73,2,1,1,225,2,1,0,0,12,1,225,2,1,-145254.81286795562,-4790772.797822799,4199159.976042271,2.35763,2.62733,-0.49979,-93.125,38.5,38.125,0.03125,-6.76562,6.35938,-0.00195312,0.0,-0.0136719,4,0,41.41257318732071,-91.7366590409556,11233.51837643413,-50.980860876353695,0.6154392203911581,-3.321227377293361,182.243,9026.08902586808,11243.505992254835,150,True,23.265791864279294,False,161.09788627356093,175.88007551196657,False,23.003057808427787,True,False
9,1970-07-23 10:31:29.571302029,2025-09-12,2025-09-26 20:29:17.130,AH,C,3720393714,JASSM,3,128,76,2,2,1,225,9,2,0,1,26,0,0,0,0,-188064.9769304556,-4786119.377900924,4202174.960417271,-2.30155,-0.153302,0.128183,89.75,-13.75,-11.625,0.0,0.0,0.0,0.0,0.0,0.0,2,0,41.45174309322024,-92.25021317101528,10002.625353507168,99.81784754139063,-0.0024365191790274,0.0023896561920493,,9026.08902586808,11243.505992254835,150,9,2025-09-12,2025-09-26 20:29:17.032,AH,C,1087766834,HAWK11,1,1,73,2,1,1,225,2,1,0,0,12,1,225,2,1,-145348.20544608062,-4790733.915010299,4199197.602995396,2.38304,2.62541,-0.499215,-93.5,38.75,37.75,-0.09375,-6.875,6.5,0.162109,0.0,-0.00390625,4,0,41.41304163233359,-91.73778904894306,11226.51548808244,-50.93131818189278,0.5277383358790013,-1.9174915161833577,182.536,9026.08902586808,11243.505992254835,150,True,23.160828512802503,False,161.2471478608729,175.81515524522155,False,22.914295566705043,True,False
9,1970-07-23 10:31:29.585043022,2025-09-12,2025-09-26 20:29:18.504,AH,C,3721765716,JASSM,3,128,76,2,2,1,225,9,2,0,1,26,0,0,0,0,-187961.70935233065,-4786135.340791549,4202161.489714146,-2.30155,-0.153302,0.128183,89.75,-13.75,-11.625,0.0,0.0,0.0,0.0,0.0,0.0,2,0,41.45158135037693,-92.24897134174684,10002.623952208867,99.81866961742908,-0.001491801616422,0.002389000299612,,9026.08902586808,11243.505992254835,150,9,2025-09-12,2025-09-26 20:29:18.329,AH,C,1089556332,HAWK11,1,1,73,2,1,1,225,2,1,0,0,12,1,225,2,1,-145487.94372733062,-4790674.526338424,4199254.552214146,2.78389,2.61927,-0.518294,-92.0,40.375,39.125,-0.46875,-7.54688,7.14062,0.136719,0.0175781,0.0410156,4,0,41.41375411032288,-91.73948028995092,11214.482537053893,-49.9784062146972,1.1450107862034846,20.89236281309593,183.098,9026.08902586808,11243.505992254835,150,False,23.02442146521555,False,159.87533579381568,175.71917660461966,False,24.379274062300876,True,False
9,1970-07-23 10:31:29.592241763,2025-09-12,2025-09-26 20:29:19.224,AH,C,3722839458,JASSM,3,128,76,2,2,1,225,9,2,0,1,26,0,0,0,0,-187880.89294608065,-4786147.832979049,4202150.946745396,-2.30155,-0.153302,0.128183,89.75,-13.75,-11.625,0.0,0.0,0.0,0.0,0.0,0.0,2,0,41.451454757721294,-92.24799950020554,10002.624267593568,99.81931296299942,-0.0007524722555588,0.002388482413605,,9026.08902586808,11243.505992254835,150,9,2025-09-12,2025-09-26 20:29:19.532,AH,C,1090908398,HAWK11,1,1,73,2,1,1,225,2,1,0,0,12,1,225,2,1,-145591.35583670562,-4790627.013643111,4199300.505339146,2.85761,2.55801,-0.557027,-89.25,42.625,42.5,-0.171875,-8.85938,8.70312,0.0449219,0.0449219,0.0546875,4,0,41.4143282583152,-91.74073319703736,11205.089887378015,-46.245402023559656,0.8734920421786289,23.38420608430349,183.514,9026.08902586808,11243.505992254835,150,False,22.920781817268075,False,157.29230682849445,175.6400097870053,False,27.047898861280405,True,False
9,1970-07-23 10:31:29.602220838,2025-09-12,2025-09-26 20:29:20.222,AH,C,3724092158,JASSM,3,128,76,2,2,1,225,9,2,0,1,26,0,0,0,0,-187786.60388358065,-4786162.405244674,4202138.645964146,-2.30145,-0.153206,0.128183,89.75,-13.75,-11.625,0.0,0.0,0.0,0.0,0.0,0.0,2,0,41.45130706390564,-92.2468656518576,10002.62252041036,99.81642718305662,-0.0039468322631112,0.0071772776753146,,9026.08902586808,11243.505992254835,150,9,2025-09-12,2025-09-26 20:29:20.236,AH,C,1091783264,HAWK11,1,1,73,2,1,1,225,2,1,0,0,12,1,225,2,1,-145655.42028983062,-4790595.630830611,4199332.395964146,2.91082,2.53385,-0.574476,-87.0,43.75,45.0,-0.171875,-7.75,7.57812,0.0683594,-0.00195312,0.0253906,4,0,41.41471863048061,-91.7415101003597,11201.91080885266,-44.70823651462755,0.9077366697663356,25.71485369545346,183.831,9026.08902586808,11243.505992254835,150,False,22.832186470060492,False,155.46161925589502,175.58059279072825,False,28.9444641280141,True,False
9,1970-07-23 10:31:29.613338796,2025-09-12,2025-09-26 20:29:21.333,AH,C,3725404510,JASSM,3,128,76,2,2,1,225,9,2,0,1,26,0,0,0,0,-187687.8245867056,-4786177.672822799,4202125.757292271,-2.30145,-0.153206,0.128279,89.75,-13.75,-11.625,0.0,0.0,0.0,0.0,0.0,0.0,2,0,41.45115230239182,-92.2456778122591,10002.624541444578,99.82130403145118,-0.0067095977159499,0.0071762306386986,,9026.08902586808,11243.505992254835,150,9,2025-09-12,2025-09-26 20:29:21.422,AH,C,1093135330,HAWK11,1,1,73,2,1,1,225,2,1,0,0,12,1,225,2,1,-145755.00818045562,-4790542.222627486,4199386.382292271,2.95752,2.53327,-0.550891,-84.5,47.5,48.625,-0.375,-7.95312,7.84375,0.0292969,0.0292969,0.0410156,4,0,41.41538274375032,-91.74271949286424,11195.180589020363,-45.53639642462542,-0.1599655964967081,28.36720501227692,183.709,9026.08902586808,11243.505992254835,150,False,22.72024208274299,False,152.46010863073917,175.48409886212758,False,32.03962801540131,False,False
9,1970-07-23 10:31:29.624341041,2025-09-12,2025-09-26 20:29:22.434,AH,C,3726716860,JASSM,3,128,76,2,2,1,225,9,2,0,1,26,0,0,0,0,-187589.0472429556,-4786192.936494674,4202112.868620396,-2.30145,-0.153206,0.128279,89.75,-13.75,-11.625,0.0,0.0,0.0,0.0,0.0,0.0,2,0,41.45099755140725,-92.24449000348255,10002.62236707824,99.82209033749383,-0.0058059605701069,0.0071756154551568,,9026.08902586808,11243.505992254835,150,9,2025-09-12,2025-09-26 20:29:22.735,AH,C,1094765760,HAWK11,1,1,73,2,1,1,225,2,1,0,0,12,1,225,2,1,-145867.60974295562,-4790474.076143111,4199456.061979771,3.03805,2.46952,-0.574859,-80.0,51.5,53.375,-0.40625,-7.54688,7.39062,0.0585938,0.0,0.0390625,4,0,41.416238095130176,-91.74408977680076,11187.247973620322,-42.25650383929802,-0.9746697959537278,30.99921669175502,184.003,9026.08902586808,11243.505992254835,150,False,22.600098606423348,False,148.4345347120944,175.3596283500196,False,36.19062769012215,False,False
9,1970-07-23 10:31:29.635301300,2025-09-12,2025-09-26 20:29:23.530,AH,C,3727969558,JASSM,3,128,76,2,2,1,225,9,2,0,1,26,0,0,0,0,-187494.76013358065,-4786207.506807174,4202100.563932896,-2.30145,-0.153206,0.128279,89.75,-13.75,-11.625,0.0,0.0,0.0,0.0,0.0,0.0,2,0,41.45084980781271,-92.24335619531745,10002.622231816464,99.8228408939432,-0.0049433981881227,0.0071750125977554,,9026.08902586808,11243.505992254835,150,9,2025-09-12,2025-09-26 20:29:23.626,AH,C,1095879226,HAWK11,1,1,73,2,1,1,225,2,1,0,0,12,1,225,2,1,-145941.18982108062,-4790422.881807174,4199507.147917271,3.09155,2.43539,-0.572558,-76.875,55.5,55.625,0.015625,-7.26562,7.07812,0.0234375,0.0253906,0.0488281,4,0,41.4168741500456,-91.7449876418072,11177.736102548164,-41.01262759932203,-2.0542168931301643,32.97013061440428,183.599,9026.08902586808,11243.505992254835,150,False,22.50486521659304,False,145.66548213658558,175.2625708547391,False,39.0469371051007,False,False
9,1970-07-23 10:31:29.646263951,2025-09-12,2025-09-26 20:29:24.626,AH,C,3729281910,JASSM,3,128,76,2,2,1,225,9,2,0,1,26,0,0,0,0,-187395.9808367056,-4786222.770479049,4202087.673307896,-2.30145,-0.153206,0.128279,89.75,-13.75,-11.625,0.0,0.0,0.0,0.0,0.0,0.0,2,0,41.450695020129885,-92.2421683742319,10002.62581980402,99.82362720341536,-0.004039741583706,0.0071743877748964,,9026.08902586808,11243.505992254835,150,9,2025-09-12,2025-09-26 20:29:24.626,AH,C,1097072224,HAWK11,1,1,73,2,1,1,225,2,1,0,0,12,1,225,2,1,-146016.56677420562,-4790364.596650924,4199564.145964146,3.14063,2.37719,-0.592788,-73.0,59.375,58.375,-0.046875,-7.89062,7.70312,0.00195312,0.03125,0.0527344,4,0,41.41759196507682,-91.74590957966016,11163.758450265794,-38.06394098190656,-2.693867952628865,33.825303443715804,183.477,9026.08902586808,11243.505992254835,150,False,22.405729207731483,False,142.54654843210486,175.1520886189514,False,42.2694014200543,False,False
9,1970-07-23 10:31:29.656239953,2025-09-12,2025-09-26 20:29:25.623,AH,C,3730534608,JASSM,3,128,76,2,2,1,225,9,2,0,1,26,0,0,0,0,-187301.69372733065,-4786237.336885299,4202075.368620396,-2.30145,-0.153206,0.128279,89.75,-13.75,-11.625,0.0,0.0,0.0,0.0,0.0,0.0,2,0,41.45054727690037,-92.24103457843032,10002.625815058796,99.82437774717316,-0.00317718447413,0.0071738075089426,,9026.08902586808,11243.505992254835,150,9,2025-09-12,2025-09-26 20:29:25.625,AH,C,1098185690,HAWK11,1,1,73,2,1,1,225,2,1,0,0,12,1,225,2,1,-146083.19372733062,-4790306.790986861,4199620.120573521,-3.13344,2.32475,-0.60899,-69.0,62.875,61.125,-0.234375,-8.07812,7.875,-0.0410156,0.0292969,0.0429688,4,0,41.41830160155259,-91.74672680476752,11148.088749778744,-35.476635542793886,-3.262823206678057,32.513593554520604,183.147,9026.08902586808,11243.505992254835,150,False,22.313866768171387,False,139.50910259689425,175.041380851224,False,45.41299250229623,False,False
9,1970-07-23 10:31:29.667203250,2025-09-12,2025-09-26 20:29:26.720,AH,C,3731787308,JASSM,3,128,76,2,2,1,225,9,2,0,1,26,0,0,0,0,-187207.40466483065,-4786251.903291549,4202063.060026646,-2.30145,-0.153206,0.128279,89.75,-13.75,-11.625,0.0,0.0,0.0,0.0,0.0,0.0,2,0,41.4503994965982,-92.23990076442894,10002.621890154289,99.8251283007795,-0.0023146056827093,0.0071732046711215,,9026.08902586808,11243.505992254835,150,9,2025-09-12,2025-09-26 20:29:26.830,AH,C,1099458222,HAWK11,1,1,73,2,1,1,225,2,1,0,0,12,1,225,2,1,-146154.38318045562,-4790237.112275924,4199687.507292271,3.1088,2.26636,-0.632959,-64.375,65.875,64.875,-0.015625,-8.5,8.39062,-0.0898438,0.0273438,0.0410156,4,0,41.41915807180305,-91.74760289872638,11128.339371183816,-32.432684009877235,-3.4854663443588776,28.041935353278127,182.536,9026.08902586808,11243.505992254835,150,False,22.218705408260938,False,136.15397597689608,174.90791664459175,False,48.90533094663747,False,False
9,1970-07-23 10:31:29.678321537,2025-09-12,2025-09-26 20:29:27.832,AH,C,3733159308,JASSM,3,128,76,2,2,1,225,9,2,0,1,26,0,0,0,0,-187104.1370867056,-4786267.856416549,4202049.579557896,-2.30145,-0.153206,0.128279,89.75,-13.75,-11.625,0.0,0.0,0.0,0.0,0.0,0.0,2,0,41.45023763466242,-92.23865899098205,10002.622614019285,99.82595031803648,-0.0013698899519562,0.0071725476308144,,9026.08902586808,11243.505992254835,150,9,2025-09-12,2025-09-26 20:29:27.738,AH,C,1100651222,HAWK11,1,1,73,2,1,1,225,2,1,0,0,12,1,225,2,1,-146216.84802420562,-4790169.170869674,4199754.224089146,3.03076,2.22168,-0.653955,-60.625,68.0,68.25,-0.265625,-9.45312,9.23438,-0.162109,0.0292969,0.0234375,4,0,41.42000126242206,-91.74837412467237,11110.760622363608,-30.05454130468662,-3.4286640969427884,21.891050867981576,182.292,9026.08902586808,11243.505992254835,150,False,22.12352957194853,False,133.4767060292613,174.7730488821336,False,51.723064708743856,False,False
9,1970-07-23 10:31:29.689301199,2025-09-12,2025-09-26 20:29:28.930,AH,C,3734412008,JASSM,3,128,76,2,2,1,225,9,2,0,1,26,0,0,0,0,-187009.8480242056,-4786282.420869674,4202037.270964146,-2.30145,-0.15311,0.128279,89.75,-13.75,-11.625,0.0,0.0,0.0,0.0,0.0,0.0,2,0,41.450089842566186,-92.23752518867592,10002.623845247324,99.8230645846246,-0.0045642461765008,0.0064693875682562,,9026.08902586808,11243.505992254835,150,9,2025-09-12,2025-09-26 20:29:28.922,AH,C,1102202120,HAWK11,1,1,73,2,1,1,225,2,1,0,0,12,1,225,2,1,-146292.95935233062,-4790079.460908736,4199845.872526646,2.87219,2.18707,-0.687703,-57.125,68.75,72.5,-0.078125,-8.5,8.34375,-0.113281,0.0253906,0.0136719,4,0,41.42113975716148,-91.74931639410308,11094.79894848789,-27.78049190288556,-2.432180146253751,11.456147015991553,181.962,9026.08902586808,11243.505992254835,150,False,22.024309264107387,False,131.02392396693025,174.59410006500428,False,54.36740522640155,False,False
9,1970-07-23 10:31:29.701480590,2025-09-12,2025-09-26 20:29:30.148,AH,C,3735664708,JASSM,3,128,76,2,2,1,225,9,2,0,1,26,0,0,0,0,-186915.56091483065,-4786296.983369674,4202024.960417271,-2.30145,-0.15311,0.128279,89.75,-13.75,-11.625,0.0,0.0,0.0,0.0,0.0,0.0,2,0,41.44994203728981,-92.23639141577328,10002.620974274285,99.82381510425807,-0.0037016875869214,0.0064687361193539,,9026.08902586808,11243.505992254835,150,9,2025-09-12,2025-09-26 20:29:30.327,AH,C,1103832552,HAWK11,1,1,73,2,1,1,225,2,1,0,0,12,1,225,2,1,-146368.20935233062,-4789984.214814986,4199947.403776646,2.76385,2.18861,-0.716081,-54.75,68.5,75.875,-0.0625,-8.15625,7.90625,-0.0722656,0.00390625,0.00390625,4,0,41.42237803854009,-91.75025042629092,11086.622438608369,-27.10477477344216,-0.950454377182052,5.285711882539447,181.681,9026.08902586808,11243.505992254835,150,True,21.92522655163114,False,129.40125743414512,174.3977236689836,False,56.19522809144542,False,False
9,1970-07-23 10:31:29.710282974,2025-09-12,2025-09-26 20:29:31.028,AH,C,3736917406,JASSM,3,128,76,2,2,1,225,9,2,0,1,26,0,0,0,0,-186821.27185233065,-4786311.545869674,4202012.649870396,-2.30145,-0.15311,0.128375,89.75,-13.75,-11.625,0.0,0.0,0.0,0.0,0.0,0.0,2,0,41.4497942212898,-92.2352576246726,10002.62266722506,99.82865619863904,-0.006505486239215,0.0064677544872325,,9026.08902586808,11243.505992254835,150,9,2025-09-12,2025-09-26 20:29:31.127,AH,C,1104786950,HAWK11,1,1,73,2,1,1,225,2,1,0,0,12,1,225,2,1,-146411.73474295562,-4789929.383760299,4200008.069792271,2.72377,2.17202,-0.723847,-54.375,68.25,77.125,-0.015625,-7.96875,7.70312,-0.0410156,0.00976562,0.0175781,4,0,41.42310580754735,-91.75079060177416,11086.74846639624,-26.266936046692177,-0.8718258275344831,2.349655039537962,181.717,9026.08902586808,11243.505992254835,150,True,21.846295966574072,False,129.04329775364567,174.27561917549735,False,56.67777572919297,False,False
9,1970-07-23 10:31:29.720264314,2025-09-12,2025-09-26 20:29:32.026,AH,C,3738170106,JASSM,3,128,76,2,2,1,225,9,2,0,1,26,0,0,0,0,-186726.98278983065,-4786326.108369674,4202000.339323521,-2.30145,-0.15311,0.128375,89.75,-13.75,-11.625,0.0,0.0,0.0,0.0,0.0,0.0,2,0,41.44964639411205,-92.23412383871964,10002.62911161693,99.82940672254172,-0.0056429103976662,0.0064671679682406,,9026.08902586808,11243.505992254835,150,9,2025-09-12,2025-09-26 20:29:32.125,AH,C,1106019716,HAWK11,1,1,73,2,1,1,225,2,1,0,0,12,1,225,2,1,-146466.90857108062,-4789858.561494674,4200087.567839146,2.69348,2.17471,-0.738037,-53.875,68.125,78.0,0.140625,-7.35938,7.07812,-0.0195312,-0.00195312,0.00585938,4,0,41.424053699625496,-91.75147583980534,11089.311769690104,-26.009308357772586,-0.091349635442413,0.7143771747359488,181.51,9026.08902586808,11243.505992254835,150,True,21.76002256499952,False,128.6825674605797,174.11932317934162,False,57.19607927429256,False,False
9,1970-07-23 10:31:29.731332626,2025-09-12,2025-09-26 20:29:33.133,AH,C,3739482458,JASSM,3,128,76,2,2,1,225,9,2,0,1,26,0,0,0,0,-186628.20544608065,-4786341.360322799,4201987.438932896,-2.30145,-0.15311,0.128375,89.75,-13.75,-11.625,0.0,0.0,0.0,0.0,0.0,0.0,2,0,41.44949151450689,-92.23293609035524,10002.623414758114,99.830192965182,-0.0047392754682801,0.0064665496408339,,9026.08902586808,11243.505992254835,150,9,2025-09-12,2025-09-26 20:29:33.422,AH,C,1107332014,HAWK11,1,1,73,2,1,1,225,2,1,0,0,12,1,225,2,1,-146524.84607108062,-4789783.329072799,4200172.659636021,2.95253,2.16905,-0.745035,-52.375,68.875,78.25,0.1875,-7.07812,6.96875,0.302734,0.015625,0.0351562,4,0,41.4250650762824,-91.75219573824336,11093.388783601167,-25.617935608778613,0.1635262005255015,15.338293488551,181.522,9026.08902586808,11243.505992254835,150,False,21.669652481866464,False,127.88217187494698,173.95134073099695,False,58.16370618049973,False,False
9,1970-07-23 10:31:29.742339432,2025-09-12,2025-09-26 20:29:34.233,AH,C,3740794808,JASSM,3,128,76,2,2,1,225,9,2,0,1,26,0,0,0,0,-186529.4261492056,-4786356.612275924,4201974.538542271,-2.30145,-0.15311,0.128375,89.75,-13.75,-11.625,0.0,0.0,0.0,0.0,0.0,0.0,2,0,41.44933662308781,-92.23174832429568,10002.62274541888,99.83097921711916,-0.0038356233507198,0.0064659347005691,,9026.08902586808,11243.505992254835,150,9,2025-09-12,2025-09-26 20:29:34.327,AH,C,1108644312,HAWK11,1,1,73,2,1,1,225,2,1,0,0,12,1,225,2,1,-146579.40466483062,-4789706.432588424,4200258.751432896,-3.07084,2.11431,-0.769195,-48.0,70.375,79.5,-0.125,-7.32812,7.17188,0.078125,0.0292969,0.0546875,4,0,41.42609371472148,-91.7528758857878,11095.298997019512,-22.966933310391948,0.4508419140374889,28.084272512295357,181.644,9026.08902586808,11243.505992254835,150,False,21.581187275137726,False,125.53988875213925,173.7789470664421,False,60.67750743414562,False,False
9,1970-07-23 10:31:29.753298145,2025-09-12,2025-09-26 20:29:35.329,AH,C,3742047508,JASSM,3,128,76,2,2,1,225,9,2,0,1,26,0,0,0,0,-186435.13903983065,-4786371.170869674,4201962.224089146,-2.30145,-0.15311,0.128375,89.75,-13.75,-11.625,0.0,0.0,0.0,0.0,0.0,0.0,2,0,41.44918875776369,-92.23061457944291,10002.62600134165,99.83172970700092,-0.0029730654202725,0.0064653413310942,,9026.08902586808,11243.505992254835,150,9,2025-09-12,2025-09-26 20:29:35.264,AH,C,1109240812,HAWK11,1,1,73,2,1,1,225,2,1,0,0,12,1,225,2,1,-146603.29724295562,-4789670.047822799,4200299.261198521,-3.01312,2.06714,-0.777537,-45.625,71.375,80.125,-0.078125,-7.875,7.48438,0.0429688,0.0292969,0.0605469,4,0,41.42657925536983,-91.75317473747468,11095.57067321589,-21.000827536534185,0.1324176632679791,29.513081407887,181.766,9026.08902586808,11243.505992254835,150,False,21.514514003627728,False,124.25370711583955,173.6891663578944,False,62.05254112046233,False,False
9,1970-07-23 10:31:29.764257712,2025-09-12,2025-09-26 20:29:36.425,AH,C,3743419510,JASSM,3,128,76,2,2,1,225,9,2,0,1,26,0,0,0,0,-186331.86950858065,-4786387.114229049,4201948.735807896,-2.30145,-0.15311,0.128375,89.75,-13.75,-11.625,0.0,0.0,0.0,0.0,0.0,0.0,2,0,41.44902680144675,-92.22937283338264,10002.628196733023,99.83255168646724,-0.0020283366136162,0.0064646996031478,,9026.08902586808,11243.505992254835,150,9,2025-09-12,2025-09-26 20:29:36.421,AH,C,1110871244,HAWK11,1,1,73,2,1,1,225,2,1,0,0,12,1,225,2,1,-146660.46130545562,-4789570.416963424,4200410.069792271,-2.92894,1.96848,-0.800546,-38.125,73.375,82.625,0.0,-8.15625,7.9375,-0.0390625,0.0234375,0.0351562,4,0,41.42790949851701,-91.75389437485263,11095.4467563037,-16.80972442632342,-0.0012248950778941,30.32765037378244,181.803,9026.08902586808,11243.505992254835,150,False,21.42105289449537,False,120.25371693990843,173.4659477658836,False,66.27563236148346,False,False
9,1970-07-23 10:31:29.777037846,2025-09-12,2025-09-26 20:29:37.703,AH,C,3744731862,JASSM,3,128,76,2,2,1,225,9,2,0,1,26,0,0,0,0,-186233.09216483065,-4786402.362275924,4201935.831511021,-2.30145,-0.153015,0.128375,89.75,-13.75,-11.625,0.0,0.0,0.0,0.0,0.0,0.0,2,0,41.448871869677056,-92.2281851094384,10002.62527608945,99.82970172373386,-0.0051816295559949,0.0057610261834688,,9026.08902586808,11243.505992254835,150,9,2025-09-12,2025-09-26 20:29:37.666,AH,C,1112064242,HAWK11,1,1,73,2,1,1,225,2,1,0,0,12,1,225,2,1,-146696.03943045562,-4789494.912080611,4200493.009245396,-2.92741,1.91115,-0.780604,-33.375,75.625,83.25,-0.140625,-6.54688,6.23438,-0.0488281,0.0,0.0488281,4,0,41.42891203366788,-91.75434722243784,11092.52842745532,-14.932991886166722,-1.7669076653468627,28.051411766751603,181.974,9026.08902586808,11243.505992254835,150,False,21.343443026532096,False,117.76651157770829,173.2921979977006,False,68.93280610928234,False,False
9,1970-07-23 10:31:29.786338147,2025-09-12,2025-09-26 20:29:38.633,AH,C,3746044212,JASSM,3,128,76,2,2,1,225,9,2,0,1,26,0,0,0,0,-186134.3128679556,-4786417.610322799,4201922.927214146,-2.30145,-0.153015,0.128375,89.75,-13.75,-11.625,0.0,0.0,0.0,0.0,0.0,0.0,2,0,41.44871692609302,-92.22699736780112,10002.627383347395,99.83048794988576,-0.0042779781960359,0.0057603504227043,,9026.08902586808,11243.505992254835,150,9,2025-09-12,2025-09-26 20:29:38.532,AH,C,1113654908,HAWK11,1,1,73,2,1,1,225,2,1,0,0,12,1,225,2,1,-146737.34216483062,-4789389.917939986,4200604.741667271,-2.93518,1.8473,-0.775523,-27.75,78.875,84.25,-0.125,-7.51562,7.1875,-0.0449219,0.0,0.0214844,4,0,41.43028331749075,-91.75487930163916,11080.051319302387,-12.480919252222346,-2.697524603538587,24.94266844723524,182.096,9026.08902586808,11243.505992254835,150,False,21.26131048335012,False,114.7822842988034,173.05864348733323,False,72.14409053694054,False,False
9,1970-07-23 10:31:29.797298377,2025-09-12,2025-09-26 20:29:39.729,AH,C,3747296912,JASSM,3,128,76,2,2,1,225,9,2,0,1,26,0,0,0,0,-186040.0238054556,-4786432.163057174,4201910.608854771,-2.30145,-0.153015,0.128375,89.75,-13.75,-11.625,0.0,0.0,0.0,0.0,0.0,0.0,2,0,41.44856902291435,-92.22586362390749,10002.627481331823,99.83123842994873,-0.0034154065176307,0.0057597136218837,,9026.08902586808,11243.505992254835,150,9,2025-09-12,2025-09-26 20:29:39.663,AH,C,1114450240,HAWK11,1,1,73,2,1,1,225,2,1,0,0,12,1,225,2,1,-146754.97302420562,-4789336.742158736,4200660.952604771,-2.94869,1.81412,-0.779742,-25.125,79.625,85.125,-0.078125,-7.40625,7.0625,-0.0664062,0.0136719,0.0371094,4,0,41.43097587557226,-91.75510949741265,11072.669743425158,-11.104915402490104,-2.751992579501926,22.769193225815137,182.585,9026.08902586808,11243.505992254835,150,False,21.197530628340083,False,113.42623607066956,172.9315731780347,False,73.62730581760462,False,False
9,1970-07-23 10:31:29.808280443,2025-09-12,2025-09-26 20:29:40.828,AH,C,3748609262,JASSM,3,128,76,2,2,1,225,9,2,0,1,26,0,0,0,0,-185941.24450858065,-4786447.407197799,4201897.702604771,-2.30145,-0.153015,0.128471,89.75,-13.75,-11.625,0.0,0.0,0.0,0.0,0.0,0.0,2,0,41.44841406543238,-92.22467589513248,10002.625940484852,99.83611525313152,-0.0061780819786211,0.0057587372631522,,9026.08902586808,11243.505992254835,150,9,2025-09-12,2025-09-26 20:29:40.922,AH,C,1116478338,HAWK11,1,1,73,2,1,1,225,2,1,0,0,12,1,225,2,1,-146791.38708670562,-4789199.583955611,4200806.720182896,-2.9696,1.7195,-0.795561,-18.5,80.875,87.5,-0.125,-8.0,7.65625,-0.0703125,0.0136719,0.0195312,4,0,41.43276913586413,-91.75559496297468,11054.657172127345,-7.178761721720145,-2.5022045512169493,17.547779078555806,184.174,9026.08902586808,11243.505992254835,150,False,21.11690707260874,False,110.08020856739306,172.62649267859356,False,77.28093793009751,False,False
9,1970-07-23 10:31:29.819864929,2025-09-12,2025-09-26 20:29:41.986,AH,C,3749921618,JASSM,3,128,76,2,2,1,225,9,2,0,1,26,0,0,0,0,-185842.4652117056,-4786462.651338424,4201884.794401646,-2.30145,-0.153015,0.128471,89.75,-13.75,-11.625,0.0,0.0,0.0,0.0,0.0,0.0,2,0,41.44825908250868,-92.22348817201,10002.62537268056,99.83690145991956,-0.0052744313118191,0.0057581225955131,,9026.08902586808,11243.505992254835,150,9,2025-09-12,2025-09-26 20:29:41.923,AH,C,1117671336,HAWK11,1,1,73,2,1,1,225,2,1,0,0,12,1,225,2,1,-146808.14489920562,-4789117.464814986,4200895.364714146,-3.0508,1.68891,-0.8086,-15.5,80.875,89.125,-0.109375,-8.25,7.89062,-0.101562,0.0234375,0.0234375,4,0,41.43385296303981,-91.75582534537004,11046.478921811204,-5.877387965922921,-1.908985450585147,11.585375658323448,184.577,9026.08902586808,11243.505992254835,150,False,21.05006076539405,False,108.58020989064089,172.43279979637165,False,78.9782959280505,False,False
9,1970-07-23 10:31:29.830340030,2025-09-12,2025-09-26 20:29:43.034,AH,C,3751233954,JASSM,3,128,76,2,2,1,225,9,2,0,1,26,0,0,0,0,-185743.6878679556,-4786477.893525924,4201871.886198521,-2.30145,-0.153015,0.128471,89.75,-13.75,-11.625,0.0,0.0,0.0,0.0,0.0,0.0,2,0,41.44810409849384,-92.22230047879133,10002.62540640128,99.83768764449448,-0.0043708004398449,0.0057575157862103,,9026.08902586808,11243.505992254835,150,9,2025-09-12,2025-09-26 20:29:43.032,AH,C,1118943868,HAWK11,1,1,73,2,1,1,225,2,1,0,0,12,1,225,2,1,-146823.26013358062,-4789031.581025924,4200990.464323521,-3.09902,1.65248,-0.820871,-13.375,80.375,90.875,0.0,-8.20312,7.875,-0.046875,0.00976562,0.00585938,4,0,41.435003050468886,-91.75603748189316,11042.944093435506,-4.383085310976596,-1.3479395556288194,7.261117030699275,185.701,9026.08902586808,11243.505992254835,150,True,20.984130066744495,False,107.51236604933833,172.22689615719895,False,80.25614219961115,False,False
9,1970-07-23 10:31:29.840323074,2025-09-12,2025-09-26 20:29:44.032,AH,C,3752486664,JASSM,3,128,76,2,2,1,225,9,2,0,1,26,0,0,0,0,-185649.3988054556,-4786492.442354049,4201859.561979771,-2.30145,-0.153015,0.128471,89.75,-13.75,-11.625,0.0,0.0,0.0,0.0,0.0,0.0,2,0,41.44795613273947,-92.22116675804884,10002.622864834728,99.83843810014083,-0.0035082271848694,0.0057569241256468,,9026.08902586808,11243.505992254835,150,9,2025-09-12,2025-09-26 20:29:44.032,AH,C,1120136868,HAWK11,1,1,73,2,1,1,225,2,1,0,0,12,1,225,2,1,-146835.41833670562,-4788951.348604049,4201081.479948521,-3.13862,1.64404,-0.838129,-11.75,79.5,92.25,-0.109375,-8.25,7.96875,-0.0429688,0.00195312,0.0117188,4,0,41.43609248314935,-91.7562122095865,11044.221474360247,-3.977813324167816,-0.3877263892434789,4.629786369459343,186.654,9026.08902586808,11243.505992254835,150,True,20.922716414488516,False,106.70994212810724,172.03029878973513,False,81.25800544631383,False,False
9,1970-07-23 10:31:29.851297860,2025-09-12,2025-09-26 20:29:45.129,AH,C,3753799016,JASSM,3,128,76,2,2,1,225,9,2,0,1,26,0,0,0,0,-185550.61950858065,-4786507.682588424,4201846.651823521,-2.30145,-0.153015,0.128471,89.75,-13.75,-11.625,0.0,0.0,0.0,0.0,0.0,0.0,2,0,41.44780112365238,-92.21997905344152,10002.623863464334,99.8392242875282,-0.0026045795057968,0.0057563190167824,,9026.08902586808,11243.505992254835,150,9,2025-09-12,2025-09-26 20:29:45.031,AH,C,1121329866,HAWK11,1,1,73,2,1,1,225,2,1,0,0,12,1,225,2,1,-146846.16443045562,-4788871.463838424,4201174.030729771,3.11858,1.62966,-0.845799,-10.75,79.0,93.5,-0.03125,-7.92188,7.65625,-0.0332031,0.00585938,0.0136719,4,0,41.43719046041579,-91.75636993656109,11049.587968476111,-3.3987801971169582,0.0119438733276877,2.524636909965442,187.534,9026.08902586808,11243.505992254835,150,True,20.859862857444735,False,106.19954794559385,171.83003309869386,False,81.9699384426771,False,False
9,1970-07-23 10:31:29.862259001,2025-09-12,2025-09-26 20:29:46.225,AH,C,3755051714,JASSM,3,128,76,2,2,1,225,9,2,0,1,26,0,0,0,0,-185456.33044608065,-4786522.229463424,4201834.327604771,-2.30145,-0.152919,0.128471,89.75,-13.75,-11.625,0.0,0.0,0.0,0.0,0.0,0.0,2,0,41.447653146639645,-92.21884534415312,10002.626251478769,99.83633864672564,-0.0057989307571727,0.0050522038409187,,9026.08902586808,11243.505992254835,150,9,2025-09-12,2025-09-26 20:29:46.327,AH,C,1122920532,HAWK11,1,1,73,2,1,1,225,2,1,0,0,12,1,225,2,1,-146859.20739920562,-4788766.934541549,4201297.935026646,3.09164,1.62487,-0.874465,-9.75,78.0,94.125,-0.171875,-7.85938,7.57812,-0.00976562,0.0117188,0.0,4,0,41.438646249186974,-91.75656415818008,11062.627937825668,-3.112931471846943,1.6406703106735503,0.7770515582127274,188.524,9026.08902586808,11243.505992254835,150,True,20.7974935729236,False,105.72192765557004,171.5707051453196,False,82.70736188637993,False,False
9,1970-07-23 10:31:29.874239663,2025-09-12,2025-09-26 20:29:47.423,AH,C,3756364066,JASSM,3,128,76,2,2,1,225,9,2,0,1,26,0,0,0,0,-185357.5511492056,-4786537.467744674,4201821.413542271,-2.30145,-0.152919,0.128471,89.75,-13.75,-11.625,0.0,0.0,0.0,0.0,0.0,0.0,2,0,41.447498098854,-92.21765765150244,10002.62415974592,99.83712482152134,-0.0048952812234877,0.0050515266697,,9026.08902586808,11243.505992254835,150,9,2025-09-12,2025-09-26 20:29:47.733,AH,C,1124550962,HAWK11,1,1,73,2,1,1,225,2,1,0,0,12,1,225,2,1,-146872.11364920562,-4788660.319307174,4201426.188932896,3.08522,1.62497,-0.870534,-9.25,77.75,94.375,-0.15625,-6.5,6.1875,-0.0078125,-0.00195312,0.0136719,4,0,41.44014382174569,-91.75675751871417,11079.987981005384,-3.130889515894888,1.4176336618231946,0.4128071330275515,189.233,9026.08902586808,11243.505992254835,150,True,20.733105813476307,False,105.48199781151447,171.3018072371247,False,83.21618190727858,False,False
9,1970-07-23 10:31:29.884317582,2025-09-12,2025-09-26 20:29:48.431,AH,C,3757736068,JASSM,3,128,76,2,2,1,225,9,2,0,1,26,0,0,0,0,-185254.28357108065,-4786553.397432174,4201807.913542271,-2.30145,-0.152919,0.128471,89.75,-13.75,-11.625,0.0,0.0,0.0,0.0,0.0,0.0,2,0,41.44733600452353,-92.21641599960492,10002.626968352732,99.83794671121856,-0.0039505744249211,0.0050508299998643,,9026.08902586808,11243.505992254835,150,9,2025-09-12,2025-09-26 20:29:48.327,AH,C,1125306528,HAWK11,1,1,73,2,1,1,225,2,1,0,0,12,1,225,2,1,-146877.87536795562,-4788610.731416549,4201485.378386021,3.08647,1.61231,-0.874177,-9.125,78.0,94.125,0.234375,-7.39062,7.14062,-0.0175781,0.0078125,0.0214844,4,0,41.44083727954536,-91.75684457344246,11087.044086218451,-2.653057232313201,1.5992867227794147,-0.058484494166965,189.624,9026.08902586808,11243.505992254835,150,True,20.67238212993741,False,105.43091373127068,171.16318213061297,False,83.40589833535384,False,False
9,1970-07-23 10:31:29.896276420,2025-09-12,2025-09-26 20:29:49.627,AH,C,3759108070,JASSM,3,128,76,2,2,1,225,9,2,0,1,26,0,0,0,0,-185151.01403983065,-4786569.325166549,4201794.411589146,-2.30145,-0.152919,0.128471,89.75,-13.75,-11.625,0.0,0.0,0.0,0.0,0.0,0.0,2,0,41.44717389568815,-92.2151743314478,10002.626249535457,99.83876860903376,-0.0030058508385159,0.0050501350698307,,9026.08902586808,11243.505992254835,150,9,2025-09-12,2025-09-26 20:29:49.625,AH,C,1126897194,HAWK11,1,1,73,2,1,1,225,2,1,0,0,12,1,225,2,1,-146889.97497733062,-4788506.094697799,4201610.784636021,3.08694,1.61308,-0.8783,-8.75,78.0,94.0,0.0625,-6.70312,6.5,-0.00195312,0.00195312,0.0,4,0,41.44230400564157,-91.75702757835016,11103.044415442468,-2.6684259373711274,1.8381431445224123,0.0023494392528256,190.015,9026.08902586808,11243.505992254835,150,True,20.606754530369283,False,105.26074713973392,170.89541156598025,False,83.84382656520454,False,False
9,1970-07-23 10:31:29.906256088,2025-09-12,2025-09-26 20:29:50.625,AH,C,3760360770,JASSM,3,128,76,2,2,1,225,9,2,0,1,26,0,0,0,0,-185056.72497733065,-4786583.866182174,4201782.083464146,-2.30145,-0.152919,0.128567,89.75,-13.75,-11.625,0.0,0.0,0.0,0.0,0.0,0.0,2,0,41.447025879839245,-92.2140406467082,10002.625892528458,99.84360968271164,-0.005809556747795,0.0050492238972537,,9026.08902586808,11243.505992254835,150,9,2025-09-12,2025-09-26 20:29:50.733,AH,C,1128209492,HAWK11,1,1,73,2,1,1,225,2,1,0,0,12,1,225,2,1,-146899.73278983062,-4788420.352510299,4201713.165495396,3.08426,1.6078,-0.880984,-8.625,78.125,93.5,-0.140625,-6.85938,6.5,0.0078125,-0.00976562,0.00585938,4,0,41.443503341134935,-91.75717566743342,11115.32782442822,-2.46799447974184,1.9827939028413395,-0.3774973817885965,191.103,9026.08902586808,11243.505992254835,150,True,20.548170234944276,False,105.21939278732182,170.67273311347446,False,84.10775000828897,False,False
9,1970-07-23 10:31:29.917219526,2025-09-12,2025-09-26 20:29:51.721,AH,C,3761613470,JASSM,3,128,76,2,2,1,225,9,2,0,1,26,0,0,0,0,-184962.43591483065,-4786598.407197799,4201769.753386021,-2.30145,-0.152919,0.128567,89.75,-13.75,-11.625,0.0,0.0,0.0,0.0,0.0,0.0,2,0,41.4468778396393,-92.21290696712204,10002.626045313644,99.84436009513682,-0.0049469871890987,0.0050486451819144,,9026.08902586808,11243.505992254835,150,9,2025-09-12,2025-09-26 20:29:51.827,AH,C,1129482024,HAWK11,1,1,73,2,1,1,225,2,1,0,0,12,1,225,2,1,-146908.91052420562,-4788337.250947799,4201811.520964146,3.09874,1.60042,-0.879642,-8.5,78.5,93.125,-0.203125,-6.5625,6.23438,0.0117188,-0.0117188,-0.00195312,4,0,41.44465990511459,-91.7573158587828,11125.326310418424,-2.2025362396099317,1.8942182102875265,0.1349281590532952,191.457,9026.08902586808,11243.505992254835,150,True,20.490270969951183,False,105.17102736074166,170.4559507398563,False,84.37260175259118,False,False
9,1970-07-23 10:31:29.927338992,2025-09-12,2025-09-26 20:29:52.733,AH,C,3762866170,JASSM,3,128,76,2,2,1,225,9,2,0,1,26,0,0,0,0,-184868.1448992056,-4786612.946260299,4201757.423307896,-2.30145,-0.152919,0.128567,89.75,-13.75,-11.625,0.0,0.0,0.0,0.0,0.0,0.0,2,0,41.44672980033916,-92.21177327024776,10002.625964513463,99.84511051679996,-0.0040844030985125,0.0050480811975852,,9026.08902586808,11243.505992254835,150,9,2025-09-12,2025-09-26 20:29:52.827,AH,C,1130515956,HAWK11,1,1,73,2,1,1,225,2,1,0,0,12,1,225,2,1,-146916.42419608062,-4788268.686494674,4201891.960417271,3.11504,1.58748,-0.882902,-8.375,78.75,92.5,-0.1875,-6.82812,6.42188,0.0195312,0.00195312,-0.00195312,4,0,41.44560936594983,-91.75743082949388,11132.034825105207,-1.7234030461421614,2.0627472211762186,0.5131934586684619,192.3,9026.08902586808,11243.505992254835,150,True,20.433838228301017,False,105.13212703189578,170.2726668822892,False,84.59423439435403,False,False
9,1970-07-23 10:31:29.938317440,2025-09-12,2025-09-26 20:29:53.831,AH,C,3764178520,JASSM,3,128,76,2,2,1,225,9,2,0,1,26,0,0,0,0,-184769.3675554556,-4786628.176729049,4201744.503386021,-2.30145,-0.152919,0.128567,89.75,-13.75,-11.625,0.0,0.0,0.0,0.0,0.0,0.0,2,0,41.44657468604847,-92.21058563823031,10002.623186208248,99.84589663708928,-0.003180774396279,0.0050474712423504,,9026.08902586808,11243.505992254835,150,9,2025-09-12,2025-09-26 20:29:53.827,AH,C,1131868022,HAWK11,1,1,73,2,1,1,225,2,1,0,0,12,1,225,2,1,-146925.57458670562,-4788179.614229049,4201995.692839146,3.11494,1.58134,-0.881751,-8.0,79.125,92.25,-0.140625,-6.75,6.46875,-0.0117188,-0.00585938,0.0078125,4,0,41.44683775164048,-91.75757289304292,11139.04745995267,-1.5023004817071368,1.990679022830785,0.2441120723928864,192.459,9026.08902586808,11243.505992254835,150,True,20.37398035397774,False,104.96141103684039,170.04030639870922,False,84.99673996298066,False,False
9,1970-07-23 10:31:29.949277104,2025-09-12,2025-09-26 20:29:54.927,AH,C,3765490870,JASSM,3,128,76,2,2,1,225,9,2,0,1,26,0,0,0,0,-184670.58825858065,-4786643.407197799,4201731.583464146,-2.30145,-0.152919,0.128567,89.75,-13.75,-11.625,0.0,0.0,0.0,0.0,0.0,0.0,2,0,41.446419559941866,-92.20939798852616,10002.625437210094,99.84668276666588,-0.0022771285059814,0.0050468646745051,,9026.08902586808,11243.505992254835,150,9,2025-09-12,2025-09-26 20:29:54.923,AH,C,1133220088,HAWK11,1,1,73,2,1,1,225,2,1,0,0,12,1,225,2,1,-146934.63708670562,-4788089.071260299,4202100.565886021,3.1042,1.57262,-0.876766,-7.875,79.375,92.125,0.03125,-6.71875,6.34375,0.0,-0.00195312,0.00585938,4,0,41.44808260273938,-91.75771445067733,11144.925248225882,-1.1914665844268422,1.6975810752942049,-0.7460798418315873,193.046,9026.08902586808,11243.505992254835,150,True,20.3144875742622,False,104.90479648130218,169.8038184225394,False,85.28945189565724,False,False
9,1970-07-23 10:31:29.960237211,2025-09-12,2025-09-26 20:29:56.023,AH,C,3766743570,JASSM,3,128,76,2,2,1,225,9,2,0,1,26,0,0,0,0,-184576.2972429556,-4786657.944307174,4201719.249479771,-2.30145,-0.152823,0.128567,89.75,-13.75,-11.625,0.0,0.0,0.0,0.0,0.0,0.0,2,0,41.44627147132606,-92.20826430850808,10002.626780655171,99.84379718129829,-0.0054714591655826,0.0043422080695773,,9026.08902586808,11243.505992254835,150,9,2025-09-12,2025-09-26 20:29:56.126,AH,C,1134611918,HAWK11,1,1,73,2,1,1,225,2,1,0,0,12,1,225,2,1,-146943.79138358062,-4787996.274385299,4202207.388151646,3.11034,1.56533,-0.868904,-7.75,79.875,92.125,-0.125,-7.01562,6.71875,-0.0078125,0.00195312,-0.00585938,4,0,41.449354004107136,-91.75785793807772,11149.513132884727,-0.9329849511012068,1.2427196221478107,-0.7076565630562206,193.583,9026.08902586808,11243.505992254835,150,True,20.257693096191957,False,104.84204865339592,169.56274348143558,False,85.5926398742728,False,False
9,1970-07-23 10:31:29.971354454,2025-09-12,2025-09-26 20:29:57.135,AH,C,3768055920,JASSM,3,128,76,2,2,1,225,9,2,0,1,26,0,0,0,0,-184477.51794608065,-4786673.170869674,4201706.327604771,-2.30145,-0.152823,0.128567,89.75,-13.75,-11.625,0.0,0.0,0.0,0.0,0.0,0.0,2,0,41.44611633132395,-92.2070766716634,10002.625383267938,99.84458329768007,-0.0045678163205648,0.0043415537622436,,9026.08902586808,11243.505992254835,150,9,2025-09-12,2025-09-26 20:29:57.031,AH,C,1135566318,HAWK11,1,1,73,2,1,1,225,2,1,0,0,12,1,225,2,1,-146949.88903983062,-4787932.311494674,4202280.770964146,3.10506,1.55891,-0.869767,-7.625,80.0,92.0,-0.25,-6.98438,6.65625,-0.015625,-0.00390625,0.00585938,4,0,41.450228722647445,-91.7579543070927,11152.128008891968,-0.6946944578434225,1.2891073234168564,-1.2856074620637676,193.926,9026.08902586808,11243.505992254835,150,True,20.200656412509677,False,104.78651514919471,169.38631646309145,False,85.8242774968231,False,False
9,1970-07-23 10:31:29.982317719,2025-09-12,2025-09-26 20:29:58.231,AH,C,3769368270,JASSM,3,128,76,2,2,1,225,9,2,0,1,26,0,0,0,0,-184378.7386492056,-4786688.397432174,4201693.403776646,-2.30145,-0.152823,0.128567,89.75,-13.75,-11.625,0.0,0.0,0.0,0.0,0.0,0.0,2,0,41.44596116588165,-92.20588904047702,10002.624959048657,99.84536940789656,-0.0036641711983151,0.0043408864263561,,9026.08902586808,11243.505992254835,150,9,2025-09-12,2025-09-26 20:29:58.327,AH,C,1137236516,HAWK11,1,1,73,2,1,1,225,2,1,0,0,12,1,225,2,1,-146960.90075858062,-4787819.911104049,4202409.274870396,3.06892,1.54913,-0.860947,-8.0,80.625,91.75,-0.15625,-6.59375,6.3125,-0.0195312,-0.00585938,0.0,4,0,41.45176275405535,-91.75812720456015,11155.78022553201,-0.3367556756609367,0.7815139462948639,-3.776526749581272,194.317,9026.08902586808,11243.505992254835,150,True,20.14101646306943,False,104.96419650752613,169.09669846602344,False,85.93486347787491,False,False
9,1970-07-23 10:31:29.993278220,2025-09-12,2025-09-26 20:29:59.327,AH,C,3770680622,JASSM,3,128,76,2,2,1,225,9,2,0,1,26,0,0,0,0,-184279.95935233065,-4786703.622041549,4201680.479948521,-2.30145,-0.152823,0.128567,89.75,-13.75,-11.625,0.0,0.0,0.0,0.0,0.0,0.0,2,0,41.445805999801024,-92.20470141584865,10002.62494981182,99.8461555113502,-0.002760528703638,0.0043402303831455,,9026.08902586808,11243.505992254835,150,9,2025-09-12,2025-09-26 20:29:59.531,AH,C,1138668114,HAWK11,1,1,73,2,1,1,225,2,1,0,0,12,1,225,2,1,-146971.00622733062,-4787722.366182174,4202519.591276646,3.03028,1.55747,-0.858454,-8.625,81.0,91.75,-0.203125,-6.85938,6.42188,-0.03125,-0.00585938,0.0,4,0,41.4530858191395,-91.75828382274662,11156.389036755952,-0.6501922057472919,0.6431100041732691,-5.631975353323265,194.659,9026.08902586808,11243.505992254835,150,True,20.08234974683868,False,105.25167154486624,168.84139921105037,False,85.90209227581632,False,False
9,1970-07-23 10:31:30.005058064,2025-09-12,2025-09-26 20:30:00.505,AH,C,3771933322,JASSM,3,128,76,2,2,1,225,9,2,0,1,26,0,0,0,0,-184185.67028983065,-4786718.153291549,4201668.142057896,-2.30145,-0.152823,0.128567,89.75,-13.75,-11.625,0.0,0.0,0.0,0.0,0.0,0.0,2,0,41.44565787296794,-92.2035677832328,10002.623280663547,99.84690587456323,-0.0018979632525039,0.0043396013484413,,9026.08902586808,11243.505992254835,150,9,2025-09-12,2025-09-26 20:30:00.531,AH,C,1139622514,HAWK11,1,1,73,2,1,1,225,2,1,0,0,12,1,225,2,1,-146978.40857108062,-4787657.957979049,4202591.933073521,3.01494,1.55948,-0.857495,-9.375,81.5,91.375,0.015625,-6.78125,6.46875,-0.00585938,0.00390625,0.0,4,0,41.45395592785686,-91.75839596537516,11155.767727054326,-0.7264580514950163,0.5900930933653946,-6.424362054637752,194.769,9026.08902586808,11243.505992254835,150,True,20.027805726575053,False,105.6073769692736,168.66355949369455,False,85.72252364387809,False,False
9,1970-07-23 10:31:30.015196141,2025-09-12,2025-09-26 20:30:01.519,AH,C,3773186020,JASSM,3,128,76,2,2,1,225,9,2,0,1,26,0,0,0,0,-184091.38025076807,-4786732.684541549,4201655.804167271,-2.30145,-0.152823,0.128663,89.75,-13.75,-11.625,0.0,0.0,0.0,0.0,0.0,0.0,2,0,41.445509735183926,-92.20243414410184,10002.626270539104,99.8517469410129,-0.0047016116215515,0.0043387691875245,,9026.08902586808,11243.505992254835,150,9,2025-09-12,2025-09-26 20:30:01.421,AH,C,1140696212,HAWK11,1,1,73,2,1,1,225,2,1,0,0,12,1,225,2,1,-146987.32849295562,-4787584.489229049,4202674.142057896,3.00794,1.56658,-0.853181,-10.125,80.875,92.25,-0.078125,-6.73438,6.5,0.0,-0.00585938,-0.00976562,4,0,41.45494626393002,-91.75852958153855,11154.428849468031,-0.9974060358028854,0.3485086221852408,-6.520677388525544,194.805,9026.08902586808,11243.505992254835,150,True,19.972693811437633,False,105.93230602731934,168.464084298645,False,85.60011868755707,False,False
9,1970-07-23 10:31:30.025339092,2025-09-12,2025-09-26 20:30:02.533,AH,C,3774498370,JASSM,3,128,76,2,2,1,225,9,2,0,1,26,0,0,0,0,-183992.60095389312,-4786747.905244674,4201642.876432896,-2.30145,-0.152823,0.128663,89.75,-13.75,-11.625,0.0,0.0,0.0,0.0,0.0,0.0,2,0,41.44535453032632,-92.20124653773348,10002.623348881096,99.85253302537312,-0.0037979698075139,0.0043381742403613,,9026.08902586808,11243.505992254835,150,9,2025-09-12,2025-09-26 20:30:02.733,AH,C,1142445944,HAWK11,1,1,73,2,1,1,225,2,1,0,0,12,1,225,2,1,-147003.26989920562,-4787463.836885299,4202807.702604771,2.97055,1.58968,-0.856441,-11.625,82.375,91.0,-0.203125,-7.0,6.625,-0.0292969,0.0078125,-0.0078125,4,0,41.45656263606336,-91.75876447678898,11149.20216014216,-1.8608290806836287,0.5615738067422389,-7.670929378407395,195.001,9026.08902586808,11243.505992254835,150,True,19.912096414867193,False,106.65044061331155,168.15412931979267,False,85.18622499839692,False,False
9,1970-07-23 10:31:30.035318587,2025-09-12,2025-09-26 20:30:03.531,AH,C,3775751070,JASSM,3,128,76,2,2,1,225,9,2,0,1,26,0,0,0,0,-183898.31091483065,-4786762.434541549,4201630.536589146,-2.30145,-0.152823,0.128663,89.75,-13.75,-11.625,0.0,0.0,0.0,0.0,0.0,0.0,2,0,41.44520636811143,-92.2001129100604,10002.62702667345,99.8532833786263,-0.0029353960619931,0.0043376067343956,,9026.08902586808,11243.505992254835,150,9,2025-09-12,2025-09-26 20:30:03.421,AH,C,1143320810,HAWK11,1,1,73,2,1,1,225,2,1,0,0,12,1,225,2,1,-147012.32068045562,-4787403.344697799,4202874.491667271,2.95128,1.58863,-0.860084,-12.625,82.25,91.125,-0.03125,-6.92188,6.57812,-0.00195312,-0.0136719,0.00585938,4,0,41.45737167249468,-91.75889490401522,11146.28771793706,-1.81376192310798,0.7695334056992813,-8.820162706607636,195.453,9026.08902586808,11243.505992254835,150,True,19.857351189689744,False,107.1098606601205,167.98334629030356,False,84.89845543586303,False,False
9,1970-07-23 10:31:30.047038275,2025-09-12,2025-09-26 20:30:04.703,AH,C,3777063420,JASSM,3,128,76,2,2,1,225,9,2,0,1,26,0,0,0,0,-183799.5316179556,-4786777.653291549,4201617.606901646,-2.30145,-0.152727,0.128663,89.75,-13.75,-11.625,0.0,0.0,0.0,0.0,0.0,0.0,2,0,41.44505113773368,-92.19892531565252,10002.625256127734,99.85043355660667,-0.0060886659914213,0.0036324490464597,,9026.08902586808,11243.505992254835,150,9,2025-09-12,2025-09-26 20:30:04.625,AH,C,1144752408,HAWK11,1,1,73,2,1,1,225,2,1,0,0,12,1,225,2,1,-147028.54138358062,-4787304.680635299,4202983.616667271,2.92185,1.61787,-0.858933,-14.25,82.375,91.125,-0.046875,-7.14062,6.82812,-0.0234375,0.0,-0.0117188,4,0,41.45869224693328,-91.75912508214395,11142.067379902934,-2.9096104193963943,0.7567541206513825,-9.25183517876352,195.905,9026.08902586808,11243.505992254835,150,True,19.797139999657144,False,107.85576318590607,167.72122860396885,False,84.41464681875236,False,False
9,1970-07-23 10:31:30.057838749,2025-09-12,2025-09-26 20:30:05.783,AH,C,3778375772,JASSM,3,128,76,2,2,1,225,9,2,0,1,26,0,0,0,0,-183700.75134451807,-4786792.872041549,4201604.677214146,-2.30145,-0.152727,0.128663,89.75,-13.75,-11.625,0.0,0.0,0.0,0.0,0.0,0.0,2,0,41.444895895315405,-92.19773771523396,10002.628608100787,99.85121962992316,-0.0051850159601044,0.0036317966916916,,9026.08902586808,11243.505992254835,150,9,2025-09-12,2025-09-26 20:30:05.827,AH,C,1146144240,HAWK11,1,1,73,2,1,1,225,2,1,0,0,12,1,225,2,1,-147046.37732108062,-4787208.661104049,4203089.585417271,2.8858,1.62842,-0.862385,-16.125,82.25,91.25,-0.09375,-7.28125,6.98438,0.0,0.0,0.0,5,0,41.45997549015734,-91.75937361215315,11137.623244185312,-3.2906891430183043,0.9799091263828296,-10.864727317562783,196.59,9026.08902586808,11243.505992254835,150,False,19.7364202253392,False,108.71398741067917,167.4638734668933,False,83.81476756145136,False,False
9,1970-07-23 10:31:30.068358455,2025-09-12,2025-09-26 20:30:06.835,AH,C,3779688124,JASSM,3,128,76,2,2,1,225,9,2,0,1,26,0,0,0,0,-183601.97107108065,-4786808.086885299,4201591.745573521,-2.30145,-0.152727,0.128663,89.75,-13.75,-11.625,0.0,0.0,0.0,0.0,0.0,0.0,2,0,41.44474065070933,-92.19655012226826,10002.623333854046,99.85200569588342,-0.0042813689513896,0.0036311539875555,,9026.08902586808,11243.505992254835,150,9,2025-09-12,2025-09-26 20:30:06.733,AH,C,1147257706,HAWK11,1,1,73,2,1,1,225,2,1,0,0,12,1,225,2,1,-147062.21911795562,-4787131.918916549,4203174.397917271,2.86567,1.6543,-0.863152,-17.75,82.375,91.125,-0.078125,-7.20312,6.85938,-0.0175781,0.00585938,-0.0136719,4,0,41.461001612272256,-91.75959122590132,11134.45633210952,-4.249421240014986,1.0978497147976831,-10.90889121774376,197.873,9026.08902586808,11243.505992254835,150,False,19.676721156174356,False,109.46031747935612,167.24979189605432,False,83.28215456461649,False,False
9,1970-07-23 10:31:30.079316187,2025-09-12,2025-09-26 20:30:07.931,AH,C,3781000474,JASSM,3,128,76,2,2,1,225,9,2,0,1,26,0,0,0,0,-183503.1917742056,-4786823.303682174,4201578.811979771,-2.30145,-0.152727,0.128663,89.75,-13.75,-11.625,0.0,0.0,0.0,0.0,0.0,0.0,2,0,41.444585368815,-92.19536254574068,10002.623924748908,99.85279174854266,-0.0033777255950204,0.0036304851986231,,9026.08902586808,11243.505992254835,150,9,2025-09-12,2025-09-26 20:30:08.235,AH,C,1149086970,HAWK11,1,1,73,2,1,1,225,2,1,0,0,12,1,225,2,1,-147091.88708670562,-4787005.936494674,4203313.517057896,2.86231,1.68575,-0.868808,-20.5,82.25,90.875,-0.140625,-7.35938,7.01562,0.0390625,0.0,-0.0136719,4,0,41.46268470264384,-91.7599922666597,11129.306020079885,-5.380304865522668,1.5354744045035784,-9.754463867050246,198.911,9026.08902586808,11243.505992254835,150,True,19.611205638251537,False,110.73350245968477,166.91864273535867,False,82.34031725225745,False,False
9,1970-07-23 10:31:30.090277065,2025-09-12,2025-09-26 20:30:09.027,AH,C,3782312826,JASSM,3,128,76,2,2,1,225,9,2,0,1,26,0,0,0,0,-183404.41150076807,-4786838.518525924,4201565.880339146,-2.30145,-0.152727,0.128663,89.75,-13.75,-11.625,0.0,0.0,0.0,0.0,0.0,0.0,2,0,41.444430099682,-92.19417496409883,10002.629079848686,99.85357780216258,-0.0024740785374061,0.0036298424006185,,9026.08902586808,11243.505992254835,150,9,2025-09-12,2025-09-26 20:30:08.827,AH,C,1149643704,HAWK11,1,1,73,2,1,1,225,2,1,0,0,12,1,225,2,1,-147101.62341483062,-4786967.940400924,4203355.601042271,2.86941,1.69802,-0.874177,-21.25,81.875,91.0,-0.140625,-7.45312,7.01562,0.03125,0.0078125,0.0,4,0,41.46319302433106,-91.76012265295816,11128.08934403054,-5.795371519478291,1.892934152694553,-8.822236813214998,198.911,9026.08902586808,11243.505992254835,150,True,19.55431871563764,False,111.08182355438579,166.79267096936547,False,82.11935717912235,False,False
9,1970-07-23 10:31:30.100255562,2025-09-12,2025-09-26 20:30:10.025,AH,C,3783505872,JASSM,3,128,76,2,2,1,225,9,2,0,1,26,0,0,0,0,-183314.61267264312,-4786852.348604049,4201554.120573521,-2.30145,-0.152727,0.128663,89.75,-13.75,-11.625,0.0,0.0,0.0,0.0,0.0,0.0,2,0,41.444288919317145,-92.19309536704722,10002.626400915102,99.8542923792869,-0.0016525915376308,0.0036292399958689,,9026.08902586808,11243.505992254835,150,9,2025-09-12,2025-09-26 20:30:09.921,AH,C,1151035536,HAWK11,1,1,73,2,1,1,225,2,1,0,0,12,1,225,2,1,-147127.30114920562,-4786873.213838424,4203460.878386021,2.88571,1.71317,-0.878012,-22.75,81.375,91.125,-0.203125,-7.48438,7.10938,0.0117188,0.0,-0.0078125,4,0,41.46446246720432,-91.76046451766705,11125.950418744476,-6.320122124130531,2.180907966343276,-7.240141886898573,198.838,9026.08902586808,11243.505992254835,150,True,19.495607644351093,False,111.77579967637267,166.53427032729815,False,81.68544537670878,False,False
9,1970-07-23 10:31:30.113836111,2025-09-12,2025-09-26 20:30:11.383,AH,C,3784758572,JASSM,3,128,76,2,2,1,225,9,2,0,1,26,0,0,0,0,-183220.32165701807,-4786866.868135299,4201541.772917271,-2.30145,-0.152727,0.128759,89.75,-13.75,-11.625,0.0,0.0,0.0,0.0,0.0,0.0,2,0,41.44414068240432,-92.19196176927332,10002.62318712796,99.85913344350766,-0.0044561850308744,0.0036284366517467,,9026.08902586808,11243.505992254835,150,9,2025-09-12,2025-09-26 20:30:11.327,AH,C,1152785266,HAWK11,1,1,73,2,1,1,225,2,1,0,0,12,1,225,2,1,-147161.78552420562,-4786754.313447799,4203594.438932896,2.89817,1.71988,-0.884052,-24.25,80.5,91.5,-0.078125,-7.625,7.20312,0.00195312,0.00195312,0.0,4,0,41.46606500703831,-91.76092059540424,11126.529139103122,-6.517583977286793,2.5578090822473243,-6.237404094200576,199.168,9026.08902586808,11243.505992254835,150,True,19.43112183498791,False,112.46808109126889,166.21298639407198,False,81.31685785774063,False,False
9,1970-07-23 10:31:30.121839119,2025-09-12,2025-09-26 20:30:12.183,AH,C,3786070920,JASSM,3,128,76,2,2,1,225,9,2,0,1,26,0,0,0,0,-183121.54138358065,-4786882.079072799,4201528.837370396,-2.30145,-0.152727,0.128759,89.75,-13.75,-11.625,0.0,0.0,0.0,0.0,0.0,0.0,2,0,41.44398537505374,-92.19077420563598,10002.62519283874,99.85991947830902,-0.0035525386495314,0.0036278549529473,,9026.08902586808,11243.505992254835,150,9,2025-09-12,2025-09-26 20:30:12.125,AH,C,1153660132,HAWK11,1,1,73,2,1,1,225,2,1,0,0,12,1,225,2,1,-147179.93005545562,-4786695.200166549,4203661.356901646,2.89961,1.72266,-0.887408,-25.0,80.25,91.375,-0.125,-7.54688,7.03125,0.00585938,0.0,0.0,4,0,41.46686503259828,-91.76115930947611,11128.020130297888,-6.59169365543622,2.762745175876438,-6.034991913064371,199.205,9026.08902586808,11243.505992254835,150,True,19.371144956929605,False,112.82916025446848,166.03131696171198,False,81.13772233050915,False,False
9,1970-07-23 10:31:30.132316245,2025-09-12,2025-09-26 20:30:13.231,AH,C,3787323620,JASSM,3,128,76,2,2,1,225,9,2,0,1,26,0,0,0,0,-183027.25134451807,-4786896.598604049,4201516.487761021,-2.30145,-0.152631,0.128759,89.75,-13.75,-11.625,0.0,0.0,0.0,0.0,0.0,0.0,2,0,41.44383710186322,-92.18964063010029,10002.62755867621,99.85703397839528,-0.006746872778741,0.0029222441462854,,9026.08902586808,11243.505992254835,150,9,2025-09-12,2025-09-26 20:30:13.327,AH,C,1155091730,HAWK11,1,1,73,2,1,1,225,2,1,0,0,12,1,225,2,1,-147210.89880545562,-4786598.719697799,4203771.458464146,2.90498,1.72736,-0.895749,-26.0,79.375,91.625,-0.0625,-7.5625,7.1875,0.0078125,0.00195312,-0.00390625,4,0,41.46817648060927,-91.76156513266668,11132.483219286058,-6.69361771863805,3.260748322299381,-5.523130555445114,199.535,9026.08902586808,11243.505992254835,150,True,19.308553862503278,False,113.30527780719282,165.7582129147868,False,80.93598313811866,False,False
9,1970-07-23 10:31:30.143279995,2025-09-12,2025-09-26 20:30:14.327,AH,C,3788635972,JASSM,3,128,76,2,2,1,225,9,2,0,1,26,0,0,0,0,-182928.47107108065,-4786911.805635299,4201503.548307896,-2.30145,-0.152631,0.128759,89.75,-13.75,-11.625,0.0,0.0,0.0,0.0,0.0,0.0,2,0,41.44368176744366,-92.18845307931848,10002.621674373442,99.85782000000071,-0.0058432271760568,0.0029216017293384,,9026.08902586808,11243.505992254835,150,9,2025-09-12,2025-09-26 20:30:14.327,AH,C,1156364262,HAWK11,1,1,73,2,1,1,225,2,1,0,0,12,1,225,2,1,-147238.91833670562,-4786514.696260299,4203868.425261021,2.92089,1.73225,-0.898529,-26.75,78.75,91.75,-0.015625,-7.59375,7.14062,0.0234375,0.0136719,0.0,4,0,41.46932569643672,-91.76193111984254,11138.807270041068,-6.844564980564482,3.4443642002513486,-4.400987889061175,199.681,9026.08902586808,11243.505992254835,150,True,19.245027834998833,False,113.66615535584019,165.51065489097772,False,80.82309743188765,False,False
9,1970-07-23 10:31:30.155216697,2025-09-12,2025-09-26 20:30:15.521,AH,C,3789948322,JASSM,3,128,76,2,2,1,225,9,2,0,1,26,0,0,0,0,-182829.69079764312,-4786927.014619674,4201490.608854771,-2.30145,-0.152631,0.128759,89.75,-13.75,-11.625,0.0,0.0,0.0,0.0,0.0,0.0,2,0,41.44352640913569,-92.18726553330916,10002.625804642526,99.85860601602474,-0.0049395788996583,0.0029209479258756,,9026.08902586808,11243.505992254835,150,9,2025-09-12,2025-09-26 20:30:15.421,AH,C,1157636794,HAWK11,1,1,73,2,1,1,225,2,1,0,0,12,1,225,2,1,-147268.00818045562,-4786430.198213424,4203966.884245396,2.9463,1.72966,-0.901501,-27.375,78.25,91.875,-0.25,-7.59375,7.0625,0.0253906,0.00390625,0.0,4,0,41.47048760292351,-91.76231009437603,11147.296982212194,-6.729081110614887,3.6009689766848534,-3.0542187958014506,200.5,9026.08902586808,11243.505992254835,150,True,19.181347173117366,False,113.96413184831559,165.25902649783376,False,80.77683930540184,False,False
9,1970-07-23 10:31:30.165356717,2025-09-12,2025-09-26 20:30:16.535,AH,C,3791260674,JASSM,3,128,76,2,2,1,225,9,2,0,1,26,0,0,0,0,-182730.9105242056,-4786942.219697799,4201477.669401646,-2.30145,-0.152631,0.128759,89.75,-13.75,-11.625,0.0,0.0,0.0,0.0,0.0,0.0,2,0,41.443371061816585,-92.1860779947479,10002.625549769353,99.8593920246932,-0.0040359358968995,0.0029203167546326,,9026.08902586808,11243.505992254835,150,9,2025-09-12,2025-09-26 20:30:16.625,AH,C,1159028626,HAWK11,1,1,73,2,1,1,225,2,1,0,0,12,1,225,2,1,-147300.12341483062,-4786339.622041549,4204073.698698521,2.9788,1.72611,-0.901693,-27.625,77.5,92.25,-0.09375,-7.3125,7.01562,0.0253906,0.0078125,-0.00195312,4,0,41.47174149846549,-91.76272750088602,11159.244153002272,-6.602713180195928,3.59545018252752,-1.3433381610952824,200.72,9026.08902586808,11243.505992254835,150,True,19.116809348373362,False,114.08386474665726,164.98881836305534,False,80.92689497055616,False,False
9,1970-07-23 10:31:30.176349202,2025-09-12,2025-09-26 20:30:17.634,AH,C,3792573024,JASSM,3,128,76,2,2,1,225,9,2,0,1,26,0,0,0,0,-182632.13025076807,-4786957.424775924,4201464.727995396,-2.30145,-0.152631,0.128759,89.75,-13.75,-11.625,0.0,0.0,0.0,0.0,0.0,0.0,2,0,41.443215689058896,-92.18489046185162,10002.626268293296,99.86017802718924,-0.0031322906135078,0.0029196725548574,,9026.08902586808,11243.505992254835,150,9,2025-09-12,2025-09-26 20:30:17.421,AH,C,1159983026,HAWK11,1,1,73,2,1,1,225,2,1,0,0,12,1,225,2,1,-147322.44568045562,-4786277.452119674,4204147.602995396,2.99471,1.72458,-0.902652,-27.75,77.125,92.375,-0.140625,-7.60938,7.25,0.0214844,0.0117188,0.00585938,4,0,41.47260606718446,-91.7630173463292,11168.750841563578,-6.541215379631992,3.643200446352597,-0.4964355520938323,200.903,9026.08902586808,11243.505992254835,150,True,19.056237526392774,False,114.14908993521081,164.7880536631581,False,81.06200440415175,False,False
9,1970-07-23 10:31:30.187309481,2025-09-12,2025-09-26 20:30:18.730,AH,C,3793825724,JASSM,3,128,76,2,2,1,225,9,2,0,1,26,0,0,0,0,-182537.8402117056,-4786971.938447799,4201452.372526646,-2.30145,-0.152631,0.128759,89.75,-13.75,-11.625,0.0,0.0,0.0,0.0,0.0,0.0,2,0,41.44306735322346,-92.18375691578284,10002.6261725669,99.8609282947038,-0.0022697197379504,0.002919043407361,,9026.08902586808,11243.505992254835,150,9,2025-09-12,2025-09-26 20:30:18.725,AH,C,1161494158,HAWK11,1,1,73,2,1,1,225,2,1,0,0,12,1,225,2,1,-147357.66833670562,-4786179.891572799,4204264.737761021,3.01677,1.70953,-0.904473,-27.5,76.5,92.625,-0.15625,-7.10938,6.65625,-0.00585938,-0.00390625,0.00390625,4,0,41.47397057966266,-91.76347451493974,11186.214525781565,-5.99760230977628,3.6774818979078265,0.1244415110291135,201.087,9026.08902586808,11243.505992254835,150,True,18.993689825888094,False,114.04629798571786,164.49602458732068,False,81.45575132608855,False,False
9,1970-07-23 10:31:30.197290106,2025-09-12,2025-09-26 20:30:19.729,AH,C,3795078422,JASSM,3,128,76,2,2,1,225,9,2,0,1,26,0,0,0,0,-182443.54919608065,-4786986.450166549,4201440.017057896,-2.30145,-0.152631,0.128759,89.75,-13.75,-11.625,0.0,0.0,0.0,0.0,0.0,0.0,2,0,41.44291901806247,-92.18262336409546,10002.625936784616,99.8616785637274,-0.0014071429064506,0.0029184272734071,,9026.08902586808,11243.505992254835,150,9,2025-09-12,2025-09-26 20:30:19.839,AH,C,1162885990,HAWK11,1,1,73,2,1,1,225,2,1,0,0,12,1,225,2,1,-147390.01403983062,-4786089.637666549,4204373.093229771,3.04227,1.68565,-0.903706,-27.25,76.5,92.375,-0.03125,-7.20312,6.79688,0.0175781,-0.00585938,0.0195312,4,0,41.47523289405985,-91.76389460249888,11202.348920593353,-5.161446445799917,3.5354857805417006,0.5635123658694504,200.83,9026.08902586808,11243.505992254835,150,True,18.93267020821222,False,113.95569509721389,164.22098241013,False,81.82173664561635,False,False
