Subject_cm,Timestamp,SampleDate_cm,SampleTime_cm,Configuration_cm,Scenario_cm,DisTime_cm,MarkingTxt_cm,Application_cm,EntId_cm,Site_cm,ExerciseId_cm,ForceId_cm,Category_cm,Country_cm,Domain_cm,Kind_cm,Extra_cm,Specific_cm,Subcategory_cm,AltCategory_cm,AltCountry_cm,AltDomain_cm,AltKind_cm,ECEF_X_cm,ECEF_Y_cm,ECEF_Z_cm,OriPhi_cm,OriPsi_cm,OriTheta_cm,LinVelX_cm,LinVelY_cm,LinVelZ_cm,LinAccX_cm,LinAccY_cm,LinAccZ_cm,AngVelX_cm,AngVelY_cm,AngVelZ_cm,DrAlg_cm,Appearance_cm,Latitude_cm,Longitude_cm,Altitude_cm,Heading_cm,Pitch_cm,Roll_cm,CalibratedAirspeed_cm,CM_Altitude_Lead_cm,CM_Altitude_Wing_cm,CM_Airspeed_cm,Subject_ac,SampleDate_ac,SampleTime_ac,Configuration_ac,Scenario_ac,DisTime_ac,MarkingTxt_ac,Application_ac,EntId_ac,Site_ac,ExerciseId_ac,ForceId_ac,Category_ac,Country_ac,Domain_ac,Kind_ac,Extra_ac,Specific_ac,Subcategory_ac,AltCategory_ac,AltCountry_ac,AltDomain_ac,AltKind_ac,ECEF_X_ac,ECEF_Y_ac,ECEF_Z_ac,OriPhi_ac,OriPsi_ac,OriTheta_ac,LinVelX_ac,LinVelY_ac,LinVelZ_ac,LinAccX_ac,LinAccY_ac,LinAccZ_ac,AngVelX_ac,AngVelY_ac,AngVelZ_ac,DrAlg_ac,Appearance_ac,Latitude_ac,Longitude_ac,Altitude_ac,Heading_ac,Pitch_ac,Roll_ac,CalibratedAirspeed_ac,CM_Altitude_Lead_ac,CM_Altitude_Wing_ac,CM_Airspeed_ac,Bank_Angle_Condition,distance_nm,Distance_Condition,angle_between_vel,angle_between_pos,Cone_Condition,angle_between_pos_nose,Nose_Cone_Condition,Intercept_Criteria
9,1970-07-23 10:31:21.551936767,2025-09-12,2025-09-26 20:15:55.193,HA,C,2763331836,JASSM,3,115,76,2,2,1,225,9,2,0,1,26,0,0,0,0,-173000.54382498687,-4771201.122041549,4222376.366667271,-2.51458,-0.703426,0.607361,61.375,-51.875,-55.75,0.0,0.0,0.0,0.0,0.0,0.0,2,0,41.68014135480327,-92.07659668908065,15986.876468323651,139.82870660326162,-0.0004507058877065,0.0009603062609851,,14957.496266617703,17020.816047025746,150,9,2025-09-12,2025-09-26 20:15:55.429,HA,C,131538570,HAWK11,1,1,73,2,1,1,225,2,1,0,0,12,1,225,2,1,-140877.75036795562,-4793324.151338424,4199083.331511021,2.39723,2.7092,-0.434021,-116.375,37.5,39.25,0.09375,-7.04688,6.54688,-0.0195312,0.0,0.0136719,4,0,41.39765682339208,-91.68346170035008,17021.358264515744,-56.5791513266086,0.6397391898288708,0.987824774820295,172.87,14957.496266617703,17020.816047025746,150,True,24.446620193572546,False,153.87088236342066,173.85355269986204,False,19.99460787192612,True,False
9,1970-07-23 10:31:21.560317801,2025-09-12,2025-09-26 20:15:56.031,HA,C,2764644186,JASSM,3,115,76,2,2,1,225,9,2,0,1,26,0,0,0,0,-172933.04284842435,-4771258.383760299,4222314.843229771,-2.51458,-0.703426,0.607456,61.375,-51.875,-55.75,0.0,0.0,0.0,0.0,0.0,0.0,2,0,41.67940024252581,-92.07576226550952,15986.881998736057,139.83248340314296,-0.0039293448910638,0.0009583476873239,,14957.496266617703,17020.816047025746,150,9,2025-09-12,2025-09-26 20:15:56.131,HA,C,132294136,HAWK11,1,1,73,2,1,1,225,2,1,0,0,12,1,225,2,1,-140952.02185233062,-4793300.246064986,4199108.395964146,2.39886,2.70067,-0.440157,-116.375,37.625,39.375,-0.09375,-7.125,6.75,0.0078125,-0.00976562,0.00195312,4,0,41.3979551516634,-91.68435711440586,17022.301200013324,-56.01645261742883,0.5902262242391102,0.8804261683670265,173.126,14957.496266617703,17020.816047025746,150,True,24.347665709241394,False,153.94224120824717,173.8741060611732,False,19.943880538070232,True,False
9,1970-07-23 10:31:21.570319259,2025-09-12,2025-09-26 20:15:57.031,HA,C,2765896886,JASSM,3,115,76,2,2,1,225,9,2,0,1,26,0,0,0,0,-172868.61023123687,-4771313.040010299,4222256.112761021,-2.51458,-0.703426,0.607456,61.375,-51.875,-55.75,0.0,0.0,0.0,0.0,0.0,0.0,2,0,41.678692803462205,-92.07496579089847,15986.878596108583,139.8330130248222,-0.0030050398438896,0.0009566149382418,,14957.496266617703,17020.816047025746,150,9,2025-09-12,2025-09-26 20:15:57.037,HA,C,133487136,HAWK11,1,1,73,2,1,1,225,2,1,0,0,12,1,225,2,1,-141068.61950858062,-4793262.497041549,4199147.974089146,2.36693,2.69952,-0.436513,-116.5,37.875,39.625,0.0,-7.14062,6.875,-0.0664062,-0.00195312,0.0,4,0,41.39842634079773,-91.6857629049642,17023.74465069993,-56.11751818520733,0.3987307455243964,-0.977435548699612,173.041,14957.496266617703,17020.816047025746,150,True,24.227667562897928,False,154.06101155470003,173.91552727493863,False,19.866619939784535,True,False
9,1970-07-23 10:31:21.582239056,2025-09-12,2025-09-26 20:15:58.223,HA,C,2767268884,JASSM,3,115,76,2,2,1,225,9,2,0,1,26,0,0,0,0,-172798.04138358062,-4771372.899385299,4222191.788542271,-2.51448,-0.703426,0.607456,61.375,-51.875,-55.75,0.0,0.0,0.0,0.0,0.0,0.0,2,0,41.67791799361606,-92.07409348505792,15986.874859081914,139.83359306257842,-0.0019927155423433,0.0064461942011704,,14957.496266617703,17020.816047025746,150,9,2025-09-12,2025-09-26 20:15:58.039,HA,C,134680134,HAWK11,1,1,73,2,1,1,225,2,1,0,0,12,1,225,2,1,-141185.47693045562,-4793225.064424361,4199187.302214146,2.37048,2.70259,-0.441786,-116.875,37.75,39.75,-0.296875,-7.20312,6.95312,0.0429688,0.00976562,0.00390625,4,0,41.39889389836049,-91.68717170674203,17025.451388315665,-56.02619884635567,0.7286281446785546,-0.6983358610879351,173.383,14957.496266617703,17020.816047025746,150,True,24.10249531245028,False,153.99353228412346,173.9566070375909,False,19.976793872535207,True,False
9,1970-07-23 10:31:21.593578392,2025-09-12,2025-09-26 20:15:59.357,HA,C,2768521586,JASSM,3,115,76,2,2,1,225,9,2,0,1,26,0,0,0,0,-172733.60827811187,-4771427.555635299,4222133.054167271,-2.51448,-0.70333,0.607456,61.375,-51.875,-55.75,0.0,0.0,0.0,0.0,0.0,0.0,2,0,41.67721051666273,-92.07329704114206,15986.874302399716,139.8304713164041,-0.0037140274322648,0.0033101737387614,,14957.496266617703,17020.816047025746,150,9,2025-09-12,2025-09-26 20:15:59.274,HA,C,135634532,HAWK11,1,1,73,2,1,1,225,2,1,0,0,12,1,225,2,1,-141278.93786795562,-4793194.964814986,4199219.108854771,2.39809,2.70441,-0.444854,-116.875,37.625,40.0,0.0,-7.375,6.96875,0.0390625,0.0,0.0,4,0,41.39927117169929,-91.68829851799958,17027.190120184216,-55.97430174159047,0.921937592754619,0.9293709508958006,173.774,14957.496266617703,17020.816047025746,150,True,23.99542366006736,False,154.03363687023074,173.98767659245152,False,19.970164134197283,True,False
9,1970-07-23 10:31:21.603315369,2025-09-12,2025-09-26 20:16:00.331,HA,C,2769833938,JASSM,3,115,76,2,2,1,225,9,2,0,1,26,0,0,0,0,-172666.10730154935,-4771484.813447799,4222071.526823521,-2.51448,-0.70333,0.607456,61.375,-51.875,-55.75,0.0,0.0,0.0,0.0,0.0,0.0,2,0,41.67646937715842,-92.0724626949816,15986.885382153465,139.8310260970463,-0.002745711198387,0.0033083008590511,,14957.496266617703,17020.816047025746,150,9,2025-09-12,2025-09-26 20:16:00.241,HA,C,137344498,HAWK11,1,1,73,2,1,1,225,2,1,0,0,12,1,225,2,1,-141446.81872733062,-4793140.888643111,4199276.876432896,2.40672,2.69722,-0.453195,-117.0,37.875,40.625,-0.015625,-7.1875,6.89062,-0.0234375,0.0,0.0078125,4,0,41.39995316331233,-91.69032260812789,17031.680709240583,-55.37745295406231,1.015334015310116,1.255333786871739,174.116,14957.496266617703,17020.816047025746,150,True,23.84413198760985,False,154.26181413717853,174.05422772078975,False,19.811157184800532,True,False
9,1970-07-23 10:31:21.614275376,2025-09-12,2025-09-26 20:16:01.427,HA,C,2771146290,JASSM,3,115,76,2,2,1,225,9,2,0,1,26,0,0,0,0,-172598.60632498687,-4771542.067354049,4222009.991667271,-2.51448,-0.70333,0.607456,61.375,-51.875,-55.75,0.0,0.0,0.0,0.0,0.0,0.0,2,0,41.67572820235618,-92.07162836966036,15986.875830126284,139.83158085574,-0.0017773733846574,0.0033064081762914,,14957.496266617703,17020.816047025746,150,9,2025-09-12,2025-09-26 20:16:01.335,HA,C,138736330,HAWK11,1,1,73,2,1,1,225,2,1,0,0,12,1,225,2,1,-141582.86755545562,-4793096.976533736,4199324.095182896,2.35974,2.693,-0.459044,-117.125,37.875,41.0,0.0,-7.14062,6.875,-0.0878906,0.0078125,0.0,4,0,41.40050907694902,-91.69196297075617,17035.990680564068,-54.990717494749575,1.1116321813773251,-1.5353412917247615,174.495,14957.496266617703,17020.816047025746,150,True,23.710477554720683,False,154.3475291099917,174.1056548420338,False,19.779743032563836,True,False
9,1970-07-23 10:31:21.625234102,2025-09-12,2025-09-26 20:16:02.523,HA,C,2772458640,JASSM,3,115,76,2,2,1,225,9,2,0,1,26,0,0,0,0,-172531.10534842435,-4771599.321260299,4221948.460417271,-2.51448,-0.70333,0.607456,61.375,-51.875,-55.75,0.0,0.0,0.0,0.0,0.0,0.0,2,0,41.674987047650895,-92.0707940634822,15986.880776744854,139.83213559361175,-0.0008090555039144,0.0033045323898455,,14957.496266617703,17020.816047025746,150,9,2025-09-12,2025-09-26 20:16:02.429,HA,C,139969096,HAWK11,1,1,73,2,1,1,225,2,1,0,0,12,1,225,2,1,-141704.94568045562,-4793057.565400924,4199366.610807896,2.34574,2.69031,-0.459907,-117.375,37.75,40.875,-0.125,-7.0625,6.71875,0.0527344,-0.00390625,-0.0136719,4,0,41.40100891704855,-91.69343491252496,17040.163694561426,-54.85736004288831,1.0544296521977907,-2.402785587414725,174.715,14957.496266617703,17020.816047025746,150,True,23.584598959480232,False,154.22973612909104,174.1506838146693,False,19.942926264062095,True,False
9,1970-07-23 10:31:21.636354443,2025-09-12,2025-09-26 20:16:03.635,HA,C,2773770990,JASSM,3,115,76,2,2,1,225,9,2,0,1,26,0,0,0,0,-172463.60388358062,-4771656.571260299,4221886.925261021,-2.51448,-0.70333,0.607552,61.375,-51.875,-55.75,0.0,0.0,0.0,0.0,0.0,0.0,2,0,41.67424588400135,-92.06995977228446,15986.873569786769,139.835914497535,-0.0042902751419415,0.0033025409109136,,14957.496266617703,17020.816047025746,150,9,2025-09-12,2025-09-26 20:16:03.741,HA,C,141400694,HAWK11,1,1,73,2,1,1,225,2,1,0,0,12,1,225,2,1,-141846.15661795562,-4793012.235322799,4199415.308073521,2.40758,2.69607,-0.462495,-117.625,37.75,40.875,-0.046875,-7.17188,6.85938,0.0722656,0.00976562,0.0253906,4,0,41.40158228766806,-91.69513748207622,17044.591509941227,-54.97176243688325,1.36609860799453,1.2848521592357791,175.179,14957.496266617703,17020.816047025746,150,True,23.4482502913447,False,154.18258397277822,174.2061493486155,False,20.045900643112237,True,False
9,1970-07-23 10:31:21.661138158,2025-09-12,2025-09-26 20:16:06.113,HA,C,2775083342,JASSM,3,115,76,2,2,1,225,9,2,0,1,26,0,0,0,0,-172396.10290701812,-4771713.821260299,4221825.390104771,-2.51448,-0.70333,0.607552,61.375,-51.875,-55.75,0.0,0.0,0.0,0.0,0.0,0.0,2,0,41.67350471409447,-92.0691255060832,15986.87238321516,139.83646919278297,-0.0033219555077294,0.0033007167076193,,14957.496266617703,17020.816047025746,150,9,2025-09-12,2025-09-26 20:16:06.241,HA,C,144303658,HAWK11,1,1,73,2,1,1,225,2,1,0,0,12,1,225,2,1,-142130.59607108062,-4792918.879854049,4199515.962370396,2.47757,2.66606,-0.481191,-116.625,38.875,42.625,-0.1875,-7.25,6.90625,-0.0332031,-0.00585938,0.00976562,4,0,41.40276662401238,-91.6985677608825,17054.07485538117,-53.12291654791795,1.1086879415354411,4.553811960254509,175.57,14957.496266617703,17020.816047025746,150,True,23.230919376052174,False,155.18491814562483,174.33138202146856,False,19.17399620515969,True,False
9,1970-07-23 10:31:21.661175918,2025-09-12,2025-09-26 20:16:06.117,HA,C,2776455346,JASSM,3,115,76,2,2,1,225,9,2,0,1,26,0,0,0,0,-172325.53308279935,-4771773.672822799,4221761.058073521,-2.51448,-0.70333,0.607552,61.375,-51.875,-55.75,0.0,0.0,0.0,0.0,0.0,0.0,2,0,41.67272985364248,-92.068253332012,15986.876126530093,139.83704908394216,-0.00230962202794,0.0032988172208789,,14957.496266617703,17020.816047025746,150,9,2025-09-12,2025-09-26 20:16:06.241,HA,C,144303658,HAWK11,1,1,73,2,1,1,225,2,1,0,0,12,1,225,2,1,-142130.59607108062,-4792918.879854049,4199515.962370396,2.47757,2.66606,-0.481191,-116.625,38.875,42.625,-0.1875,-7.25,6.90625,-0.0332031,-0.00585938,0.00976562,4,0,41.40276662401238,-91.6985677608825,17054.07485538117,-53.12291654791795,1.1086879415354411,4.553811960254509,175.57,14957.496266617703,17020.816047025746,150,True,23.17061032843152,False,155.18491814562483,174.31631242879078,False,19.15901918698576,True,False
9,1970-07-23 10:31:21.669534219,2025-09-12,2025-09-26 20:16:06.953,HA,C,2777708044,JASSM,3,115,76,2,2,1,225,9,2,0,1,26,0,0,0,0,-172261.10046561187,-4771828.321260299,4221702.315886021,-2.51448,-0.70333,0.607552,61.375,-51.875,-55.75,0.0,0.0,0.0,0.0,0.0,0.0,2,0,41.672022329682775,-92.06745702524744,15986.87937757014,139.83757852471808,-0.0013852930631155,0.0032970546746696,,14957.496266617703,17020.816047025746,150,9,2025-09-12,2025-09-26 20:16:06.537,HA,C,144661556,HAWK11,1,1,73,2,1,1,225,2,1,0,0,12,1,225,2,1,-142166.56872733062,-4792906.816377486,4199528.894011021,2.46875,2.66261,-0.480136,-116.625,39.375,42.625,-0.125,-7.23438,6.98438,-0.03125,0.00976562,0.0136719,4,0,41.40291928945934,-91.69900168308206,17055.084192108803,-53.034882294547714,0.9459391965710257,3.958664769498801,175.742,14957.496266617703,17020.816047025746,150,True,23.095235368346838,False,155.3202545520581,174.32006508779082,False,19.02356247703914,True,False
9,1970-07-23 10:31:21.678737100,2025-09-12,2025-09-26 20:16:07.873,HA,C,2778781786,JASSM,3,115,76,2,2,1,225,9,2,0,1,26,0,0,0,0,-172205.87194998687,-4771875.157197799,4221651.968229771,-2.51448,-0.703234,0.607552,61.375,-51.875,-55.75,0.0,0.0,0.0,0.0,0.0,0.0,2,0,41.6714159283427,-92.06677448619608,15986.87886911322,139.83437910525132,-0.003240358487115,0.0001588937582164,,14957.496266617703,17020.816047025746,150,9,2025-09-12,2025-09-26 20:16:07.741,HA,C,146331756,HAWK11,1,1,73,2,1,1,225,2,1,0,0,12,1,225,2,1,-142329.02185233062,-4792851.526338424,4199588.612761021,2.40452,2.65149,-0.48445,-116.5,39.5,43.5,-0.125,-7.25,6.84375,0.00976562,-0.00390625,-0.00585938,4,0,41.40362243535607,-91.70096159557642,17060.51985491895,-52.45244233066147,0.749757103334889,-0.0083323290730384,175.57,14957.496266617703,17020.816047025746,150,True,22.955751899771535,False,155.62829250753063,174.38664311554456,False,18.788552519614516,True,False
9,1970-07-23 10:31:21.687237515,2025-09-12,2025-09-26 20:16:08.723,HA,C,2779855528,JASSM,3,115,76,2,2,1,225,9,2,0,1,26,0,0,0,0,-172150.64343436187,-4771921.997041549,4221601.616667271,-2.51448,-0.703234,0.607552,61.375,-51.875,-55.75,0.0,0.0,0.0,0.0,0.0,0.0,2,0,41.67080947328434,-92.06609195826618,15986.883408006208,139.8348328866377,-0.0024480755739024,0.000157337539366,,14957.496266617703,17020.816047025746,150,9,2025-09-12,2025-09-26 20:16:08.631,HA,C,147405454,HAWK11,1,1,73,2,1,1,225,2,1,0,0,12,1,225,2,1,-142435.09802420562,-4792815.165010299,4199628.024870396,2.43107,2.64966,-0.480615,-116.625,39.75,43.75,0.0,-6.875,6.6875,0.0351562,-0.00195312,0.00390625,4,0,41.40408590608048,-91.70224146358676,17064.34822617579,-52.53238390085028,0.5259170614901532,1.4641717561504466,175.399,14957.496266617703,17020.816047025746,150,True,22.848119097815545,False,155.7419377772989,174.42600033038806,False,18.714546628272696,True,False
9,1970-07-23 10:31:21.697234651,2025-09-12,2025-09-26 20:16:09.723,HA,C,2780988922,JASSM,3,115,76,2,2,1,225,9,2,0,1,26,0,0,0,0,-172092.34655936187,-4771971.434541549,4221548.468229771,-2.51448,-0.703234,0.607552,61.375,-51.875,-55.75,0.0,0.0,0.0,0.0,0.0,0.0,2,0,41.6701693519936,-92.0653715266873,15986.882315813513,139.8353118625364,-0.0016118002399543,0.0001557139225708,,14957.496266617703,17020.816047025746,150,9,2025-09-12,2025-09-26 20:16:09.836,HA,C,148757520,HAWK11,1,1,73,2,1,1,225,2,1,0,0,12,1,225,2,1,-142567.12341483062,-4792769.334932174,4199677.208464146,2.46664,2.63413,-0.485984,-116.5,40.5,43.875,-0.15625,-6.29688,6.0,0.0527344,-0.0273438,0.0,4,0,41.40466702537766,-91.70383465195356,17067.994457036177,-51.74185759703796,0.2289718283769664,3.0940817906452875,175.155,14957.496266617703,17020.816047025746,150,True,22.722911299257333,False,156.00347248919755,174.47729627804046,False,18.499397843152064,True,False
9,1970-07-23 10:31:21.709957771,2025-09-12,2025-09-26 20:16:10.995,HA,C,2782122318,JASSM,3,115,76,2,2,1,225,9,2,0,1,26,0,0,0,0,-172034.04968436187,-4772020.872041549,4221495.315886021,-2.51448,-0.703234,0.607648,61.375,-51.875,-55.75,0.0,0.0,0.0,0.0,0.0,0.0,2,0,41.66952919986405,-92.0646511093822,15986.877161410392,139.83901324753472,-0.0052221040486915,0.0001539046889809,,14957.496266617703,17020.816047025746,150,9,2025-09-12,2025-09-26 20:16:11.039,HA,C,150268650,HAWK11,1,1,73,2,1,1,225,2,1,0,0,12,1,225,2,1,-142714.36755545562,-4792715.998994674,4199731.858854771,2.62704,2.61764,-0.482149,-115.875,42.875,43.5,-0.109375,-6.1875,6.0,0.128906,-0.00585938,0.0,4,0,41.405326958453,-91.70561231281704,17066.16670502648,-51.2628727412983,-0.4886496666921888,11.843656238845831,174.727,14957.496266617703,17020.816047025746,150,False,22.588510603243996,False,156.63944196839518,174.53548186171693,False,17.904036093821755,True,False
9,1970-07-23 10:31:21.716356844,2025-09-12,2025-09-26 20:16:11.635,HA,C,2783315362,JASSM,3,115,76,2,2,1,225,9,2,0,1,26,0,0,0,0,-171972.68493826812,-4772072.907197799,4221439.370573521,-2.51448,-0.703234,0.607648,61.375,-51.875,-55.75,0.0,0.0,0.0,0.0,0.0,0.0,2,0,41.66885540668253,-92.06389279728508,15986.875877572404,139.83951739538932,-0.004341838826471,0.0001522597399009,,14957.496266617703,17020.816047025746,150,9,2025-09-12,2025-09-26 20:16:11.427,HA,C,150706084,HAWK11,1,1,73,2,1,1,225,2,1,0,0,12,1,225,2,1,-142756.11364920562,-4792700.242158736,4199747.423307896,2.66663,2.61294,-0.481766,-115.625,43.75,43.75,0.0,-6.21875,6.01562,0.0957031,0.0117188,0.0214844,4,0,41.40551830687983,-91.70611654100428,17064.240885265976,-51.098407450724935,-0.6620466844395556,13.986002350848745,174.727,14957.496266617703,17020.816047025746,150,False,22.511890144030996,False,156.9840322000033,174.54221223459945,False,17.56333190437405,True,False
9,1970-07-23 10:31:21.726813911,2025-09-12,2025-09-26 20:16:12.681,HA,C,2784448758,JASSM,3,115,76,2,2,1,225,9,2,0,1,26,0,0,0,0,-171914.38806326812,-4772122.344697799,4221386.218229771,-2.51448,-0.703234,0.607648,61.375,-51.875,-55.75,0.0,0.0,0.0,0.0,0.0,0.0,2,0,41.66821524513798,-92.06317240927754,15986.87987430914,139.83999632401853,-0.0035055430548589,0.0001506661455158,,14957.496266617703,17020.816047025746,150,9,2025-09-12,2025-09-26 20:16:12.631,HA,C,152217216,HAWK11,1,1,73,2,1,1,225,2,1,0,0,12,1,225,2,1,-142902.64099295562,-4792641.591768111,4199803.261198521,2.84678,2.56386,-0.495859,-113.875,47.25,44.875,-0.25,-6.57812,6.26562,0.132812,0.0136719,0.0195312,4,0,41.40621795362551,-91.7078875797394,17051.88372168683,-48.68690510771525,-1.660085803845924,22.93816015128488,174.128,14957.496266617703,17020.816047025746,150,False,22.37605021641911,False,158.5315256053998,174.59666920316388,False,16.06516019699104,True,False
9,1970-07-23 10:31:21.736315699,2025-09-12,2025-09-26 20:16:13.631,HA,C,2785641804,JASSM,3,115,76,2,2,1,225,9,2,0,1,26,0,0,0,0,-171853.02282889312,-4772174.379854049,4221330.269011021,-2.51439,-0.703234,0.607648,61.375,-51.875,-55.75,0.0,0.0,0.0,0.0,0.0,0.0,2,0,41.66754141589949,-92.06241412216316,15986.879659652725,139.84050044222496,-0.0026252548275459,0.0056404797116908,,14957.496266617703,17020.816047025746,150,9,2025-09-12,2025-09-26 20:16:13.555,HA,C,152933014,HAWK11,1,1,73,2,1,1,225,2,1,0,0,12,1,225,2,1,-142970.60778983062,-4792612.470674361,4199830.308073521,2.90756,2.54852,-0.502858,-112.5,49.25,45.75,-0.234375,-6.73438,6.375,0.0585938,0.00976562,0.0175781,4,0,41.40656160839024,-91.70870977346702,17043.931548542652,-47.83695761046603,-1.842349344158984,25.9741098464154,173.786,14957.496266617703,17020.816047025746,150,False,22.282868346316704,False,159.55211901285335,174.6129218998275,False,15.063147337702187,True,False
9,1970-07-23 10:31:21.745317067,2025-09-12,2025-09-26 20:16:14.531,HA,C,2786775198,JASSM,3,115,76,2,2,1,225,9,2,0,1,26,0,0,0,0,-171794.7257097525,-4772223.813447799,4221277.112761021,-2.51439,-0.703234,0.607648,61.375,-51.875,-55.75,0.0,0.0,0.0,0.0,0.0,0.0,2,0,41.66690124208939,-92.06169376221114,15986.874698737372,139.8409793398137,-0.0017889560874569,0.0056388849323996,,14957.496266617703,17020.816047025746,150,9,2025-09-12,2025-09-26 20:16:14.427,HA,C,154245314,HAWK11,1,1,73,2,1,1,225,2,1,0,0,12,1,225,2,1,-143094.99450858062,-4792555.104463424,4199881.944792271,2.97592,2.51774,-0.491353,-110.5,53.25,48.125,-0.21875,-7.15625,6.84375,0.0507812,0.0117188,0.0390625,4,0,41.407229162139295,-91.71021595454266,17024.01161278756,-47.04605985805127,-3.327934283758382,29.014324371996054,173.444,14957.496266617703,17020.816047025746,150,False,22.156845315338092,False,161.5830023023707,174.6504017311507,False,13.08499451986648,True,False
9,1970-07-23 10:31:21.755606739,2025-09-12,2025-09-26 20:16:15.560,HA,C,2787848940,JASSM,3,115,76,2,2,1,225,9,2,0,1,26,0,0,0,0,-171739.49694998687,-4772270.645479049,4221226.757292271,-2.51439,-0.703234,0.607648,61.375,-51.875,-55.75,0.0,0.0,0.0,0.0,0.0,0.0,2,0,41.66629477688512,-92.06101133009524,15986.881349166037,139.84143301728844,-0.0009966883472913,0.0056373860608662,,14957.496266617703,17020.816047025746,150,9,2025-09-12,2025-09-26 20:16:15.336,HA,C,155398546,HAWK11,1,1,73,2,1,1,225,2,1,0,0,12,1,225,2,1,-143201.42028983062,-4792501.302705611,4199929.796354771,3.0346,2.49397,-0.491928,-108.0,56.75,50.75,-0.171875,-7.85938,6.67188,0.0371094,0.015625,0.0292969,4,0,41.40785314770488,-91.71150636018083,17003.33591665889,-46.080202982623966,-4.042822348063167,31.67108213705027,173.395,14957.496266617703,17020.816047025746,150,False,22.04216726899647,False,163.65971200775817,174.6760495564165,False,11.062609517355476,True,False
9,1970-07-23 10:31:21.764273113,2025-09-12,2025-09-26 20:16:16.427,HA,C,2788982334,JASSM,3,115,76,2,2,1,225,9,2,0,1,26,0,0,0,0,-171681.20007498687,-4772320.075166549,4221173.601042271,-2.51439,-0.703138,0.607648,61.375,-51.875,-55.75,0.0,0.0,0.0,0.0,0.0,0.0,2,0,41.6656546174396,-92.06029100254749,15986.875524152589,139.83826132726068,-0.0028060981878484,0.0025006070655908,,14957.496266617703,17020.816047025746,150,9,2025-09-12,2025-09-26 20:16:16.537,HA,C,156631310,HAWK11,1,1,73,2,1,1,225,2,1,0,0,12,1,225,2,1,-143311.76013358062,-4792439.986299361,4199983.843229771,3.08934,2.46098,-0.497777,-104.625,60.5,54.0,-0.21875,-8.54688,7.25,0.0585938,0.0351562,0.0390625,4,0,41.4085629242138,-91.71284622973194,16977.91771749704,-44.55063824257594,-4.782692565294719,33.7926458231745,173.016,14957.496266617703,17020.816047025746,150,False,21.91967086648216,False,166.14746349978742,174.69595290994215,False,8.657678884268211,True,False
9,1970-07-23 10:31:21.773313361,2025-09-12,2025-09-26 20:16:17.331,HA,C,2790056076,JASSM,3,115,76,2,2,1,225,9,2,0,1,26,0,0,0,0,-171625.97131522125,-4772366.903291549,4221123.241667271,-2.51439,-0.703138,0.607648,61.375,-51.875,-55.75,0.0,0.0,0.0,0.0,0.0,0.0,2,0,41.665048140869565,-92.05960859844431,15986.872312061256,139.83871497504992,-0.0020138289639517,0.0024990548306386,,14957.496266617703,17020.816047025746,150,9,2025-09-12,2025-09-26 20:16:17.427,HA,C,157784544,HAWK11,1,1,73,2,1,1,225,2,1,0,0,12,1,225,2,1,-143411.71521170562,-4792378.800752486,4200038.147917271,-3.13076,2.42235,-0.515034,-100.5,64.125,57.5,-0.078125,-8.8125,7.4375,0.0332031,0.0351562,0.0527344,4,0,41.4092754965078,-91.71406203986912,16952.62613469572,-42.39706051895164,-5.125527529918123,36.14735420935249,172.76,14957.496266617703,17020.816047025746,150,False,21.803631435711225,False,168.83442646265698,174.7060874806309,False,6.132427859541975,True,False
9,1970-07-23 10:31:21.786413230,2025-09-12,2025-09-26 20:16:18.641,HA,C,2791249122,JASSM,3,115,76,2,2,1,225,9,2,0,1,26,0,0,0,0,-171564.60583670562,-4772418.934541549,4221067.288542271,-2.51439,-0.703138,0.607648,61.375,-51.875,-55.875,0.0,0.0,0.0,0.0,0.0,0.0,2,0,41.66437428489624,-92.05885038440714,15986.877205690991,139.83921901332303,-0.0011335375795524,0.0024973389489087,,14957.496266617703,17020.816047025746,150,9,2025-09-12,2025-09-26 20:16:18.631,HA,C,159335442,HAWK11,1,1,73,2,1,1,225,2,1,0,0,12,1,225,2,1,-143537.82068045562,-4792291.915010299,4200116.060026646,-3.06115,2.35466,-0.551179,-93.75,68.875,62.625,-0.265625,-9.79688,8.35938,0.0429688,0.0390625,0.0527344,4,0,41.4102955581905,-91.71559944192212,16917.289828780187,-38.456263935943575,-5.300445699496535,37.80550599025937,172.54,14957.496266617703,17020.816047025746,150,False,21.65911826348526,False,172.68694189533988,174.67007221423847,False,3.1911973804946423,True,False
9,1970-07-23 10:31:21.796053429,2025-09-12,2025-09-26 20:16:19.605,HA,C,2792501822,JASSM,3,115,76,2,2,1,225,9,2,0,1,26,0,0,0,0,-171500.17224295562,-4772473.567354049,4221008.534636021,-2.51439,-0.703138,0.607744,61.375,-51.875,-55.875,0.0,0.0,0.0,0.0,0.0,0.0,2,0,41.6636667096192,-92.0580542785877,15986.880858910852,139.84297290696617,-0.004658403670534,0.0024953856099978,,14957.496266617703,17020.816047025746,150,9,2025-09-12,2025-09-26 20:16:19.833,HA,C,160528440,HAWK11,1,1,73,2,1,1,225,2,1,0,0,12,1,225,2,1,-143628.86169608062,-4792220.372041549,4200181.507292271,-2.9951,2.30011,-0.578407,-87.75,72.5,67.125,-0.328125,-10.0625,8.46875,0.0234375,0.0332031,0.0351562,4,0,41.41114648649955,-91.7167125487476,16890.06814496991,-35.37847004540404,-5.387336800437691,39.63026358102688,172.149,14957.496266617703,17020.816047025746,150,False,21.532632092660684,False,175.68388360054504,174.6541999657172,False,3.737833388003264,True,False
9,1970-07-23 10:31:21.803212410,2025-09-12,2025-09-26 20:16:20.321,HA,C,2793635216,JASSM,3,115,76,2,2,1,225,9,2,0,1,26,0,0,0,0,-171441.87487967435,-4772522.993135299,4220955.374479771,-2.51439,-0.703138,0.607744,61.375,-51.875,-55.875,0.0,0.0,0.0,0.0,0.0,0.0,2,0,41.66302652854691,-92.05733400544884,15986.875205697088,139.8434517105093,-0.0038221202513932,0.0024937974189575,,14957.496266617703,17020.816047025746,150,9,2025-09-12,2025-09-26 20:16:20.131,HA,C,160886340,HAWK11,1,1,73,2,1,1,225,2,1,0,0,12,1,225,2,1,-143655.46130545562,-4792197.970674361,4200202.331511021,-2.98091,2.27969,-0.590679,-85.75,73.25,68.625,-0.375,-10.4219,8.71875,0.00585938,0.0546875,0.0429688,4,0,41.41141550233984,-91.71703830970505,16882.12527983906,-34.175195020259494,-5.283893508533151,39.6857082246724,172.112,14957.496266617703,17020.816047025746,150,False,21.46103994478021,False,176.50072626459445,174.63870965071453,False,4.443847256490162,True,False
9,1970-07-23 10:31:21.816036385,2025-09-12,2025-09-26 20:16:21.603,HA,C,2794887914,JASSM,3,115,76,2,2,1,225,9,2,0,1,26,0,0,0,0,-171377.44128592435,-4772577.622041549,4220896.620573521,-2.51439,-0.703138,0.607744,61.375,-51.875,-55.875,0.0,0.0,0.0,0.0,0.0,0.0,2,0,41.66231896594791,-92.05653793451344,15986.87966459961,139.84398089382356,-0.0028978173623443,0.0024920471131753,,14957.496266617703,17020.816047025746,150,9,2025-09-12,2025-09-26 20:16:22.241,HA,C,163590470,HAWK11,1,1,73,2,1,1,225,2,1,0,0,12,1,225,2,1,-143830.42810233062,-4792021.959932174,4200371.780729771,-2.83911,2.1214,-0.670254,-68.125,79.75,80.25,-0.34375,-11.7969,10.3281,0.0175781,0.0625,0.046875,4,0,41.413574587651205,-91.71919144742571,16829.88732756776,-25.54787852586956,-4.617069393932712,41.70637525771639,172.198,14957.496266617703,17020.816047025746,150,False,21.246228726871706,False,172.05884461925478,174.56147610159059,False,13.245021610893335,True,False
9,1970-07-23 10:31:21.826774844,2025-09-12,2025-09-26 20:16:22.677,HA,C,2796021308,JASSM,3,115,76,2,2,1,225,9,2,0,1,26,0,0,0,0,-171319.14392264312,-4772627.045869674,4220843.460417271,-2.51439,-0.703138,0.607744,61.375,-51.875,-55.875,0.0,0.0,0.0,0.0,0.0,0.0,2,0,41.66167878689628,-92.05581769225309,15986.878612935336,139.84445966413418,-0.0020615430731632,0.0024904659140672,,14957.496266617703,17020.816047025746,150,9,2025-09-12,2025-09-26 20:16:22.537,HA,C,163749536,HAWK11,1,1,73,2,1,1,225,2,1,0,0,12,1,225,2,1,-143839.82068045562,-4792009.677705611,4200383.515104771,-2.83077,2.11699,-0.671308,-66.875,80.375,81.25,-0.515625,-12.0156,10.25,0.0234375,0.0742188,0.0429688,4,0,41.4137251457576,-91.71930805267957,16825.840609318246,-25.34201042767112,-4.643240761101277,42.01060160754445,171.978,14957.496266617703,17020.816047025746,150,False,21.18631143920528,False,171.37026145116815,174.54117382147453,False,13.975908251315122,True,False
9,1970-07-23 10:31:21.833573459,2025-09-12,2025-09-26 20:16:23.357,HA,C,2797214354,JASSM,3,115,76,2,2,1,225,9,2,0,1,26,0,0,0,0,-171257.7784441275,-4772679.071260299,4220787.499479771,-2.51439,-0.703138,0.607744,61.375,-51.875,-55.875,0.0,0.0,0.0,0.0,0.0,0.0,2,0,41.66100488803272,-92.05505955978856,15986.87681516188,139.8449636148739,-0.0011812389256483,0.0024887867105834,,14957.496266617703,17020.816047025746,150,9,2025-09-12,2025-09-26 20:16:23.429,HA,C,164902768,HAWK11,1,1,73,2,1,1,225,2,1,0,0,12,1,225,2,1,-143899.38318045562,-4791930.512666549,4200464.692839146,-2.75474,2.02811,-0.710425,-57.25,82.375,86.375,-0.203125,-12.3594,10.6562,0.0195312,0.0664062,0.046875,4,0,41.41473314509672,-91.72004797030507,16811.72176842516,-20.84795172630207,-4.06734784183459,42.77864879322899,170.89,14957.496266617703,17020.816047025746,150,False,21.067766400842654,False,166.77520509037072,174.47431539439538,False,18.718581346939843,True,False
9,1970-07-23 10:31:21.844214279,2025-09-12,2025-09-26 20:16:24.421,HA,C,2798467048,JASSM,3,115,76,2,2,1,225,9,2,0,1,26,0,0,0,0,-171193.34460623687,-4772733.696260299,4220728.741667271,-2.51439,-0.703138,0.607744,61.375,-51.875,-55.875,0.0,0.0,0.0,0.0,0.0,0.0,2,0,41.66029730657586,-92.05426353740394,15986.878725629038,139.84549274485016,-0.0002569329273139,0.0024870351819098,,14957.496266617703,17020.816047025746,150,9,2025-09-12,2025-09-26 20:16:24.631,HA,C,166413900,HAWK11,1,1,73,2,1,1,225,2,1,0,0,12,1,225,2,1,-143962.45153983062,-4791824.602510299,4200578.136198521,-2.68562,1.90281,-0.756732,-43.5,84.0,92.125,-0.3125,-12.5312,10.7969,-0.119141,0.0625,0.0605469,4,0,41.41611730988832,-91.72083939215536,16802.12407457252,-14.946981793971275,-3.195531091562382,41.55352052080096,170.719,14957.496266617703,17020.816047025746,150,False,20.929174589548687,False,160.39594967029637,174.36635297800635,False,25.232544227492077,True,False
9,1970-07-23 10:31:21.856774100,2025-09-12,2025-09-26 20:16:25.677,HA,C,2799660090,JASSM,3,115,76,2,2,1,225,9,2,0,1,26,0,0,0,0,-171131.97912772125,-4772785.719697799,4220672.780729771,-2.51439,-0.703043,0.607744,61.375,-51.875,-55.875,0.0,0.0,0.0,0.0,0.0,0.0,2,0,41.65962340897224,-92.0535054381854,15986.88227034126,139.84234422447147,-0.0020239962991751,-0.000652265890634,,14957.496266617703,17020.816047025746,150,9,2025-09-12,2025-09-26 20:16:25.537,HA,C,167606900,HAWK11,1,1,73,2,1,1,225,2,1,0,0,12,1,225,2,1,-144000.26599295562,-4791740.230439986,4200672.852995396,-2.74209,1.80118,-0.789521,-33.375,83.5,96.5,-0.140625,-12.5469,11.1094,-0.0703125,0.0625,0.0292969,4,0,41.41725151162475,-91.72132142113324,16802.997089638367,-10.455553682633637,-2.3250251608050547,34.0329074163982,170.316,14957.496266617703,17020.816047025746,150,False,20.813681502693697,False,155.75854979670208,174.26021781996155,False,29.98103089224019,True,False
9,1970-07-23 10:31:21.863394454,2025-09-12,2025-09-26 20:16:26.339,HA,C,2800793486,JASSM,3,115,76,2,2,1,225,9,2,0,1,26,0,0,0,0,-171073.6827410025,-4772835.139619674,4220619.616667271,-2.51439,-0.703043,0.60784,61.375,-51.875,-55.875,0.0,0.0,0.0,0.0,0.0,0.0,2,0,41.6589832074994,-92.05278526938191,15986.881988341174,139.8460458341126,-0.0056339707624924,-0.0006541020289492,,14957.496266617703,17020.816047025746,150,9,2025-09-12,2025-09-26 20:16:26.427,HA,C,168521532,HAWK11,1,1,73,2,1,1,225,2,1,0,0,12,1,225,2,1,-144022.29919608062,-4791675.660127486,4200748.774870396,-2.71112,1.7542,-0.82068,-26.25,82.0,99.625,-0.1875,-12.1406,10.625,-0.0273438,0.0410156,0.0175781,4,0,41.41814392730131,-91.72160782400591,16810.615603449107,-8.304394921030841,-0.8954533810803796,33.80598440206444,169.925,14957.496266617703,17020.816047025746,150,False,20.71728546102532,False,152.49673461205603,174.16525913374676,False,33.331059704673905,False,False
9,1970-07-23 10:31:21.872352730,2025-09-12,2025-09-26 20:16:27.235,HA,C,2801867236,JASSM,3,115,76,2,2,1,225,9,2,0,1,26,0,0,0,0,-171018.45202811187,-4772881.957979049,4220569.245573521,-2.51439,-0.703043,0.60784,61.375,-51.875,-55.875,0.0,0.0,0.0,0.0,0.0,0.0,2,0,41.65837666568426,-92.05210298692224,15986.873141457812,139.84649934175812,-0.0048416760118406,-0.0006556177881384,,14957.496266617703,17020.816047025746,150,9,2025-09-12,2025-09-26 20:16:27.335,HA,C,169714530,HAWK11,1,1,73,2,1,1,225,2,1,0,0,12,1,225,2,1,-144043.25232108062,-4791594.090791549,4200849.364714146,-2.73192,1.66811,-0.840717,-17.875,80.25,102.125,-0.125,-11.0156,9.45312,-0.107422,0.0371094,0.0644531,4,0,41.41930408924584,-91.72188743611756,16829.897734997034,-4.859576593009166,-0.1790337414256892,28.93808235589225,169.692,14957.496266617703,17020.816047025746,150,False,20.61260173233579,False,148.71318822378865,174.03740208965056,False,37.23185873423095,False,False
9,1970-07-23 10:31:21.882694652,2025-09-12,2025-09-26 20:16:28.269,HA,C,2802940978,JASSM,3,115,76,2,2,1,225,9,2,0,1,26,0,0,0,0,-170963.222780065,-4772928.776338424,4220518.878386021,-2.51439,-0.703043,0.60784,61.375,-51.875,-55.875,0.0,0.0,0.0,0.0,0.0,0.0,2,0,41.6577701456978,-92.0514207348275,15986.876943059851,139.84695282380295,-0.004049409466647,-0.0006571268707846,,14957.496266617703,17020.816047025746,150,9,2025-09-12,2025-09-26 20:16:28.537,HA,C,171146130,HAWK11,1,1,73,2,1,1,225,2,1,0,0,12,1,225,2,1,-144058.84802420562,-4791498.584932174,4200972.636198521,-2.83278,1.5986,-0.867658,-11.25,76.5,105.5,-0.0625,-9.85938,8.75,-0.140625,0.0371094,0.0078125,4,0,41.42070113926101,-91.72210805861722,16863.752717371983,-2.1433707213885103,1.1803363982848598,20.179320260233908,168.984,14957.496266617703,17020.816047025746,150,False,20.500061603080653,False,145.52260502325117,173.8742985119797,False,40.552815830578645,False,False
9,1970-07-23 10:31:21.890356901,2025-09-12,2025-09-26 20:16:29.035,HA,C,2804074372,JASSM,3,115,76,2,2,1,225,9,2,0,1,26,0,0,0,0,-170904.92517264312,-4772978.194307174,4220465.710417271,-2.51429,-0.703043,0.60784,61.375,-51.875,-55.875,0.0,0.0,0.0,0.0,0.0,0.0,2,0,41.65712991663376,-92.05070059352023,15986.87615646808,139.84743148432463,-0.0032131209978253,0.0048327465517761,,14957.496266617703,17020.816047025746,150,9,2025-09-12,2025-09-26 20:16:29.132,HA,C,171623328,HAWK11,1,1,73,2,1,1,225,2,1,0,0,12,1,225,2,1,-144062.46325858062,-4791467.048799361,4201014.030729771,-2.8789,1.58968,-0.871013,-8.625,77.375,104.75,-0.0625,-9.32812,8.60938,-0.09375,0.015625,0.0117188,4,0,41.42116737598504,-91.72216257772756,16876.319019882667,-1.8062132444247536,1.359709341982304,17.154350186360883,168.629,14957.496266617703,17020.816047025746,150,False,20.42911030975426,False,144.4716869589285,173.80731809089886,False,41.6845396786385,False,False
9,1970-07-23 10:31:21.905294410,2025-09-12,2025-09-26 20:16:30.529,HA,C,2805207766,JASSM,3,115,76,2,2,1,225,9,2,0,1,26,0,0,0,0,-170846.62756522125,-4773027.610322799,4220412.542448521,-2.51429,-0.703043,0.60784,61.375,-51.875,-55.875,0.0,0.0,0.0,0.0,0.0,0.0,2,0,41.6564896946584,-92.04998046731504,15986.8750436109,139.8479101287727,-0.0023768417606757,0.0048311549028209,,14957.496266617703,17020.816047025746,150,9,2025-09-12,2025-09-26 20:16:30.631,HA,C,173532126,HAWK11,1,1,73,2,1,1,225,2,1,0,0,12,1,225,2,1,-144068.56872733062,-4791343.712861861,4201179.040495396,-2.80095,1.5313,-0.88923,-1.875,76.0,105.25,-0.140625,-7.59375,7.39062,0.0390625,0.0,0.0273438,4,0,41.4230132671279,-91.7222798263058,16931.65301585033,0.3410627470255928,2.3733198801150657,19.111268321188,168.055,14957.496266617703,17020.816047025746,150,False,20.298942489990655,False,141.4504403365308,173.57630380983645,False,44.93388014691543,False,False
9,1970-07-23 10:31:21.909394501,2025-09-12,2025-09-26 20:16:30.939,HA,C,2806341160,JASSM,3,115,76,2,2,1,225,9,2,0,1,26,0,0,0,0,-170788.32995779935,-4773077.026338424,4220359.374479771,-2.51429,-0.703043,0.60784,61.375,-51.875,-55.875,0.0,0.0,0.0,0.0,0.0,0.0,2,0,41.6558494681001,-92.04926035537297,15986.878388938194,139.84838875770535,-0.001540562430222,0.0048295632274932,,14957.496266617703,17020.816047025746,150,9,2025-09-12,2025-09-26 20:16:30.927,HA,C,174049092,HAWK11,1,1,73,2,1,1,225,2,1,0,0,12,1,225,2,1,-144069.08630545562,-4791310.311494674,4201224.245573521,-2.77593,1.51193,-0.887696,-0.375,76.125,105.125,-0.1875,-7.42188,7.20312,0.0273438,0.0117188,0.0390625,4,0,41.42351685858335,-91.72229800924588,16947.682005219733,1.0425487046939832,2.2959852628177573,19.71238637864542,167.957,14957.496266617703,17020.816047025746,150,False,20.22775184690481,False,140.80780032012214,173.49975422210156,False,45.656308147296606,False,False
9,1970-07-23 10:31:21.925134638,2025-09-12,2025-09-26 20:16:32.513,HA,C,2807474536,JASSM,3,115,76,2,2,1,225,9,2,0,1,26,0,0,0,0,-170730.03332694,-4773126.440400924,4220306.202604771,-2.51429,-0.703043,0.60784,61.375,-51.875,-55.875,0.0,0.0,0.0,0.0,0.0,0.0,2,0,41.655209222164416,-92.04854027023885,15986.872975405558,139.84886736278514,-0.0007042777422167,0.0048279548216236,,14957.496266617703,17020.816047025746,150,9,2025-09-12,2025-09-26 20:16:32.427,HA,C,175679524,HAWK11,1,1,73,2,1,1,225,2,1,0,0,12,1,225,2,1,-144065.34216483062,-4791205.354463424,4201365.206511021,-2.70594,1.44338,-0.888463,4.75,76.0,104.375,-0.1875,-7.09375,6.89062,-0.0527344,0.0117188,0.0253906,4,0,41.42509291637312,-91.72229098152364,16995.30398664185,3.517486922548692,2.4586499774940087,20.77738131562222,167.334,14957.496266617703,17020.816047025746,150,False,20.113190034271422,False,138.5808939062382,173.28710305896342,False,48.10388373735298,False,False
9,1970-07-23 10:31:21.929577031,2025-09-12,2025-09-26 20:16:32.957,HA,C,2808607942,JASSM,3,115,76,2,2,1,225,9,2,0,1,26,0,0,0,0,-170671.73498709625,-4773175.854463424,4220253.034636021,-2.51429,-0.703043,0.60784,61.375,-51.875,-55.875,0.0,0.0,0.0,0.0,0.0,0.0,2,0,41.65456899826918,-92.04782017887864,15986.880388275162,139.84934596596744,0.0001319965605295,0.0048263752565456,,14957.496266617703,17020.816047025746,150,9,2025-09-12,2025-09-26 20:16:33.037,HA,C,176474856,HAWK11,1,1,73,2,1,1,225,2,1,0,0,12,1,225,2,1,-144060.99060233062,-4791154.270479049,4201433.267057896,-2.78456,1.41721,-0.886545,7.0,76.0,103.75,0.03125,-6.85938,6.60938,-0.181641,-0.00195312,0.0253906,4,0,41.42585676435029,-91.72225734193614,17017.11350946707,4.470998630272658,2.42824801470826,15.150667941307626,167.028,14957.496266617703,17020.816047025746,150,False,20.03312803580533,False,137.6042143008584,173.17168584550467,False,49.200370979279896,False,False
9,1970-07-23 10:31:21.937292903,2025-09-12,2025-09-26 20:16:33.729,HA,C,2809681688,JASSM,3,115,76,2,2,1,225,9,2,0,1,26,0,0,0,0,-170616.50525076812,-4773222.666963424,4220202.659636021,-2.51429,-0.702947,0.60784,61.375,-51.875,-55.875,0.0,0.0,0.0,0.0,0.0,0.0,2,0,41.65396243506615,-92.04713800380696,15986.87787646632,139.84614958637368,-0.001721458872634,0.0016887266165681,,14957.496266617703,17020.816047025746,150,9,2025-09-12,2025-09-26 20:16:33.677,HA,C,176792990,HAWK11,1,1,73,2,1,1,225,2,1,0,0,12,1,225,2,1,-144058.98083670562,-4791133.230439986,4201460.815886021,-2.82272,1.40388,-0.88271,7.625,76.125,103.625,0.0,-6.70312,6.5625,-0.154297,0.00390625,0.0273438,4,0,41.42616814928041,-91.72224088809656,17025.031933637263,4.974300178634661,2.2570116135733578,12.394233467446226,166.76,14957.496266617703,17020.816047025746,150,False,19.97376722115087,False,137.33873575416143,173.1147776936148,False,49.52427583896077,False,False
9,1970-07-23 10:31:21.946294925,2025-09-12,2025-09-26 20:16:34.629,HA,C,2810755448,JASSM,3,115,76,2,2,1,225,9,2,0,1,26,0,0,0,0,-170561.27478201812,-4773269.479463424,4220152.284636021,-2.51429,-0.702947,0.607936,61.375,-51.875,-55.875,0.0,0.0,0.0,0.0,0.0,0.0,2,0,41.65335586790682,-92.04645583275467,15986.879301961288,139.8498281376183,-0.0053780055266709,0.0016869851840616,,14957.496266617703,17020.816047025746,150,9,2025-09-12,2025-09-26 20:16:34.537,HA,C,178304122,HAWK11,1,1,73,2,1,1,225,2,1,0,0,12,1,225,2,1,-144047.30700858062,-4791035.955049361,4201589.022917271,-2.86883,1.38777,-0.879738,10.125,76.75,102.25,-0.125,-6.32812,6.14062,-0.0351562,-0.0136719,-0.00976562,4,0,41.42761387377736,-91.72213635408758,17063.295380390497,5.57693436844069,2.152794745800592,9.06324768505289,166.21,14957.496266617703,17020.816047025746,150,True,19.870853926129275,False,136.28656801976442,172.90618478384772,False,50.79381171977936,False,False
9,1970-07-23 10:31:21.956310113,2025-09-12,2025-09-26 20:16:35.631,HA,C,2811948480,JASSM,3,115,76,2,2,1,225,9,2,0,1,26,0,0,0,0,-170499.90954764312,-4773321.489229049,4220096.311979771,-2.51429,-0.702947,0.607936,61.375,-51.875,-55.875,0.0,0.0,0.0,0.0,0.0,0.0,2,0,41.65268192087747,-92.04569790511076,15986.874702107612,139.8503318700478,-0.004497715889209,0.0016852963785114,,14957.496266617703,17020.816047025746,150,9,2025-09-12,2025-09-26 20:16:35.739,HA,C,179656186,HAWK11,1,1,73,2,1,1,225,2,1,0,0,12,1,225,2,1,-144034.86950858062,-4790947.171846236,4201703.413542271,-2.88666,1.37627,-0.86574,11.625,77.75,101.25,-0.03125,-5.78125,5.625,0.0390625,-0.0175781,0.0253906,4,0,41.42891600056985,-91.7220196406357,17092.40210402107,6.093035972406019,1.4079913331161815,7.552589008796349,166.087,14957.496266617703,17020.816047025746,150,True,19.769229150055175,False,135.68490584864793,172.71088650438395,False,51.59708853158795,False,False
9,1970-07-23 10:31:21.965298034,2025-09-12,2025-09-26 20:16:36.529,HA,C,2813022220,JASSM,3,115,76,2,2,1,225,9,2,0,1,26,0,0,0,0,-170444.6807878775,-4773368.297822799,4220045.936979771,-2.51429,-0.702947,0.607936,61.375,-51.875,-55.875,0.0,0.0,0.0,0.0,0.0,0.0,2,0,41.652075368013705,-92.04501578323872,15986.875154724898,139.85078521487165,-0.0037054577923083,0.0016837791674373,,14957.496266617703,17020.816047025746,150,9,2025-09-12,2025-09-26 20:16:36.631,HA,C,180849186,HAWK11,1,1,73,2,1,1,225,2,1,0,0,12,1,225,2,1,-144022.48864920562,-4790867.655244674,4201803.032682896,-2.78178,1.35661,-0.852702,13.25,79.25,99.5,-0.015625,-5.51562,5.4375,0.0664062,-0.0214844,0.00390625,4,0,41.430063334915005,-91.72190027108104,17112.23984234919,6.919533380215188,0.7640685250692077,12.724963875056718,165.452,14957.496266617703,17020.816047025746,150,False,19.679435527230012,False,135.03941844635682,172.53543978454903,False,52.42384362638058,False,False
9,1970-07-23 10:31:21.977154229,2025-09-12,2025-09-26 20:16:37.715,HA,C,2814334570,JASSM,3,115,76,2,2,1,225,9,2,0,1,26,0,0,0,0,-170377.17712576812,-4773425.508760299,4219984.366667271,-2.51429,-0.702947,0.607936,61.375,-51.875,-55.875,0.0,0.0,0.0,0.0,0.0,0.0,2,0,41.65133401200526,-92.04418207380974,15986.88015091012,139.85133929890227,-0.0027371253419384,0.0016819323208573,,14957.496266617703,17020.816047025746,150,9,2025-09-12,2025-09-26 20:16:37.537,HA,C,181604752,HAWK11,1,1,73,2,1,1,225,2,1,0,0,12,1,225,2,1,-144013.83044608062,-4790817.029268111,4201864.577604771,-2.76682,1.35096,-0.839663,14.375,80.375,98.625,-0.125,-5.39062,5.40625,-0.0351562,-0.0195312,0.0136719,4,0,41.43078126822309,-91.72181500165848,17120.736080473194,7.236444026679322,0.0549473076419389,13.341506265643028,165.085,14957.496266617703,17020.816047025746,150,False,19.595637783924822,False,134.59039048727232,172.4130016425137,False,52.99657280108128,False,False
9,1970-07-23 10:31:21.987352736,2025-09-12,2025-09-26 20:16:38.735,HA,C,2815587270,JASSM,3,115,76,2,2,1,225,9,2,0,1,26,0,0,0,0,-170312.74255545562,-4773480.116182174,4219925.593229771,-2.51429,-0.702947,0.607936,61.375,-51.875,-55.875,0.0,0.0,0.0,0.0,0.0,0.0,2,0,41.650626354209095,-92.04338628830251,15986.879294441653,139.8518681711127,-0.0018128173444976,0.0016801673916567,,14957.496266617703,17020.816047025746,150,9,2025-09-12,2025-09-26 20:16:38.833,HA,C,183354482,HAWK11,1,1,73,2,1,1,225,2,1,0,0,12,1,225,2,1,-143990.78357108062,-4790696.815400924,4202005.435026646,-2.85972,1.31079,-0.813681,16.75,82.625,96.5,0.28125,-5.32812,5.32812,-0.109375,-0.015625,0.00976562,4,0,41.43245083708216,-91.72158279426787,17129.268357402583,9.00895357772698,-1.1700809501844154,6.307926056011708,165.0,14957.496266617703,17020.816047025746,150,True,19.48099756389962,False,133.60588466685385,172.1537683938925,False,54.23699798127527,False,False
9,1970-07-23 10:31:21.997335044,2025-09-12,2025-09-26 20:16:39.733,HA,C,2816780318,JASSM,3,115,76,2,2,1,225,9,2,0,1,26,0,0,0,0,-170251.3761003775,-4773532.123994674,4219869.616667271,-2.51429,-0.702947,0.607936,61.375,-51.875,-55.875,0.0,0.0,0.0,0.0,0.0,0.0,2,0,41.6499523722918,-92.04262841084986,15986.881291914751,139.8523718431017,-0.0009325096884282,0.0016784771097898,,14957.496266617703,17020.816047025746,150,9,2025-09-12,2025-09-26 20:16:39.953,HA,C,184467948,HAWK11,1,1,73,2,1,1,225,2,1,0,0,12,1,225,2,1,-143974.73474295562,-4790617.776338424,4202094.663542271,-2.94275,1.3175,-0.803422,17.5,84.375,95.375,0.09375,-5.71875,5.57812,-0.0507812,-0.0078125,-0.0117188,4,0,41.433525894989096,-91.72141941036227,17127.476068785734,8.846314509358612,-1.793104137562114,1.8332255741079488,164.633,14957.496266617703,17020.816047025746,150,True,19.390945595227222,False,133.32379773500693,171.97708334409026,False,54.689341264847634,False,False
9,1970-07-23 10:31:22.008299523,2025-09-12,2025-09-26 20:16:40.829,HA,C,2818092668,JASSM,3,115,76,2,2,1,225,9,2,0,1,26,0,0,0,0,-170183.87317069,-4773589.329072799,4219808.038542271,-2.51429,-0.702947,0.607936,61.375,-51.875,-55.875,0.0,0.0,0.0,0.0,0.0,0.0,2,0,41.64921098103012,-92.0417947674508,15986.872079545325,139.8529258600786,3.583118531036578e-05,0.0016766123267862,,14957.496266617703,17020.816047025746,150,9,2025-09-12,2025-09-26 20:16:40.927,HA,C,185899546,HAWK11,1,1,73,2,1,1,225,2,1,0,0,12,1,225,2,1,-143953.63122733062,-4790515.311494674,4202206.813932896,-2.96547,1.31894,-0.794123,18.0,86.375,94.375,-0.046875,-6.03125,5.85938,0.0214844,-0.00585938,0.00390625,4,0,41.4348958661127,-91.72120403217092,17117.490748201642,8.878012124027157,-2.3267250428334534,0.5893076162332193,164.316,14957.496266617703,17020.816047025746,150,True,19.2857958961647,False,133.15600159382763,171.75303069819495,False,55.071067346352834,False,False
9,1970-07-23 10:31:22.018270875,2025-09-12,2025-09-26 20:16:41.827,HA,C,2819345368,JASSM,3,115,76,2,2,1,225,9,2,0,1,26,0,0,0,0,-170119.43835623687,-4773643.934541549,4219749.261198521,-2.51429,-0.702947,0.608032,61.375,-51.875,-55.875,0.0,0.0,0.0,0.0,0.0,0.0,2,0,41.64850329190749,-92.04099903210516,15986.8742383499,139.85667783574735,-0.0034859154234083,0.0016747680793178,,14957.496266617703,17020.816047025746,150,9,2025-09-12,2025-09-26 20:16:41.833,HA,C,186774412,HAWK11,1,1,73,2,1,1,225,2,1,0,0,12,1,225,2,1,-143940.17028983062,-4790451.006807174,4202276.003386021,-2.94505,1.30973,-0.79604,18.25,87.125,94.25,-0.109375,-6.67188,6.54688,-0.0371094,0.0,0.0175781,4,0,41.43574761801941,-91.72106626972648,17108.62265698114,9.223847151611764,-2.155379043537853,1.3693742445206911,164.45,14957.496266617703,17020.816047025746,150,True,19.20160776900623,False,133.07358645838954,171.6037428443478,False,55.29924722321342,False,False
9,1970-07-23 10:31:22.029232663,2025-09-12,2025-09-26 20:16:42.923,HA,C,2820598064,JASSM,3,115,76,2,2,1,225,9,2,0,1,26,0,0,0,0,-170055.00354178375,-4773698.538057174,4219690.483854771,-2.51429,-0.702851,0.608032,61.375,-51.875,-55.875,0.0,0.0,0.0,0.0,0.0,0.0,2,0,41.6477956088593,-92.04020331501044,15986.87705820408,139.85355521985676,-0.0052088345792226,-0.001465669199725,,14957.496266617703,17020.816047025746,150,9,2025-09-12,2025-09-26 20:16:43.037,HA,C,188365078,HAWK11,1,1,73,2,1,1,225,2,1,0,0,12,1,225,2,1,-143915.98669608062,-4790334.676729049,4202400.472136021,-3.03469,1.30734,-0.794027,18.375,88.0,94.625,0.125,-6.6875,6.64062,-0.0390625,-0.00195312,0.0,4,0,41.43728373838742,-91.7208190475879,17091.08845013725,9.33873174501296,-2.2508512395452747,-3.869118704715032,164.218,14957.496266617703,17020.816047025746,150,True,19.09403976012305,False,133.07313670437344,171.3515666076787,False,55.550009284658785,False,False
9,1970-07-23 10:31:22.039213154,2025-09-12,2025-09-26 20:16:43.921,HA,C,2821791112,JASSM,3,115,76,2,2,1,225,9,2,0,1,26,0,0,0,0,-169993.63708670562,-4773750.540010299,4219634.503386021,-2.51419,-0.702851,0.608032,61.375,-51.875,-55.875,0.0,0.0,0.0,0.0,0.0,0.0,2,0,41.64712161437439,-92.03944550641124,15986.876931014993,139.85405881821083,-0.0043285343958149,0.0040377704984817,,14957.496266617703,17020.816047025746,150,9,2025-09-12,2025-09-26 20:16:43.926,HA,C,189558076,HAWK11,1,1,73,2,1,1,225,2,1,0,0,12,1,225,2,1,-143898.01403983062,-4790246.300752486,4202494.419401646,-3.0647,1.32095,-0.798533,17.875,88.625,94.875,-0.046875,-6.95312,6.75,-0.101562,0.00195312,-0.0195312,4,0,41.43844653357791,-91.72063600038094,17076.479303294196,8.7571954686458,-2.087156176687608,-5.008882628893796,164.316,14957.496266617703,17020.816047025746,150,True,19.002037783148207,False,133.32677801515877,171.1541083910969,False,55.492412439296714,False,False
9,1970-07-23 10:31:22.049352266,2025-09-12,2025-09-26 20:16:44.935,HA,C,2823043810,JASSM,3,115,76,2,2,1,225,9,2,0,1,26,0,0,0,0,-169929.2022722525,-4773805.139619674,4219575.722136021,-2.51419,-0.702851,0.608032,61.375,-51.875,-55.875,0.0,0.0,0.0,0.0,0.0,0.0,2,0,41.646413917480565,-92.03864982498534,15986.872296731712,139.85458757758724,-0.0034042215053591,0.0040359945017996,,14957.496266617703,17020.816047025746,150,9,2025-09-12,2025-09-26 20:16:44.833,HA,C,190472708,HAWK11,1,1,73,2,1,1,225,2,1,0,0,12,1,225,2,1,-143884.57068045562,-4790177.680635299,4202567.173307896,3.12481,1.33236,-0.805532,17.125,89.125,95.0,-0.09375,-7.09375,6.85938,-0.0527344,0.00195312,0.00585938,4,0,41.43934800753804,-91.72049998160696,17064.762669605254,8.244418971086995,-1.7628118927681165,-9.888574978537594,164.316,14957.496266617703,17020.816047025746,150,True,18.916365379683313,False,133.67600348165578,170.99331773016465,False,55.30241547538934,False,False
9,1970-07-23 10:31:22.060331753,2025-09-12,2025-09-26 20:16:46.033,HA,C,2824296508,JASSM,3,115,76,2,2,1,225,9,2,0,1,26,0,0,0,0,-169864.76721365875,-4773859.739229049,4219516.940886021,-2.51419,-0.702851,0.608032,61.375,-51.875,-55.875,0.0,0.0,0.0,0.0,0.0,0.0,2,0,41.64570621504352,-92.0378541580471,15986.873087353712,139.85511631996343,-0.0024799071303971,0.0040342201780297,,14957.496266617703,17020.816047025746,150,9,2025-09-12,2025-09-26 20:16:45.833,HA,C,191824774,HAWK11,1,1,73,2,1,1,225,2,1,0,0,12,1,225,2,1,-143866.29138358062,-4790076.978486861,4202673.938932896,3.06835,1.3547,-0.810325,15.375,89.625,95.75,-0.140625,-7.07812,6.85938,-0.0351562,0.0,-0.0234375,4,0,41.44067067059042,-91.72031768210653,17047.67815005676,7.328974583097941,-1.6197947874003489,-12.171769642110306,164.401,14957.496266617703,17020.816047025746,150,False,18.815880116413663,False,134.47947042936718,170.7690177905077,False,54.72483477768205,False,False
9,1970-07-23 10:31:22.070312248,2025-09-12,2025-09-26 20:16:47.031,HA,C,2825549208,JASSM,3,115,76,2,2,1,225,9,2,0,1,26,0,0,0,0,-169800.332155065,-4773914.338838424,4219458.159636021,-2.51419,-0.702851,0.608032,61.375,-51.875,-55.875,0.0,0.0,0.0,0.0,0.0,0.0,2,0,41.64499850701196,-92.03705850852278,15986.879324177977,139.855645043395,-0.0015555926416378,0.0040324458220342,,14957.496266617703,17020.816047025746,150,9,2025-09-12,2025-09-26 20:16:47.037,HA,C,193137072,HAWK11,1,1,73,2,1,1,225,2,1,0,0,12,1,225,2,1,-143850.60974295562,-4789977.685518111,4202778.880339146,3.03709,1.38835,-0.814927,13.25,90.375,96.25,-0.1875,-7.23438,7.01562,0.0371094,0.00976562,-0.0136719,4,0,41.441972181022365,-91.72016591327508,17030.29961909058,5.980165268571187,-1.5244070015499287,-12.525437565816423,164.499,14957.496266617703,17020.816047025746,150,False,18.715474909295388,False,135.43447530935285,170.5479730624341,False,53.98997098794965,False,False
9,1970-07-23 10:31:22.081271607,2025-09-12,2025-09-26 20:16:48.127,HA,C,2826801906,JASSM,3,115,76,2,2,1,225,9,2,0,1,26,0,0,0,0,-169735.89709647125,-4773968.934541549,4219399.374479771,-2.51419,-0.702851,0.608032,61.375,-51.875,-55.875,0.0,0.0,0.0,0.0,0.0,0.0,2,0,41.64429079046252,-92.0362628780768,15986.872920082307,139.85617374677622,-0.0006312766064523,0.0040306685977522,,14957.496266617703,17020.816047025746,150,9,2025-09-12,2025-09-26 20:16:48.239,HA,C,194648204,HAWK11,1,1,73,2,1,1,225,2,1,0,0,12,1,225,2,1,-143835.29333670562,-4789862.257783736,4202901.300261021,-3.10765,1.41366,-0.82624,11.375,90.75,97.125,-0.0625,-7.54688,7.26562,0.119141,0.0078125,-0.00390625,4,0,41.443487536024655,-91.72002429351105,17011.250706351784,4.928991650400133,-0.9815508026890782,-3.50936644604163,164.584,14957.496266617703,17020.816047025746,150,True,18.606695679822412,False,136.27479885761903,170.29545890192352,False,53.40503283112602,False,False
9,1970-07-23 10:31:22.093589934,2025-09-12,2025-09-26 20:16:49.358,HA,C,2828054606,JASSM,3,115,76,2,2,1,225,9,2,0,1,26,0,0,0,0,-169671.4620378775,-4774023.532197799,4219340.589323521,-2.51419,-0.702851,0.608032,61.375,-51.875,-55.875,0.0,0.0,0.0,0.0,0.0,0.0,2,0,41.643583056649625,-92.03546726421088,15986.876747754046,139.85670243176727,0.0002930488641931,0.004028884293546,,14957.496266617703,17020.816047025746,150,9,2025-09-12,2025-09-26 20:16:49.427,HA,C,196000270,HAWK11,1,1,73,2,1,1,225,2,1,0,0,12,1,225,2,1,-143823.05505545562,-4789760.405244674,4203010.110807896,-3.06029,1.40829,-0.837937,11.0,90.25,97.875,-0.28125,-7.64062,7.29688,0.0175781,0.00390625,0.0175781,4,0,41.44482976233213,-91.7199145831067,16996.260080090073,5.07019551438444,-0.2931040027151911,-1.0247190570579368,164.865,14957.496266617703,17020.816047025746,150,True,18.50388243018284,False,136.44266703292112,170.0672768065723,False,53.471473095056254,False,False
9,1970-07-23 10:31:22.102374000,2025-09-12,2025-09-26 20:16:50.237,HA,C,2829366958,JASSM,3,115,76,2,2,1,225,9,2,0,1,26,0,0,0,0,-169603.95849783844,-4774080.725557174,4219279.003386021,-2.51419,-0.702851,0.608128,61.375,-51.875,-55.875,0.0,0.0,0.0,0.0,0.0,0.0,2,0,41.64284163025773,-92.03463378268658,15986.873087552323,139.86048168006465,-0.0031872761051409,0.0040269704467525,,14957.496266617703,17020.816047025746,150,9,2025-09-12,2025-09-26 20:16:50.333,HA,C,197193268,HAWK11,1,1,73,2,1,1,225,2,1,0,0,12,1,225,2,1,-143812.07458670562,-4789669.958955611,4203107.854948521,-3.08637,1.39995,-0.840334,10.875,90.125,98.625,-0.125,-7.39062,7.04688,-0.0957031,-0.00390625,-0.00976562,4,0,41.44602924352785,-91.71981580775297,16985.37973224844,5.373858274453679,-0.1226878663458053,-2.8755214175768398,165.415,14957.496266617703,17020.816047025746,150,True,18.40389177893734,False,136.51074587614443,169.85638779878346,False,53.618025746276025,False,False
9,1970-07-23 10:31:22.114531258,2025-09-12,2025-09-26 20:16:51.453,HA,C,2830619656,JASSM,3,115,76,2,2,1,225,9,2,0,1,26,0,0,0,0,-169539.52331717435,-4774135.319307174,4219220.218229771,-2.51419,-0.702755,0.608128,61.375,-51.875,-55.875,0.0,0.0,0.0,0.0,0.0,0.0,2,0,41.64213390835481,-92.03383820467324,15986.878485229863,139.85736157149728,-0.0049085776433987,0.0008880293546328,,14957.496266617703,17020.816047025746,150,9,2025-09-12,2025-09-26 20:16:51.239,HA,C,198187434,HAWK11,1,1,73,2,1,1,225,2,1,0,0,12,1,225,2,1,-143803.10583670562,-4789593.796846236,4203190.472136021,3.13459,1.41203,-0.83995,10.375,90.25,99.0,-0.125,-7.23438,6.96875,-0.0214844,-0.00390625,0.00195312,4,0,41.44704133079456,-91.71973594658613,16976.918066228103,4.916570915821487,-0.1900627104905093,-5.923826591339098,166.039,14957.496266617703,17020.816047025746,150,True,18.31327988411421,False,136.73508134036044,169.67332946212585,False,53.57785403954593,False,False
9,1970-07-23 10:31:22.127271923,2025-09-12,2025-09-26 20:16:52.727,HA,C,2831932006,JASSM,3,115,76,2,2,1,225,9,2,0,1,26,0,0,0,0,-169472.0197771353,-4774192.510713424,4219158.628386021,-2.51419,-0.702755,0.608128,61.375,-51.875,-55.875,0.0,0.0,0.0,0.0,0.0,0.0,2,0,41.64139245536949,-92.03300476132809,15986.873206396787,139.85791537066692,-0.0039402370746549,0.0008861526083105,,14957.496266617703,17020.816047025746,150,9,2025-09-12,2025-09-26 20:16:52.738,HA,C,199778100,HAWK11,1,1,73,2,1,1,225,2,1,0,0,12,1,225,2,1,-143790.27771170562,-4789473.349580611,4203321.685026646,3.08014,1.43485,-0.841388,8.875,90.625,99.625,-0.0625,-7.51562,7.20312,0.00976562,0.0,-0.0175781,4,0,41.44864542172467,-91.71962584630096,16964.859737361356,4.040811940014154,-0.1829000230063261,-8.066915795156314,166.674,14957.496266617703,17020.816047025746,150,True,18.1987177886987,False,137.39266855633332,169.3982685151759,False,53.19650164015337,False,False
9,1970-07-23 10:31:22.146357429,2025-09-12,2025-09-26 20:16:54.635,HA,C,2833244358,JASSM,3,115,76,2,2,1,225,9,2,0,1,26,0,0,0,0,-169404.51599295562,-4774249.702119674,4219097.042448521,-2.51419,-0.702755,0.608128,61.375,-51.875,-55.875,0.0,0.0,0.0,0.0,0.0,0.0,2,0,41.64065102256088,-92.03217133416386,15986.882399247552,139.85846915099205,-0.0029719150875858,0.0008842944633699,,14957.496266617703,17020.816047025746,150,9,2025-09-12,2025-09-26 20:16:54.955,HA,C,201686896,HAWK11,1,1,73,2,1,1,225,2,1,0,0,12,1,225,2,1,-143777.60388358062,-4789327.768525924,4203482.065886021,3.10171,1.45172,-0.849442,7.0,90.375,100.75,-0.125,-7.48438,7.17188,0.0175781,0.0,-0.0078125,4,0,41.45059578978899,-91.71952660307532,16954.398622083183,3.367534464668682,0.2324411711108629,-6.107792234583047,167.212,14957.496266617703,17020.816047025746,150,True,18.071088322278314,False,138.1958108466319,169.06975372431083,False,52.72669489115701,False,False
9,1970-07-23 10:31:22.146890485,2025-09-12,2025-09-26 20:16:54.689,HA,C,2834556710,JASSM,3,115,76,2,2,1,225,9,2,0,1,26,0,0,0,0,-169337.01233084625,-4774306.889619674,4219035.452604771,-2.51419,-0.702755,0.608128,61.375,-51.875,-55.875,0.0,0.0,0.0,0.0,0.0,0.0,2,0,41.6399095806613,-92.03133792923032,15986.879492772425,139.85902290845485,-0.0020035922235228,0.0008824325944051,,14957.496266617703,17020.816047025746,150,9,2025-09-12,2025-09-26 20:16:54.955,HA,C,201686896,HAWK11,1,1,73,2,1,1,225,2,1,0,0,12,1,225,2,1,-143777.60388358062,-4789327.768525924,4203482.065886021,3.10171,1.45172,-0.849442,7.0,90.375,100.75,-0.125,-7.48438,7.17188,0.0175781,0.0,-0.0078125,4,0,41.45059578978899,-91.71952660307532,16954.398622083183,3.367534464668682,0.2324411711108629,-6.107792234583047,167.212,14957.496266617703,17020.816047025746,150,True,18.014154488301884,False,138.1958108466319,169.03457386581334,False,52.761854526076746,False,False
9,1970-07-23 10:31:22.167648703,2025-09-12,2025-09-26 20:16:56.764,HA,C,2835928710,JASSM,3,115,76,2,2,1,225,9,2,0,1,26,0,0,0,0,-169266.44030936187,-4774366.676729049,4218971.058073521,-2.51419,-0.702755,0.608128,61.375,-51.875,-55.875,0.0,0.0,0.0,0.0,0.0,0.0,2,0,41.639134394614885,-92.03046666247346,15986.872054483943,139.85960181462602,-0.0009912271736674,0.0008804631750701,,14957.496266617703,17020.816047025746,150,9,2025-09-12,2025-09-26 20:16:56.673,HA,C,204351260,HAWK11,1,1,73,2,1,1,225,2,1,0,0,12,1,225,2,1,-143765.39294608062,-4789126.672822799,4203706.061979771,2.92808,1.48748,-0.85251,3.625,90.0,101.375,0.140625,-7.5625,6.32812,-0.101562,0.0,-0.0195312,4,0,41.45330551736783,-91.71945280602588,16945.7153388659,2.0093862640210203,0.3386621808124485,-14.521874261938764,167.297,14957.496266617703,17020.816047025746,150,False,17.855233574014367,False,139.61747388253167,168.58698672433547,False,51.79096212549057,False,False
9,1970-07-23 10:31:22.170782568,2025-09-12,2025-09-26 20:16:57.078,HA,C,2837181410,JASSM,3,115,76,2,2,1,225,9,2,0,1,26,0,0,0,0,-169202.00476248687,-4774421.264619674,4218912.265104771,-2.51419,-0.702755,0.608128,61.375,-51.875,-55.875,0.0,0.0,0.0,0.0,0.0,0.0,2,0,41.63842662597145,-92.0296711737524,15986.874559769252,139.8601303629682,-6.6904592813112e-05,0.0008786765922682,,14957.496266617703,17020.816047025746,150,9,2025-09-12,2025-09-26 20:16:57.239,HA,C,205345426,HAWK11,1,1,73,2,1,1,225,2,1,0,0,12,1,225,2,1,-143763.23474295562,-4789050.582979049,4203790.722136021,2.89951,1.50704,-0.853948,1.625,90.0,101.25,0.0,-7.73438,6.48438,0.0292969,-0.00195312,-0.0214844,4,0,41.45432973601361,-91.71945431149304,16942.418057945022,1.2702257193782889,0.3980059581017453,-15.319278097986995,167.346,14957.496266617703,17020.816047025746,150,False,17.762644704075036,False,140.46261418938133,168.39725324054578,False,51.135550392942186,False,False
