Subject_cm,Timestamp,SampleDate_cm,SampleTime_cm,Configuration_cm,Scenario_cm,DisTime_cm,MarkingTxt_cm,Application_cm,EntId_cm,Site_cm,ExerciseId_cm,ForceId_cm,Category_cm,Country_cm,Domain_cm,Kind_cm,Extra_cm,Specific_cm,Subcategory_cm,AltCategory_cm,AltCountry_cm,AltDomain_cm,AltKind_cm,ECEF_X_cm,ECEF_Y_cm,ECEF_Z_cm,OriPhi_cm,OriPsi_cm,OriTheta_cm,LinVelX_cm,LinVelY_cm,LinVelZ_cm,LinAccX_cm,LinAccY_cm,LinAccZ_cm,AngVelX_cm,AngVelY_cm,AngVelZ_cm,DrAlg_cm,Appearance_cm,Latitude_cm,Longitude_cm,Altitude_cm,Heading_cm,Pitch_cm,Roll_cm,CalibratedAirspeed_cm,CM_Altitude_Lead_cm,CM_Altitude_Wing_cm,CM_Airspeed_cm,Subject_ac,SampleDate_ac,SampleTime_ac,Configuration_ac,Scenario_ac,DisTime_ac,MarkingTxt_ac,Application_ac,EntId_ac,Site_ac,ExerciseId_ac,ForceId_ac,Category_ac,Country_ac,Domain_ac,Kind_ac,Extra_ac,Specific_ac,Subcategory_ac,AltCategory_ac,AltCountry_ac,AltDomain_ac,AltKind_ac,ECEF_X_ac,ECEF_Y_ac,ECEF_Z_ac,OriPhi_ac,OriPsi_ac,OriTheta_ac,LinVelX_ac,LinVelY_ac,LinVelZ_ac,LinAccX_ac,LinAccY_ac,LinAccZ_ac,AngVelX_ac,AngVelY_ac,AngVelZ_ac,DrAlg_ac,Appearance_ac,Latitude_ac,Longitude_ac,Altitude_ac,Heading_ac,Pitch_ac,Roll_ac,CalibratedAirspeed_ac,CM_Altitude_Lead_ac,CM_Altitude_Wing_ac,CM_Airspeed_ac,Bank_Angle_Condition,distance_nm,Distance_Condition,angle_between_vel,angle_between_pos,Cone_Condition,angle_between_pos_nose,Nose_Cone_Condition,Intercept_Criteria
9,1970-07-23 10:31:35.636138955,2025-09-12,2025-09-26 20:39:23.613,AA,C,148949452,JASSM,3,138,76,2,2,1,225,9,2,0,1,26,0,0,0,0,-180420.9652117056,-4778048.790010299,4211620.144011021,-2.36693,-0.400848,0.381098,77.5,-32.75,-33.625,0.0,0.0,0.0,0.0,0.0,0.0,2,0,41.5652522710116,-92.16248333405773,10002.624919659944,119.80378146553144,-0.0052841827487949,0.0045501128500441,,8790.15738098984,10980.456319326084,150,9,2025-09-12,2025-09-26 20:39:23.790,AA,C,2492012092,AMBUSH51,1,1,48,2,1,1,225,2,1,0,0,9,1,225,2,1,-146711.09318696844,-4792379.41458359,4196160.496716807,2.36294,2.85252,-0.292417,-88.5701,32.2652,32.2032,-0.0513334,-7.40312,6.36888,0.104844,0.00721862,-0.0002091,4,0,41.38250264319473,-91.753471759552,8787.323322045384,-67.78392630783317,0.3969789970796955,1.8894154621154216,171.623,8790.15738098984,10980.456319326084,150,True,21.38621895127468,False,176.0133778584028,178.8959465959241,False,4.908979697867631,True,False
9,1970-07-23 10:31:35.645137806,2025-09-12,2025-09-26 20:39:24.513,AA,C,150023194,JASSM,3,138,76,2,2,1,225,9,2,0,1,26,0,0,0,0,-180351.1878679556,-4778078.370088424,4211589.778776646,-2.36693,-0.400848,0.381098,77.5,-32.75,-33.625,0.0,0.0,0.0,0.0,0.0,0.0,2,0,41.56488703475368,-92.1616344231336,10002.625322735024,119.804344692733,-0.0045515020510504,0.0045488821179009,,8790.15738098984,10980.456319326084,150,9,2025-09-12,2025-09-26 20:39:24.590,AA,C,2492966490,AMBUSH51,1,1,48,2,1,1,225,2,1,0,0,9,1,225,2,1,-146781.85459041042,-4792353.769118738,4196186.105124617,2.42088,2.85671,-0.293075,-88.276,32.3862,32.4787,-0.298097,-7.54086,6.55494,0.0578561,-0.00186317,0.00331959,4,0,41.38281520746765,-91.75432634427976,8785.09648385625,-67.9153023681113,0.5905475900062085,5.276954970346863,171.281,8790.15738098984,10980.456319326084,150,True,21.29980008410361,False,176.23962802216775,178.88505976262542,False,4.691147295381407,True,False
9,1970-07-23 10:31:35.655459720,2025-09-12,2025-09-26 20:39:25.545,AA,C,151156588,JASSM,3,138,76,2,2,1,225,9,2,0,1,26,0,0,0,0,-180277.53357108065,-4778109.590791549,4211557.727995396,-2.36693,-0.400848,0.381098,77.5,-32.75,-33.625,0.0,0.0,0.0,0.0,0.0,0.0,2,0,41.56450152654944,-92.16073835689272,10002.625840367671,119.80493920167648,-0.003778127055598,0.0045476068301472,,8790.15738098984,10980.456319326084,150,9,2025-09-12,2025-09-26 20:39:25.490,AA,C,2494040190,AMBUSH51,1,1,48,2,1,1,225,2,1,0,0,9,1,225,2,1,-146861.18176077964,-4792324.34683612,4196215.399332773,2.44374,2.84684,-0.303459,-87.8007,32.8401,33.0948,-0.130641,-7.52794,6.57603,0.00793435,0.00293676,0.02362,4,0,41.38317355580105,-91.75528463375602,8782.220231212868,-67.11228195814198,0.6089395427890169,6.429006148664538,171.012,8790.15738098984,10980.456319326084,150,True,21.205539597689032,False,176.75678805557598,178.87359985677224,False,4.189616770716822,True,False
9,1970-07-23 10:31:35.663139217,2025-09-12,2025-09-26 20:39:26.313,AA,C,152230330,JASSM,3,138,76,2,2,1,225,9,2,0,1,26,0,0,0,0,-180207.75622733065,-4778139.168916549,4211527.360807896,-2.36693,-0.400848,0.381098,77.5,-32.75,-33.625,0.0,0.0,0.0,0.0,0.0,0.0,2,0,41.5641362758635,-92.15988946650424,10002.624241997471,119.8055024068987,-0.0030454460903979,0.0045463744141711,,8790.15738098984,10980.456319326084,150,9,2025-09-12,2025-09-26 20:39:26.324,AA,C,2495034354,AMBUSH51,1,1,48,2,1,1,225,2,1,0,0,9,1,225,2,1,-146934.15847699306,-4792296.795941108,4196243.119559622,2.44567,2.83813,-0.312162,-87.2571,33.4347,33.6659,-0.0862495,-7.61755,6.56607,-0.0186244,0.000225745,0.0152331,4,0,41.383511295713056,-91.7561663951358,8780.059605538738,-66.42361558099259,0.6097326447809714,6.395734371751309,171.232,8790.15738098984,10980.456319326084,150,True,21.11729892663118,False,177.32007733465048,178.86388724537446,False,3.6568343650270654,True,False
9,1970-07-23 10:31:35.672139241,2025-09-12,2025-09-26 20:39:27.213,AA,C,153304072,JASSM,3,138,76,2,2,1,225,9,2,0,1,26,0,0,0,0,-180137.97888358062,-4778168.745088424,4211496.995573521,-2.36693,-0.400848,0.381098,77.5,-32.75,-33.625,0.0,0.0,0.0,0.0,0.0,0.0,2,0,41.56377104369214,-92.15904058655843,10002.625529230145,119.806065601127,-0.0023127779805199,0.0045451631664254,,8790.15738098984,10980.456319326084,150,9,2025-09-12,2025-09-26 20:39:27.223,AA,C,2496108054,AMBUSH51,1,1,48,2,1,1,225,2,1,0,0,9,1,225,2,1,-147012.4343939205,-4792266.578191813,4196273.8302013045,2.40524,2.83715,-0.317587,-86.7159,33.8402,34.3552,-0.251364,-7.46953,6.68334,-0.0661369,0.00332791,0.00620537,4,0,41.38388411649549,-91.75711244005042,8778.226923367503,-66.16279930530322,0.7869255855204211,4.065088992011609,170.89,8790.15738098984,10980.456319326084,150,True,21.025501958332732,False,177.87090098138532,178.85479667139447,False,3.1145804337304632,True,False
9,1970-07-23 10:31:35.681139585,2025-09-12,2025-09-26 20:39:28.113,AA,C,154377812,JASSM,3,138,76,2,2,1,225,9,2,0,1,26,0,0,0,0,-180068.20153983062,-4778198.321260299,4211466.628386021,-2.36693,-0.400848,0.381098,77.5,-32.75,-33.625,0.0,0.0,0.0,0.0,0.0,0.0,2,0,41.56340579207941,-92.1581917161732,10002.625990405944,119.80662878494836,-0.0015801032868997,0.0045439404797927,,8790.15738098984,10980.456319326084,150,9,2025-09-12,2025-09-26 20:39:28.124,AA,C,2497181752,AMBUSH51,1,1,48,2,1,1,225,2,1,0,0,9,1,225,2,1,-147090.24977879776,-4792236.192411296,4196304.930754219,2.36123,2.83309,-0.323679,-86.291,33.9387,34.7593,7.26283e-05,-7.51188,6.41811,-0.0338898,0.000410917,0.00415183,4,0,41.38426064594445,-91.75805305662188,8776.795845356699,-65.75845060449316,0.8696086218183928,1.47558368968422,171.11,8790.15738098984,10980.456319326084,150,True,20.9337993633936,False,178.17696281141173,178.8464078285018,False,2.800268587616063,True,False
9,1970-07-23 10:31:35.690126940,2025-09-12,2025-09-26 20:39:29.012,AA,C,155451556,JASSM,3,138,76,2,2,1,225,9,2,0,1,26,0,0,0,0,-179998.42321951812,-4778227.895479049,4211436.261198521,-2.36693,-0.400752,0.381098,77.5,-32.75,-33.625,0.0,0.0,0.0,0.0,0.0,0.0,2,0,41.56304054604955,-92.15734284453634,10002.624995494903,119.803547643926,-0.0044138743284557,0.0024997647843382,,8790.15738098984,10980.456319326084,150,9,2025-09-12,2025-09-26 20:39:28.990,AA,C,2498215684,AMBUSH51,1,1,48,2,1,1,225,2,1,0,0,9,1,225,2,1,-147165.1450953671,-4792207.023296641,4196334.949381045,2.30342,2.83304,-0.32267,-86.1385,33.7678,34.8257,-0.172974,-7.39572,6.55015,-0.103927,0.00305119,0.00109335,4,0,41.38462315909718,-91.75895835833798,8775.795023652361,-65.79899659407835,0.8285369866282842,-1.838197076854096,171.025,8790.15738098984,10980.456319326084,150,True,20.843888799370855,False,178.1833649843559,178.83828879020305,False,2.775399262703612,True,False
9,1970-07-23 10:31:35.700102911,2025-09-12,2025-09-26 20:39:30.010,AA,C,156584948,JASSM,3,138,76,2,2,1,225,9,2,0,1,26,0,0,0,0,-179924.76989920562,-4778259.114229049,4211404.204557896,-2.36693,-0.400752,0.381098,77.5,-32.75,-33.625,0.0,0.0,0.0,0.0,0.0,0.0,2,0,41.56265497625873,-92.15644684189024,10002.626337204449,119.80414208907328,-0.0036404934047587,0.0024984111693362,,8790.15738098984,10980.456319326084,150,9,2025-09-12,2025-09-26 20:39:29.890,AA,C,2499289384,AMBUSH51,1,1,48,2,1,1,225,2,1,0,0,9,1,225,2,1,-147242.84266548036,-4792176.908672496,4196365.899092845,2.2278,2.83713,-0.31847,-86.2045,33.3623,34.3866,-0.000749722,-7.40697,6.49088,-0.0611601,-0.00630316,-0.00479265,4,0,41.38499706376618,-91.75989748964729,8774.703028777236,-66.12732655737817,0.8234373384037741,-6.101817890190793,170.756,8790.15738098984,10980.456319326084,150,True,20.7498867553821,False,177.86251266138174,178.82949234216932,False,3.098424594547944,True,False
9,1970-07-23 10:31:35.709117047,2025-09-12,2025-09-26 20:39:30.911,AA,C,157718344,JASSM,3,138,76,2,2,1,225,9,2,0,1,26,0,0,0,0,-179851.11560233062,-4778290.329072799,4211372.147917271,-2.36693,-0.400752,0.381098,77.5,-32.75,-33.625,0.0,0.0,0.0,0.0,0.0,0.0,2,0,41.56226942298558,-92.15555083996416,10002.6218227984,119.80473652921177,-0.0028671176734207,0.0024970816314477,,8790.15738098984,10980.456319326084,150,9,2025-09-12,2025-09-26 20:39:30.723,AA,C,2500283550,AMBUSH51,1,1,48,2,1,1,225,2,1,0,0,9,1,225,2,1,-147315.01800737836,-4792149.299481081,4196394.259813106,2.19693,2.84094,-0.308734,-86.4898,33.0037,33.5573,-0.1656,-7.31957,6.43421,-0.0239882,-0.00816321,-0.00726232,4,0,41.38533958682786,-91.76076974939804,8773.746149601953,-66.67461036971437,0.5887457171818162,-7.809651086020315,170.621,8790.15738098984,10980.456319326084,150,True,20.659427886366675,False,177.34978270189657,178.82055038952845,False,3.6481068669104726,True,False
9,1970-07-23 10:31:35.719100332,2025-09-12,2025-09-26 20:39:31.910,AA,C,158851738,JASSM,3,138,76,2,2,1,225,9,2,0,1,26,0,0,0,0,-179777.46130545562,-4778321.545869674,4211340.091276646,-2.36693,-0.400752,0.381098,77.5,-32.75,-33.625,0.0,0.0,0.0,0.0,0.0,0.0,2,0,41.56188385105186,-92.15465484780984,10002.625916083463,119.80533095833832,-0.0020937355265024,0.002495742279069,,8790.15738098984,10980.456319326084,150,9,2025-09-12,2025-09-26 20:39:32.057,AA,C,2501874214,AMBUSH51,1,1,48,2,1,1,225,2,1,0,0,9,1,225,2,1,-147431.45606719848,-4792105.786625891,4196438.265949399,2.21225,2.85459,-0.294031,-86.9828,32.1114,32.2422,-0.0382823,-7.5133,6.34312,0.0679262,0.0122994,-0.0103645,4,0,41.38587424044262,-91.762176578452,8770.949452793471,-67.8006497005459,0.5502314822510623,-6.711162845031821,170.585,8790.15738098984,10980.456319326084,150,True,20.54245707555126,False,176.40119996937025,178.8051583828101,False,4.6160753071478835,True,False
9,1970-07-23 10:31:35.728082952,2025-09-12,2025-09-26 20:39:32.808,AA,C,159925480,JASSM,3,138,76,2,2,1,225,9,2,0,1,26,0,0,0,0,-179707.68298514312,-4778351.118135299,4211309.720182896,-2.36693,-0.400752,0.381194,77.5,-32.75,-33.625,0.0,0.0,0.0,0.0,0.0,0.0,2,0,41.56151856416518,-92.15380601688844,10002.625899751709,119.80973625674224,-0.0052869688084534,0.0024942512302455,,8790.15738098984,10980.456319326084,150,9,2025-09-12,2025-09-26 20:39:33.024,AA,C,2503027446,AMBUSH51,1,1,48,2,1,1,225,2,1,0,0,9,1,225,2,1,-147516.0100193775,-4792074.885467312,4196469.41454895,2.28409,2.85752,-0.290885,-87.2894,31.3907,32.0721,-0.363392,-7.64559,6.81633,0.0675496,0.00685452,-0.00586624,4,0,41.38625288459881,-91.76319793555987,8768.886825619835,-68.04295026677208,0.5440745164138134,-2.5490488130557742,170.45,8790.15738098984,10980.456319326084,150,True,20.447579465391023,False,176.00677590677506,178.79219016459598,False,4.980907283697949,True,False
9,1970-07-23 10:31:35.738323060,2025-09-12,2025-09-26 20:39:33.832,AA,C,161118526,JASSM,3,138,76,2,2,1,225,9,2,0,1,26,0,0,0,0,-179630.15271170562,-4778383.973604049,4211275.974089146,-2.36693,-0.400752,0.381194,77.5,-32.75,-33.625,0.0,0.0,0.0,0.0,0.0,0.0,2,0,41.56111269481713,-92.15286289809691,10002.622675991348,119.81036194183008,-0.0044728929667229,0.0024929016995026,,8790.15738098984,10980.456319326084,150,9,2025-09-12,2025-09-26 20:39:33.923,AA,C,2504101146,AMBUSH51,1,1,48,2,1,1,225,2,1,0,0,9,1,225,2,1,-147594.65882556315,-4792046.546384549,4196498.242965423,2.36575,2.8549,-0.293504,-87.2101,31.1867,32.2406,-0.27955,-7.54119,6.5653,0.0825486,-0.00377316,0.00190895,4,0,41.38660169614296,-91.76414782451188,8767.65226321432,-67.8355116690845,0.5434029835574702,2.0885673749084828,170.23,8790.15738098984,10980.456319326084,150,True,20.351501251473127,False,176.0162207755029,178.77935652510877,False,4.960895738397952,True,False
9,1970-07-23 10:31:35.747319880,2025-09-12,2025-09-26 20:39:34.731,AA,C,162192268,JASSM,3,138,76,2,2,1,225,9,2,0,1,26,0,0,0,0,-179560.37439139312,-4778413.543916549,4211245.602995396,-2.36693,-0.400752,0.381194,77.5,-32.75,-33.625,0.0,0.0,0.0,0.0,0.0,0.0,2,0,41.56074740630636,-92.15201408823738,10002.625099608706,119.81092505607344,-0.0037402164638148,0.0024916924122466,,8790.15738098984,10980.456319326084,150,9,2025-09-12,2025-09-26 20:39:34.756,AA,C,2505095310,AMBUSH51,1,1,48,2,1,1,225,2,1,0,0,9,1,225,2,1,-147667.28219626576,-4792020.534238951,4196524.807804802,2.4161,2.8528,-0.29974,-86.8875,31.3763,32.5097,-0.275465,-7.64803,6.76227,0.0519431,0.00889558,0.0114672,4,0,41.38692247959688,-91.76502489241123,8766.77998210585,-67.49765570900217,0.7065588667796635,4.941473922529467,169.925,8790.15738098984,10980.456319326084,150,True,20.26396583892594,False,176.27073936077136,178.76736596339478,False,4.716790694095297,True,False
9,1970-07-23 10:31:35.756319355,2025-09-12,2025-09-26 20:39:35.631,AA,C,163325660,JASSM,3,138,76,2,2,1,225,9,2,0,1,26,0,0,0,0,-179486.72009451812,-4778444.756807174,4211213.542448521,-2.36693,-0.400752,0.381194,77.5,-32.75,-33.625,0.0,0.0,0.0,0.0,0.0,0.0,2,0,41.560361803714464,-92.15111813988958,10002.626173150504,119.81151943834644,-0.0029668336751395,0.0024904015461124,,8790.15738098984,10980.456319326084,150,9,2025-09-12,2025-09-26 20:39:35.623,AA,C,2506129244,AMBUSH51,1,1,48,2,1,1,225,2,1,0,0,9,1,225,2,1,-147742.3651432208,-4791993.198997997,4196553.025364336,2.45115,2.8472,-0.310118,-86.3733,31.5645,33.2862,-0.248024,-7.61646,6.55858,0.0335485,0.00889974,0.0101647,4,0,41.38726183466997,-91.7659318364285,8766.427399122082,-66.85626411444137,0.8948910588464827,6.86228282701965,169.741,8790.15738098984,10980.456319326084,150,True,20.172269991737213,False,176.74919449975297,178.75582048714307,False,4.207036263486006,True,False
9,1970-07-23 10:31:35.765346701,2025-09-12,2025-09-26 20:39:36.534,AA,C,164399404,JASSM,3,138,76,2,2,1,225,9,2,0,1,26,0,0,0,0,-179416.94275076812,-4778474.325166549,4211183.169401646,-2.36693,-0.400752,0.381194,77.5,-32.75,-33.625,0.0,0.0,0.0,0.0,0.0,0.0,2,0,41.55999650055865,-92.1502693622529,10002.626685243493,119.81208252285774,-0.0022341643841102,0.0024891860354187,,8790.15738098984,10980.456319326084,150,9,2025-09-12,2025-09-26 20:39:36.456,AA,C,2507123408,AMBUSH51,1,1,48,2,1,1,225,2,1,0,0,9,1,225,2,1,-147814.17441595867,-4791966.679732515,4196580.624363679,2.45112,2.84043,-0.318844,-85.8161,32.0765,33.8576,-0.135175,-7.57642,6.52632,0.00237084,0.00645921,0.00487587,4,0,41.38759275321965,-91.76679938433392,8766.495865737228,-66.24048559641554,0.9737761727035524,6.750807137772229,169.301,8790.15738098984,10980.456319326084,150,True,20.084788978968998,False,177.29300812836857,178.74553302063157,False,3.6689214774684653,True,False
9,1970-07-23 10:31:35.775302130,2025-09-12,2025-09-26 20:39:37.530,AA,C,165532798,JASSM,3,138,76,2,2,1,225,9,2,0,1,26,0,0,0,0,-179343.28845389312,-4778505.536104049,4211151.106901646,-2.36693,-0.400657,0.381194,77.5,-32.75,-33.625,0.0,0.0,0.0,0.0,0.0,0.0,2,0,41.55961088282263,-92.14937343552631,10002.62614846801,119.8090328282883,-0.0050272219013574,0.0004444763144026,,8790.15738098984,10980.456319326084,150,9,2025-09-12,2025-09-26 20:39:37.723,AA,C,2508634540,AMBUSH51,1,1,48,2,1,1,225,2,1,0,0,9,1,225,2,1,-147921.60755770557,-4791925.891231722,4196623.477375031,2.40829,2.82838,-0.333275,-84.9544,32.6508,34.6746,-0.0801551,-7.42562,6.7123,-0.0470807,-0.00227513,0.0109054,4,0,41.3881049966183,-91.76809774109375,8767.25477487342,-65.19190547049098,1.0751538505763345,4.094399370813211,168.861,8790.15738098984,10980.456319326084,150,True,19.972688161347943,False,178.01423791535194,178.73329721122758,False,2.924681748022917,True,False
9,1970-07-23 10:31:35.785257783,2025-09-12,2025-09-26 20:39:38.525,AA,C,166725844,JASSM,3,138,76,2,2,1,225,9,2,0,1,26,0,0,0,0,-179265.75720389312,-4778538.387666549,4211117.356901646,-2.36693,-0.400657,0.381194,77.5,-32.75,-33.625,0.0,0.0,0.0,0.0,0.0,0.0,2,0,41.55920497420473,-92.14843036226932,10002.62462504056,119.80965845967008,-0.0042131380425973,0.0004430761332005,,8790.15738098984,10980.456319326084,150,9,2025-09-12,2025-09-26 20:39:38.523,AA,C,2509588940,AMBUSH51,1,1,48,2,1,1,225,2,1,0,0,9,1,225,2,1,-147989.28225837296,-4791899.644726082,4196651.176951876,2.36851,2.82575,-0.340325,-84.5534,32.8994,34.9076,-0.173225,-7.15921,6.49694,-0.0672771,-0.00038387,0.00423297,4,0,41.388435715073726,-91.76891582138136,8767.906847917593,-64.80255258396284,1.253350949700107,1.7733228248954285,168.813,8790.15738098984,10980.456319326084,150,True,19.882242149945306,False,178.2973198302696,178.72530498846675,False,2.6456140528930163,True,False
9,1970-07-23 10:31:35.794258219,2025-09-12,2025-09-26 20:39:39.425,AA,C,167799586,JASSM,3,138,76,2,2,1,225,9,2,0,1,26,0,0,0,0,-179195.97888358062,-4778567.954072799,4211086.981901646,-2.36693,-0.400657,0.381194,77.5,-32.75,-33.625,0.0,0.0,0.0,0.0,0.0,0.0,2,0,41.55883964985484,-92.14758160409032,10002.626851598245,119.81022151847932,-0.0034804610238779,0.0004418168492285,,8790.15738098984,10980.456319326084,150,9,2025-09-12,2025-09-26 20:39:39.389,AA,C,2510622872,AMBUSH51,1,1,48,2,1,1,225,2,1,0,0,9,1,225,2,1,-148062.4561643804,-4791871.023146369,4196681.37045341,2.31343,2.82594,-0.341309,-84.3711,32.7834,35.1055,-0.149108,-7.31333,6.66621,-0.0442074,-0.00142833,-0.00359631,4,0,41.388796383388815,-91.76980047708363,8768.546553575075,-64.76947388642496,1.3004176771273022,-1.378243328562971,168.947,8790.15738098984,10980.456319326084,150,True,19.79318266738353,False,178.33598089771547,178.7174615823837,False,2.5557842291799338,True,False
9,1970-07-23 10:31:35.805058415,2025-09-12,2025-09-26 20:39:40.505,AA,C,169052284,JASSM,3,138,76,2,2,1,225,9,2,0,1,26,0,0,0,0,-179114.57165701812,-4778602.446260299,4211051.542448521,-2.36693,-0.400657,0.381194,77.5,-32.75,-33.625,0.0,0.0,0.0,0.0,0.0,0.0,2,0,41.558413428483696,-92.146591408918,10002.624810898697,119.81087840022424,-0.0026256771690881,0.0004403422396576,,8790.15738098984,10980.456319326084,150,9,2025-09-12,2025-09-26 20:39:40.623,AA,C,2512094236,AMBUSH51,1,1,48,2,1,1,225,2,1,0,0,9,1,225,2,1,-148167.2707809273,-4791830.421950575,4196724.52943466,2.27039,2.83137,-0.332593,-84.4922,32.4462,34.844,0.00312242,-7.25397,6.46931,-0.0454329,0.0139639,-0.00498406,4,0,41.38931002624117,-91.77106753219724,8770.248715374915,-65.33420842895347,1.1672493871996892,-3.7537459563225486,169.167,8790.15738098984,10980.456319326084,150,True,19.67736871072217,False,178.08674448527478,178.70669303299923,False,2.8163081598819453,True,False
9,1970-07-23 10:31:35.815097142,2025-09-12,2025-09-26 20:39:41.509,AA,C,170364636,JASSM,3,138,76,2,2,1,225,9,2,0,1,26,0,0,0,0,-179029.28747733062,-4778638.581025924,4211014.415495396,-2.36684,-0.400657,0.381194,77.5,-32.75,-33.625,0.0,0.0,0.0,0.0,0.0,0.0,2,0,41.55796690184249,-92.1455540704976,10002.628065629811,119.81156655021069,-0.0017301860545209,0.005930271486417,,8790.15738098984,10980.456319326084,150,9,2025-09-12,2025-09-26 20:39:41.456,AA,C,2513088402,AMBUSH51,1,1,48,2,1,1,225,2,1,0,0,9,1,225,2,1,-148237.69792609135,-4791803.37514703,4196753.039077266,2.24751,2.8364,-0.331551,-84.6373,32.1532,34.3195,-0.0169944,-7.37445,6.68544,0.0216371,-0.00710419,-0.00823187,4,0,41.38965044684284,-91.7719188177909,8770.909844162545,-65.56642660802609,1.3233105296509655,-4.975613141249212,169.839,8790.15738098984,10980.456319326084,150,True,19.58047012043331,False,177.7857469117606,178.69746128735576,False,3.1730982163796986,True,False
9,1970-07-23 10:31:35.827101159,2025-09-12,2025-09-26 20:39:42.710,AA,C,171617334,JASSM,3,138,76,2,2,1,225,9,2,0,1,26,0,0,0,0,-178947.87927420562,-4778673.071260299,4210978.974089146,-2.36684,-0.400657,0.38129,77.5,-32.75,-33.625,0.0,0.0,0.0,0.0,0.0,0.0,2,0,41.55754066166505,-92.14456389115178,10002.626439197717,119.8160657127636,-0.0048011724258846,0.0059286093745487,,8790.15738098984,10980.456319326084,150,9,2025-09-12,2025-09-26 20:39:42.724,AA,C,2514599534,AMBUSH51,1,1,48,2,1,1,225,2,1,0,0,9,1,225,2,1,-148344.55135770683,-4791763.02222736,4196796.004464312,2.30133,2.84765,-0.329143,-84.8304,31.5106,34.1643,-0.319352,-7.79702,7.27481,0.0214062,0.0193901,-0.0126074,4,0,41.39016090682033,-91.77321016908236,8772.97058092546,-66.08813965829889,1.6702554052518737,-1.6965763992566962,169.705,8790.15738098984,10980.456319326084,150,True,19.463819484473525,False,177.39722194475138,178.68477787032398,False,3.520526801809421,True,False
9,1970-07-23 10:31:35.837278911,2025-09-12,2025-09-26 20:39:43.727,AA,C,172989338,JASSM,3,138,76,2,2,1,225,9,2,0,1,26,0,0,0,0,-178858.71911795562,-4778710.844697799,4210940.155729771,-2.36684,-0.400657,0.38129,77.5,-32.75,-33.625,0.0,0.0,0.0,0.0,0.0,0.0,2,0,41.55707381588061,-92.1434794391254,10002.62279828855,119.81678510454476,-0.0038649809940834,0.0059270532328988,,8790.15738098984,10980.456319326084,150,9,2025-09-12,2025-09-26 20:39:43.523,AA,C,2515553934,AMBUSH51,1,1,48,2,1,1,225,2,1,0,0,9,1,225,2,1,-148412.56710804714,-4791737.906205658,4196823.251179914,2.30113,2.85576,-0.335521,-84.9823,30.8897,34.5248,-0.265865,-7.81538,7.48107,-0.000822875,0.00107671,0.0050985,4,0,41.39048174391917,-91.77403195648878,8775.466820204127,-66.12561635308417,2.241042089853853,-1.5579362305568003,169.754,8790.15738098984,10980.456319326084,150,True,19.366224383477004,False,177.1283283085808,178.67492959952338,False,3.6796834591742713,True,False
9,1970-07-23 10:31:35.848636556,2025-09-12,2025-09-26 20:39:44.863,AA,C,174301688,JASSM,3,138,76,2,2,1,225,9,2,0,1,26,0,0,0,0,-178773.43396170562,-4778746.975557174,4210903.024870396,-2.36684,-0.400657,0.38129,77.5,-32.75,-33.625,0.0,0.0,0.0,0.0,0.0,0.0,2,0,41.55662725827889,-92.1424421336046,10002.62322900081,119.81747321458754,-0.0029694817308242,0.005925571601187,,8790.15738098984,10980.456319326084,150,9,2025-09-12,2025-09-26 20:39:44.890,AA,C,2517184364,AMBUSH51,1,1,48,2,1,1,225,2,1,0,0,9,1,225,2,1,-148529.12858113257,-4791696.349328909,4196870.32803618,2.30831,2.86162,-0.338539,-85.3405,29.9396,35.1047,-0.152133,-7.29322,7.23634,0.0102605,0.00607638,-0.0172242,4,0,41.39102531236621,-91.77543975665282,8784.237332257639,-66.21854801061728,2.5914756719394227,-1.0393634016375135,170.01,8790.15738098984,10980.456319326084,150,True,19.241633322846234,False,176.6245461116523,178.66109865172655,False,4.0303768720835516,True,False
9,1970-07-23 10:31:35.859096457,2025-09-12,2025-09-26 20:39:45.909,AA,C,175614040,JASSM,3,138,76,2,2,1,225,9,2,0,1,26,0,0,0,0,-178688.14978201812,-4778783.106416549,4210865.894011021,-2.36684,-0.400657,0.38129,77.5,-32.75,-33.625,0.0,0.0,0.0,0.0,0.0,0.0,2,0,41.55618069106751,-92.14140485405647,10002.628866206702,119.8181613013284,-0.0020739898807925,0.0059240853892215,,8790.15738098984,10980.456319326084,150,9,2025-09-12,2025-09-26 20:39:45.889,AA,C,2518377364,AMBUSH51,1,1,48,2,1,1,225,2,1,0,0,9,1,225,2,1,-148615.61010479927,-4791666.292954896,4196905.174765454,2.29898,2.87042,-0.334752,-85.5942,29.4939,35.2129,-0.0939344,-7.07211,7.06776,-0.00556247,0.0062137,0.00775958,4,0,41.39142342827427,-91.77648398552004,8792.48348730012,-66.70372478633854,2.790473552736768,-1.4299310594838874,169.974,8790.15738098984,10980.456319326084,150,True,19.135528639258,False,176.3378242879745,178.6495898764534,False,4.290142672069181,True,False
9,1970-07-23 10:31:35.870316350,2025-09-12,2025-09-26 20:39:47.031,AA,C,176926390,JASSM,3,138,76,2,2,1,225,9,2,0,1,26,0,0,0,0,-178602.86560233062,-4778819.233369674,4210828.761198521,-2.36684,-0.400561,0.38129,77.5,-32.75,-33.625,0.0,0.0,0.0,0.0,0.0,0.0,2,0,41.55573412461502,-92.14036759053693,10002.625786068018,119.8152055857678,-0.0047449384854426,0.0038786833159284,,8790.15738098984,10980.456319326084,150,9,2025-09-12,2025-09-26 20:39:46.889,AA,C,2519570362,AMBUSH51,1,1,48,2,1,1,225,2,1,0,0,9,1,225,2,1,-148700.55486734465,-4791636.959079094,4196939.371398762,2.29758,2.87015,-0.334907,-85.8234,29.3245,35.1219,-0.174263,-6.89582,6.889,0.0139098,0.0045409,-0.00130765,4,0,41.39181313106329,-91.77750960038703,8800.984418761445,-66.68804528187863,2.786847255350472,-1.514416342743394,170.145,8790.15738098984,10980.456319326084,150,True,19.03040106518938,False,176.18743238409698,178.63798628370492,False,4.465761374543512,True,False
9,1970-07-23 10:31:35.881280212,2025-09-12,2025-09-26 20:39:48.128,AA,C,178179090,JASSM,3,138,76,2,2,1,225,9,2,0,1,26,0,0,0,0,-178521.45739920562,-4778853.719697799,4210793.313932896,-2.36684,-0.400561,0.38129,77.5,-32.75,-33.625,0.0,0.0,0.0,0.0,0.0,0.0,2,0,41.555307823457575,-92.1393774810956,10002.626245489948,119.815862370515,-0.0038901396061545,0.0038771996414134,,8790.15738098984,10980.456319326084,150,9,2025-09-12,2025-09-26 20:39:48.089,AA,C,2521001960,AMBUSH51,1,1,48,2,1,1,225,2,1,0,0,9,1,225,2,1,-148804.2474246889,-4791601.154692241,4196980.899733714,2.29802,2.87211,-0.325353,-86.1572,29.5963,34.7737,-0.175593,-6.72817,6.68753,-0.0169475,0.00147826,-0.00950104,4,0,41.39228735262257,-91.77876158844413,8810.909046854164,-67.16134368264444,2.491007152515233,-1.4750479428294792,170.365,8790.15738098984,10980.456319326084,150,True,18.916388300743634,False,176.21477432981231,178.62423833594048,False,4.537915520957478,True,False
9,1970-07-23 10:31:35.892138128,2025-09-12,2025-09-26 20:39:49.213,AA,C,179491440,JASSM,3,138,76,2,2,1,225,9,2,0,1,26,0,0,0,0,-178436.17321951812,-4778889.844697799,4210756.179167271,-2.36684,-0.400561,0.38129,77.5,-32.75,-33.625,0.0,0.0,0.0,0.0,0.0,0.0,2,0,41.55486123714805,-92.13834024635946,10002.624123953556,119.81655040968224,-0.0029946536489513,0.0038756628878353,,8790.15738098984,10980.456319326084,150,9,2025-09-12,2025-09-26 20:39:49.323,AA,C,2522473326,AMBUSH51,1,1,48,2,1,1,225,2,1,0,0,9,1,225,2,1,-148911.09325982357,-4791564.276825678,4197022.853185998,2.28734,2.86884,-0.319919,-86.6518,29.8257,34.2694,0.0210423,-6.65192,6.64778,-0.000352661,-0.00755984,-0.00755776,4,0,41.392770232824695,-91.78005166140736,8819.363197779405,-67.26757413122239,2.149235319390787,-2.150603506796413,170.719,8790.15738098984,10980.456319326084,150,True,18.798207940480538,False,176.13113142418104,178.60850868711222,False,4.7380977156156145,True,False
9,1970-07-23 10:31:35.903118161,2025-09-12,2025-09-26 20:39:50.311,AA,C,180803794,JASSM,3,138,76,2,2,1,225,9,2,0,1,26,0,0,0,0,-178350.88806326812,-4778925.969697799,4210719.042448521,-2.36684,-0.400561,0.38129,77.5,-32.75,-33.625,0.0,0.0,0.0,0.0,0.0,0.0,2,0,41.55441462851197,-92.13730301421052,10002.622779197658,119.8172384410595,-0.0020991535986913,0.00387411922069,,8790.15738098984,10980.456319326084,150,9,2025-09-12,2025-09-26 20:39:50.156,AA,C,2523467492,AMBUSH51,1,1,48,2,1,1,225,2,1,0,0,9,1,225,2,1,-148983.41053916508,-4791539.117429994,4197051.102096017,2.28943,2.86858,-0.314238,-86.9175,29.8233,34.2038,-0.0401553,-6.68089,6.64703,0.00743917,-0.00483634,-0.0103915,4,0,41.39309724903114,-91.78092491549118,8824.281414297799,-67.49586942059446,1.9168491269841856,-2.043660914565899,171.073,8790.15738098984,10980.456319326084,150,True,18.700881312052836,False,176.0520334054964,178.596267413312,False,4.844261906731783,True,False
9,1970-07-23 10:31:35.916673822,2025-09-12,2025-09-26 20:39:51.667,AA,C,182175794,JASSM,3,138,76,2,2,1,225,9,2,0,1,26,0,0,0,0,-178261.72693045562,-4778963.735322799,4210680.218229771,-2.36684,-0.400561,0.381386,77.5,-32.75,-33.625,0.0,0.0,0.0,0.0,0.0,0.0,2,0,41.55394772136547,-92.13621865848847,10002.624575489188,119.8218001681412,-0.0050886002141277,0.0038723030578585,,8790.15738098984,10980.456319326084,150,9,2025-09-12,2025-09-26 20:39:51.690,AA,C,2525296756,AMBUSH51,1,1,48,2,1,1,225,2,1,0,0,9,1,225,2,1,-149117.20390298017,-4791492.851888483,4197102.203995136,2.27586,2.87804,-0.308595,-87.5517,29.7952,33.7154,-0.0991531,-7.0313,7.09153,-0.00897881,-0.00399162,-0.00610551,4,0,41.39369272575054,-91.78254043010683,8831.563394318771,-68.08621684275487,2.07375585578781,-2.675757686962433,171.855,8790.15738098984,10980.456319326084,150,True,18.564266423346705,False,175.77584563777506,178.57458047140685,False,5.208031607869037,True,False
9,1970-07-23 10:31:35.925297292,2025-09-12,2025-09-26 20:39:52.529,AA,C,183428494,JASSM,3,138,76,2,2,1,225,9,2,0,1,26,0,0,0,0,-178180.31872733062,-4778998.215791549,4210644.769011021,-2.36684,-0.400561,0.381386,77.5,-32.75,-33.625,0.0,0.0,0.0,0.0,0.0,0.0,2,0,41.55352140615376,-92.13522860618774,10002.625945896178,119.82245689188755,-0.0042338135124351,0.0038708944932627,,8790.15738098984,10980.456319326084,150,9,2025-09-12,2025-09-26 20:39:52.456,AA,C,2526211388,AMBUSH51,1,1,48,2,1,1,225,2,1,0,0,9,1,225,2,1,-149184.36049199945,-4791469.869931025,4197127.614643811,2.27418,2.88088,-0.305451,-87.8215,29.5372,33.6606,-0.0728546,-6.92269,6.86075,0.00419136,-0.00635102,-0.0128529,4,0,41.3939885629182,-91.78335124688148,8835.29529167894,-68.3242727320654,2.0645589232993,-2.73125891957068,172.503,8790.15738098984,10980.456319326084,150,True,18.472746307102046,False,175.57430403620822,178.56144157929322,False,5.414256694518461,True,False
9,1970-07-23 10:31:35.936349057,2025-09-12,2025-09-26 20:39:53.634,AA,C,184681194,JASSM,3,138,76,2,2,1,225,9,2,0,1,26,0,0,0,0,-178098.91052420562,-4779032.696260299,4210609.317839146,-2.36684,-0.400561,0.381386,77.5,-32.75,-33.625,0.0,0.0,0.0,0.0,0.0,0.0,2,0,41.55309506923284,-92.13423856689766,10002.62772808037,119.82311360147068,-0.003379020205862,0.0038694744800021,,8790.15738098984,10980.456319326084,150,9,2025-09-12,2025-09-26 20:39:53.589,AA,C,2527563454,AMBUSH51,1,1,48,2,1,1,225,2,1,0,0,9,1,225,2,1,-149284.68833408307,-4791435.698147552,4197165.484024739,2.27137,2.89143,-0.302915,-88.2374,29.2942,33.609,-0.16773,-7.21708,7.23392,-0.00691486,0.0167457,-0.0121392,4,0,41.39442892686738,-91.78456251053235,8841.073291680612,-68.82490483323693,2.388842365081554,-2.73064392043798,173.065,8790.15738098984,10980.456319326084,150,True,18.361355455759373,False,175.34531449687046,178.54325922315854,False,5.657545320777801,True,False
9,1970-07-23 10:31:35.947136649,2025-09-12,2025-09-26 20:39:54.713,AA,C,186053196,JASSM,3,138,76,2,2,1,225,9,2,0,1,26,0,0,0,0,-178009.74939139312,-4779070.457979049,4210570.489714146,-2.36684,-0.400561,0.381386,77.5,-32.75,-33.625,0.0,0.0,0.0,0.0,0.0,0.0,2,0,41.55262813007774,-92.13315425702515,10002.627244571771,119.8238328359542,-0.0024428260212489,0.0038679273450966,,8790.15738098984,10980.456319326084,150,9,2025-09-12,2025-09-26 20:39:54.723,AA,C,2528915520,AMBUSH51,1,1,48,2,1,1,225,2,1,0,0,9,1,225,2,1,-149384.233281464,-4791402.441987485,4197202.716112905,2.29993,2.89966,-0.299047,-88.5448,29.0989,33.4123,-0.108773,-7.08666,6.97043,0.0553365,-0.000242389,-0.00324261,4,0,41.39485967364759,-91.785764096035,8847.66761358152,-69.29458445739635,2.569471436966801,-0.975041682733096,173.371,8790.15738098984,10980.456319326084,150,True,18.245762705351865,False,175.13242063288956,178.52391725157088,False,5.901764229317641,True,False
9,1970-07-23 10:31:35.958316273,2025-09-12,2025-09-26 20:39:55.831,AA,C,187365548,JASSM,3,138,76,2,2,1,225,9,2,0,1,26,0,0,0,0,-177924.46423514312,-4779106.577119674,4210533.347136021,-2.36684,-0.400465,0.381386,77.5,-32.75,-33.625,0.0,0.0,0.0,0.0,0.0,0.0,2,0,41.55218146998437,-92.13211709888763,10002.624356973649,119.82087727044537,-0.0051137529914657,0.0018220492867542,,8790.15738098984,10980.456319326084,150,9,2025-09-12,2025-09-26 20:39:55.856,AA,C,2530267584,AMBUSH51,1,1,48,2,1,1,225,2,1,0,0,9,1,225,2,1,-149485.46033859433,-4791369.048070393,4197240.508059694,2.35155,2.90421,-0.299043,-88.7455,29.0629,33.6872,-0.314968,-7.30345,7.35711,0.0799749,0.0115983,-0.00408733,4,0,41.39529469480961,-91.78698584330525,8855.273113546069,-69.46487346358273,2.753495033734797,2.051745123354036,173.114,8790.15738098984,10980.456319326084,150,True,18.131701634285395,False,175.1304106359309,178.50400593483243,False,5.901549345238301,True,False
9,1970-07-23 10:31:35.969286562,2025-09-12,2025-09-26 20:39:56.928,AA,C,188677898,JASSM,3,138,76,2,2,1,225,9,2,0,1,26,0,0,0,0,-177839.18005545562,-4779142.694307174,4210496.206511021,-2.36684,-0.400465,0.381386,77.5,-32.75,-33.625,0.0,0.0,0.0,0.0,0.0,0.0,2,0,41.55173482508974,-92.13107996759088,10002.626133709848,119.82156519867964,-0.0042182723570894,0.0018205202579762,,8790.15738098984,10980.456319326084,150,9,2025-09-12,2025-09-26 20:39:56.989,AA,C,2531619650,AMBUSH51,1,1,48,2,1,1,225,2,1,0,0,9,1,225,2,1,-149585.49493128865,-4791335.998644327,4197278.401276824,2.41857,2.9007,-0.30262,-88.629,29.3147,34.4943,-0.0480421,-6.94944,6.96751,0.048947,-0.0114131,0.0128758,4,0,41.39572855862608,-91.7881932316446,8863.860737367579,-69.1845857301957,2.7524060728433395,5.845400344599828,172.772,8790.15738098984,10980.456319326084,150,True,18.018230857612544,False,175.4455766949206,178.4847648782208,False,5.541220137142798,True,False
9,1970-07-23 10:31:35.983862498,2025-09-12,2025-09-26 20:39:58.386,AA,C,189990250,JASSM,3,138,76,2,2,1,225,9,2,0,1,26,0,0,0,0,-177753.89489920562,-4779178.811494674,4210459.061979771,-2.36684,-0.400465,0.381386,77.5,-32.75,-33.625,0.0,0.0,0.0,0.0,0.0,0.0,2,0,41.55128814471527,-92.13004283888108,10002.624437434666,119.82225311912468,-0.0033227710870071,0.0018189729036051,,8790.15738098984,10980.456319326084,150,9,2025-09-12,2025-09-26 20:39:58.355,AA,C,2533250082,AMBUSH51,1,1,48,2,1,1,225,2,1,0,0,9,1,225,2,1,-149706.48311465804,-4791294.743168734,4197325.123422657,2.47476,2.88453,-0.311839,-88.2162,30.527,35.443,-0.253858,-6.61132,6.64441,0.00467198,-0.0095801,0.0127468,4,0,41.39626693827589,-91.78965402290822,8873.033174878654,-68.1966467586654,2.465277056838408,8.829249383770529,172.992,8790.15738098984,10980.456319326084,150,True,17.891780840001406,False,176.30485829593005,178.46354197279928,False,4.670008664893813,True,False
9,1970-07-23 10:31:35.990134093,2025-09-12,2025-09-26 20:39:59.013,AA,C,191242948,JASSM,3,138,76,2,2,1,225,9,2,0,1,26,0,0,0,0,-177672.48669608062,-4779213.286104049,4210423.606901646,-2.36684,-0.400465,0.381386,77.5,-32.75,-33.625,0.0,0.0,0.0,0.0,0.0,0.0,2,0,41.55086177162798,-92.12905287035208,10002.627764049954,119.82290975287393,-0.0024679835346743,0.0018175048670897,,8790.15738098984,10980.456319326084,150,9,2025-09-12,2025-09-26 20:39:59.089,AA,C,2534124948,AMBUSH51,1,1,48,2,1,1,225,2,1,0,0,9,1,225,2,1,-149771.04571388403,-4791271.50293696,4197350.901017124,2.47464,2.87118,-0.314045,-87.9246,31.8102,35.7259,-0.134047,-6.29565,6.29891,-0.0128217,-0.00465741,0.0249162,4,0,41.39656722029701,-91.79043400790346,8876.75193814874,-67.60725330155638,2.0204302721603318,8.610215371235844,173.078,8790.15738098984,10980.456319326084,150,True,17.801310668668638,False,177.05635683747883,178.45169519263,False,3.9982121349123596,True,False
9,1970-07-23 10:31:36.002356402,2025-09-12,2025-09-26 20:40:00.235,AA,C,192614952,JASSM,3,138,76,2,2,1,225,9,2,0,1,26,0,0,0,0,-177583.32458670562,-4779251.041963424,4210384.772917271,-2.36684,-0.400465,0.381386,77.5,-32.75,-33.625,0.0,0.0,0.0,0.0,0.0,0.0,2,0,41.55039477910207,-92.12796862603652,10002.626811277598,119.8236289122228,-0.0015317810547009,0.001815897641154,,8790.15738098984,10980.456319326084,150,9,2025-09-12,2025-09-26 20:40:00.189,AA,C,2535437246,AMBUSH51,1,1,48,2,1,1,225,2,1,0,0,9,1,225,2,1,-149868.2738341221,-4791235.057760475,4197390.18305913,2.40431,2.85795,-0.320369,-87.7027,33.0835,36.2907,-0.190448,-6.63256,6.62558,-0.0986379,-0.000731329,0.0086896,4,0,41.39703114584426,-91.7916091807778,8879.801967505198,-66.85014313375224,1.745575282675708,4.368761606869636,173.811,8790.15738098984,10980.456319326084,150,True,17.685703010640676,False,177.82506173645587,178.43634925117675,False,3.2888091097390846,True,False
9,1970-07-23 10:31:36.014635107,2025-09-12,2025-09-26 20:40:01.463,AA,C,193927304,JASSM,3,138,76,2,2,1,225,9,2,0,1,26,0,0,0,0,-177498.03943045562,-4779287.155244674,4210347.626432896,-2.36684,-0.400465,0.381482,77.5,-32.75,-33.625,0.0,0.0,0.0,0.0,0.0,0.0,2,0,41.549948080709655,-92.1269315419008,10002.62663108134,119.82815936941678,-0.0045617878392511,0.0018141840146466,,8790.15738098984,10980.456319326084,150,9,2025-09-12,2025-09-26 20:40:01.289,AA,C,2536749544,AMBUSH51,1,1,48,2,1,1,225,2,1,0,0,9,1,225,2,1,-149964.18148638913,-4791198.108402462,4197429.343324729,2.2716,2.85484,-0.319281,-87.838,33.8261,36.1534,0.0436343,-6.82038,6.8611,-0.144879,0.00394585,-0.0127697,4,0,41.397497482154975,-91.79276878312912,8881.252231965529,-66.78009195694905,1.5810314585685823,-3.2890768670962167,174.63,8790.15738098984,10980.456319326084,150,True,17.5730551258034,False,178.11519038733667,178.4219667116095,False,3.144283291630123,True,False
9,1970-07-23 10:31:36.023277424,2025-09-12,2025-09-26 20:40:02.327,AA,C,195180002,JASSM,3,138,76,2,2,1,225,9,2,0,1,26,0,0,0,0,-177416.63122733062,-4779321.625947799,4210312.167448521,-2.36684,-0.400465,0.381482,77.5,-32.75,-33.625,0.0,0.0,0.0,0.0,0.0,0.0,2,0,41.54952167773123,-92.12594161599748,10002.626525647554,119.8288159575936,-0.0037069996230966,0.001812769932837,,8790.15738098984,10980.456319326084,150,9,2025-09-12,2025-09-26 20:40:02.489,AA,C,2538181142,AMBUSH51,1,1,48,2,1,1,225,2,1,0,0,9,1,225,2,1,-150070.78454175562,-4791157.330857535,4197472.259754777,2.14955,2.85763,-0.305974,-88.7183,33.4061,35.3059,0.0541073,-6.44005,6.41438,-0.0431026,-0.0115379,-0.0175384,4,0,41.398009946050806,-91.79405761157136,8882.265201144648,-67.43949653043573,1.168563273549891,-10.248180332991144,175.742,8790.15738098984,10980.456319326084,150,False,17.456450118464268,False,177.481039516265,178.40547169438986,False,3.8639258133448613,True,False
9,1970-07-23 10:31:36.035045308,2025-09-12,2025-09-26 20:40:03.504,AA,C,196432702,JASSM,3,138,76,2,2,1,225,9,2,0,1,26,0,0,0,0,-177335.22204764312,-4779356.094697799,4210276.708464146,-2.36684,-0.400465,0.381482,77.5,-32.75,-33.625,0.0,0.0,0.0,0.0,0.0,0.0,2,0,41.54909527806582,-92.12495169228036,10002.626201239902,119.829472538785,-0.0028522102190842,0.0018113701373402,,8790.15738098984,10980.456319326084,150,9,2025-09-12,2025-09-26 20:40:03.689,AA,C,2539612742,AMBUSH51,1,1,48,2,1,1,225,2,1,0,0,9,1,225,2,1,-150177.54903312642,-4791117.190024188,4197512.740151145,2.12675,2.86809,-0.278559,-89.9767,33.3107,33.2655,0.10622,-6.67098,6.62565,0.030954,0.00284313,-0.0176674,4,0,41.39850213125238,-91.79534815037914,8879.579262787442,-68.97655534414191,0.5088336139916934,-11.40479138987052,176.34,8790.15738098984,10980.456319326084,150,False,17.34041407516934,False,176.39639628641353,178.384666004262,False,5.104215517286927,True,False
9,1970-07-23 10:31:36.045098810,2025-09-12,2025-09-26 20:40:04.509,AA,C,197804704,JASSM,3,138,76,2,2,1,225,9,2,0,1,26,0,0,0,0,-177246.06091483062,-4779393.846650924,4210237.870573521,-2.36684,-0.400369,0.381482,77.5,-32.75,-33.625,0.0,0.0,0.0,0.0,0.0,0.0,2,0,41.54862824350455,-92.12386752042246,10002.628407197268,119.82654837566984,-0.0054824361278166,-0.0002350370002916,,8790.15738098984,10980.456319326084,150,9,2025-09-12,2025-09-26 20:40:04.489,AA,C,2540567140,AMBUSH51,1,1,48,2,1,1,225,2,1,0,0,9,1,225,2,1,-150250.1572186685,-4791090.524216484,4197538.707503581,2.15342,2.86977,-0.268928,-90.9545,32.8191,32.2641,-0.249373,-6.91648,6.86802,0.050522,0.000286082,-0.0173927,4,0,41.39882253252115,-91.7962255915927,8875.924250975711,-69.4428548470164,0.199307195801601,-9.853396361606803,177.135,8790.15738098984,10980.456319326084,150,True,17.240707210489322,False,175.59640514746212,178.36585034183878,False,5.929763929436266,True,False
9,1970-07-23 10:31:36.056312535,2025-09-12,2025-09-26 20:40:05.631,AA,C,199057404,JASSM,3,138,76,2,2,1,225,9,2,0,1,26,0,0,0,0,-177164.65173514312,-4779428.313447799,4210202.407682896,-2.36674,-0.400369,0.381482,77.5,-32.75,-33.625,0.0,0.0,0.0,0.0,0.0,0.0,2,0,41.54820181125932,-92.1228776248302,10002.62455885188,119.82720492670416,-0.004627639953414,0.0052549678260919,,8790.15738098984,10980.456319326084,150,9,2025-09-12,2025-09-26 20:40:05.489,AA,C,2541760140,AMBUSH51,1,1,48,2,1,1,225,2,1,0,0,9,1,225,2,1,-150342.5250003509,-4791057.612957316,4197570.35119129,2.16795,2.87904,-0.260593,-92.0795,31.9403,31.4604,-0.0712196,-7.29072,7.1068,-0.00537106,0.0029971,-0.0150209,4,0,41.39921471460914,-91.79734145344416,8870.750626279085,-70.14231373339177,0.2470846034163231,-8.884741474578076,178.357,8790.15738098984,10980.456319326084,150,True,17.134495188231853,False,174.7289103069736,178.34102661969465,False,6.801957319773989,True,False
9,1970-07-23 10:31:36.067277065,2025-09-12,2025-09-26 20:40:06.727,AA,C,200369754,JASSM,3,138,76,2,2,1,225,9,2,0,1,26,0,0,0,0,-177079.36657889312,-4779464.420869674,4210165.257292271,-2.36674,-0.400369,0.381482,77.5,-32.75,-33.625,0.0,0.0,0.0,0.0,0.0,0.0,2,0,41.54775507542603,-92.12184061338854,10002.62662054285,119.82789272152034,-0.0037321502891787,0.0052534379500516,,8790.15738098984,10980.456319326084,150,9,2025-09-12,2025-09-26 20:40:06.689,AA,C,2543191738,AMBUSH51,1,1,48,2,1,1,225,2,1,0,0,9,1,225,2,1,-150453.28300152425,-4791019.935560806,4197607.087925308,2.23993,2.89256,-0.250666,-93.2214,30.8628,30.8505,-0.0209508,-7.35533,7.14473,0.112474,-0.00137215,-0.0131358,4,0,41.399666188262565,-91.79867882908736,8866.32929426126,-71.07032459280651,0.4083171907503636,-4.570199222103443,179.029,8790.15738098984,10980.456319326084,150,True,17.015507861593306,False,173.8727936830621,178.3092306242039,False,7.658809649704938,True,False
9,1970-07-23 10:31:36.077845619,2025-09-12,2025-09-26 20:40:07.784,AA,C,201622454,JASSM,3,138,76,2,2,1,225,9,2,0,1,26,0,0,0,0,-176997.95739920562,-4779498.885713424,4210129.792448521,-2.36674,-0.400369,0.381482,77.5,-32.75,-33.625,0.0,0.0,0.0,0.0,0.0,0.0,2,0,41.54732862416327,-92.12085074530036,10002.623276382765,119.82854924297786,-0.0028773537983743,0.0052519689799542,,8790.15738098984,10980.456319326084,150,9,2025-09-12,2025-09-26 20:40:07.855,AA,C,2544583570,AMBUSH51,1,1,48,2,1,1,225,2,1,0,0,9,1,225,2,1,-150562.92422630748,-4790983.860351564,4197642.706414107,2.35807,2.89408,-0.249932,-93.9987,30.3582,31.2756,-0.0777606,-7.41355,7.26107,0.13948,0.00299294,0.012726,4,0,41.40010077447503,-91.8000022797988,8863.344163442165,-71.15980568041068,0.442944384045028,2.219417864885712,179.395,8790.15738098984,10980.456319326084,150,True,16.90002450024967,False,173.6752253613278,178.2759625236441,False,7.84948578904216,True,False
9,1970-07-23 10:31:36.089093045,2025-09-12,2025-09-26 20:40:08.909,AA,C,202994456,JASSM,3,138,76,2,2,1,225,9,2,0,1,26,0,0,0,0,-176908.79528983062,-4779536.631807174,4210090.950651646,-2.36674,-0.400369,0.381482,77.5,-32.625,-33.625,0.0,0.0,0.0,0.0,0.0,0.0,2,0,41.54686155965176,-92.11976662337896,10002.623670884052,119.82926827112394,-0.0019411563528296,0.0052503679473135,,8790.15738098984,10980.456319326084,150,9,2025-09-12,2025-09-26 20:40:08.888,AA,C,2545816334,AMBUSH51,1,1,48,2,1,1,225,2,1,0,0,9,1,225,2,1,-150660.7373676656,-4790951.669599211,4197675.000380034,2.50166,2.88895,-0.258088,-94.0292,31.0364,32.1956,-0.214492,-6.95965,6.86544,0.0908169,0.00877283,0.0156991,4,0,41.40049200546274,-91.80118297474613,8861.793242517795,-70.62442969254982,0.5536195864808413,10.377453365505518,180.019,8790.15738098984,10980.456319326084,150,False,16.786495959852367,False,174.28032776252772,178.23228710265667,False,7.317103772736646,True,False
9,1970-07-23 10:31:36.100313035,2025-09-12,2025-09-26 20:40:10.031,AA,C,204366460,JASSM,3,138,76,2,2,1,225,9,2,0,1,26,0,0,0,0,-176819.63318045562,-4779574.377900924,4210052.106901646,-2.36674,-0.400369,0.381578,77.5,-32.625,-33.625,0.0,0.0,0.0,0.0,0.0,0.0,2,0,41.54639447172684,-92.11868251706248,10002.62540807265,119.83383000775552,-0.0049303164139184,0.0052485564242687,,8790.15738098984,10980.456319326084,150,9,2025-09-12,2025-09-26 20:40:09.989,AA,C,2547128634,AMBUSH51,1,1,48,2,1,1,225,2,1,0,0,9,1,225,2,1,-150763.3314272854,-4790916.452969108,4197710.337184425,2.56176,2.87182,-0.27598,-93.6114,32.6789,33.7133,-0.156086,-7.20906,6.94738,0.0442615,0.00809247,0.0381113,4,0,41.40092087291728,-91.80242194127366,8859.777521168799,-69.22993390221835,0.563424921532527,13.575244001924489,180.349,8790.15738098984,10980.456319326084,150,False,16.669559411408613,False,175.4823903432035,178.20265034160096,False,6.162335770970117,True,False
9,1970-07-23 10:31:36.111277896,2025-09-12,2025-09-26 20:40:11.127,AA,C,205681210,JASSM,3,138,76,2,2,1,225,9,2,0,1,26,0,0,0,0,-176734.19177420562,-4779610.545869674,4210014.884245396,-2.36674,-0.400369,0.381578,77.5,-32.625,-33.625,0.0,0.0,0.0,0.0,0.0,0.0,2,0,41.54594688451091,-92.11764366608458,10002.625317274807,119.834518998111,-0.0040331899121445,0.0052470872711071,,8790.15738098984,10980.456319326084,150,9,2025-09-12,2025-09-26 20:40:11.123,AA,C,2548480698,AMBUSH51,1,1,48,2,1,1,225,2,1,0,0,9,1,225,2,1,-150869.57452579308,-4790877.7638938185,4197749.415478053,2.59938,2.84982,-0.297288,-92.866,34.5733,35.8153,-0.122512,-7.2926,7.03477,0.024215,0.00309905,0.0190135,4,0,41.40139496032316,-91.80370582766255,8857.627854289532,-67.51295540812758,0.5240292398756397,15.390641215973794,181.265,8790.15738098984,10980.456319326084,150,False,16.5518267398297,False,177.03799476853624,178.17664952187573,False,4.641495590411038,True,False
9,1970-07-23 10:31:36.123114585,2025-09-12,2025-09-26 20:40:12.311,AA,C,207050802,JASSM,3,138,76,2,2,1,225,9,2,0,1,26,0,0,0,0,-176645.18689139312,-4779648.221650924,4209976.106901646,-2.36674,-0.400369,0.381578,77.5,-32.625,-33.625,0.0,0.0,0.0,0.0,0.0,0.0,2,0,41.54548060849663,-92.1165615036096,10002.624225121834,119.83523670718516,-0.0030986416826917,0.0052455468000299,,8790.15738098984,10980.456319326084,150,9,2025-09-12,2025-09-26 20:40:12.189,AA,C,2549753230,AMBUSH51,1,1,48,2,1,1,225,2,1,0,0,9,1,225,2,1,-150967.53469327654,-4790839.916323561,4197787.937225075,2.60329,2.83305,-0.317892,-92.0318,36.4113,37.8154,-0.239283,-7.3157,7.21204,-0.00106006,0.012031,0.0193443,4,0,41.40186182280399,-91.80489045516782,8855.705809117213,-66.02721922384562,0.677765219496537,15.339134172362774,181.876,8790.15738098984,10980.456319326084,150,False,16.43587832941263,False,178.54225518101953,178.156391067574,False,3.1763944171776317,True,False
9,1970-07-23 10:31:36.133092828,2025-09-12,2025-09-26 20:40:13.309,AA,C,208303512,JASSM,3,138,76,2,2,1,225,9,2,0,1,26,0,0,0,0,-176563.77673514312,-4779682.682588424,4209940.638151646,-2.36674,-0.400273,0.381578,77.5,-32.625,-33.625,0.0,0.0,0.0,0.0,0.0,0.0,2,0,41.54505410882899,-92.11557169494158,10002.627573110489,119.83225017859858,-0.0058102522083965,0.0031988135516758,,8790.15738098984,10980.456319326084,150,9,2025-09-12,2025-09-26 20:40:13.489,AA,C,2551304130,AMBUSH51,1,1,48,2,1,1,225,2,1,0,0,9,1,225,2,1,-151086.72172108362,-4790791.25522075,4197837.976052908,2.45412,2.80318,-0.351376,-90.9969,37.8552,39.8567,-0.258138,-7.0722,7.03222,-0.26597,0.00562281,0.0261458,4,0,41.40246677384879,-91.8063327855438,8853.828136330661,-63.52528260534867,0.852364679770979,6.263195024903348,182.573,8790.15738098984,10980.456319326084,150,True,16.310507498287496,False,179.68362960677177,178.1392129937443,False,1.7571132695350131,True,False
9,1970-07-23 10:31:36.144313850,2025-09-12,2025-09-26 20:40:14.431,AA,C,209556212,JASSM,3,138,76,2,2,1,225,9,2,0,1,26,0,0,0,0,-176482.36755545562,-4779717.139619674,4209905.167448521,-2.36674,-0.400273,0.381578,77.5,-32.625,-33.625,0.0,0.0,0.0,0.0,0.0,0.0,2,0,41.54462761053844,-92.11458191269996,10002.621836948512,119.83290660825074,-0.0049554611027785,0.0031973522271922,,8790.15738098984,10980.456319326084,150,9,2025-09-12,2025-09-26 20:40:14.489,AA,C,2552497128,AMBUSH51,1,1,48,2,1,1,225,2,1,0,0,9,1,225,2,1,-151177.78156556655,-4790753.0334704025,4197877.7989922585,2.24803,2.80024,-0.358493,-91.1386,38.0944,40.1633,-0.126536,-7.26781,6.99856,-0.158728,0.00690237,-0.0129465,4,0,41.40294591510872,-91.8074351494312,8853.287811298585,-63.12409003522061,1.025685493308682,-5.596352915726692,183.954,8790.15738098984,10980.456319326084,150,True,16.20209477773189,False,179.64279268990853,178.12754237043373,False,1.6305324229675495,True,False
9,1970-07-23 10:31:36.155276046,2025-09-12,2025-09-26 20:40:15.527,AA,C,210868564,JASSM,3,138,76,2,2,1,225,9,2,0,1,26,0,0,0,0,-176397.08239920562,-4779753.237275924,4209868.009245396,-2.36674,-0.400273,0.381578,77.5,-32.625,-33.625,0.0,0.0,0.0,0.0,0.0,0.0,2,0,41.54418080524991,-92.1135450197982,10002.623870935082,119.83359427604336,-0.0040599764823109,0.0031958284200982,,8790.15738098984,10980.456319326084,150,9,2025-09-12,2025-09-26 20:40:15.388,AA,C,2553570826,AMBUSH51,1,1,48,2,1,1,225,2,1,0,0,9,1,225,2,1,-151260.3320736435,-4790719.026990922,4197913.572202917,2.12501,2.81653,-0.340772,-91.9992,37.3084,39.5674,-0.00180684,-7.30107,7.24807,-0.0812587,0.00455546,-0.0275023,4,0,41.40337422721618,-91.80843427118754,8853.673390706123,-64.46428906046127,0.9463391664687578,-12.348340162619106,184.675,8790.15738098984,10980.456319326084,150,False,16.09679197339917,False,179.29529205148836,178.1152587591658,False,2.285720998836803,True,False
9,1970-07-23 10:31:36.167054423,2025-09-12,2025-09-26 20:40:16.705,AA,C,212180914,JASSM,3,138,76,2,2,1,225,9,2,0,1,26,0,0,0,0,-176311.79626639312,-4779789.334932174,4209830.847136021,-2.36674,-0.400273,0.381578,77.5,-32.625,-33.625,0.0,0.0,0.0,0.0,0.0,0.0,2,0,41.54373396448123,-92.11250812948272,10002.62243393608,119.83428193604595,-0.0031644712197852,0.0031942862875274,,8790.15738098984,10980.456319326084,150,9,2025-09-12,2025-09-26 20:40:16.788,AA,C,2555241026,AMBUSH51,1,1,48,2,1,1,225,2,1,0,0,9,1,225,2,1,-151389.94615518718,-4790667.461416854,4197967.078090938,2.11538,2.83055,-0.319769,-93.8242,35.9937,37.5022,-0.189428,-7.20916,7.01348,0.0574691,0.00239164,-0.0203617,4,0,41.4040178586868,-91.81000234672996,8853.009383150824,-65.8588099440807,0.6585406699018539,-12.659472922935027,185.445,8790.15738098984,10980.456319326084,150,False,15.96295976003998,False,177.827430107743,178.0940648656096,False,3.92708844626699,True,False
9,1970-07-23 10:31:36.177094042,2025-09-12,2025-09-26 20:40:17.709,AA,C,213493266,JASSM,3,138,76,2,2,1,225,9,2,0,1,26,0,0,0,0,-176226.51013358062,-4779825.430635299,4209793.686979771,-2.36674,-0.400273,0.381578,77.5,-32.625,-33.625,0.0,0.0,0.0,0.0,0.0,0.0,2,0,41.54328713913317,-92.11147125430632,10002.625570757722,119.83496957993115,-0.0022689787876157,0.0031927653103977,,8790.15738098984,10980.456319326084,150,9,2025-09-12,2025-09-26 20:40:17.724,AA,C,2556354490,AMBUSH51,1,1,48,2,1,1,225,2,1,0,0,9,1,225,2,1,-151479.26831764888,-4790633.95049067,4198001.706263063,2.1587,2.84406,-0.306292,-95.0055,34.9703,36.366,-0.207587,-7.62723,7.42898,0.038155,0.0170848,-0.0267866,4,0,41.40443419647123,-91.8110822223298,8852.66803456069,-66.9269648180394,0.6578086516778904,-9.95101749783588,186.166,8790.15738098984,10980.456319326084,150,True,15.854948412074778,False,176.81347172022438,178.07286834127973,False,4.956091151606143,True,False
9,1970-07-23 10:31:36.187315634,2025-09-12,2025-09-26 20:40:18.731,AA,C,214745964,JASSM,3,138,76,2,2,1,225,9,2,0,1,26,0,0,0,0,-176145.10095389312,-4779859.885713424,4209758.212370396,-2.36674,-0.400273,0.381578,77.5,-32.625,-33.625,0.0,0.0,0.0,0.0,0.0,0.0,2,0,41.54286059075748,-92.11048152681808,10002.625857652749,119.83562595033574,-0.0014141806840688,0.0031912907925085,,8790.15738098984,10980.456319326084,150,9,2025-09-12,2025-09-26 20:40:18.756,AA,C,2557587256,AMBUSH51,1,1,48,2,1,1,225,2,1,0,0,9,1,225,2,1,-151578.26502022095,-4790598.516729873,4198038.933811814,2.23166,2.85274,-0.302698,-96.0382,33.3548,36.2803,-0.0930276,-7.65522,7.35012,0.172457,0.00342154,-0.00777206,4,0,41.40487769034149,-91.81227843085496,8853.995794269505,-67.40389692737897,0.8606115260029722,-5.62828183587628,186.874,8790.15738098984,10980.456319326084,150,True,15.744074727162763,False,175.94104060136135,178.04744413998316,False,5.738887252025887,True,False
9,1970-07-23 10:31:36.200654103,2025-09-12,2025-09-26 20:40:20.065,AA,C,216117968,JASSM,3,138,76,2,2,1,225,9,2,0,1,26,0,0,0,0,-176055.93884451812,-4779897.618135299,4209719.358854771,-2.36674,-0.400273,0.381674,77.5,-32.625,-33.625,0.0,0.0,0.0,0.0,0.0,0.0,2,0,41.54239343074674,-92.10939756019592,10002.620699249952,119.84018767871252,-0.0044032137540498,0.0031895289222607,,8790.15738098984,10980.456319326084,150,9,2025-09-12,2025-09-26 20:40:19.989,AA,C,2559058622,AMBUSH51,1,1,48,2,1,1,225,2,1,0,0,9,1,225,2,1,-151697.23770917297,-4790557.5544438,4198083.245325002,2.35771,2.86354,-0.299341,-96.5608,32.4229,36.8262,-0.314079,-7.49899,7.1204,0.0536533,-0.00611175,0.00108503,4,0,41.40539812173426,-91.81371542339812,8858.659335861223,-67.95080136390465,1.1590245362457867,1.7678237034398092,187.192,8790.15738098984,10980.456319326084,150,True,15.616705403627076,False,175.57349019503616,178.01568979904604,False,6.026984610281611,True,False
9,1970-07-23 10:31:36.210135378,2025-09-12,2025-09-26 20:40:21.013,AA,C,217489972,JASSM,3,138,76,2,2,1,225,9,2,0,1,26,0,0,0,0,-175966.77624686187,-4779935.352510299,4209680.505339146,-2.36674,-0.400273,0.381674,77.5,-32.625,-33.625,0.0,0.0,0.0,0.0,0.0,0.0,2,0,41.54192624893904,-92.10831360247096,10002.625882121356,119.84090652811588,-0.0034670105186933,0.0031879859776707,,8790.15738098984,10980.456319326084,150,9,2025-09-12,2025-09-26 20:40:21.056,AA,C,2560331154,AMBUSH51,1,1,48,2,1,1,225,2,1,0,0,9,1,225,2,1,-151799.77633844854,-4790522.79815523,4198121.631267687,2.41612,2.85503,-0.310798,-96.5739,32.8362,37.1482,-0.229322,-7.09567,6.9196,0.0804535,-0.00270789,0.00318019,4,0,41.40584470927957,-91.81495373028848,8864.45705419907,-67.15492385269737,1.272982499176499,4.985103395838922,187.119,8790.15738098984,10980.456319326084,150,True,15.49925787879271,False,175.81623617181978,177.98700743047385,False,5.814150107135974,True,False
9,1970-07-23 10:31:36.221293795,2025-09-12,2025-09-26 20:40:22.129,AA,C,218802322,JASSM,3,138,76,2,2,1,225,9,2,0,1,26,0,0,0,0,-175881.49011404935,-4779971.442354049,4209643.339323521,-2.36674,-0.400177,0.381674,77.5,-32.625,-33.625,0.0,0.0,0.0,0.0,0.0,0.0,2,0,41.54147938111048,-92.10727678763156,10002.62259171704,119.83795139454573,-0.0061379260646392,0.0011407293670543,,8790.15738098984,10980.456319326084,150,9,2025-09-12,2025-09-26 20:40:22.189,AA,C,2561683218,AMBUSH51,1,1,48,2,1,1,225,2,1,0,0,9,1,225,2,1,-151909.67184200883,-4790484.790597285,4198163.844001844,2.48841,2.8529,-0.312217,-96.1907,33.8593,37.9122,-0.329619,-6.83137,6.60147,0.0382985,-0.00242493,0.00444103,4,0,41.40633507189491,-91.8162811875204,8871.142630822604,-67.01659531904971,1.2454081482607984,9.092271547437033,187.473,8790.15738098984,10980.456319326084,150,True,15.379464850711214,False,176.5002011461613,177.9586623878454,False,5.156954055127532,True,False
9,1970-07-23 10:31:36.233051345,2025-09-12,2025-09-26 20:40:23.305,AA,C,220114674,JASSM,3,138,76,2,2,1,225,9,2,0,1,26,0,0,0,0,-175796.20398123687,-4780007.532197799,4209606.173307896,-2.36674,-0.400177,0.381674,77.5,-32.625,-33.625,0.0,0.0,0.0,0.0,0.0,0.0,2,0,41.541032503899295,-92.10623998706777,10002.624418129888,119.8386389584916,-0.0052424327034107,0.0011392064292194,,8790.15738098984,10980.456319326084,150,9,2025-09-12,2025-09-26 20:40:23.255,AA,C,2562955750,AMBUSH51,1,1,48,2,1,1,225,2,1,0,0,9,1,225,2,1,-152011.54323836503,-4790448.020403171,4198203.97083764,2.49907,2.83527,-0.327499,-95.7146,35.1695,38.8463,-0.0024275,-7.01282,6.67899,-0.0183977,0.00495494,0.0362741,4,0,41.40680549114794,-91.81751231953322,8875.726804087539,-65.72198235623983,1.156712940912754,9.412298229963625,187.436,8790.15738098984,10980.456319326084,150,True,15.263981167876505,False,177.3546055723566,177.93377982611645,False,4.327383039251557,True,False
9,1970-07-23 10:31:36.243115056,2025-09-12,2025-09-26 20:40:24.311,AA,C,221427018,JASSM,3,138,76,2,2,1,225,9,2,0,1,26,0,0,0,0,-175710.91833670562,-4780043.622041549,4209569.005339146,-2.36674,-0.400177,0.381674,77.5,-32.625,-33.625,0.0,0.0,0.0,0.0,0.0,0.0,2,0,41.54058560404273,-92.10520320662474,10002.627156022792,119.83932650301888,-0.0043469364681713,0.0011376697691099,,8790.15738098984,10980.456319326084,150,9,2025-09-12,2025-09-26 20:40:24.323,AA,C,2564228282,AMBUSH51,1,1,48,2,1,1,225,2,1,0,0,9,1,225,2,1,-152114.31615190252,-4790409.646959777,4198245.661226976,2.45312,2.82481,-0.337375,-95.3225,36.3198,39.7662,-0.164906,-7.19514,6.91216,-0.0634966,0.00247903,0.00953016,4,0,41.4072958202018,-91.8187548488043,8879.837945912113,-64.92195199570287,1.1412273078261002,6.600133498456666,188.377,8790.15738098984,10980.456319326084,150,True,15.147434083229678,False,178.09972339425912,177.91094834652995,False,3.5817129600072994,True,False
9,1970-07-23 10:31:36.254073958,2025-09-12,2025-09-26 20:40:25.407,AA,C,222679724,JASSM,3,138,76,2,2,1,225,9,2,0,1,26,0,0,0,0,-175629.50866873687,-4780078.069307174,4209533.524870396,-2.36674,-0.400177,0.381674,77.5,-32.625,-33.625,0.0,0.0,0.0,0.0,0.0,0.0,2,0,41.54015900875625,-92.10421355911564,10002.625006592554,119.83998278550943,-0.0034921399954951,0.0011362051725324,,8790.15738098984,10980.456319326084,150,9,2025-09-12,2025-09-26 20:40:25.344,AA,C,2565421282,AMBUSH51,1,1,48,2,1,1,225,2,1,0,0,9,1,225,2,1,-152208.87091162964,-4790373.542225214,4198285.185137634,2.39497,2.8202,-0.344158,-95.0975,36.5289,40.588,-0.137102,-7.00686,6.74913,-0.0342664,-0.00446808,0.00951144,4,0,41.407759566432745,-91.8198983399302,8884.192479466961,-64.47034883775302,1.2333348105801871,3.189669858412796,188.622,8790.15738098984,10980.456319326084,150,True,15.037944821980291,False,178.31119362934191,177.89172822592536,False,3.212446056991794,True,False
9,1970-07-23 10:31:36.266633069,2025-09-12,2025-09-26 20:40:26.663,AA,C,223992074,JASSM,3,138,76,2,2,1,225,9,2,0,1,26,0,0,0,0,-175544.22253592435,-4780114.155244674,4209496.354948521,-2.36674,-0.400177,0.381674,77.5,-32.625,-33.625,0.0,0.0,0.0,0.0,0.0,0.0,2,0,41.53971210080988,-92.10317680244852,10002.623866205136,119.84067030239171,-0.0025966460436154,0.0011346788586867,,8790.15738098984,10980.456319326084,150,9,2025-09-12,2025-09-26 20:40:26.555,AA,C,2566892646,AMBUSH51,1,1,48,2,1,1,225,2,1,0,0,9,1,225,2,1,-152326.68531140662,-4790327.643155306,4198335.304550516,2.36266,2.8187,-0.345942,-95.015,37.0847,40.8874,-0.11104,-7.0676,6.72972,-0.0105746,-0.000544076,0.0049695,4,0,41.408348698273095,-91.8213234887686,8889.275842937293,-64.3412065541781,1.2471190073459866,1.312113689992572,189.086,8790.15738098984,10980.456319326084,150,True,14.911305235268083,False,178.598596857541,177.87066878213992,False,2.9369580825352357,True,False
9,1970-07-23 10:31:36.277832815,2025-09-12,2025-09-26 20:40:27.783,AA,C,225304426,JASSM,3,138,76,2,2,1,225,9,2,0,1,26,0,0,0,0,-175458.93640311187,-4780150.241182174,4209459.185026646,-2.36674,-0.400177,0.381674,77.5,-32.625,-33.625,0.0,0.0,0.0,0.0,0.0,0.0,2,0,41.53926518348212,-92.10214006005674,10002.627842647104,119.8413578037307,-0.0017011520220558,0.0011331525042089,,8790.15738098984,10980.456319326084,150,9,2025-09-12,2025-09-26 20:40:27.755,AA,C,2568324244,AMBUSH51,1,1,48,2,1,1,225,2,1,0,0,9,1,225,2,1,-152440.20976474846,-4790283.241900656,4198383.923449366,2.36583,2.8209,-0.345008,-95.0865,37.2748,41.1622,-0.189684,-6.96824,6.66312,0.0267596,-0.0156804,0.00333831,4,0,41.40891958371408,-91.82269683369168,8894.460517596344,-64.46321955181737,1.296480389032301,1.5335102286409834,189.563,8790.15738098984,10980.456319326084,150,True,14.787220234834397,False,178.66953299713708,177.8503949015999,False,2.8286135798514964,True,False
