Subject_cm,Timestamp,SampleDate_cm,SampleTime_cm,Configuration_cm,Scenario_cm,DisTime_cm,MarkingTxt_cm,Application_cm,EntId_cm,Site_cm,ExerciseId_cm,ForceId_cm,Category_cm,Country_cm,Domain_cm,Kind_cm,Extra_cm,Specific_cm,Subcategory_cm,AltCategory_cm,AltCountry_cm,AltDomain_cm,AltKind_cm,ECEF_X_cm,ECEF_Y_cm,ECEF_Z_cm,OriPhi_cm,OriPsi_cm,OriTheta_cm,LinVelX_cm,LinVelY_cm,LinVelZ_cm,LinAccX_cm,LinAccY_cm,LinAccZ_cm,AngVelX_cm,AngVelY_cm,AngVelZ_cm,DrAlg_cm,Appearance_cm,Latitude_cm,Longitude_cm,Altitude_cm,Heading_cm,Pitch_cm,Roll_cm,CalibratedAirspeed_cm,CM_Altitude_Lead_cm,CM_Altitude_Wing_cm,CM_Airspeed_cm,Subject_ac,SampleDate_ac,SampleTime_ac,Configuration_ac,Scenario_ac,DisTime_ac,MarkingTxt_ac,Application_ac,EntId_ac,Site_ac,ExerciseId_ac,ForceId_ac,Category_ac,Country_ac,Domain_ac,Kind_ac,Extra_ac,Specific_ac,Subcategory_ac,AltCategory_ac,AltCountry_ac,AltDomain_ac,AltKind_ac,ECEF_X_ac,ECEF_Y_ac,ECEF_Z_ac,OriPhi_ac,OriPsi_ac,OriTheta_ac,LinVelX_ac,LinVelY_ac,LinVelZ_ac,LinAccX_ac,LinAccY_ac,LinAccZ_ac,AngVelX_ac,AngVelY_ac,AngVelZ_ac,DrAlg_ac,Appearance_ac,Latitude_ac,Longitude_ac,Altitude_ac,Heading_ac,Pitch_ac,Roll_ac,CalibratedAirspeed_ac,CM_Altitude_Lead_ac,CM_Altitude_Wing_ac,CM_Airspeed_ac,Bank_Angle_Condition,distance_nm,Distance_Condition,angle_between_vel,angle_between_pos,Cone_Condition,angle_between_pos_nose,Nose_Cone_Condition,Intercept_Criteria
9,1970-07-23 10:31:35.634280329,2025-09-12,2025-09-26 20:39:23.428,AA,C,148710842,JASSM,3,137,76,2,2,1,225,9,2,0,1,26,0,0,0,0,-172872.74694998687,-4769906.262666549,4221091.968229771,-2.51458,-0.703426,0.607456,56.125,-47.5,-51.0,0.0,0.0,0.0,0.0,0.0,0.0,2,0,41.67927995525751,-92.0756268453529,10002.62237298456,139.83257345229745,-0.003772186659595,0.0009580486832232,,8790.15738098984,10980.456319326084,150,9,2025-09-12,2025-09-26 20:39:23.115,AA,C,1811042210,HAWK11,1,1,73,2,1,1,225,2,1,0,0,12,1,225,2,1,-146690.20739920562,-4791822.750947799,4197803.591276646,2.34574,2.7047,-0.470453,-93.5,30.875,35.5,0.109375,-6.78125,7.10938,0.0,0.00976562,-0.0117188,4,0,41.39691128345086,-91.75342583497284,10980.456319326084,-55.01629551155915,2.033909720047401,-2.0071691247838706,171.623,8790.15738098984,10980.456319326084,150,True,22.26009038841359,False,155.52759410537098,179.48235332558554,False,24.01845255932053,True,False
9,1970-07-23 10:31:35.644259500,2025-09-12,2025-09-26 20:39:24.425,AA,C,149963542,JASSM,3,137,76,2,2,1,225,9,2,0,1,26,0,0,0,0,-172813.85583670562,-4769956.219697799,4221038.292448521,-2.51458,-0.703426,0.607456,56.125,-47.375,-51.0,0.0,0.0,0.0,0.0,0.0,0.0,2,0,41.67863318869732,-92.07489866486404,10002.631343610385,139.83305766043782,-0.0029271458942255,0.0009564743268854,,8790.15738098984,10980.456319326084,150,9,2025-09-12,2025-09-26 20:39:24.413,AA,C,1812593108,HAWK11,1,1,73,2,1,1,225,2,1,0,0,12,1,225,2,1,-146811.41052420562,-4791782.567354049,4197849.216276646,2.36693,2.70796,-0.480615,-93.5,30.625,35.5,-0.109375,-7.35938,6.89062,0.0527344,0.00585938,0.0136719,4,0,41.39743622771503,-91.75488840869464,10989.722954633937,-54.73534884986687,2.5710870784863147,-0.696152572408269,171.501,8790.15738098984,10980.456319326084,150,True,22.14301662964011,False,155.4772364752655,179.54130336462543,False,24.182286732462543,True,False
9,1970-07-23 10:31:35.655120173,2025-09-12,2025-09-26 20:39:25.512,AA,C,151216240,JASSM,3,137,76,2,2,1,225,9,2,0,1,26,0,0,0,0,-172754.96472342435,-4770006.172822799,4220984.608854771,-2.51458,-0.703426,0.607456,56.125,-47.375,-51.0,0.0,0.0,0.0,0.0,0.0,0.0,2,0,41.67798638829944,-92.0741705006544,10002.618255741158,139.8335418515915,-0.0020820835747909,0.0009548801716398,,8790.15738098984,10980.456319326084,150,9,2025-09-12,2025-09-26 20:39:25.615,AA,C,1814024706,HAWK11,1,1,73,2,1,1,225,2,1,0,0,12,1,225,2,1,-146923.87927420562,-4791745.348604049,4197891.856901646,2.4374,2.70163,-0.485793,-92.875,30.5,35.625,0.0,-7.14062,6.375,0.0429688,-0.00390625,0.0,4,0,41.39792496368871,-91.7562455781902,10999.158672300056,-54.29875134038148,2.565506267482864,3.192672773993918,171.147,8790.15738098984,10980.456319326084,150,True,22.03069061336774,False,155.6306120466636,179.5907200765351,False,24.10128395952496,True,False
9,1970-07-23 10:31:35.665099634,2025-09-12,2025-09-26 20:39:26.509,AA,C,152468938,JASSM,3,137,76,2,2,1,225,9,2,0,1,26,0,0,0,0,-172696.07312186187,-4770056.129854049,4220930.929167271,-2.51448,-0.70333,0.607456,56.125,-47.375,-51.0,0.0,0.0,0.0,0.0,0.0,0.0,2,0,41.67733958621712,-92.07344234347164,10002.62776313941,139.8303746998989,-0.0038826597687522,0.0033105009509971,,8790.15738098984,10980.456319326084,150,9,2025-09-12,2025-09-26 20:39:26.321,AA,C,1814899572,HAWK11,1,1,73,2,1,1,225,2,1,0,0,12,1,225,2,1,-146991.47497733062,-4791722.226533736,4197918.077604771,2.46607,2.69712,-0.48771,-92.125,31.125,35.75,-0.203125,-7.20312,6.15625,0.0214844,0.0,0.0175781,4,0,41.39822717614002,-91.75706154611962,11004.26787023166,-54.05787890759842,2.488855495376856,4.725119869592455,171.232,8790.15738098984,10980.456319326084,150,True,21.942606794627775,False,156.07980262648803,179.61660133771534,False,23.691509110531612,True,False
9,1970-07-23 10:31:35.675079733,2025-09-12,2025-09-26 20:39:27.507,AA,C,153661984,JASSM,3,137,76,2,2,1,225,9,2,0,1,26,0,0,0,0,-172639.98620779935,-4770103.704072799,4220879.804167271,-2.51448,-0.70333,0.607456,56.125,-47.375,-51.0,0.0,0.0,0.0,0.0,0.0,0.0,2,0,41.67672359316422,-92.07274887959804,10002.628265531122,139.83083580561572,-0.003077850001008,0.0033089426917927,,8790.15738098984,10980.456319326084,150,9,2025-09-12,2025-09-26 20:39:27.524,AA,C,1816251638,HAWK11,1,1,73,2,1,1,225,2,1,0,0,12,1,225,2,1,-147094.62146170562,-4791686.426729049,4197958.151823521,2.46702,2.67689,-0.498544,-91.0,31.75,35.875,-0.203125,-6.90625,6.01562,-0.0488281,-0.00585938,0.0117188,4,0,41.39869182289756,-91.75830686157887,11010.935030189024,-52.88845977270707,2.2438615257824988,4.279851325439556,171.232,8790.15738098984,10980.456319326084,150,True,21.837081516694823,False,156.62830013161894,179.65110984061766,False,23.20504329699012,True,False
9,1970-07-23 10:31:35.687839167,2025-09-12,2025-09-26 20:39:28.783,AA,C,154855032,JASSM,3,137,76,2,2,1,225,9,2,0,1,26,0,0,0,0,-172583.89929373687,-4770151.278291549,4220828.679167271,-2.51448,-0.70333,0.607456,56.125,-47.375,-51.0,0.0,0.0,0.0,0.0,0.0,0.0,2,0,41.676107595861296,-92.0720554289492,10002.632895716948,139.8312968969486,-0.0022730401469497,0.0033073844081204,,8790.15738098984,10980.456319326084,150,9,2025-09-12,2025-09-26 20:39:28.725,AA,C,1817603702,HAWK11,1,1,73,2,1,1,225,2,1,0,0,12,1,225,2,1,-147198.01599295562,-4791649.268525924,4197998.606901646,2.38783,2.66002,-0.496626,-90.25,32.5,35.5,-0.1875,-7.03125,5.89062,-0.0742188,-0.00195312,0.00195312,4,0,41.39916706183536,-91.75955565569664,11015.11272462635,-52.33921819108077,1.5879332096442802,-0.7003831162299853,170.976,8790.15738098984,10980.456319326084,150,True,21.73099626114825,False,156.94837311236765,179.67720860474182,False,22.943268226356174,True,False
9,1970-07-23 10:31:35.696280976,2025-09-12,2025-09-26 20:39:29.628,AA,C,156107730,JASSM,3,137,76,2,2,1,225,9,2,0,1,26,0,0,0,0,-172525.00818045562,-4770201.227510299,4220774.995573521,-2.51448,-0.70333,0.607456,56.125,-47.375,-51.0,0.0,0.0,0.0,0.0,0.0,0.0,2,0,41.675460800524434,-92.07132732336798,10002.62801229876,139.83178102512878,-0.0014279962241655,0.0033057503934667,,8790.15738098984,10980.456319326084,150,9,2025-09-12,2025-09-26 20:39:29.725,AA,C,1818876234,HAWK11,1,1,73,2,1,1,225,2,1,0,0,12,1,225,2,1,-147294.27575858062,-4791614.193330611,4198035.981901646,2.34776,2.66059,-0.494134,-90.0,32.875,34.625,-0.140625,-7.15625,6.03125,0.0,0.00195312,-0.00976562,4,0,41.399610408945954,-91.760718469043,11017.199158770729,-52.45788565118778,1.5031729909981089,-2.983858561826042,170.841,8790.15738098984,10980.456319326084,150,True,21.626471987908914,False,156.82208831796768,179.69205026358208,False,23.123168970401974,True,False
9,1970-07-23 10:31:35.707136355,2025-09-12,2025-09-26 20:39:30.713,AA,C,157420082,JASSM,3,137,76,2,2,1,225,9,2,0,1,26,0,0,0,0,-172463.31237967435,-4770253.555635299,4220718.753386021,-2.51448,-0.70333,0.607456,56.125,-47.375,-51.0,0.0,0.0,0.0,0.0,0.0,0.0,2,0,41.674783183230815,-92.07056455738396,10002.62378830159,139.83228819291352,-0.0005426968108439,0.003304029955373,,8790.15738098984,10980.456319326084,150,9,2025-09-12,2025-09-26 20:39:30.523,AA,C,1819870400,HAWK11,1,1,73,2,1,1,225,2,1,0,0,12,1,225,2,1,-147369.25818045562,-4791586.646455611,4198064.864714146,2.36358,2.66299,-0.488189,-89.875,32.75,34.5,-0.1875,-7.10938,6.0,0.0507812,0.0,0.0,4,0,41.39995552891085,-91.76162434645924,11017.775113241796,-52.77803102057642,1.3347897401502948,-2.020482584163801,170.719,8790.15738098984,10980.456319326084,150,True,21.531476836360415,False,156.76720365841624,179.69604048045778,False,23.225353248076896,True,False
9,1970-07-23 10:31:35.718107601,2025-09-12,2025-09-26 20:39:31.810,AA,C,158732432,JASSM,3,137,76,2,2,1,225,9,2,0,1,26,0,0,0,0,-172401.61657889312,-4770305.883760299,4220662.511198521,-2.51448,-0.70333,0.607552,56.125,-47.375,-51.0,0.0,0.0,0.0,0.0,0.0,0.0,2,0,41.674105560795,-92.06980180740014,10002.624559041322,139.83601952742612,-0.0041069390563309,0.0033022035731199,,8790.15738098984,10980.456319326084,150,9,2025-09-12,2025-09-26 20:39:32.025,AA,C,1821301998,HAWK11,1,1,73,2,1,1,225,2,1,0,0,12,1,225,2,1,-147477.10388358062,-4791547.033174361,4198106.360807896,2.49051,2.66299,-0.498544,-89.375,33.0,34.625,-0.1875,-7.3125,6.79688,0.0722656,-0.0078125,0.0078125,4,0,41.40045154781125,-91.76292726585956,11018.528144305425,-52.37746512995491,1.772833011764021,5.263551831411987,170.45,8790.15738098984,10980.456319326084,150,True,21.41812738230085,False,157.02939823206233,179.68916440498177,False,23.031160549538235,True,False
9,1970-07-23 10:31:35.729318142,2025-09-12,2025-09-26 20:39:32.931,AA,C,160044784,JASSM,3,137,76,2,2,1,225,9,2,0,1,26,0,0,0,0,-172339.92077811187,-4770358.211885299,4220606.269011021,-2.51448,-0.70333,0.607552,56.125,-47.375,-51.0,0.0,0.0,0.0,0.0,0.0,0.0,2,0,41.67342793321754,-92.06903907341623,10002.630324527125,139.83652666053533,-0.0032216393383565,0.003300532893985,,8790.15738098984,10980.456319326084,150,9,2025-09-12,2025-09-26 20:39:33.021,AA,C,1822852898,HAWK11,1,1,73,2,1,1,225,2,1,0,0,12,1,225,2,1,-147592.78357108062,-4791503.601533736,4198151.899870396,2.55024,2.63701,-0.518006,-88.5,33.875,35.625,-0.15625,-6.90625,7.15625,-0.00390625,0.00195312,0.0195312,4,0,41.400996121801086,-91.764325198332,11019.26206270729,-50.66521449396757,1.7255151285593575,8.013764049899837,170.45,8790.15738098984,10980.456319326084,150,True,21.29984170929614,False,157.92607036944165,179.66602900870922,False,22.208032881640268,True,False
9,1970-07-23 10:31:35.740274824,2025-09-12,2025-09-26 20:39:34.027,AA,C,161357134,JASSM,3,137,76,2,2,1,225,9,2,0,1,26,0,0,0,0,-172278.22497733062,-4770410.536104049,4220550.022917271,-2.51448,-0.70333,0.607552,56.125,-47.375,-51.0,0.0,0.0,0.0,0.0,0.0,0.0,2,0,41.67275029759839,-92.0682763571242,10002.622997282368,139.83703377511787,-0.0023363381149041,0.0032988593485554,,8790.15738098984,10980.456319326084,150,9,2025-09-12,2025-09-26 20:39:34.025,AA,C,1823608464,HAWK11,1,1,73,2,1,1,225,2,1,0,0,12,1,225,2,1,-147649.06091483062,-4791481.729463424,4198174.935026646,2.56156,2.62455,-0.525484,-88.25,34.625,36.5,-0.109375,-6.875,7.3125,0.0507812,0.0175781,0.0214844,4,0,41.40127141133794,-91.76500556440234,11019.705917903484,-49.918117645836034,1.633771423086951,8.32807461369395,170.181,8790.15738098984,10980.456319326084,150,True,21.214594100434095,False,158.56264447037495,179.64968285842227,False,21.60679182643834,True,False
9,1970-07-23 10:31:35.751480207,2025-09-12,2025-09-26 20:39:35.148,AA,C,162609834,JASSM,3,137,76,2,2,1,225,9,2,0,1,26,0,0,0,0,-172219.33337576812,-4770460.481416549,4220496.335417271,-2.51448,-0.70333,0.607552,56.125,-47.375,-51.0,0.0,0.0,0.0,0.0,0.0,0.0,2,0,41.67210347514957,-92.06754832304556,10002.62360457926,139.83751782389075,-0.0014912894646877,0.0032972733214854,,8790.15738098984,10980.456319326084,150,9,2025-09-12,2025-09-26 20:39:35.229,AA,C,1825477494,HAWK11,1,1,73,2,1,1,225,2,1,0,0,12,1,225,2,1,-147786.97888358062,-4791426.064424361,4198233.772917271,2.63049,2.6046,-0.542166,-87.125,36.375,38.75,-0.15625,-7.04688,7.35938,0.015625,0.00976562,0.0332031,4,0,41.40197442317842,-91.76667371096308,11020.90403727966,-48.54887279669563,1.7042437879322436,11.73644301937757,169.839,8790.15738098984,10980.456319326084,150,False,21.08371529992023,False,160.2619883398596,179.60144649920306,False,19.993064723704947,True,False
9,1970-07-23 10:31:35.761459171,2025-09-12,2025-09-26 20:39:36.145,AA,C,163922186,JASSM,3,137,76,2,2,1,225,9,2,0,1,26,0,0,0,0,-172157.63757498687,-4770512.805635299,4220440.089323521,-2.51448,-0.703234,0.607552,56.125,-47.375,-51.0,0.0,0.0,0.0,0.0,0.0,0.0,2,0,41.671425829481336,-92.06678563802244,10002.62603974954,139.83437169087088,-0.0032532976654559,0.0001589142802037,,8790.15738098984,10980.456319326084,150,9,2025-09-12,2025-09-26 20:39:36.115,AA,C,1826511426,HAWK11,1,1,73,2,1,1,225,2,1,0,0,12,1,225,2,1,-147862.37927420562,-4791394.217744674,4198267.608854771,2.61985,2.58169,-0.550987,-86.5,37.375,40.125,-0.09375,-7.03125,7.4375,-0.0742188,0.00390625,0.0410156,4,0,41.40237843231908,-91.76758623094786,11021.707008302696,-47.36917611664792,1.3568492331852031,10.475976751122,169.387,8790.15738098984,10980.456319326084,150,False,20.985903350271926,False,161.250847785291,179.57104782487193,False,19.05044241195111,True,False
9,1970-07-23 10:31:35.772078281,2025-09-12,2025-09-26 20:39:37.207,AA,C,165234536,JASSM,3,137,76,2,2,1,225,9,2,0,1,26,0,0,0,0,-172095.94275076812,-4770565.125947799,4220383.843229771,-2.51448,-0.703234,0.607552,56.125,-47.375,-51.0,0.0,0.0,0.0,0.0,0.0,0.0,2,0,41.67074820181836,-92.06602298240082,10002.623989085943,139.83487874521194,-0.0023680203870527,0.0001571914776468,,8790.15738098984,10980.456319326084,150,9,2025-09-12,2025-09-26 20:39:37.225,AA,C,1827823726,HAWK11,1,1,73,2,1,1,225,2,1,0,0,12,1,225,2,1,-147959.48864920562,-4791351.957979049,4198313.128386021,2.53692,2.57287,-0.553288,-86.375,38.125,42.0,0.078125,-7.23438,7.67188,-0.0957031,0.00390625,0.0,4,0,41.40291925788883,-91.76876195556206,11023.90046666748,-46.95623757998199,1.1805238286308697,5.468677858081521,168.996,8790.15738098984,10980.456319326084,150,True,20.874255590429154,False,162.16687341581977,179.5295913740399,False,18.19686776326503,True,False
9,1970-07-23 10:31:35.782317671,2025-09-12,2025-09-26 20:39:38.231,AA,C,166427582,JASSM,3,137,76,2,2,1,225,9,2,0,1,26,0,0,0,0,-172039.85437186187,-4770612.692354049,4220332.706511021,-2.51448,-0.703234,0.607552,56.125,-47.375,-51.0,0.0,0.0,0.0,0.0,0.0,0.0,2,0,41.670132131556265,-92.06532964582505,10002.623834406337,139.83533970666562,-0.0015631786159149,0.0001556145535595,,8790.15738098984,10980.456319326084,150,9,2025-09-12,2025-09-26 20:39:38.025,AA,C,1828300924,HAWK11,1,1,73,2,1,1,225,2,1,0,0,12,1,225,2,1,-147994.82458670562,-4791336.536104049,4198330.032682896,2.47767,2.57651,-0.546289,-86.625,38.25,42.625,0.203125,-7.14062,7.67188,-0.132812,-0.00976562,0.00390625,4,0,41.40311861401916,-91.76918979674178,11025.330249418765,-47.351243573408205,0.9892504340277908,2.1755657226076424,168.861,8790.15738098984,10980.456319326084,150,True,20.804601828982587,False,162.33702981668233,179.51317505486463,False,18.050343890528307,True,False
9,1970-07-23 10:31:35.792294970,2025-09-12,2025-09-26 20:39:39.229,AA,C,167620630,JASSM,3,137,76,2,2,1,225,9,2,0,1,26,0,0,0,0,-171983.76696951812,-4770660.254854049,4220281.569792271,-2.51448,-0.703234,0.607648,56.125,-47.375,-51.0,0.0,0.0,0.0,0.0,0.0,0.0,2,0,41.66951608019124,-92.06463633587248,10002.61832701728,139.8390230694555,-0.005204960199374,0.000153877188336,,8790.15738098984,10980.456319326084,150,9,2025-09-12,2025-09-26 20:39:39.225,AA,C,1830169956,HAWK11,1,1,73,2,1,1,225,2,1,0,0,12,1,225,2,1,-148131.50818045562,-4791276.291963424,4198397.186979771,2.42983,2.58054,-0.546193,-87.5,38.375,43.375,-0.09375,-7.0,7.39062,0.0234375,0.00195312,-0.00195312,4,0,41.40390516844652,-91.77084497930808,11033.249894526,-47.506317182103366,1.1139466655927743,-0.4482419928346247,169.081,8790.15738098984,10980.456319326084,150,True,20.67274365031562,False,162.3545780659622,179.44961169299745,False,18.113114255513697,True,False
9,1970-07-23 10:31:35.803255834,2025-09-12,2025-09-26 20:39:40.325,AA,C,168873328,JASSM,3,137,76,2,2,1,225,9,2,0,1,26,0,0,0,0,-171924.87536795562,-4770710.196260299,4220227.878386021,-2.51448,-0.703234,0.607648,56.125,-47.375,-51.0,0.0,0.0,0.0,0.0,0.0,0.0,2,0,41.66886923142041,-92.06390837636174,10002.62360153902,139.8395070380359,-0.0043599096810355,0.0001522818361308,,8790.15738098984,10980.456319326084,150,9,2025-09-12,2025-09-26 20:39:40.725,AA,C,1832038988,HAWK11,1,1,73,2,1,1,225,2,1,0,0,12,1,225,2,1,-148269.04528983062,-4791215.799775924,4198465.583464146,2.60134,2.57181,-0.559711,-87.625,39.0,44.625,-0.078125,-6.875,7.21875,0.136719,0.00976562,0.0136719,4,0,41.40470140155648,-91.7725104892536,11043.333554078052,-46.68231491025403,1.4322662667514494,9.135091959951993,169.301,8790.15738098984,10980.456319326084,150,True,20.537768406857634,False,162.91233943836093,179.38163201318537,False,17.63699279693331,True,False
9,1970-07-23 10:31:35.813135296,2025-09-12,2025-09-26 20:39:41.313,AA,C,170126026,JASSM,3,137,76,2,2,1,225,9,2,0,1,26,0,0,0,0,-171865.9835222525,-4770760.137666549,4220174.183073521,-2.51448,-0.703234,0.607648,56.125,-47.375,-51.0,0.0,0.0,0.0,0.0,0.0,0.0,2,0,41.66822235175936,-92.06318042849702,10002.624885279229,139.839990992712,-0.0035148376283576,0.0001506712270037,,8790.15738098984,10980.456319326084,150,9,2025-09-12,2025-09-26 20:39:41.115,AA,C,1832476420,HAWK11,1,1,73,2,1,1,225,2,1,0,0,12,1,225,2,1,-148300.57263358062,-4791201.623018111,4198481.677214146,2.63921,2.56597,-0.563642,-87.375,39.375,45.125,-0.203125,-6.78125,7.15625,0.0722656,-0.00585938,0.0234375,4,0,41.40488856632809,-91.7728923908486,11045.785148717974,-46.32043132819585,1.4228029911258464,11.135504792124127,169.656,8790.15738098984,10980.456319326084,150,False,20.46759902368228,False,163.26407749596257,179.36497675841426,False,17.30456155373212,True,False
9,1970-07-23 10:31:35.829079483,2025-09-12,2025-09-26 20:39:42.907,AA,C,171259422,JASSM,3,137,76,2,2,1,225,9,2,0,1,26,0,0,0,0,-171812.7003191275,-4770805.317354049,4220125.604948521,-2.51439,-0.703234,0.607648,56.125,-47.375,-51.0,0.0,0.0,0.0,0.0,0.0,0.0,2,0,41.66763713043331,-92.06252182263368,10002.624049961074,139.84042884209063,-0.0027502909326991,0.0056407207958401,,8790.15738098984,10980.456319326084,150,9,2025-09-12,2025-09-26 20:39:43.021,AA,C,1834703352,HAWK11,1,1,73,2,1,1,225,2,1,0,0,12,1,225,2,1,-148461.91247733062,-4791124.933564986,4198567.200651646,2.67258,2.5094,-0.589336,-85.375,42.0,47.5,-0.109375,-6.76562,7.04688,0.0527344,0.00195312,0.0234375,4,0,41.405892344664124,-91.77484832180788,11055.025208637531,-43.2839991401124,0.8546831215919125,11.340768110736564,169.79,8790.15738098984,10980.456319326084,150,False,20.319605464591646,False,165.44718088758327,179.28789163966633,False,15.206212248409212,True,False
9,1970-07-23 10:31:35.833456772,2025-09-12,2025-09-26 20:39:43.345,AA,C,172452468,JASSM,3,137,76,2,2,1,225,9,2,0,1,26,0,0,0,0,-171756.61291678375,-4770852.879854049,4220074.464323521,-2.51439,-0.703234,0.607648,56.125,-47.375,-51.0,0.0,0.0,0.0,0.0,0.0,0.0,2,0,41.667021035604336,-92.06182856621784,10002.62674042008,139.84088972214022,-0.0019454527138734,0.0056391793547922,,8790.15738098984,10980.456319326084,150,9,2025-09-12,2025-09-26 20:39:43.319,AA,C,1835140784,HAWK11,1,1,73,2,1,1,225,2,1,0,0,12,1,225,2,1,-148493.92224295562,-4791108.814424361,4198584.974089146,2.6836,2.50489,-0.587994,-85.125,42.75,48.0,0.0,-6.89062,7.1875,0.00976562,0.00585938,0.0214844,4,0,41.40610230552751,-91.7752367194778,11056.385541751655,-43.162866028502975,0.6619339017272835,11.830798044667562,169.656,8790.15738098984,10980.456319326084,150,False,20.250614357020073,False,165.9108412819419,179.27214575871056,False,14.757847665960275,True,False
9,1970-07-23 10:31:35.842187660,2025-09-12,2025-09-26 20:39:44.218,AA,C,173585862,JASSM,3,137,76,2,2,1,225,9,2,0,1,26,0,0,0,0,-171703.32971365875,-4770898.059541549,4220025.882292271,-2.51439,-0.703234,0.607648,56.125,-47.375,-51.0,0.0,0.0,0.0,0.0,0.0,0.0,2,0,41.66643578014932,-92.06116998484016,10002.625031806709,139.8413275448867,-0.0011808857884107,0.0056377398500216,,8790.15738098984,10980.456319326084,150,9,2025-09-12,2025-09-26 20:39:44.521,AA,C,1836532616,HAWK11,1,1,73,2,1,1,225,2,1,0,0,12,1,225,2,1,-148592.82068045562,-4791057.293916549,4198641.761198521,2.67382,2.48419,-0.594801,-84.0,44.375,49.75,0.09375,-6.76562,7.15625,-0.0253906,0.00976562,0.03125,4,0,41.40677386849646,-91.77643737802534,11060.433321858663,-42.14600670588976,0.3684455704844316,10.618334853732648,169.925,8790.15738098984,10980.456319326084,150,False,20.13953801508333,False,167.28970997117503,179.22803641602914,False,13.428422338997796,True,False
9,1970-07-23 10:31:35.852081560,2025-09-12,2025-09-26 20:39:45.208,AA,C,174778908,JASSM,3,137,76,2,2,1,225,9,2,0,1,26,0,0,0,0,-171647.24206717435,-4770945.618135299,4219974.741667271,-2.51439,-0.703138,0.607648,56.125,-47.375,-51.0,0.0,0.0,0.0,0.0,0.0,0.0,2,0,41.66581970044523,-92.06047675295711,10002.626182735672,139.83813784338582,-0.0030217534020326,0.0025010313518836,,8790.15738098984,10980.456319326084,150,9,2025-09-12,2025-09-26 20:39:45.225,AA,C,1837407482,HAWK11,1,1,73,2,1,1,225,2,1,0,0,12,1,225,2,1,-148654.18786795562,-4791024.031221236,4198678.321745396,2.70182,2.46367,-0.606881,-83.25,45.375,50.75,0.109375,-6.98438,7.3125,0.0410156,0.00976562,0.0195312,4,0,41.40720720394837,-91.77718288706949,11062.63923914742,-40.9556002827726,0.336437157447731,11.565187467584693,169.925,8790.15738098984,10980.456319326084,150,False,20.050044013916075,False,168.12828628270088,179.20115551788336,False,12.619178449796625,True,False
9,1970-07-23 10:31:35.863280385,2025-09-12,2025-09-26 20:39:46.328,AA,C,176031606,JASSM,3,137,76,2,2,1,225,9,2,0,1,26,0,0,0,0,-171588.35022147125,-4770995.551729049,4219921.042448521,-2.51439,-0.703138,0.607648,56.125,-47.375,-51.0,0.0,0.0,0.0,0.0,0.0,0.0,2,0,41.665172819156815,-92.05974887716476,10002.621266330088,139.83862172117094,-0.0021766982566999,0.002499378035841,,8790.15738098984,10980.456319326084,150,9,2025-09-12,2025-09-26 20:39:46.021,AA,C,1838282348,HAWK11,1,1,73,2,1,1,225,2,1,0,0,12,1,225,2,1,-148715.39489920562,-4790990.035127486,4198715.714323521,2.68571,2.45456,-0.609278,-82.625,46.5,51.75,0.0625,-6.95312,7.25,-0.046875,-0.00390625,0.0292969,4,0,41.40765054315098,-91.7779267643758,11064.837809565814,-40.53038965689461,0.1919125416804022,10.346296779932866,169.839,8790.15738098984,10980.456319326084,150,False,19.957725928320613,False,168.9565979843691,179.1749426337174,False,11.81813115420884,True,False
9,1970-07-23 10:31:35.873277519,2025-09-12,2025-09-26 20:39:47.327,AA,C,177224652,JASSM,3,137,76,2,2,1,225,9,2,0,1,26,0,0,0,0,-171532.26257498687,-4771043.110322799,4219869.901823521,-2.51439,-0.703138,0.607648,56.125,-47.375,-51.0,0.0,0.0,0.0,0.0,0.0,0.0,2,0,41.66455673074648,-92.05905567237625,10002.63087943712,139.8390825446114,-0.0013718770822064,0.0024978010230339,,8790.15738098984,10980.456319326084,150,9,2025-09-12,2025-09-26 20:39:47.115,AA,C,1839634414,HAWK11,1,1,73,2,1,1,225,2,1,0,0,12,1,225,2,1,-148808.30700858062,-4790936.431611861,4198774.727995396,2.66692,2.4258,-0.616852,-81.75,47.75,53.375,0.125,-6.6875,7.01562,-0.046875,-0.00390625,0.0273438,4,0,41.40835060449432,-91.77905672844707,11068.155024133164,-39.18561083168565,-0.2480167630110908,8.32094212721175,170.279,8790.15738098984,10980.456319326084,150,True,19.844945250283473,False,170.06880840400024,179.13818661466044,False,10.749382735644454,True,False
9,1970-07-23 10:31:35.883135667,2025-09-12,2025-09-26 20:39:48.313,AA,C,178477350,JASSM,3,137,76,2,2,1,225,9,2,0,1,26,0,0,0,0,-171473.37048514312,-4771093.040010299,4219816.202604771,-2.51439,-0.703138,0.607744,56.125,-47.375,-51.0,0.0,0.0,0.0,0.0,0.0,0.0,2,0,41.66390986372281,-92.05832782378744,10002.625258822703,139.84279106546188,-0.0049760263911544,0.0024960086061827,,8790.15738098984,10980.456319326084,150,9,2025-09-12,2025-09-26 20:39:48.021,AA,C,1840787646,HAWK11,1,1,73,2,1,1,225,2,1,0,0,12,1,225,2,1,-148888.14099295562,-4790888.942354049,4198826.888151646,2.62224,2.41103,-0.622029,-81.375,49.0,54.375,0.0,-6.8125,7.125,-0.125,-0.00390625,0.0,4,0,41.40897043828015,-91.78002819138764,11070.645657769464,-38.45262223095143,-0.4026197726348595,5.26599057116992,170.413,8790.15738098984,10980.456319326084,150,True,19.73798402195376,False,170.82855181011925,179.10759953359755,False,10.01988709712547,True,False
9,1970-07-23 10:31:35.893126584,2025-09-12,2025-09-26 20:39:49.312,AA,C,179610746,JASSM,3,137,76,2,2,1,225,9,2,0,1,26,0,0,0,0,-171420.08728201812,-4771138.219697799,4219767.612761021,-2.51439,-0.703138,0.607744,56.125,-47.375,-51.0,0.0,0.0,0.0,0.0,0.0,0.0,2,0,41.66332453537047,-92.05766930581584,10002.626314679152,139.84322881942273,-0.0042114189202376,0.0024945294295216,,8790.15738098984,10980.456319326084,150,9,2025-09-12,2025-09-26 20:39:49.267,AA,C,1841702278,HAWK11,1,1,73,2,1,1,225,2,1,0,0,12,1,225,2,1,-148950.78552420562,-4790851.005830611,4198868.585417271,2.49559,2.40269,-0.622125,-81.5,49.5,54.875,-0.03125,-6.67188,6.9375,-0.162109,0.0,0.00976562,4,0,41.409465990599934,-91.78079074634852,11072.616888755992,-38.13137276577836,-0.6194820133441343,-2.2717023822156386,170.719,8790.15738098984,10980.456319326084,150,True,19.64754147770189,False,171.05922267466053,179.08394242932803,False,9.813941904195246,True,False
9,1970-07-23 10:31:35.903117508,2025-09-12,2025-09-26 20:39:50.311,AA,C,180803794,JASSM,3,137,76,2,2,1,225,9,2,0,1,26,0,0,0,0,-171363.99939139312,-4771185.770479049,4219716.468229771,-2.51439,-0.703138,0.607744,56.125,-47.375,-51.0,0.0,0.0,0.0,0.0,0.0,0.0,2,0,41.662708454718086,-92.05697614111324,10002.620634579864,139.8436895995628,-0.0034066132766475,0.0024930106075443,,8790.15738098984,10980.456319326084,150,9,2025-09-12,2025-09-26 20:39:50.021,AA,C,1843094110,HAWK11,1,1,73,2,1,1,225,2,1,0,0,12,1,225,2,1,-149046.02185233062,-4790793.176729049,4198932.126432896,2.42283,2.40835,-0.619537,-82.75,49.75,55.125,-0.015625,-6.8125,7.03125,0.00390625,-0.015625,-0.0195312,4,0,41.41022129008365,-91.78195011218232,11075.563940595706,-38.433261208506586,-0.5894873371238513,-6.249085682538915,171.025,8790.15738098984,10980.456319326084,150,True,19.5313788473388,False,170.76273943550225,179.04857053728009,False,10.146283742679815,True,False
9,1970-07-23 10:31:35.913076132,2025-09-12,2025-09-26 20:39:51.307,AA,C,182056492,JASSM,3,137,76,2,2,1,225,9,2,0,1,26,0,0,0,0,-171305.10705740875,-4771235.700166549,4219662.765104771,-2.51439,-0.703138,0.607744,56.125,-47.375,-51.0,0.0,0.0,0.0,0.0,0.0,0.0,2,0,41.66206154810792,-92.05624833122276,10002.619475874602,139.84417340402152,-0.0025615534275736,0.0024914052971239,,8790.15738098984,10980.456319326084,150,9,2025-09-12,2025-09-26 20:39:51.117,AA,C,1844446174,HAWK11,1,1,73,2,1,1,225,2,1,0,0,12,1,225,2,1,-149140.69958670562,-4790736.162080611,4198994.399870396,2.43126,2.42551,-0.608799,-83.875,50.125,55.0,-0.203125,-6.75,7.01562,0.0507812,0.0,-0.00195312,4,0,41.41096328005592,-91.7831025274557,11077.728930555117,-39.4453746983661,-0.6274907270591137,-5.188082129894059,171.55,8790.15738098984,10980.456319326084,150,True,19.413628218661987,False,170.4505228034594,179.0120089377199,False,10.49045387281163,True,False
9,1970-07-23 10:31:35.923316828,2025-09-12,2025-09-26 20:39:52.331,AA,C,183189886,JASSM,3,137,76,2,2,1,225,9,2,0,1,26,0,0,0,0,-171251.82361014312,-4771280.875947799,4219614.179167271,-2.51439,-0.703138,0.607744,56.125,-47.375,-51.0,0.0,0.0,0.0,0.0,0.0,0.0,2,0,41.66147625732158,-92.05558984966837,10002.631225972851,139.84461111784103,-0.0017969830710766,0.0024899587912672,,8790.15738098984,10980.456319326084,150,9,2025-09-12,2025-09-26 20:39:52.115,AA,C,1845599406,HAWK11,1,1,73,2,1,1,225,2,1,0,0,12,1,225,2,1,-149221.44177420562,-4790688.173799361,4199046.681120396,2.47786,2.43663,-0.620591,-84.375,49.875,55.0,-0.203125,-6.89062,7.17188,0.0703125,0.0078125,0.0,4,0,41.41158669684928,-91.78408510398329,11079.349074354255,-39.47457579450037,0.2259120739273104,-2.150645046395917,171.978,8790.15738098984,10980.456319326084,150,True,19.31102801153472,False,170.21281594358493,178.97936081093187,False,10.764517035002418,True,False
9,1970-07-23 10:31:35.933317259,2025-09-12,2025-09-26 20:39:53.331,AA,C,184382932,JASSM,3,137,76,2,2,1,225,9,2,0,1,26,0,0,0,0,-171195.73596365875,-4771328.426729049,4219563.030729771,-2.51439,-0.703138,0.607744,56.125,-47.375,-51.0,0.0,0.0,0.0,0.0,0.0,0.0,2,0,41.66086013761576,-92.05489672753576,10002.629431777408,139.84507185291508,-0.0009921584661652,0.0024884212545197,,8790.15738098984,10980.456319326084,150,9,2025-09-12,2025-09-26 20:39:53.115,AA,C,1846792406,HAWK11,1,1,73,2,1,1,225,2,1,0,0,12,1,225,2,1,-149304.88903983062,-4790638.719697799,4199100.626432896,2.52254,2.44843,-0.621837,-84.5,50.25,55.125,-0.265625,-6.75,6.92188,0.0214844,-0.00585938,0.0,4,0,41.41222955586417,-91.7851005661749,11081.188869107718,-39.87728365378828,0.6081293937199762,0.799673220827455,172.943,8790.15738098984,10980.456319326084,150,True,19.20418802212861,False,170.30714165986342,178.9449423733285,False,10.703215956826115,True,False
9,1970-07-23 10:31:35.943295091,2025-09-12,2025-09-26 20:39:54.329,AA,C,185575978,JASSM,3,137,76,2,2,1,225,9,2,0,1,26,0,0,0,0,-171139.64807303375,-4771375.973604049,4219511.882292271,-2.51439,-0.703138,0.607744,56.125,-47.375,-51.0,0.0,0.0,0.0,0.0,0.0,0.0,2,0,41.66024403706842,-92.05420361736893,10002.622175564336,139.8455325744452,-0.0001873510617716,0.0024868994980071,,8790.15738098984,10980.456319326084,150,9,2025-09-12,2025-09-26 20:39:54.319,AA,C,1848303538,HAWK11,1,1,73,2,1,1,225,2,1,0,0,12,1,225,2,1,-149411.24841483062,-4790574.776338424,4199169.800261021,2.53567,2.44459,-0.639862,-84.25,50.625,55.625,0.15625,-6.84375,7.09375,-0.0351562,0.0078125,0.00976562,4,0,41.4130571423693,-91.78639521186668,11082.207885158568,-39.12478475714008,1.3378174270804746,1.435645579504727,173.151,8790.15738098984,10980.456319326084,150,True,19.080866674077438,False,170.6259771838169,178.902139583441,False,10.430406395836627,True,False
9,1970-07-23 10:31:35.953259377,2025-09-12,2025-09-26 20:39:55.325,AA,C,186769024,JASSM,3,137,76,2,2,1,225,9,2,0,1,26,0,0,0,0,-171083.56018240875,-4771423.524385299,4219460.733854771,-2.51439,-0.703043,0.607744,56.125,-47.375,-51.0,0.0,0.0,0.0,0.0,0.0,0.0,2,0,41.65962790892347,-92.05351051873446,10002.628615727366,139.84234084740987,-0.0020298833182669,-0.0006522648633013,,8790.15738098984,10980.456319326084,150,9,2025-09-12,2025-09-26 20:39:55.522,AA,C,1849655602,HAWK11,1,1,73,2,1,1,225,2,1,0,0,12,1,225,2,1,-149507.58239920562,-4790516.485322799,4199232.655729771,2.42014,2.43711,-0.64293,-84.625,51.0,55.625,0.078125,-6.5625,6.73438,-0.0820312,0.0,0.00195312,4,0,41.41381030187831,-91.78756799285917,11082.656003428983,-38.74442409128797,1.2791839102301534,-5.431052872107902,173.114,8790.15738098984,10980.456319326084,150,True,18.964461466565908,False,170.6007354791878,178.86298263176812,False,10.49188926171851,True,False
9,1970-07-23 10:31:35.963057886,2025-09-12,2025-09-26 20:39:56.305,AA,C,187902418,JASSM,3,137,76,2,2,1,225,9,2,0,1,26,0,0,0,0,-171030.2764910025,-4771468.692354049,4219412.140104771,-2.51439,-0.703043,0.60784,56.125,-47.375,-51.0,0.0,0.0,0.0,0.0,0.0,0.0,2,0,41.6590425964355,-92.05285208719496,10002.619659493042,139.84600142056087,-0.0057115535149494,-0.0006539603939777,,8790.15738098984,10980.456319326084,150,9,2025-09-12,2025-09-26 20:39:56.319,AA,C,1850689534,HAWK11,1,1,73,2,1,1,225,2,1,0,0,12,1,225,2,1,-149580.80700858062,-4790472.558564986,4199279.782682896,2.40384,2.44497,-0.641587,-85.375,51.0,55.25,-0.046875,-6.67188,6.82812,0.0195312,0.0,-0.0195312,4,0,41.414376124305214,-91.7884593136299,11082.527969572831,-39.08201310118928,1.4300449334812175,-6.102876732583305,172.894,8790.15738098984,10980.456319326084,150,True,18.867147007006377,False,170.24859629939434,178.83169241780848,False,10.871934439131495,True,False
9,1970-07-23 10:31:35.973076498,2025-09-12,2025-09-26 20:39:57.307,AA,C,189095468,JASSM,3,137,76,2,2,1,225,9,2,0,1,26,0,0,0,0,-170974.18835623687,-4771516.239229049,4219360.991667271,-2.51439,-0.703043,0.60784,56.125,-47.375,-51.0,0.0,0.0,0.0,0.0,0.0,0.0,2,0,41.65842648341602,-92.0521590130759,10002.624558900769,139.84646210182945,-0.0049067444958647,-0.0006554865502648,,8790.15738098984,10980.456319326084,150,9,2025-09-12,2025-09-26 20:39:57.319,AA,C,1851564400,HAWK11,1,1,73,2,1,1,225,2,1,0,0,12,1,225,2,1,-149643.80310233062,-4790434.808564986,4199319.964323521,2.42465,2.45149,-0.63363,-86.125,51.375,54.875,-0.046875,-6.67188,6.875,0.0703125,0.0078125,-0.00585938,4,0,41.41486021555239,-91.78922612577372,11081.735698960692,-39.594371769973954,1.2407745825630443,-4.7002942413508,172.686,8790.15738098984,10980.456319326084,150,True,18.774748814208877,False,169.99245713991385,178.80378128139233,False,11.148025231456227,True,False
9,1970-07-23 10:31:35.983872771,2025-09-12,2025-09-26 20:39:58.387,AA,C,190288512,JASSM,3,137,76,2,2,1,225,9,2,0,1,26,0,0,0,0,-170918.10046561187,-4771563.786104049,4219309.839323521,-2.51439,-0.703043,0.60784,56.125,-47.375,-51.0,0.0,0.0,0.0,0.0,0.0,0.0,2,0,41.65781033983535,-92.05146595509632,10002.625089116047,139.84692276678214,-0.0041019166870565,-0.0006570313725864,,8790.15738098984,10980.456319326084,150,9,2025-09-12,2025-09-26 20:39:58.529,AA,C,1853314132,HAWK11,1,1,73,2,1,1,225,2,1,0,0,12,1,225,2,1,-149770.98278983062,-4790358.963838424,4199400.659636021,2.53682,2.4466,-0.647052,-86.375,51.25,55.375,-0.125,-7.0625,7.20312,0.0429688,-0.00976562,0.00195312,4,0,41.41583245379204,-91.79077410257312,11080.126141412098,-38.95882426379498,1.729037549701057,1.5761049344525482,172.992,8790.15738098984,10980.456319326084,150,True,18.63757847059164,False,170.01702279537258,178.74892708799223,False,11.187656479665536,True,False
9,1970-07-23 10:31:35.993106853,2025-09-12,2025-09-26 20:39:59.310,AA,C,191541210,JASSM,3,137,76,2,2,1,225,9,2,0,1,26,0,0,0,0,-170859.20788748687,-4771613.707979049,4219256.128386021,-2.51429,-0.703043,0.60784,56.125,-47.375,-51.0,0.0,0.0,0.0,0.0,0.0,0.0,2,0,41.65716339201408,-92.05073825592964,10002.622191911369,139.84740645118126,-0.003256851924905,0.0048328249026339,,8790.15738098984,10980.456319326084,150,9,2025-09-12,2025-09-26 20:39:59.413,AA,C,1854308298,HAWK11,1,1,73,2,1,1,225,2,1,0,0,12,1,225,2,1,-149842.43200858062,-4790316.517549361,4199445.946745396,2.55408,2.43606,-0.650791,-86.375,51.625,55.625,-0.078125,-6.84375,6.875,-0.00585938,0.0,0.00976562,4,0,41.41637735591823,-91.79164371132852,11079.526681308762,-38.443868365872135,1.6197404868936238,2.2149325093430408,173.469,8790.15738098984,10980.456319326084,150,True,18.53705056985739,False,170.1817711063802,178.7159950967984,False,11.055292210230343,True,False
9,1970-07-23 10:31:36.002355791,2025-09-12,2025-09-26 20:40:00.235,AA,C,192674606,JASSM,3,137,76,2,2,1,225,9,2,0,1,26,0,0,0,0,-170805.92419608062,-4771658.875947799,4219207.534636021,-2.51429,-0.703043,0.60784,56.125,-47.375,-51.0,0.0,0.0,0.0,0.0,0.0,0.0,2,0,41.65657806339468,-92.05007987459256,10002.628921581898,139.84784405635045,-0.0024922767248792,0.0048313685125829,,8790.15738098984,10980.456319326084,150,9,2025-09-12,2025-09-26 20:40:00.319,AA,C,1855342230,HAWK11,1,1,73,2,1,1,225,2,1,0,0,12,1,225,2,1,-149918.24255545562,-4790270.911104049,4199494.688932896,2.52627,2.42829,-0.658845,-86.375,51.75,56.125,0.109375,-7.07812,7.21875,-0.0214844,0.00976562,0.0136719,4,0,41.4169635604484,-91.79256663063488,11078.995039814983,-37.888225602780025,1.788921784057751,0.3676580686186227,174.067,8790.15738098984,10980.456319326084,150,True,18.437921062477123,False,170.34932120471436,178.68196972030947,False,10.92697017944357,True,False
9,1970-07-23 10:31:36.012312156,2025-09-12,2025-09-26 20:40:01.231,AA,C,193867646,JASSM,3,137,76,2,2,1,225,9,2,0,1,26,0,0,0,0,-170749.83630545562,-4771706.418916549,4219156.382292271,-2.51429,-0.703043,0.60784,56.125,-47.375,-51.0,0.0,0.0,0.0,0.0,0.0,0.0,2,0,41.65596193043046,-92.04938685792249,10002.632266466142,139.84830467707576,-0.0016874673126048,0.0048298377160955,,8790.15738098984,10980.456319326084,150,9,2025-09-12,2025-09-26 20:40:01.225,AA,C,1856535228,HAWK11,1,1,73,2,1,1,225,2,1,0,0,12,1,225,2,1,-150005.00036795562,-4790218.763643111,4199550.890104771,2.53883,2.42388,-0.661913,-86.5,51.875,56.625,-0.15625,-6.89062,7.0,0.0292969,0.00390625,0.00195312,4,0,41.41763697716123,-91.7936228258992,11079.41555385146,-37.62422678586519,1.8169355423612428,0.940805285526568,174.581,8790.15738098984,10980.456319326084,150,True,18.328567714367725,False,170.47326738032524,178.64292557037567,False,10.84709201252326,True,False
9,1970-07-23 10:31:36.022272063,2025-09-12,2025-09-26 20:40:02.227,AA,C,195001046,JASSM,3,137,76,2,2,1,225,9,2,0,1,26,0,0,0,0,-170696.55212576812,-4771751.582979049,4219107.784636021,-2.51429,-0.703043,0.60784,56.125,-47.375,-51.0,0.0,0.0,0.0,0.0,0.0,0.0,2,0,41.65537659113803,-92.04872849687786,10002.62851289994,139.84874225840252,-0.0009228877913666,0.0048283818552381,,8790.15738098984,10980.456319326084,150,9,2025-09-12,2025-09-26 20:40:02.225,AA,C,1857728228,HAWK11,1,1,73,2,1,1,225,2,1,0,0,12,1,225,2,1,-150091.78552420562,-4790166.268525924,4199607.591276646,2.59732,2.42033,-0.662296,-86.375,52.25,57.125,0.03125,-6.9375,7.04688,0.0390625,0.00390625,0.00390625,4,0,41.418315821957975,-91.79467949984894,11080.075370268652,-37.481473326557854,1.742964761575832,4.171356168440447,175.399,8790.15738098984,10980.456319326084,150,True,18.221364460286807,False,170.74281331040748,178.60404778221525,False,10.618692366174884,True,False
9,1970-07-23 10:31:36.031274444,2025-09-12,2025-09-26 20:40:03.127,AA,C,196134440,JASSM,3,137,76,2,2,1,225,9,2,0,1,26,0,0,0,0,-170643.26843436187,-4771796.747041549,4219059.186979771,-2.51429,-0.703043,0.60784,56.125,-47.375,-51.0,0.0,0.0,0.0,0.0,0.0,0.0,2,0,41.65479124791055,-92.04807015360994,10002.628527538936,139.84917982286942,-0.0001583109330818,0.0048269225610467,,8790.15738098984,10980.456319326084,150,9,2025-09-12,2025-09-26 20:40:03.225,AA,C,1858921226,HAWK11,1,1,73,2,1,1,225,2,1,0,0,12,1,225,2,1,-150178.20935233062,-4790113.158174361,4199664.954557896,2.67871,2.40212,-0.67035,-85.75,53.0,57.875,-0.109375,-6.92188,6.89062,0.0742188,0.0078125,0.0253906,4,0,41.41900285354323,-91.79573210853322,11080.63846153985,-36.5451069659004,1.6505861159508557,8.21789092303732,176.035,8790.15738098984,10980.456319326084,150,True,18.113899422158703,False,171.33783089768264,178.56603440872135,False,10.06277709982474,True,False
9,1970-07-23 10:31:36.043046694,2025-09-12,2025-09-26 20:40:04.304,AA,C,197387138,JASSM,3,137,76,2,2,1,225,9,2,0,1,26,0,0,0,0,-170584.37561209625,-4771846.665010299,4219005.472136021,-2.51429,-0.703043,0.60784,56.125,-47.375,-51.0,0.0,0.0,0.0,0.0,0.0,0.0,2,0,41.65414427538858,-92.04734252115593,10002.62875975543,139.84966343416826,0.0006867570652584,0.0048253054866498,,8790.15738098984,10980.456319326084,150,9,2025-09-12,2025-09-26 20:40:04.411,AA,C,1860114224,HAWK11,1,1,73,2,1,1,225,2,1,0,0,12,1,225,2,1,-150263.95544608062,-4790058.508760299,4199723.772917271,2.77881,2.3839,-0.672459,-84.625,54.25,59.125,-0.34375,-7.07812,7.07812,0.0527344,0.00390625,0.0195312,4,0,41.419708979730906,-91.79677721760302,11080.529894626938,-35.80317232418019,1.2893444316584224,13.32272940149933,177.012,8790.15738098984,10980.456319326084,150,False,18.000935085562837,False,172.35183771079073,178.53023649723994,False,9.085870753150312,True,False
9,1970-07-23 10:31:36.052115264,2025-09-12,2025-09-26 20:40:05.211,AA,C,198580184,JASSM,3,137,76,2,2,1,225,9,2,0,1,26,0,0,0,0,-170528.28723319,-4771894.204072799,4218954.315886021,-2.51429,-0.702947,0.607936,56.125,-47.375,-51.0,0.0,0.0,0.0,0.0,0.0,0.0,2,0,41.65352812284857,-92.04664955248124,10002.630279592642,139.84969938690875,-0.0056029992486553,0.0016874187523692,,8790.15738098984,10980.456319326084,150,9,2025-09-12,2025-09-26 20:40:05.319,AA,C,1861386756,HAWK11,1,1,73,2,1,1,225,2,1,0,0,12,1,225,2,1,-150354.42810233062,-4789998.604463424,4199787.993620396,2.83154,2.35246,-0.663734,-83.125,56.375,60.375,-0.109375,-6.48438,6.59375,-0.0253906,-0.00585938,0.03125,4,0,41.42048194051382,-91.79788080167371,11079.597425435451,-34.90147816765306,0.0920987297840594,15.23882862721191,178.271,8790.15738098984,10980.456319326084,150,False,17.88561861043695,False,173.6975605311052,178.49556438280328,False,7.762096066848327,True,False
9,1970-07-23 10:31:36.062258593,2025-09-12,2025-09-26 20:40:06.225,AA,C,199713580,JASSM,3,137,76,2,2,1,225,9,2,0,1,26,0,0,0,0,-170475.00329764312,-4771939.364229049,4218905.714323521,-2.51429,-0.702947,0.607936,56.125,-47.375,-51.0,0.0,0.0,0.0,0.0,0.0,0.0,2,0,41.652942764661134,-92.0459912456037,10002.623950091393,139.85013691144016,-0.0048384193611904,0.0016859525910894,,8790.15738098984,10980.456319326084,150,9,2025-09-12,2025-09-26 20:40:06.225,AA,C,1862142322,HAWK11,1,1,73,2,1,1,225,2,1,0,0,12,1,225,2,1,-150406.25036795562,-4789962.750947799,4199825.860807896,2.81821,2.33414,-0.66987,-82.125,57.5,61.0,0.015625,-6.59375,6.65625,-0.00585938,0.00195312,0.0253906,4,0,41.42094115266177,-91.79851351880116,11077.626894282248,-34.01813712382111,-0.0565071274689011,13.826777034193322,178.772,8790.15738098984,10980.456319326084,150,False,17.800595418946145,False,174.45830225698305,178.47608214309741,False,7.009594305050443,True,False
9,1970-07-23 10:31:36.071096552,2025-09-12,2025-09-26 20:40:07.109,AA,C,200846974,JASSM,3,137,76,2,2,1,225,9,2,0,1,26,0,0,0,0,-170421.71936209625,-4771984.524385299,4218857.112761021,-2.51429,-0.702947,0.607936,56.125,-47.375,-51.0,0.0,0.0,0.0,0.0,0.0,0.0,2,0,41.65235740264351,-92.04533295064566,10002.621346018055,139.85057442300493,-0.0040738393952894,0.0016844864077538,,8790.15738098984,10980.456319326084,150,9,2025-09-12,2025-09-26 20:40:07.225,AA,C,1863613688,HAWK11,1,1,73,2,1,1,225,2,1,0,0,12,1,225,2,1,-150507.77380545562,-4789889.549775924,4199902.954557896,2.82329,2.31717,-0.673034,-80.25,59.25,62.875,-0.125,-7.3125,7.14062,-0.0488281,0.0078125,0.015625,4,0,41.421878028037504,-91.7997541940955,11072.806918286004,-33.27757103780158,-0.3055468194452776,13.51093872320211,179.444,8790.15738098984,10980.456319326084,150,False,17.676175550685386,False,175.97827452231402,178.4452901327574,False,5.518205359625304,True,False
9,1970-07-23 10:31:36.081436737,2025-09-12,2025-09-26 20:40:08.143,AA,C,202040020,JASSM,3,137,76,2,2,1,225,9,2,0,1,26,0,0,0,0,-170365.63098319,-4772032.059541549,4218805.952604771,-2.51429,-0.702947,0.607936,56.125,-47.375,-51.0,0.0,0.0,0.0,0.0,0.0,0.0,2,0,41.65174123487899,-92.04464002194536,10002.616749415456,139.85103494716418,-0.0032690238150443,0.0016829472170812,,8790.15738098984,10980.456319326084,150,9,2025-09-12,2025-09-26 20:40:08.225,AA,C,1864846454,HAWK11,1,1,73,2,1,1,225,2,1,0,0,12,1,225,2,1,-150590.98474295562,-4789827.060518111,4199969.071745396,2.75867,2.2911,-0.674856,-79.125,59.625,64.625,-0.1875,-7.67188,6.73438,-0.0292969,0.0117188,0.0371094,4,0,41.42268049972533,-91.800772043268,11069.095870003152,-32.22622385083087,-0.8213924939085352,8.865912129040135,179.811,8790.15738098984,10980.456319326084,150,True,17.56187988275922,False,176.8922429312859,178.42269953696896,False,4.6644536683683375,True,False
9,1970-07-23 10:31:36.092638862,2025-09-12,2025-09-26 20:40:09.263,AA,C,203233066,JASSM,3,137,76,2,2,1,225,9,2,0,1,26,0,0,0,0,-170309.54260428375,-4772079.598604049,4218754.792448521,-2.51429,-0.702947,0.607936,56.125,-47.375,-51.0,0.0,0.0,0.0,0.0,0.0,0.0,2,0,41.65112503952306,-92.04394710477972,10002.625850591445,139.85149545806848,-0.0024641894961185,0.0016813939026695,,8790.15738098984,10980.456319326084,150,9,2025-09-12,2025-09-26 20:40:09.319,AA,C,1866118986,HAWK11,1,1,73,2,1,1,225,2,1,0,0,12,1,225,2,1,-150674.88708670562,-4789761.830049361,4200038.614714146,2.71294,2.29081,-0.673801,-77.625,60.625,65.375,-0.140625,-7.875,6.53125,-0.140625,-0.00976562,0.0,4,0,41.42352226340535,-91.80179921087682,11066.142023165885,-32.2467967992978,-0.8787627667617521,6.235885396774739,180.19,8790.15738098984,10980.456319326084,150,True,17.445479627425243,False,177.83453589214707,178.40326786600505,False,3.7387206707162597,True,False
9,1970-07-23 10:31:36.100312492,2025-09-12,2025-09-26 20:40:10.031,AA,C,204366460,JASSM,3,137,76,2,2,1,225,9,2,0,1,26,0,0,0,0,-170256.25842459625,-4772124.754854049,4218706.190886021,-2.51429,-0.702947,0.607936,56.125,-47.375,-51.0,0.0,0.0,0.0,0.0,0.0,0.0,2,0,41.65053968901369,-92.04328884557756,10002.625223644498,139.85193293020404,-0.001699626569363,0.00167994345577,,8790.15738098984,10980.456319326084,150,9,2025-09-12,2025-09-26 20:40:10.115,AA,C,1867073384,HAWK11,1,1,73,2,1,1,225,2,1,0,0,12,1,225,2,1,-150736.84411795562,-4789713.172822799,4200091.110807896,2.62483,2.27662,-0.679937,-77.125,60.625,65.75,-0.046875,-7.70312,6.3125,-0.0683594,-0.00195312,0.0371094,4,0,41.42415446769953,-91.8025579156431,11065.245755782627,-31.52273055881768,-0.8971233835376069,0.6673527474659681,180.556,8790.15738098984,10980.456319326084,150,True,17.348824580072062,False,178.098547071352,178.3888998564244,False,3.5017036091754505,True,False
9,1970-07-23 10:31:36.110372586,2025-09-12,2025-09-26 20:40:11.037,AA,C,205440202,JASSM,3,137,76,2,2,1,225,9,2,0,1,26,0,0,0,0,-170205.77868826812,-4772167.536104049,4218660.144011021,-2.51429,-0.702947,0.607936,56.125,-47.375,-51.0,0.0,0.0,0.0,0.0,0.0,0.0,2,0,41.64998511094048,-92.0426652420407,10002.624924368502,139.85234736589663,-0.0009752790355261,0.001678549039502,,8790.15738098984,10980.456319326084,150,9,2025-09-12,2025-09-26 20:40:11.063,AA,C,1868027784,HAWK11,1,1,73,2,1,1,225,2,1,0,0,12,1,225,2,1,-150798.49841483062,-4789664.314424361,4200144.126432896,2.62368,2.27269,-0.679745,-76.875,60.625,65.875,-0.171875,-7.57812,6.28125,0.03125,-0.00390625,-0.015625,4,0,41.4247914266277,-91.80331309304648,11064.963772277211,-31.377370745419466,-0.9938910487715384,0.4575970281717499,181.216,8790.15738098984,10980.456319326084,150,True,17.25445373172093,False,178.2148424706627,178.37545975205902,False,3.4026747959656363,True,False
9,1970-07-23 10:31:36.120273407,2025-09-12,2025-09-26 20:40:12.027,AA,C,206692902,JASSM,3,137,76,2,2,1,225,9,2,0,1,26,0,0,0,0,-170146.8858660025,-4772217.446260299,4218606.425261021,-2.51429,-0.702947,0.607936,56.125,-47.375,-51.0,0.0,0.0,0.0,0.0,0.0,0.0,2,0,41.64933812409567,-92.0419377210966,10002.63130694414,139.8528308575061,-0.0001302275692492,0.0016769367646935,,8790.15738098984,10980.456319326084,150,9,2025-09-12,2025-09-26 20:40:12.225,AA,C,1869618448,HAWK11,1,1,73,2,1,1,225,2,1,0,0,12,1,225,2,1,-150898.86169608062,-4789583.141572799,4200231.993620396,2.65053,2.27835,-0.681759,-75.875,60.75,66.125,-0.21875,-7.6875,6.1875,0.0117188,-0.00195312,0.0371094,4,0,41.425848607089605,-91.80454304923522,11063.884124989008,-31.53772140367621,-0.766020215187926,2.202357937016209,181.998,8790.15738098984,10980.456319326084,150,True,17.119871334253236,False,178.6594013876897,178.35751482949445,False,2.9817230939377657,True,False
9,1970-07-23 10:31:36.131072658,2025-09-12,2025-09-26 20:40:13.107,AA,C,207885966,JASSM,3,137,76,2,2,1,225,9,2,0,1,26,0,0,0,0,-170090.79626639312,-4772264.977510299,4218555.261198521,-2.51429,-0.702947,0.607936,56.125,-47.375,-51.0,0.0,0.0,0.0,0.0,0.0,0.0,2,0,41.64872193288078,-92.04124484413784,10002.628743096731,139.85329131988937,0.0006745967147692,0.001675403145566,,8790.15738098984,10980.456319326084,150,9,2025-09-12,2025-09-26 20:40:13.063,AA,C,1870572848,HAWK11,1,1,73,2,1,1,225,2,1,0,0,12,1,225,2,1,-150959.03161795562,-4789534.454072799,4200285.095182896,2.69674,2.26339,-0.688662,-75.25,60.75,66.25,-0.03125,-7.42188,6.07812,0.0371094,0.00195312,0.00585938,4,0,41.42648539408834,-91.80528046185508,11064.106109022565,-30.76575862428068,-0.7552722739887275,4.29762918129682,182.573,8790.15738098984,10980.456319326084,150,True,17.02118400591561,False,178.9061505338237,178.3452221665939,False,2.748490740264717,True,False
9,1970-07-23 10:31:36.141881041,2025-09-12,2025-09-26 20:40:14.188,AA,C,209078994,JASSM,3,137,76,2,2,1,225,9,2,0,1,26,0,0,0,0,-170034.70837576812,-4772312.508760299,4218504.097136021,-2.51429,-0.702851,0.608032,56.125,-47.375,-51.0,0.0,0.0,0.0,0.0,0.0,0.0,2,0,41.64810573705928,-92.0405520008755,10002.63045635755,139.85332349995957,-0.0056138859787189,-0.0014648815430055,,8790.15738098984,10980.456319326084,150,9,2025-09-12,2025-09-26 20:40:14.319,AA,C,1872163512,HAWK11,1,1,73,2,1,1,225,2,1,0,0,12,1,225,2,1,-151058.05505545562,-4789452.855439986,4200373.921354771,2.76117,2.25946,-0.695469,-73.5,61.125,66.375,-0.5,-7.71875,6.10938,0.0605469,0.00390625,0.0195312,4,0,41.42755180968214,-91.80649463006851,11063.977566403944,-30.42263130039879,-0.5010999216748128,7.841782968957636,183.88,8790.15738098984,10980.456319326084,150,True,16.889018232131214,False,179.6553104237401,178.32982163420564,False,1.9976026974148575,True,False
9,1970-07-23 10:31:36.150094593,2025-09-12,2025-09-26 20:40:15.009,AA,C,210331692,JASSM,3,137,76,2,2,1,225,9,2,0,1,26,0,0,0,0,-169975.81530936187,-4772362.415010299,4218450.370573521,-2.51429,-0.702851,0.608032,56.125,-47.375,-51.0,0.0,0.0,0.0,0.0,0.0,0.0,2,0,41.647458707490806,-92.03982452096054,10002.623433155402,139.853806946604,-0.0047688113692178,-0.0014665182799281,,8790.15738098984,10980.456319326084,150,9,2025-09-12,2025-09-26 20:40:15.225,AA,C,1873117912,HAWK11,1,1,73,2,1,1,225,2,1,0,0,12,1,225,2,1,-151116.38708670562,-4789403.787080611,4200427.155729771,2.86097,2.23731,-0.704001,-72.125,61.5,66.625,-0.3125,-7.60938,6.14062,0.0996094,0.00195312,0.0292969,4,0,41.4281920919793,-91.80721025974869,11063.420937720242,-29.337211851788243,-0.5475921794263131,12.733150491983976,184.516,8790.15738098984,10980.456319326084,150,False,16.7883625017976,False,179.5966647835257,178.3200548150831,False,1.3660916049634848,True,False
9,1970-07-23 10:31:36.160077337,2025-09-12,2025-09-26 20:40:16.007,AA,C,211524740,JASSM,3,137,76,2,2,1,225,9,2,0,1,26,0,0,0,0,-169919.726686315,-4772409.942354049,4218399.206511021,-2.51419,-0.702851,0.608032,56.125,-47.375,-51.0,0.0,0.0,0.0,0.0,0.0,0.0,2,0,41.64684252647506,-92.03913169765164,10002.62397409556,139.8542673564757,-0.0039640109649534,0.0040370817587686,,8790.15738098984,10980.456319326084,150,9,2025-09-12,2025-09-26 20:40:16.063,AA,C,1873555344,HAWK11,1,1,73,2,1,1,225,2,1,0,0,12,1,225,2,1,-151141.98278983062,-4789381.497041549,4200451.310026646,2.90766,2.22724,-0.706686,-71.25,61.875,66.875,0.0,-7.17188,6.0,0.142578,0.00390625,0.0253906,4,0,41.42848292745856,-91.80752456401528,11063.038267641688,-28.878229076403443,-0.6225826228406723,15.029778630599807,184.675,8790.15738098984,10980.456319326084,150,False,16.717727170999467,False,179.14303807643492,178.31446818618969,False,0.9268396352116957,True,False
9,1970-07-23 10:31:36.171294297,2025-09-12,2025-09-26 20:40:17.129,AA,C,212777438,JASSM,3,137,76,2,2,1,225,9,2,0,1,26,0,0,0,0,-169860.83337576812,-4772459.848604049,4218345.479948521,-2.51419,-0.702851,0.608032,56.125,-47.375,-51.0,0.0,0.0,0.0,0.0,0.0,0.0,2,0,41.64619548782721,-92.03840424322944,10002.62581499463,139.85475077414702,-0.0031189347982689,0.0040354466748479,,8790.15738098984,10980.456319326084,150,9,2025-09-12,2025-09-26 20:40:16.864,AA,C,1874549510,HAWK11,1,1,73,2,1,1,225,2,1,0,0,12,1,225,2,1,-151200.33825858062,-4789329.539033736,4200507.227995396,2.97688,2.19992,-0.714931,-68.875,63.0,67.125,-0.171875,-7.35938,6.23438,-0.0078125,-0.00390625,0.0253906,4,0,41.42915850452822,-91.8082415844866,11061.21105883629,-27.609088106258657,-0.7597578839472334,17.959184941449557,185.359,8790.15738098984,10980.456319326084,150,False,16.615372399910193,False,177.91065171648194,178.308884288115,False,0.4673227566207829,True,False
9,1970-07-23 10:31:36.180293102,2025-09-12,2025-09-26 20:40:18.029,AA,C,213910832,JASSM,3,137,76,2,2,1,225,9,2,0,1,26,0,0,0,0,-169807.5490740103,-4772504.997041549,4218296.870573521,-2.51419,-0.702851,0.608032,56.125,-47.375,-51.0,0.0,0.0,0.0,0.0,0.0,0.0,2,0,41.64561009925799,-92.03774608625076,10002.620374383972,139.85518813604992,-0.0023543676805775,0.0040339855066087,,8790.15738098984,10980.456319326084,150,9,2025-09-12,2025-09-26 20:40:18.225,AA,C,1876816208,HAWK11,1,1,73,2,1,1,225,2,1,0,0,12,1,225,2,1,-151327.13513358062,-4789207.701143111,4200637.206511021,2.92568,2.12456,-0.728066,-64.125,64.25,68.875,-0.3125,-7.79688,6.42188,-0.0195312,-0.00195312,0.0136719,4,0,41.43073682988372,-91.80980298092236,11053.678598965313,-24.36562783209252,-1.4994712075037533,12.10956040150479,186.606,8790.15738098984,10980.456319326084,150,False,16.451875029364736,False,175.3671718256535,178.31660529921558,False,3.015039480308021,True,False
9,1970-07-23 10:31:36.190272689,2025-09-12,2025-09-26 20:40:19.027,AA,C,215103878,JASSM,3,137,76,2,2,1,225,9,2,0,1,26,0,0,0,0,-169751.46032889312,-4772552.524385299,4218245.702604771,-2.51419,-0.702851,0.608032,56.125,-47.375,-51.0,0.0,0.0,0.0,0.0,0.0,0.0,2,0,41.64499387927396,-92.03705330108572,10002.624771708592,139.85564850380635,-0.0015495462513516,0.0040324369174777,,8790.15738098984,10980.456319326084,150,9,2025-09-12,2025-09-26 20:40:19.065,AA,C,1877651306,HAWK11,1,1,73,2,1,1,225,2,1,0,0,12,1,225,2,1,-151371.37146170562,-4789162.262666549,4200685.876432896,2.89817,2.12197,-0.723847,-62.75,65.25,69.25,-0.3125,-7.51562,6.5625,-0.0078125,-0.0195312,0.00195312,4,0,41.431327341484376,-91.81034883967358,11051.062944356489,-24.364973550756527,-1.7646971180336222,10.434659873721714,187.155,8790.15738098984,10980.456319326084,150,False,16.360697065125077,False,174.5160697845381,178.32106893583665,False,3.8464291239216495,True,False
9,1970-07-23 10:31:36.201135958,2025-09-12,2025-09-26 20:40:20.113,AA,C,216356578,JASSM,3,137,76,2,2,1,225,9,2,0,1,26,0,0,0,0,-169692.56689627594,-4772602.426729049,4218191.976042271,-2.51419,-0.702851,0.608032,56.125,-47.375,-51.0,0.0,0.0,0.0,0.0,0.0,0.0,2,0,41.64434685063667,-92.03632588845367,10002.630034093803,139.85613187609914,-0.0007044877758542,0.0040308167088366,,8790.15738098984,10980.456319326084,150,9,2025-09-12,2025-09-26 20:40:20.225,AA,C,1879122672,HAWK11,1,1,73,2,1,1,225,2,1,0,0,12,1,225,2,1,-151447.97107108062,-4789080.691377486,4200773.147917271,2.95349,2.09561,-0.728066,-60.75,66.25,70.5,-0.21875,-7.25,6.95312,0.0566406,0.00195312,0.0234375,4,0,41.43238727218488,-91.81129516452783,11045.937742920076,-23.23406852619228,-1.9994360092672627,12.564419831620778,186.997,8790.15738098984,10980.456319326084,150,False,16.233883789643738,False,173.24245827490236,178.33673928533608,False,5.142668026653824,True,False
9,1970-07-23 10:31:36.210135096,2025-09-12,2025-09-26 20:40:21.013,AA,C,217489972,JASSM,3,137,76,2,2,1,225,9,2,0,1,26,0,0,0,0,-169639.2824724478,-4772647.575166549,4218143.362761021,-2.51419,-0.702851,0.608032,56.125,-47.375,-51.0,0.0,0.0,0.0,0.0,0.0,0.0,2,0,41.64376142373551,-92.03566776763584,10002.627831033073,139.85656919804288,6.0100354965546354e-05,0.0040293393874411,,8790.15738098984,10980.456319326084,150,9,2025-09-12,2025-09-26 20:40:21.065,AA,C,1879719172,HAWK11,1,1,73,2,1,1,225,2,1,0,0,12,1,225,2,1,-151478.34802420562,-4789047.295869674,4200809.114714146,2.99471,2.08104,-0.728353,-59.875,67.0,71.25,-0.46875,-7.17188,7.09375,0.0488281,0.0078125,0.0214844,4,0,41.43282299681608,-91.8116708511164,11044.281884451262,-22.65405471047828,-2.227799315758727,14.349463073523806,187.192,8790.15738098984,10980.456319326084,150,False,16.157133279007308,False,172.59036864523006,178.34237315903766,False,5.8003135755561415,True,False
9,1970-07-23 10:31:36.220114947,2025-09-12,2025-09-26 20:40:22.011,AA,C,218623366,JASSM,3,137,76,2,2,1,225,9,2,0,1,26,0,0,0,0,-169585.99792654935,-4772692.721650924,4218094.749479771,-2.51419,-0.702851,0.608128,56.125,-47.375,-51.0,0.0,0.0,0.0,0.0,0.0,0.0,2,0,41.643176004704834,-92.03500965810044,10002.624557266065,139.8602319155556,-0.0036239746721744,0.0040277911547917,,8790.15738098984,10980.456319326084,150,9,2025-09-12,2025-09-26 20:40:22.225,AA,C,1881468902,HAWK11,1,1,73,2,1,1,225,2,1,0,0,12,1,225,2,1,-151564.21521170562,-4788947.808564986,4200915.614714146,3.09577,2.02677,-0.738899,-56.75,68.875,73.375,-0.296875,-7.04688,7.10938,0.0507812,0.015625,0.0332031,4,0,41.4341175449722,-91.81273476444046,11037.593624735582,-20.28371267494021,-2.5178672316428,17.95926954231895,187.192,8790.15738098984,10980.456319326084,150,False,16.02083958789544,False,170.53704104768917,178.37467806151133,False,7.890578388385712,True,False
9,1970-07-23 10:31:36.230291078,2025-09-12,2025-09-26 20:40:23.029,AA,C,219816412,JASSM,3,137,76,2,2,1,225,9,2,0,1,26,0,0,0,0,-169529.90991385406,-4772740.243135299,4218043.577604771,-2.51419,-0.702851,0.608128,56.125,-47.375,-51.0,0.0,0.0,0.0,0.0,0.0,0.0,2,0,41.64255977656001,-92.0343169363586,10002.622450820883,139.86069221920616,-0.0028191648173746,0.0040262868710528,,8790.15738098984,10980.456319326084,150,9,2025-09-12,2025-09-26 20:40:23.021,AA,C,1882542602,HAWK11,1,1,73,2,1,1,225,2,1,0,0,12,1,225,2,1,-151614.43103201812,-4788885.584932174,4200981.903776646,3.12865,1.99523,-0.741776,-54.5,70.5,74.5,-0.296875,-7.20312,7.15625,0.00976562,0.00390625,0.0351562,4,0,41.43492570071784,-91.8133584991643,11032.450308658965,-18.972362418109867,-2.81717404654124,18.56341790519745,187.388,8790.15738098984,10980.456319326084,150,False,15.917266961190407,False,169.09596647152077,178.39832044638908,False,9.348605734606716,True,False
9,1970-07-23 10:31:36.240272149,2025-09-12,2025-09-26 20:40:24.027,AA,C,221069110,JASSM,3,137,76,2,2,1,225,9,2,0,1,26,0,0,0,0,-169471.01550467435,-4772790.141572799,4217989.847136021,-2.51419,-0.702755,0.608128,56.125,-47.375,-51.0,0.0,0.0,0.0,0.0,0.0,0.0,2,0,41.64191272761505,-92.03358956843216,10002.626661483768,139.857526783986,-0.00461970839511,0.0008874760199105,,8790.15738098984,10980.456319326084,150,9,2025-09-12,2025-09-26 20:40:24.225,AA,C,1883854900,HAWK11,1,1,73,2,1,1,225,2,1,0,0,12,1,225,2,1,-151673.88611014312,-4788806.700166549,4201065.552214146,3.13411,1.95132,-0.745515,-51.75,72.0,76.25,0.015625,-7.07812,7.20312,-0.0332031,0.0195312,0.0253906,4,0,41.43594840521734,-91.81409898914856,11024.762762653205,-17.145811157856105,-3.197462454105899,17.077541389676934,188.267,8790.15738098984,10980.456319326084,150,False,15.797953760325735,False,167.37946857978883,178.4357652028016,False,11.107294568347456,True,False
9,1970-07-23 10:31:36.251133953,2025-09-12,2025-09-26 20:40:25.113,AA,C,222321810,JASSM,3,137,76,2,2,1,225,9,2,0,1,26,0,0,0,0,-169412.12194998687,-4772840.038057174,4217936.112761021,-2.51419,-0.702755,0.608128,56.125,-47.375,-51.0,0.0,0.0,0.0,0.0,0.0,0.0,2,0,41.64126565921458,-92.03286222613484,10002.622196143264,139.8580100803991,-0.0037746365988023,0.0008858375682071,,8790.15738098984,10980.456319326084,150,9,2025-09-12,2025-09-26 20:40:25.021,AA,C,1884928598,HAWK11,1,1,73,2,1,1,225,2,1,0,0,12,1,225,2,1,-151719.93103201812,-4788741.678682174,4201134.612761021,3.0717,1.92658,-0.750021,-49.875,73.25,77.625,0.03125,-7.45312,7.40625,-0.113281,0.0,0.0253906,4,0,41.4367926934685,-91.81467396515455,11018.446453422624,-16.07530550105127,-3.2533493809597056,12.47766208315518,188.573,8790.15738098984,10980.456319326084,150,False,15.691643920519002,False,166.16267571216545,178.4706823760809,False,12.36184518819448,True,False
