Subject_cm,Timestamp,SampleDate_cm,SampleTime_cm,Configuration_cm,Scenario_cm,DisTime_cm,MarkingTxt_cm,Application_cm,EntId_cm,Site_cm,ExerciseId_cm,ForceId_cm,Category_cm,Country_cm,Domain_cm,Kind_cm,Extra_cm,Specific_cm,Subcategory_cm,AltCategory_cm,AltCountry_cm,AltDomain_cm,AltKind_cm,ECEF_X_cm,ECEF_Y_cm,ECEF_Z_cm,OriPhi_cm,OriPsi_cm,OriTheta_cm,LinVelX_cm,LinVelY_cm,LinVelZ_cm,LinAccX_cm,LinAccY_cm,LinAccZ_cm,AngVelX_cm,AngVelY_cm,AngVelZ_cm,DrAlg_cm,Appearance_cm,Latitude_cm,Longitude_cm,Altitude_cm,Heading_cm,Pitch_cm,Roll_cm,CalibratedAirspeed_cm,CM_Altitude_Lead_cm,CM_Altitude_Wing_cm,CM_Airspeed_cm,Subject_ac,SampleDate_ac,SampleTime_ac,Configuration_ac,Scenario_ac,DisTime_ac,MarkingTxt_ac,Application_ac,EntId_ac,Site_ac,ExerciseId_ac,ForceId_ac,Category_ac,Country_ac,Domain_ac,Kind_ac,Extra_ac,Specific_ac,Subcategory_ac,AltCategory_ac,AltCountry_ac,AltDomain_ac,AltKind_ac,ECEF_X_ac,ECEF_Y_ac,ECEF_Z_ac,OriPhi_ac,OriPsi_ac,OriTheta_ac,LinVelX_ac,LinVelY_ac,LinVelZ_ac,LinAccX_ac,LinAccY_ac,LinAccZ_ac,AngVelX_ac,AngVelY_ac,AngVelZ_ac,DrAlg_ac,Appearance_ac,Latitude_ac,Longitude_ac,Altitude_ac,Heading_ac,Pitch_ac,Roll_ac,CalibratedAirspeed_ac,CM_Altitude_Lead_ac,CM_Altitude_Wing_ac,CM_Airspeed_ac,Bank_Angle_Condition,distance_nm,Distance_Condition,angle_between_vel,angle_between_pos,Cone_Condition,angle_between_pos_nose,Nose_Cone_Condition,Intercept_Criteria
9,1970-07-23 10:31:29.537072281,2025-09-12,2025-09-26 20:29:13.707,AH,C,3716098746,JASSM,3,127,76,2,2,1,225,9,2,0,1,26,0,0,0,0,-180692.32165701807,-4777933.752900924,4211738.220182896,-2.36693,-0.400848,0.381002,77.5,-32.75,-33.625,0.0,0.0,0.0,0.0,0.0,0.0,2,0,41.566672522067655,-92.1657847480774,10002.623787348266,119.79774901618477,-0.0042074178137389,0.0045552660274938,,9026.08902586808,11243.505992254835,150,9,2025-09-12,2025-09-26 20:29:14.034,AH,C,1764561220,AMBUSH51,1,1,48,2,1,1,225,2,1,0,0,9,1,225,2,1,-144429.93618408497,-4792752.569942345,4195925.842898593,2.30695,2.91842,-0.225657,-96.0005,28.7727,29.9306,-0.228708,-6.98412,6.57416,0.0283741,0.00874994,-0.00807375,4,0,41.379110915960666,-91.72608997630311,9026.08902586808,-73.05197386775093,0.4353393634904123,-0.3927506561421844,181.546,9026.08902586808,11243.505992254835,150,True,22.72110301618037,False,172.18388327675916,179.33858073675634,False,7.4832148456454375,True,False
9,1970-07-23 10:31:29.545841174,2025-09-12,2025-09-26 20:29:14.584,AH,C,3717291792,JASSM,3,127,76,2,2,1,225,9,2,0,1,26,0,0,0,0,-180614.79040701807,-4777966.622041549,4211704.485807896,-2.36693,-0.400848,0.381002,77.5,-32.75,-33.625,0.0,0.0,0.0,0.0,0.0,0.0,2,0,41.56626674889681,-92.1648414615195,10002.625813531036,119.79837487603858,-0.003393329986396,0.0045538640462834,,9026.08902586808,11243.505992254835,150,9,2025-09-12,2025-09-26 20:29:14.467,AH,C,1765078186,AMBUSH51,1,1,48,2,1,1,225,2,1,0,0,9,1,225,2,1,-144472.17753804114,-4792740.043912689,4195938.796093509,2.31924,2.91703,-0.226766,-96.0647,28.8324,29.819,-0.150888,-7.0599,6.63145,0.0342976,0.000887374,0.0113028,4,0,41.37926531061736,-91.72659900928036,9026.491847124766,-72.9530746899866,0.4216056927095214,0.293888174076201,181.717,9026.08902586808,11243.505992254835,150,True,22.64792614870876,False,172.15165884368835,179.34094394081998,False,7.527963740970453,True,False
9,1970-07-23 10:31:29.555283335,2025-09-12,2025-09-26 20:29:15.528,AH,C,3718484850,JASSM,3,127,76,2,2,1,225,9,2,0,1,26,0,0,0,0,-180537.26013358065,-4777999.491182174,4211670.749479771,-2.36693,-0.400848,0.381002,77.5,-32.75,-33.625,0.0,0.0,0.0,0.0,0.0,0.0,2,0,41.56586095458806,-92.16389819845963,10002.6279075433,119.79900071528444,-0.0025792430491978,0.0045524460802787,,9026.08902586808,11243.505992254835,150,9,2025-09-12,2025-09-26 20:29:15.699,AH,C,1766549552,AMBUSH51,1,1,48,2,1,1,225,2,1,0,0,9,1,225,2,1,-144590.27494555412,-4792704.58322172,4195975.162246265,2.34087,2.91383,-0.23054,-96.3082,29.0521,29.9931,-0.160857,-7.05659,6.71703,-0.0259169,-0.000298565,-0.00122027,4,0,41.379700598305725,-91.72802232346284,9026.868832031869,-72.6740893080672,0.4378485752735696,1.494119244481043,182.121,9026.08902586808,11243.505992254835,150,True,22.53074848135278,False,172.23846682056887,179.34939638350426,False,7.465337213693416,True,False
9,1970-07-23 10:31:29.566243505,2025-09-12,2025-09-26 20:29:16.624,AH,C,3719737538,JASSM,3,127,76,2,2,1,225,9,2,0,1,26,0,0,0,0,-180455.85388358065,-4778034.000947799,4211635.325651646,-2.36693,-0.400848,0.381098,77.5,-32.75,-33.625,0.0,0.0,0.0,0.0,0.0,0.0,2,0,41.565434874379214,-92.16290779266356,10002.626272372416,119.80349984832164,-0.005650516629102,0.0045507176081803,,9026.08902586808,11243.505992254835,150,9,2025-09-12,2025-09-26 20:29:16.699,AH,C,1767742550,AMBUSH51,1,1,48,2,1,1,225,2,1,0,0,9,1,225,2,1,-144687.13173775983,-4792675.363312519,4196005.006915289,2.28085,2.91143,-0.233084,-96.4413,29.0585,30.0285,0.10046,-6.97913,6.52565,-0.0607211,-0.000949792,-0.000918583,4,0,41.3800585282382,-91.72918970853952,9026.888761608388,-72.47687164018264,0.4389911864833479,-1.975452919559106,182.243,9026.08902586808,11243.505992254835,150,True,22.423415357755037,False,172.22442664687262,179.3553796023917,False,7.4968508753513285,True,False
9,1970-07-23 10:31:29.577451151,2025-09-12,2025-09-26 20:29:17.745,AH,C,3720870932,JASSM,3,127,76,2,2,1,225,9,2,0,1,26,0,0,0,0,-180382.1995867056,-4778065.223604049,4211603.274870396,-2.36693,-0.400848,0.381098,77.5,-32.75,-33.625,0.0,0.0,0.0,0.0,0.0,0.0,2,0,41.56504936448143,-92.16201171040196,10002.626157607072,119.80409437433026,-0.004877135342149,0.0045494325797533,,9026.08902586808,11243.505992254835,150,9,2025-09-12,2025-09-26 20:29:17.800,AH,C,1769054850,AMBUSH51,1,1,48,2,1,1,225,2,1,0,0,9,1,225,2,1,-144793.29688957357,-4792643.51786381,4196037.909415453,2.24932,2.9166,-0.227323,-96.7099,27.2681,31.4442,-0.0623633,-7.08475,6.67172,-0.0152144,-0.00143457,-0.0137122,4,0,41.38045103772605,-91.73046923321094,9027.7778011888,-72.915817824753,0.4286265847725878,-3.717702806789843,183.098,9026.08902586808,11243.505992254835,150,True,22.315556894153953,False,171.94287214582462,179.36207132150892,False,7.70999801735357,True,False
9,1970-07-23 10:31:29.585223595,2025-09-12,2025-09-26 20:29:18.522,AH,C,3722063980,JASSM,3,127,76,2,2,1,225,9,2,0,1,26,0,0,0,0,-180304.66931326807,-4778098.088838424,4211569.536589146,-2.36693,-0.400848,0.381098,77.5,-32.75,-33.625,0.0,0.0,0.0,0.0,0.0,0.0,2,0,41.564643557030166,-92.16106848451984,10002.627104558664,119.80472017394636,-0.0040630543338345,0.0045480772581736,,9026.08902586808,11243.505992254835,150,9,2025-09-12,2025-09-26 20:29:18.333,AH,C,1769691116,AMBUSH51,1,1,48,2,1,1,225,2,1,0,0,9,1,225,2,1,-144845.03701998104,-4792627.701946997,4196053.3464786615,2.23589,2.91992,-0.220841,-97.0469,28.9841,29.3558,-0.0438192,-7.05055,6.70647,-0.029429,0.000167488,0.000236147,4,0,41.380640044290764,-91.73109292845368,9026.18827920356,-73.3154547718313,0.314685662307233,-4.447423423842072,183.098,9026.08902586808,11243.505992254835,150,True,22.23688232497189,False,171.82640143835485,179.36367172379425,False,7.9410130070654565,True,False
9,1970-07-23 10:31:29.595341550,2025-09-12,2025-09-26 20:29:19.534,AH,C,3723257026,JASSM,3,127,76,2,2,1,225,9,2,0,1,26,0,0,0,0,-180227.13903983065,-4778130.952119674,4211535.796354771,-2.36693,-0.400848,0.381098,77.5,-32.75,-33.625,0.0,0.0,0.0,0.0,0.0,0.0,2,0,41.56423774031521,-92.16012527132348,10002.623237828207,119.8053459601283,-0.0032489730962526,0.0045467202750992,,9026.08902586808,11243.505992254835,150,9,2025-09-12,2025-09-26 20:29:19.466,AH,C,1771043180,AMBUSH51,1,1,48,2,1,1,225,2,1,0,0,9,1,225,2,1,-144954.52650092164,-4792595.104253869,4196085.79474995,2.23172,2.92448,-0.216336,-97.4752,28.5779,28.7953,0.0272241,-7.13587,6.63416,0.0210567,0.00540851,-0.00848779,4,0,41.38103334074506,-91.73241245391864,9024.498812054975,-73.67874427153654,0.3289952456534446,-4.631889412291566,183.673,9026.08902586808,11243.505992254835,150,True,22.125007887868062,False,171.39234398072347,179.36915965321182,False,8.400146289081405,True,False
9,1970-07-23 10:31:29.605386516,2025-09-12,2025-09-26 20:29:20.538,AH,C,3724450072,JASSM,3,127,76,2,2,1,225,9,2,0,1,26,0,0,0,0,-180149.60778983065,-4778163.815400924,4211502.056120396,-2.36693,-0.400848,0.381098,77.5,-32.75,-33.625,0.0,0.0,0.0,0.0,0.0,0.0,2,0,41.56383191605426,-92.15918205823678,10002.623509546467,119.80597174121944,-0.0024348843182488,0.0045453677980099,,9026.08902586808,11243.505992254835,150,9,2025-09-12,2025-09-26 20:29:20.567,AH,C,1772355480,AMBUSH51,1,1,48,2,1,1,225,2,1,0,0,9,1,225,2,1,-145062.6991391814,-4792563.249537531,4196117.429187021,2.34871,2.93276,-0.208574,-97.7559,28.7522,28.5491,-0.231521,-7.14113,6.49358,0.0755474,-0.000581526,-0.0122225,4,0,41.38141694481321,-91.73371599825164,9022.78156840527,-74.32088769910104,0.3721660245186067,2.167089774991608,183.88,9026.08902586808,11243.505992254835,150,True,22.01404723857914,False,171.30135595543194,179.37399779035442,False,8.525539446379106,True,False
9,1970-07-23 10:31:29.617262576,2025-09-12,2025-09-26 20:29:21.726,AH,C,3725822074,JASSM,3,127,76,2,2,1,225,9,2,0,1,26,0,0,0,0,-180060.44763358062,-4778201.606416549,4211463.253386021,-2.36693,-0.400848,0.381098,77.5,-32.75,-33.625,0.0,0.0,0.0,0.0,0.0,0.0,2,0,41.56336520900266,-92.15809738792714,10002.621621638216,119.80669136685712,-0.0014986889639293,0.0045438090227933,,9026.08902586808,11243.505992254835,150,9,2025-09-12,2025-09-26 20:29:21.799,AH,C,1773826844,AMBUSH51,1,1,48,2,1,1,225,2,1,0,0,9,1,225,2,1,-145182.51292267395,-4792527.718789944,4196152.525902302,2.40621,2.92184,-0.221567,-97.566,29.0454,29.2588,-0.263819,-7.53258,6.72022,0.0380052,0.000462932,0.0285281,4,0,41.38184367925318,-91.7351599331214,9020.403236918017,-73.35991681667066,0.4250387549827806,5.334742015690351,183.758,9026.08902586808,11243.505992254835,150,True,21.889023849964516,False,171.70196771952183,179.3780671547937,False,8.141992784618793,True,False
9,1970-07-23 10:31:29.627301789,2025-09-12,2025-09-26 20:29:22.730,AH,C,3727074774,JASSM,3,127,76,2,2,1,225,9,2,0,1,26,0,0,0,0,-179979.04040701812,-4778236.112275924,4211427.825651646,-2.36693,-0.400752,0.381098,77.5,-32.75,-33.625,0.0,0.0,0.0,0.0,0.0,0.0,2,0,41.562939075870986,-92.15710704842272,10002.62911847963,119.8037040812421,-0.0042103473028365,0.0024994059532127,,9026.08902586808,11243.505992254835,150,9,2025-09-12,2025-09-26 20:29:22.832,AH,C,1775059610,AMBUSH51,1,1,48,2,1,1,225,2,1,0,0,9,1,225,2,1,-145283.10492512892,-4792497.763308439,4196183.095760639,2.40296,2.91689,-0.232534,-97.3292,27.2968,31.5833,-0.136651,-7.4657,6.41531,-0.0176091,0.00773669,0.00896216,4,0,41.38221013503652,-91.7363722769214,9020.49956926465,-72.71084194020435,0.6473580110881048,5.090638885410622,183.88,9026.08902586808,11243.505992254835,150,True,21.779695285571268,False,171.86557150452546,179.38116961311343,False,7.885777351405846,True,False
9,1970-07-23 10:31:29.640641574,2025-09-12,2025-09-26 20:29:24.064,AH,C,3728446776,JASSM,3,127,76,2,2,1,225,9,2,0,1,26,0,0,0,0,-179889.88025076812,-4778273.899385299,4211389.020964146,-2.36693,-0.400752,0.381098,77.5,-32.75,-33.625,0.0,0.0,0.0,0.0,0.0,0.0,2,0,41.56247235932832,-92.15602240973668,10002.624095748048,119.80442367330424,-0.0032741580949058,0.0024977957021509,,9026.08902586808,11243.505992254835,150,9,2025-09-12,2025-09-26 20:29:24.099,AH,C,1776570742,AMBUSH51,1,1,48,2,1,1,225,2,1,0,0,9,1,225,2,1,-145405.82396382958,-4792459.683932211,4196220.708124302,2.32831,2.91216,-0.238346,-96.737,29.8936,30.3442,-0.161642,-7.25868,6.40556,-0.0404749,-0.00252688,3.22492e-05,4,0,41.382668456970094,-91.7378518723097,9017.539340667568,-72.288401360969,0.6801385989084767,0.7551115008027225,183.428,9026.08902586808,11243.505992254835,150,True,21.652345884441434,False,172.56218733692774,179.38262411090358,False,7.32504008610854,True,False
9,1970-07-23 10:31:29.650200829,2025-09-12,2025-09-26 20:29:25.020,AH,C,3729759128,JASSM,3,127,76,2,2,1,225,9,2,0,1,26,0,0,0,0,-179804.59704764312,-4778310.045869674,4211351.901823521,-2.36693,-0.400752,0.381098,77.5,-32.75,-33.625,0.0,0.0,0.0,0.0,0.0,0.0,2,0,41.56202590056096,-92.15498494791088,10002.626676284708,119.805111960168,-0.0023786630771931,0.0024962325337738,,9026.08902586808,11243.505992254835,150,9,2025-09-12,2025-09-26 20:29:24.900,AH,C,1777525140,AMBUSH51,1,1,48,2,1,1,225,2,1,0,0,9,1,225,2,1,-145483.21219433792,-4792435.729585217,4196244.881770878,2.29792,2.91337,-0.237413,-96.5737,29.9325,30.3246,0.0415419,-7.33051,6.21491,-0.0304048,-0.00234587,0.00819026,4,0,41.38296019132381,-91.73878491401096,9016.808923213704,-72.37392572812132,0.6941766241336493,-0.9710426357650026,183.355,9026.08902586808,11243.505992254835,150,True,21.55368924494057,False,172.60397199587368,179.38292771297864,False,7.300420686309688,True,False
9,1970-07-23 10:31:29.661319117,2025-09-12,2025-09-26 20:29:26.131,AH,C,3731071480,JASSM,3,127,76,2,2,1,225,9,2,0,1,26,0,0,0,0,-179719.31286795562,-4778346.188447799,4211314.782682896,-2.36693,-0.400752,0.381194,77.5,-32.75,-33.625,0.0,0.0,0.0,0.0,0.0,0.0,2,0,41.56157945592356,-92.1539474904334,10002.624701028297,119.80964239974654,-0.0054090892148087,0.0024944623402252,,9026.08902586808,11243.505992254835,150,9,2025-09-12,2025-09-26 20:29:26.199,AH,C,1779076038,AMBUSH51,1,1,48,2,1,1,225,2,1,0,0,9,1,225,2,1,-145609.26307023628,-4792396.91027903,4196283.73159624,2.26298,2.91744,-0.23505,-96.4045,29.5679,29.8946,-0.0360569,-7.3052,6.2916,-0.00963627,0.000182052,-0.00234379,4,0,41.3834306372072,-91.7403046097008,9014.976194891891,-72.62799296129245,0.7705789948065362,-2.921647197567136,182.903,9026.08902586808,11243.505992254835,150,True,21.426857795690207,False,172.36044070208288,179.38340701655184,False,7.570193386292632,True,False
9,1970-07-23 10:31:29.671299039,2025-09-12,2025-09-26 20:29:27.129,AH,C,3732324178,JASSM,3,127,76,2,2,1,225,9,2,0,1,26,0,0,0,0,-179637.90564139312,-4778380.688447799,4211279.349089146,-2.36693,-0.400752,0.381194,77.5,-32.75,-33.625,0.0,0.0,0.0,0.0,0.0,0.0,2,0,41.56115328242306,-92.15295720809983,10002.624607553818,119.81029937479175,-0.0045542998401303,0.0024930374336173,,9026.08902586808,11243.505992254835,150,9,2025-09-12,2025-09-26 20:29:27.032,AH,C,1780070204,AMBUSH51,1,1,48,2,1,1,225,2,1,0,0,9,1,225,2,1,-145689.65080823802,-4792372.155482401,4196308.346872118,2.26285,2.91881,-0.233833,-96.3632,29.5174,29.4477,-0.191574,-7.26395,6.41077,0.0308042,0.00241661,-0.00420176,4,0,41.38372955209797,-91.7412737919704,9013.4681689817,-72.7319851942561,0.7807833227994523,-2.9122740179840605,182.573,9026.08902586808,11243.505992254835,150,True,21.32901972505093,False,172.18691306807943,179.38251252793563,False,7.771428886619814,True,False
9,1970-07-23 10:31:29.683845814,2025-09-12,2025-09-26 20:29:28.384,AH,C,3733696182,JASSM,3,127,76,2,2,1,225,9,2,0,1,26,0,0,0,0,-179548.74548514312,-4778418.471650924,4211240.540495396,-2.36693,-0.400752,0.381194,77.5,-32.75,-33.625,0.0,0.0,0.0,0.0,0.0,0.0,2,0,41.56068652359423,-92.151872630894,10002.62289743713,119.81101890077709,-0.0036181098860773,0.0024914865360922,,9026.08902586808,11243.505992254835,150,9,2025-09-12,2025-09-26 20:29:28.299,AH,C,1781581336,AMBUSH51,1,1,48,2,1,1,225,2,1,0,0,9,1,225,2,1,-145810.99773513945,-4792334.996484984,4196345.235148473,2.31563,2.92331,-0.231241,-96.1806,29.391,29.2314,-0.286159,-7.38721,6.56791,0.0401503,-0.00324261,-0.00397498,4,0,41.38417769619885,-91.74273673350214,9011.12974662358,-73.01183080017834,0.86622925965259,0.1673699100237913,182.206,9026.08902586808,11243.505992254835,150,True,21.202632002740877,False,172.1031046601924,179.38089571922913,False,7.883307463289606,True,False
9,1970-07-23 10:31:29.694200268,2025-09-12,2025-09-26 20:29:29.420,AH,C,3735008532,JASSM,3,127,76,2,2,1,225,9,2,0,1,26,0,0,0,0,-179463.46130545562,-4778454.612275924,4211203.417448521,-2.36693,-0.400752,0.381194,77.5,-32.75,-33.625,0.0,0.0,0.0,0.0,0.0,0.0,2,0,41.56024003612176,-92.15083521713888,10002.622979114243,119.81170713156,-0.0027226130191092,0.0024899943230719,,9026.08902586808,11243.505992254835,150,9,2025-09-12,2025-09-26 20:29:29.532,AH,C,1783052702,AMBUSH51,1,1,48,2,1,1,225,2,1,0,0,9,1,225,2,1,-145930.19810177575,-4792298.434173659,4196381.2935859645,2.34942,2.92016,-0.235729,-95.8954,29.5777,29.2813,-0.134508,-7.43745,6.48782,0.0208216,-0.00398538,0.00707922,4,0,41.38461705816309,-91.74417383833496,9008.307658547885,-72.70476541000086,0.9119744210089245,2.06621957977594,181.84,9026.08902586808,11243.505992254835,150,True,21.07995206706438,False,172.24564344917226,179.3780219770606,False,7.772082655263578,True,False
9,1970-07-23 10:31:29.704342098,2025-09-12,2025-09-26 20:29:30.434,AH,C,3736261232,JASSM,3,127,76,2,2,1,225,9,2,0,1,26,0,0,0,0,-179382.05407889312,-4778489.108369674,4211167.981901646,-2.36693,-0.400752,0.381194,77.5,-32.75,-33.625,0.0,0.0,0.0,0.0,0.0,0.0,2,0,41.5598138458727,-92.14984497745844,10002.623704555886,119.81236406091962,-0.0018678296332776,0.0024885774559127,,9026.08902586808,11243.505992254835,150,9,2025-09-12,2025-09-26 20:29:30.299,AH,C,1783967334,AMBUSH51,1,1,48,2,1,1,225,2,1,0,0,9,1,225,2,1,-146003.85829920543,-4792275.5840665065,4196403.803580696,2.36824,2.91853,-0.23543,-95.7483,29.7289,29.6152,-0.172524,-7.17078,6.48675,0.0146755,0.0136789,0.00785737,4,0,41.38489161543623,-91.7450620044011,9006.431027880164,-72.65652926719304,0.8341896072288675,3.123704031970873,181.766,9026.08902586808,11243.505992254835,150,True,20.985999739145498,False,172.45417213506462,179.37509874123293,False,7.575260221246023,True,False
9,1970-07-23 10:31:29.715206262,2025-09-12,2025-09-26 20:29:31.520,AH,C,3737573582,JASSM,3,127,76,2,2,1,225,9,2,0,1,26,0,0,0,0,-179296.76989920562,-4778525.247041549,4211130.856901646,-2.36693,-0.400657,0.381194,77.5,-32.75,-33.625,0.0,0.0,0.0,0.0,0.0,0.0,2,0,41.559367338539765,-92.1488075924944,10002.624744936124,119.80940820710788,-0.0045387730896263,0.0004436353018915,,9026.08902586808,11243.505992254835,150,9,2025-09-12,2025-09-26 20:29:31.499,AH,C,1785398932,AMBUSH51,1,1,48,2,1,1,225,2,1,0,0,9,1,225,2,1,-146118.1433034484,-4792239.804895542,4196438.846373668,2.32228,2.9142,-0.237817,-95.4762,30.2057,29.6778,-0.290784,-7.18136,6.51431,-0.11088,-0.012443,0.00517548,4,0,41.3853203239309,-91.74644014276387,9002.978078558433,-72.39341691400918,0.7502810206735064,0.435260342846169,181.314,9026.08902586808,11243.505992254835,150,True,20.865936524840482,False,172.69393120398857,179.3702812614497,False,7.375664056076484,True,False
9,1970-07-23 10:31:29.726320315,2025-09-12,2025-09-26 20:29:32.632,AH,C,3738826282,JASSM,3,127,76,2,2,1,225,9,2,0,1,26,0,0,0,0,-179215.36169608062,-4778559.741182174,4211095.419401646,-2.36693,-0.400657,0.381194,77.5,-32.75,-33.625,0.0,0.0,0.0,0.0,0.0,0.0,2,0,41.5589411294838,-92.1478173686426,10002.625884532164,119.8100651147294,-0.0036839820069118,0.000442166905234,,9026.08902586808,11243.505992254835,150,9,2025-09-12,2025-09-26 20:29:32.666,AH,C,1786790764,AMBUSH51,1,1,48,2,1,1,225,2,1,0,0,9,1,225,2,1,-146229.4953729605,-4792204.815067307,4196473.199669473,2.23466,2.91511,-0.239212,-95.4177,29.9316,29.424,0.156625,-7.19068,6.32586,-0.0538198,-0.000668911,-0.022563,4,0,41.38574019783003,-91.74778297831614,8999.759469192642,-72.36974729005007,0.8426993768438741,-4.572191695292044,181.681,9026.08902586808,11243.505992254835,150,True,20.74995077643135,False,172.52057311062705,179.36477211049325,False,7.570302016346276,True,False
9,1970-07-23 10:31:29.737280417,2025-09-12,2025-09-26 20:29:33.728,AH,C,3740138632,JASSM,3,127,76,2,2,1,225,9,2,0,1,26,0,0,0,0,-179130.07751639312,-4778595.875947799,4211058.292448521,-2.36693,-0.400657,0.381194,77.5,-32.75,-33.625,0.0,0.0,0.0,0.0,0.0,0.0,2,0,41.55849461394323,-92.14678001334534,10002.623092140995,119.8107532830894,-0.0027884909746774,0.0004406241073366,,9026.08902586808,11243.505992254835,150,9,2025-09-12,2025-09-26 20:29:33.599,AH,C,1787904230,AMBUSH51,1,1,48,2,1,1,225,2,1,0,0,9,1,225,2,1,-146318.711064867,-4792176.842226475,4196500.424073934,2.2015,2.92369,-0.226065,-95.6404,29.7018,28.7526,-0.320841,-7.39442,6.77286,-0.0185537,0.00572476,-0.0157054,4,0,41.386074204537536,-91.74885885361604,8996.68680531138,-73.2487723209631,0.6863214715565868,-6.370845304316154,181.558,9026.08902586808,11243.505992254835,150,True,20.64448424534462,False,172.13684745514664,179.35905837211752,False,7.983668666836853,True,False
9,1970-07-23 10:31:29.748240538,2025-09-12,2025-09-26 20:29:34.824,AH,C,3741450984,JASSM,3,127,76,2,2,1,225,9,2,0,1,26,0,0,0,0,-179044.79333670562,-4778632.010713424,4211021.165495396,-2.36684,-0.400657,0.381194,77.5,-32.75,-33.625,0.0,0.0,0.0,0.0,0.0,0.0,2,0,41.5580480890097,-92.1457426723284,10002.625416557832,119.81144143590258,-0.0018929998726732,0.0059305533614824,,9026.08902586808,11243.505992254835,150,9,2025-09-12,2025-09-26 20:29:34.799,AH,C,1789335828,AMBUSH51,1,1,48,2,1,1,225,2,1,0,0,9,1,225,2,1,-146435.0060883934,-4792141.478867358,4196534.699705726,2.22049,2.92896,-0.219973,-96.1124,28.8186,28.0424,-0.08674,-7.35461,6.68174,0.0401919,0.00369618,-0.00594114,4,0,41.38649484923899,-91.7502609011417,8992.766021916083,-73.70615084287637,0.6690689181164499,-5.221472751275567,181.84,9026.08902586808,11243.505992254835,150,True,20.52374263446058,False,171.47369533476515,179.35089783109515,False,8.662999807391461,True,False
9,1970-07-23 10:31:29.759198673,2025-09-12,2025-09-26 20:29:35.919,AH,C,3742763334,JASSM,3,127,76,2,2,1,225,9,2,0,1,26,0,0,0,0,-178959.50915701812,-4778668.143525924,4210984.036589146,-2.36684,-0.400657,0.38129,77.5,-32.75,-33.625,0.0,0.0,0.0,0.0,0.0,0.0,2,0,41.55760155318298,-92.144705346468,10002.623815367388,119.81597187521255,-0.0049232865539538,0.0059288103276285,,9026.08902586808,11243.505992254835,150,9,2025-09-12,2025-09-26 20:29:35.899,AH,C,1790648126,AMBUSH51,1,1,48,2,1,1,225,2,1,0,0,9,1,225,2,1,-146540.99690153042,-4792110.086558153,4196565.276504253,2.26931,2.93427,-0.21339,-96.3591,28.3077,27.6764,-0.253555,-7.28732,6.55652,0.0526359,0.0027287,-0.0140014,4,0,41.38686875669467,-91.75153843177482,8989.825165522776,-74.18604173776649,0.6351522583288985,-2.364185197098864,181.766,9026.08902586808,11243.505992254835,150,True,20.409247484646936,False,171.11208892445399,179.34229273566788,False,9.044518773352335,True,False
9,1970-07-23 10:31:29.769338700,2025-09-12,2025-09-26 20:29:36.933,AH,C,3744016034,JASSM,3,127,76,2,2,1,225,9,2,0,1,26,0,0,0,0,-178878.10193045562,-4778702.633760299,4210948.595182896,-2.36684,-0.400657,0.38129,77.5,-32.75,-33.625,0.0,0.0,0.0,0.0,0.0,0.0,2,0,41.557175305452,-92.14371518996724,10002.626274844331,119.81662871532548,-0.0040685022403218,0.0059273913050832,,9026.08902586808,11243.505992254835,150,9,2025-09-12,2025-09-26 20:29:36.998,AH,C,1791960426,AMBUSH51,1,1,48,2,1,1,225,2,1,0,0,9,1,225,2,1,-146646.41185683414,-4792079.215857924,4196595.398290853,2.30857,2.93474,-0.215758,-96.5214,28.0633,27.7533,-0.180319,-7.45877,6.86347,0.0336775,0.00712708,0.00243117,4,0,41.38723658008554,-91.75280890801544,8987.144066055658,-74.10438234606264,0.7470487162143035,-0.107880284112038,181.803,9026.08902586808,11243.505992254835,150,True,20.297650699855495,False,171.0262483388467,179.3326833497115,False,9.148479734690623,True,False
9,1970-07-23 10:31:29.780301426,2025-09-12,2025-09-26 20:29:38.030,AH,C,3745328396,JASSM,3,127,76,2,2,1,225,9,2,0,1,26,0,0,0,0,-178792.81677420562,-4778738.764619674,4210911.464323521,-2.36684,-0.400657,0.38129,77.5,-32.75,-33.625,0.0,0.0,0.0,0.0,0.0,0.0,2,0,41.5567287499849,-92.14267788120112,10002.625542631657,119.81731682890135,-0.0031730029930468,0.0059259096826057,,9026.08902586808,11243.505992254835,150,9,2025-09-12,2025-09-26 20:29:37.933,AH,C,1793073890,AMBUSH51,1,1,48,2,1,1,225,2,1,0,0,9,1,225,2,1,-146736.93671516314,-4792052.946331423,4196621.299505079,2.34039,2.93113,-0.216585,-96.5571,27.9551,28.0551,-0.161569,-7.20332,6.62454,0.0344286,-0.00528991,0.0130422,4,0,41.38755123626128,-91.75389985033652,8985.513170360104,-73.93376524814128,0.6305626764067103,1.6728009791711436,181.888,9026.08902586808,11243.505992254835,150,True,20.19219129278527,False,171.09603983861373,179.32348120125997,False,9.091859154383924,True,False
9,1970-07-23 10:31:29.793857697,2025-09-12,2025-09-26 20:29:39.385,AH,C,3746700388,JASSM,3,127,76,2,2,1,225,9,2,0,1,26,0,0,0,0,-178703.65661795562,-4778776.536104049,4210872.644011021,-2.36684,-0.400657,0.38129,77.5,-32.75,-33.625,0.0,0.0,0.0,0.0,0.0,0.0,2,0,41.556261884846926,-92.1415934571933,10002.622585459334,119.81803619055258,-0.0022368112501578,0.0059243518357837,,9026.08902586808,11243.505992254835,150,9,2025-09-12,2025-09-26 20:29:39.532,AH,C,1794982688,AMBUSH51,1,1,48,2,1,1,225,2,1,0,0,9,1,225,2,1,-146892.11538828386,-4792007.323524949,4196665.951111752,2.32823,2.92228,-0.213243,-96.9753,28.7209,28.3557,-0.216269,-6.63035,6.4229,-0.0555176,-0.00778663,0.0130131,4,0,41.38809581416044,-91.75577019662596,8981.819583911645,-73.74149783077547,0.1371978217474627,0.8690757550771925,182.622,9026.08902586808,11243.505992254835,150,True,20.0471152393504,False,171.38053556032483,179.30676922214332,False,8.86346629206622,True,False
9,1970-07-23 10:31:29.802230787,2025-09-12,2025-09-26 20:29:40.223,AH,C,3747953088,JASSM,3,127,76,2,2,1,225,9,2,0,1,26,0,0,0,0,-178622.24841483062,-4778811.022432174,4210837.198698521,-2.36684,-0.400561,0.38129,77.5,-32.75,-33.625,0.0,0.0,0.0,0.0,0.0,0.0,2,0,41.55583560743686,-92.14060333164272,10002.621523207685,119.81504920712656,-0.0049484532177892,0.003879022946893,,9026.08902586808,11243.505992254835,150,9,2025-09-12,2025-09-26 20:29:40.333,AH,C,1795937088,AMBUSH51,1,1,48,2,1,1,225,2,1,0,0,9,1,225,2,1,-146969.90700257072,-4791984.121230148,4196688.240457948,2.23411,2.9186,-0.211897,-97.3279,28.9072,28.1131,0.0608134,-6.8776,6.66291,-0.121137,-0.00896424,-0.0053877,4,0,41.38837013361565,-91.7567079412091,8978.952693905128,-73.65969026294981,-0.0659035915829023,-4.56826683917433,183.477,9026.08902586808,11243.505992254835,150,True,19.951262410700394,False,171.27545044282388,179.29637660629055,False,9.00082275645934,True,False
9,1970-07-23 10:31:29.813336801,2025-09-12,2025-09-26 20:29:41.333,AH,C,3749265438,JASSM,3,127,76,2,2,1,225,9,2,0,1,26,0,0,0,0,-178536.96325858062,-4778847.151338424,4210800.065886021,-2.36684,-0.400561,0.38129,77.5,-32.75,-33.625,0.0,0.0,0.0,0.0,0.0,0.0,2,0,41.555389022293554,-92.1395660665913,10002.627099208446,119.81573727358182,-0.0040529536788781,0.0038774826243088,,9026.08902586808,11243.505992254835,150,9,2025-09-12,2025-09-26 20:29:41.498,AH,C,1797328920,AMBUSH51,1,1,48,2,1,1,225,2,1,0,0,9,1,225,2,1,-147084.61081631444,-4791950.097651866,4196720.594996098,2.15043,2.92337,-0.199069,-98.1492,28.784,27.027,0.102687,-6.71748,6.40316,-0.0420873,-0.00239372,-0.0255029,4,0,41.388770033293206,-91.75809059237716,8974.086473118572,-74.38303823560193,-0.3646025988688832,-9.304410419772116,184.406,9026.08902586808,11243.505992254835,150,True,19.831923054738958,False,170.64456052096497,179.28021588009358,False,9.683517463125058,True,False
9,1970-07-23 10:31:29.825279059,2025-09-12,2025-09-26 20:29:42.527,AH,C,3750637442,JASSM,3,127,76,2,2,1,225,9,2,0,1,26,0,0,0,0,-178447.80310233062,-4778884.918916549,4210761.243620396,-2.36684,-0.400561,0.38129,77.5,-32.75,-33.625,0.0,0.0,0.0,0.0,0.0,0.0,2,0,41.554922137851385,-92.13848168911755,10002.626355989789,119.81645658541744,-0.0031167679997194,0.0038758732680952,,9026.08902586808,11243.505992254835,150,9,2025-09-12,2025-09-26 20:29:42.735,AH,C,1798800284,AMBUSH51,1,1,48,2,1,1,225,2,1,0,0,9,1,225,2,1,-147205.69516361295,-4791914.915843433,4196752.511684983,2.12378,2.9357,-0.181929,-99.238,28.0523,25.493,-0.135942,-7.05127,6.88013,0.0192653,0.015256,-0.0166,4,0,41.38917268321359,-91.75954990472584,8965.911049042652,-75.57700227216966,-0.5141881996454335,-10.688450096537682,185.212,9026.08902586808,11243.505992254835,150,False,19.7070971622981,False,169.59427481792792,179.25932197323843,False,10.779896091473578,True,False
9,1970-07-23 10:31:29.836238477,2025-09-12,2025-09-26 20:29:43.623,AH,C,3751949794,JASSM,3,127,76,2,2,1,225,9,2,0,1,26,0,0,0,0,-178362.51794608062,-4778921.043916549,4210724.106901646,-2.36684,-0.400561,0.38129,77.5,-32.75,-33.625,0.0,0.0,0.0,0.0,0.0,0.0,2,0,41.55447553049591,-92.1374444550215,10002.624313472206,119.81714461891464,-0.0022212679590588,0.0038743296064851,,9026.08902586808,11243.505992254835,150,9,2025-09-12,2025-09-26 20:29:43.532,AH,C,1799754684,AMBUSH51,1,1,48,2,1,1,225,2,1,0,0,9,1,225,2,1,-147285.62460252538,-4791892.603829272,4196772.313849557,2.12979,2.94093,-0.174638,-100.082,27.2365,24.6306,-0.196279,-7.35676,6.98153,-0.00289931,0.00515883,-0.00828597,4,0,41.389424492088246,-91.76051289247356,8960.015529535925,-76.08511229156406,-0.5767504272243281,-10.285985895804105,186.141,9026.08902586808,11243.505992254835,150,False,19.60851902116132,False,168.84097109290127,179.24295948376428,False,11.554109648332,True,False
9,1970-07-23 10:31:29.847206709,2025-09-12,2025-09-26 20:29:44.720,AH,C,3753262144,JASSM,3,127,76,2,2,1,225,9,2,0,1,26,0,0,0,0,-178277.23376639312,-4778957.166963424,4210686.970182896,-2.36684,-0.400561,0.381386,77.5,-32.75,-33.625,0.0,0.0,0.0,0.0,0.0,0.0,2,0,41.55402892518373,-92.13640724776934,10002.622685359573,119.82167507204268,-0.0052514218267678,0.0038725706047594,,9026.08902586808,11243.505992254835,150,9,2025-09-12,2025-09-26 20:29:44.732,AH,C,1801186282,AMBUSH51,1,1,48,2,1,1,225,2,1,0,0,9,1,225,2,1,-147406.6525002835,-4791860.427256096,4196800.597087111,2.15573,2.94987,-0.164033,-101.262,25.9815,23.3904,-0.162301,-7.43969,7.05828,0.045152,0.00112872,-0.00570603,4,0,41.389784713529565,-91.76197045766936,8951.361989028781,-76.8753866068895,-0.610618798574546,-8.705579924642818,187.131,9026.08902586808,11243.505992254835,150,True,19.487497130640467,False,167.746478768859,179.21634152981184,False,12.683290339387403,True,False
9,1970-07-23 10:31:29.857864423,2025-09-12,2025-09-26 20:29:45.786,AH,C,3754574494,JASSM,3,127,76,2,2,1,225,9,2,0,1,26,0,0,0,0,-178191.94861014312,-4778993.290010299,4210649.833464146,-2.36684,-0.400561,0.381386,77.5,-32.75,-33.625,0.0,0.0,0.0,0.0,0.0,0.0,2,0,41.55358231069872,-92.1353700431044,10002.62608465958,119.82236307396872,-0.0043559279057216,0.0038710967007598,,9026.08902586808,11243.505992254835,150,9,2025-09-12,2025-09-26 20:29:45.965,AH,C,1802657648,AMBUSH51,1,1,48,2,1,1,225,2,1,0,0,9,1,225,2,1,-147532.57744238045,-4791828.577924441,4196828.683902317,2.26586,2.95732,-0.158835,-102.354,25.1089,22.7609,-0.255081,-7.30839,7.14065,0.153882,0.0131171,-0.0157074,4,0,41.390140747330776,-91.76348641819908,8943.466828105595,-77.37969570165588,-0.4975977687197214,-2.3221491542370507,188.439,9026.08902586808,11243.505992254835,150,True,19.36435130175359,False,167.03780303151825,179.18571356300833,False,13.431104398546912,True,False
9,1970-07-23 10:31:29.868299070,2025-09-12,2025-09-26 20:29:46.829,AH,C,3755827194,JASSM,3,127,76,2,2,1,225,9,2,0,1,26,0,0,0,0,-178110.54040701812,-4779027.770479049,4210614.382292271,-2.36684,-0.400561,0.381386,77.5,-32.75,-33.625,0.0,0.0,0.0,0.0,0.0,0.0,2,0,41.55315597500004,-92.13438000195563,10002.62720078922,119.82301978557533,-0.0035011346082094,0.0038696766927859,,9026.08902586808,11243.505992254835,150,9,2025-09-12,2025-09-26 20:29:46.665,AH,C,1803492746,AMBUSH51,1,1,48,2,1,1,225,2,1,0,0,9,1,225,2,1,-147604.5913182271,-4791810.860229933,4196844.346818116,2.36387,2.95959,-0.157706,-102.777,24.9584,23.0157,-0.435667,-7.50024,7.09124,0.138034,0.0017425,0.00348396,4,0,41.39033869849781,-91.76435319007474,8939.310474507141,-77.51456404936661,-0.4448353461723578,3.315119814639191,188.72,9026.08902586808,11243.505992254835,150,True,19.273589363094658,False,167.01888579810554,179.1660689793524,False,13.471534795544821,True,False
9,1970-07-23 10:31:29.881059436,2025-09-12,2025-09-26 20:29:48.105,AH,C,3757139546,JASSM,3,127,76,2,2,1,225,9,2,0,1,26,0,0,0,0,-178025.25525076812,-4779063.889619674,4210577.241667271,-2.36684,-0.400561,0.381386,77.5,-32.75,-33.625,0.0,0.0,0.0,0.0,0.0,0.0,2,0,41.55270933915706,-92.13334282694308,10002.622516395408,119.82370775596176,-0.0026056401881986,0.0038681994534751,,9026.08902586808,11243.505992254835,150,9,2025-09-12,2025-09-26 20:29:48.165,AH,C,1805282244,AMBUSH51,1,1,48,2,1,1,225,2,1,0,0,9,1,225,2,1,-147758.90093214597,-4791772.235744225,4196879.415188204,2.47405,2.94144,-0.173579,-102.97,26.1166,24.5045,-0.0826871,-7.07699,6.67903,0.0383339,0.00869168,0.0189948,4,0,41.390776934420686,-91.76621074992688,8932.059398193212,-76.15287277208672,-0.5921589430305826,9.443590453097466,189.624,9026.08902586808,11243.505992254835,150,True,19.134745696016978,False,167.92878185845228,179.12572679664967,False,12.620836674005234,True,False
9,1970-07-23 10:31:29.890217623,2025-09-12,2025-09-26 20:29:49.021,AH,C,3758451896,JASSM,3,127,76,2,2,1,225,9,2,0,1,26,0,0,0,0,-177939.97107108062,-4779100.008760299,4210540.101042271,-2.36684,-0.400465,0.381386,77.5,-32.75,-33.625,0.0,0.0,0.0,0.0,0.0,0.0,2,0,41.55226269370762,-92.13230567790085,10002.623038058287,119.82075218550588,-0.0052765811775395,0.0018223386289891,,9026.08902586808,11243.505992254835,150,9,2025-09-12,2025-09-26 20:29:48.932,AH,C,1806196876,AMBUSH51,1,1,48,2,1,1,225,2,1,0,0,9,1,225,2,1,-147837.72425592662,-4791751.878493121,4196898.044030114,2.46391,2.93659,-0.184315,-102.905,26.7398,25.5266,-0.25271,-7.40055,7.15332,-0.0663346,0.00701056,0.00386679,4,0,41.39100934198286,-91.76715985659472,8928.369329100899,-75.51458833974145,-0.3792771606900738,8.808008737411447,189.893,9026.08902586808,11243.505992254835,150,True,19.037326072422957,False,168.52559764730464,179.10364390862009,False,12.049814307918476,True,False
9,1970-07-23 10:31:29.901359553,2025-09-12,2025-09-26 20:29:50.135,AH,C,3759704594,JASSM,3,127,76,2,2,1,225,9,2,0,1,26,0,0,0,0,-177858.56286795562,-4779134.485322799,4210504.647917271,-2.36684,-0.400465,0.381386,77.5,-32.75,-33.625,0.0,0.0,0.0,0.0,0.0,0.0,2,0,41.551836341676726,-92.13131567876424,10002.62475052467,119.8214088522084,-0.0044217939529234,0.0018208723050681,,9026.08902586808,11243.505992254835,150,9,2025-09-12,2025-09-26 20:29:50.004,AH,C,1807469408,AMBUSH51,1,1,48,2,1,1,225,2,1,0,0,9,1,225,2,1,-147948.08366542563,-4791722.254037843,4196925.583346318,2.39257,2.92534,-0.199249,-102.892,27.6335,26.6636,0.0507082,-7.35628,6.92741,-0.0437019,0.0042725,0.0182062,4,0,41.391351236524685,-91.76848911324164,8923.608660427817,-74.457063405576,-0.2678545765482519,4.591736468454077,190.247,9026.08902586808,11243.505992254835,150,True,18.924311278064593,False,169.237677607552,179.07434922919546,False,11.376864716404311,True,False
9,1970-07-23 10:31:29.911316957,2025-09-12,2025-09-26 20:29:51.131,AH,C,3760957294,JASSM,3,127,76,2,2,1,225,9,2,0,1,26,0,0,0,0,-177777.15466483062,-4779168.961885299,4210469.192839146,-2.36684,-0.400465,0.381386,77.5,-32.75,-33.625,0.0,0.0,0.0,0.0,0.0,0.0,2,0,41.55140996793728,-92.13032569263798,10002.626874905753,119.82206550474702,-0.0035670001234782,0.001819394532055,,9026.08902586808,11243.505992254835,150,9,2025-09-12,2025-09-26 20:29:51.065,AH,C,1808741940,AMBUSH51,1,1,48,2,1,1,225,2,1,0,0,9,1,225,2,1,-148057.09014674314,-4791692.562038686,4196953.710084981,2.34349,2.92189,-0.201333,-103.006,28.1065,27.2645,-0.348986,-7.11661,6.80705,-0.10324,0.00467406,-0.0122183,4,0,41.391697732532016,-91.76980224739332,8919.8603726698,-74.23903409049554,-0.3288844932287534,1.738961805127747,191.066,9026.08902586808,11243.505992254835,150,True,18.811786734483213,False,169.589342522513,179.04548392916118,False,11.063283199002644,True,False
9,1970-07-23 10:31:29.923836941,2025-09-12,2025-09-26 20:29:52.383,AH,C,3762209992,JASSM,3,127,76,2,2,1,225,9,2,0,1,26,0,0,0,0,-177695.74548514312,-4779203.436494674,4210433.737761021,-2.36684,-0.400465,0.381386,77.5,-32.75,-33.625,0.0,0.0,0.0,0.0,0.0,0.0,2,0,41.55098359751072,-92.12933570870044,10002.628780349636,119.82272215029782,-0.0027122051063093,0.0018179310452958,,9026.08902586808,11243.505992254835,150,9,2025-09-12,2025-09-26 20:29:52.265,AH,C,1810173540,AMBUSH51,1,1,48,2,1,1,225,2,1,0,0,9,1,225,2,1,-148181.46627161006,-4791658.375046242,4196986.383220938,2.24382,2.91832,-0.204559,-103.436,27.9139,27.4843,-0.0567565,-7.21807,6.80234,-0.0414423,0.00190062,-0.00798844,4,0,41.3920988205776,-91.77130066177656,8916.092654582844,-73.96835666276372,-0.3503403529483004,-4.014960143654579,191.958,9026.08902586808,11243.505992254835,150,True,18.690443144962156,False,169.52874016685178,179.01240714465135,False,11.157304111414122,True,False
9,1970-07-23 10:31:29.938242490,2025-09-12,2025-09-26 20:29:53.824,AH,C,3763581996,JASSM,3,127,76,2,2,1,225,9,2,0,1,26,0,0,0,0,-177606.58435233062,-4779241.192354049,4210394.903776646,-2.36684,-0.400465,0.381386,77.5,-32.75,-33.625,0.0,0.0,0.0,0.0,0.0,0.0,2,0,41.55051660744508,-92.12825147200512,10002.62645770806,119.82344130632464,-0.0017760101292995,0.0018163192917739,,9026.08902586808,11243.505992254835,150,9,2025-09-12,2025-09-26 20:29:53.666,AH,C,1811843738,AMBUSH51,1,1,48,2,1,1,225,2,1,0,0,9,1,225,2,1,-148326.22043421963,-4791619.097160548,4197023.938354642,2.21016,2.93138,-0.193049,-104.036,27.5085,26.8215,-0.0653427,-7.03432,6.5833,-0.0191071,0.00852524,-0.0100482,4,0,41.392559381744114,-91.77304441456394,8911.952375083938,-74.95140007029532,-0.2534884531318564,-5.790572571939831,192.581,9026.08902586808,11243.505992254835,150,True,18.55294096171772,False,169.04955233821954,178.9719114750004,False,11.692341830991108,True,False
9,1970-07-23 10:31:29.944198709,2025-09-12,2025-09-26 20:29:54.419,AH,C,3764894348,JASSM,3,127,76,2,2,1,225,9,2,0,1,26,0,0,0,0,-177521.29919608062,-4779277.305635299,4210357.757292271,-2.36684,-0.400465,0.381482,77.5,-32.75,-33.625,0.0,0.0,0.0,0.0,0.0,0.0,2,0,41.550069911613015,-92.12721438397524,10002.624881982323,119.82797176773084,-0.0048060169605804,0.0018145892969486,,9026.08902586808,11243.505992254835,150,9,2025-09-12,2025-09-26 20:29:54.465,AH,C,1812798136,AMBUSH51,1,1,48,2,1,1,225,2,1,0,0,9,1,225,2,1,-148409.48688018776,-4791597.199344045,4197044.731696295,2.2202,2.93787,-0.191909,-104.467,26.9723,26.3705,-0.280722,-7.35164,6.95009,0.0349613,0.00401035,-0.00380229,4,0,41.39281469292028,-91.77404722155411,8909.532427708882,-75.2462485416675,-0.0273248347656584,-5.143573257885608,193.009,9026.08902586808,11243.505992254835,150,True,18.452778469099766,False,168.63714799668708,178.94561660365162,False,12.13342261437017,True,False
9,1970-07-23 10:31:29.955318634,2025-09-12,2025-09-26 20:29:55.531,AH,C,3766206698,JASSM,3,127,76,2,2,1,225,9,2,0,1,26,0,0,0,0,-177436.01403983062,-4779313.416963424,4210320.610807896,-2.36684,-0.400465,0.381482,77.5,-32.75,-33.625,0.0,0.0,0.0,0.0,0.0,0.0,2,0,41.54962321804348,-92.12617731109174,10002.62363086896,119.82865962860404,-0.0039105278628438,0.0018131197879835,,9026.08902586808,11243.505992254835,150,9,2025-09-12,2025-09-26 20:29:55.566,AH,C,1814110436,AMBUSH51,1,1,48,2,1,1,225,2,1,0,0,9,1,225,2,1,-148523.94679936144,-4791567.544177751,4197073.164473059,2.25711,2.94249,-0.18894,-104.993,26.5438,26.1005,-0.189405,-7.53972,7.06063,0.0190135,0.000779183,-0.00212325,4,0,41.39316196766013,-91.77542555048488,8906.983961789647,-75.54797730098808,0.0514699109603046,-2.97842001077124,193.351,9026.08902586808,11243.505992254835,150,True,18.335311843083588,False,168.30969416976856,178.90935782231776,False,12.501190597468035,True,False
9,1970-07-23 10:31:29.966280094,2025-09-12,2025-09-26 20:29:56.628,AH,C,3767459396,JASSM,3,127,76,2,2,1,225,9,2,0,1,26,0,0,0,0,-177354.60583670562,-4779347.887666549,4210285.151823521,-2.36684,-0.400465,0.381482,77.5,-32.75,-33.625,0.0,0.0,0.0,0.0,0.0,0.0,2,0,41.54919680854815,-92.12518739510024,10002.627077566196,119.8293162059901,-0.0030557395982417,0.0018117056779602,,9026.08902586808,11243.505992254835,150,9,2025-09-12,2025-09-26 20:29:56.598,AH,C,1815343200,AMBUSH51,1,1,48,2,1,1,225,2,1,0,0,9,1,225,2,1,-148633.44707320613,-4791539.786970718,4197100.008962097,2.30503,2.94181,-0.190228,-105.433,26.2575,26.1754,-0.266391,-7.33712,7.10903,0.0734023,-0.00172585,0.00615544,4,0,41.39348812765893,-91.77674394214796,8905.28810000223,-75.46860858457549,0.0739278749470655,-0.2402752074626665,193.852,9026.08902586808,11243.505992254835,150,True,18.22325352846653,False,168.1676741744746,178.8731241061413,False,12.679575545011147,True,False
9,1970-07-23 10:31:29.977435243,2025-09-12,2025-09-26 20:29:57.743,AH,C,3768771748,JASSM,3,127,76,2,2,1,225,9,2,0,1,26,0,0,0,0,-177269.31970389312,-4779383.997041549,4210248.001432896,-2.36684,-0.400369,0.381482,77.5,-32.75,-33.625,0.0,0.0,0.0,0.0,0.0,0.0,2,0,41.54875008218797,-92.12415033930014,10002.622446100107,119.82636079423686,-0.0057266577955756,-0.000234611616335,,9026.08902586808,11243.505992254835,150,9,2025-09-12,2025-09-26 20:29:57.731,AH,C,1816695266,AMBUSH51,1,1,48,2,1,1,225,2,1,0,0,9,1,225,2,1,-148752.28203437518,-4791509.847975412,4197129.414317855,2.38081,2.94417,-0.187891,-105.615,26.3889,26.7347,-0.211276,-7.00088,6.52651,0.0452394,0.00147202,0.00450761,4,0,41.39384281724261,-91.77817467090256,8904.50028235268,-75.6579728760947,0.0832436659811681,4.126694528919665,193.926,9026.08902586808,11243.505992254835,150,True,18.103559512052193,False,168.3767985333963,178.83314539144874,False,12.510826827916597,True,False
9,1970-07-23 10:31:29.988383704,2025-09-12,2025-09-26 20:29:58.838,AH,C,3770084098,JASSM,3,127,76,2,2,1,225,9,2,0,1,26,0,0,0,0,-177184.03454764312,-4779420.106416549,4210210.851042271,-2.36674,-0.400369,0.381482,77.5,-32.75,-33.625,0.0,0.0,0.0,0.0,0.0,0.0,2,0,41.54830334622456,-92.1231133094689,10002.6230204096,119.8270486087068,-0.0048311618594876,0.0052553208661231,,9026.08902586808,11243.505992254835,150,9,2025-09-12,2025-09-26 20:29:58.865,AH,C,1818047332,AMBUSH51,1,1,48,2,1,1,225,2,1,0,0,9,1,225,2,1,-148872.99417749426,-4791478.794024361,4197159.624050896,2.4167,2.93327,-0.194714,-105.779,27.2283,27.3732,-0.181951,-7.22931,6.8731,0.0442823,0.000714684,0.00632605,4,0,41.39420920522124,-91.77962825456802,8902.866304312356,-74.95694454215831,-0.1056222513917252,6.063931803604165,194.317,9026.08902586808,11243.505992254835,150,True,17.98263716447968,False,168.8476956190908,178.79181720341444,False,12.09604970534925,True,False
9,1970-07-23 10:31:29.998338623,2025-09-12,2025-09-26 20:29:59.833,AH,C,3771396450,JASSM,3,127,76,2,2,1,225,9,2,0,1,26,0,0,0,0,-177098.74939139312,-4779456.213838424,4210173.700651646,-2.36674,-0.400369,0.381482,77.5,-32.75,-33.625,0.0,0.0,0.0,0.0,0.0,0.0,2,0,41.54785661252451,-92.12207629478222,10002.623919184804,119.827736407056,-0.0039356722110255,0.0052537909993383,,9026.08902586808,11243.505992254835,150,9,2025-09-12,2025-09-26 20:29:59.965,AH,C,1819359630,AMBUSH51,1,1,48,2,1,1,225,2,1,0,0,9,1,225,2,1,-148988.38950460975,-4791448.162601599,4197189.581103538,2.43747,2.92895,-0.202005,-105.635,28.2926,28.2211,-0.0848246,-6.99461,6.52541,-0.0107952,-0.000352661,-0.000132118,4,0,41.39457233891347,-91.78101818114811,8901.325319790461,-74.48587406295044,-0.0016697717979398,7.205074829441098,194.5,9026.08902586808,11243.505992254835,150,True,17.864278695731734,False,169.5139662508948,178.75270907513814,False,11.484208871617396,True,False
9,1970-07-23 10:31:30.007342367,2025-09-12,2025-09-26 20:30:00.734,AH,C,3772470192,JASSM,3,127,76,2,2,1,225,9,2,0,1,26,0,0,0,0,-177028.97204764312,-4779485.754854049,4210143.304167271,-2.36674,-0.400369,0.381482,77.5,-32.75,-33.625,0.0,0.0,0.0,0.0,0.0,0.0,2,0,41.54749109952724,-92.1212278564748,10002.623558673124,119.82829912790186,-0.003203011938886,0.0052525356233113,,9026.08902586808,11243.505992254835,150,9,2025-09-12,2025-09-26 20:30:00.765,AH,C,1820314028,AMBUSH51,1,1,48,2,1,1,225,2,1,0,0,9,1,225,2,1,-149072.54906727953,-4791425.027176496,4197212.224304733,2.471,2.91797,-0.21493,-105.402,29.1143,29.001,-0.187878,-7.07305,6.65608,0.0583388,-0.00722487,0.0240818,4,0,41.394847267062666,-91.78203218123248,8899.974373873474,-73.5247193974784,0.0459222162059225,8.995979038732953,194.842,9026.08902586808,11243.505992254835,150,True,17.772875917356448,False,170.09106580216576,178.72447774841046,False,10.943970323597286,True,False
9,1970-07-23 10:31:30.018296518,2025-09-12,2025-09-26 20:30:01.829,AH,C,3773663238,JASSM,3,127,76,2,2,1,225,9,2,0,1,26,0,0,0,0,-176951.43884451812,-4779518.579072799,4210109.528776646,-2.36674,-0.400369,0.381482,77.5,-32.625,-33.625,0.0,0.0,0.0,0.0,0.0,0.0,2,0,41.54708495181954,-92.12028512429542,10002.625743458788,119.82892438373683,-0.0023889153829411,0.00525114061788,,9026.08902586808,11243.505992254835,150,9,2025-09-12,2025-09-26 20:30:01.798,AH,C,1821546794,AMBUSH51,1,1,48,2,1,1,225,2,1,0,0,9,1,225,2,1,-149181.79593548816,-4791393.786132691,4197242.684143192,2.53229,2.90962,-0.224918,-105.005,30.5678,30.2081,-0.224374,-7.06448,6.54093,0.0432379,0.00245198,0.0173511,4,0,41.3952185314842,-91.7833489094744,8897.567049137171,-72.78808226603685,0.0907626050550812,12.403877183260498,194.805,9026.08902586808,11243.505992254835,150,False,17.66197388779295,False,171.08772501578665,178.6860003169298,False,10.044624723795716,True,False
9,1970-07-23 10:31:30.029836355,2025-09-12,2025-09-26 20:30:02.983,AH,C,3774796634,JASSM,3,127,76,2,2,1,225,9,2,0,1,26,0,0,0,0,-176877.78259451812,-4779549.760713424,4210077.440886021,-2.36674,-0.400369,0.381482,77.5,-32.625,-33.625,0.0,0.0,0.0,0.0,0.0,0.0,2,0,41.54669910385165,-92.1193895437678,10002.625645459084,119.82951836215236,-0.0016155260429038,0.0052498134008624,,9026.08902586808,11243.505992254835,150,9,2025-09-12,2025-09-26 20:30:02.965,AH,C,1822938626,AMBUSH51,1,1,48,2,1,1,225,2,1,0,0,9,1,225,2,1,-149303.05294126112,-4791356.966997284,4197278.30748988,2.5654,2.88705,-0.242212,-104.414,32.1642,32.0379,-0.256668,-6.87753,6.45772,0.0104539,-0.00674425,0.0162047,4,0,41.39565559807378,-91.78481120911886,8893.567590779881,-71.20739533335922,-0.1566208249931604,14.000882085746628,195.111,9026.08902586808,11243.505992254835,150,False,17.545880834548598,False,172.33160000181687,178.64871128599637,False,8.844748315433101,True,False
9,1970-07-23 10:31:30.037277518,2025-09-12,2025-09-26 20:30:03.727,AH,C,3775930064,JASSM,3,127,76,2,2,1,225,9,2,0,1,26,0,0,0,0,-176804.12439139312,-4779580.942354049,4210045.351042271,-2.36674,-0.400369,0.381578,77.5,-32.625,-33.625,0.0,0.0,0.0,0.0,0.0,0.0,2,0,41.546313236159065,-92.1184939505082,10002.62493686558,119.83395506997329,-0.0047674792495509,0.0052482957071517,,9026.08902586808,11243.505992254835,150,9,2025-09-12,2025-09-26 20:30:03.565,AH,C,1823654426,AMBUSH51,1,1,48,2,1,1,225,2,1,0,0,9,1,225,2,1,-149365.3321667773,-4791337.080971491,4197297.305587675,2.54134,2.87461,-0.252072,-103.986,33.664,32.4689,-0.338419,-6.90635,6.48579,-0.0866183,0.00311569,0.00958842,4,0,41.3958906113494,-91.78556263686934,8890.639692078412,-70.32321990438031,-0.2750983401509105,12.444590171587713,195.49,9026.08902586808,11243.505992254835,150,False,17.463386876592683,False,173.00778613771232,178.62886905314812,False,8.227243293442857,True,False
9,1970-07-23 10:31:30.048243530,2025-09-12,2025-09-26 20:30:04.824,AH,C,3777123074,JASSM,3,127,76,2,2,1,225,9,2,0,1,26,0,0,0,0,-176726.59509451812,-4779613.762666549,4210011.573698521,-2.36674,-0.400369,0.381578,77.5,-32.625,-33.625,0.0,0.0,0.0,0.0,0.0,0.0,2,0,41.54590707523893,-92.11755130104098,10002.625905031648,119.8345802564818,-0.0039534185360354,0.0052469452012402,,9026.08902586808,11243.505992254835,150,9,2025-09-12,2025-09-26 20:30:04.865,AH,C,1825205324,AMBUSH51,1,1,48,2,1,1,225,2,1,0,0,9,1,225,2,1,-149500.29740351957,-4791292.099634228,4197340.073285265,2.40857,2.86037,-0.26723,-103.679,35.1277,33.7437,-0.0434184,-7.22556,6.65731,-0.0746382,0.00130973,0.000502464,4,0,41.39642189465426,-91.78719177753376,8883.127083846797,-69.15119930545862,-0.252843024703781,4.622681497522366,196.064,9026.08902586808,11243.505992254835,150,True,17.335533504888,False,173.9359622381905,178.59185961124098,False,7.357108277724566,True,False
9,1970-07-23 10:31:30.057838471,2025-09-12,2025-09-26 20:30:05.783,AH,C,3778375772,JASSM,3,127,76,2,2,1,225,9,2,0,1,26,0,0,0,0,-176645.18591483062,-4779648.221650924,4209976.106901646,-2.36674,-0.400369,0.381578,77.5,-32.625,-33.625,0.0,0.0,0.0,0.0,0.0,0.0,2,0,41.54548060871188,-92.11656149191909,10002.624136560633,119.83523671493823,-0.0030986341999199,0.0052455513397214,,9026.08902586808,11243.505992254835,150,9,2025-09-12,2025-09-26 20:30:05.731,AH,C,1826239256,AMBUSH51,1,1,48,2,1,1,225,2,1,0,0,9,1,225,2,1,-149591.17173400056,-4791261.081100484,4197369.780068216,2.32261,2.85854,-0.266019,-103.762,35.3701,34.2494,-0.229561,-7.10052,6.67265,-0.128392,-0.00754528,-0.0132253,4,0,41.39679010502558,-91.7882889935238,8878.250334109869,-69.13304990815855,-0.3729000185520217,-0.3301882734298148,196.59,9026.08902586808,11243.505992254835,150,True,17.230748984943748,False,174.16880307801458,178.56669406941836,False,7.146190257971798,True,False
9,1970-07-23 10:31:30.067216740,2025-09-12,2025-09-26 20:30:06.721,AH,C,3779509166,JASSM,3,127,76,2,2,1,225,9,2,0,1,26,0,0,0,0,-176571.52966483062,-4779679.399385299,4209944.015104771,-2.36674,-0.400273,0.381578,77.5,-32.625,-33.625,0.0,0.0,0.0,0.0,0.0,0.0,2,0,41.54509472862623,-92.1156659573978,10002.62182251118,119.83218766287064,-0.0058916594814725,0.0031989550924188,,9026.08902586808,11243.505992254835,150,9,2025-09-12,2025-09-26 20:30:06.732,AH,C,1827432254,AMBUSH51,1,1,48,2,1,1,225,2,1,0,0,9,1,225,2,1,-149694.92631999217,-4791225.269268401,4197403.747627351,2.25353,2.86324,-0.263271,-104.099,35.4752,34.0239,-0.154117,-7.39112,6.80531,-0.0519098,0.00251232,-0.00570603,4,0,41.39721319150537,-91.78954188950784,8871.821531708274,-69.42669556466184,-0.2912254335298382,-4.216283220258547,197.873,9026.08902586808,11243.505992254835,150,True,17.12315628894111,False,174.0423037603294,178.5386599368585,False,7.309693666049909,True,False
9,1970-07-23 10:31:30.076235396,2025-09-12,2025-09-26 20:30:07.623,AH,C,3780642560,JASSM,3,127,76,2,2,1,225,9,2,0,1,26,0,0,0,0,-176497.87439139312,-4779710.577119674,4209911.925261021,-2.36674,-0.400273,0.381578,77.5,-32.625,-33.625,0.0,0.0,0.0,0.0,0.0,0.0,2,0,41.54470885448096,-92.11477044521575,10002.627663269726,119.83278157275666,-0.0051182835205136,0.003197634032125,,9026.08902586808,11243.505992254835,150,9,2025-09-12,2025-09-26 20:30:07.631,AH,C,1828505954,AMBUSH51,1,1,48,2,1,1,225,2,1,0,0,9,1,225,2,1,-149788.80296834873,-4791193.171408446,4197434.248262864,2.233,2.86574,-0.25804,-104.602,35.1368,33.7908,-0.107172,-7.23536,6.60093,-0.000673072,0.00597651,-0.0230811,4,0,41.3975926016846,-91.79067540467275,8866.254080540784,-69.74058060299843,-0.3950888617286233,-5.354145450588698,198.545,9026.08902586808,11243.505992254835,150,True,17.02151054560123,False,173.76357647067138,178.51215894363753,False,7.608044607420913,True,False
9,1970-07-23 10:31:30.089074203,2025-09-12,2025-09-26 20:30:08.907,AH,C,3781775954,JASSM,3,127,76,2,2,1,225,9,2,0,1,26,0,0,0,0,-176424.21814139312,-4779741.752900924,4209879.831511021,-2.36674,-0.400273,0.381578,77.5,-32.625,-33.625,0.0,0.0,0.0,0.0,0.0,0.0,2,0,41.54432295888974,-92.1138749328554,10002.623939913454,119.8333754782298,-0.0043448932914153,0.0031963044407284,,9026.08902586808,11243.505992254835,150,9,2025-09-12,2025-09-26 20:30:08.998,AH,C,1830136386,AMBUSH51,1,1,48,2,1,1,225,2,1,0,0,9,1,225,2,1,-149931.52844018332,-4791145.328450586,4197479.740736352,2.26783,2.87744,-0.251734,-105.315,34.5229,33.3996,-0.144225,-7.60591,6.92007,0.090846,0.00638639,-0.00313026,4,0,41.39815778817328,-91.79239841437838,8858.246935135725,-70.44935119917452,-0.1680301558576059,-3.185602389601481,198.911,9026.08902586808,11243.505992254835,150,True,16.89145451960883,False,173.31081938227118,178.47163686934093,False,8.089746882053408,True,False
9,1970-07-23 10:31:30.095333267,2025-09-12,2025-09-26 20:30:09.533,AH,C,3782909350,JASSM,3,127,76,2,2,1,225,9,2,0,1,26,0,0,0,0,-176350.56286795562,-4779772.926729049,4209847.739714146,-2.36674,-0.400273,0.381578,77.5,-32.625,-33.625,0.0,0.0,0.0,0.0,0.0,0.0,2,0,41.54393708088864,-92.11297944369656,10002.623578500396,119.83396936378266,-0.0035715233932809,0.0031949914758946,,9026.08902586808,11243.505992254835,150,9,2025-09-12,2025-09-26 20:30:09.431,AH,C,1830653352,AMBUSH51,1,1,48,2,1,1,225,2,1,0,0,9,1,225,2,1,-149977.94221662037,-4791130.226239424,4197494.261060538,2.29854,2.88073,-0.250454,-105.51,34.2455,33.3903,-0.290083,-7.6105,7.02494,0.0530583,0.00117866,-0.0105642,4,0,41.39833701818196,-91.79295856666154,8856.174088725369,-70.62771134508291,-0.0847375567041113,-1.3790722604251815,198.948,9026.08902586808,11243.505992254835,150,True,16.81805741360433,False,173.1915401960252,178.45507235627088,False,8.216538726381073,True,False
9,1970-07-23 10:31:30.105320465,2025-09-12,2025-09-26 20:30:10.532,AH,C,3784102396,JASSM,3,127,76,2,2,1,225,9,2,0,1,26,0,0,0,0,-176273.02966483062,-4779805.743135299,4209813.956511021,-2.36674,-0.400273,0.381578,77.5,-32.625,-33.625,0.0,0.0,0.0,0.0,0.0,0.0,2,0,41.54353085929053,-92.11203681821874,10002.62659626674,119.83459450509687,-0.0027574255767434,0.0031935925027938,,9026.08902586808,11243.505992254835,150,9,2025-09-12,2025-09-26 20:30:10.431,AH,C,1831846350,AMBUSH51,1,1,48,2,1,1,225,2,1,0,0,9,1,225,2,1,-150083.8601948578,-4791096.022061501,4197527.426863514,2.34189,2.87888,-0.25208,-105.846,33.9961,33.6341,-0.148706,-7.49812,6.82801,0.025093,0.00438277,0.00648209,4,0,41.39874467487201,-91.7942367699485,8852.15224586734,-70.49058852644471,-0.0948177112824596,1.0778934251880457,198.875,9026.08902586808,11243.505992254835,150,True,16.70755107904908,False,173.13835667480714,178.42174985059503,False,8.28900518923852,True,False
9,1970-07-23 10:31:30.115294948,2025-09-12,2025-09-26 20:30:11.529,AH,C,3785295442,JASSM,3,127,76,2,2,1,225,9,2,0,1,26,0,0,0,0,-176195.49743826812,-4779838.555635299,4209780.173307896,-2.36674,-0.400273,0.381578,77.5,-32.625,-33.625,0.0,0.0,0.0,0.0,0.0,0.0,2,0,41.54312465302044,-92.11109421795436,10002.6243457385,119.83521962466752,-0.001943347895986,0.0031922085250011,,9026.08902586808,11243.505992254835,150,9,2025-09-12,2025-09-26 20:30:11.598,AH,C,1833238182,AMBUSH51,1,1,48,2,1,1,225,2,1,0,0,9,1,225,2,1,-150206.63747463172,-4791056.317559366,4197566.413146732,2.35794,2.87649,-0.256684,-105.92,34.1777,34.0549,-0.240689,-7.29157,6.75197,-0.00928257,0.00522333,-0.00988803,4,0,41.39922118966458,-91.79571847047391,8848.535888988357,-70.2085164327924,-0.009948652111868,1.962584769182694,199.095,9026.08902586808,11243.505992254835,150,True,16.58709774451146,False,173.32046929101068,178.38407432430438,False,8.141130945422274,True,False
9,1970-07-23 10:31:30.125278763,2025-09-12,2025-09-26 20:30:12.527,AH,C,3786428836,JASSM,3,127,76,2,2,1,225,9,2,0,1,26,0,0,0,0,-176121.84118826812,-4779869.729463424,4209748.077604771,-2.36674,-0.400273,0.381578,77.5,-32.625,-33.625,0.0,0.0,0.0,0.0,0.0,0.0,2,0,41.54273872718906,-92.11019875017116,10002.62724784729,119.83581348197214,-0.0011699572635883,0.0031908771812008,,9026.08902586808,11243.505992254835,150,9,2025-09-12,2025-09-26 20:30:12.331,AH,C,1834113048,AMBUSH51,1,1,48,2,1,1,225,2,1,0,0,9,1,225,2,1,-150284.22263673294,-4791030.979498067,4197591.309415488,2.35764,2.87744,-0.255973,-105.919,34.6262,34.1237,-0.124287,-7.06046,6.52575,0.0300427,0.00561032,-0.00271206,4,0,41.399525530155,-91.79665488796633,8846.2096504321,-70.27478503525847,0.0013437932820416,1.959570219285484,199.241,9026.08902586808,11243.505992254835,150,True,16.495371359903256,False,173.47261204679316,178.35896153748794,False,8.029329739297186,True,False
9,1970-07-23 10:31:30.134276985,2025-09-12,2025-09-26 20:30:13.427,AH,C,3787502578,JASSM,3,127,76,2,2,1,225,9,2,0,1,26,0,0,0,0,-176052.06384451812,-4779899.258760299,4209717.671354771,-2.36674,-0.400273,0.381674,77.5,-32.625,-33.625,0.0,0.0,0.0,0.0,0.0,0.0,2,0,41.542373130360254,-92.10935045084278,10002.624836067018,119.84021892041038,-0.0043625277695682,0.0031894646588367,,9026.08902586808,11243.505992254835,150,9,2025-09-12,2025-09-26 20:30:13.532,AH,C,1835544646,AMBUSH51,1,1,48,2,1,1,225,2,1,0,0,9,1,225,2,1,-150412.12403223047,-4790988.968575431,4197632.367914042,2.38514,2.8757,-0.25872,-105.975,34.9561,34.5958,-0.147764,-7.15875,6.56349,0.0213188,0.0067817,-0.00526703,4,0,41.40002876775074,-91.7981987091224,8841.82694513846,-70.09487680752078,0.0396669744522087,3.509675208568651,199.461,9026.08902586808,11243.505992254835,150,True,16.376588999743554,False,173.71750744957816,178.32009975734206,False,7.82379759262464,True,False
9,1970-07-23 10:31:30.144256278,2025-09-12,2025-09-26 20:30:14.425,AH,C,3788695624,JASSM,3,127,76,2,2,1,225,9,2,0,1,26,0,0,0,0,-175974.52966483062,-4779932.071260299,4209683.884245396,-2.36674,-0.400273,0.381674,77.5,-32.625,-33.625,0.0,0.0,0.0,0.0,0.0,0.0,2,0,41.541966876106514,-92.10840786082387,10002.62596188877,119.84084401896676,-0.0035484217758578,0.0031881214423301,,9026.08902586808,11243.505992254835,150,9,2025-09-12,2025-09-26 20:30:14.332,AH,C,1836499046,AMBUSH51,1,1,48,2,1,1,225,2,1,0,0,9,1,225,2,1,-150496.86822631976,-4790960.6642328575,4197660.025949165,2.40777,2.87008,-0.261149,-105.934,35.4144,35.0103,-0.216201,-7.1186,6.57994,0.032502,8.42641e-05,0.0127697,4,0,41.40036804191687,-91.79922179502458,8838.759533910576,-69.78115824066688,-0.0910673865884607,4.723054690226877,199.681,9026.08902586808,11243.505992254835,150,True,16.278017603798617,False,173.9973005683738,178.2929124413871,False,7.5774831072537605,True,False
9,1970-07-23 10:31:30.154236381,2025-09-12,2025-09-26 20:30:15.423,AH,C,3789948322,JASSM,3,127,76,2,2,1,225,9,2,0,1,26,0,0,0,0,-175893.11999686187,-4779966.522432174,4209648.407682896,-2.36674,-0.400273,0.381674,77.5,-32.625,-33.625,0.0,0.0,0.0,0.0,0.0,0.0,2,0,41.54154031151707,-92.10741816947564,10002.626800317446,119.84150034836397,-0.0026936258017466,0.0031867145672548,,9026.08902586808,11243.505992254835,150,9,2025-09-12,2025-09-26 20:30:15.498,AH,C,1837890878,AMBUSH51,1,1,48,2,1,1,225,2,1,0,0,9,1,225,2,1,-150619.56760419256,-4790918.7553114295,4197700.926464012,2.44915,2.86586,-0.267175,-105.703,36.3343,35.9071,-0.235845,-7.31101,6.75585,-0.0104082,-0.000654347,0.00633437,4,0,41.400870544937455,-91.8007034679082,8833.899603230446,-69.37063596133602,-0.0232957115145035,7.030691732670944,200.647,9026.08902586808,11243.505992254835,150,True,16.15433535020089,False,174.60852948589826,178.2565523727947,False,7.014187477437458,True,False
9,1970-07-23 10:31:30.164216653,2025-09-12,2025-09-26 20:30:16.421,AH,C,3791141370,JASSM,3,127,76,2,2,1,225,9,2,0,1,26,0,0,0,0,-175815.58728201812,-4779999.331025924,4209614.620573521,-2.36674,-0.400177,0.381674,77.5,-32.625,-33.625,0.0,0.0,0.0,0.0,0.0,0.0,2,0,41.54113406434251,-92.10647562289962,10002.62714185129,119.83848269492992,-0.0054459526300863,0.0011395493992484,,9026.08902586808,11243.505992254835,150,9,2025-09-12,2025-09-26 20:30:16.565,AH,C,1839163410,AMBUSH51,1,1,48,2,1,1,225,2,1,0,0,9,1,225,2,1,-150733.04898217515,-4790879.218579201,4197739.581177494,2.41432,2.85641,-0.274056,-105.501,37.1883,36.5977,-0.0602022,-7.22286,6.38782,-0.00848154,0.00663814,0.0131816,4,0,41.4013454805578,-91.80207414032726,8829.297954601274,-68.72668453121281,-0.1306991142872489,4.889095831085842,200.867,9026.08902586808,11243.505992254835,150,True,16.038210894606454,False,175.11937965017788,178.2238244765879,False,6.552341349493351,True,False
