Subject_cm,Timestamp,SampleDate_cm,SampleTime_cm,Configuration_cm,Scenario_cm,DisTime_cm,MarkingTxt_cm,Application_cm,EntId_cm,Site_cm,ExerciseId_cm,ForceId_cm,Category_cm,Country_cm,Domain_cm,Kind_cm,Extra_cm,Specific_cm,Subcategory_cm,AltCategory_cm,AltCountry_cm,AltDomain_cm,AltKind_cm,ECEF_X_cm,ECEF_Y_cm,ECEF_Z_cm,OriPhi_cm,OriPsi_cm,OriTheta_cm,LinVelX_cm,LinVelY_cm,LinVelZ_cm,LinAccX_cm,LinAccY_cm,LinAccZ_cm,AngVelX_cm,AngVelY_cm,AngVelZ_cm,DrAlg_cm,Appearance_cm,Latitude_cm,Longitude_cm,Altitude_cm,Heading_cm,Pitch_cm,Roll_cm,CalibratedAirspeed_cm,CM_Altitude_Lead_cm,CM_Altitude_Wing_cm,CM_Airspeed_cm,Subject_ac,SampleDate_ac,SampleTime_ac,Configuration_ac,Scenario_ac,DisTime_ac,MarkingTxt_ac,Application_ac,EntId_ac,Site_ac,ExerciseId_ac,ForceId_ac,Category_ac,Country_ac,Domain_ac,Kind_ac,Extra_ac,Specific_ac,Subcategory_ac,AltCategory_ac,AltCountry_ac,AltDomain_ac,AltKind_ac,ECEF_X_ac,ECEF_Y_ac,ECEF_Z_ac,OriPhi_ac,OriPsi_ac,OriTheta_ac,LinVelX_ac,LinVelY_ac,LinVelZ_ac,LinAccX_ac,LinAccY_ac,LinAccZ_ac,AngVelX_ac,AngVelY_ac,AngVelZ_ac,DrAlg_ac,Appearance_ac,Latitude_ac,Longitude_ac,Altitude_ac,Heading_ac,Pitch_ac,Roll_ac,CalibratedAirspeed_ac,CM_Altitude_Lead_ac,CM_Altitude_Wing_ac,CM_Airspeed_ac,Bank_Angle_Condition,distance_nm,Distance_Condition,angle_between_vel,angle_between_pos,Cone_Condition,angle_between_pos_nose,Nose_Cone_Condition,Intercept_Criteria
9,1970-07-23 10:31:35.638120658,2025-09-12,2025-09-26 20:39:23.812,AA,C,149247714,JASSM,3,136,76,2,2,1,225,9,2,0,1,26,0,0,0,0,-163019.82849295562,-4785424.040010299,4204000.411589146,-2.36559,-0.397301,0.382249,73.0,-30.5,-31.75,0.0,0.0,0.0,0.0,0.0,0.0,2,0,41.47366544843168,-91.95107841435572,10002.62615874067,119.85533004718914,-0.0015093096026124,0.005041595088194,,8790.15738098984,10980.456319326084,150,9,2025-09-12,2025-09-26 20:39:23.790,AA,C,2492012092,AMBUSH51,1,1,48,2,1,1,225,2,1,0,0,9,1,225,2,1,-146711.09318696844,-4792379.41458359,4196160.496716807,2.36294,2.85252,-0.292417,-88.5701,32.2652,32.2032,-0.0513334,-7.40312,6.36888,0.104844,0.00721862,-0.0002091,4,0,41.38250264319473,-91.753471759552,8787.323322045384,-67.78392630783317,0.3969789970796955,1.8894154621154216,171.623,8790.15738098984,10980.456319326084,150,True,10.432422372726927,False,176.09595613401262,177.97432109494787,False,5.75789092226433,True,False
9,1970-07-23 10:31:35.649059950,2025-09-12,2025-09-26 20:39:24.905,AA,C,150500412,JASSM,3,136,76,2,2,1,225,9,2,0,1,26,0,0,0,0,-162943.19079764312,-4785456.202119674,4203966.995573521,-2.36559,-0.397301,0.382249,73.0,-30.5,-31.75,0.0,0.0,0.0,0.0,0.0,0.0,2,0,41.47326408941748,-91.95014879944458,10002.622371890684,119.8559457061786,-0.0007054220729981,0.0050402453176825,,8790.15738098984,10980.456319326084,150,9,2025-09-12,2025-09-26 20:39:24.824,AA,C,2493244856,AMBUSH51,1,1,48,2,1,1,225,2,1,0,0,9,1,225,2,1,-146802.4596161019,-4792346.417893662,4196193.861605741,2.43464,2.8558,-0.293254,-88.3456,30.6268,34.0081,-0.298097,-7.54086,6.55494,0.0578561,-0.00186317,0.00331959,4,0,41.38290755213589,-91.75457514991184,8785.38499660839,-67.8737700871092,0.5615992807164072,6.0508052160073325,171.11,8790.15738098984,10980.456319326084,150,True,10.329281447823375,False,176.18420194359373,177.93641315158416,False,5.382115794319324,True,False
9,1970-07-23 10:31:35.660296725,2025-09-12,2025-09-26 20:39:26.029,AA,C,151872416,JASSM,3,136,76,2,2,1,225,9,2,0,1,26,0,0,0,0,-162859.25427420562,-4785491.428682174,4203930.397917271,-2.36559,-0.397205,0.382249,73.0,-30.5,-31.75,0.0,0.0,0.0,0.0,0.0,0.0,2,0,41.47282449441735,-91.94913066237086,10002.6282018388,119.8529821037642,-0.0033946275072695,0.002989867360376,,8790.15738098984,10980.456319326084,150,9,2025-09-12,2025-09-26 20:39:25.923,AA,C,2494557156,AMBUSH51,1,1,48,2,1,1,225,2,1,0,0,9,1,225,2,1,-146899.73541673826,-4792309.77815338,4196230.012522916,2.45124,2.84067,-0.310071,-87.5162,33.1025,33.4802,-0.294737,-7.44421,6.61707,0.0133085,0.00935331,0.00893095,4,0,41.38335185309627,-91.75575047277094,8780.976894229827,-66.60584361640582,0.6268909824380534,6.757594410191755,171.11,8790.15738098984,10980.456319326084,150,True,10.21756362112211,False,177.15567228389924,177.8966895748895,False,4.7946117736819085,True,False
9,1970-07-23 10:31:35.671256208,2025-09-12,2025-09-26 20:39:27.125,AA,C,153125114,JASSM,3,136,76,2,2,1,225,9,2,0,1,26,0,0,0,0,-162782.61657889312,-4785523.588838424,4203896.979948521,-2.36559,-0.397205,0.382249,73.0,-30.5,-31.75,0.0,0.0,0.0,0.0,0.0,0.0,2,0,41.47242311806783,-91.94820107228364,10002.624012475952,119.85359773613747,-0.0025907396990002,0.0029884648513525,,8790.15738098984,10980.456319326084,150,9,2025-09-12,2025-09-26 20:39:27.223,AA,C,2496108054,AMBUSH51,1,1,48,2,1,1,225,2,1,0,0,9,1,225,2,1,-147012.4343939205,-4792266.578191813,4196273.8302013045,2.40524,2.83715,-0.317587,-86.7159,33.8402,34.3552,-0.251364,-7.46953,6.68334,-0.0661369,0.00332791,0.00620537,4,0,41.38388411649549,-91.75711244005042,8778.226923367503,-66.16279930530322,0.7869255855204211,4.065088992011609,170.89,8790.15738098984,10980.456319326084,150,True,10.100524044218933,False,177.95249713185058,177.8575904593136,False,4.075980271824713,True,False
9,1970-07-23 10:31:35.682118443,2025-09-12,2025-09-26 20:39:28.211,AA,C,154437454,JASSM,3,136,76,2,2,1,225,9,2,0,1,26,0,0,0,0,-162702.32995779935,-4785557.280244674,4203861.970182896,-2.36559,-0.397205,0.382345,73.0,-30.5,-31.75,0.0,0.0,0.0,0.0,0.0,0.0,2,0,41.47200261834467,-91.947227234217,10002.622619699496,119.85809006128838,-0.005669362426085,0.0029867424143214,,8790.15738098984,10980.456319326084,150,9,2025-09-12,2025-09-26 20:39:28.124,AA,C,2497181752,AMBUSH51,1,1,48,2,1,1,225,2,1,0,0,9,1,225,2,1,-147090.24977879776,-4792236.192411296,4196304.930754219,2.36123,2.83309,-0.323679,-86.291,33.9387,34.7593,7.26283e-05,-7.51188,6.41811,-0.0338898,0.000410917,0.00415183,4,0,41.38426064594445,-91.75805305662188,8776.795845356699,-65.75845060449316,0.8696086218183928,1.47558368968422,171.11,8790.15738098984,10980.456319326084,150,True,10.002218714182835,False,178.2686059738324,177.82879452942672,False,3.7807128840597346,True,False
9,1970-07-23 10:31:35.692102411,2025-09-12,2025-09-26 20:39:29.210,AA,C,155690164,JASSM,3,136,76,2,2,1,225,9,2,0,1,26,0,0,0,0,-162625.69128592435,-4785589.440400924,4203828.552214146,-2.36559,-0.397205,0.382345,73.0,-30.5,-31.75,0.0,0.0,0.0,0.0,0.0,0.0,2,0,41.47160122675353,-91.94629765593396,10002.626792098095,119.8587056759034,-0.0048654669196924,0.0029853983470665,,8790.15738098984,10980.456319326084,150,9,2025-09-12,2025-09-26 20:39:29.423,AA,C,2498732650,AMBUSH51,1,1,48,2,1,1,225,2,1,0,0,9,1,225,2,1,-147203.1981531905,-4792192.329516165,4196350.053891933,2.26178,2.83434,-0.321091,-86.168,33.5796,34.6334,-0.111643,-7.34739,6.4264,-0.0786954,0.00090818,-0.0101377,4,0,41.384805594845815,-91.7594182844497,8775.279535726104,-65.91373004536379,0.8174977504253391,-4.201868094532482,170.805,8790.15738098984,10980.456319326084,150,True,9.884658629595334,False,178.1425633856278,177.7913582223439,False,3.90673686417094,True,False
9,1970-07-23 10:31:35.703328228,2025-09-12,2025-09-26 20:39:30.332,AA,C,156942864,JASSM,3,136,76,2,2,1,225,9,2,0,1,26,0,0,0,0,-162549.05310233062,-4785621.598604049,4203795.132292271,-2.36559,-0.397205,0.382345,73.0,-30.5,-31.75,0.0,0.0,0.0,0.0,0.0,0.0,2,0,41.4711998259871,-91.94536809575224,10002.626086621223,119.85932127363272,-0.0040615748532116,0.0029840503544212,,8790.15738098984,10980.456319326084,150,9,2025-09-12,2025-09-26 20:39:30.323,AA,C,2499806350,AMBUSH51,1,1,48,2,1,1,225,2,1,0,0,9,1,225,2,1,-147281.02100629944,-4792162.272040809,4196380.951708383,2.20865,2.83802,-0.31382,-86.3837,33.111,34.0512,-0.220362,-7.32355,6.44478,-0.0391058,-0.00701265,-0.0230561,4,0,41.385178782545374,-91.76035889657363,8774.227047580302,-66.35377523643068,0.6747796166777033,-7.186198368044093,170.719,8790.15738098984,10980.456319326084,150,True,9.788755754306743,False,177.70214009204008,177.761134319667,False,4.361075991088898,True,False
9,1970-07-23 10:31:35.714276844,2025-09-12,2025-09-26 20:39:31.427,AA,C,158255214,JASSM,3,136,76,2,2,1,225,9,2,0,1,26,0,0,0,0,-162468.76599295562,-4785655.288057174,4203760.120573521,-2.36559,-0.397205,0.382345,73.0,-30.5,-31.75,0.0,0.0,0.0,0.0,0.0,0.0,2,0,41.47077930075358,-91.9443942892554,10002.628776142185,119.85996616806396,-0.0032194051268242,0.0029826340554522,,8790.15738098984,10980.456319326084,150,9,2025-09-12,2025-09-26 20:39:31.623,AA,C,2501357248,AMBUSH51,1,1,48,2,1,1,225,2,1,0,0,9,1,225,2,1,-147393.2113348829,-4792119.948136512,4196423.975963753,2.19036,2.84937,-0.297821,-86.8471,32.4519,32.6051,-0.0273917,-7.53245,6.51062,0.024319,0.0157678,-0.0178026,4,0,41.38570051663412,-91.76171454294978,8771.901793686868,-67.44583948167396,0.4918294101299268,-8.049260536065383,170.499,8790.15738098984,10980.456319326084,150,True,9.670008695989868,False,176.7768101783777,177.71641131898124,False,5.3540560675134214,True,False
9,1970-07-23 10:31:35.724255853,2025-09-12,2025-09-26 20:39:32.425,AA,C,159507912,JASSM,3,136,76,2,2,1,225,9,2,0,1,26,0,0,0,0,-162392.12780936187,-4785687.444307174,4203726.698698521,-2.36559,-0.397205,0.382345,73.0,-30.5,-31.75,0.0,0.0,0.0,0.0,0.0,0.0,2,0,41.47037788301214,-91.9434647533492,10002.627471871932,119.86058173968678,-0.0024155126953776,0.0029812843671121,,8790.15738098984,10980.456319326084,150,9,2025-09-12,2025-09-26 20:39:32.556,AA,C,2502470714,AMBUSH51,1,1,48,2,1,1,225,2,1,0,0,9,1,225,2,1,-147474.99607958924,-4792089.785906797,4196454.39244986,2.24667,2.85395,-0.292458,-87.2265,31.6961,32.1982,-0.195686,-7.75267,6.67708,0.0858152,0.000708442,-0.00470943,4,0,41.38607033324495,-91.76270254471436,8769.85740488979,-67.8424778071947,0.4634208430476654,-4.749889680209026,170.365,8790.15738098984,10980.456319326084,150,True,9.572408351458863,False,176.27337689516148,177.67758137693167,False,5.844015720459675,True,False
9,1970-07-23 10:31:35.735115765,2025-09-12,2025-09-26 20:39:33.511,AA,C,160760612,JASSM,3,136,76,2,2,1,225,9,2,0,1,26,0,0,0,0,-162315.48962576812,-4785719.598604049,4203693.276823521,-2.36559,-0.397205,0.382345,73.0,-30.5,-31.75,0.0,0.0,0.0,0.0,0.0,0.0,2,0,41.469976469364944,-91.9425352297032,10002.625492429455,119.86119729829151,-0.0016116265148166,0.0029799444394618,,8790.15738098984,10980.456319326084,150,9,2025-09-12,2025-09-26 20:39:33.489,AA,C,2503584180,AMBUSH51,1,1,48,2,1,1,225,2,1,0,0,9,1,225,2,1,-147556.26893791172,-4792060.355783766,4196484.146173943,2.32294,2.85627,-0.291932,-87.2957,31.2477,32.1333,-0.0101285,-7.56634,6.52697,0.109611,-0.00199841,-0.00767219,4,0,41.38643140555778,-91.76368417407043,8768.142267343042,-67.95239231670612,0.5358040245976333,-0.3428632328322659,170.181,8790.15738098984,10980.456319326084,150,True,9.475332443018115,False,176.08013962553747,177.63664480837565,False,6.038187599849658,True,False
9,1970-07-23 10:31:35.746078931,2025-09-12,2025-09-26 20:39:34.607,AA,C,162072964,JASSM,3,136,76,2,2,1,225,9,2,0,1,26,0,0,0,0,-162235.20202811187,-4785753.284150924,4203658.261198521,-2.36559,-0.397109,0.382345,73.0,-30.5,-31.75,0.0,0.0,0.0,0.0,0.0,0.0,2,0,41.46955591708499,-91.9415614555665,10002.623222187,119.8582045426176,-0.0043391010179764,0.000929200864278,,8790.15738098984,10980.456319326084,150,9,2025-09-12,2025-09-26 20:39:34.756,AA,C,2505095310,AMBUSH51,1,1,48,2,1,1,225,2,1,0,0,9,1,225,2,1,-147667.28219626576,-4792020.534238951,4196524.807804802,2.4161,2.8528,-0.29974,-86.8875,31.3763,32.5097,-0.275465,-7.64803,6.76227,0.0519431,0.00889558,0.0114672,4,0,41.38692247959688,-91.76502489241123,8766.77998210585,-67.49765570900217,0.7065588667796635,4.941473922529467,169.925,8790.15738098984,10980.456319326084,150,True,9.35814170366689,False,176.37959177617404,177.58316013076146,False,5.781468979582111,True,False
9,1970-07-23 10:31:35.757299538,2025-09-12,2025-09-26 20:39:35.729,AA,C,163385314,JASSM,3,136,76,2,2,1,225,9,2,0,1,26,0,0,0,0,-162154.91443045562,-4785786.969697799,4203623.245573521,-2.36559,-0.397109,0.382345,73.0,-30.5,-31.75,0.0,0.0,0.0,0.0,0.0,0.0,2,0,41.46913535653108,-91.94058769401587,10002.625477549072,119.85884938635944,-0.0034969268959906,0.0009277299632891,,8790.15738098984,10980.456319326084,150,9,2025-09-12,2025-09-26 20:39:35.623,AA,C,2506129244,AMBUSH51,1,1,48,2,1,1,225,2,1,0,0,9,1,225,2,1,-147742.3651432208,-4791993.198997997,4196553.025364336,2.45115,2.8472,-0.310118,-86.3733,31.5645,33.2862,-0.248024,-7.61646,6.55858,0.0335485,0.00889974,0.0101647,4,0,41.38726183466997,-91.7659318364285,8766.427399122082,-66.85626411444137,0.8948910588464827,6.86228282701965,169.741,8790.15738098984,10980.456319326084,150,True,9.262318919537966,False,176.87311611415225,177.54413710377128,False,5.280972046163445,True,False
9,1970-07-23 10:31:35.768256409,2025-09-12,2025-09-26 20:39:36.825,AA,C,164697666,JASSM,3,136,76,2,2,1,225,9,2,0,1,26,0,0,0,0,-162074.62683279935,-4785820.653291549,4203588.227995396,-2.36559,-0.397109,0.382345,73.0,-30.5,-31.75,0.0,0.0,0.0,0.0,0.0,0.0,2,0,41.46871478616588,-91.93961394584268,10002.62321634179,119.8594942158652,-0.0026547524610002,0.0009262573976864,,8790.15738098984,10980.456319326084,150,9,2025-09-12,2025-09-26 20:39:36.857,AA,C,2507600608,AMBUSH51,1,1,48,2,1,1,225,2,1,0,0,9,1,225,2,1,-147847.86915463838,-4791953.963175856,4196593.970332291,2.44804,2.83608,-0.322868,-85.5274,32.4544,34.0852,-0.192857,-7.44175,6.39738,-0.0115504,0.00178827,0.0131067,4,0,41.38775232306563,-91.76720656355556,8766.715978701508,-65.91073677909536,0.9626908246955036,6.501258487556016,169.265,8790.15738098984,10980.456319326084,150,True,9.147672935622234,False,177.72579028974943,177.49738580154985,False,4.520282172608799,True,False
9,1970-07-23 10:31:35.783858086,2025-09-12,2025-09-26 20:39:38.385,AA,C,166010016,JASSM,3,136,76,2,2,1,225,9,2,0,1,26,0,0,0,0,-161994.33923514312,-4785854.334932174,4203553.212370396,-2.36559,-0.397109,0.382441,73.0,-30.5,-31.75,0.0,0.0,0.0,0.0,0.0,0.0,2,0,41.4682942323314,-91.93864021104594,10002.624925239325,119.86398656651728,-0.0057332405323971,0.0009245526530657,,8790.15738098984,10980.456319326084,150,9,2025-09-12,2025-09-26 20:39:38.523,AA,C,2509588940,AMBUSH51,1,1,48,2,1,1,225,2,1,0,0,9,1,225,2,1,-147989.28225837296,-4791899.644726082,4196651.176951876,2.36851,2.82575,-0.340325,-84.5534,32.8994,34.9076,-0.173225,-7.15921,6.49694,-0.0672771,-0.00038387,0.00423297,4,0,41.388435715073726,-91.76891582138136,8767.906847917593,-64.80255258396284,1.253350949700107,1.7733228248954285,168.813,8790.15738098984,10980.456319326084,150,True,9.010332926495932,False,178.44775039139392,177.4449684717725,False,3.821350262159718,True,False
9,1970-07-23 10:31:35.790081399,2025-09-12,2025-09-26 20:39:39.008,AA,C,167322368,JASSM,3,136,76,2,2,1,225,9,2,0,1,26,0,0,0,0,-161914.05163748687,-4785888.016572799,4203518.192839146,-2.36559,-0.397109,0.382441,73.0,-30.5,-31.75,0.0,0.0,0.0,0.0,0.0,0.0,2,0,41.46787364388149,-91.93766648883464,10002.622673006104,119.86463136817171,-0.0048910656248144,0.000923134940759,,8790.15738098984,10980.456319326084,150,9,2025-09-12,2025-09-26 20:39:38.956,AA,C,2510105906,AMBUSH51,1,1,48,2,1,1,225,2,1,0,0,9,1,225,2,1,-148026.4555082228,-4791885.107263181,4196666.507932981,2.33778,2.82558,-0.340617,-84.4301,32.9474,34.9728,0.0457441,-7.26499,6.46662,-0.0618717,-0.00918687,0.000115473,4,0,41.38861887217779,-91.76936523523212,8768.221216528818,-64.78451658203662,1.2588058155967372,0.0095728113514793,169.265,8790.15738098984,10980.456319326084,150,True,8.936925223787362,False,178.52239994809668,177.42142937346384,False,3.7693060229297566,True,False
9,1970-07-23 10:31:35.801301545,2025-09-12,2025-09-26 20:39:40.130,AA,C,168634718,JASSM,3,136,76,2,2,1,225,9,2,0,1,26,0,0,0,0,-161833.76403983062,-4785921.698213424,4203483.173307896,-2.36559,-0.397109,0.382441,73.0,-30.5,-31.75,0.0,0.0,0.0,0.0,0.0,0.0,2,0,41.46745304715856,-91.9366927792091,10002.624946371305,119.86527615611504,-0.0040488906554646,0.0009217171925434,,8790.15738098984,10980.456319326084,150,9,2025-09-12,2025-09-26 20:39:40.223,AA,C,2511617038,AMBUSH51,1,1,48,2,1,1,225,2,1,0,0,9,1,225,2,1,-148132.75483058786,-4791843.654001759,4196710.478036059,2.28639,2.82934,-0.335865,-84.3684,32.6858,34.9127,-0.0750822,-7.26029,6.5265,-0.0234098,-0.00304287,-0.00891639,4,0,41.38914279177459,-91.77065033376206,8769.69693475703,-65.12260511576119,1.2175647349567755,-2.8707779074054134,169.13,8790.15738098984,10980.456319326084,150,True,8.820828728391808,False,178.40908992957492,177.37981941002613,False,3.877908088154817,True,False
9,1970-07-23 10:31:35.811276574,2025-09-12,2025-09-26 20:39:41.127,AA,C,169889816,JASSM,3,136,76,2,2,1,225,9,2,0,1,26,0,0,0,0,-161756.97888358062,-4785953.907197799,4203449.681120396,-2.36549,-0.397109,0.382441,73.0,-30.5,-31.75,0.0,0.0,0.0,0.0,0.0,0.0,2,0,41.46705080828799,-91.93576155951592,10002.622417683768,119.8658928023063,-0.0032434640559072,0.0064118481183717,,8790.15738098984,10980.456319326084,150,9,2025-09-12,2025-09-26 20:39:41.024,AA,C,2512571436,AMBUSH51,1,1,48,2,1,1,225,2,1,0,0,9,1,225,2,1,-148200.5193625101,-4791817.569129778,4196738.083777282,2.25339,2.83247,-0.330789,-84.5758,32.4191,34.5425,-0.0567791,-7.28049,6.33806,-0.0389643,-0.0016884,-0.00702929,4,0,41.38947188044414,-91.77146945318928,8770.559638061948,-65.45040114411768,1.1390834641626262,-4.70934748762987,169.656,8790.15738098984,10980.456319326084,150,True,8.730893968294762,False,178.12983415950882,177.3465321065839,False,4.202779118351822,True,False
9,1970-07-23 10:31:35.822143050,2025-09-12,2025-09-26 20:39:42.214,AA,C,171199768,JASSM,3,136,76,2,2,1,225,9,2,0,1,26,0,0,0,0,-161676.83777029935,-4785987.524385299,4203414.724089146,-2.36549,-0.397109,0.382441,73.0,-30.5,-31.75,0.0,0.0,0.0,0.0,0.0,0.0,2,0,41.46663097127556,-91.93478965219803,10002.623120129563,119.86653638627104,-0.0024028305222937,0.0064104397886641,,8790.15738098984,10980.456319326084,150,9,2025-09-12,2025-09-26 20:39:42.323,AA,C,2514122334,AMBUSH51,1,1,48,2,1,1,225,2,1,0,0,9,1,225,2,1,-148311.2000476505,-4791775.539664686,4196782.647508941,2.28999,2.84033,-0.328372,-84.7923,31.6111,34.2506,-0.161158,-7.63917,6.69178,0.0517288,0.00166344,-0.0148149,4,0,41.39000240530069,-91.77280713644404,8772.251680940859,-65.8457881951312,1.3519170662634443,-2.4754676333903047,170.01,8790.15738098984,10980.456319326084,150,True,8.612685027089467,False,177.63266997290074,177.29758511620525,False,4.645121757336508,True,False
9,1970-07-23 10:31:35.834078702,2025-09-12,2025-09-26 20:39:43.407,AA,C,172571772,JASSM,3,136,76,2,2,1,225,9,2,0,1,26,0,0,0,0,-161592.90075858062,-4786022.733369674,4203378.110807896,-2.36549,-0.397109,0.382441,73.0,-30.5,-31.75,0.0,0.0,0.0,0.0,0.0,0.0,2,0,41.466191239274366,-91.9337717239542,10002.626398293463,119.86721043893068,-0.0015223800436453,0.0064089642118864,,8790.15738098984,10980.456319326084,150,9,2025-09-12,2025-09-26 20:39:43.523,AA,C,2515553934,AMBUSH51,1,1,48,2,1,1,225,2,1,0,0,9,1,225,2,1,-148412.56710804714,-4791737.906205658,4196823.251179914,2.30113,2.85576,-0.335521,-84.9823,30.8897,34.5248,-0.265865,-7.81538,7.48107,-0.000822875,0.00107671,0.0050985,4,0,41.39048174391917,-91.77403195648878,8775.466820204127,-66.12561635308417,2.241042089853853,-1.5579362305568003,169.754,8790.15738098984,10980.456319326084,150,True,8.498026294158608,False,177.30567851418309,177.24852153904004,False,4.8358320499705885,True,False
9,1970-07-23 10:31:35.847056210,2025-09-12,2025-09-26 20:39:44.705,AA,C,173884122,JASSM,3,136,76,2,2,1,225,9,2,0,1,26,0,0,0,0,-161512.61267264312,-4786056.409150924,4203343.087370396,-2.36549,-0.397013,0.382441,73.0,-30.5,-31.75,0.0,0.0,0.0,0.0,0.0,0.0,2,0,41.46577061811551,-91.9327980611986,10002.623850169764,119.8642178300641,-0.0042498488440759,0.0043577346481604,,8790.15738098984,10980.456319326084,150,9,2025-09-12,2025-09-26 20:39:44.624,AA,C,2516866232,AMBUSH51,1,1,48,2,1,1,225,2,1,0,0,9,1,225,2,1,-148507.23173608404,-4791704.115686833,4196861.397149972,2.30557,2.85939,-0.339773,-85.2837,30.1485,34.9082,0.0773049,-7.29422,7.23336,0.0231913,0.00471359,0.00262051,4,0,41.39092285225076,-91.77517530531352,8782.300581910833,-66.08412714838234,2.552063542430065,-1.2329634570561572,169.925,8790.15738098984,10980.456319326084,150,True,8.389987643048189,False,176.92001481457459,177.20137670995834,False,5.061411641803343,True,False
9,1970-07-23 10:31:35.856256482,2025-09-12,2025-09-26 20:39:45.625,AA,C,175196474,JASSM,3,136,76,2,2,1,225,9,2,0,1,26,0,0,0,0,-161432.32507498687,-4786090.084932174,4203308.063932896,-2.36549,-0.397013,0.382441,73.0,-30.5,-31.75,0.0,0.0,0.0,0.0,0.0,0.0,2,0,41.46534998858661,-91.93182441686676,10002.62586810263,119.86486254797772,-0.0034076794562198,0.0043562697923903,,8790.15738098984,10980.456319326084,150,9,2025-09-12,2025-09-26 20:39:45.524,AA,C,2517939930,AMBUSH51,1,1,48,2,1,1,225,2,1,0,0,9,1,225,2,1,-148583.38377028465,-4791677.552847542,4196892.04908737,2.30186,2.8693,-0.334626,-85.5154,29.7175,35.0339,-0.191657,-7.19778,7.32849,-0.00139088,-0.00158437,-0.00410397,4,0,41.39127377252656,-91.77609484225064,8789.252357475232,-66.6671914925175,2.740919092280488,-1.284194120589267,170.096,8790.15738098984,10980.456319326084,150,True,8.293350404178444,False,176.65565368285255,177.1588757286638,False,5.27895999888645,True,False
9,1970-07-23 10:31:35.867044271,2025-09-12,2025-09-26 20:39:46.704,AA,C,176449172,JASSM,3,136,76,2,2,1,225,9,2,0,1,26,0,0,0,0,-161355.68640311187,-4786122.229463424,4203274.630339146,-2.36549,-0.397013,0.382441,73.0,-30.5,-31.75,0.0,0.0,0.0,0.0,0.0,0.0,2,0,41.4649484597715,-91.93089503494625,10002.626036055415,119.86547795164095,-0.0026037810860885,0.0043548640642386,,8790.15738098984,10980.456319326084,150,9,2025-09-12,2025-09-26 20:39:46.889,AA,C,2519570362,AMBUSH51,1,1,48,2,1,1,225,2,1,0,0,9,1,225,2,1,-148700.55486734465,-4791636.959079094,4196939.371398762,2.29758,2.87015,-0.334907,-85.8234,29.3245,35.1219,-0.174263,-6.89582,6.889,0.0139098,0.0045409,-0.00130765,4,0,41.39181313106329,-91.77750960038703,8800.984418761445,-66.68804528187863,2.786847255350472,-1.514416342743394,170.145,8790.15738098984,10980.456319326084,150,True,8.174154420278983,False,176.3867528810563,177.10203145629976,False,5.542066145850572,True,False
9,1970-07-23 10:31:35.877098299,2025-09-12,2025-09-26 20:39:47.709,AA,C,177761522,JASSM,3,136,76,2,2,1,225,9,2,0,1,26,0,0,0,0,-161275.39831717435,-4786155.901338424,4203239.604948521,-2.36549,-0.397013,0.382536,73.0,-30.5,-31.75,0.0,0.0,0.0,0.0,0.0,0.0,2,0,41.464527824266696,-91.92992141094834,10002.623017705466,119.86997032211646,-0.0056821250578998,0.0043531596263649,,8790.15738098984,10980.456319326084,150,9,2025-09-12,2025-09-26 20:39:47.723,AA,C,2520564528,AMBUSH51,1,1,48,2,1,1,225,2,1,0,0,9,1,225,2,1,-148773.24596302514,-4791611.959459608,4196968.516420044,2.3013,2.87109,-0.32717,-86.0739,29.517,34.8618,-0.12435,-6.70685,6.7228,0.0043474,0.00443063,-0.0104976,4,0,41.392145198245146,-91.77838723663224,8808.258237884764,-67.04702639865654,2.5213052056518617,-1.3009530285132471,170.23,8790.15738098984,10980.456319326084,150,True,8.079724768951312,False,176.3963972682634,177.0577250971438,False,5.677641482640493,True,False
9,1970-07-23 10:31:35.888315648,2025-09-12,2025-09-26 20:39:48.831,AA,C,179014222,JASSM,3,136,76,2,2,1,225,9,2,0,1,26,0,0,0,0,-161198.76111014312,-4786188.043916549,4203206.171354771,-2.36549,-0.397013,0.382536,73.0,-30.5,-31.75,0.0,0.0,0.0,0.0,0.0,0.0,2,0,41.464126291358255,-91.92899207081052,10002.626951171542,119.87058568817004,-0.0048782440206259,0.0043518108180286,,8790.15738098984,10980.456319326084,150,9,2025-09-12,2025-09-26 20:39:48.789,AA,C,2521837060,AMBUSH51,1,1,48,2,1,1,225,2,1,0,0,9,1,225,2,1,-148864.48887342424,-4791580.331816128,4197004.663417839,2.29096,2.87172,-0.32374,-86.3818,29.5513,34.6955,-0.0520339,-6.80662,6.83767,-0.00379813,-0.00431411,0.00157397,4,0,41.39256053210847,-91.77948896202368,8815.837457694564,-67.2148890830511,2.413036182031159,-1.8885649633753512,170.585,8790.15738098984,10980.456319326084,150,True,7.976412380683661,False,176.31509512244517,177.00471581381007,False,5.866058668757251,True,False
9,1970-07-23 10:31:35.898296287,2025-09-12,2025-09-26 20:39:49.829,AA,C,180266922,JASSM,3,136,76,2,2,1,225,9,2,0,1,26,0,0,0,0,-161122.12097342435,-4786220.184541549,4203172.735807896,-2.36549,-0.397013,0.382536,73.0,-30.5,-31.75,0.0,0.0,0.0,0.0,0.0,0.0,2,0,41.46372474996161,-91.92806270789426,10002.625723552072,119.8712010644059,-0.0040743401998951,0.004350473932362,,8790.15738098984,10980.456319326084,150,9,2025-09-12,2025-09-26 20:39:49.889,AA,C,2523149358,AMBUSH51,1,1,48,2,1,1,225,2,1,0,0,9,1,225,2,1,-148960.82079553354,-4791547.140906877,4197042.4607436685,2.28861,2.86691,-0.316943,-86.7828,28.7074,35.3416,-0.0348,-6.65528,6.58208,0.000766699,-0.00616376,0.0025893,4,0,41.39299535557196,-91.78065207520662,8823.545740392547,-67.32050679687912,1.956608671819078,-2.1140572411674814,170.89,8790.15738098984,10980.456319326084,150,True,7.870150532941322,False,175.86823865906496,176.94679152447074,False,6.127680224607514,True,False
9,1970-07-23 10:31:35.909256115,2025-09-12,2025-09-26 20:39:50.925,AA,C,181579272,JASSM,3,136,76,2,2,1,225,9,2,0,1,26,0,0,0,0,-161041.83288748687,-4786253.854463424,4203137.706511021,-2.36549,-0.397013,0.382536,73.0,-30.5,-31.75,0.0,0.0,0.0,0.0,0.0,0.0,2,0,41.463304075683816,-91.92708912129214,10002.622585343224,119.87184571803348,-0.0032321659037448,0.0043490628353893,,8790.15738098984,10980.456319326084,150,9,2025-09-12,2025-09-26 20:39:50.956,AA,C,2524421890,AMBUSH51,1,1,48,2,1,1,225,2,1,0,0,9,1,225,2,1,-149053.07809122978,-4791514.92258275,4197077.939013653,2.28356,2.87454,-0.310227,-87.2321,29.8699,34.0012,-0.0945229,-6.84605,6.9222,-0.00860222,0.00132014,-0.00495702,4,0,41.39340947777332,-91.78176616529946,8828.309974463722,-67.88691119790269,1.9975958995591652,-2.2882096006114025,171.55,8790.15738098984,10980.456319326084,150,True,7.764130832719597,False,176.12217002224992,176.88573371687602,False,6.378155195650608,True,False
9,1970-07-23 10:31:35.920116066,2025-09-12,2025-09-26 20:39:52.011,AA,C,182831970,JASSM,3,136,76,2,2,1,225,9,2,0,1,26,0,0,0,0,-160965.19421561187,-4786285.993135299,4203104.270964146,-2.36549,-0.397013,0.382536,73.0,-30.5,-31.75,0.0,0.0,0.0,0.0,0.0,0.0,2,0,41.46290253019478,-91.92615980015644,10002.625123087324,119.87246105657202,-0.0024282795077433,0.0043477288840511,,8790.15738098984,10980.456319326084,150,9,2025-09-12,2025-09-26 20:39:52.089,AA,C,2525773956,AMBUSH51,1,1,48,2,1,1,225,2,1,0,0,9,1,225,2,1,-149152.83650636656,-4791480.603444489,4197115.76619621,2.27587,2.87957,-0.307547,-87.6996,29.6182,33.7766,-0.103917,-6.94002,6.93958,-0.000924824,-0.00156149,-0.00130973,4,0,41.3938505557989,-91.78297066061349,8833.581803110974,-68.18734023822024,2.093985951565873,-2.652349601097834,172.112,8790.15738098984,10980.456319326084,150,True,7.656119130494436,False,175.83306124497227,176.81816962930057,False,6.744966381087988,True,False
9,1970-07-23 10:31:35.930117256,2025-09-12,2025-09-26 20:39:53.011,AA,C,184084670,JASSM,3,136,76,2,2,1,225,9,2,0,1,26,0,0,0,0,-160888.55554373687,-4786318.131807174,4203070.831511021,-2.36549,-0.397013,0.382536,73.0,-30.5,-31.75,0.0,0.0,0.0,0.0,0.0,0.0,2,0,41.46250095082579,-91.9252304904871,10002.623298575008,119.8730763826195,-0.0016243799341258,0.0043463720558246,,8790.15738098984,10980.456319326084,150,9,2025-09-12,2025-09-26 20:39:53.190,AA,C,2527086254,AMBUSH51,1,1,48,2,1,1,225,2,1,0,0,9,1,225,2,1,-149248.86381065627,-4791447.902928634,4197151.927384407,2.27238,2.88723,-0.304277,-88.0906,29.5202,33.4376,-0.166346,-7.05591,7.12065,0.00868752,0.00140544,-0.0146921,4,0,41.39427143572791,-91.7841299961754,8838.941786368234,-68.6110157815226,2.2735135882725857,-2.736138613626339,172.894,8790.15738098984,10980.456319326084,150,True,7.550480504826445,False,175.60379570843617,176.74937450295752,False,7.087005562881477,True,False
9,1970-07-23 10:31:35.941336901,2025-09-12,2025-09-26 20:39:54.133,AA,C,185397020,JASSM,3,136,76,2,2,1,225,9,2,0,1,26,0,0,0,0,-160808.26745779935,-4786351.799775924,4203035.802214146,-2.36549,-0.396918,0.382536,73.0,-30.5,-31.75,0.0,0.0,0.0,0.0,0.0,0.0,2,0,41.46208026412086,-91.92425694127952,10002.62852640534,119.87008392038352,-0.0043518469944662,0.0022946680424674,,8790.15738098984,10980.456319326084,150,9,2025-09-12,2025-09-26 20:39:53.956,AA,C,2528000886,AMBUSH51,1,1,48,2,1,1,225,2,1,0,0,9,1,225,2,1,-149316.4791098364,-4791424.9885524325,4197177.400822911,2.27029,2.89504,-0.301425,-88.3582,29.1308,33.6218,-0.137687,-7.24366,7.23299,0.00038595,-0.00208788,-0.018562,4,0,41.394567198362864,-91.78494628154654,8843.017038796257,-69.02222491688141,2.475923968163297,-2.7391730482604046,173.151,8790.15738098984,10980.456319326084,150,True,7.4595900362004866,False,175.40543331565368,176.69249194692057,False,7.2703662774731574,True,False
9,1970-07-23 10:31:35.952295700,2025-09-12,2025-09-26 20:39:55.229,AA,C,186649720,JASSM,3,136,76,2,2,1,225,9,2,0,1,26,0,0,0,0,-160731.62878592435,-4786383.934541549,4203002.362761021,-2.36549,-0.396918,0.382536,73.0,-30.5,-31.75,0.0,0.0,0.0,0.0,0.0,0.0,2,0,41.46167869258613,-91.92332765665812,10002.625546643554,119.8706992198995,-0.0035479599993317,0.0022932797040679,,8790.15738098984,10980.456319326084,150,9,2025-09-12,2025-09-26 20:39:55.123,AA,C,2529392718,AMBUSH51,1,1,48,2,1,1,225,2,1,0,0,9,1,225,2,1,-149420.2530684343,-4791390.549274835,4197216.251146527,2.31696,2.90124,-0.298129,-88.6112,28.9565,33.5786,-0.0920127,-6.97759,7.01069,0.0497918,-0.00498406,0.00112456,4,0,41.39501512007263,-91.786198834334,8850.538037890097,-69.39238517970124,2.597674954733329,0.0228674780780367,173.285,8790.15738098984,10980.456319326084,150,True,7.349572817225458,False,175.25200553113666,176.61426358998332,False,7.49358085079008,True,False
9,1970-07-23 10:31:35.963442658,2025-09-12,2025-09-26 20:39:56.344,AA,C,187962072,JASSM,3,136,76,2,2,1,225,9,2,0,1,26,0,0,0,0,-160651.34021170562,-4786417.600557174,4202967.329557896,-2.36549,-0.396918,0.382536,73.0,-30.5,-31.75,0.0,0.0,0.0,0.0,0.0,0.0,2,0,41.46125797510221,-91.9223541269928,10002.626294656327,119.87134380976389,-0.0027057812344367,0.0022918139784086,,8790.15738098984,10980.456319326084,150,9,2025-09-12,2025-09-26 20:39:56.256,AA,C,2530744784,AMBUSH51,1,1,48,2,1,1,225,2,1,0,0,9,1,225,2,1,-149520.36194544507,-4791357.498820984,4197253.711911819,2.38144,2.90537,-0.300537,-88.7286,28.8701,34.1597,-0.172734,-7.12012,7.1115,0.0700006,0.00097892,0.0102688,4,0,41.395446064955415,-91.78740710068368,8858.18646098267,-69.44518110352799,2.858484586638945,3.784923030360914,172.858,8790.15738098984,10980.456319326084,150,True,7.239501970084054,False,175.3145004070241,176.5343126211245,False,7.414916418256816,True,False
9,1970-07-23 10:31:35.974096214,2025-09-12,2025-09-26 20:39:57.409,AA,C,189274422,JASSM,3,136,76,2,2,1,225,9,2,0,1,26,0,0,0,0,-160571.05212576812,-4786451.264619674,4202932.296354771,-2.36549,-0.396918,0.382632,73.0,-30.5,-31.75,0.0,0.0,0.0,0.0,0.0,0.0,2,0,41.46083726088288,-91.9213806165338,10002.626809135678,119.8758361992351,-0.0057839850856946,0.0022900989516471,,8790.15738098984,10980.456319326084,150,9,2025-09-12,2025-09-26 20:39:57.324,AA,C,2532017316,AMBUSH51,1,1,48,2,1,1,225,2,1,0,0,9,1,225,2,1,-149615.69977931364,-4791325.921403007,4197289.826200959,2.43752,2.89624,-0.305061,-88.5737,29.5627,34.6556,-0.104408,-6.8496,6.81644,0.0551701,-0.00427874,0.0114672,4,0,41.395860029788686,-91.788557834927,8866.177259961876,-68.9161273327679,2.668487326687201,6.86755664557458,172.686,8790.15738098984,10980.456319326084,150,True,7.132169675735537,False,175.78725305031165,176.45620058658267,False,7.026781694013576,True,False
9,1970-07-23 10:31:35.985326803,2025-09-12,2025-09-26 20:39:58.532,AA,C,190586772,JASSM,3,136,76,2,2,1,225,9,2,0,1,26,0,0,0,0,-160490.76355154935,-4786484.928682174,4202897.261198521,-2.36549,-0.396918,0.382632,73.0,-30.5,-31.75,0.0,0.0,0.0,0.0,0.0,0.0,2,0,41.46041652531923,-91.92040711282036,10002.627566244731,119.87648076125429,-0.0049418058424741,0.0022886880837294,,8790.15738098984,10980.456319326084,150,9,2025-09-12,2025-09-26 20:39:58.355,AA,C,2533250082,AMBUSH51,1,1,48,2,1,1,225,2,1,0,0,9,1,225,2,1,-149706.48311465804,-4791294.743168734,4197325.123422657,2.47476,2.88453,-0.311839,-88.2162,30.527,35.443,-0.253858,-6.61132,6.64441,0.00467198,-0.0095801,0.0127468,4,0,41.39626693827589,-91.78965402290822,8873.033174878654,-68.1966467586654,2.465277056838408,8.829249383770529,172.992,8790.15738098984,10980.456319326084,150,True,7.027134502367986,False,176.4895993627042,176.38236126293106,False,6.380898978881228,True,False
9,1970-07-23 10:31:35.995296456,2025-09-12,2025-09-26 20:39:59.529,AA,C,191839472,JASSM,3,136,76,2,2,1,225,9,2,0,1,26,0,0,0,0,-160414.12487967435,-4786517.059541549,4202863.817839146,-2.36549,-0.396918,0.382632,73.0,-30.5,-31.75,0.0,0.0,0.0,0.0,0.0,0.0,2,0,41.46001491948719,-91.91947787726671,10002.623585237818,119.8770960080704,-0.0041379180054028,0.0022873503390704,,8790.15738098984,10980.456319326084,150,9,2025-09-12,2025-09-26 20:39:59.423,AA,C,2534522614,AMBUSH51,1,1,48,2,1,1,225,2,1,0,0,9,1,225,2,1,-149801.00233576406,-4791260.469173112,4197362.802268545,2.45975,2.86763,-0.315749,-87.8563,32.3009,35.8344,-0.197609,-6.36071,6.39655,-0.0489554,0.00295965,-0.00516508,4,0,41.39670763625065,-91.79079601170908,8877.733441013965,-67.4039434822046,1.9467177829320308,7.701328825361218,173.469,8790.15738098984,10980.456319326084,150,True,6.92156913566957,False,177.50718624478236,176.3100522449019,False,5.654291968541154,True,False
9,1970-07-23 10:31:36.006254607,2025-09-12,2025-09-26 20:40:00.625,AA,C,193092172,JASSM,3,136,76,2,2,1,225,9,2,0,1,26,0,0,0,0,-160337.48571951812,-4786549.190400924,4202830.374479771,-2.36549,-0.396918,0.382632,73.0,-30.5,-31.75,0.0,0.0,0.0,0.0,0.0,0.0,2,0,41.45961330621834,-91.91854864734012,10002.623687506084,119.87771124626076,-0.0033340263666228,0.0022860148257309,,8790.15738098984,10980.456319326084,150,9,2025-09-12,2025-09-26 20:40:00.556,AA,C,2535874678,AMBUSH51,1,1,48,2,1,1,225,2,1,0,0,9,1,225,2,1,-149899.8748250169,-4791222.961936826,4197403.065157848,2.36635,2.85415,-0.319936,-87.6976,33.401,36.3514,0.0324616,-6.51042,6.53635,-0.112106,-0.00809871,0.00181116,4,0,41.39718419199357,-91.7919912314795,8880.427391886646,-66.72638886236963,1.578858914730345,2.1288498139358083,174.116,8790.15738098984,10980.456319326084,150,True,6.8128318478103695,False,178.16638993518413,176.23759931149525,False,5.174533139451123,True,False
9,1970-07-23 10:31:36.017038007,2025-09-12,2025-09-26 20:40:01.703,AA,C,194344870,JASSM,3,136,76,2,2,1,225,9,2,0,1,26,0,0,0,0,-160260.84655936187,-4786581.321260299,4202796.929167271,-2.36549,-0.396918,0.382632,73.0,-30.5,-31.75,0.0,0.0,0.0,0.0,0.0,0.0,2,0,41.45921167224257,-91.9176194288792,10002.623670694613,119.87832647196022,-0.0025301281094865,0.0022846678575956,,8790.15738098984,10980.456319326084,150,9,2025-09-12,2025-09-26 20:40:01.689,AA,C,2537226744,AMBUSH51,1,1,48,2,1,1,225,2,1,0,0,9,1,225,2,1,-149999.94495638902,-4791184.27645852,4197443.931285135,2.2134,2.85652,-0.317509,-88.0456,33.6583,36.1101,-0.0578976,-6.94749,6.9281,-0.127683,-0.00246446,-0.0036941,4,0,41.39767159385225,-91.79320121717308,8881.630583432721,-66.9169913225919,1.5779854480589712,-6.596973791776796,175.228,8790.15738098984,10980.456319326084,150,True,6.7031912833979055,False,178.13270974471962,176.16316873666136,False,5.388988511919181,True,False
9,1970-07-23 10:31:36.028073618,2025-09-12,2025-09-26 20:40:02.807,AA,C,195716872,JASSM,3,136,76,2,2,1,225,9,2,0,1,26,0,0,0,0,-160176.90857108062,-4786616.510713424,4202760.298307896,-2.36549,-0.396918,0.382632,73.0,-30.5,-31.75,0.0,0.0,0.0,0.0,0.0,0.0,2,0,41.45877178571997,-91.91660172884136,10002.624132209572,119.87900027475165,-0.0016496729833569,0.0022831977522459,,8790.15738098984,10980.456319326084,150,9,2025-09-12,2025-09-26 20:40:02.889,AA,C,2538658342,AMBUSH51,1,1,48,2,1,1,225,2,1,0,0,9,1,225,2,1,-150105.76279176318,-4791144.094563295,4197485.914871838,2.13717,2.85863,-0.295156,-89.0954,33.504,34.5679,-0.170901,-6.31385,6.30474,-0.0323751,-0.00264964,-0.0249307,4,0,41.3981743578906,-91.7944804484668,8882.02694279246,-67.92767997275236,0.7826690335669932,-10.949063431006175,175.913,8790.15738098984,10980.456319326084,150,False,6.585873425773589,False,177.28611232980393,176.07527755411525,False,6.48518884645176,True,False
9,1970-07-23 10:31:36.039294325,2025-09-12,2025-09-26 20:40:03.929,AA,C,197029224,JASSM,3,136,76,2,2,1,225,9,2,0,1,26,0,0,0,0,-160096.61999686187,-4786650.168916549,4202725.259245396,-2.36549,-0.396822,0.382632,73.0,-30.5,-31.75,0.0,0.0,0.0,0.0,0.0,0.0,2,0,41.458351018113085,-91.9156282892488,10002.624222112148,119.87600796132716,-0.0043771277113265,0.0002310036535232,,8790.15738098984,10980.456319326084,150,9,2025-09-12,2025-09-26 20:40:04.089,AA,C,2540089940,AMBUSH51,1,1,48,2,1,1,225,2,1,0,0,9,1,225,2,1,-150214.23810890876,-4791103.58951851,4197526.0440985765,2.1372,2.87289,-0.272398,-90.3996,32.9394,32.8631,0.00194906,-6.90392,6.78153,0.0353649,-0.00140336,-0.0148794,4,0,41.398666015068976,-91.7957915695144,8877.817624339723,-69.41540584903417,0.4603881514237468,-10.735153681488317,176.805,8790.15738098984,10980.456319326084,150,False,6.470034739033464,False,176.09598394840486,175.97186006149443,False,7.819597098647497,True,False
9,1970-07-23 10:31:36.049277270,2025-09-12,2025-09-26 20:40:04.927,AA,C,198281924,JASSM,3,136,76,2,2,1,225,9,2,0,1,26,0,0,0,0,-160019.98083670562,-4786682.295869674,4202691.811979771,-2.36549,-0.396822,0.382632,73.0,-30.5,-31.75,0.0,0.0,0.0,0.0,0.0,0.0,2,0,41.45794937054944,-91.9146991083851,10002.623323251391,119.8766231468198,-0.0035732354055937,0.0002296137207164,,8790.15738098984,10980.456319326084,150,9,2025-09-12,2025-09-26 20:40:04.956,AA,C,2541123874,AMBUSH51,1,1,48,2,1,1,225,2,1,0,0,9,1,225,2,1,-150293.32291865745,-4791074.975124296,4197553.778424583,2.17117,2.87537,-0.263365,-91.3718,31.9949,32.4313,-0.22741,-6.99317,6.95967,0.0440701,8.63447e-05,-0.0134583,4,0,41.39900872558822,-91.79674712239095,8873.704567431098,-69.88727235075208,0.2070297800158331,-8.753969924521543,177.428,8790.15738098984,10980.456319326084,150,True,6.374765771501122,False,175.39174841777523,175.87997481676504,False,8.550798447608601,True,False
9,1970-07-23 10:31:36.061054083,2025-09-12,2025-09-26 20:40:06.105,AA,C,199594262,JASSM,3,136,76,2,2,1,225,9,2,0,1,26,0,0,0,0,-159939.69323904935,-4786715.952119674,4202656.772917271,-2.3654,-0.396822,0.382632,73.0,-30.5,-31.75,0.0,0.0,0.0,0.0,0.0,0.0,2,0,41.45752859821952,-91.91372570584392,10002.627539105602,119.87726760503108,-0.0027310754046278,0.0057196330447527,,8790.15738098984,10980.456319326084,150,9,2025-09-12,2025-09-26 20:40:06.289,AA,C,2542714538,AMBUSH51,1,1,48,2,1,1,225,2,1,0,0,9,1,225,2,1,-150416.63326509262,-4791032.193600674,4197595.043081708,2.2039,2.88882,-0.255498,-92.9013,31.0665,31.072,-0.171487,-7.48334,7.34944,0.0962743,0.00541891,-0.0156201,4,0,41.39951879477863,-91.79823636895202,8867.517927310051,-70.72621320883299,0.4448732994858159,-6.685679194532964,178.821,8790.15738098984,10980.456319326084,150,True,6.251693855684722,False,174.19305850996167,175.73787757698156,False,9.883045425354352,True,False
9,1970-07-23 10:31:36.071096292,2025-09-12,2025-09-26 20:40:07.109,AA,C,200846974,JASSM,3,136,76,2,2,1,225,9,2,0,1,26,0,0,0,0,-159863.05310233062,-4786748.077119674,4202623.323698521,-2.3654,-0.396822,0.382632,73.0,-30.5,-31.75,0.0,0.0,0.0,0.0,0.0,0.0,2,0,41.457126933882975,-91.9127965375606,10002.625961292944,119.87788277215893,-0.0019271752316753,0.0057182459437796,,8790.15738098984,10980.456319326084,150,9,2025-09-12,2025-09-26 20:40:07.089,AA,C,2543668938,AMBUSH51,1,1,48,2,1,1,225,2,1,0,0,9,1,225,2,1,-150491.2489239865,-4791007.331815612,4197619.54114689,2.28568,2.89679,-0.247338,-93.4802,30.5402,30.9629,-0.201462,-7.27238,7.16562,0.0984298,-0.00157813,-0.00266212,4,0,41.399818147727736,-91.79913714579386,8865.278873049703,-71.37055442077877,0.4514149819364034,-1.891241870727912,179.151,8790.15738098984,10980.456319326084,150,True,6.1599581518122655,False,173.84519047003764,175.63401668289885,False,10.29760170800201,True,False
9,1970-07-23 10:31:36.081436445,2025-09-12,2025-09-26 20:40:08.143,AA,C,202099672,JASSM,3,136,76,2,2,1,225,9,2,0,1,26,0,0,0,0,-159786.41394217435,-4786780.202119674,4202589.872526646,-2.3654,-0.396822,0.382728,73.0,-30.5,-31.75,0.0,0.0,0.0,0.0,0.0,0.0,2,0,41.45672524864592,-91.91186739241856,10002.624344806569,119.88234587805366,-0.0050435098814374,0.0057166357807362,,8790.15738098984,10980.456319326084,150,9,2025-09-12,2025-09-26 20:40:08.224,AA,C,2545021002,AMBUSH51,1,1,48,2,1,1,225,2,1,0,0,9,1,225,2,1,-150598.0304719444,-4790972.324934046,4197654.281212426,2.42007,2.89297,-0.252091,-94.0736,30.6137,31.4753,-0.244661,-7.25344,7.11075,0.158586,0.00112248,0.00885189,4,0,41.40024097762476,-91.80042603611692,8862.797183272869,-71.02744012558624,0.4822688107617326,5.757367315640468,179.689,8790.15738098984,10980.456319326084,150,True,6.049633256361082,False,173.92384187792732,175.49318278184288,False,10.332745061957231,True,False
9,1970-07-23 10:31:36.092292669,2025-09-12,2025-09-26 20:40:09.229,AA,C,203412022,JASSM,3,136,76,2,2,1,225,9,2,0,1,26,0,0,0,0,-159706.12536795562,-4786813.854463424,4202554.829557896,-2.3654,-0.396822,0.382728,73.0,-30.5,-31.75,0.0,0.0,0.0,0.0,0.0,0.0,2,0,41.456304449374976,-91.91089401636565,10002.623561453647,119.88299030317468,-0.0042013415911461,0.0057152407373436,,8790.15738098984,10980.456319326084,150,9,2025-09-12,2025-09-26 20:40:09.224,AA,C,2546214002,AMBUSH51,1,1,48,2,1,1,225,2,1,0,0,9,1,225,2,1,-150691.42972358954,-4790941.230340178,4197685.401573727,2.52535,2.88552,-0.261566,-93.927,31.7389,32.4725,-0.299407,-7.22065,7.07145,0.0569365,-0.000993484,0.0186244,4,0,41.400618585998906,-91.8015535898966,8861.056839666218,-70.34927345322542,0.5507005202697369,11.686879679896377,180.068,8790.15738098984,10980.456319326084,150,False,5.944580823087314,False,174.70120463457326,175.3628269366081,False,9.718395602028492,True,False
9,1970-07-23 10:31:36.103253496,2025-09-12,2025-09-26 20:40:10.325,AA,C,204664722,JASSM,3,136,76,2,2,1,225,9,2,0,1,26,0,0,0,0,-159629.48571951812,-4786845.977510299,4202521.378386021,-2.3654,-0.396822,0.382728,73.0,-30.5,-31.75,0.0,0.0,0.0,0.0,0.0,0.0,2,0,41.4559027604419,-91.9099648896408,10002.625548596032,119.88360542794274,-0.0033974446383831,0.0057139036334827,,8790.15738098984,10980.456319326084,150,9,2025-09-12,2025-09-26 20:40:10.356,AA,C,2547566066,AMBUSH51,1,1,48,2,1,1,225,2,1,0,0,9,1,225,2,1,-150798.18968276918,-4790904.073034024,4197722.781145355,2.57521,2.86339,-0.285375,-93.3635,33.3895,34.2367,-0.14193,-7.20223,6.91385,0.0293645,0.00577261,0.0193631,4,0,41.40107200548877,-91.80284306299242,8859.024292611612,-68.52000907875396,0.5946428446193507,14.21928366374197,180.886,8790.15738098984,10980.456319326084,150,False,5.833268439129779,False,176.02274479672064,175.22510599518026,False,8.572803878032655,True,False
9,1970-07-23 10:31:36.115035845,2025-09-12,2025-09-26 20:40:11.503,AA,C,205977074,JASSM,3,136,76,2,2,1,225,9,2,0,1,26,0,0,0,0,-159549.19665701812,-4786879.627900924,4202486.333464146,-2.3654,-0.396822,0.382728,73.0,-30.5,-31.75,0.0,0.0,0.0,0.0,0.0,0.0,2,0,41.45548194356716,-91.90899153312192,10002.624528519727,119.884249829619,-0.0025552722193787,0.005712509155225,,8790.15738098984,10980.456319326084,150,9,2025-09-12,2025-09-26 20:40:11.488,AA,C,2548918132,AMBUSH51,1,1,48,2,1,1,225,2,1,0,0,9,1,225,2,1,-150902.93538959612,-4790865.256666882,4197762.17147778,2.60175,2.84351,-0.30558,-92.5834,35.1369,36.455,-0.146638,-7.3151,7.04265,-0.00345899,0.00524414,0.0119915,4,0,41.40154923265664,-91.80410911328192,8857.124948033612,-66.93110764819451,0.601932887714138,15.424617041552432,181.51,8790.15738098984,10980.456319326084,150,False,5.719760031217578,False,177.5785887041896,175.09642620058975,False,7.172190365730432,True,False
9,1970-07-23 10:31:36.125095428,2025-09-12,2025-09-26 20:40:12.509,AA,C,207349076,JASSM,3,136,76,2,2,1,225,9,2,0,1,26,0,0,0,0,-159465.25915701812,-4786914.807588424,4202449.694792271,-2.3654,-0.396726,0.382728,73.0,-30.5,-31.75,0.0,0.0,0.0,0.0,0.0,0.0,2,0,41.45504198579945,-91.90797395942155,10002.62599811502,119.88128696136828,-0.005244447155982,0.0036598198631341,,8790.15738098984,10980.456319326084,150,9,2025-09-12,2025-09-26 20:40:12.622,AA,C,2550270196,AMBUSH51,1,1,48,2,1,1,225,2,1,0,0,9,1,225,2,1,-151007.63132255926,-4790823.794706,4197804.446470333,2.58937,2.8219,-0.334426,-91.5095,37.0587,38.5365,-0.0884647,-7.05287,6.88717,-0.062423,0.00470735,0.0188117,4,0,41.40206166861932,-91.8053755839522,8854.980578626095,-64.92541086659207,0.899428800253238,14.352210672156405,182.243,8790.15738098984,10980.456319326084,150,False,5.602775791636446,False,179.20113965943497,174.9763953241909,False,5.758224096695672,True,False
9,1970-07-23 10:31:36.136294028,2025-09-12,2025-09-26 20:40:13.629,AA,C,208661428,JASSM,3,136,76,2,2,1,225,9,2,0,1,26,0,0,0,0,-159384.97009451812,-4786948.457979049,4202414.645964146,-2.3654,-0.396726,0.382728,73.0,-30.5,-31.75,0.0,0.0,0.0,0.0,0.0,0.0,2,0,41.45462112566891,-91.9070006286398,10002.625750465097,119.88193133509732,-0.0044022615744539,0.0036583490141708,,8790.15738098984,10980.456319326084,150,9,2025-09-12,2025-09-26 20:40:13.489,AA,C,2551304130,AMBUSH51,1,1,48,2,1,1,225,2,1,0,0,9,1,225,2,1,-151086.72172108362,-4790791.25522075,4197837.976052908,2.45412,2.80318,-0.351376,-90.9969,37.8552,39.8567,-0.258138,-7.0722,7.03222,-0.26597,0.00562281,0.0261458,4,0,41.40246677384879,-91.8063327855438,8853.828136330661,-63.52528260534867,0.852364679770979,6.263195024903348,182.573,8790.15738098984,10980.456319326084,150,True,5.503201252573983,False,179.8271525631311,174.88125005939648,False,5.010564612904286,True,False
9,1970-07-23 10:31:36.147253947,2025-09-12,2025-09-26 20:40:14.725,AA,C,209914126,JASSM,3,136,76,2,2,1,225,9,2,0,1,26,0,0,0,0,-159308.33044608062,-4786980.575166549,4202381.190886021,-2.3654,-0.396726,0.382728,73.0,-30.5,-31.75,0.0,0.0,0.0,0.0,0.0,0.0,2,0,41.454219413717134,-91.90607155229132,10002.62213302538,119.88254640606412,-0.0035983702454799,0.0036569672864446,,8790.15738098984,10980.456319326084,150,9,2025-09-12,2025-09-26 20:40:14.888,AA,C,2552974328,AMBUSH51,1,1,48,2,1,1,225,2,1,0,0,9,1,225,2,1,-151213.6937056463,-4790738.071640564,4197893.534918056,2.18238,2.80848,-0.351847,-91.4313,37.9576,39.8838,-0.0529384,-7.05862,7.00839,-0.132356,-0.00195472,-0.0333759,4,0,41.40313441550262,-91.8078698614138,8853.418253308106,-63.70618343616338,1.0766451548254068,-9.204591426850971,184.113,8790.15738098984,10980.456319326084,150,True,5.375523938135628,False,179.8569118761865,174.76196486117152,False,5.214226169854484,True,False
9,1970-07-23 10:31:36.157133777,2025-09-12,2025-09-26 20:40:15.713,AA,C,211166826,JASSM,3,136,76,2,2,1,225,9,2,0,1,26,0,0,0,0,-159231.69079764312,-4787012.692354049,4202347.735807896,-2.3654,-0.396726,0.382728,73.0,-30.5,-31.75,0.0,0.0,0.0,0.0,0.0,0.0,2,0,41.45381769423391,-91.90514248740688,10002.62263908066,119.88316146453998,-0.0027944788600772,0.003655585525994,,8790.15738098984,10980.456319326084,150,9,2025-09-12,2025-09-26 20:40:15.723,AA,C,2553968494,AMBUSH51,1,1,48,2,1,1,225,2,1,0,0,9,1,225,2,1,-151290.46516912914,-4790706.80748859,4197926.312867364,2.09981,2.82136,-0.332877,-92.4309,37.1749,38.844,-0.0373182,-7.17966,6.9236,-0.0673208,0.00432868,-0.0173657,4,0,41.40352727413588,-91.80879890692624,8853.602981436965,-64.97137670767846,0.8198707818599444,-13.70841704220148,184.76,8790.15738098984,10980.456319326084,150,False,5.279725595397435,False,179.09046573456294,174.66333112995017,False,6.1457210279836625,True,False
9,1970-07-23 10:31:36.168094598,2025-09-12,2025-09-26 20:40:16.809,AA,C,212419524,JASSM,3,136,76,2,2,1,225,9,2,0,1,26,0,0,0,0,-159155.05114920562,-4787044.809541549,4202314.278776646,-2.3654,-0.396726,0.382728,73.0,-30.5,-31.75,0.0,0.0,0.0,0.0,0.0,0.0,2,0,41.45341595404545,-91.9042134339868,10002.62302654203,119.88377651052512,-0.0019905808546742,0.0036541923103649,,8790.15738098984,10980.456319326084,150,9,2025-09-12,2025-09-26 20:40:16.788,AA,C,2555241026,AMBUSH51,1,1,48,2,1,1,225,2,1,0,0,9,1,225,2,1,-151389.94615518718,-4790667.461416854,4197967.078090938,2.11538,2.83055,-0.319769,-93.8242,35.9937,37.5022,-0.189428,-7.20916,7.01348,0.0574691,0.00239164,-0.0203617,4,0,41.4040178586868,-91.81000234672996,8853.009383150824,-65.8588099440807,0.6585406699018539,-12.659472922935027,185.445,8790.15738098984,10980.456319326084,150,False,5.170467683287891,False,177.89308808929704,174.53530187708856,False,7.41362062442322,True,False
9,1970-07-23 10:31:36.178333347,2025-09-12,2025-09-26 20:40:17.833,AA,C,213672222,JASSM,3,136,76,2,2,1,225,9,2,0,1,26,0,0,0,0,-159078.41150076812,-4787076.924775924,4202280.821745396,-2.3654,-0.396726,0.382824,73.0,-30.5,-31.75,0.0,0.0,0.0,0.0,0.0,0.0,2,0,41.453014217955975,-91.90328439280732,10002.622737517306,119.88823964371444,-0.0051067844203587,0.0036525975145285,,8790.15738098984,10980.456319326084,150,9,2025-09-12,2025-09-26 20:40:17.724,AA,C,2556354490,AMBUSH51,1,1,48,2,1,1,225,2,1,0,0,9,1,225,2,1,-151479.26831764888,-4790633.95049067,4198001.706263063,2.1587,2.84406,-0.306292,-95.0055,34.9703,36.366,-0.207587,-7.62723,7.42898,0.038155,0.0170848,-0.0267866,4,0,41.40443419647123,-91.8110822223298,8852.66803456069,-66.9269648180394,0.6578086516778904,-9.95101749783588,186.166,8790.15738098984,10980.456319326084,150,True,5.068340932623741,False,176.876042214194,174.39845120683194,False,8.527794810060751,True,False
9,1970-07-23 10:31:36.189292941,2025-09-12,2025-09-26 20:40:18.929,AA,C,214984574,JASSM,3,136,76,2,2,1,225,9,2,0,1,26,0,0,0,0,-158998.12243826812,-4787110.569307174,4202245.770964146,-2.3654,-0.396726,0.382824,73.0,-30.5,-31.75,0.0,0.0,0.0,0.0,0.0,0.0,2,0,41.45259333971688,-91.90231112497958,10002.625653027608,119.88888394994004,-0.004264610779569,0.0036512010133228,,8790.15738098984,10980.456319326084,150,9,2025-09-12,2025-09-26 20:40:19.089,AA,C,2557984922,AMBUSH51,1,1,48,2,1,1,225,2,1,0,0,9,1,225,2,1,-151609.6812628922,-4790587.566770493,4198050.676527282,2.28094,2.85721,-0.300643,-96.2466,33.2861,36.0416,-0.24653,-7.56507,7.28068,0.137776,0.00602852,-0.0197043,4,0,41.40501619347373,-91.81265793516069,8854.988873486927,-67.65760092971705,0.9571985994580322,-2.732874543558421,187.155,8790.15738098984,10980.456319326084,150,True,4.940010466100886,False,175.87936683438588,174.200392537616,False,9.532488552592884,True,False
9,1970-07-23 10:31:36.200152697,2025-09-12,2025-09-26 20:40:20.015,AA,C,216237272,JASSM,3,136,76,2,2,1,225,9,2,0,1,26,0,0,0,0,-158921.48278983062,-4787142.682588424,4202212.311979771,-2.3654,-0.396726,0.382824,73.0,-30.5,-31.75,0.0,0.0,0.0,0.0,0.0,0.0,2,0,41.45219158666305,-91.9013821080497,10002.624765255334,119.88949895692046,-0.003460718545063,0.0036498698539607,,8790.15738098984,10980.456319326084,150,9,2025-09-12,2025-09-26 20:40:19.989,AA,C,2559058622,AMBUSH51,1,1,48,2,1,1,225,2,1,0,0,9,1,225,2,1,-151697.23770917297,-4790557.5544438,4198083.245325002,2.35771,2.86354,-0.299341,-96.5608,32.4229,36.8262,-0.314079,-7.49899,7.1204,0.0536533,-0.00611175,0.00108503,4,0,41.40539812173426,-91.81371542339812,8858.659335861223,-67.95080136390465,1.1590245362457867,1.7678237034398092,187.192,8790.15738098984,10980.456319326084,150,True,4.839968635796013,False,175.67153084350215,174.0412360266347,False,9.67185504481601,True,False
9,1970-07-23 10:31:36.210134504,2025-09-12,2025-09-26 20:40:21.013,AA,C,217489972,JASSM,3,136,76,2,2,1,225,9,2,0,1,26,0,0,0,0,-158844.84314139312,-4787174.795869674,4202178.851042271,-2.3654,-0.396726,0.382824,73.0,-30.5,-31.75,0.0,0.0,0.0,0.0,0.0,0.0,2,0,41.45178981290442,-91.90045310258375,10002.623759029704,119.8901139514112,-0.0026568196889942,0.0036485272398424,,8790.15738098984,10980.456319326084,150,9,2025-09-12,2025-09-26 20:40:21.056,AA,C,2560331154,AMBUSH51,1,1,48,2,1,1,225,2,1,0,0,9,1,225,2,1,-151799.77633844854,-4790522.79815523,4198121.631267687,2.41612,2.85503,-0.310798,-96.5739,32.8362,37.1482,-0.229322,-7.09567,6.9196,0.0804535,-0.00270789,0.00318019,4,0,41.40584470927957,-91.81495373028848,8864.45705419907,-67.15492385269737,1.272982499176499,4.985103395838922,187.119,8790.15738098984,10980.456319326084,150,True,4.731093970285329,False,175.9150482799757,173.8575089282046,False,9.625565038492793,True,False
9,1970-07-23 10:31:36.220114384,2025-09-12,2025-09-26 20:40:22.011,AA,C,218683018,JASSM,3,136,76,2,2,1,225,9,2,0,1,26,0,0,0,0,-158771.85290701812,-4787205.377900924,4202146.983854771,-2.3654,-0.39663,0.382824,73.0,-30.5,-31.75,0.0,0.0,0.0,0.0,0.0,0.0,2,0,41.451407178939874,-91.89956834583106,10002.62240606668,119.88706338024774,-0.005460823657213,0.0015955634587032,,8790.15738098984,10980.456319326084,150,9,2025-09-12,2025-09-26 20:40:22.189,AA,C,2561683218,AMBUSH51,1,1,48,2,1,1,225,2,1,0,0,9,1,225,2,1,-151909.67184200883,-4790484.790597285,4198163.844001844,2.48841,2.8529,-0.312217,-96.1907,33.8593,37.9122,-0.329619,-6.83137,6.60147,0.0382985,-0.00242493,0.00444103,4,0,41.40633507189491,-91.8162811875204,8871.142630822604,-67.01659531904971,1.2454081482607984,9.092271547437033,187.473,8790.15738098984,10980.456319326084,150,True,4.6197652384677825,False,176.60200239543977,173.665323725093,False,9.166479007190192,True,False
9,1970-07-23 10:31:36.231273074,2025-09-12,2025-09-26 20:40:23.127,AA,C,219995370,JASSM,3,136,76,2,2,1,225,9,2,0,1,26,0,0,0,0,-158691.56384451812,-4787239.018525924,4202111.929167271,-2.3654,-0.39663,0.382824,73.0,-30.5,-31.75,0.0,0.0,0.0,0.0,0.0,0.0,2,0,41.45098626605604,-91.89859512759284,10002.624516865972,119.887707633199,-0.0046186493389879,0.0015941101144534,,8790.15738098984,10980.456319326084,150,9,2025-09-12,2025-09-26 20:40:23.255,AA,C,2562955750,AMBUSH51,1,1,48,2,1,1,225,2,1,0,0,9,1,225,2,1,-152011.54323836503,-4790448.020403171,4198203.97083764,2.49907,2.83527,-0.327499,-95.7146,35.1695,38.8463,-0.0024275,-7.01282,6.67899,-0.0183977,0.00495494,0.0362741,4,0,41.40680549114794,-91.81751231953322,8875.726804087539,-65.72198235623983,1.156712940912754,9.412298229963625,187.436,8790.15738098984,10980.456319326084,150,True,4.508130083886787,False,177.46134037086196,173.47480642066702,False,8.556334460909165,True,False
9,1970-07-23 10:31:36.243051622,2025-09-12,2025-09-26 20:40:24.305,AA,C,221248066,JASSM,3,136,76,2,2,1,225,9,2,0,1,26,0,0,0,0,-158614.92419608062,-4787271.127900924,4202078.466276646,-2.3654,-0.39663,0.382824,73.0,-30.5,-31.75,0.0,0.0,0.0,0.0,0.0,0.0,2,0,41.450584479791935,-91.89766615806684,10002.622038939797,119.88832258928048,-0.0038147564321329,0.001592724547794,,8790.15738098984,10980.456319326084,150,9,2025-09-12,2025-09-26 20:40:24.323,AA,C,2564228282,AMBUSH51,1,1,48,2,1,1,225,2,1,0,0,9,1,225,2,1,-152114.31615190252,-4790409.646959777,4198245.661226976,2.45312,2.82481,-0.337375,-95.3225,36.3198,39.7662,-0.164906,-7.19514,6.91216,-0.0634966,0.00247903,0.00953016,4,0,41.4072958202018,-91.8187548488043,8879.837945912113,-64.92195199570287,1.1412273078261002,6.600133498456666,188.377,8790.15738098984,10980.456319326084,150,True,4.397707459911552,False,178.21667486888856,173.285415977027,False,8.024054649806247,True,False
9,1970-07-23 10:31:36.253041254,2025-09-12,2025-09-26 20:40:25.304,AA,C,222441114,JASSM,3,136,76,2,2,1,225,9,2,0,1,26,0,0,0,0,-158541.93396170562,-4787301.707979049,4202046.597136021,-2.3654,-0.39663,0.382824,73.0,-30.5,-31.75,0.0,0.0,0.0,0.0,0.0,0.0,2,0,41.45020182276856,-91.8967814348412,10002.623425308826,119.88890825078911,-0.0030491452116493,0.0015914083921768,,8790.15738098984,10980.456319326084,150,9,2025-09-12,2025-09-26 20:40:25.344,AA,C,2565421282,AMBUSH51,1,1,48,2,1,1,225,2,1,0,0,9,1,225,2,1,-152208.87091162964,-4790373.542225214,4198285.185137634,2.39497,2.8202,-0.344158,-95.0975,36.5289,40.588,-0.137102,-7.00686,6.74913,-0.0342664,-0.00446808,0.00951144,4,0,41.407759566432745,-91.8198983399302,8884.192479466961,-64.47034883775302,1.2333348105801871,3.189669858412796,188.622,8790.15738098984,10980.456319326084,150,True,4.2941452990988145,False,178.4495077707034,173.10788399541255,False,7.766733169748575,True,False
9,1970-07-23 10:31:36.262092442,2025-09-12,2025-09-26 20:40:26.209,AA,C,223693812,JASSM,3,136,76,2,2,1,225,9,2,0,1,26,0,0,0,0,-158465.29431326812,-4787333.817354049,4202013.132292271,-2.3654,-0.39663,0.382824,73.0,-30.5,-31.75,0.0,0.0,0.0,0.0,0.0,0.0,2,0,41.44980000862928,-91.89585248769652,10002.624756256826,119.88952318248435,-0.0022452456296647,0.0015900113391852,,8790.15738098984,10980.456319326084,150,9,2025-09-12,2025-09-26 20:40:26.122,AA,C,2566375680,AMBUSH51,1,1,48,2,1,1,225,2,1,0,0,9,1,225,2,1,-152284.91019074756,-4790343.920320621,4198317.569092173,2.37206,2.81787,-0.344326,-95.0343,36.9635,40.8262,-0.0865943,-6.9435,6.67072,-0.0191342,0.00443063,-0.0108347,4,0,41.408140034753565,-91.8208181498987,8887.555715090255,-64.37657369809031,1.1503789140292695,1.8334920542713156,188.94,8790.15738098984,10980.456319326084,150,True,4.199398409978786,False,178.67921745783212,172.94449154197045,False,7.726944481008866,True,False
9,1970-07-23 10:31:36.272310101,2025-09-12,2025-09-26 20:40:27.231,AA,C,224886858,JASSM,3,136,76,2,2,1,225,9,2,0,1,26,0,0,0,0,-158392.30505545562,-4787364.395479049,4201981.261198521,-2.3654,-0.39663,0.382824,73.0,-30.5,-31.75,0.0,0.0,0.0,0.0,0.0,0.0,2,0,41.44941733586798,-91.8949677982342,10002.624847250225,119.89010881252774,-0.0014796415276813,0.0015886889663377,,8790.15738098984,10980.456319326084,150,9,2025-09-12,2025-09-26 20:40:27.355,AA,C,2567847046,AMBUSH51,1,1,48,2,1,1,225,2,1,0,0,9,1,225,2,1,-152402.80844667766,-4790297.9277412025,4198367.790560844,2.35754,2.82204,-0.34685,-95.0816,37.0808,41.1512,-0.164154,-7.23888,6.96031,0.0272319,0.00140336,-0.0125741,4,0,41.408730384374245,-91.8222443524278,8892.643260721576,-64.42958537259568,1.4135452369030357,1.081413599754176,189.245,8790.15738098984,10980.456319326084,150,True,4.08118073315193,False,178.72520803014658,172.72717680675592,False,7.800488552722138,True,False
9,1970-07-23 10:31:36.282311322,2025-09-12,2025-09-26 20:40:28.231,AA,C,226020254,JASSM,3,136,76,2,2,1,225,9,2,0,1,26,0,0,0,0,-158322.96325858062,-4787393.444307174,4201950.983854771,-2.3654,-0.39663,0.38292,73.0,-30.5,-31.75,0.0,0.0,0.0,0.0,0.0,0.0,2,0,41.4490537944571,-91.89412732909682,10002.627699309587,119.8945134078296,-0.0046722607560397,0.0015872628982286,,8790.15738098984,10980.456319326084,150,9,2025-09-12,2025-09-26 20:40:28.155,AA,C,2568801444,AMBUSH51,1,1,48,2,1,1,225,2,1,0,0,9,1,225,2,1,-152478.8723651689,-4790267.984947276,4198400.620904866,2.37792,2.81783,-0.341118,-95.084,37.4029,41.2819,-0.205605,-6.62222,6.32623,0.0312703,-0.0162817,-0.0102396,4,0,41.40911575138746,-91.82316460548448,8896.198018484352,-64.50871069630972,1.0230135586191025,2.165991090141103,189.758,8790.15738098984,10980.456319326084,150,True,3.9908770588286466,False,178.87650308911458,172.55753250519584,False,7.8532421339872425,True,False
9,1970-07-23 10:31:36.291319449,2025-09-12,2025-09-26 20:40:29.131,AA,C,227153636,JASSM,3,136,76,2,2,1,225,9,2,0,1,26,0,0,0,0,-158253.62243826812,-4787422.491182174,4201920.704557896,-2.3654,-0.39663,0.38292,73.0,-30.5,-31.75,0.0,0.0,0.0,0.0,0.0,0.0,2,0,41.44869024514482,-91.89328688179006,10002.624964139157,119.89506974323552,-0.0039449304654837,0.0015860616667549,,8790.15738098984,10980.456319326084,150,9,2025-09-12,2025-09-26 20:40:29.024,AA,C,2569835376,AMBUSH51,1,1,48,2,1,1,225,2,1,0,0,9,1,225,2,1,-152561.0610478123,-4790235.332680905,4198435.896610662,2.4268,2.81062,-0.339349,-95.1836,38.1514,41.3483,-0.243677,-6.97924,6.65277,0.115276,0.00336952,0.00912237,4,0,41.40953257818415,-91.8241590839415,8898.879448323498,-64.31080228963503,0.6738082377094697,4.831927090509118,189.991,8790.15738098984,10980.456319326084,150,True,3.8968056525399244,False,179.22080834807383,172.37141938303014,False,7.898267019064887,True,False
