Subject_cm,Timestamp,SampleDate_cm,SampleTime_cm,Configuration_cm,Scenario_cm,DisTime_cm,MarkingTxt_cm,Application_cm,EntId_cm,Site_cm,ExerciseId_cm,ForceId_cm,Category_cm,Country_cm,Domain_cm,Kind_cm,Extra_cm,Specific_cm,Subcategory_cm,AltCategory_cm,AltCountry_cm,AltDomain_cm,AltKind_cm,ECEF_X_cm,ECEF_Y_cm,ECEF_Z_cm,OriPhi_cm,OriPsi_cm,OriTheta_cm,LinVelX_cm,LinVelY_cm,LinVelZ_cm,LinAccX_cm,LinAccY_cm,LinAccZ_cm,AngVelX_cm,AngVelY_cm,AngVelZ_cm,DrAlg_cm,Appearance_cm,Latitude_cm,Longitude_cm,Altitude_cm,Heading_cm,Pitch_cm,Roll_cm,CalibratedAirspeed_cm,CM_Altitude_Lead_cm,CM_Altitude_Wing_cm,CM_Airspeed_cm,Subject_ac,SampleDate_ac,SampleTime_ac,Configuration_ac,Scenario_ac,DisTime_ac,MarkingTxt_ac,Application_ac,EntId_ac,Site_ac,ExerciseId_ac,ForceId_ac,Category_ac,Country_ac,Domain_ac,Kind_ac,Extra_ac,Specific_ac,Subcategory_ac,AltCategory_ac,AltCountry_ac,AltDomain_ac,AltKind_ac,ECEF_X_ac,ECEF_Y_ac,ECEF_Z_ac,OriPhi_ac,OriPsi_ac,OriTheta_ac,LinVelX_ac,LinVelY_ac,LinVelZ_ac,LinAccX_ac,LinAccY_ac,LinAccZ_ac,AngVelX_ac,AngVelY_ac,AngVelZ_ac,DrAlg_ac,Appearance_ac,Latitude_ac,Longitude_ac,Altitude_ac,Heading_ac,Pitch_ac,Roll_ac,CalibratedAirspeed_ac,CM_Altitude_Lead_ac,CM_Altitude_Wing_ac,CM_Airspeed_ac,Bank_Angle_Condition,distance_nm,Distance_Condition,angle_between_vel,angle_between_pos,Cone_Condition,angle_between_pos_nose,Nose_Cone_Condition,Intercept_Criteria
9,1970-07-23 10:31:14.389161980,2025-09-12,2025-09-26 20:03:58.916,HH,C,1909170216,JASSM,3,103,76,2,2,1,225,9,2,0,1,26,0,0,0,0,-173066.77136404935,-4770911.059541549,4222242.081511021,-2.51458,-0.703426,0.607361,60.375,-51.125,-55.0,0.0,0.0,0.0,0.0,0.0,0.0,2,0,41.680958895493255,-92.07751713992089,14989.50536419907,139.82809452471687,-0.0015188622797982,0.0009623919453622,,13817.683391404704,16277.165501477106,150,9,2025-09-12,2025-09-26 20:03:58.914,HH,C,3571881330,HAWK11,1,1,73,2,1,1,225,2,1,0,0,12,1,225,2,1,-148877.85388358062,-4792758.619111861,4199107.354948521,2.24354,-3.13191,-0.0951068,-93.375,-1.5,-1.25,0.0,-6.59375,6.84375,-0.00195312,-0.00585938,-0.00195312,4,0,41.39974403724715,-91.7792113805316,16277.165501477106,-87.44275409893994,5.348337269526631,-2.623653380029064,179.359,13817.683391404704,16277.165501477106,150,True,21.526395644424394,False,127.61144380186892,178.40107369511608,False,53.94845785992827,False,False
9,1970-07-23 10:31:14.401141273,2025-09-12,2025-09-26 20:04:00.114,HH,C,1910542218,JASSM,3,103,76,2,2,1,225,9,2,0,1,26,0,0,0,0,-172997.27185233062,-4770970.016572799,4222178.733854771,-2.51458,-0.703426,0.607361,60.375,-51.125,-55.0,0.0,0.0,0.0,0.0,0.0,0.0,2,0,41.68019579368712,-92.07665794886732,14989.49839365576,139.8286658672244,-0.000521817802654,0.0009604626952033,,13817.683391404704,16277.165501477106,150,9,2025-09-12,2025-09-26 20:04:00.320,HH,C,3573432228,HAWK11,1,1,73,2,1,1,225,2,1,0,0,12,1,225,2,1,-148999.06091483062,-4792760.399385299,4199105.331511021,2.23539,-3.12923,-0.0932852,-93.125,-1.5,-1.75,-0.21875,-6.73438,6.85938,-0.00195312,0.00390625,-0.00390625,4,0,41.39969739477313,-91.78065830992776,16286.419643999709,-87.62385770751729,5.395975189944664,-3.0928858793972043,179.848,13817.683391404704,16277.165501477106,150,True,21.428694176093213,False,127.38318655865669,178.25864163580422,False,54.320651041880744,False,False
9,1970-07-23 10:31:14.412658333,2025-09-12,2025-09-26 20:04:01.265,HH,C,1911854570,JASSM,3,103,76,2,2,1,225,9,2,0,1,26,0,0,0,0,-172930.79333670562,-4771026.411104049,4222118.140104771,-2.51458,-0.703426,0.607456,60.375,-51.125,-55.0,0.0,0.0,0.0,0.0,0.0,0.0,2,0,41.67946585691185,-92.07583612391596,14989.498929988193,139.83243429007555,-0.0040150664807444,0.0009585170478799,,13817.683391404704,16277.165501477106,150,9,2025-09-12,2025-09-26 20:04:01.210,HH,C,3574346860,HAWK11,1,1,73,2,1,1,225,2,1,0,0,12,1,225,2,1,-149070.64685233062,-4792761.512666549,4199103.974089146,2.23693,-3.13018,-0.0912719,-93.125,-2.25,-1.125,-0.1875,-6.73438,6.9375,0.0,0.0,-0.0136719,4,0,41.39966837531399,-91.78151285459866,16291.68860136226,-87.6754562744927,5.279498297929657,-3.0147489453272915,180.349,13817.683391404704,16277.165501477106,150,True,21.34928212582338,False,127.34875100508236,178.17172059614873,False,54.448162169195705,False,False
9,1970-07-23 10:31:14.423164594,2025-09-12,2025-09-26 20:04:02.316,HH,C,1913166900,JASSM,3,103,76,2,2,1,225,9,2,0,1,26,0,0,0,0,-172864.31579764312,-4771082.805635299,4222057.546354771,-2.51458,-0.703426,0.607456,60.375,-51.125,-55.0,0.0,0.0,0.0,0.0,0.0,0.0,2,0,41.67873591395606,-92.07501432925032,14989.505350779224,139.83298074909752,-0.0030613670434793,0.0009567189223478,,13817.683391404704,16277.165501477106,150,9,2025-09-12,2025-09-26 20:04:01.820,HH,C,3575221726,HAWK11,1,1,73,2,1,1,225,2,1,0,0,12,1,225,2,1,-149139.04528983062,-4792762.481416549,4199102.462370396,2.24402,-3.12951,-0.0915595,-93.0,-1.5,-2.125,0.0,-6.73438,6.79688,0.0136719,0.0,-0.00195312,4,0,41.3996397575817,-91.78232938322252,16296.025914490212,-87.68885682590913,5.319780731726986,-2.605881387249364,180.642,13817.683391404704,16277.165501477106,150,True,21.27095196077958,False,127.2119008581019,178.08767880186065,False,54.66474142544081,False,False
9,1970-07-23 10:31:14.433193722,2025-09-12,2025-09-26 20:04:03.319,HH,C,1914419618,JASSM,3,103,76,2,2,1,225,9,2,0,1,26,0,0,0,0,-172800.85827811187,-4771136.633760299,4221999.702604771,-2.51458,-0.703426,0.607456,60.375,-51.125,-55.0,0.0,0.0,0.0,0.0,0.0,0.0,2,0,41.67803913443392,-92.07422988729476,14989.500050340564,139.8335023628095,-0.0021510005408499,0.0009550067010016,,13817.683391404704,16277.165501477106,150,9,2025-09-12,2025-09-26 20:04:03.148,HH,C,3574744526,HAWK11,1,1,73,2,1,1,225,2,1,0,0,12,1,225,2,1,-149102.37927420562,-4792761.883760299,4199103.343229771,2.24201,-3.13009,-0.0912719,-93.125,-1.5,-1.875,-0.109375,-6.64062,6.89062,0.0,-0.00585938,-0.00585938,4,0,41.39965604081892,-91.78189169995886,16293.660739526673,-87.67932072267975,5.283897593556415,-2.723413710709784,181.131,13817.683391404704,16277.165501477106,150,True,21.22778038290552,False,127.32683477803855,178.1255664721759,False,54.51185813966433,False,False
9,1970-07-23 10:31:14.446682675,2025-09-12,2025-09-26 20:04:04.668,HH,C,1915672318,JASSM,3,103,76,2,2,1,225,9,2,0,1,26,0,0,0,0,-172737.40124686187,-4771190.461885299,4221941.862761021,-2.51448,-0.70333,0.607456,60.375,-51.125,-55.0,0.0,0.0,0.0,0.0,0.0,0.0,2,0,41.67734237561722,-92.07344546811726,14989.508597715709,139.83037262221154,-0.0038862966806074,0.0033105169143744,,13817.683391404704,16277.165501477106,150,9,2025-09-12,2025-09-26 20:04:04.615,HH,C,3578363290,HAWK11,1,1,73,2,1,1,225,2,1,0,0,12,1,225,2,1,-149384.87146170562,-4792764.978486861,4199102.886198521,2.8231,3.10775,-0.185995,-91.875,2.25,4.0,-0.015625,-7.79688,8.23438,0.113281,0.0429688,0.103516,4,0,41.399582239922445,-91.78526437104028,16321.919696305256,-81.86607244262649,6.910152797467946,30.82970632269325,181.546,13817.683391404704,16277.165501477106,150,False,21.083846133791305,False,131.5766023675693,177.7929273711178,False,50.60565010879813,False,False
9,1970-07-23 10:31:14.455521965,2025-09-12,2025-09-26 20:04:05.552,HH,C,1916925016,JASSM,3,103,76,2,2,1,225,9,2,0,1,26,0,0,0,0,-172673.94470389312,-4771244.286104049,4221884.019011021,-2.51448,-0.70333,0.607456,60.375,-51.125,-55.0,0.0,0.0,0.0,0.0,0.0,0.0,2,0,41.67664560836088,-92.07266107341276,14989.504383450369,139.83089419028252,-0.0029759542114384,0.0033087538905399,,13817.683391404704,16277.165501477106,150,9,2025-09-12,2025-09-26 20:04:05.616,HH,C,3579874420,HAWK11,1,1,73,2,1,1,225,2,1,0,0,12,1,225,2,1,-149499.77380545562,-4792759.323213424,4199112.218229771,2.90229,3.0206,-0.26164,-90.25,7.25,10.125,-0.296875,-8.3125,8.71875,0.0253906,0.0488281,0.0546875,4,0,41.399657544652776,-91.78663875979002,16337.068845703823,-75.35983722106647,6.088777985554838,34.99481955713729,182.402,13817.683391404704,16277.165501477106,150,False,20.988110298249474,False,136.58403025573432,177.66211116567015,False,45.733278237540766,False,False
9,1970-07-23 10:31:14.466178304,2025-09-12,2025-09-26 20:04:06.617,HH,C,1918297018,JASSM,3,103,76,2,2,1,225,9,2,0,1,26,0,0,0,0,-172604.44421561187,-4771303.239229049,4221820.663542271,-2.51448,-0.70333,0.607456,60.375,-51.125,-55.0,0.0,0.0,0.0,0.0,0.0,0.0,2,0,41.67588244074822,-92.07180198707708,14989.506533995873,139.83146541490115,-0.0019788820643547,0.0033068040082172,,13817.683391404704,16277.165501477106,150,9,2025-09-12,2025-09-26 20:04:06.615,HH,C,3581067420,HAWK11,1,1,73,2,1,1,225,2,1,0,0,12,1,225,2,1,-149589.47693045562,-4792749.497041549,4199125.743620396,2.92262,2.99126,-0.299222,-88.375,12.0,15.25,-0.015625,-8.0625,8.46875,-0.015625,0.03125,0.0507812,4,0,41.39979061423728,-91.7877137494082,16349.128517694822,-72.66135373335494,6.300977591736178,35.98544777236694,182.487,13817.683391404704,16277.165501477106,150,False,20.89271777228395,False,141.13265963196423,177.56416502067748,False,41.284174367991504,False,False
9,1970-07-23 10:31:14.477481045,2025-09-12,2025-09-26 20:04:07.748,HH,C,1919549718,JASSM,3,103,76,2,2,1,225,9,2,0,1,26,0,0,0,0,-172540.98718436187,-4771357.059541549,4221762.815886021,-2.51448,-0.70333,0.607456,60.375,-51.125,-55.0,0.0,0.0,0.0,0.0,0.0,0.0,2,0,41.6751856593065,-92.07101762366251,14989.49525742689,139.8319869471798,-0.0010685352247633,0.0033050414931273,,13817.683391404704,16277.165501477106,150,9,2025-09-12,2025-09-26 20:04:07.820,HH,C,3582379718,HAWK11,1,1,73,2,1,1,225,2,1,0,0,12,1,225,2,1,-149685.94568045562,-4792733.102510299,4199145.923307896,2.91092,2.93125,-0.356746,-85.75,16.875,20.5,-0.171875,-8.03125,8.46875,-0.0195312,0.0351562,0.0605469,4,0,41.400006386369725,-91.78887199442244,16359.992921284304,-68.00878453122303,6.068438782093278,34.708475813319104,183.343,13817.683391404704,16277.165501477106,150,False,20.796367791418408,False,145.96203357429923,177.46605234601162,False,36.55477313380862,False,False
9,1970-07-23 10:31:14.487188002,2025-09-12,2025-09-26 20:04:08.718,HH,C,1920802418,JASSM,3,103,76,2,2,1,225,9,2,0,1,26,0,0,0,0,-172477.53015311187,-4771410.883760299,4221704.972136021,-2.51448,-0.70333,0.607552,60.375,-51.125,-55.0,0.0,0.0,0.0,0.0,0.0,0.0,2,0,41.674488875325245,-92.07023327547287,14989.50735096257,139.83573264624027,-0.0046077314903384,0.0033031476873927,,13817.683391404704,16277.165501477106,150,9,2025-09-12,2025-09-26 20:04:09.116,HH,C,3584049916,HAWK11,1,1,73,2,1,1,225,2,1,0,0,12,1,225,2,1,-149804.26013358062,-4792704.665986861,4199180.017057896,2.93652,2.85464,-0.422803,-81.875,23.125,27.0,-0.1875,-8.07812,8.53125,-0.0117188,0.0410156,0.0429688,4,0,41.40038360059071,-91.7902956464808,16373.110190339748,-62.44756851493189,5.64332534978367,35.07383110751774,184.1,13817.683391404704,16277.165501477106,150,False,20.685162355210245,False,152.2384068774271,177.3568053817642,False,30.389294871579303,False,False
9,1970-07-23 10:31:14.499057503,2025-09-12,2025-09-26 20:04:09.905,HH,C,1922174420,JASSM,3,103,76,2,2,1,225,9,2,0,1,26,0,0,0,0,-172408.02966483062,-4771469.829072799,4221641.612761021,-2.51448,-0.70333,0.607552,60.375,-51.125,-55.0,0.0,0.0,0.0,0.0,0.0,0.0,2,0,41.67372570973444,-92.06937424988156,14989.49975645756,139.8363038063672,-0.0036106761233042,0.0033012650662918,,13817.683391404704,16277.165501477106,150,9,2025-09-12,2025-09-26 20:04:09.914,HH,C,3584924782,HAWK11,1,1,73,2,1,1,225,2,1,0,0,12,1,225,2,1,-149863.27771170562,-4792686.353486861,4199201.169401646,2.93498,2.82233,-0.452524,-79.625,26.25,30.125,-0.109375,-7.60938,8.28125,-0.0234375,0.0117188,0.046875,4,0,41.40062428148647,-91.79100733917645,16378.497843368808,-60.04722240512002,5.597664343151084,34.436432152658035,184.87,13817.683391404704,16277.165501477106,150,False,20.594678848240555,False,155.4232903000852,177.3027908143569,False,27.258790913352026,True,False
9,1970-07-23 10:31:14.509146114,2025-09-12,2025-09-26 20:04:10.914,HH,C,1923486772,JASSM,3,103,76,2,2,1,225,9,2,0,1,26,0,0,0,0,-172341.55066092435,-4771526.211885299,4221581.007292271,-2.51448,-0.70333,0.607552,60.375,-51.125,-55.0,0.0,0.0,0.0,0.0,0.0,0.0,2,0,41.67299571147549,-92.06855258876124,14989.497376812196,139.8368501150902,-0.0026569633321246,0.003299461284433,,13817.683391404704,16277.165501477106,150,9,2025-09-12,2025-09-26 20:04:10.913,HH,C,3586197314,HAWK11,1,1,73,2,1,1,225,2,1,0,0,12,1,225,2,1,-149946.92810233062,-4792654.772432174,4199235.175261021,2.94055,2.74717,-0.462208,-76.5,31.0,33.25,0.171875,-6.29688,6.65625,0.0,-0.00585938,0.0605469,4,0,41.4010260263266,-91.79201818917724,16381.034081333906,-56.93278252669378,3.2338077092845023,33.09253536223828,185.799,13817.683391404704,16277.165501477106,150,False,20.491000827911478,False,159.52032422100942,177.2353164416907,False,23.218563388275225,True,False
9,1970-07-23 10:31:14.520159897,2025-09-12,2025-09-26 20:04:12.015,HH,C,1924799122,JASSM,3,103,76,2,2,1,225,9,2,0,1,26,0,0,0,0,-172275.07214529935,-4771582.594697799,4221520.401823521,-2.51448,-0.70333,0.607552,60.375,-51.125,-55.0,0.0,0.0,0.0,0.0,0.0,0.0,2,0,41.67226570714445,-92.06773095206336,14989.500838237043,139.83739639972586,-0.0017032531599202,0.0032976540577355,,13817.683391404704,16277.165501477106,150,9,2025-09-12,2025-09-26 20:04:12.116,HH,C,3587469846,HAWK11,1,1,73,2,1,1,225,2,1,0,0,12,1,225,2,1,-150026.25622733062,-4792617.521455611,4199270.579557896,2.98359,2.67967,-0.47678,-73.625,36.25,34.875,-0.046875,-6.1875,6.3125,0.00976562,0.0117188,0.0527344,4,0,41.401471723547886,-91.79297954911615,16372.329922376835,-53.86419263624765,1.4496992082980886,33.934242441778785,186.911,13817.683391404704,16277.165501477106,150,False,20.38658837218852,False,163.00689431099252,177.17735086530408,False,19.741818420609576,True,False
9,1970-07-23 10:31:14.531878393,2025-09-12,2025-09-26 20:04:13.187,HH,C,1926051822,JASSM,3,103,76,2,2,1,225,9,2,0,1,26,0,0,0,0,-172211.61462576812,-4771636.411104049,4221462.550261021,-2.51448,-0.703234,0.607552,60.375,-51.125,-55.0,0.0,0.0,0.0,0.0,0.0,0.0,2,0,41.671568894687965,-92.06694667229551,14989.49885061494,139.83426462578913,-0.0034402111130174,0.0001592696621136,,13817.683391404704,16277.165501477106,150,9,2025-09-12,2025-09-26 20:04:13.021,HH,C,3588662844,HAWK11,1,1,73,2,1,1,225,2,1,0,0,12,1,225,2,1,-150098.40466483062,-4792577.599580611,4199305.866667271,3.0067,2.61946,-0.495092,-70.75,41.125,36.625,0.0625,-6.1875,6.4375,-0.0136719,0.00585938,0.0625,4,0,41.401933843640485,-91.79385617227727,16356.253328327231,-50.90037334151433,0.1781352451622024,33.68866504623804,187.546,13817.683391404704,16277.165501477106,150,False,20.286296060707347,False,166.17622495543338,177.12982131786728,False,16.52365380606538,True,False
9,1970-07-23 10:31:14.541485808,2025-09-12,2025-09-26 20:04:14.148,HH,C,1927304522,JASSM,3,103,76,2,2,1,225,9,2,0,1,26,0,0,0,0,-172148.15759451812,-4771690.227510299,4221404.698698521,-2.51448,-0.703234,0.607552,60.375,-51.125,-55.0,0.0,0.0,0.0,0.0,0.0,0.0,2,0,41.67087207669008,-92.06616241529883,14989.502188807595,139.83478604325245,-0.0025298622002315,0.0001574973006191,,13817.683391404704,16277.165501477106,150,9,2025-09-12,2025-09-26 20:04:14.320,HH,C,3590134210,HAWK11,1,1,73,2,1,1,225,2,1,0,0,12,1,225,2,1,-150184.07849295562,-4792521.564424361,4199352.190886021,3.02616,2.53279,-0.520595,-67.125,46.75,39.0,-0.09375,-6.71875,6.9375,-0.0175781,0.0234375,0.046875,4,0,41.40256374918541,-91.79490038022185,16325.537546890644,-46.6439748175336,-1.5058226481853518,32.33826705833665,188.659,13817.683391404704,16277.165501477106,150,False,20.173457813411108,False,169.58257649048755,177.08291027038678,False,12.90685873484986,True,False
9,1970-07-23 10:31:14.551160957,2025-09-12,2025-09-26 20:04:15.116,HH,C,1928437916,JASSM,3,103,76,2,2,1,225,9,2,0,1,26,0,0,0,0,-172090.74402029935,-4771738.915010299,4221352.354948521,-2.51448,-0.703234,0.607552,60.375,-51.125,-55.0,0.0,0.0,0.0,0.0,0.0,0.0,2,0,41.670241626268,-92.06545286471234,14989.497041667446,139.83525778559547,-0.00170622002543,0.0001558988865463,,13817.683391404704,16277.165501477106,150,9,2025-09-12,2025-09-26 20:04:14.616,HH,C,3590611410,HAWK11,1,1,73,2,1,1,225,2,1,0,0,12,1,225,2,1,-150210.96521170562,-4792502.228486861,4199368.017057896,3.02568,2.50911,-0.531045,-66.0,48.5,40.0,-0.125,-7.04688,7.23438,-0.0371094,0.0332031,0.0351562,4,0,41.40278053468293,-91.79522874048553,16314.389031164435,-45.352976849255086,-1.769567294332558,31.59286459171685,188.695,13817.683391404704,16277.165501477106,150,False,20.10493046709927,False,170.5881335042311,177.0653864051016,False,11.783293529843412,True,False
9,1970-07-23 10:31:14.562278814,2025-09-12,2025-09-26 20:04:16.227,HH,C,1929571310,JASSM,3,103,76,2,2,1,225,9,2,0,1,26,0,0,0,0,-172033.32995779935,-4771787.606416549,4221300.011198521,-2.51448,-0.703234,0.607552,60.375,-51.125,-55.0,0.0,0.0,0.0,0.0,0.0,0.0,2,0,41.66961114815096,-92.0647433204274,14989.505742741376,139.83572951789412,-0.0008825563611721,0.0001542897606502,,13817.683391404704,16277.165501477106,150,9,2025-09-12,2025-09-26 20:04:16.115,HH,C,3592321374,HAWK11,1,1,73,2,1,1,225,2,1,0,0,12,1,225,2,1,-150302.32458670562,-4792428.532197799,4199428.563932896,2.98436,2.43309,-0.578694,-61.25,53.5,44.375,-0.046875,-7.8125,8.07812,-0.0722656,0.03125,0.0390625,4,0,41.40361038568796,-91.79634750129624,16271.540581010278,-40.752302674764586,-1.8186643991047395,26.784851000375333,189.367,13817.683391404704,16277.165501477106,150,False,19.98570543772516,False,173.76685927149944,177.0319437821383,False,7.766943218739745,True,False
9,1970-07-23 10:31:14.570157923,2025-09-12,2025-09-26 20:04:17.015,HH,C,1930704704,JASSM,3,103,76,2,2,1,225,9,2,0,1,26,0,0,0,0,-171975.91638358062,-4771836.293916549,4221247.663542271,-2.51448,-0.703234,0.607648,60.375,-51.125,-55.0,0.0,0.0,0.0,0.0,0.0,0.0,2,0,41.66898066257682,-92.06403379753252,14989.500723991136,139.83942365484688,-0.0045054931626091,0.0001525460077283,,13817.683391404704,16277.165501477106,150,9,2025-09-12,2025-09-26 20:04:16.913,HH,C,3593355306,HAWK11,1,1,73,2,1,1,225,2,1,0,0,12,1,225,2,1,-150354.30896170562,-4792381.124971236,4199468.630339146,2.93834,2.39368,-0.608032,-58.5,55.375,47.375,-0.15625,-8.01562,8.34375,-0.0742188,0.0214844,0.03125,4,0,41.40415301695829,-91.79698615281968,16245.883881159862,-38.25373297085204,-1.520292525973027,22.81269076058203,189.563,13817.683391404704,16277.165501477106,150,False,19.893198321683474,False,174.8999770395745,177.01660301411877,False,5.676850311521695,True,False
9,1970-07-23 10:31:14.580138571,2025-09-12,2025-09-26 20:04:18.013,HH,C,1931897750,JASSM,3,103,76,2,2,1,225,9,2,0,1,26,0,0,0,0,-171915.48083670562,-4771887.543916549,4221192.561979771,-2.51448,-0.703234,0.607648,60.375,-51.125,-55.0,0.0,0.0,0.0,0.0,0.0,0.0,2,0,41.66831699707949,-92.06328694381948,14989.502785401,139.8399201795255,-0.0036384850802126,0.000150901106439,,13817.683391404704,16277.165501477106,150,9,2025-09-12,2025-09-26 20:04:17.863,HH,C,3593792740,HAWK11,1,1,73,2,1,1,225,2,1,0,0,12,1,225,2,1,-150375.38903983062,-4792360.198213424,4199486.526823521,2.9229,2.37872,-0.618578,-57.375,56.125,48.75,0.0,-8.15625,8.29688,-0.0722656,0.0253906,0.0332031,4,0,41.40439431412167,-91.79724577272432,16234.871315522776,-37.33438216854241,-1.4141139161801666,21.41150571862952,189.954,13817.683391404704,16277.165501477106,150,False,19.822761159059652,False,175.06524159750197,177.00772557682396,False,4.919153016359265,True,False
9,1970-07-23 10:31:14.590158587,2025-09-12,2025-09-26 20:04:19.015,HH,C,1933090796,JASSM,3,103,76,2,2,1,225,9,2,0,1,26,0,0,0,0,-171855.04504569,-4771938.790010299,4221137.460417271,-2.51439,-0.703234,0.607648,60.375,-51.125,-55.0,0.0,0.0,0.0,0.0,0.0,0.0,2,0,41.66765335005492,-92.0625401042066,14989.500049533906,139.84041668834217,-0.0027714941852058,0.005640744070254,,13817.683391404704,16277.165501477106,150,9,2025-09-12,2025-09-26 20:04:19.115,HH,C,3595940138,HAWK11,1,1,73,2,1,1,225,2,1,0,0,12,1,225,2,1,-150473.84021170562,-4792257.644502486,4199579.878386021,2.82396,2.34229,-0.690771,-52.625,57.5,55.125,-0.15625,-9.0625,9.40625,-0.0605469,0.0371094,0.0136719,4,0,41.40561583088056,-91.79846012264102,16192.79272940083,-33.680554867575765,1.1356859810756423,14.461781119086908,190.076,13817.683391404704,16277.165501477106,150,False,19.679601628131643,False,174.02524836007777,177.00339222918348,False,3.363352482438082,True,False
9,1970-07-23 10:31:14.599147147,2025-09-12,2025-09-26 20:04:19.914,HH,C,1934224190,JASSM,3,103,76,2,2,1,225,9,2,0,1,26,0,0,0,0,-171797.63098319,-4771987.473604049,4221085.112761021,-2.51439,-0.703234,0.607648,60.375,-51.125,-55.0,0.0,0.0,0.0,0.0,0.0,0.0,2,0,41.66702287412001,-92.06183062013486,14989.498848781628,139.84088835669473,-0.0019478473128024,0.0056391924231715,,13817.683391404704,16277.165501477106,150,9,2025-09-12,2025-09-26 20:04:19.914,HH,C,3596934302,HAWK11,1,1,73,2,1,1,225,2,1,0,0,12,1,225,2,1,-150516.57068045562,-4792209.925752486,4199627.409636021,2.78791,2.32858,-0.711384,-50.5,57.375,57.75,0.03125,-8.34375,8.5625,-0.0449219,0.0175781,0.0234375,4,0,41.40621241003887,-91.79898840235018,16181.86484790151,-32.54064704443808,1.811511175575738,11.91895666217648,190.223,13817.683391404704,16277.165501477106,150,False,19.587485595502173,False,172.84313402962454,177.00370635612379,False,4.198563310390354,True,False
9,1970-07-23 10:31:14.609160995,2025-09-12,2025-09-26 20:04:20.916,HH,C,1935357584,JASSM,3,103,76,2,2,1,225,9,2,0,1,26,0,0,0,0,-171740.21716483062,-4772036.157197799,4221032.765104771,-2.51439,-0.703234,0.607648,60.375,-51.125,-55.0,0.0,0.0,0.0,0.0,0.0,0.0,2,0,41.66639239368394,-92.0611211528342,14989.501993859283,139.8413600080436,-0.0011242017201001,0.0056376390452402,,13817.683391404704,16277.165501477106,150,9,2025-09-12,2025-09-26 20:04:20.743,HH,C,3597371736,HAWK11,1,1,73,2,1,1,225,2,1,0,0,12,1,225,2,1,-150534.91638358062,-4792188.309541549,4199649.378386021,2.78465,2.31986,-0.717711,-49.75,57.125,59.0,-0.21875,-8.15625,8.21875,-0.0292969,0.0078125,0.0214844,4,0,41.406485795982526,-91.79921563821742,16177.786874725109,-32.028121393258736,1.9189398365461496,11.421309861561271,190.223,13817.683391404704,16277.165501477106,150,False,19.51897685026926,False,172.34777946533603,177.0012814671053,False,4.654979308497881,True,False
9,1970-07-23 10:31:14.618136836,2025-09-12,2025-09-26 20:04:21.813,HH,C,1936431326,JASSM,3,103,76,2,2,1,225,9,2,0,1,26,0,0,0,0,-171685.82483084625,-4772082.278291549,4220983.167448521,-2.51439,-0.703234,0.607648,60.375,-51.125,-55.0,0.0,0.0,0.0,0.0,0.0,0.0,2,0,41.66579505907252,-92.06044903523224,14989.497222532862,139.8418068240449,-0.0003438787334945,0.005636147928156,,13817.683391404704,16277.165501477106,150,9,2025-09-12,2025-09-26 20:04:21.819,HH,C,3599201000,HAWK11,1,1,73,2,1,1,225,2,1,0,0,12,1,225,2,1,-150608.87927420562,-4792099.782197799,4199741.901823521,2.77171,2.28793,-0.738037,-47.0,57.625,61.75,-0.015625,-7.25,7.6875,-0.0253906,-0.00195312,0.015625,4,0,41.40762286268881,-91.80013230462067,16166.540770139798,-30.25574437432021,2.20588619570684,9.526469836288232,190.382,13817.683391404704,16277.165501477106,150,True,19.393074249229798,False,170.29423709309614,177.01796924862194,False,6.743770501036595,True,False
9,1970-07-23 10:31:14.628161368,2025-09-12,2025-09-26 20:04:22.816,HH,C,1937684024,JASSM,3,103,76,2,2,1,225,9,2,0,1,26,0,0,0,0,-171622.367311315,-4772136.082979049,4220925.308073521,-2.51439,-0.703138,0.607648,60.375,-51.125,-55.0,0.0,0.0,0.0,0.0,0.0,0.0,2,0,41.66509821369038,-92.0596649175762,14989.498545933728,139.83867753548893,-0.0020792307366441,0.0024991954752122,,13817.683391404704,16277.165501477106,150,9,2025-09-12,2025-09-26 20:04:22.820,HH,C,3600314466,HAWK11,1,1,73,2,1,1,225,2,1,0,0,12,1,225,2,1,-150651.45739920562,-4792045.255830611,4199799.329557896,2.75781,2.27058,-0.74935,-45.625,58.125,63.125,-0.15625,-7.28125,7.71875,-0.0351562,0.0195312,0.015625,4,0,41.4083267357628,-91.80066135407414,16160.344308873558,-29.296175535238927,2.395440346576512,8.095348310780492,190.467,13817.683391404704,16277.165501477106,150,True,19.290607484650852,False,169.1974011911536,177.02851666284315,False,7.865299745552408,True,False
9,1970-07-23 10:31:14.639176226,2025-09-12,2025-09-26 20:04:23.917,HH,C,1938996376,JASSM,3,103,76,2,2,1,225,9,2,0,1,26,0,0,0,0,-171555.8878191275,-4772192.450166549,4220864.690886021,-2.51439,-0.703138,0.607648,60.375,-51.125,-55.0,0.0,0.0,0.0,0.0,0.0,0.0,2,0,41.66436815967988,-92.0588434767298,14989.500813346776,139.83922360531176,-0.0011255283424665,0.0024973323505803,,13817.683391404704,16277.165501477106,150,9,2025-09-12,2025-09-26 20:04:23.913,HH,C,3601626764,HAWK11,1,1,73,2,1,1,225,2,1,0,0,12,1,225,2,1,-150701.02575858062,-4791980.067354049,4199869.745573521,2.70738,2.25534,-0.767566,-44.375,58.5,64.5,-0.0625,-7.29688,7.85938,-0.0371094,0.0,0.0214844,4,0,41.40918035985762,-91.80127791709847,16156.655120162215,-28.226455010885463,2.9868320042925194,4.655417632447108,190.382,13817.683391404704,16277.165501477106,150,True,19.176010159538826,False,168.18909116512614,177.04523851232528,False,8.907444213903247,True,False
9,1970-07-23 10:31:14.650137923,2025-09-12,2025-09-26 20:04:25.013,HH,C,1940249076,JASSM,3,103,76,2,2,1,225,9,2,0,1,26,0,0,0,0,-171492.43005545562,-4772246.254854049,4220806.827604771,-2.51439,-0.703138,0.607744,60.375,-51.125,-55.0,0.0,0.0,0.0,0.0,0.0,0.0,2,0,41.66367127696935,-92.05805939077032,14989.50441252059,139.84296950860593,-0.0046643572876039,0.0024954121578385,,13817.683391404704,16277.165501477106,150,9,2025-09-12,2025-09-26 20:04:25.115,HH,C,3603058364,HAWK11,1,1,73,2,1,1,225,2,1,0,0,12,1,225,2,1,-150753.14099295562,-4791910.007783736,4199947.235807896,2.81035,2.24287,-0.781659,-43.125,58.375,66.0,0.015625,-7.3125,7.70312,0.15625,0.00390625,0.0117188,4,0,41.41011021281888,-91.80192674923973,16156.540740332655,-27.38525335415996,3.442189294654136,10.102775183497307,189.722,13817.683391404704,16277.165501477106,150,False,19.059485246257044,False,167.22336565674064,177.06701601354027,False,9.927888564689423,True,False
9,1970-07-23 10:31:14.664646034,2025-09-12,2025-09-26 20:04:26.464,HH,C,1941501774,JASSM,3,103,76,2,2,1,225,9,2,0,1,26,0,0,0,0,-171428.97229178375,-4772300.059541549,4220748.960417271,-2.51439,-0.703138,0.607744,60.375,-51.125,-55.0,0.0,0.0,0.0,0.0,0.0,0.0,2,0,41.662974362570125,-92.0572753217198,14989.504775183355,139.8434907204134,-0.003753978639011,0.0024936635508429,,13817.683391404704,16277.165501477106,150,9,2025-09-12,2025-09-26 20:04:26.523,HH,C,3604768328,HAWK11,1,1,73,2,1,1,225,2,1,0,0,12,1,225,2,1,-150811.97888358062,-4791824.630830611,4200042.778776646,3.03757,2.17643,-0.808983,-39.25,59.625,68.0,0.0,-7.04688,7.4375,0.0917969,0.0136719,0.0585938,4,0,41.411251727335184,-91.80266166130778,16158.459748559131,-24.2928570702143,3.5839818239443684,20.592035060627506,189.062,13817.683391404704,16277.165501477106,150,False,18.930502529903247,False,164.59567860265943,177.10247329412192,False,12.588300689008864,True,False
9,1970-07-23 10:31:14.671145707,2025-09-12,2025-09-26 20:04:27.114,HH,C,1942814124,JASSM,3,103,76,2,2,1,225,9,2,0,1,26,0,0,0,0,-171362.49255545562,-4772356.418916549,4220688.339323521,-2.51439,-0.703138,0.607744,60.375,-51.125,-55.0,0.0,0.0,0.0,0.0,0.0,0.0,2,0,41.662244311704704,-92.05645393529603,14989.496232021773,139.84403673136234,-0.0028002916613247,0.0024918669666744,,13817.683391404704,16277.165501477106,150,9,2025-09-12,2025-09-26 20:04:27.115,HH,C,3605245528,HAWK11,1,1,73,2,1,1,225,2,1,0,0,12,1,225,2,1,-150827.40466483062,-4791800.433564986,4200069.852995396,3.08934,2.14614,-0.814831,-37.75,60.125,68.5,-0.109375,-7.04688,7.48438,0.0605469,0.00585938,0.0585938,4,0,41.4115754560512,-91.80285502248354,16158.899476175098,-23.070154432000983,3.362728698900701,22.37284507430325,188.267,13817.683391404704,16277.165501477106,150,False,18.852713920592507,False,163.63876155609856,177.1079258313396,False,13.545265938022217,True,False
9,1970-07-23 10:31:14.682137894,2025-09-12,2025-09-26 20:04:28.213,HH,C,1944126476,JASSM,3,103,76,2,2,1,225,9,2,0,1,26,0,0,0,0,-171296.0128191275,-4772412.782197799,4220627.718229771,-2.51439,-0.703138,0.607744,60.375,-51.125,-55.0,0.0,0.0,0.0,0.0,0.0,0.0,2,0,41.661514231529424,-92.0556325657457,14989.50305475123,139.84458272324662,-0.0018465859077616,0.0024900562525291,,13817.683391404704,16277.165501477106,150,9,2025-09-12,2025-09-26 20:04:28.021,HH,C,3606557826,HAWK11,1,1,73,2,1,1,225,2,1,0,0,12,1,225,2,1,-150867.01989920562,-4791732.198213424,4200146.095182896,-3.12021,2.06579,-0.833431,-33.625,61.625,70.0,-0.015625,-7.23438,7.6875,-0.0175781,0.0175781,0.03125,4,0,41.412488368507255,-91.8033538975632,16159.612822837007,-19.775107996908403,3.078247177568932,23.397198337307938,186.801,13817.683391404704,16277.165501477106,150,False,18.73846853723103,False,160.97954702353834,177.14442086781338,False,16.229442826581995,True,False
9,1970-07-23 10:31:14.693158976,2025-09-12,2025-09-26 20:04:29.315,HH,C,1945438826,JASSM,3,103,76,2,2,1,225,9,2,0,1,26,0,0,0,0,-171229.53332694,-4772469.141572799,4220567.093229771,-2.51439,-0.703138,0.607744,60.375,-51.125,-55.0,0.0,0.0,0.0,0.0,0.0,0.0,2,0,41.66078414243008,-92.0548112193587,14989.49760941674,139.8451286918845,-0.0008928799892514,0.0024882409627377,,13817.683391404704,16277.165501477106,150,9,2025-09-12,2025-09-26 20:04:29.413,HH,C,3608148492,HAWK11,1,1,73,2,1,1,225,2,1,0,0,12,1,225,2,1,-150908.13513358062,-4791647.897432174,4200240.577604771,3.13421,1.99906,-0.852989,-28.375,63.125,71.875,0.0625,-7.3125,7.875,-0.0722656,0.0214844,0.0214844,4,0,41.41361963595362,-91.80387674890474,16160.525083907682,-16.996665236453268,3.222684173042553,19.04627934013685,185.481,13817.683391404704,16277.165501477106,150,False,18.61314157093004,False,157.67683229161915,177.20267988358643,False,19.586051903481028,True,False
9,1970-07-23 10:31:14.704138512,2025-09-12,2025-09-26 20:04:30.413,HH,C,1946691526,JASSM,3,103,76,2,2,1,225,9,2,0,1,26,0,0,0,0,-171166.0753191275,-4772522.942354049,4220509.226042271,-2.51439,-0.703138,0.607744,60.375,-51.125,-55.0,0.0,0.0,0.0,0.0,0.0,0.0,2,0,41.66008722892414,-92.0540272191065,14989.510268208409,139.8456498283289,1.748183287761866e-05,0.0024865080271176,,13817.683391404704,16277.165501477106,150,9,2025-09-12,2025-09-26 20:04:30.521,HH,C,3609540324,HAWK11,1,1,73,2,1,1,225,2,1,0,0,12,1,225,2,1,-150939.02771170562,-4791573.343721236,4200325.151823521,3.08599,1.94921,-0.869384,-24.75,63.5,73.5,-0.015625,-7.45312,7.85938,-0.0566406,0.0195312,0.0273438,4,0,41.414627981776455,-91.80427383286008,16163.121024250284,-14.930830197129632,3.5257472242436823,14.237639392148903,183.55,13817.683391404704,16277.165501477106,150,False,18.499711849671076,False,155.426555285939,177.2621085182631,False,21.905210007518416,True,False
9,1970-07-23 10:31:14.714138896,2025-09-12,2025-09-26 20:04:31.413,HH,C,1947944224,JASSM,3,103,76,2,2,1,225,9,2,0,1,26,0,0,0,0,-171102.61706717435,-4772576.737275924,4220451.354948521,-2.51439,-0.703043,0.607744,60.375,-51.125,-55.0,0.0,0.0,0.0,0.0,0.0,0.0,2,0,41.659390318801165,-92.0532432353522,14989.505316710172,139.84251851137262,-0.0017195212183511,-0.000652867288804,,13817.683391404704,16277.165501477106,150,9,2025-09-12,2025-09-26 20:04:31.209,HH,C,3610256122,HAWK11,1,1,73,2,1,1,225,2,1,0,0,12,1,225,2,1,-150953.37536795562,-4791535.728486861,4200369.081511021,3.05962,1.92975,-0.878779,-23.875,61.875,75.875,0.046875,-7.42188,7.875,-0.0703125,0.015625,0.0273438,4,0,41.415145455597255,-91.80445938265125,16167.069276266362,-14.08740854518406,3.831526490560965,11.925888997103606,182.646,13817.683391404704,16277.165501477106,150,False,18.41548046304768,False,154.69089409027555,177.29078321189036,False,22.71712304714595,True,False
9,1970-07-23 10:31:14.725438421,2025-09-12,2025-09-26 20:04:32.543,HH,C,1949196924,JASSM,3,103,76,2,2,1,225,9,2,0,1,26,0,0,0,0,-171039.15905936187,-4772630.532197799,4220393.483854771,-2.51439,-0.703043,0.60784,60.375,-51.125,-55.0,0.0,0.0,0.0,0.0,0.0,0.0,2,0,41.65869340319384,-92.05245927142936,14989.505669356944,139.84626252299682,-0.0052554121334859,-0.0006548246752718,,13817.683391404704,16277.165501477106,150,9,2025-09-12,2025-09-26 20:04:32.413,HH,C,3611687720,HAWK11,1,1,73,2,1,1,225,2,1,0,0,12,1,225,2,1,-150979.51013358062,-4791457.663057174,4200459.167448521,3.00162,1.90501,-0.888079,-20.75,63.625,75.625,0.015625,-7.29688,7.82812,-0.078125,0.015625,0.0078125,4,0,41.41621276895008,-91.80480096962104,16172.633654836194,-13.07344728662679,4.094990909153935,7.577177566736245,181.302,13817.683391404704,16277.165501477106,150,True,18.300778104224904,False,152.93983941704974,177.36373221722945,False,24.511295806707075,True,False
9,1970-07-23 10:31:14.736164791,2025-09-12,2025-09-26 20:04:33.616,HH,C,1950509274,JASSM,3,103,76,2,2,1,225,9,2,0,1,26,0,0,0,0,-170972.67907889312,-4772686.887666549,4220332.854948521,-2.51439,-0.703043,0.60784,60.375,-51.125,-55.0,0.0,0.0,0.0,0.0,0.0,0.0,2,0,41.65796328825439,-92.05163799254962,14989.504494539922,139.84680841666113,-0.0043017016026364,-0.0006566466728329,,13817.683391404704,16277.165501477106,150,9,2025-09-12,2025-09-26 20:04:33.615,HH,C,3612960252,HAWK11,1,1,73,2,1,1,225,2,1,0,0,12,1,225,2,1,-151000.74060233062,-4791389.252900924,4200540.284636021,2.93863,1.88919,-0.902077,-19.375,63.25,76.625,0.015625,-7.32812,7.82812,-0.0722656,0.00976562,0.0,4,0,41.4171630498474,-91.80508034465667,16182.103347257866,-12.313256095105274,4.720298562922549,3.3193800826211035,179.64,13817.683391404704,16277.165501477106,150,True,18.19078359162656,False,152.07213932204692,177.4304613175605,False,25.460857829760368,True,False
9,1970-07-23 10:31:14.747158168,2025-09-12,2025-09-26 20:04:34.715,HH,C,1951821626,JASSM,3,103,76,2,2,1,225,9,2,0,1,26,0,0,0,0,-170906.19909842435,-4772743.241182174,4220272.226042271,-2.51429,-0.703043,0.60784,60.375,-51.125,-55.0,0.0,0.0,0.0,0.0,0.0,0.0,2,0,41.65723317902663,-92.0508167330599,14989.504333089282,139.84735428958746,-0.0033480002760823,0.0048330104358818,,13817.683391404704,16277.165501477106,150,9,2025-09-12,2025-09-26 20:04:34.913,HH,C,3614829284,HAWK11,1,1,73,2,1,1,225,2,1,0,0,12,1,225,2,1,-151029.84607108062,-4791290.669893111,4200659.979948521,2.85052,1.88804,-0.908884,-18.625,62.75,77.375,0.0,-6.89062,7.29688,-0.0273438,0.00195312,-0.00195312,4,0,41.41855163207909,-91.80546516748412,16201.723784794314,-12.173207275427531,5.088084523864466,-1.7687174197605082,178.271,13817.683391404704,16277.165501477106,150,True,18.05707605835738,False,151.57904988747603,177.53470159641392,False,26.07624550835398,True,False
9,1970-07-23 10:31:14.758158131,2025-09-12,2025-09-26 20:04:35.815,HH,C,1953133976,JASSM,3,103,76,2,2,1,225,9,2,0,1,26,0,0,0,0,-170839.71911795562,-4772799.594697799,4220211.593229771,-2.51429,-0.703043,0.60784,60.375,-51.125,-55.0,0.0,0.0,0.0,0.0,0.0,0.0,2,0,41.65650303757998,-92.0499954921208,14989.501451204982,139.84790014233545,-0.0023942787580747,0.0048311784856806,,13817.683391404704,16277.165501477106,150,9,2025-09-12,2025-09-26 20:04:35.820,HH,C,3615704150,HAWK11,1,1,73,2,1,1,225,2,1,0,0,12,1,225,2,1,-151043.59607108062,-4791243.735322799,4200717.120573521,2.83537,1.88862,-0.900351,-18.625,62.625,77.375,-0.109375,-6.375,6.64062,-0.00390625,-0.0117188,-0.00976562,4,0,41.419213786809344,-91.80564710719815,16211.396811609113,-12.319367899791605,4.621583125903035,-2.623100421902981,177.477,13817.683391404704,16277.165501477106,150,True,17.963513420567452,False,151.58107026358334,177.58094440708678,False,26.125331036611147,True,False
9,1970-07-23 10:31:14.768157303,2025-09-12,2025-09-26 20:04:36.815,HH,C,1954386676,JASSM,3,103,76,2,2,1,225,9,2,0,1,26,0,0,0,0,-170776.2608660025,-4772853.383760299,4220153.718229771,-2.51429,-0.703043,0.60784,60.375,-51.125,-55.0,0.0,0.0,0.0,0.0,0.0,0.0,2,0,41.655806108283805,-92.0492115978123,14989.50079615336,139.84842116464225,-0.0014839307173445,0.0048294486621905,,13817.683391404704,16277.165501477106,150,9,2025-09-12,2025-09-26 20:04:36.709,HH,C,3616857382,HAWK11,1,1,73,2,1,1,225,2,1,0,0,12,1,225,2,1,-151061.49646170562,-4791182.090791549,4200790.852995396,2.82732,1.89073,-0.901501,-18.75,63.25,76.875,0.109375,-6.5625,7.0,0.015625,-0.00390625,0.0,4,0,41.42007461400939,-91.80588417458222,16221.235261377946,-12.37517572245716,4.705523042600015,-2.9943184836862224,176.463,13817.683391404704,16277.165501477106,150,True,17.861611017684055,False,151.69721187467772,177.64440065720723,False,26.063821792339247,True,False
9,1970-07-23 10:31:14.780238390,2025-09-12,2025-09-26 20:04:38.023,HH,C,1955699026,JASSM,3,103,76,2,2,1,225,9,2,0,1,26,0,0,0,0,-170709.78064139312,-4772909.733369674,4220093.085417271,-2.51429,-0.703043,0.60784,60.375,-51.125,-55.0,0.0,0.0,0.0,0.0,0.0,0.0,2,0,41.65507597858412,-92.04839039187776,14989.499655872884,139.84896697878196,-0.0005302262419421,0.0048276324459443,,13817.683391404704,16277.165501477106,150,9,2025-09-12,2025-09-26 20:04:38.115,HH,C,3618487814,HAWK11,1,1,73,2,1,1,225,2,1,0,0,12,1,225,2,1,-151087.15075858062,-4791094.948213424,4200895.435026646,2.94016,1.87817,-0.896804,-18.625,63.625,76.75,0.0625,-6.375,6.84375,0.103516,0.0,0.00195312,4,0,41.42129380975545,-91.80622348910607,16235.941974261475,-12.009725404821475,4.332500683146326,2.936627954469923,175.228,13817.683391404704,16277.165501477106,150,True,17.73732471355219,False,151.6333514783028,177.73718446855645,False,26.220317600385542,True,False
9,1970-07-23 10:31:14.793057526,2025-09-12,2025-09-26 20:04:39.305,HH,C,1957011378,JASSM,3,103,76,2,2,1,225,9,2,0,1,26,0,0,0,0,-170643.30041678375,-4772966.082979049,4220032.452604771,-2.51429,-0.703043,0.60784,60.375,-51.125,-55.0,0.0,0.0,0.0,0.0,0.0,0.0,2,0,41.65434584292472,-92.04756920449157,14989.504313384232,139.84951277274456,0.0004234783547882,0.0048258161953855,,13817.683391404704,16277.165501477106,150,9,2025-09-12,2025-09-26 20:04:39.709,HH,C,3620515912,HAWK11,1,1,73,2,1,1,225,2,1,0,0,12,1,225,2,1,-151117.03747733062,-4790985.323213424,4201024.892057896,3.11609,1.83339,-0.901022,-16.25,64.625,76.625,0.03125,-6.46875,6.89062,0.0546875,0.00390625,0.0273438,4,0,41.42281378376926,-91.8066218533659,16249.698958351792,-10.396590163930416,4.195314702437288,11.128672568414846,174.422,13817.683391404704,16277.165501477106,150,False,17.59721651728326,False,150.30468869062827,177.85901943779493,False,27.662288515292936,True,False
9,1970-07-23 10:31:14.801156618,2025-09-12,2025-09-26 20:04:40.115,HH,C,1958264076,JASSM,3,103,76,2,2,1,225,9,2,0,1,26,0,0,0,0,-170579.84216483062,-4773019.870088424,4219974.573698521,-2.51429,-0.702947,0.607936,60.375,-51.125,-55.0,0.0,0.0,0.0,0.0,0.0,0.0,2,0,41.65364888223365,-92.04678536333142,14989.506706895549,139.84960912354703,-0.0057607327441877,0.0016877211443223,,13817.683391404704,16277.165501477106,150,9,2025-09-12,2025-09-26 20:04:40.021,HH,C,3620873812,HAWK11,1,1,73,2,1,1,225,2,1,0,0,12,1,225,2,1,-151121.84607108062,-4790965.713838424,4201047.706511021,-3.14054,1.81738,-0.900543,-15.625,64.875,76.625,0.015625,-6.42188,6.85938,0.0390625,-0.00195312,0.0292969,4,0,41.423083462368375,-91.80668669238791,16251.376430444116,-9.84432824021196,4.047871983545551,11.970914854751788,174.336,13817.683391404704,16277.165501477106,150,False,17.528148774441604,False,149.95120141646973,177.87620964049236,False,28.031181243976302,True,False
9,1970-07-23 10:31:14.810157510,2025-09-12,2025-09-26 20:04:41.015,HH,C,1959337818,JASSM,3,103,76,2,2,1,225,9,2,0,1,26,0,0,0,0,-170525.44909842435,-4773065.971650924,4219924.960417271,-2.51429,-0.702947,0.607936,60.375,-51.125,-55.0,0.0,0.0,0.0,0.0,0.0,0.0,2,0,41.6530514743409,-92.04611351030256,14989.502753428036,139.8500556521438,-0.0049804169317473,0.0016862199714124,,13817.683391404704,16277.165501477106,150,9,2025-09-12,2025-09-26 20:04:41.115,HH,C,3622225876,HAWK11,1,1,73,2,1,1,225,2,1,0,0,12,1,225,2,1,-151138.36755545562,-4790891.494111861,4201134.269011021,-3.08062,1.76293,-0.901693,-13.5,64.625,77.625,0.0625,-6.64062,7.0,0.00195312,0.0,0.015625,4,0,41.42410591504117,-91.8069120519494,16258.05946983688,-7.925125410425664,3.752310245982864,13.088247122359894,173.689,13817.683391404704,16277.165501477106,150,False,17.42682476467903,False,148.68566351616903,177.96327876094514,False,29.397607527724745,True,False
9,1970-07-23 10:31:14.819154663,2025-09-12,2025-09-26 20:04:41.915,HH,C,1960471212,JASSM,3,103,76,2,2,1,225,9,2,0,1,26,0,0,0,0,-170468.0343035025,-4773114.631807174,4219872.593229771,-2.51429,-0.702947,0.607936,60.375,-51.125,-55.0,0.0,0.0,0.0,0.0,0.0,0.0,2,0,41.652420904379575,-92.0454043479904,14989.501625849358,139.85052697162538,-0.0041567754600605,0.0016846543618807,,13817.683391404704,16277.165501477106,150,9,2025-09-12,2025-09-26 20:04:41.820,HH,C,3623021208,HAWK11,1,1,73,2,1,1,225,2,1,0,0,12,1,225,2,1,-151146.57849295562,-4790847.142549361,4201185.274870396,-3.07688,1.74653,-0.902556,-11.625,66.0,76.875,-0.09375,-6.64062,7.0,-0.0351562,0.0175781,0.0136719,4,0,41.42471234793263,-91.8070268689173,16260.36147876143,-7.341258604142613,3.70816029378814,12.603431991567044,173.163,13817.683391404704,16277.165501477106,150,False,17.345661912551126,False,147.680677210712,178.01510473329049,False,30.436519235480525,False,False
9,1970-07-23 10:31:14.829155632,2025-09-12,2025-09-26 20:04:42.915,HH,C,1961664258,JASSM,3,103,76,2,2,1,225,9,2,0,1,26,0,0,0,0,-170407.59851248687,-4773165.854463424,4219817.468229771,-2.51429,-0.702947,0.607936,60.375,-51.125,-55.0,0.0,0.0,0.0,0.0,0.0,0.0,2,0,41.651757121889005,-92.04465788568648,14989.505123057404,139.8510230748954,-0.0032897737053294,0.0016829881680077,,13817.683391404704,16277.165501477106,150,9,2025-09-12,2025-09-26 20:04:42.819,HH,C,3624214208,HAWK11,1,1,73,2,1,1,225,2,1,0,0,12,1,225,2,1,-151157.05505545562,-4790780.511689986,4201262.237761021,-3.09797,1.71624,-0.908596,-9.375,66.375,77.25,-0.078125,-7.0,7.42188,-0.0410156,0.00390625,0.0273438,4,0,41.42562602137359,-91.80717715545376,16264.407455833374,-6.228951916397709,3.897815020540128,10.102943367503835,172.65,13817.683391404704,16277.165501477106,150,False,17.246431032448275,False,146.39789742757384,178.09868031103773,False,31.80605805184774,False,False
9,1970-07-23 10:31:14.840154520,2025-09-12,2025-09-26 20:04:44.015,HH,C,1962916958,JASSM,3,103,76,2,2,1,225,9,2,0,1,26,0,0,0,0,-170344.13903983062,-4773219.635713424,4219759.585417271,-2.51429,-0.702947,0.607936,60.375,-51.125,-55.0,0.0,0.0,0.0,0.0,0.0,0.0,2,0,41.65106015004631,-92.04387409516588,14989.504159214895,139.85154397973702,-0.0023794152272994,0.0016812542389217,,13817.683391404704,16277.165501477106,150,9,2025-09-12,2025-09-26 20:04:43.911,HH,C,3625486740,HAWK11,1,1,73,2,1,1,225,2,1,0,0,12,1,225,2,1,-151166.11950858062,-4790709.734346236,4201344.567839146,-3.10737,1.68191,-0.908884,-7.5,66.625,77.875,-0.234375,-7.01562,7.35938,-0.0351562,-0.00390625,0.00585938,4,0,41.42660083746818,-91.80731213769477,16269.805129902825,-5.0241658649110095,3.770580793888304,8.094054866434925,172.088,13817.683391404704,16277.165501477106,150,True,17.14218718992976,False,145.31914012793086,178.19111006971912,False,32.985003048540925,False,False
9,1970-07-23 10:31:14.851154307,2025-09-12,2025-09-26 20:04:45.115,HH,C,1964229310,JASSM,3,103,76,2,2,1,225,9,2,0,1,26,0,0,0,0,-170277.65832694,-4773275.977510299,4219698.944792271,-2.51429,-0.702947,0.607936,60.375,-51.125,-55.0,0.0,0.0,0.0,0.0,0.0,0.0,2,0,41.65032997588367,-92.04305300727448,14989.504487500004,139.85208966462986,-0.0014257043887012,0.0016794284699676,,13817.683391404704,16277.165501477106,150,9,2025-09-12,2025-09-26 20:04:44.819,HH,C,3626520672,HAWK11,1,1,73,2,1,1,225,2,1,0,0,12,1,225,2,1,-151172.01599295562,-4790651.819307174,4201412.263151646,-3.13201,1.67003,-0.911472,-6.25,66.5,78.375,0.171875,-7.10938,7.35938,-0.0371094,0.015625,0.00585938,4,0,41.42740099194351,-91.80740442341224,16274.81832992672,-4.592314769852257,3.876112921331083,6.173260475739896,171.611,13817.683391404704,16277.165501477106,150,True,17.044807739740133,False,144.60082070944011,178.26800271823086,False,33.79035534956482,False,False
9,1970-07-23 10:31:14.861155530,2025-09-12,2025-09-26 20:04:46.115,HH,C,1965482008,JASSM,3,103,76,2,2,1,225,9,2,0,1,26,0,0,0,0,-170214.19983084625,-4773329.756807174,4219641.058073521,-2.51429,-0.702947,0.607936,60.375,-51.125,-55.0,0.0,0.0,0.0,0.0,0.0,0.0,2,0,41.64963297812659,-92.04226926389396,14989.501123909862,139.85261052349915,-0.0005153404152936,0.0016776777718532,,13817.683391404704,16277.165501477106,150,9,2025-09-12,2025-09-26 20:04:46.021,HH,C,3628031804,HAWK11,1,1,73,2,1,1,225,2,1,0,0,12,1,225,2,1,-151179.14685233062,-4790566.828096236,4201512.411589146,3.11168,1.65315,-0.913581,-4.875,66.5,79.0,-0.140625,-6.96875,7.4375,-0.0410156,0.0078125,0.00195312,4,0,41.42858094288592,-91.8075216690962,16283.811124351743,-3.9909724934241697,3.943389460835962,3.1863042830389405,170.34,13817.683391404704,16277.165501477106,150,True,16.93150923414175,False,143.81151267261794,178.38640557106976,False,34.71252205305745,False,False
9,1970-07-23 10:31:14.872153649,2025-09-12,2025-09-26 20:04:47.215,HH,C,1966734704,JASSM,3,103,76,2,2,1,225,9,2,0,1,26,0,0,0,0,-170150.74109061187,-4773383.536104049,4219583.171354771,-2.51429,-0.702947,0.607936,60.375,-51.125,-55.0,0.0,0.0,0.0,0.0,0.0,0.0,2,0,41.64893597499303,-92.04148553448226,14989.503021797444,139.85313136593322,0.0003950250391522,0.0016759287476881,,13817.683391404704,16277.165501477106,150,9,2025-09-12,2025-09-26 20:04:47.209,HH,C,3629224802,HAWK11,1,1,73,2,1,1,225,2,1,0,0,12,1,225,2,1,-151183.58825858062,-4790500.285127486,4201591.638151646,3.08905,1.63369,-0.919238,-4.25,66.375,79.5,-0.0625,-7.01562,7.45312,-0.0292969,0.0,-0.00195312,4,0,41.42951049356844,-91.80759982767906,16292.54192640744,-3.287256700398506,4.214368966676666,1.0552134386618703,169.815,13817.683391404704,16277.165501477106,150,True,16.831139494842137,False,143.44379321536678,178.47970266958706,False,35.18838893974519,False,False
9,1970-07-23 10:31:14.882134778,2025-09-12,2025-09-26 20:04:48.213,HH,C,1967927752,JASSM,3,103,76,2,2,1,225,9,2,0,1,26,0,0,0,0,-170090.30407889312,-4773434.750947799,4219528.042448521,-2.51429,-0.702947,0.608032,60.375,-51.125,-55.0,0.0,0.0,0.0,0.0,0.0,0.0,2,0,41.64827218733535,-92.04073914134236,14989.50391064526,139.85685054813703,-0.0031840500865467,0.0016742281291037,,13817.683391404704,16277.165501477106,150,9,2025-09-12,2025-09-26 20:04:48.115,HH,C,3630417802,HAWK11,1,1,73,2,1,1,225,2,1,0,0,12,1,225,2,1,-151187.61755545562,-4790434.109346236,4201671.280729771,3.05435,1.63426,-0.923936,-4.0,66.0,79.875,-0.015625,-7.01562,7.5,-0.0449219,0.00976562,0.0,4,0,41.43044074199932,-91.80767292584808,16303.052201323178,-3.2880361107635365,4.485200294736145,-0.9071169565631332,169.24,13817.683391404704,16277.165501477106,150,True,16.733532617060963,False,143.28378127593214,178.57302970701323,False,35.46033469664109,False,False
9,1970-07-23 10:31:14.892154411,2025-09-12,2025-09-26 20:04:49.215,HH,C,1969180452,JASSM,3,103,76,2,2,1,225,9,2,0,1,26,0,0,0,0,-170026.84509451812,-4773488.528291549,4219470.151823521,-2.51429,-0.702851,0.608032,60.375,-51.125,-55.0,0.0,0.0,0.0,0.0,0.0,0.0,2,0,41.647575159065084,-92.0399554428232,14989.502799236396,139.85371994295852,-0.0049209027364648,-0.0014662193585469,,13817.683391404704,16277.165501477106,150,9,2025-09-12,2025-09-26 20:04:49.411,HH,C,3632008466,HAWK11,1,1,73,2,1,1,225,2,1,0,0,12,1,225,2,1,-151192.57458670562,-4790347.055635299,4201777.392057896,3.00344,1.64021,-0.932564,-4.125,65.375,80.5,-0.140625,-6.96875,7.35938,-0.0175781,-0.00585938,-0.0117188,4,0,41.43167359252087,-91.80776498484884,16319.77398855538,-3.4558121288457757,4.994500240175344,-3.565182068290006,168.971,13817.683391404704,16277.165501477106,150,True,16.61869566545519,False,143.3110388892986,178.69615793532938,False,35.58761962558511,False,False
9,1970-07-23 10:31:14.903195124,2025-09-12,2025-09-26 20:04:50.319,HH,C,1970492804,JASSM,3,103,76,2,2,1,225,9,2,0,1,26,0,0,0,0,-169960.3643816275,-4773544.862275924,4219409.507292271,-2.51419,-0.702851,0.608032,60.375,-51.125,-55.0,0.0,0.0,0.0,0.0,0.0,0.0,2,0,41.64684497689025,-92.03913444676638,14989.503141421066,139.85426552958558,-0.0039672085499735,0.0040370913111859,,13817.683391404704,16277.165501477106,150,9,2025-09-12,2025-09-26 20:04:50.414,HH,C,3633201464,HAWK11,1,1,73,2,1,1,225,2,1,0,0,12,1,225,2,1,-151196.80700858062,-4790281.625947799,4201857.581511021,2.98925,1.65306,-0.929209,-4.375,65.375,80.375,-0.09375,-6.73438,7.03125,0.0,0.0078125,-0.0078125,4,0,41.43260304914108,-91.80784023336476,16333.33447127608,-3.911146282758774,4.839247727456651,-3.826748006626617,168.446,13817.683391404704,16277.165501477106,150,True,16.516007202602946,False,143.45444085527458,178.78487366738128,False,35.55233583887366,False,False
9,1970-07-23 10:31:14.914190442,2025-09-12,2025-09-26 20:04:51.419,HH,C,1971805146,JASSM,3,103,76,2,2,1,225,9,2,0,1,26,0,0,0,0,-169893.8839128775,-4773601.196260299,4219348.858854771,-2.51419,-0.702851,0.608032,60.375,-51.125,-55.0,0.0,0.0,0.0,0.0,0.0,0.0,2,0,41.64611476244436,-92.03831347217589,14989.5007861007,139.8548110940998,-0.0030134955370461,0.0040352508381054,,13817.683391404704,16277.165501477106,150,9,2025-09-12,2025-09-26 20:04:51.619,HH,C,3634712596,HAWK11,1,1,73,2,1,1,225,2,1,0,0,12,1,225,2,1,-151202.81286795562,-4790198.210908736,4201959.581511021,2.97506,1.66082,-0.930647,-5.0,65.375,80.375,0.0,-6.8125,7.20312,0.0,0.00195312,0.0,4,0,41.43378631399669,-91.8079434585058,16350.1741602131,-4.169865419869808,4.9460162028717,-4.305138955619038,167.725,13817.683391404704,16277.165501477106,150,True,16.400755394572418,False,143.79807132310867,178.89454239656362,False,35.34965659212782,False,False
9,1970-07-23 10:31:14.927111871,2025-09-12,2025-09-26 20:04:52.711,HH,C,1972938542,JASSM,3,103,76,2,2,1,225,9,2,0,1,26,0,0,0,0,-169836.4687517447,-4773649.848604049,4219296.479948521,-2.51419,-0.702851,0.608032,60.375,-51.125,-55.0,0.0,0.0,0.0,0.0,0.0,0.0,2,0,41.64548411158063,-92.0376044609444,14989.502503559805,139.855282248977,-0.0021898280960644,0.0040336587440166,,13817.683391404704,16277.165501477106,150,9,2025-09-12,2025-09-26 20:04:52.524,HH,C,3635746528,HAWK11,1,1,73,2,1,1,225,2,1,0,0,12,1,225,2,1,-151207.44958670562,-4790142.185518111,4202028.376432896,2.96892,1.66907,-0.932948,-5.5,65.25,80.25,0.0,-6.6875,7.07812,0.00976562,-0.0078125,-0.0078125,4,0,41.43458287070947,-91.80801999558328,16362.159432568964,-4.438995148815939,5.104646409659489,-4.301074008275196,167.151,13817.683391404704,16277.165501477106,150,True,16.312142214882666,False,144.07707556537292,178.96340543205704,False,35.16567272801595,False,False
9,1970-07-23 10:31:14.934353712,2025-09-12,2025-09-26 20:04:53.435,HH,C,1974012282,JASSM,3,103,76,2,2,1,225,9,2,0,1,26,0,0,0,0,-169782.0761736197,-4773695.936494674,4219246.858854771,-2.51419,-0.702851,0.608032,60.375,-51.125,-55.0,0.0,0.0,0.0,0.0,0.0,0.0,2,0,41.64488667825107,-92.03693278925012,14989.501105634796,139.85572858544032,-0.0014095390369353,0.0040321634860816,,13817.683391404704,16277.165501477106,150,9,2025-09-12,2025-09-26 20:04:53.713,HH,C,3637217894,HAWK11,1,1,73,2,1,1,225,2,1,0,0,12,1,225,2,1,-151214.84997733062,-4790061.191377486,4202127.630339146,2.96173,1.67971,-0.93151,-6.125,65.375,80.125,0.15625,-6.625,7.09375,0.00195312,0.00390625,-0.00390625,4,0,41.43573294074282,-91.80813897754228,16379.111598204689,-4.810447549872334,5.060682205266998,-4.256371319954652,166.295,13817.683391404704,16277.165501477106,150,True,16.208540906455713,False,144.4299604175654,179.05700834441325,False,34.94912490850317,False,False
9,1970-07-23 10:31:14.943189711,2025-09-12,2025-09-26 20:04:54.318,HH,C,1975264990,JASSM,3,103,76,2,2,1,225,9,2,0,1,26,0,0,0,0,-169718.61584647125,-4773749.707979049,4219188.964323521,-2.51419,-0.702851,0.608032,60.375,-51.125,-55.0,0.0,0.0,0.0,0.0,0.0,0.0,2,0,41.64418963265281,-92.03614915918408,14989.502664176283,139.85624931337165,-0.0004991610749309,0.0040304128560643,,13817.683391404704,16277.165501477106,150,9,2025-09-12,2025-09-26 20:04:54.118,HH,C,3637655326,HAWK11,1,1,73,2,1,1,225,2,1,0,0,12,1,225,2,1,-151217.12536795562,-4790037.636689986,4202156.438932896,2.9602,1.68259,-0.932085,-6.25,65.375,80.125,-0.015625,-6.70312,7.125,0.00976562,0.00390625,-0.0175781,4,0,41.43606699977919,-91.808175052908,16383.930333540502,-4.905061172514144,5.104251598365903,-4.220360266276327,166.063,13817.683391404704,16277.165501477106,150,True,16.137454635746252,False,144.49871198829638,179.07991921983793,False,34.91927053224578,False,False
9,1970-07-23 10:31:14.958689019,2025-09-12,2025-09-26 20:04:55.868,HH,C,1976636992,JASSM,3,103,76,2,2,1,225,9,2,0,1,26,0,0,0,0,-169649.11303885406,-4773808.596650924,4219125.554167271,-2.51419,-0.702851,0.608128,60.375,-51.125,-55.0,0.0,0.0,0.0,0.0,0.0,0.0,2,0,41.6434262060768,-92.035290935033,14989.496924851848,139.86004500947797,-0.0039507516725609,0.0040283948088111,,13817.683391404704,16277.165501477106,150,9,2025-09-12,2025-09-26 20:04:55.915,HH,C,3639802724,HAWK11,1,1,73,2,1,1,225,2,1,0,0,12,1,225,2,1,-151229.19372733062,-4789918.132783736,4202298.112761021,2.96097,1.68719,-0.899776,-6.875,67.375,78.5,0.171875,-5.67188,6.03125,0.00390625,-0.00390625,-0.0117188,4,0,41.43773148144317,-91.80836435010325,16398.69025283248,-5.267764644474993,3.283298877337951,-3.993785776701276,165.024,13817.683391404704,16277.165501477106,150,True,15.995154248429456,False,144.94139316690212,179.19299916932854,False,34.64804061236026,False,False
9,1970-07-23 10:31:14.989594516,2025-09-12,2025-09-26 20:04:58.959,HH,C,1977889690,JASSM,3,103,76,2,2,1,225,9,2,0,1,26,0,0,0,0,-169585.65381033844,-4773862.364229049,4219067.659636021,-2.51419,-0.702851,0.608128,60.375,-51.125,-55.0,0.0,0.0,0.0,0.0,0.0,0.0,2,0,41.64272917221463,-92.03450735518972,14989.50007674026,139.86056568918403,-0.0030403981913877,0.0040267017833243,,13817.683391404704,16277.165501477106,150,9,2025-09-12,2025-09-26 20:04:58.915,HH,C,3643461254,HAWK11,1,1,73,2,1,1,225,2,1,0,0,12,1,225,2,1,-151253.38513358062,-4789705.970674361,4202534.653776646,2.94371,1.70416,-0.883861,-8.375,70.125,77.0,0.0625,-6.40625,6.8125,0.0078125,0.0078125,-0.00976562,4,0,41.44058496743904,-91.80873349520418,16392.623865125835,-5.981940644652613,2.4519820528454,-4.261605393078361,165.391,13817.683391404704,16277.165501477106,150,True,15.798263110623905,False,145.79359163267193,179.3098610214465,False,34.10793947179943,False,False
9,1970-07-23 10:31:15.003790651,2025-09-12,2025-09-26 20:05:00.379,HH,C,1979142390,JASSM,3,103,76,2,2,1,225,9,2,0,1,26,0,0,0,0,-169522.1945818228,-4773916.129854049,4219009.765104771,-2.51419,-0.702755,0.608128,60.375,-51.125,-55.0,0.0,0.0,0.0,0.0,0.0,0.0,2,0,41.642032144596,-92.03372379306704,14989.503725624336,139.8574375952023,-0.0047756633203296,0.0008877836068679,,13817.683391404704,16277.165501477106,150,9,2025-09-12,2025-09-26 20:05:00.323,HH,C,3645012152,HAWK11,1,1,73,2,1,1,225,2,1,0,0,12,1,225,2,1,-151264.93982108062,-4789613.891572799,4202635.745573521,2.92904,1.72141,-0.880697,-9.125,70.5,77.5,0.03125,-6.6875,7.03125,-0.00976562,0.0078125,0.0,4,0,41.44181261771835,-91.80890632983268,16386.68477183636,-6.62906526804059,2.3548755249475155,-4.365676982818703,165.794,13817.683391404704,16277.165501477106,150,True,15.682251283181165,False,146.17320684521482,179.31118330947655,False,33.879514953960346,False,False
9,1970-07-23 10:31:15.008029076,2025-09-12,2025-09-26 20:05:00.802,HH,C,1981707438,JASSM,3,103,76,2,2,1,225,9,2,0,1,26,0,0,0,0,-169392.2541521353,-4774026.219697799,4218891.210417271,-2.51419,-0.702755,0.608128,60.375,-51.0,-55.0,0.0,0.0,0.0,0.0,0.0,0.0,2,0,41.64060483188047,-92.03211940849184,14989.504509979466,139.8585036533379,-0.002911587398152,0.0008841813732424,,13817.683391404704,16277.165501477106,150,9,2025-09-12,2025-09-26 20:05:00.618,HH,C,3645449586,HAWK11,1,1,73,2,1,1,225,2,1,0,0,12,1,225,2,1,-151268.14294608062,-4789588.582002486,4202663.507292271,2.92799,1.72084,-0.881464,-9.25,70.5,77.625,0.1875,-6.67188,6.98438,0.0,-0.00390625,0.00390625,4,0,41.4421498844326,-91.80895416168516,16385.001498310037,-6.602333817974426,2.3959039068839854,-4.450413715785511,165.88,13817.683391404704,16277.165501477106,150,True,15.553673621627905,False,146.2052576342299,179.24965623995465,False,33.86031066706867,False,False
9,1970-07-23 10:31:15.008889121,2025-09-12,2025-09-26 20:05:00.888,HH,C,1980395088,JASSM,3,103,76,2,2,1,225,9,2,0,1,26,0,0,0,0,-169458.7353533072,-4773969.895479049,4218951.866667271,-2.51419,-0.702755,0.608128,60.375,-51.125,-55.0,0.0,0.0,0.0,0.0,0.0,0.0,2,0,41.64133508528734,-92.03294024783268,14989.50414143788,139.85795823769357,-0.0038652989714521,0.0008860226607125,,13817.683391404704,16277.165501477106,150,9,2025-09-12,2025-09-26 20:05:01.024,HH,C,3645966552,HAWK11,1,1,73,2,1,1,225,2,1,0,0,12,1,225,2,1,-151272.35974295562,-4789557.472627486,4202697.610807896,2.93086,1.72055,-0.881368,-9.5,70.625,77.625,-0.015625,-6.73438,7.04688,0.0117188,0.0175781,-0.00390625,4,0,41.442564250412815,-91.809016297268,16382.91193485143,-6.592723671426522,2.3894604996863915,-4.297930919078978,165.745,13817.683391404704,16277.165501477106,150,True,15.590003568547164,False,146.36805426957076,179.2949117525657,False,33.77752367813639,False,False
9,1970-07-23 10:31:15.011247590,2025-09-12,2025-09-26 20:05:01.124,HH,C,1982960138,JASSM,3,103,76,2,2,1,225,9,2,0,1,26,0,0,0,0,-169328.79480154935,-4774079.983369674,4218833.308073521,-2.51419,-0.702755,0.608128,60.375,-51.0,-55.0,0.0,0.0,0.0,0.0,0.0,0.0,2,0,41.63990774689254,-92.03133589720449,14989.502431073694,139.85902425862892,-0.0020012113798057,0.000882411331343,,13817.683391404704,16277.165501477106,150,9,2025-09-12,2025-09-26 20:05:01.024,HH,C,3645966552,HAWK11,1,1,73,2,1,1,225,2,1,0,0,12,1,225,2,1,-151272.35974295562,-4789557.472627486,4202697.610807896,2.93086,1.72055,-0.881368,-9.5,70.625,77.625,-0.015625,-6.73438,7.04688,0.0117188,0.0175781,-0.00390625,4,0,41.442564250412815,-91.809016297268,16382.91193485143,-6.592723671426522,2.3894604996863915,-4.297930919078978,165.745,13817.683391404704,16277.165501477106,150,True,15.478300890635953,False,146.3373349798449,179.24058685742148,False,33.77884377959211,False,False
9,1970-07-23 10:31:15.021555360,2025-09-12,2025-09-26 20:05:02.155,HH,C,1984212838,JASSM,3,103,76,2,2,1,225,9,2,0,1,26,0,0,0,0,-169265.33532889312,-4774133.743135299,4218775.405729771,-2.51419,-0.702755,0.608128,60.375,-51.0,-55.0,0.0,0.0,0.0,0.0,0.0,0.0,2,0,41.6392106798426,-92.03055240300088,14989.496052717728,139.8595448454163,-0.001090853205872,0.000880656206985,,13817.683391404704,16277.165501477106,150,9,2025-09-12,2025-09-26 20:05:02.524,HH,C,3647676516,HAWK11,1,1,73,2,1,1,225,2,1,0,0,12,1,225,2,1,-151286.53943045562,-4789456.119111861,4202809.222136021,2.94764,1.72621,-0.882039,-10.25,71.0,78.125,0.09375,-6.82812,7.26562,0.00976562,-0.00195312,-0.00390625,4,0,41.44391755304044,-91.809224014975,16377.238394758317,-6.79187657321731,2.457221326246647,-3.0949067974770874,165.892,13817.683391404704,16277.165501477106,150,True,15.35570162536899,False,146.7100599311533,179.19295305214126,False,33.57607097908771,False,False
9,1970-07-23 10:31:15.034490540,2025-09-12,2025-09-26 20:05:03.449,HH,C,1985525188,JASSM,3,103,76,2,2,1,225,9,2,0,1,26,0,0,0,0,-169198.85400565094,-4774190.063447799,4218714.749479771,-2.51419,-0.702755,0.608128,60.375,-51.0,-55.0,0.0,0.0,0.0,0.0,0.0,0.0,2,0,41.63848043247851,-92.02973161777145,14989.50370533568,139.86009020227283,-0.0001371592349801,0.0008788297685374,,13817.683391404704,16277.165501477106,150,9,2025-09-12,2025-09-26 20:05:03.353,HH,C,3648153716,HAWK11,1,1,73,2,1,1,225,2,1,0,0,12,1,225,2,1,-151290.63903983062,-4789428.221650924,4202839.993620396,2.94467,1.73033,-0.883189,-10.375,71.125,78.125,0.0,-6.90625,7.28125,0.00195312,0.0,0.0,4,0,41.44429035240959,-91.80928354095026,16375.80391741084,-6.93127476588955,2.544009644003389,-3.088821200309296,166.026,13817.683391404704,16277.165501477106,150,True,15.279764598330255,False,146.77349528100257,179.1718004479489,False,33.55930258527135,False,False
