Subject_cm,Timestamp,SampleDate_cm,SampleTime_cm,Configuration_cm,Scenario_cm,DisTime_cm,MarkingTxt_cm,Application_cm,EntId_cm,Site_cm,ExerciseId_cm,ForceId_cm,Category_cm,Country_cm,Domain_cm,Kind_cm,Extra_cm,Specific_cm,Subcategory_cm,AltCategory_cm,AltCountry_cm,AltDomain_cm,AltKind_cm,ECEF_X_cm,ECEF_Y_cm,ECEF_Z_cm,OriPhi_cm,OriPsi_cm,OriTheta_cm,LinVelX_cm,LinVelY_cm,LinVelZ_cm,LinAccX_cm,LinAccY_cm,LinAccZ_cm,AngVelX_cm,AngVelY_cm,AngVelZ_cm,DrAlg_cm,Appearance_cm,Latitude_cm,Longitude_cm,Altitude_cm,Heading_cm,Pitch_cm,Roll_cm,CalibratedAirspeed_cm,CM_Altitude_Lead_cm,CM_Altitude_Wing_cm,CM_Airspeed_cm,Subject_ac,SampleDate_ac,SampleTime_ac,Configuration_ac,Scenario_ac,DisTime_ac,MarkingTxt_ac,Application_ac,EntId_ac,Site_ac,ExerciseId_ac,ForceId_ac,Category_ac,Country_ac,Domain_ac,Kind_ac,Extra_ac,Specific_ac,Subcategory_ac,AltCategory_ac,AltCountry_ac,AltDomain_ac,AltKind_ac,ECEF_X_ac,ECEF_Y_ac,ECEF_Z_ac,OriPhi_ac,OriPsi_ac,OriTheta_ac,LinVelX_ac,LinVelY_ac,LinVelZ_ac,LinAccX_ac,LinAccY_ac,LinAccZ_ac,AngVelX_ac,AngVelY_ac,AngVelZ_ac,DrAlg_ac,Appearance_ac,Latitude_ac,Longitude_ac,Altitude_ac,Heading_ac,Pitch_ac,Roll_ac,CalibratedAirspeed_ac,CM_Altitude_Lead_ac,CM_Altitude_Wing_ac,CM_Airspeed_ac,Bank_Angle_Condition,distance_nm,Distance_Condition,angle_between_vel,angle_between_pos,Cone_Condition,angle_between_pos_nose,Nose_Cone_Condition,Intercept_Criteria
9,1970-07-23 10:31:21.546256474,2025-09-12,2025-09-26 20:15:54.625,HA,C,2763033574,JASSM,3,116,76,2,2,1,225,9,2,0,1,26,0,0,0,0,-180618.09900076807,-4779350.797822799,4212893.690886021,-2.36693,-0.400848,0.381002,84.75,-35.75,-36.75,0.0,0.0,0.0,0.0,0.0,0.0,2,0,41.56601430913753,-92.16425469287886,15986.878694539118,119.79876418779703,-0.0028869123066992,0.0045529717319102,,14957.496266617703,17020.816047025746,150,9,2025-09-12,2025-09-26 20:15:54.621,HA,C,810838254,AMBUSH51,1,1,48,2,1,1,225,2,1,0,0,9,1,225,2,1,-143489.90326228764,-4795558.981119788,4195507.946046276,2.32303,2.85707,-0.289567,-96.8626,31.3068,30.9737,-0.0875247,-7.21022,6.48434,0.00652371,-7.28208e-06,0.0110719,4,0,41.35977299742154,-91.7138593653482,14957.170734149531,-68.04803196124317,0.429920456785848,-0.315037579709399,172.564,14957.496266617703,17020.816047025746,150,True,23.705118476980083,False,173.25809525116918,178.40938561958814,False,8.250507612916923,True,False
9,1970-07-23 10:31:21.557960215,2025-09-12,2025-09-26 20:15:55.796,HA,C,2764286272,JASSM,3,116,76,2,2,1,225,9,2,0,1,26,0,0,0,0,-180529.12829764312,-4779388.514619674,4212854.976042271,-2.36693,-0.400848,0.381098,84.75,-35.75,-36.75,0.0,0.0,0.0,0.0,0.0,0.0,2,0,41.56554877542961,-92.16317256059524,15986.877466879929,119.80332418119303,-0.0058790257949542,0.0045510934562421,,14957.496266617703,17020.816047025746,150,9,2025-09-12,2025-09-26 20:15:55.621,HA,C,812031252,AMBUSH51,1,1,48,2,1,1,225,2,1,0,0,9,1,225,2,1,-143586.7999262448,-4795527.589675265,4195538.883293524,2.32664,2.85653,-0.289794,-96.9783,31.4163,31.0324,-0.0391785,-7.1337,6.55018,0.00144081,-0.000650186,0.00129933,4,0,41.36015124721345,-91.71502723870591,14954.11238847638,-68.01891840029539,0.4182591205069282,-0.1167245975604848,172.87,14957.496266617703,17020.816047025746,150,True,23.592664172012135,False,173.28890399814748,178.38667283372754,False,8.244553761142873,True,False
9,1970-07-23 10:31:21.568340894,2025-09-12,2025-09-26 20:15:56.834,HA,C,2765538972,JASSM,3,116,76,2,2,1,225,9,2,0,1,26,0,0,0,0,-180440.15759451807,-4779426.229463424,4212816.261198521,-2.36693,-0.400848,0.381098,84.75,-35.75,-36.75,0.0,0.0,0.0,0.0,0.0,0.0,2,0,41.565083243150426,-92.1620904447296,15986.877015475684,119.80404213644393,-0.0049450915709342,0.00454955013444,,14957.496266617703,17020.816047025746,150,9,2025-09-12,2025-09-26 20:15:56.887,HA,C,813542384,AMBUSH51,1,1,48,2,1,1,225,2,1,0,0,9,1,225,2,1,-143709.02098495516,-4795487.922873861,4195577.766538705,2.32945,2.85478,-0.287325,-97.1145,31.5902,31.0351,-0.173649,-7.16738,6.66371,-0.00364208,-0.00186317,-0.00346939,4,0,41.36062781712178,-91.71650038640084,14949.785492772307,-68.05642076717736,0.2522990885357439,0.01571793438659,173.078,14957.496266617703,17020.816047025746,150,True,23.465446480484392,False,173.31381613203908,178.358525119778,False,8.253084577587073,True,False
9,1970-07-23 10:31:21.579160630,2025-09-12,2025-09-26 20:15:57.916,HA,C,2766851322,JASSM,3,116,76,2,2,1,225,9,2,0,1,26,0,0,0,0,-180346.95056326807,-4779465.741182174,4212775.698698521,-2.36693,-0.400848,0.381098,84.75,-35.75,-36.75,0.0,0.0,0.0,0.0,0.0,0.0,2,0,41.56459549852613,-92.16095682023251,15986.875921874393,119.80479425922864,-0.0039666703348313,0.004547902983904,,14957.496266617703,17020.816047025746,150,9,2025-09-12,2025-09-26 20:15:57.887,HA,C,814735384,AMBUSH51,1,1,48,2,1,1,225,2,1,0,0,9,1,225,2,1,-143806.21373251884,-4795455.940329952,4195609.031494048,2.33684,2.85275,-0.285681,-97.2459,31.8827,31.2011,-0.0465319,-7.15313,6.56579,-0.00347147,-0.000754216,-0.00155108,4,0,41.36101171353507,-91.71767203713244,14946.017714323549,-68.04910638859312,0.1078000409478023,0.40591466977243,173.298,14957.496266617703,17020.816047025746,150,True,23.350015056953684,False,173.43738246267006,178.33547493730987,False,8.157236222517913,True,False
9,1970-07-23 10:31:21.589199042,2025-09-12,2025-09-26 20:15:58.919,HA,C,2768044368,JASSM,3,116,76,2,2,1,225,9,2,0,1,26,0,0,0,0,-180262.21618826807,-4779501.657197799,4212738.823698521,-2.36693,-0.400848,0.381098,84.75,-35.75,-36.75,0.0,0.0,0.0,0.0,0.0,0.0,2,0,41.56415210698888,-92.1599262604852,15986.871017617555,119.8054779956308,-0.0030772031193402,0.0045464275055687,,14957.496266617703,17020.816047025746,150,9,2025-09-12,2025-09-26 20:15:58.887,HA,C,815928382,AMBUSH51,1,1,48,2,1,1,225,2,1,0,0,9,1,225,2,1,-143903.53318960473,-4795424.007079545,4195640.1060684025,2.3396,2.85405,-0.283385,-97.3777,32.0704,31.274,-0.0947338,-7.0373,6.38598,3.43298e-05,-0.00617625,-0.00957594,4,0,41.3613939968968,-91.7188451969622,14941.973755505296,-68.19417706973462,0.0697486190333873,0.5850454817881451,173.554,14957.496266617703,17020.816047025746,150,True,23.239902860514476,False,173.49268481864388,178.3122359787912,False,8.128956097389997,True,False
9,1970-07-23 10:31:21.601158003,2025-09-12,2025-09-26 20:16:00.115,HA,C,2769356720,JASSM,3,116,76,2,2,1,225,9,2,0,1,26,0,0,0,0,-180169.00915701807,-4779541.165010299,4212698.261198521,-2.36693,-0.400848,0.381098,84.75,-35.75,-36.75,0.0,0.0,0.0,0.0,0.0,0.0,2,0,41.56366436424978,-92.15879267030132,15986.872006631442,119.8062300818114,-0.0020987944507824,0.0045447998243594,,14957.496266617703,17020.816047025746,150,9,2025-09-12,2025-09-26 20:16:00.155,HA,C,817439514,AMBUSH51,1,1,48,2,1,1,225,2,1,0,0,9,1,225,2,1,-144026.88426587253,-4795383.320423342,4195680.065005676,2.34031,2.85199,-0.285374,-97.563,30.3173,33.2534,-0.339409,-7.39977,6.70902,-0.0042725,0.00238748,0.00281192,4,0,41.36188364206663,-91.720332257228,14937.576331675382,-68.03470348481477,0.0673681499166315,0.592624284381235,173.982,14957.496266617703,17020.816047025746,150,True,23.10909282745168,False,173.53055107803468,178.28377416714352,False,7.9980104906389,True,False
9,1970-07-23 10:31:21.616784390,2025-09-12,2025-09-26 20:16:01.678,HA,C,2770609418,JASSM,3,116,76,2,2,1,225,9,2,0,1,26,0,0,0,0,-180080.03845389312,-4779578.875947799,4212659.542448521,-2.36693,-0.400752,0.381098,84.75,-35.75,-36.75,0.0,0.0,0.0,0.0,0.0,0.0,2,0,41.56319878760611,-92.15771061907826,15986.876004254278,119.80330364580112,-0.0047313064427369,0.0025003059542168,,14957.496266617703,17020.816047025746,150,9,2025-09-12,2025-09-26 20:16:01.887,HA,C,819507378,AMBUSH51,1,1,48,2,1,1,225,2,1,0,0,9,1,225,2,1,-144195.93886133278,-4795326.3547177175,4195734.885026359,2.35163,2.85089,-0.28528,-97.6405,32.7416,32.0467,-0.150026,-7.36023,6.76719,-0.00465325,0.00360463,-6.76193e-05,4,0,41.36256220902611,-91.7223707661891,14928.722278966765,-67.9981944045978,0.0213146343907122,1.2232977040939916,174.544,14957.496266617703,17020.816047025746,150,True,22.953925242795005,False,173.92886710708328,178.24644562660455,False,7.761342387466269,True,False
9,1970-07-23 10:31:21.620340323,2025-09-12,2025-09-26 20:16:02.034,HA,C,2771862116,JASSM,3,116,76,2,2,1,225,9,2,0,1,26,0,0,0,0,-179991.06775076812,-4779616.586885299,4212620.819792271,-2.36693,-0.400752,0.381098,84.75,-35.75,-36.75,0.0,0.0,0.0,0.0,0.0,0.0,2,0,41.56273317444704,-92.15662858339002,15986.877066548706,119.80402151462586,-0.0037973585237356,0.0024986769334666,,14957.496266617703,17020.816047025746,150,9,2025-09-12,2025-09-26 20:16:01.887,HA,C,819507378,AMBUSH51,1,1,48,2,1,1,225,2,1,0,0,9,1,225,2,1,-144195.93886133278,-4795326.3547177175,4195734.885026359,2.35163,2.85089,-0.28528,-97.6405,32.7416,32.0467,-0.150026,-7.36023,6.76719,-0.00465325,0.00360463,-6.76193e-05,4,0,41.36256220902611,-91.7223707661891,14928.722278966765,-67.9981944045978,0.0213146343907122,1.2232977040939916,174.544,14957.496266617703,17020.816047025746,150,True,22.898033569120532,False,173.92886710708328,178.2423845756449,False,7.765256116795744,True,False
9,1970-07-23 10:31:21.631300410,2025-09-12,2025-09-26 20:16:03.130,HA,C,2773114816,JASSM,3,116,76,2,2,1,225,9,2,0,1,26,0,0,0,0,-179902.09704764312,-4779654.293916549,4212582.097136021,-2.36693,-0.400752,0.381098,84.75,-35.75,-36.75,0.0,0.0,0.0,0.0,0.0,0.0,2,0,41.56226757436772,-92.15554656499704,15986.8741137305,119.80473936536936,-0.0028634232527244,0.002497067431233,,14957.496266617703,17020.816047025746,150,9,2025-09-12,2025-09-26 20:16:03.287,HA,C,821177576,AMBUSH51,1,1,48,2,1,1,225,2,1,0,0,9,1,225,2,1,-144332.23046217352,-4795280.342090195,4195779.841839593,2.35957,2.85295,-0.289831,-97.5536,32.9781,32.47,-0.261177,-7.42351,6.76099,0.0122786,0.00263299,-0.00553542,4,0,41.36311489862111,-91.72401427286115,14923.033036539266,-67.88803118660003,0.2842192453127423,1.7118603874055822,175.094,14957.496266617703,17020.816047025746,150,True,22.761932349372284,False,174.1786994045556,178.21187625003225,False,7.54402316089828,True,False
9,1970-07-23 10:31:21.641316347,2025-09-12,2025-09-26 20:16:04.131,HA,C,2774367516,JASSM,3,116,76,2,2,1,225,9,2,0,1,26,0,0,0,0,-179813.12536795562,-4779692.000947799,4212543.374479771,-2.36693,-0.400752,0.381194,84.75,-35.75,-36.75,0.0,0.0,0.0,0.0,0.0,0.0,2,0,41.56180196428827,-92.15446455044818,15986.876637963089,119.80929936858078,-0.0058553964567418,0.0024952014020302,,14957.496266617703,17020.816047025746,150,9,2025-09-12,2025-09-26 20:16:04.154,HA,C,822211508,AMBUSH51,1,1,48,2,1,1,225,2,1,0,0,9,1,225,2,1,-144416.71746087866,-4795251.624085485,4195808.105149192,2.36638,2.85272,-0.289949,-97.5406,32.9908,32.9803,-0.15939,-7.40906,6.82224,0.00432452,0.00561032,0.00661525,4,0,41.3634613214905,-91.72503316511911,14919.88820908628,-67.87530869908969,0.2808219353751863,2.0984902066892173,175.265,14957.496266617703,17020.816047025746,150,True,22.656198041440003,False,174.37451452411148,178.19166939509776,False,7.356192315535683,True,False
9,1970-07-23 10:31:21.653236039,2025-09-12,2025-09-26 20:16:05.323,HA,C,2775679866,JASSM,3,116,76,2,2,1,225,9,2,0,1,26,0,0,0,0,-179719.91833670562,-4779731.502900924,4212502.806120396,-2.36693,-0.400752,0.381194,84.75,-35.75,-36.75,0.0,0.0,0.0,0.0,0.0,0.0,2,0,41.5613141630141,-92.1533310450514,15986.87993896395,119.81005136379956,-0.0048769868630293,0.0024935719831517,,14957.496266617703,17020.816047025746,150,9,2025-09-12,2025-09-26 20:16:05.420,HA,C,823722640,AMBUSH51,1,1,48,2,1,1,225,2,1,0,0,9,1,225,2,1,-144539.68010725512,-4795209.625975878,4195849.841116153,2.372,2.85207,-0.29959,-97.3889,33.202,33.5567,-0.0119066,-7.50835,6.88392,0.0100982,0.0122453,0.00891223,4,0,41.36397075164253,-91.72651615663143,14916.126517891003,-67.45083697766262,0.6361957601251572,2.41303139886151,175.522,14957.496266617703,17020.816047025746,150,True,22.524938497017438,False,174.6831624250595,178.16442853428592,False,7.066303110461751,True,False
9,1970-07-23 10:31:21.664315761,2025-09-12,2025-09-26 20:16:06.431,HA,C,2777051870,JASSM,3,116,76,2,2,1,225,9,2,0,1,26,0,0,0,0,-179622.47400076812,-4779772.797822799,4212460.392057896,-2.36693,-0.400752,0.381194,84.75,-35.75,-36.75,0.0,0.0,0.0,0.0,0.0,0.0,2,0,41.56080418110377,-92.15214602863054,15986.879878388258,119.81083752494143,-0.0038541019980177,0.0024918743762944,,14957.496266617703,17020.816047025746,150,9,2025-09-12,2025-09-26 20:16:06.287,HA,C,824756572,AMBUSH51,1,1,48,2,1,1,225,2,1,0,0,9,1,225,2,1,-144624.26618528675,-4795180.588841806,4195879.443315587,2.37756,2.85278,-0.305007,-97.2491,33.1661,34.3377,-0.112748,-7.73704,7.10986,0.00786985,0.00757232,0.00902874,4,0,41.3643280729161,-91.7275363739044,14915.117537009271,-67.2531334009857,0.8788863401173433,2.746044398816566,175.693,14957.496266617703,17020.816047025746,150,True,22.413491731301463,False,174.97333462798767,178.1449080349903,False,6.767563023549973,True,False
9,1970-07-23 10:31:21.675277421,2025-09-12,2025-09-26 20:16:07.527,HA,C,2778423872,JASSM,3,116,76,2,2,1,225,9,2,0,1,26,0,0,0,0,-179525.02868826812,-4779814.090791549,4212417.976042271,-2.36693,-0.400752,0.381194,84.75,-35.75,-36.75,0.0,0.0,0.0,0.0,0.0,0.0,2,0,41.56029418565582,-92.15096102003191,15986.87736354223,119.81162367297108,-0.0028312093865733,0.0024901796272735,,14957.496266617703,17020.816047025746,150,9,2025-09-12,2025-09-26 20:16:07.520,HA,C,826227938,AMBUSH51,1,1,48,2,1,1,225,2,1,0,0,9,1,225,2,1,-144744.5963165445,-4795139.522746112,4195922.542055946,2.37535,2.85459,-0.314295,-96.9606,32.9517,35.4095,-0.248137,-7.67823,7.29439,0.00163431,0.000747974,-0.00345067,4,0,41.36484160661265,-91.72898764299322,14916.425005248791,-66.93573062297472,1.317889949903845,2.6574731459369687,175.693,14957.496266617703,17020.816047025746,150,True,22.280658069217978,False,175.30090415014092,178.11989839665227,False,6.405181747124268,True,False
9,1970-07-23 10:31:21.686234135,2025-09-12,2025-09-26 20:16:08.623,HA,C,2779676572,JASSM,3,116,76,2,2,1,225,9,2,0,1,26,0,0,0,0,-179436.05798514312,-4779851.791963424,4212379.247526646,-2.36693,-0.400752,0.381194,84.75,-35.75,-36.75,0.0,0.0,0.0,0.0,0.0,0.0,2,0,41.55982852755376,-92.149879085643,15986.876444994756,119.8123414334919,-0.001897273088997,0.0024886276393668,,14957.496266617703,17020.816047025746,150,9,2025-09-12,2025-09-26 20:16:08.786,HA,C,827739070,AMBUSH51,1,1,48,2,1,1,225,2,1,0,0,9,1,225,2,1,-144866.40189191932,-4795098.158275366,4195967.640472446,2.37623,2.85642,-0.322748,-96.5538,32.7092,36.4162,-0.131607,-7.6136,6.94776,-0.00143665,0.0126344,0.00401867,4,0,41.365370133797576,-91.73045665607609,14921.452720448808,-66.65340393918846,1.724407848003222,2.7481381393346034,175.399,14957.496266617703,17020.816047025746,150,True,22.15200016348099,False,175.57159330385815,178.0963478558383,False,6.078175447603909,True,False
9,1970-07-23 10:31:21.697234944,2025-09-12,2025-09-26 20:16:09.723,HA,C,2780988922,JASSM,3,116,76,2,2,1,225,9,2,0,1,26,0,0,0,0,-179342.84997733062,-4779891.288057174,4212338.673307896,-2.36693,-0.400657,0.381194,84.75,-35.75,-36.75,0.0,0.0,0.0,0.0,0.0,0.0,2,0,41.5593406766336,-92.14874564016036,15986.877246714408,119.8094493060178,-0.0044852957939931,0.0004435460453641,,14957.496266617703,17020.816047025746,150,9,2025-09-12,2025-09-26 20:16:09.887,HA,C,829051368,AMBUSH51,1,1,48,2,1,1,225,2,1,0,0,9,1,225,2,1,-144972.9142634628,-4795062.048948076,4196007.991644805,2.37272,2.85569,-0.330272,-96.131,32.5086,37.1256,-0.160396,-7.54146,7.01024,-0.00393545,0.0074246,0.00451801,4,0,41.36583809920987,-91.73174122502064,14927.992767878017,-66.3135071929215,1.9927547866801387,2.544405035769217,175.069,14957.496266617703,17020.816047025746,150,True,22.02963573738115,False,175.74229834651354,178.075719181479,False,5.852540652869157,True,False
9,1970-07-23 10:31:21.709958527,2025-09-12,2025-09-26 20:16:10.995,HA,C,2782241622,JASSM,3,116,76,2,2,1,225,9,2,0,1,26,0,0,0,0,-179253.87829764312,-4779928.987275924,4212299.942839146,-2.36693,-0.400657,0.381194,84.75,-35.75,-36.75,0.0,0.0,0.0,0.0,0.0,0.0,2,0,41.55887499632904,-92.14766372676604,15986.878595427204,119.81016703918678,-0.0035513517852028,0.0004419374782774,,14957.496266617703,17020.816047025746,150,9,2025-09-12,2025-09-26 20:16:11.153,HA,C,830562500,AMBUSH51,1,1,48,2,1,1,225,2,1,0,0,9,1,225,2,1,-145093.51870154167,-4795020.951681819,4196054.758360499,2.37727,2.85359,-0.337232,-95.5605,32.4783,37.7595,-0.108974,-7.55618,6.6699,0.00375859,0.00525662,0.0126677,4,0,41.36637648403703,-91.7331958455213,14937.22379531274,-65.9465242839165,2.1855869811503164,2.7794417112916148,174.727,14957.496266617703,17020.816047025746,150,True,21.901219991025652,False,175.97194075672397,178.05424507171367,False,5.5693156647429545,True,False
9,1970-07-23 10:31:21.718295297,2025-09-12,2025-09-26 20:16:11.829,HA,C,2783553972,JASSM,3,116,76,2,2,1,225,9,2,0,1,26,0,0,0,0,-179160.67028983062,-4779968.479463424,4212259.366667271,-2.36693,-0.400657,0.381194,84.75,-35.75,-36.75,0.0,0.0,0.0,0.0,0.0,0.0,2,0,41.5583871336409,-92.1465303163582,15986.877505706423,119.81091892799982,-0.0025729399767711,0.0004402533500885,,14957.496266617703,17020.816047025746,150,9,2025-09-12,2025-09-26 20:16:11.987,HA,C,831556666,AMBUSH51,1,1,48,2,1,1,225,2,1,0,0,9,1,225,2,1,-145172.75375828816,-4794993.686749663,4196086.17139058,2.37871,2.85255,-0.342262,-95.1069,32.666,38.0831,-0.177369,-7.35653,6.82474,-0.00227721,-0.000541995,0.00332999,4,0,41.36673640331423,-91.73415161439468,14944.133987762849,-65.69887116145941,2.3435875765296927,2.85169188808326,174.556,14957.496266617703,17020.816047025746,150,True,21.794820794691773,False,176.20676243153213,178.0390032774049,False,5.315254135200859,True,False
9,1970-07-23 10:31:21.729290699,2025-09-12,2025-09-26 20:16:12.929,HA,C,2784806672,JASSM,3,116,76,2,2,1,225,9,2,0,1,26,0,0,0,0,-179071.69958670562,-4780006.174775924,4212220.634245396,-2.36684,-0.400657,0.38129,84.75,-35.75,-36.75,0.0,0.0,0.0,0.0,0.0,0.0,2,0,41.55792144234663,-92.1454484482117,15986.876509802343,119.81547892017772,-0.0055647875802929,0.0059298788549273,,14957.496266617703,17020.816047025746,150,9,2025-09-12,2025-09-26 20:16:12.820,HA,C,832550832,AMBUSH51,1,1,48,2,1,1,225,2,1,0,0,9,1,225,2,1,-145252.28793060692,-4794966.07676097,4196118.204318047,2.37971,2.84916,-0.343477,-94.669,32.8574,38.404,-0.188683,-7.27358,6.62569,0.00267044,-0.00268917,-0.00218983,4,0,41.36710249736116,-91.73511108885856,14951.565458542784,-65.52294401477256,2.259408656320783,2.850709371891209,174.006,14957.496266617703,17020.816047025746,150,True,21.690747572131386,False,176.4328692168159,178.0244617609597,False,5.064365613859942,True,False
9,1970-07-23 10:31:21.741195492,2025-09-12,2025-09-26 20:16:14.119,HA,C,2786119022,JASSM,3,116,76,2,2,1,225,9,2,0,1,26,0,0,0,0,-178978.49157889312,-4780045.665010299,4212180.054167271,-2.36684,-0.400657,0.38129,84.75,-35.75,-36.75,0.0,0.0,0.0,0.0,0.0,0.0,2,0,41.55743354309367,-92.14431507199964,15986.874069171849,119.81623077224565,-0.0045863687834075,0.0059282472092066,,14957.496266617703,17020.816047025746,150,9,2025-09-12,2025-09-26 20:16:13.987,HA,C,833942662,AMBUSH51,1,1,48,2,1,1,225,2,1,0,0,9,1,225,2,1,-145361.6686362307,-4794927.652864704,4196162.618541017,2.36699,2.84515,-0.344925,-94.1488,33.2398,38.5733,-0.0999675,-7.12514,6.47282,-0.0168226,-0.00515675,-0.00251232,4,0,41.36761108572698,-91.73643080255378,14961.45959260652,-65.31457075735922,2.160897260764111,2.052049329596365,173.566,14957.496266617703,17020.816047025746,150,True,21.56576309448747,False,176.74519928666595,178.00642595475088,False,4.760113541989075,True,False
9,1970-07-23 10:31:21.751355665,2025-09-12,2025-09-26 20:16:15.135,HA,C,2787371722,JASSM,3,116,76,2,2,1,225,9,2,0,1,26,0,0,0,0,-178889.51989920562,-4780083.360322799,4212141.319792271,-2.36684,-0.400657,0.38129,84.75,-35.75,-36.75,0.0,0.0,0.0,0.0,0.0,0.0,2,0,41.556967817949776,-92.14323322396947,15986.880132259224,119.816948435105,-0.0036524240047121,0.0059266978372564,,14957.496266617703,17020.816047025746,150,9,2025-09-12,2025-09-26 20:16:15.220,HA,C,835414028,AMBUSH51,1,1,48,2,1,1,225,2,1,0,0,9,1,225,2,1,-145477.46853025266,-4794886.815775607,4196210.656897094,2.35296,2.84286,-0.348232,-93.836,30.8106,41.1417,0.00986193,-7.04678,6.49505,-0.00734138,0.00486131,0.00513803,4,0,41.36815731623853,-91.73782804419032,14973.760081767728,-65.09309177286178,2.2034129306662185,1.2123126157998223,173.31,14957.496266617703,17020.816047025746,150,True,21.43929292771563,False,175.57429041189624,177.98886007454686,False,5.343526321619346,True,False
9,1970-07-23 10:31:21.762456914,2025-09-12,2025-09-26 20:16:16.245,HA,C,2788684072,JASSM,3,116,76,2,2,1,225,9,2,0,1,26,0,0,0,0,-178796.31189139312,-4780122.846650924,4212100.737761021,-2.36684,-0.400657,0.38129,84.75,-35.75,-36.75,0.0,0.0,0.0,0.0,0.0,0.0,2,0,41.55647990693033,-92.14209988282737,15986.875800050797,119.81770024973828,-0.0026740112271464,0.0059250742501857,,14957.496266617703,17020.816047025746,150,9,2025-09-12,2025-09-26 20:16:16.120,HA,C,836487726,AMBUSH51,1,1,48,2,1,1,225,2,1,0,0,9,1,225,2,1,-145562.30859615398,-4794855.595705039,4196245.137906834,2.34867,2.83742,-0.344829,-93.5033,33.7918,38.7246,-0.0483457,-6.97722,6.62557,-0.00858974,0.00808831,0.00508809,4,0,41.368560409245454,-91.7388522098332,14978.027561149058,-65.03236164238965,1.8575203058394711,0.8626253275536783,173.053,14957.496266617703,17020.816047025746,150,True,21.328921477888766,False,177.16375074813766,177.97396130302567,False,4.375708196996406,True,False
9,1970-07-23 10:31:21.773314119,2025-09-12,2025-09-26 20:16:17.331,HA,C,2790056076,JASSM,3,116,76,2,2,1,225,9,2,0,1,26,0,0,0,0,-178698.86657889312,-4780164.127900924,4212058.311979771,-2.36684,-0.400561,0.38129,84.75,-35.75,-36.75,0.0,0.0,0.0,0.0,0.0,0.0,2,0,41.55596981172587,-92.14091503745868,15986.879900889113,119.81484243688288,-0.0052175576063687,0.0038794903148814,,14957.496266617703,17020.816047025746,150,9,2025-09-12,2025-09-26 20:16:17.321,HA,C,837919326,AMBUSH51,1,1,48,2,1,1,225,2,1,0,0,9,1,225,2,1,-145673.63008018513,-4794815.155942806,4196291.234077173,2.34329,2.83572,-0.345722,-93.2283,33.9694,38.7179,-0.128886,-7.2905,6.7955,-0.0139473,-0.00157605,-0.00486339,4,0,41.36909194193933,-91.74019587985262,14986.775200316622,-64.9329307228375,1.827876425366596,0.5246077040837198,172.76,14957.496266617703,17020.816047025746,150,True,21.199638521114387,False,177.30798578083267,177.95637103397314,False,4.257179736373881,True,False
9,1970-07-23 10:31:21.786517795,2025-09-12,2025-09-26 20:16:18.651,HA,C,2791368426,JASSM,3,116,76,2,2,1,225,9,2,0,1,26,0,0,0,0,-178605.65857108062,-4780203.612275924,4212017.727995396,-2.36684,-0.400561,0.38129,84.75,-35.75,-36.75,0.0,0.0,0.0,0.0,0.0,0.0,2,0,41.5554818762732,-92.13978173205912,15986.879024119766,119.81559421308349,-0.0042391445849397,0.0038778027779195,,14957.496266617703,17020.816047025746,150,9,2025-09-12,2025-09-26 20:16:18.453,HA,C,839271390,AMBUSH51,1,1,48,2,1,1,225,2,1,0,0,9,1,225,2,1,-145779.227992801,-4794776.76626426,4196335.310888354,2.34092,2.83268,-0.344763,-93.0747,33.683,39.144,-0.0767021,-7.35056,6.73516,-0.00598691,-0.00512138,0.00658612,4,0,41.36959867192847,-91.74147049509892,14995.76945331262,-64.85999911988374,1.672486658828663,0.332257179004681,172.674,14957.496266617703,17020.816047025746,150,True,21.076436511002363,False,177.22660949696774,177.93984627825174,False,4.240564549440437,True,False
9,1970-07-23 10:31:21.798415858,2025-09-12,2025-09-26 20:16:19.841,HA,C,2792621126,JASSM,3,116,76,2,2,1,225,9,2,0,1,26,0,0,0,0,-178516.68689139312,-4780241.299775924,4211978.987761021,-2.36684,-0.400561,0.38129,84.75,-35.75,-36.75,0.0,0.0,0.0,0.0,0.0,0.0,2,0,41.55501611546812,-92.1386999526142,15986.876497638315,119.81631180286551,-0.0033052054122583,0.0038761987244565,,14957.496266617703,17020.816047025746,150,9,2025-09-12,2025-09-26 20:16:19.787,HA,C,840862056,AMBUSH51,1,1,48,2,1,1,225,2,1,0,0,9,1,225,2,1,-145903.06407182783,-4794731.585194147,4196387.408094673,2.33468,2.83237,-0.341551,-92.8623,33.8383,39.1622,-0.190297,-7.26882,6.76069,-0.0107432,0.00903082,3.64104e-05,4,0,41.370196612405664,-91.7429653356702,15006.814626689897,-64.98234060288613,1.534396286340477,-0.0349673868551915,172.198,14957.496266617703,17020.816047025746,150,True,20.944611154942823,False,177.34685759025328,177.9219534418556,False,4.138548593036552,True,False
9,1970-07-23 10:31:21.807135622,2025-09-12,2025-09-26 20:16:20.713,HA,C,2793694868,JASSM,3,116,76,2,2,1,225,9,2,0,1,26,0,0,0,0,-178440.42614920562,-4780273.602510299,4211945.780729771,-2.36684,-0.400561,0.38129,84.75,-35.75,-36.75,0.0,0.0,0.0,0.0,0.0,0.0,2,0,41.55461688111368,-92.13777273417516,15986.874344474232,119.8169268605768,-0.0025046903932968,0.0038748182176714,,14957.496266617703,17020.816047025746,150,9,2025-09-12,2025-09-26 20:16:20.620,HA,C,841856222,AMBUSH51,1,1,48,2,1,1,225,2,1,0,0,9,1,225,2,1,-145980.90822850267,-4794703.145869857,4196420.133099102,2.22847,2.83599,-0.342798,-92.865,33.6033,38.9849,-0.102321,-7.49118,6.88022,-0.208845,0.00578925,-0.00696687,4,0,41.37057253889195,-91.74390502917454,15013.617683643655,-65.06649927732855,1.7255870072138093,-6.052705531073512,171.978,14957.496266617703,17020.816047025746,150,True,20.84896957384619,False,177.22155851547933,177.90934350334024,False,4.2921188647049755,True,False
9,1970-07-23 10:31:21.818754288,2025-09-12,2025-09-26 20:16:21.875,HA,C,2795007218,JASSM,3,116,76,2,2,1,225,9,2,0,1,26,0,0,0,0,-178347.21618826812,-4780313.084932174,4211905.194792271,-2.36684,-0.400561,0.38129,84.75,-35.75,-36.75,0.0,0.0,0.0,0.0,0.0,0.0,2,0,41.55412891351097,-92.13663945353709,15986.881188008729,119.8176786002463,-0.0015262619999279,0.0038731379944439,,14957.496266617703,17020.816047025746,150,9,2025-09-12,2025-09-26 20:16:21.853,HA,C,843327586,AMBUSH51,1,1,48,2,1,1,225,2,1,0,0,9,1,225,2,1,-146096.00123345453,-4794663.256138357,4196467.857335502,2.02946,2.86588,-0.336491,-93.6672,31.1978,37.9624,-0.0689524,-7.89114,7.37911,-0.0664136,0.00872289,-0.0472617,4,0,41.37111105116273,-91.7452936047584,15027.563287480503,-66.44153254659999,2.64987708300281,-16.937668304185,172.418,14957.496266617703,17020.816047025746,150,False,20.720419564674522,False,175.790562917205,177.8898896137611,False,5.761080280374984,True,False
9,1970-07-23 10:31:21.825254343,2025-09-12,2025-09-26 20:16:22.525,HA,C,2796319570,JASSM,3,116,76,2,2,1,225,9,2,0,1,26,0,0,0,0,-178254.00818045562,-4780352.563447799,4211864.604948521,-2.36684,-0.400561,0.381386,84.75,-35.75,-36.75,0.0,0.0,0.0,0.0,0.0,0.0,2,0,41.55364093126028,-92.13550621506712,15986.876235648831,119.82227274829287,-0.0044734881708981,0.0038712770183563,,14957.496266617703,17020.816047025746,150,9,2025-09-12,2025-09-26 20:16:22.554,HA,C,844162686,AMBUSH51,1,1,48,2,1,1,225,2,1,0,0,9,1,225,2,1,-146161.15881358713,-4794642.242234723,4196493.758565311,1.98579,2.88579,-0.306659,-94.3845,29.8486,36.4427,0.0172289,-7.50965,6.83169,-0.0220803,0.00791562,-0.0455931,4,0,41.37139904445311,-91.74607915712906,15036.901186475729,-68.43184019670142,2.273941370640421,-19.16404866688451,171.807,14957.496266617703,17020.816047025746,150,False,20.622798366834875,False,174.79010553025407,177.87420410159228,False,6.892610088212453,True,False
9,1970-07-23 10:31:21.838433310,2025-09-12,2025-09-26 20:16:23.843,HA,C,2797691572,JASSM,3,116,76,2,2,1,225,9,2,0,1,26,0,0,0,0,-178156.56286795562,-4780393.834932174,4211822.171354771,-2.36684,-0.400561,0.381386,84.75,-35.75,-36.75,0.0,0.0,0.0,0.0,0.0,0.0,2,0,41.55313077350976,-92.13432147774984,15986.876540339214,119.8230586055311,-0.0034506053861524,0.0038695935253928,,14957.496266617703,17020.816047025746,150,9,2025-09-12,2025-09-26 20:16:23.654,HA,C,845474984,AMBUSH51,1,1,48,2,1,1,225,2,1,0,0,9,1,225,2,1,-146265.67828373166,-4794610.605335902,4196532.200327763,1.95938,2.90611,-0.280968,-95.6336,27.7541,33.6565,-0.0534446,-7.44449,6.78381,0.000448368,0.00313025,-0.0155181,4,0,41.37182771471409,-91.74733852256828,15050.247590509018,-70.27084642526631,2.091949551257073,-20.41028904595328,170.841,14957.496266617703,17020.816047025746,150,False,20.500005504450236,False,173.00010162844592,177.84727386454463,False,8.842418708208752,True,False
9,1970-07-23 10:31:21.851532919,2025-09-12,2025-09-26 20:16:25.153,HA,C,2798944272,JASSM,3,116,76,2,2,1,225,9,2,0,1,26,0,0,0,0,-178067.59021170562,-4780431.516572799,4211783.425261021,-2.36684,-0.400561,0.381386,84.75,-35.75,-36.75,0.0,0.0,0.0,0.0,0.0,0.0,2,0,41.55266495686032,-92.13323976763044,15986.874898638682,119.82377611608447,-0.0025166577020912,0.0038680515378435,,14957.496266617703,17020.816047025746,150,9,2025-09-12,2025-09-26 20:16:25.253,HA,C,847383782,AMBUSH51,1,1,48,2,1,1,225,2,1,0,0,9,1,225,2,1,-146420.38231657722,-4794568.951677964,4196583.398657184,1.97773,2.92767,-0.250498,-97.1732,23.0326,32.5474,-0.0588259,-7.4743,6.93081,0.0139431,0.00450553,-0.0333613,4,0,41.37239293640114,-91.74920070787826,15070.383760113911,-72.3655398870011,1.7912375194856252,-19.105382305658555,170.45,14957.496266617703,17020.816047025746,150,False,20.355254604976867,False,170.29280256289658,177.80094733631057,False,11.496432796772458,True,False
9,1970-07-23 10:31:21.859247623,2025-09-12,2025-09-26 20:16:25.924,HA,C,2800256624,JASSM,3,116,76,2,2,1,225,9,2,0,1,26,0,0,0,0,-177974.38220389312,-4780470.993135299,4211742.833464146,-2.36684,-0.400465,0.381386,84.75,-35.75,-36.75,0.0,0.0,0.0,0.0,0.0,0.0,2,0,41.55217693948028,-92.13210658116944,15986.879234085958,119.82088424686872,-0.0051046712994068,0.0018220328412379,,14957.496266617703,17020.816047025746,150,9,2025-09-12,2025-09-26 20:16:26.053,HA,C,848338182,AMBUSH51,1,1,48,2,1,1,225,2,1,0,0,9,1,225,2,1,-146499.55453026516,-4794549.375901386,4196606.170250305,1.97564,2.94445,-0.233926,-98.3068,23.0374,27.9908,-0.129493,-7.46647,6.93743,0.0152102,0.00586208,-0.0238072,4,0,41.372648676653085,-91.7501530863146,15077.541298654014,-73.69742258417628,1.842874393220273,-19.03677823456719,169.961,14957.496266617703,17020.816047025746,150,False,20.25232611803181,False,168.8853574280531,177.76880193235482,False,13.141575847777261,True,False
9,1970-07-23 10:31:21.870254464,2025-09-12,2025-09-26 20:16:27.025,HA,C,2801568972,JASSM,3,116,76,2,2,1,225,9,2,0,1,26,0,0,0,0,-177881.17321951812,-4780510.465791549,4211702.239714146,-2.36684,-0.400465,0.381386,84.75,-35.75,-36.75,0.0,0.0,0.0,0.0,0.0,0.0,2,0,41.55168892125364,-92.13097340180646,15986.87575597186,119.8216358833228,-0.0041262555975904,0.0018203545059672,,14957.496266617703,17020.816047025746,150,9,2025-09-12,2025-09-26 20:16:26.853,HA,C,849292580,AMBUSH51,1,1,48,2,1,1,225,2,1,0,0,9,1,225,2,1,-146578.76605112373,-4794531.481606031,4196627.603965711,2.00094,2.95346,-0.224545,-99.1329,21.4676,26.193,-0.237979,-7.60145,6.91908,0.0440888,0.0106724,-0.0346055,4,0,41.37288537328909,-91.75110532710724,15085.942201945729,-74.43406703390497,1.8548889398702668,-17.493705154542948,169.876,14957.496266617703,17020.816047025746,150,False,20.150017282174122,False,167.5279324980474,177.73379934249505,False,14.550577288277852,True,False
9,1970-07-23 10:31:21.880372662,2025-09-12,2025-09-26 20:16:28.037,HA,C,2802821674,JASSM,3,116,76,2,2,1,225,9,2,0,1,26,0,0,0,0,-177792.20056326812,-4780548.143525924,4211663.491667271,-2.36684,-0.400465,0.381386,84.75,-35.75,-36.75,0.0,0.0,0.0,0.0,0.0,0.0,2,0,41.55122308313843,-92.12989174150044,15986.8775118358,119.82235334048558,-0.0031923139537915,0.0018187611444334,,14957.496266617703,17020.816047025746,150,9,2025-09-12,2025-09-26 20:16:28.019,HA,C,850684412,AMBUSH51,1,1,48,2,1,1,225,2,1,0,0,9,1,225,2,1,-146694.4736471951,-4794507.900294533,4196656.121939647,2.04068,2.9724,-0.200954,-100.038,19.3266,23.8614,-0.102193,-7.37189,6.91846,0.0189345,0.00815697,-0.0275918,4,0,41.37319706256265,-91.752495381982,15098.461597470672,-76.15019805582911,1.7386259925097738,-15.04173595002238,169.253,14957.496266617703,17020.816047025746,150,False,20.03134639116141,False,165.74518719005349,177.6805367439301,False,16.401741144632062,True,False
9,1970-07-23 10:31:21.891333130,2025-09-12,2025-09-26 20:16:29.133,HA,C,2804193676,JASSM,3,116,76,2,2,1,225,9,2,0,1,26,0,0,0,0,-177694.75525076812,-4780589.409150924,4211621.050261021,-2.36684,-0.400465,0.381386,84.75,-35.75,-36.75,0.0,0.0,0.0,0.0,0.0,0.0,2,0,41.55071284967352,-92.12870709508589,15986.878087596666,119.82313909998086,-0.0021694237611948,0.0018169960624546,,14957.496266617703,17020.816047025746,150,9,2025-09-12,2025-09-26 20:16:29.155,HA,C,852036478,AMBUSH51,1,1,48,2,1,1,225,2,1,0,0,9,1,225,2,1,-146808.8501719362,-4794486.784817962,4196681.640924538,2.06667,2.98799,-0.186785,-100.675,17.5923,21.8055,-0.160237,-7.37607,6.87432,0.0204637,-0.000369306,-0.0172263,4,0,41.37347407045708,-91.7538686551323,15110.452933179744,-77.34111329464484,1.849789844869578,-13.417665144551735,168.629,14957.496266617703,17020.816047025746,150,False,19.909119499863678,False,164.25304575471992,177.6220821496038,False,17.966299601966327,True,False
9,1970-07-23 10:31:21.905332157,2025-09-12,2025-09-26 20:16:30.533,HA,C,2805446376,JASSM,3,116,76,2,2,1,225,9,2,0,1,26,0,0,0,0,-177605.78259451812,-4780627.084932174,4211582.298307896,-2.36684,-0.400465,0.381482,84.75,-35.75,-36.75,0.0,0.0,0.0,0.0,0.0,0.0,2,0,41.55024697550867,-92.1276254681901,15986.878215555747,119.82769910561125,-0.0051609773922304,0.0018151750805728,,14957.496266617703,17020.816047025746,150,9,2025-09-12,2025-09-26 20:16:30.686,HA,C,853865742,AMBUSH51,1,1,48,2,1,1,225,2,1,0,0,9,1,225,2,1,-146964.02266025977,-4794461.432219505,4196712.15435042,2.10838,3.00974,-0.163797,-101.433,15.6664,19.1877,-0.128607,-7.29339,6.74334,0.0396946,-0.000922744,-0.0168351,4,0,41.37380253776232,-91.75573055955792,15125.93217700254,-79.14315322042701,1.889906681343196,-10.86946490939111,168.055,14957.496266617703,17020.816047025746,150,False,19.772050407610077,False,162.46317628050193,177.53790592078118,False,19.86026021022541,True,False
9,1970-07-23 10:31:21.913252051,2025-09-12,2025-09-26 20:16:31.325,HA,C,2806758726,JASSM,3,116,76,2,2,1,225,9,2,0,1,26,0,0,0,0,-177512.57361014312,-4780666.551729049,4211541.700651646,-2.36684,-0.400465,0.381482,84.75,-35.75,-36.75,0.0,0.0,0.0,0.0,0.0,0.0,2,0,41.54975892160208,-92.12649235883944,15986.876023067116,119.8284506670582,-0.0041825672409336,0.0018135686976211,,14957.496266617703,17020.816047025746,150,9,2025-09-12,2025-09-26 20:16:31.553,HA,C,854899674,AMBUSH51,1,1,48,2,1,1,225,2,1,0,0,9,1,225,2,1,-147051.90989918992,-4794448.347079439,4196727.998936556,2.13152,3.02184,-0.158034,-101.663,14.3911,18.3093,-0.222539,-7.57751,7.06446,0.0227128,0.00254145,-0.00461788,4,0,41.37397128142721,-91.7567846532256,15134.722931630911,-79.8456611374569,2.182811209668277,-9.457563472609642,167.737,14957.496266617703,17020.816047025746,150,True,19.66811881543562,False,161.61307869071422,177.48385656049513,False,20.760698784300793,True,False
9,1970-07-23 10:31:21.925161317,2025-09-12,2025-09-26 20:16:32.516,HA,C,2808071078,JASSM,3,116,76,2,2,1,225,9,2,0,1,26,0,0,0,0,-177419.36462576812,-4780706.018525924,4211501.101042271,-2.36684,-0.400465,0.381482,84.75,-35.75,-36.75,0.0,0.0,0.0,0.0,0.0,0.0,2,0,41.54927084333826,-92.12535926653332,15986.875690461504,119.82920220994986,-0.0032041504651107,0.0018119508578203,,14957.496266617703,17020.816047025746,150,9,2025-09-12,2025-09-26 20:16:32.386,HA,C,855893840,AMBUSH51,1,1,48,2,1,1,225,2,1,0,0,9,1,225,2,1,-147136.67704259657,-4794436.732102621,4196742.578608252,2.14218,3.02738,-0.151597,-101.858,13.4672,17.3415,0.0183363,-7.27849,6.81009,0.0208486,-0.00244158,-0.00637806,4,0,41.37412330487431,-91.75780096124524,15144.1570056593,-80.33068339926095,2.173471341545036,-8.816187443398134,167.334,14957.496266617703,17020.816047025746,150,True,19.566174868932183,False,160.87408347001363,177.42942381607884,False,21.55783443303494,True,False
9,1970-07-23 10:31:21.934353900,2025-09-12,2025-09-26 20:16:33.435,HA,C,2809323776,JASSM,3,116,76,2,2,1,225,9,2,0,1,26,0,0,0,0,-177330.39196951812,-4780743.690400924,4211462.345182896,-2.36684,-0.400465,0.381482,84.75,-35.75,-36.75,0.0,0.0,0.0,0.0,0.0,0.0,2,0,41.54880493456047,-92.12427768944428,15986.87496570124,119.8299195777266,-0.0022702012300156,0.0018104036116056,,14957.496266617703,17020.816047025746,150,9,2025-09-12,2025-09-26 20:16:33.519,HA,C,857245906,AMBUSH51,1,1,48,2,1,1,225,2,1,0,0,9,1,225,2,1,-147251.37769883548,-4794422.033750348,4196761.287645517,2.20637,3.03645,-0.139968,-102.003,12.4724,16.4474,-0.341145,-7.08555,6.95294,0.107445,-0.000781263,-0.0149626,4,0,41.37431606412774,-91.75917578713783,15157.224214215055,-81.17190807573414,2.1177238666100275,-5.094069073243597,166.845,14957.496266617703,17020.816047025746,150,True,19.452024969926114,False,160.13713882257983,177.35595945525986,False,22.370329236313992,True,False
9,1970-07-23 10:31:21.945334463,2025-09-12,2025-09-26 20:16:34.533,HA,C,2810636128,JASSM,3,116,76,2,2,1,225,9,2,0,1,26,0,0,0,0,-177237.18298514312,-4780783.155244674,4211421.743620396,-2.36674,-0.400369,0.381482,84.75,-35.75,-36.75,0.0,0.0,0.0,0.0,0.0,0.0,2,0,41.54831683288997,-92.12314463132024,15986.877533203053,119.82702783444442,-0.0048582058424144,0.0052553617142192,,14957.496266617703,17020.816047025746,150,9,2025-09-12,2025-09-26 20:16:34.653,HA,C,858597970,AMBUSH51,1,1,48,2,1,1,225,2,1,0,0,9,1,225,2,1,-147367.6002529054,-4794407.60443451,4196779.166305576,2.28541,3.03938,-0.134278,-102.006,12.2539,15.9739,-0.0789154,-6.99609,6.44336,0.0298305,-0.00495078,0.00318227,4,0,41.374501322868205,-91.7605686910434,15169.27489093746,-81.52739504183528,2.0272621130712816,-0.55531275599624,166.124,14957.496266617703,17020.816047025746,150,True,19.33480751885337,False,159.87777977641636,177.27864004236804,False,22.713805184793053,True,False
9,1970-07-23 10:31:21.956311003,2025-09-12,2025-09-26 20:16:35.631,HA,C,2811948480,JASSM,3,116,76,2,2,1,225,9,2,0,1,26,0,0,0,0,-177143.97400076812,-4780822.616182174,4211381.142057896,-2.36674,-0.400369,0.381482,84.75,-35.75,-36.75,0.0,0.0,0.0,0.0,0.0,0.0,2,0,41.54782874330733,-92.12201159197348,15986.876626016005,119.82777932088986,-0.0038798014517328,0.0052536994518997,,14957.496266617703,17020.816047025746,150,9,2025-09-12,2025-09-26 20:16:35.453,HA,C,859552370,AMBUSH51,1,1,48,2,1,1,225,2,1,0,0,9,1,225,2,1,-147448.2465049653,-4794397.7136708405,4196791.3070206735,2.28305,3.03162,-0.145827,-101.879,12.3822,15.6863,-0.100262,-6.89226,6.63412,-0.00198801,-0.00733722,0.00809247,4,0,41.374627349162616,-91.76153517916372,15177.36532192584,-80.74017993781133,2.136844319584203,-0.7239815519854866,166.075,14957.496266617703,17020.816047025746,150,True,19.235659283582482,False,159.83740121495916,177.22145894998914,False,22.819271220414826,True,False
9,1970-07-23 10:31:21.967233125,2025-09-12,2025-09-26 20:16:36.723,HA,C,2813260790,JASSM,3,116,76,2,2,1,225,9,2,0,1,26,0,0,0,0,-177050.76696951812,-4780862.077119674,4211340.538542271,-2.36674,-0.400369,0.381482,84.75,-35.75,-36.75,0.0,0.0,0.0,0.0,0.0,0.0,2,0,41.547340628937256,-92.1208785930454,15986.87775628965,119.82853077327692,-0.0029014053984179,0.0052520166564913,,14957.496266617703,17020.816047025746,150,9,2025-09-12,2025-09-26 20:16:36.719,HA,C,861063502,AMBUSH51,1,1,48,2,1,1,225,2,1,0,0,9,1,225,2,1,-147576.8865423219,-4794381.672805812,4196810.671171623,2.2778,3.03117,-0.143917,-101.696,12.6111,15.3883,-0.112707,-6.89492,6.66219,2.18462e-05,-0.00753071,-0.0190676,4,0,41.37482991628063,-91.76307694193883,15189.62445044825,-80.80616257962689,2.0463427853449963,-1.0312412020461836,165.403,14957.496266617703,17020.816047025746,150,True,19.112325096579806,False,159.83751467462943,177.13409351064246,False,22.916844992596474,True,False
9,1970-07-23 10:31:21.984733492,2025-09-12,2025-09-26 20:16:38.473,HA,C,2814513528,JASSM,3,116,76,2,2,1,225,9,2,0,1,26,0,0,0,0,-176961.79236014312,-4780899.745088424,4211301.776823521,-2.36674,-0.400369,0.381482,84.75,-35.75,-36.75,0.0,0.0,0.0,0.0,0.0,0.0,2,0,41.54687466213316,-92.11979705865372,15986.877583771917,119.82924808546014,-0.0019674340748938,0.0052504042524861,,14957.496266617703,17020.816047025746,150,9,2025-09-12,2025-09-26 20:16:38.553,HA,C,863250666,AMBUSH51,1,1,48,2,1,1,225,2,1,0,0,9,1,225,2,1,-147763.34738307822,-4794357.896433684,4196837.84161102,2.25856,3.02852,-0.147465,-101.5,12.667,14.7831,-0.0515768,-6.80847,6.5135,0.013941,-0.00505897,-0.00596402,4,0,41.37512056003696,-91.7653118995534,15204.170067110676,-80.55579962518561,2.0705095441208767,-2.1463550631825306,165.036,14957.496266617703,17020.816047025746,150,True,18.96268856617813,False,159.65331039866325,177.00883326615522,False,23.239020155446884,True,False
9,1970-07-23 10:31:21.988363533,2025-09-12,2025-09-26 20:16:38.836,HA,C,2815766228,JASSM,3,116,76,2,2,1,225,9,2,0,1,26,0,0,0,0,-176872.81970389312,-4780937.409150924,4211263.017057896,-2.36674,-0.400369,0.381578,84.75,-35.75,-36.75,0.0,0.0,0.0,0.0,0.0,0.0,2,0,41.546408721132565,-92.1187155648973,15986.877821014736,119.83380808955476,-0.0049588610187801,0.0052486127514567,,14957.496266617703,17020.816047025746,150,9,2025-09-12,2025-09-26 20:16:38.953,HA,C,863727866,AMBUSH51,1,1,48,2,1,1,225,2,1,0,0,9,1,225,2,1,-147803.27136283868,-4794352.820832628,4196843.5340298135,2.26251,3.02858,-0.145915,-101.511,12.7846,14.5443,-0.261714,-6.92134,6.61017,0.0155056,0.000342258,-0.00925761,4,0,41.37518184955567,-91.76579043307024,15207.05302965537,-80.6250037410778,2.0146909839200013,-1.9218699393678,165.085,14957.496266617703,17020.816047025746,150,True,18.886791327143342,False,159.60762501846926,176.9747723945256,False,23.32416681231434,True,False
9,1970-07-23 10:31:21.999294185,2025-09-12,2025-09-26 20:16:39.929,HA,C,2817078578,JASSM,3,116,76,2,2,1,225,9,2,0,1,26,0,0,0,0,-176779.60974295562,-4780976.866182174,4211222.409636021,-2.36674,-0.400369,0.381578,84.75,-35.75,-36.75,0.0,0.0,0.0,0.0,0.0,0.0,2,0,41.54592057180477,-92.11758258221948,15986.878375148632,119.83455951017416,-0.0039804417970855,0.0052470057944804,,14957.496266617703,17020.816047025746,150,9,2025-09-12,2025-09-26 20:16:39.819,HA,C,864761798,AMBUSH51,1,1,48,2,1,1,225,2,1,0,0,9,1,225,2,1,-147891.07065952712,-4794341.563969081,4196855.943748778,2.26681,3.02923,-0.141849,-101.471,12.7742,14.3658,-0.170481,-6.87183,6.34004,-0.00773253,-0.0141033,-0.0059994,4,0,41.37531645677316,-91.76684284337594,15212.926833264208,-80.82462076324015,1.8885469673973587,-1.676845969277594,164.768,14957.496266617703,17020.816047025746,150,True,18.78423214021769,False,159.5396602287869,176.90906460810692,False,23.46130367768421,True,False
9,1970-07-23 10:31:22.010251880,2025-09-12,2025-09-26 20:16:41.025,HA,C,2818390930,JASSM,3,116,76,2,2,1,225,9,2,0,1,26,0,0,0,0,-176686.40075858062,-4781016.321260299,4211181.800261021,-2.36674,-0.400369,0.381578,84.75,-35.75,-36.75,0.0,0.0,0.0,0.0,0.0,0.0,2,0,41.54543240955261,-92.1164496291366,15986.876085576952,119.83531090391408,-0.0030020297849734,0.0052453926231114,,14957.496266617703,17020.816047025746,150,9,2025-09-12,2025-09-26 20:16:40.886,HA,C,866034330,AMBUSH51,1,1,48,2,1,1,225,2,1,0,0,9,1,225,2,1,-147999.7583091512,-4794327.351885712,4196870.690776661,2.26584,3.02559,-0.139812,-101.459,13.1578,13.7446,-0.148271,-7.00274,6.61369,-0.00535441,-6.34581e-05,-0.000231986,4,0,41.37548056928474,-91.768145740206,15218.18799961818,-80.77568413708623,1.657539497573877,-1.7602113733138436,164.364,14957.496266617703,17020.816047025746,150,True,18.671308299951946,False,159.44910456905123,176.82837895270833,False,23.646924640529498,True,False
9,1970-07-23 10:31:22.025933119,2025-09-12,2025-09-26 20:16:42.593,HA,C,2819703286,JASSM,3,116,76,2,2,1,225,9,2,0,1,26,0,0,0,0,-176593.19079764312,-4781055.776338424,4211141.188932896,-2.36674,-0.400273,0.381578,84.75,-35.75,-36.75,0.0,0.0,0.0,0.0,0.0,0.0,2,0,41.54494422316064,-92.11531668140994,15986.875567767083,119.83241930566612,-0.005590018999036,0.0031984358362015,,14957.496266617703,17020.816047025746,150,9,2025-09-12,2025-09-26 20:16:42.586,HA,C,868062428,AMBUSH51,1,1,48,2,1,1,225,2,1,0,0,9,1,225,2,1,-148171.49708104733,-4794304.65757644,4196893.469954834,2.27729,3.02918,-0.135135,-101.339,13.3322,13.3264,-0.284636,-6.9314,6.64957,0.0106121,-0.00191727,-0.00252272,4,0,41.37573773811774,-91.77020456416444,15224.79559847308,-81.11295445270294,1.6337587553415762,-1.0858454874727066,164.401,14957.496266617703,17020.816047025746,150,True,18.526961045756522,False,159.36373482564676,176.70412796606465,False,23.865671592540313,True,False
9,1970-07-23 10:31:22.032332923,2025-09-12,2025-09-26 20:16:43.233,HA,C,2821015632,JASSM,3,116,76,2,2,1,225,9,2,0,1,26,0,0,0,0,-176499.98083670562,-4781095.229463424,4211100.577604771,-2.36674,-0.400273,0.381578,84.75,-35.75,-36.75,0.0,0.0,0.0,0.0,0.0,0.0,2,0,41.54445603721143,-92.11418375159012,15986.876367491484,119.83317066957898,-0.0046115992556158,0.0031967632688455,,14957.496266617703,17020.816047025746,150,9,2025-09-12,2025-09-26 20:16:43.019,HA,C,868579394,AMBUSH51,1,1,48,2,1,1,225,2,1,0,0,9,1,225,2,1,-148214.7373650048,-4794298.874746385,4196899.063143922,2.27972,3.02729,-0.13264,-101.372,13.2962,13.3344,-0.196916,-6.93711,6.67158,0.00372739,-0.0177672,0.00262051,4,0,41.37580193183038,-91.77072296138512,15225.984008077778,-81.14897358916086,1.4589797936652922,-0.9622949973063992,164.218,14957.496266617703,17020.816047025746,150,True,18.446871541293515,False,159.3499123592028,176.66472632065026,False,23.91864864951377,True,False
9,1970-07-23 10:31:22.043311121,2025-09-12,2025-09-26 20:16:44.331,HA,C,2822268330,JASSM,3,116,76,2,2,1,225,9,2,0,1,26,0,0,0,0,-176411.00818045562,-4781132.887666549,4211061.811979771,-2.36674,-0.400273,0.381578,84.75,-35.75,-36.75,0.0,0.0,0.0,0.0,0.0,0.0,2,0,41.5439900387097,-92.11310234102852,15986.87837411281,119.83388785893256,-0.0036776611061797,0.0031951708601834,,14957.496266617703,17020.816047025746,150,9,2025-09-12,2025-09-26 20:16:44.253,HA,C,870050758,AMBUSH51,1,1,48,2,1,1,225,2,1,0,0,9,1,225,2,1,-148340.36196002475,-4794281.820401889,4196915.093396737,2.30272,3.02264,-0.131912,-101.457,13.6137,13.13,-0.0984413,-6.88653,6.66442,0.0157033,0.00444311,0.000221583,4,0,41.375988444722864,-91.77222914318423,15228.342139296908,-81.00574728746892,1.2348730224340756,0.3238904134402458,164.316,14957.496266617703,17020.816047025746,150,True,18.328357625915604,False,159.37995452774686,176.56902083387482,False,23.99157569821225,True,False
9,1970-07-23 10:31:22.053312638,2025-09-12,2025-09-26 20:16:45.331,HA,C,2823521030,JASSM,3,116,76,2,2,1,225,9,2,0,1,26,0,0,0,0,-176322.03552420562,-4781170.543916549,4211023.044401646,-2.36674,-0.400273,0.381578,84.75,-35.75,-36.75,0.0,0.0,0.0,0.0,0.0,0.0,2,0,41.543524028494886,-92.11202094685788,15986.876905544172,119.83460503080696,-0.0027437226916181,0.0031935767798218,,14957.496266617703,17020.816047025746,150,9,2025-09-12,2025-09-26 20:16:45.319,HA,C,871323290,AMBUSH51,1,1,48,2,1,1,225,2,1,0,0,9,1,225,2,1,-148447.51700238758,-4794266.9739580825,4196928.605626887,2.31071,3.02042,-0.131897,-101.436,13.9497,13.0535,-0.124144,-7.07241,6.50768,-0.00280984,-0.00592865,0.003201,4,0,41.376148212138176,-91.77351400067984,15229.273671644463,-80.92332377535163,1.140830340112456,0.7665403691225772,164.316,14957.496266617703,17020.816047025746,150,True,18.219072347556903,False,159.47683803928314,176.48482336417635,False,23.98447949819263,True,False
9,1970-07-23 10:31:22.064273503,2025-09-12,2025-09-26 20:16:46.427,HA,C,2824833380,JASSM,3,116,76,2,2,1,225,9,2,0,1,26,0,0,0,0,-176228.82556326812,-4781209.993135299,4210982.429167271,-2.36674,-0.400273,0.381578,84.75,-35.75,-36.75,0.0,0.0,0.0,0.0,0.0,0.0,2,0,41.54303580694481,-92.11088806834243,15986.877395331863,119.83535633959444,-0.0017653023275474,0.0031919008163731,,14957.496266617703,17020.816047025746,150,9,2025-09-12,2025-09-26 20:16:46.553,HA,C,872794656,AMBUSH51,1,1,48,2,1,1,225,2,1,0,0,9,1,225,2,1,-148573.17987406353,-4794248.942922337,4196944.759252995,2.30909,3.01602,-0.135941,-101.504,14.306,13.255,-0.0825557,-7.00747,6.54378,0.0065029,0.00328838,-0.00676089,4,0,41.37634132027308,-91.7750210162689,15229.514454116184,-80.58507743649977,1.109225629511847,0.646627366369065,164.584,14957.496266617703,17020.816047025746,150,True,18.09774669133358,False,159.68227058571566,176.38690500133617,False,23.879807813235374,True,False
9,1970-07-23 10:31:22.077994700,2025-09-12,2025-09-26 20:16:47.799,HA,C,2826145732,JASSM,3,116,76,2,2,1,225,9,2,0,1,26,0,0,0,0,-176135.61560233062,-4781249.440400924,4210941.811979771,-2.36674,-0.400273,0.381674,84.75,-35.75,-36.75,0.0,0.0,0.0,0.0,0.0,0.0,2,0,41.54254757268654,-92.1097552077312,15986.874952868056,119.83995049575714,-0.004712107752172,0.0031900387664543,,14957.496266617703,17020.816047025746,150,9,2025-09-12,2025-09-26 20:16:47.753,HA,C,874226254,AMBUSH51,1,1,48,2,1,1,225,2,1,0,0,9,1,225,2,1,-148694.32276595378,-4794231.219594218,4196960.53940386,2.30648,3.01343,-0.134361,-101.628,14.7505,13.3482,-0.136334,-7.07595,6.56027,-0.0144112,-0.000400514,-0.0118188,4,0,41.37653089131717,-91.77647396049645,15229.36591547264,-80.55605685868204,0.9404530047970364,0.4777028341591365,164.548,14957.496266617703,17020.816047025746,150,True,17.978613225898464,False,159.86981074927604,176.29128629994523,False,23.79272247842973,True,False
9,1970-07-23 10:31:22.086370035,2025-09-12,2025-09-26 20:16:48.637,HA,C,2827398430,JASSM,3,116,76,2,2,1,225,9,2,0,1,26,0,0,0,0,-176046.64196951812,-4781287.094697799,4210903.040495396,-2.36674,-0.400273,0.381674,84.75,-35.75,-36.75,0.0,0.0,0.0,0.0,0.0,0.0,2,0,41.54208151643623,-92.10867385079996,15986.87733605477,119.84066762258314,-0.0037781547830711,0.0031884986918183,,14957.496266617703,17020.816047025746,150,9,2025-09-12,2025-09-26 20:16:48.585,HA,C,875220420,AMBUSH51,1,1,48,2,1,1,225,2,1,0,0,9,1,225,2,1,-148779.5235536604,-4794218.591924957,4196971.628240718,2.30061,3.01068,-0.133828,-101.675,15.0103,13.3433,-0.0524218,-7.11353,6.57814,-0.00816737,0.00355053,0.00930962,4,0,41.37666511046053,-91.77749589341953,15228.845216738357,-80.47543180045116,0.8040334444961331,0.1214182684942811,164.584,14957.496266617703,17020.816047025746,150,True,17.88012982485201,False,159.95741151312052,176.2203309899699,False,23.77945898254055,True,False
9,1970-07-23 10:31:22.097291682,2025-09-12,2025-09-26 20:16:49.729,HA,C,2828770434,JASSM,3,116,76,2,2,1,225,9,2,0,1,26,0,0,0,0,-175949.19568045562,-4781328.331025924,4210860.575651646,-2.36674,-0.400273,0.381674,84.75,-35.75,-36.75,0.0,0.0,0.0,0.0,0.0,0.0,2,0,41.541571080704735,-92.1074895393575,15986.874563081436,119.8414530184882,-0.0027552721689627,0.003186822742049,,14957.496266617703,17020.816047025746,150,9,2025-09-12,2025-09-26 20:16:49.553,HA,C,876373652,AMBUSH51,1,1,48,2,1,1,225,2,1,0,0,9,1,225,2,1,-148877.14379264717,-4794204.134531805,4196984.169427474,2.29522,3.01168,-0.133804,-101.826,15.0032,13.4231,-0.104851,-7.2603,6.89979,-0.013115,0.0107078,0.00798012,4,0,41.376817710447625,-91.77866679145478,15227.924637734615,-80.51517081113093,0.8466039110137451,-0.1799487441771268,165.049,14957.496266617703,17020.816047025746,150,True,17.770185475966553,False,159.97089810069818,176.13842792027592,False,23.847450702097213,True,False
9,1970-07-23 10:31:22.116751231,2025-09-12,2025-09-26 20:16:51.675,HA,C,2830023132,JASSM,3,116,76,2,2,1,225,9,2,0,1,26,0,0,0,0,-175860.22253592435,-4781365.981416549,4210821.802214146,-2.36674,-0.400177,0.381674,84.75,-35.75,-36.75,0.0,0.0,0.0,0.0,0.0,0.0,2,0,41.54110501310222,-92.10640822252554,15986.874819873476,119.83852739199487,-0.0053877379553583,0.0011394501174752,,14957.496266617703,17020.816047025746,150,9,2025-09-12,2025-09-26 20:16:51.619,HA,C,878839182,AMBUSH51,1,1,48,2,1,1,225,2,1,0,0,9,1,225,2,1,-149088.4227786768,-4794172.453246981,4197011.849887002,2.29812,3.0112,-0.132055,-102.022,15.0877,13.6767,-0.206703,-7.18276,6.74483,-0.00247487,0.00117866,-0.00366497,4,0,41.37715389653005,-91.78120112445944,15226.1529103009,-80.57374675544635,0.761728166855567,-0.0185652506452949,165.684,14957.496266617703,17020.816047025746,150,True,17.60863660617872,False,160.08232634561892,175.97566360708527,False,23.898284322587614,True,False
9,1970-07-23 10:31:22.119353363,2025-09-12,2025-09-26 20:16:51.935,HA,C,2831335472,JASSM,3,116,76,2,2,1,225,9,2,0,1,26,0,0,0,0,-175767.01306326812,-4781405.424775924,4210781.181120396,-2.36674,-0.400177,0.381674,84.75,-35.75,-36.75,0.0,0.0,0.0,0.0,0.0,0.0,2,0,41.54061673142887,-92.10527543687309,15986.878499465533,119.83927860347796,-0.0044093203409021,0.0011377701801813,,14957.496266617703,17020.816047025746,150,9,2025-09-12,2025-09-26 20:16:51.953,HA,C,879236848,AMBUSH51,1,1,48,2,1,1,225,2,1,0,0,9,1,225,2,1,-149122.4356879752,-4794167.294572719,4197016.304402043,2.29872,3.01115,-0.132531,-102.07,15.2462,13.591,0.0223612,-7.12341,6.65893,0.00214405,0.00201506,0.00433908,4,0,41.37720834877752,-91.78160914017994,15225.722548930366,-80.55159507259103,0.7778551616468456,0.0158532668692608,166.136,14957.496266617703,17020.816047025746,150,True,17.533148530229738,False,160.1002091409056,175.93805566962897,False,23.920713241199522,True,False
9,1970-07-23 10:31:22.128370536,2025-09-12,2025-09-26 20:16:52.837,HA,C,2832468866,JASSM,3,116,76,2,2,1,225,9,2,0,1,26,0,0,0,0,-175686.51452811187,-4781439.485322799,4210746.099089146,-2.36674,-0.400177,0.381674,84.75,-35.75,-36.75,0.0,0.0,0.0,0.0,0.0,0.0,2,0,41.54019504816785,-92.10429714418122,15986.876018517449,119.8399273564773,-0.0035643404691758,0.0011363365669516,,14957.496266617703,17020.816047025746,150,9,2025-09-12,2025-09-26 20:16:52.854,HA,C,880310548,AMBUSH51,1,1,48,2,1,1,225,2,1,0,0,9,1,225,2,1,-149213.20313216271,-4794153.561535904,4197028.378736576,2.29626,3.01498,-0.134417,-102.164,15.1816,13.8291,-0.028518,-7.46119,6.90301,-0.00648625,0.000685556,-0.0056769,4,0,41.377354716934256,-91.78269796903008,15225.06492323877,-80.61608666908761,1.0127973458516155,-0.0969299392661435,166.723,14957.496266617703,17020.816047025746,150,True,17.43722193887781,False,160.1619947560018,175.86089651231066,False,23.933341344324184,True,False
9,1970-07-23 10:31:22.138352923,2025-09-12,2025-09-26 20:16:53.835,HA,C,2833602272,JASSM,3,116,76,2,2,1,225,9,2,0,1,26,0,0,0,0,-175606.01306326812,-4781473.547822799,4210711.015104771,-2.36674,-0.400177,0.381674,84.75,-35.75,-36.75,0.0,0.0,0.0,0.0,0.0,0.0,2,0,41.5397733323976,-92.10331882828233,15986.878374381697,119.84057611945612,-0.0027193251961766,0.0011348953414158,,14957.496266617703,17020.816047025746,150,9,2025-09-12,2025-09-26 20:16:53.819,HA,C,881463780,AMBUSH51,1,1,48,2,1,1,225,2,1,0,0,9,1,225,2,1,-149312.99350800618,-4794138.553712551,4197041.956517494,2.28833,3.01232,-0.135231,-102.293,14.9335,14.2269,-0.148961,-7.25083,6.87675,-0.0178068,-0.00752655,0.0127988,4,0,41.37751713284616,-91.78389500734332,15225.226871296169,-80.48172084642228,0.9320985592845602,-0.569203931514057,166.857,14957.496266617703,17020.816047025746,150,True,17.33676279065398,False,160.21517027417715,175.7765700354455,False,23.95767311530846,True,False
9,1970-07-23 10:31:22.149630736,2025-09-12,2025-09-26 20:16:54.963,HA,C,2834795318,JASSM,3,116,76,2,2,1,225,9,2,0,1,26,0,0,0,0,-175521.27624686187,-4781509.401338424,4210674.083464146,-2.36674,-0.400177,0.381674,84.75,-35.75,-36.75,0.0,0.0,0.0,0.0,0.0,0.0,2,0,41.53932941449722,-92.10228905533286,15986.879170430302,119.84125899995357,-0.0018298492711372,0.0011333730847906,,14957.496266617703,17020.816047025746,150,9,2025-09-12,2025-09-26 20:16:54.819,HA,C,882656778,AMBUSH51,1,1,48,2,1,1,225,2,1,0,0,9,1,225,2,1,-149415.12082372332,-4794123.294453508,4197055.905652647,2.28799,3.01215,-0.134998,-102.353,14.9552,14.2548,-0.0282427,-7.20556,6.59554,0.000223664,0.00474064,0.00202754,4,0,41.37768310519533,-91.78512004741194,15225.76001991314,-80.4860538391928,0.9168831170365368,-0.590032408153086,167.297,14957.496266617703,17020.816047025746,150,True,17.232525537010687,False,160.22761145956463,175.6888600180438,False,24.033393721115456,True,False
9,1970-07-23 10:31:22.167669055,2025-09-12,2025-09-26 20:16:56.766,HA,C,2835988366,JASSM,3,116,76,2,2,1,225,9,2,0,1,26,0,0,0,0,-175436.53943045562,-4781545.252900924,4210637.149870396,-2.36664,-0.400177,0.381674,84.75,-35.75,-36.75,0.0,0.0,0.0,0.0,0.0,0.0,2,0,41.53888548583341,-92.1012592973253,15986.875973836572,119.84194186454695,-0.0009403730838488,0.0066233212532488,,14957.496266617703,17020.816047025746,150,9,2025-09-12,2025-09-26 20:16:56.819,HA,C,885042776,AMBUSH51,1,1,48,2,1,1,225,2,1,0,0,9,1,225,2,1,-149619.32714047207,-4794092.860439168,4197083.96060024,2.28293,3.01388,-0.134632,-102.625,14.911,14.3456,-0.0199037,-7.21925,6.7668,0.00820274,0.00779911,-0.00211492,4,0,41.378015575138136,-91.78756953769413,15227.387047484925,-80.56886270532704,0.9783660658506126,-0.8683773517569322,167.395,14957.496266617703,17020.816047025746,150,True,17.077302721023013,False,160.21759646149096,175.52400429492144,False,24.207732550028158,True,False
9,1970-07-23 10:31:22.170783040,2025-09-12,2025-09-26 20:16:57.078,HA,C,2837181410,JASSM,3,116,76,2,2,1,225,9,2,0,1,26,0,0,0,0,-175351.80310233062,-4781581.102510299,4210600.218229771,-2.36664,-0.400177,0.381769,84.75,-35.75,-36.75,0.0,0.0,0.0,0.0,0.0,0.0,2,0,41.53844157260512,-92.10022956010172,15986.877326979871,119.84646771697722,-0.0039760013681544,0.0066216811610553,,14957.496266617703,17020.816047025746,150,9,2025-09-12,2025-09-26 20:16:57.219,HA,C,885519976,AMBUSH51,1,1,48,2,1,1,225,2,1,0,0,9,1,225,2,1,-149661.07379156706,-4794086.711697409,4197089.714086547,2.28647,3.01412,-0.135673,-102.681,14.7588,14.487,-0.0725263,-7.13404,6.70843,0.0110511,0.00129517,0.00586624,4,0,41.37808322509696,-91.7880702718504,15227.941301528204,-80.53360354462544,1.028502442887093,-0.6626011275028307,167.395,14957.496266617703,17020.816047025746,150,True,17.00333702300858,False,160.21074301713202,175.47890972949554,False,24.256164596466487,True,False
9,1970-07-23 10:31:22.187107641,2025-09-12,2025-09-26 20:16:58.710,HA,C,2838314806,JASSM,3,116,76,2,2,1,225,9,2,0,1,26,0,0,0,0,-175271.30310233062,-4781615.161104049,4210565.130339146,-2.36664,-0.400177,0.381769,84.75,-35.75,-36.75,0.0,0.0,0.0,0.0,0.0,0.0,2,0,41.53801981876763,-92.09925131629848,15986.880679252366,119.84711640974484,-0.0031309965763629,0.0066202864002767,,14957.496266617703,17020.816047025746,150,9,2025-09-12,2025-09-26 20:16:58.652,HA,C,887229940,AMBUSH51,1,1,48,2,1,1,225,2,1,0,0,9,1,225,2,1,-149807.9125148802,-4794065.253464666,4197110.203889635,2.2894,3.02096,-0.139242,-102.69,14.6251,14.6753,-0.297354,-7.44974,7.0503,0.00476976,0.004337,-0.00743084,4,0,41.37832185780453,-91.78983148771012,15230.86244978466,-80.6397841226998,1.4556919762410256,-0.4433244300873728,167.615,14957.496266617703,17020.816047025746,150,True,16.879591694925477,False,160.23335259283286,175.3543735946691,False,24.354815743709214,True,False
9,1970-07-23 10:31:22.187470514,2025-09-12,2025-09-26 20:16:58.747,HA,C,2839507852,JASSM,3,116,76,2,2,1,225,9,2,0,1,26,0,0,0,0,-175186.56628592435,-4781651.008760299,4210528.194792271,-2.36664,-0.400081,0.381769,84.75,-35.75,-36.75,0.0,0.0,0.0,0.0,0.0,0.0,2,0,41.53757587293807,-92.09822160155142,15986.878543691137,119.84415678347872,-0.0058079288502655,0.0045725297781171,,14957.496266617703,17020.816047025746,150,9,2025-09-12,2025-09-26 20:16:58.652,HA,C,887229940,AMBUSH51,1,1,48,2,1,1,225,2,1,0,0,9,1,225,2,1,-149807.9125148802,-4794065.253464666,4197110.203889635,2.2894,3.02096,-0.139242,-102.69,14.6251,14.6753,-0.297354,-7.44974,7.0503,0.00476976,0.004337,-0.00743084,4,0,41.37832185780453,-91.78983148771012,15230.86244978466,-80.6397841226998,1.4556919762410256,-0.4433244300873728,167.615,14957.496266617703,17020.816047025746,150,True,16.82647770184165,False,160.23335259283286,175.3400043256499,False,24.36904619889586,True,False
