Subject_cm,Timestamp,SampleDate_cm,SampleTime_cm,Configuration_cm,Scenario_cm,DisTime_cm,MarkingTxt_cm,Application_cm,EntId_cm,Site_cm,ExerciseId_cm,ForceId_cm,Category_cm,Country_cm,Domain_cm,Kind_cm,Extra_cm,Specific_cm,Subcategory_cm,AltCategory_cm,AltCountry_cm,AltDomain_cm,AltKind_cm,ECEF_X_cm,ECEF_Y_cm,ECEF_Z_cm,OriPhi_cm,OriPsi_cm,OriTheta_cm,LinVelX_cm,LinVelY_cm,LinVelZ_cm,LinAccX_cm,LinAccY_cm,LinAccZ_cm,AngVelX_cm,AngVelY_cm,AngVelZ_cm,DrAlg_cm,Appearance_cm,Latitude_cm,Longitude_cm,Altitude_cm,Heading_cm,Pitch_cm,Roll_cm,CalibratedAirspeed_cm,CM_Altitude_Lead_cm,CM_Altitude_Wing_cm,CM_Airspeed_cm,Subject_ac,SampleDate_ac,SampleTime_ac,Configuration_ac,Scenario_ac,DisTime_ac,MarkingTxt_ac,Application_ac,EntId_ac,Site_ac,ExerciseId_ac,ForceId_ac,Category_ac,Country_ac,Domain_ac,Kind_ac,Extra_ac,Specific_ac,Subcategory_ac,AltCategory_ac,AltCountry_ac,AltDomain_ac,AltKind_ac,ECEF_X_ac,ECEF_Y_ac,ECEF_Z_ac,OriPhi_ac,OriPsi_ac,OriTheta_ac,LinVelX_ac,LinVelY_ac,LinVelZ_ac,LinAccX_ac,LinAccY_ac,LinAccZ_ac,AngVelX_ac,AngVelY_ac,AngVelZ_ac,DrAlg_ac,Appearance_ac,Latitude_ac,Longitude_ac,Altitude_ac,Heading_ac,Pitch_ac,Roll_ac,CalibratedAirspeed_ac,CM_Altitude_Lead_ac,CM_Altitude_Wing_ac,CM_Airspeed_ac,Bank_Angle_Condition,distance_nm,Distance_Condition,angle_between_vel,angle_between_pos,Cone_Condition,angle_between_pos_nose,Nose_Cone_Condition,Intercept_Criteria
9,1970-07-23 11:40:17.178472390,2025-09-17,2025-09-26 15:08:37.847,AA,D,502340224,JASSM,3,105,76,2,2,1,225,9,2,0,1,26,0,0,0,0,-171305.56286795562,-4793410.872041549,4194623.352018833,-2.29541,0.0350898,-0.0800546,89.75,3.125,7.25,0.0,0.0,0.0,0.0,0.0,0.0,2,0,41.36113772215921,-92.04674931113313,10000.00054238077,83.87915846735049,-0.0051871873466388,0.0066288575475706,,9000.684068445347,11088.532817195925,150,9,2025-09-17,2025-09-26 15:08:37.870,AA,D,297561306,AMBUSH51,1,1,48,2,1,1,225,2,1,0,0,9,1,225,2,1,-157532.76513819737,-4791793.673189807,4196518.482477207,2.29817,3.02472,-0.101629,-119.621,18.4762,17.0175,-0.137985,-7.44205,6.55527,-0.0425513,0.00653411,-0.00425586,4,0,41.386360511218456,-91.88295105020391,8967.861537036475,-82.45496579018688,0.2548365569332926,0.0609612808982366,199.779,9000.684068445347,11088.532817195925,150,True,7.530063203379622,False,163.42456890695053,174.35390138172605,False,22.072375246070372,True,False
9,1970-07-23 11:40:17.188211717,2025-09-17,2025-09-26 15:08:38.821,AA,D,503582612,JASSM,3,105,76,2,2,1,225,9,2,0,1,26,0,0,0,0,-171212.09631522125,-4793407.616182174,4194630.837370396,-2.29541,0.0348022,-0.079767,89.75,3.125,7.125,0.0,0.0,0.0,0.0,0.0,0.0,2,0,41.361227481880846,-92.04563491528498,9999.998553747291,83.90312269626487,-0.0029720303733924,0.0053119514230392,,9000.684068445347,11088.532817195925,150,9,2025-09-17,2025-09-26 15:08:38.837,AA,D,298714538,AMBUSH51,1,1,48,2,1,1,225,2,1,0,0,9,1,225,2,1,-157647.587617204,-4791775.783506557,4196534.638913246,2.27382,3.02602,-0.100272,-119.61,18.5447,16.9221,-0.158275,-7.07784,6.32087,-0.00608886,0.00024447,-0.00827973,4,0,41.38655354217288,-91.88432953636874,8968.184498021492,-82.5631764346201,0.25961808773075,-1.3269653938323962,200.036,9000.684068445347,11088.532817195925,150,True,7.421381186490939,False,163.49680083559548,174.0902666201582,False,22.284699548458523,True,False
9,1970-07-23 11:40:17.199337881,2025-09-17,2025-09-26 15:08:39.933,AA,D,504835310,JASSM,3,105,76,2,2,1,225,9,2,0,1,26,0,0,0,0,-171117.85388358062,-4793404.332979049,4194638.384245396,-2.29541,0.0348022,-0.079767,89.75,3.125,7.125,0.0,0.0,0.0,0.0,0.0,0.0,2,0,41.36131797351971,-92.0445112657156,9999.999015690026,83.90386520916364,-0.0021238255102118,0.0053123631198453,,9000.684068445347,11088.532817195925,150,9,2025-09-17,2025-09-26 15:08:40.002,AA,D,300106370,AMBUSH51,1,1,48,2,1,1,225,2,1,0,0,9,1,225,2,1,-157788.15208737558,-4791753.856077088,4196554.172872014,2.26976,3.03096,-0.0971812,-119.558,18.3157,16.8264,-0.143184,-7.36563,6.52605,-0.0135062,0.00608054,0.00655907,4,0,41.38678833558507,-91.8860170863095,8967.992379059442,-82.88365741902363,0.3539353652606966,-1.5336165903649377,199.926,9000.684068445347,11088.532817195925,150,True,7.299309344897077,False,163.59338155377998,173.82328077143063,False,22.454534759319817,True,False
9,1970-07-23 11:40:17.209371008,2025-09-17,2025-09-26 15:08:40.937,AA,D,506028358,JASSM,3,105,76,2,2,1,225,9,2,0,1,26,0,0,0,0,-171028.09924490875,-4793401.205049361,4194645.571745396,-2.29541,0.0348022,-0.079767,89.75,3.125,7.125,0.0,0.0,0.0,0.0,0.0,0.0,2,0,41.36140415217629,-92.04344112152432,10000.001100389063,83.90457236670176,-0.0013160115516522,0.0053127615734468,,9000.684068445347,11088.532817195925,150,9,2025-09-17,2025-09-26 15:08:40.936,AA,D,301219836,AMBUSH51,1,1,48,2,1,1,225,2,1,0,0,9,1,225,2,1,-157898.75498441217,-4791736.844186138,4196569.397940407,2.27581,3.02775,-0.0992509,-119.635,18.236,16.6478,-0.245125,-7.358,6.56391,0.0191529,0.0131338,-0.00358591,4,0,41.38697064732038,-91.8873448453419,8968.12825701995,-82.67434163231572,0.296766428978618,-1.2039774164367396,199.449,9000.684068445347,11088.532817195925,150,True,7.194970719288866,False,163.6869535086984,173.60041945466932,False,22.587587527991616,True,False
9,1970-07-23 11:40:17.219731992,2025-09-17,2025-09-26 15:08:41.973,AA,D,507221464,JASSM,3,105,76,2,2,1,225,9,2,0,1,26,0,0,0,0,-170938.339967565,-4793398.076143111,4194652.757292271,-2.29541,0.0348981,-0.079767,89.75,3.125,7.125,0.0,0.0,0.0,0.0,0.0,0.0,2,0,41.36149031447477,-92.0423709195499,10000.000307964305,83.90164960950318,-0.0046077750021344,0.005751021259966,,9000.684068445347,11088.532817195925,150,9,2025-09-17,2025-09-26 15:08:42.003,AA,D,302492368,AMBUSH51,1,1,48,2,1,1,225,2,1,0,0,9,1,225,2,1,-158027.72063249836,-4791717.207823178,4196586.9721684,2.29374,3.03188,-0.0978973,-119.709,18.1556,16.584,-0.0691714,-7.20736,6.43476,0.00956345,0.00773253,0.00321556,4,0,41.38718081315288,-91.88889297502436,8968.399441500604,-82.88977593593647,0.4227023945198059,-0.1547279108286229,199.669,9000.684068445347,11088.532817195925,150,True,7.081420942859949,False,163.74014203959211,173.34074707608718,False,22.795711621007722,True,False
9,1970-07-23 11:40:17.229450488,2025-09-17,2025-09-26 15:08:42.945,AA,D,508474102,JASSM,3,105,76,2,2,1,225,9,2,0,1,26,0,0,0,0,-170844.10217459625,-4793394.790010299,4194660.301237583,-2.29541,0.0348981,-0.079767,89.75,3.125,7.125,0.0,0.0,0.0,0.0,0.0,0.0,2,0,41.36158077088083,-92.04124731756325,10000.000962346769,83.90239209481948,-0.0037596127693778,0.0057513802712152,,9000.684068445347,11088.532817195925,150,9,2025-09-17,2025-09-26 15:08:42.936,AA,D,303605834,AMBUSH51,1,1,48,2,1,1,225,2,1,0,0,9,1,225,2,1,-158138.4145284299,-4791700.274524062,4196601.856311291,2.30017,3.0268,-0.0983552,-119.824,18.3651,16.3873,-0.282907,-7.06847,6.43679,0.00815489,-0.00547092,0.00912861,4,0,41.38736030434807,-91.8902218059646,8968.010729484988,-82.67842139815993,0.2241092273017156,0.1863550035218419,200.036,9000.684068445347,11088.532817195925,150,True,6.974842866449885,False,163.75711627606373,173.10211074077733,False,23.02782590990731,True,False
9,1970-07-23 11:40:17.239333826,2025-09-17,2025-09-26 15:08:43.933,AA,D,509667148,JASSM,3,105,76,2,2,1,225,9,2,0,1,26,0,0,0,0,-170754.34729178375,-4793391.659150924,4194667.485807896,-2.29541,0.0348981,-0.079767,89.75,3.125,7.125,0.0,0.0,0.0,0.0,0.0,0.0,2,0,41.36166691685711,-92.04017716309494,10000.002175431126,83.90309926282431,-0.0029517978271762,0.0057517249852036,,9000.684068445347,11088.532817195925,150,9,2025-09-17,2025-09-26 15:08:43.936,AA,D,304798832,AMBUSH51,1,1,48,2,1,1,225,2,1,0,0,9,1,225,2,1,-158258.38153719695,-4791681.609406983,4196618.030165412,2.31011,3.02531,-0.0989452,-119.92,18.6455,16.353,-0.146957,-7.23259,6.55286,0.00904331,0.0042829,-0.00994004,4,0,41.38755696694293,-91.89166208838785,8966.919065183552,-82.5976891963482,0.1841365051028179,0.7474508878333448,200.109,9000.684068445347,11088.532817195925,150,True,6.866139023888852,False,163.69376907044588,172.8406939113475,False,23.36106568552759,True,False
9,1970-07-23 11:40:17.250350666,2025-09-17,2025-09-26 15:08:45.035,AA,D,510919848,JASSM,3,105,76,2,2,1,225,9,2,0,1,26,0,0,0,0,-170660.10486014312,-4793388.370088424,4194675.027800083,-2.29541,0.0348981,-0.0796711,89.75,3.125,7.125,0.0,0.0,0.0,0.0,0.0,0.0,2,0,41.36175735704295,-92.03905350090322,9999.999949340936,83.90795447144203,-0.0057451435707861,0.0057518030813084,,9000.684068445347,11088.532817195925,150,9,2025-09-17,2025-09-26 15:08:45.036,AA,D,306111132,AMBUSH51,1,1,48,2,1,1,225,2,1,0,0,9,1,225,2,1,-158390.56272167788,-4791660.73238688,4196636.129787625,2.30876,3.02275,-0.0983021,-120.042,18.7676,16.6196,-0.0806956,-7.30546,6.47863,0.00515259,-0.00158229,-0.00188398,4,0,41.3877773686793,-91.89324914321443,8965.564037953027,-82.5296375547055,0.052095077585464,0.655854677729536,199.852,9000.684068445347,11088.532817195925,150,True,6.749079076185918,False,163.57647658565716,172.54366129306038,False,23.774278510843175,True,False
9,1970-07-23 11:40:17.260389840,2025-09-17,2025-09-26 15:08:46.038,AA,D,512172546,JASSM,3,105,76,2,2,1,225,9,2,0,1,26,0,0,0,0,-170565.86218436187,-4793385.081025924,4194682.568815708,-2.29541,0.0348981,-0.0796711,89.75,3.125,7.125,0.0,0.0,0.0,0.0,0.0,0.0,2,0,41.36184777971137,-92.0379298326858,10000.000179384951,83.90869700444246,-0.0048969389747551,0.0057522169701041,,9000.684068445347,11088.532817195925,150,9,2025-09-17,2025-09-26 15:08:46.002,AA,D,307264364,AMBUSH51,1,1,48,2,1,1,225,2,1,0,0,9,1,225,2,1,-158507.99933760642,-4791642.214399094,4196652.076297151,2.28493,3.01643,-0.0990716,-120.164,18.8892,16.5918,-0.225429,-7.168,6.39919,-0.0524195,-0.00231882,0.000333935,4,0,41.387972081106014,-91.89465916220315,8964.151454044446,-82.25797182443574,-0.1870393896533374,-0.7455676542735986,200.146,9000.684068445347,11088.532817195925,150,True,6.639592055573448,False,163.56111351730172,172.26476901721566,False,24.0730627675107,True,False
9,1970-07-23 11:40:17.272136653,2025-09-17,2025-09-26 15:08:47.213,AA,D,513425246,JASSM,3,105,76,2,2,1,225,9,2,0,1,26,0,0,0,0,-170471.61950858062,-4793381.790010299,4194690.109831333,-2.29541,0.0348981,-0.0796711,89.75,3.125,7.125,0.0,0.0,0.0,0.0,0.0,0.0,2,0,41.36193820301524,-92.03680616218722,10000.000197739464,83.90943954028654,-0.0040487337795205,0.005752642425884,,9000.684068445347,11088.532817195925,150,9,2025-09-17,2025-09-26 15:08:47.203,AA,D,308695962,AMBUSH51,1,1,48,2,1,1,225,2,1,0,0,9,1,225,2,1,-158652.2722051504,-4791619.23783954,4196671.5073681725,2.2356,3.02217,-0.0958484,-120.284,18.8192,16.2259,-0.2014,-7.21751,6.56261,-0.019671,-0.00449513,-0.0141512,4,0,41.38821153751429,-91.89639149587306,8961.52204463491,-82.61471596798411,-0.0637482463909868,-3.5394874427023364,200.109,9000.684068445347,11088.532817195925,150,True,6.516832283151832,False,163.71917448056737,171.9231185930652,False,24.26410764669345,True,False
9,1970-07-23 11:40:17.281456402,2025-09-17,2025-09-26 15:08:48.145,AA,D,514677944,JASSM,3,105,76,2,2,1,225,9,2,0,1,26,0,0,0,0,-170377.37683279935,-4793378.498018111,4194697.649870396,-2.29541,0.0348981,-0.0796711,89.75,3.125,7.125,0.0,0.0,0.0,0.0,0.0,0.0,2,0,41.36202861455399,-92.03568248899256,10000.000290401174,83.91018207924945,-0.0032005289911459,0.0057530670850752,,9000.684068445347,11088.532817195925,150,9,2025-09-17,2025-09-26 15:08:48.136,AA,D,309809428,AMBUSH51,1,1,48,2,1,1,225,2,1,0,0,9,1,225,2,1,-158763.493416508,-4791601.682160175,4196686.114249329,2.26225,3.02394,-0.0907359,-120.411,18.7694,15.7436,0.00160258,-7.32663,6.39381,0.12099,0.0037898,-0.00579758,4,0,41.38839266756076,-91.89772691378032,8959.080778830166,-82.90151816987589,-0.1819595026127774,-2.002088909666836,200.305,9000.684068445347,11088.532817195925,150,True,6.41076928269153,False,163.91075672552657,171.63729213278182,False,24.367862811743297,True,False
9,1970-07-23 11:40:17.292234753,2025-09-17,2025-09-26 15:08:49.223,AA,D,515930644,JASSM,3,105,76,2,2,1,225,9,2,0,1,26,0,0,0,0,-170283.13415701812,-4793375.206025924,4194705.187956333,-2.29541,0.0348981,-0.0796711,89.75,3.125,7.125,0.0,0.0,0.0,0.0,0.0,0.0,2,0,41.36211900192703,-92.03455881268792,10000.000743354569,83.91092462160508,-0.002352325615759,0.0057534785841209,,9000.684068445347,11088.532817195925,150,9,2025-09-17,2025-09-26 15:08:49.236,AA,D,311121726,AMBUSH51,1,1,48,2,1,1,225,2,1,0,0,9,1,225,2,1,-158896.3019827024,-4791580.520702167,4196703.427864,2.47032,3.029,-0.0899868,-120.328,19.5068,16.0221,-0.483233,-7.2952,6.45585,0.19467,0.0071895,-0.00143873,4,0,41.38860924629656,-91.89932161678551,8955.407983938854,-83.12658716157969,0.0068677220774653,9.945538797204486,200.231,9000.684068445347,11088.532817195925,150,True,6.294109830369317,False,163.58258533274636,171.29646379140482,False,25.04726713860582,True,False
9,1970-07-23 11:40:17.302347976,2025-09-17,2025-09-26 15:08:50.234,AA,D,517123690,JASSM,3,105,76,2,2,1,225,9,2,0,1,26,0,0,0,0,-170193.37927420562,-4793372.069307174,4194712.366667271,-2.29541,0.0348981,-0.0796711,89.75,3.125,7.125,0.0,0.0,0.0,0.0,0.0,0.0,2,0,41.362205080945415,-92.033488643074,10000.00088113409,83.91163180716981,-0.0015445131378044,0.0057538765172618,,9000.684068445347,11088.532817195925,150,9,2025-09-17,2025-09-26 15:08:50.103,AA,D,312155658,AMBUSH51,1,1,48,2,1,1,225,2,1,0,0,9,1,225,2,1,-159001.5016047802,-4791562.847578672,4196717.640124209,2.61735,3.0149,-0.104253,-120.119,20.6854,17.4246,-0.225497,-7.39301,6.53132,0.133013,0.00996709,0.0430465,4,0,41.38878956471467,-91.90058517345494,8951.344744341053,-81.9823605718781,-0.0500795212159456,18.291031358610173,200.048,9000.684068445347,11088.532817195925,150,False,6.1939243719100645,False,162.72881021547397,171.00061933149954,False,26.194097484012836,True,False
9,1970-07-23 11:40:17.313372010,2025-09-17,2025-09-26 15:08:51.337,AA,D,518495694,JASSM,3,105,76,2,2,1,225,9,2,0,1,26,0,0,0,0,-170090.16101248687,-4793368.459932174,4194720.621550083,-2.29541,0.0349939,-0.0796711,89.75,3.125,7.125,0.0,0.0,0.0,0.0,0.0,0.0,2,0,41.36230406802479,-92.03225794369312,9999.999515673988,83.90881506143897,-0.004715148473155,0.0061916963355936,,9000.684068445347,11088.532817195925,150,9,2025-09-17,2025-09-26 15:08:51.436,AA,D,313746324,AMBUSH51,1,1,48,2,1,1,225,2,1,0,0,9,1,225,2,1,-159161.42390855358,-4791532.392690043,4196741.791536611,2.76493,2.9809,-0.127451,-119.346,24.8412,20.0053,-0.133144,-7.19335,6.40978,0.0818329,0.0106703,0.0345868,4,0,41.38910218988734,-91.9025074444668,8941.874464923365,-79.70315883564865,-0.6057229270666405,26.508536423130945,200.488,9000.684068445347,11088.532817195925,150,False,6.060216177710983,False,160.51032452775928,170.53813088911915,False,28.901828213345258,True,False
9,1970-07-23 11:40:17.324391312,2025-09-17,2025-09-26 15:08:52.439,AA,D,519808044,JASSM,3,105,76,2,2,1,225,9,2,0,1,26,0,0,0,0,-169991.43054373687,-4793365.007783736,4194728.516081333,-2.29541,0.0349939,-0.0796711,89.75,3.125,7.125,0.0,0.0,0.0,0.0,0.0,0.0,2,0,41.362398727474805,-92.0310807498722,10000.000972219152,83.90959297325487,-0.0038265547957892,0.0061920742741937,,9000.684068445347,11088.532817195925,150,9,2025-09-17,2025-09-26 15:08:52.469,AA,D,314979088,AMBUSH51,1,1,48,2,1,1,225,2,1,0,0,9,1,225,2,1,-159283.52319045924,-4791504.781687642,4196763.432788864,2.84239,2.95223,-0.152865,-118.383,28.4913,22.9313,-0.304292,-7.84043,6.82362,0.0560294,0.0129777,0.0432358,4,0,41.389388399159145,-91.90397682598088,8930.875618817117,-77.5332165169422,-0.8378290282883635,30.68945399873313,200.635,9000.684068445347,11088.532817195925,150,False,5.9484995579343005,False,158.31966622064496,170.12619039530693,False,31.513236354389274,False,False
9,1970-07-23 11:40:17.336413615,2025-09-17,2025-09-26 15:08:53.641,AA,D,521180046,JASSM,3,105,76,2,2,1,225,9,2,0,1,26,0,0,0,0,-169888.21228201812,-4793361.396455611,4194736.769011021,-2.29541,0.0349939,-0.0796711,89.75,3.125,7.125,0.0,0.0,0.0,0.0,0.0,0.0,2,0,41.362497687216646,-92.029850044022,10000.00134942314,83.9104062483925,-0.0028975697218561,0.006192479784037,,9000.684068445347,11088.532817195925,150,9,2025-09-17,2025-09-26 15:08:53.769,AA,D,316529986,AMBUSH51,1,1,48,2,1,1,225,2,1,0,0,9,1,225,2,1,-159436.04377063317,-4791463.751580086,4196795.566157536,2.92379,2.90119,-0.196538,-116.383,34.0022,27.3029,-0.309669,-8.19334,6.75977,0.052871,0.0204949,0.042054,4,0,41.38981922415974,-91.90581492660748,8912.123420183207,-73.74371138567764,-1.2728760256245295,34.7751459974231,201.074,9000.684068445347,11088.532817195925,150,False,5.821211923996329,False,154.96662127909374,169.56613953984282,False,35.436749208430065,False,False
9,1970-07-23 11:40:17.347408388,2025-09-17,2025-09-26 15:08:54.740,AA,D,522492398,JASSM,3,105,76,2,2,1,225,9,2,0,1,26,0,0,0,0,-169789.4815691275,-4793357.941377486,4194744.661589146,-2.29541,0.0349939,-0.0795753,89.75,3.125,7.125,0.0,0.0,0.0,0.0,0.0,0.0,2,0,41.362592326304295,-92.02867284154858,10000.00165528684,83.91529682181601,-0.0056505549110551,0.0061925868447671,,9000.684068445347,11088.532817195925,150,9,2025-09-17,2025-09-26 15:08:54.670,AA,D,317603686,AMBUSH51,1,1,48,2,1,1,225,2,1,0,0,9,1,225,2,1,-159540.91930291726,-4791430.562925922,4196821.7362315,2.96512,2.8674,-0.221433,-114.588,38.6784,30.6515,-0.337957,-8.2405,7.11049,0.0323668,0.0255112,0.0545189,4,0,41.390172555292615,-91.90708082824943,8895.83548809518,-71.40948178477169,-1.6850498015718438,36.68115593252384,201.148,9000.684068445347,11088.532817195925,150,False,5.720192328053792,False,152.2299986557938,169.105018410608,False,38.64365315195108,False,False
9,1970-07-23 11:40:17.358428656,2025-09-17,2025-09-26 15:08:55.842,AA,D,523864402,JASSM,3,105,76,2,2,1,225,9,2,0,1,26,0,0,0,0,-169686.26306326812,-4793354.327119674,4194752.911589146,-2.29541,0.0349939,-0.0795753,89.75,3.125,7.125,0.0,0.0,0.0,0.0,0.0,0.0,2,0,41.36269125796756,-92.02744212672825,9999.999233447796,83.91611010598349,-0.0047215688959812,0.0061930564932732,,9000.684068445347,11088.532817195925,150,9,2025-09-17,2025-09-26 15:08:55.935,AA,D,319114818,AMBUSH51,1,1,48,2,1,1,225,2,1,0,0,9,1,225,2,1,-159684.12899607475,-4791378.289484999,4196863.601060954,2.7895,2.80821,-0.277684,-111.6,43.3949,35.882,-0.257647,-9.32559,7.72335,-0.23437,0.0308604,0.0592148,4,0,41.39073775578341,-91.90881223643062,8869.79422576329,-66.80829494559342,-1.8341232526763016,25.63909315475187,201.111,9000.684068445347,11088.532817195925,150,False,5.600971161720677,False,148.72803354961113,168.43432071903777,False,42.81105822833652,False,False
9,1970-07-23 11:40:17.369728429,2025-09-17,2025-09-26 15:08:56.972,AA,D,525176754,JASSM,3,105,76,2,2,1,225,9,2,0,1,26,0,0,0,0,-169587.5322283072,-4793350.870088424,4194760.802214146,-2.29541,0.0349939,-0.0795753,89.75,3.125,7.125,0.0,0.0,0.0,0.0,0.0,0.0,2,0,41.36278587086265,-92.02626491664684,10000.00080249722,83.91688803451008,-0.0038329732993102,0.0061935005409723,,9000.684068445347,11088.532817195925,150,9,2025-09-17,2025-09-26 15:08:57.068,AA,D,320466882,AMBUSH51,1,1,48,2,1,1,225,2,1,0,0,9,1,225,2,1,-159808.58513885085,-4791329.032949733,4196906.63720813,2.49927,2.80276,-0.323384,-109.585,43.9625,40.4941,-0.143213,-9.86796,8.39669,-0.269964,0.0362804,0.00237292,4,0,41.39129661745303,-91.91031846690522,8852.189353099584,-64.72523761198664,-0.2192851455269671,8.88053447879588,201.404,9000.684068445347,11088.532817195925,150,True,5.494433640104005,False,146.79876279229117,167.77879459244147,False,45.35893685063698,False,False
9,1970-07-23 11:40:17.381352775,2025-09-17,2025-09-26 15:08:58.135,AA,D,526489104,JASSM,3,105,76,2,2,1,225,9,2,0,1,26,0,0,0,0,-169488.80151541656,-4793347.411104049,4194768.691862583,-2.29541,0.0349939,-0.0795753,89.75,3.125,7.125,0.0,0.0,0.0,0.0,0.0,0.0,2,0,41.36288047670084,-92.0250877054377,10000.00050128708,83.91766596524747,-0.0029443788921933,0.0061939496827721,,9000.684068445347,11088.532817195925,150,9,2025-09-17,2025-09-26 15:08:58.302,AA,D,321938248,AMBUSH51,1,1,48,2,1,1,225,2,1,0,0,9,1,225,2,1,-159944.10578641214,-4791276.222214185,4196958.611272896,2.27691,2.8259,-0.339258,-108.842,41.4972,43.1029,-0.104869,-9.63891,7.80567,-0.0775531,0.0230624,-0.0140971,4,0,41.39193475158896,-91.9119583088568,8846.149217430793,-64.94594488179528,1.3154886881703558,-3.430992222588026,200.964,9000.684068445347,11088.532817195925,150,True,5.384487769746753,False,146.51291009364124,167.03278165506848,False,46.32398990747173,False,False
9,1970-07-23 11:40:17.391353526,2025-09-17,2025-09-26 15:08:59.135,AA,D,527801454,JASSM,3,105,76,2,2,1,225,9,2,0,1,26,0,0,0,0,-169390.07080252594,-4793343.951143111,4194776.580534458,-2.29541,0.0349939,-0.0795753,89.75,3.125,7.125,0.0,0.0,0.0,0.0,0.0,0.0,2,0,41.36297506970353,-92.02391049123106,10000.000722369254,83.91844389943147,-0.0020557848913046,0.0061943980239284,,9000.684068445347,11088.532817195925,150,9,2025-09-17,2025-09-26 15:08:59.102,AA,D,322892646,AMBUSH51,1,1,48,2,1,1,225,2,1,0,0,9,1,225,2,1,-160031.0902343686,-4791243.738941737,4196993.30478281,2.23553,2.84179,-0.339165,-108.638,39.6822,43.6069,-0.175821,-8.96997,7.18538,-0.0185454,0.0172284,-0.0107182,4,0,41.392344926622805,-91.91301030115396,8848.649238041176,-65.54427344425703,1.932861795836485,-5.515734344039067,200.048,9000.684068445347,11088.532817195925,150,True,5.295871481362789,False,146.78099678709413,166.490998323414,False,46.557515690054984,False,False
9,1970-07-23 11:40:17.402369888,2025-09-17,2025-09-26 15:09:00.236,AA,D,529113806,JASSM,3,105,76,2,2,1,225,9,2,0,1,26,0,0,0,0,-169291.339967565,-4793340.490205611,4194784.468229771,-2.29541,0.0350898,-0.0795753,89.75,3.125,7.125,0.0,0.0,0.0,0.0,0.0,0.0,2,0,41.36306964989633,-92.02273327256988,10000.001455116646,83.91559176526509,-0.0052668148734958,0.0066317092879345,,9000.684068445347,11088.532817195925,150,9,2025-09-17,2025-09-26 15:09:00.369,AA,D,324403778,AMBUSH51,1,1,48,2,1,1,225,2,1,0,0,9,1,225,2,1,-160168.4331365576,-4791195.022347681,4197048.178343553,2.26041,2.85182,-0.338799,-108.479,37.5316,43.6442,-0.0414742,-8.28771,6.78351,0.0662326,0.0109325,4.68134e-05,4,0,41.39297788632018,-91.91467032915725,8859.140237002033,-65.93409714868484,2.312927691543482,-3.91386444866458,198.789,9000.684068445347,11088.532817195925,150,True,5.18663997046009,False,147.28098075024818,165.69284396725385,False,46.812145670370384,False,False
9,1970-07-23 11:40:17.414409296,2025-09-17,2025-09-26 15:09:01.440,AA,D,530485810,JASSM,3,105,76,2,2,1,225,9,2,0,1,26,0,0,0,0,-169188.1213396353,-4793336.870088424,4194792.713346958,-2.29541,0.0350898,-0.0795753,89.75,3.125,7.125,0.0,0.0,0.0,0.0,0.0,0.0,2,0,41.36316851990252,-92.02150254077954,10000.000616657417,83.91640506834949,-0.004337829467594,0.0066321217771106,,9000.684068445347,11088.532817195925,150,9,2025-09-17,2025-09-26 15:09:01.302,AA,D,325517244,AMBUSH51,1,1,48,2,1,1,225,2,1,0,0,9,1,225,2,1,-160270.4620031878,-4791159.931443202,4197089.189382901,2.2973,2.85655,-0.337149,-108.217,36.6082,43.7113,-0.25444,-7.99601,6.78869,0.0412676,-0.00297005,-0.00260594,4,0,41.39344320762221,-91.91590310599872,8870.181780735844,-66.1792464787762,2.434589164009697,-1.7204394965884808,197.848,9000.684068445347,11088.532817195925,150,True,5.090496606935152,False,147.4333210057984,165.03474430379578,False,47.29690793594411,False,False
9,1970-07-23 11:40:17.424411524,2025-09-17,2025-09-26 15:09:02.441,AA,D,531738510,JASSM,3,105,76,2,2,1,225,9,2,0,1,26,0,0,0,0,-169093.8781755728,-4793333.564424361,4194800.239714146,-2.29541,0.0350898,-0.0795753,89.75,3.125,7.125,0.0,0.0,0.0,0.0,0.0,0.0,2,0,41.363258771008574,-92.02037882521078,9999.99995642669,83.91714765342479,-0.0034896259684206,0.0066324883441047,,9000.684068445347,11088.532817195925,150,9,2025-09-17,2025-09-26 15:09:02.470,AA,D,326909076,AMBUSH51,1,1,48,2,1,1,225,2,1,0,0,9,1,225,2,1,-160396.00782553304,-4791117.710962159,4197139.856273375,2.34106,2.85723,-0.342815,-107.88,35.9167,44.0199,-0.240196,-7.63416,6.96876,0.028372,0.00458043,-0.00188606,4,0,41.39401143277573,-91.91741966845072,8886.576384580838,-65.96916971198252,2.68542043775084,0.8093531903889443,197.066,9000.684068445347,11088.532817195925,150,True,4.99013428021083,False,147.42873723696593,164.24839485106446,False,48.067566920543165,False,False
9,1970-07-23 11:40:17.435728337,2025-09-17,2025-09-26 15:09:03.572,AA,D,532991208,JASSM,3,105,76,2,2,1,225,9,2,0,1,26,0,0,0,0,-168999.6350115103,-4793330.256807174,4194807.766081333,-2.29541,0.0350898,-0.0795753,89.75,3.125,7.125,0.0,0.0,0.0,0.0,0.0,0.0,2,0,41.36334902274956,-92.0192551073593,9999.999084552288,83.91789024134187,-0.0026414218662795,0.0066328664780728,,9000.684068445347,11088.532817195925,150,9,2025-09-17,2025-09-26 15:09:03.668,AA,D,328340674,AMBUSH51,1,1,48,2,1,1,225,2,1,0,0,9,1,225,2,1,-160525.4468475044,-4791074.510816855,4197192.612338541,2.35911,2.85737,-0.344515,-107.485,35.6909,44.3928,-0.23405,-7.37807,6.8181,0.0175217,0.00289931,0.000375547,4,0,41.394598793604,-91.91898315304395,8905.424681972961,-65.904386847618,2.759037517159382,1.8490175234935065,196.614,9000.684068445347,11088.532817195925,150,True,4.8892601746095155,False,147.27247678871592,163.40815325860876,False,49.05461180850335,False,False
9,1970-07-23 11:40:17.446470312,2025-09-17,2025-09-26 15:09:04.647,AA,D,534303558,JASSM,3,105,76,2,2,1,225,9,2,0,1,26,0,0,0,0,-168900.90417654935,-4793326.791963424,4194815.649870396,-2.29541,0.0350898,-0.0795753,89.75,3.125,7.125,0.0,0.0,0.0,0.0,0.0,0.0,2,0,41.36344355214707,-92.01807787686607,10000.001677207145,83.91866819351807,-0.0017528287765832,0.0066332544293426,,9000.684068445347,11088.532817195925,150,9,2025-09-17,2025-09-26 15:09:04.836,AA,D,329732506,AMBUSH51,1,1,48,2,1,1,225,2,1,0,0,9,1,225,2,1,-160651.4371138832,-4791032.18734419,4197244.723190719,2.38467,2.85112,-0.346796,-106.985,36.0387,44.655,-0.239912,-7.05445,6.47994,0.00857517,-0.00872914,-0.00278072,4,0,41.39517724922588,-91.9205051145909,8924.75617583112,-65.57879438098531,2.6052669750192488,3.2078598526387654,196.162,9000.684068445347,11088.532817195925,150,True,4.788695234597209,False,146.98818349415401,162.53811730838004,False,50.21830884140043,False,False
9,1970-07-23 11:40:17.456351656,2025-09-17,2025-09-26 15:09:05.635,AA,D,535556256,JASSM,3,105,76,2,2,1,225,9,2,0,1,26,0,0,0,0,-168806.66076834625,-4793323.482393111,4194823.174284458,-2.29541,0.0350898,-0.0794794,89.75,3.125,7.125,0.0,0.0,0.0,0.0,0.0,0.0,2,0,41.36353377988508,-92.0169541505644,10000.0011514957,83.92352341462167,-0.0045462354825173,0.0066334351591237,,9000.684068445347,11088.532817195925,150,9,2025-09-17,2025-09-26 15:09:05.702,AA,D,330766438,AMBUSH51,1,1,48,2,1,1,225,2,1,0,0,9,1,225,2,1,-160743.4588733685,-4791000.672540182,4197283.084433092,2.40086,2.84409,-0.344686,-106.638,36.7083,44.679,-0.255464,-6.79472,6.18582,-0.00117242,-0.00598483,-0.000417159,4,0,41.39560534119408,-91.9216169934648,8938.051937645592,-65.406178895564,2.247955987310841,4.006163805958274,195.588,9000.684068445347,11088.532817195925,150,True,4.704741652477999,False,146.7372460607667,161.82976914032918,False,51.19939698331017,False,False
9,1970-07-23 11:40:17.467371310,2025-09-17,2025-09-26 15:09:06.737,AA,D,536808966,JASSM,3,105,76,2,2,1,225,9,2,0,1,26,0,0,0,0,-168712.4166887564,-4793320.171846236,4194830.697721958,-2.29541,0.0350898,-0.0794794,89.75,3.125,7.125,0.0,0.0,0.0,0.0,0.0,0.0,2,0,41.3636239959977,-92.01583041355366,10000.000641917402,83.92426601923657,-0.0036980244441566,0.0066338711066628,,9000.684068445347,11088.532817195925,150,9,2025-09-17,2025-09-26 15:09:06.903,AA,D,332198038,AMBUSH51,1,1,48,2,1,1,225,2,1,0,0,9,1,225,2,1,-160872.29139401382,-4790955.636751355,4197336.658865887,2.30092,2.8296,-0.340875,-106.405,37.4691,44.4645,-0.0424169,-6.43208,5.79836,-0.256131,-0.00738715,-0.00812992,4,0,41.39620920689788,-91.92317403765357,8954.139900039789,-65.02499345590947,1.533187233073225,-1.9865131541644103,195.368,9000.684068445347,11088.532817195925,150,True,4.607832350158364,False,146.56613939790589,160.87369884330104,False,52.356570881691844,False,False
9,1970-07-23 11:40:17.476408832,2025-09-17,2025-09-26 15:09:07.640,AA,D,537942362,JASSM,3,105,76,2,2,1,225,9,2,0,1,26,0,0,0,0,-168627.14886649078,-4793317.175752486,4194837.503386021,-2.29541,0.0350898,-0.0794794,89.75,3.125,7.125,0.0,0.0,0.0,0.0,0.0,0.0,2,0,41.36370560700579,-92.01481370432204,9999.999412614345,83.92493789731162,-0.0029306016878105,0.0066342625082408,,9000.684068445347,11088.532817195925,150,9,2025-09-17,2025-09-26 15:09:07.535,AA,D,332953604,AMBUSH51,1,1,48,2,1,1,225,2,1,0,0,9,1,225,2,1,-160939.8606846352,-4790931.614930916,4197364.284845172,2.14323,2.82112,-0.339145,-106.623,37.9006,43.4603,0.0706966,-6.30475,5.8278,-0.226072,-0.00541059,-0.00692942,4,0,41.396525109914165,-91.9239908384189,8960.568986134225,-64.77914303681102,1.13489957496415,-11.177787489611058,195.404,9000.684068445347,11088.532817195925,150,False,4.539278116468118,False,146.83627090818737,160.27390510103143,False,52.719910916979124,False,False
9,1970-07-23 11:40:17.487727877,2025-09-17,2025-09-26 15:09:08.772,AA,D,539254702,JASSM,3,105,76,2,2,1,225,9,2,0,1,26,0,0,0,0,-168528.4185198111,-4793313.706025924,4194845.383268833,-2.29541,0.0350898,-0.0794794,89.75,3.125,7.125,0.0,0.0,0.0,0.0,0.0,0.0,2,0,41.36380009349936,-92.01363646885864,10000.000587361086,83.92571585826593,-0.0020420142977088,0.0066347172153416,,9000.684068445347,11088.532817195925,150,9,2025-09-17,2025-09-26 15:09:08.702,AA,D,334345434,AMBUSH51,1,1,48,2,1,1,225,2,1,0,0,9,1,225,2,1,-161064.2064884514,-4790887.565879279,4197413.166379514,2.00677,2.83091,-0.307478,-107.711,37.786,40.7503,-0.303948,-6.28779,5.98924,-0.0684172,-0.00519212,-0.0405289,4,0,41.39709228628246,-91.92549392921944,8968.548428581482,-66.4566688703492,0.2616351425858005,-18.838680793000457,195.893,9000.684068445347,11088.532817195925,150,False,4.443508168894794,False,147.99050512379847,159.2744758354208,False,52.61790904101814,False,False
9,1970-07-23 11:40:17.498449788,2025-09-17,2025-09-26 15:09:09.844,AA,D,540567052,JASSM,3,105,76,2,2,1,225,9,2,0,1,26,0,0,0,0,-168429.68737967435,-4793310.235322799,4194853.262175083,-2.29541,0.0351857,-0.0794794,89.75,3.125,7.125,0.0,0.0,0.0,0.0,0.0,0.0,2,0,41.363894567322845,-92.012459220927,10000.002215681496,83.92286383799362,-0.0052528890402887,0.0070714915308688,,9000.684068445347,11088.532817195925,150,9,2025-09-17,2025-09-26 15:09:09.835,AA,D,335697500,AMBUSH51,1,1,48,2,1,1,225,2,1,0,0,9,1,225,2,1,-161188.0530954905,-4790844.765935485,4197457.492155104,1.96781,2.84626,-0.277097,-109.297,37.052,37.3685,-0.00402117,-7.0083,6.31899,0.0345764,0.0134354,-0.0106142,4,0,41.39762135488105,-91.92699057960606,8969.685167176713,-68.29788052918917,-0.3307949345283276,-20.81651425151952,196.309,9000.684068445347,11088.532817195925,150,False,4.348356830700533,False,149.61863776406125,158.2577370369888,False,52.051166971016386,False,False
9,1970-07-23 11:40:17.509225152,2025-09-17,2025-09-26 15:09:10.922,AA,D,541819752,JASSM,3,105,76,2,2,1,225,9,2,0,1,26,0,0,0,0,-168335.4439104361,-4793306.919893111,4194860.781706333,-2.29541,0.0351857,-0.0794794,89.75,3.125,7.125,0.0,0.0,0.0,0.0,0.0,0.0,2,0,41.36398474204843,-92.01133548083934,9999.999652857685,83.92360644995127,-0.0044046847314906,0.0070718768100742,,9000.684068445347,11088.532817195925,150,9,2025-09-17,2025-09-26 15:09:10.901,AA,D,336970032,AMBUSH51,1,1,48,2,1,1,225,2,1,0,0,9,1,225,2,1,-161304.7704163705,-4790806.291466782,4197495.700525252,2.10451,2.86762,-0.25406,-110.688,35.6571,35.0222,-0.248296,-7.2241,6.6307,0.220242,-0.00158229,-0.0478381,4,0,41.39808480204616,-91.92840034790386,8967.608365654974,-70.06941246540069,-0.3782146092625048,-12.65180974132745,196.956,9000.684068445347,11088.532817195925,150,False,4.258418219095018,False,151.04486551626604,157.2789215398909,False,51.617043123689136,False,False
9,1970-07-23 11:40:17.520348054,2025-09-17,2025-09-26 15:09:12.034,AA,D,543191756,JASSM,3,105,76,2,2,1,225,9,2,0,1,26,0,0,0,0,-168232.2248857779,-4793303.289033736,4194869.016081333,-2.29541,0.0351857,-0.0794794,89.75,3.125,7.125,0.0,0.0,0.0,0.0,0.0,0.0,2,0,41.36408348151884,-92.01010471434606,10000.000097014236,83.92441979072684,-0.0034757002258823,0.007072288063994,,9000.684068445347,11088.532817195925,150,9,2025-09-17,2025-09-26 15:09:12.034,AA,D,338322098,AMBUSH51,1,1,48,2,1,1,225,2,1,0,0,9,1,225,2,1,-161431.5376318519,-4790765.722587824,4197535.106996087,2.30903,2.883,-0.246625,-111.489,34.8015,34.3454,-0.270398,-7.71264,7.15671,0.188823,0.00862094,0.011334,4,0,41.39856676466266,-91.92993103623807,8963.820868830317,-70.96479692804276,-0.0451585812589775,-0.7123379224609564,197.139,9000.684068445347,11088.532817195925,150,True,4.161168947252213,False,151.66011544594994,156.18054302939885,False,52.09694653698085,False,False
9,1970-07-23 11:40:17.531368957,2025-09-17,2025-09-26 15:09:13.136,AA,D,544504106,JASSM,3,105,76,2,2,1,225,9,2,0,1,26,0,0,0,0,-168133.49365408844,-4793299.814424361,4194876.892057896,-2.29541,0.0351857,-0.0794794,89.75,3.125,7.125,0.0,0.0,0.0,0.0,0.0,0.0,2,0,41.3641779226576,-92.00892745674471,10000.00088103937,83.92519777213619,-0.0025871062116676,0.007072688420505,,9000.684068445347,11088.532817195925,150,9,2025-09-17,2025-09-26 15:09:13.168,AA,D,339674162,AMBUSH51,1,1,48,2,1,1,225,2,1,0,0,9,1,225,2,1,-161558.3811876163,-4790726.142229037,4197574.074381391,2.475,2.88033,-0.259729,-111.411,34.7416,35.4329,-0.23438,-7.4548,6.74824,0.0439619,-0.00059609,0.00901418,4,0,41.39903984725567,-91.93146226147591,8961.528350510878,-70.31598430614315,0.3602336095133556,8.760646901551778,197.518,9000.684068445347,11088.532817195925,150,True,4.0674324092877665,False,151.30796285020767,155.0508469962016,False,53.560402118294405,False,False
9,1970-07-23 11:40:17.542386604,2025-09-17,2025-09-26 15:09:14.238,AA,D,545756804,JASSM,3,105,76,2,2,1,225,9,2,0,1,26,0,0,0,0,-168039.25009329742,-4793296.496064986,4194884.408659458,-2.29541,0.0351857,-0.0794794,89.75,3.125,7.125,0.0,0.0,0.0,0.0,0.0,0.0,2,0,41.364268060536304,-92.00780370704187,9999.999189454413,83.92594039463668,-0.0017389022942628,0.00707307123624,,9000.684068445347,11088.532817195925,150,9,2025-09-17,2025-09-26 15:09:14.302,AA,D,341026228,AMBUSH51,1,1,48,2,1,1,225,2,1,0,0,9,1,225,2,1,-161684.3396058468,-4790685.859809933,4197614.0931598535,2.4175,2.86407,-0.273937,-111.106,35.647,36.4835,-0.0652176,-7.29369,6.58694,-0.115226,-0.000234067,0.0257671,4,0,41.39952436153722,-91.93298321826636,8959.726551302758,-69.10833514240764,0.262810320990003,5.226727493271548,197.812,9000.684068445347,11088.532817195925,150,True,3.9782928691867214,False,150.65592736977806,153.8789111079853,False,55.38405056302705,False,False
9,1970-07-23 11:40:17.553729169,2025-09-17,2025-09-26 15:09:15.372,AA,D,547009504,JASSM,3,105,76,2,2,1,225,9,2,0,1,26,0,0,0,0,-167945.00650198883,-4793293.177705611,4194891.924284458,-2.29541,0.0351857,-0.0793835,89.75,3.125,7.125,0.0,0.0,0.0,0.0,0.0,0.0,2,0,41.36435818085075,-92.00667995387349,9999.99997263928,83.93079561767689,-0.0045323425652094,0.0070732527999669,,9000.684068445347,11088.532817195925,150,9,2025-09-17,2025-09-26 15:09:15.369,AA,D,342298760,AMBUSH51,1,1,48,2,1,1,225,2,1,0,0,9,1,225,2,1,-161803.38804715124,-4790647.142544661,4197652.801323482,2.20059,2.86175,-0.278949,-111.228,35.7537,36.6445,0.101982,-7.20514,6.55672,-0.249319,0.00670888,-0.00275367,4,0,41.39999208563066,-91.9344210177336,8958.366571250954,-68.81248502931045,0.3677955368375207,-7.235659174505725,198.117,9000.684068445347,11088.532817195925,150,True,3.893477088225645,False,150.5981178393177,152.6962686340583,False,56.624315529604964,False,False
9,1970-07-23 11:40:17.563446658,2025-09-17,2025-09-26 15:09:16.344,AA,D,548321856,JASSM,3,105,76,2,2,1,225,9,2,0,1,26,0,0,0,0,-167846.27500327057,-4793289.699189986,4194899.797331333,-2.29541,0.0351857,-0.0793835,89.75,3.125,7.125,0.0,0.0,0.0,0.0,0.0,0.0,2,0,41.36445259043587,-92.00550268481732,9999.99943882154,83.93157361087981,-0.0036437470969521,0.0070737201471971,,9000.684068445347,11088.532817195925,150,9,2025-09-17,2025-09-26 15:09:16.269,AA,D,343372458,AMBUSH51,1,1,48,2,1,1,225,2,1,0,0,9,1,225,2,1,-161903.66796682007,-4790615.072430207,4197684.913257708,1.97956,2.87027,-0.266321,-112.094,35.1331,35.0263,0.0400372,-7.18265,6.48967,-0.231623,0.0135228,-0.0296932,4,0,41.40037949264834,-91.93563193848594,8957.492686098185,-69.66262582609816,0.2156104474425247,-19.77296825534109,198.863,9000.684068445347,11088.532817195925,150,False,3.813962240026502,False,151.4602797941741,151.5901579191876,False,56.88468785642806,False,False
9,1970-07-23 11:40:17.575446309,2025-09-17,2025-09-26 15:09:17.544,AA,D,549693864,JASSM,3,105,76,2,2,1,225,9,2,0,1,26,0,0,0,0,-167743.0554178519,-4793286.062471236,4194908.026823521,-2.29541,0.0351857,-0.0793835,89.75,3.125,7.125,0.0,0.0,0.0,0.0,0.0,0.0,2,0,41.36455126948124,-92.00427189645237,10000.00094921414,83.93238697365307,-0.0027147593255136,0.0070741994598262,,9000.684068445347,11088.532817195925,150,9,2025-09-17,2025-09-26 15:09:17.569,AA,D,344923358,AMBUSH51,1,1,48,2,1,1,225,2,1,0,0,9,1,225,2,1,-162051.16276450665,-4790570.560785027,4197727.543764183,1.69838,2.89242,-0.220966,-114.091,33.0354,30.4008,0.330452,-6.80949,6.09636,-0.147499,0.00998998,-0.0423391,4,0,41.40090240838023,-91.93741195021774,8952.774149983066,-72.40384635085296,-0.6561440677746612,-35.56673437839169,199.461,9000.684068445347,11088.532817195925,150,False,3.717778759815283,False,153.91117180574741,150.08748606132102,False,55.97142921794661,False,False
9,1970-07-23 11:40:17.586229960,2025-09-17,2025-09-26 15:09:18.622,AA,D,551065796,JASSM,3,105,76,2,2,1,225,9,2,0,1,26,0,0,0,0,-167639.84146292633,-4793282.423799361,4194916.254362583,-2.29541,0.0352816,-0.0793835,89.75,3.125,7.125,0.0,0.0,0.0,0.0,0.0,0.0,2,0,41.36464993260818,-92.0030411724058,9999.999414847927,83.92957010440003,-0.0058854542034413,0.0075105344154738,,9000.684068445347,11088.532817195925,150,9,2025-09-17,2025-09-26 15:09:18.668,AA,D,346235656,AMBUSH51,1,1,48,2,1,1,225,2,1,0,0,9,1,225,2,1,-162177.34779265648,-4790535.221484326,4197757.456756315,1.63702,2.91555,-0.166235,-116.231,31.123,24.3717,-0.230821,-7.51458,6.56147,-0.025763,0.0307626,-0.0734273,4,0,41.40128916978641,-91.93893370379551,8941.2605650511,-75.59156574820605,-1.826864517099528,-38.75794093266863,200.268,9000.684068445347,11088.532817195925,150,False,3.6285756513048932,False,156.73854656337718,148.71783385029312,False,54.54323817923603,False,False
9,1970-07-23 11:40:17.597347980,2025-09-17,2025-09-26 15:09:19.734,AA,D,552378212,JASSM,3,105,76,2,2,1,225,9,2,0,1,26,0,0,0,0,-167541.10501273102,-4793278.942354049,4194924.124479771,-2.29541,0.0352816,-0.0793835,89.75,3.125,7.125,0.0,0.0,0.0,0.0,0.0,0.0,2,0,41.36474430361849,-92.00186383494268,10000.0004800726,83.93034814730342,-0.0049968156907092,0.00751093938807,,9000.684068445347,11088.532817195925,150,9,2025-09-17,2025-09-26 15:09:19.634,AA,D,347388888,AMBUSH51,1,1,48,2,1,1,225,2,1,0,0,9,1,225,2,1,-162290.61476432116,-4790506.373389807,4197778.14741524,1.57004,2.94158,-0.119466,-117.865,28.4847,18.8186,-0.114769,-7.85413,6.5293,-0.100746,0.0234681,-0.0343704,4,0,41.401577641242014,-91.94029852336185,8924.635148946194,-78.56910582170885,-2.541830344265448,-42.269952668115145,200.488,9000.684068445347,11088.532817195925,150,False,3.545424701721976,False,159.51248487618236,147.44517180302483,False,53.0302820764546,False,False
9,1970-07-23 11:40:17.608365435,2025-09-17,2025-09-26 15:09:20.836,AA,D,553630912,JASSM,3,105,76,2,2,1,225,9,2,0,1,26,0,0,0,0,-167446.86114676422,-4793275.618135299,4194931.635221958,-2.29541,0.0352816,-0.0793835,89.75,3.125,7.125,0.0,0.0,0.0,0.0,0.0,0.0,2,0,41.36483436782743,-92.00074006455742,10000.000520426858,83.9310907917923,-0.0041486114641802,0.0075113243279323,,9000.684068445347,11088.532817195925,150,9,2025-09-17,2025-09-26 15:09:20.935,AA,D,348939786,AMBUSH51,1,1,48,2,1,1,225,2,1,0,0,9,1,225,2,1,-162446.3515961125,-4790471.690325855,4197796.543579838,1.48261,2.97506,-0.0517791,-119.807,24.7527,9.45743,0.0163966,-8.46009,6.71411,-0.038594,0.0402106,-0.0771974,4,0,41.40187675156195,-91.94217309202732,8892.228972793653,-82.73653683714976,-3.717562700694956,-46.88762217049446,201.453,9000.684068445347,11088.532817195925,150,False,3.4489427719781243,False,163.67075191814047,145.87880359006053,False,50.274137419317476,False,False
9,1970-07-23 11:40:17.619726156,2025-09-17,2025-09-26 15:09:21.972,AA,D,555002914,JASSM,3,105,76,2,2,1,225,9,2,0,1,26,0,0,0,0,-167343.64178641266,-4793271.975557174,4194939.860807896,-2.29541,0.0352816,-0.0793835,89.75,3.125,7.125,0.0,0.0,0.0,0.0,0.0,0.0,2,0,41.36493300432688,-91.99950926693828,10000.00048937666,83.9319041668349,-0.0032196266691246,0.007511753343476,,9000.684068445347,11088.532817195925,150,9,2025-09-17,2025-09-26 15:09:21.902,AA,D,350093018,AMBUSH51,1,1,48,2,1,1,225,2,1,0,0,9,1,225,2,1,-162562.8636058432,-4790449.670213349,4197802.561552598,1.44586,3.01449,0.0127304,-120.886,20.7075,2.49033,-0.141692,-9.42462,7.87733,-0.0438933,0.0534141,-0.0533371,4,0,41.402024858575686,-91.94357394327665,8860.848738199955,-87.01105522225768,-4.485601043923913,-48.64328093996608,201.967,9000.684068445347,11088.532817195925,150,False,3.3611539241833044,False,166.98152931591065,144.53189825035946,False,48.03640593757287,False,False
9,1970-07-23 11:40:17.630410491,2025-09-17,2025-09-26 15:09:23.041,AA,D,556255614,JASSM,3,105,76,2,2,1,225,9,2,0,1,26,0,0,0,0,-167249.39795096344,-4793268.648408736,4194947.369596958,-2.29541,0.0352816,-0.0793835,89.75,3.125,7.125,0.0,0.0,0.0,0.0,0.0,0.0,2,0,41.36502304975595,-91.99838549164592,9999.99871527432,83.93264681735593,-0.0023714232082991,0.0075121425132087,,9000.684068445347,11088.532817195925,150,9,2025-09-17,2025-09-26 15:09:22.901,AA,D,351286018,AMBUSH51,1,1,48,2,1,1,225,2,1,0,0,9,1,225,2,1,-162684.52429023146,-4790431.651120387,4197801.024697284,1.43538,3.06358,0.0724618,-121.659,15.3256,-5.44988,-0.136235,-10.4261,8.69785,0.018587,0.064514,-0.0698466,4,0,41.40209710563872,-91.9450346914587,8823.354133324878,-91.451511931595,-4.636635709180058,-49.01039938910597,202.981,9000.684068445347,11088.532817195925,150,False,3.2741158185987067,False,170.6299390567658,143.18893819062868,False,45.07738302034863,False,False
9,1970-07-23 11:40:17.640443894,2025-09-17,2025-09-26 15:09:24.044,AA,D,557508312,JASSM,3,105,76,2,2,1,225,9,2,0,1,26,0,0,0,0,-167155.15405447906,-4793265.321260299,4194954.878386021,-2.29541,0.0352816,-0.0793835,89.75,3.125,7.125,0.0,0.0,0.0,0.0,0.0,0.0,2,0,41.36511308422271,-91.9972617125266,10000.001530636886,83.93338947173721,-0.0015232192156532,0.0075125315960057,,9000.684068445347,11088.532817195925,150,9,2025-09-17,2025-09-26 15:09:23.901,AA,D,352479016,AMBUSH51,1,1,48,2,1,1,225,2,1,0,0,9,1,225,2,1,-162806.61099827464,-4790419.959687952,4197791.601771588,1.45374,3.13295,0.142743,-121.726,7.9367,-13.4923,-0.458468,-12.0055,10.474,0.0070605,0.089787,-0.0553261,4,0,41.40207836810401,-91.94649796852843,8784.354883766213,-97.101895799155,-4.31732637000251,-47.94457105276938,203.934,9000.684068445347,11088.532817195925,150,False,3.185065897320635,False,174.03109632594948,141.84150765911457,False,41.4027859680348,False,False
9,1970-07-23 11:40:17.651505798,2025-09-17,2025-09-26 15:09:25.150,AA,D,558820662,JASSM,3,105,76,2,2,1,225,9,2,0,1,26,0,0,0,0,-167056.42236502594,-4793261.833955611,4194962.742643833,-2.29541,0.0352816,-0.0793835,89.75,3.125,7.125,0.0,0.0,0.0,0.0,0.0,0.0,2,0,41.36520739036383,-91.99608441764852,10000.00063790856,83.93416749367108,-0.0006346256224644,0.0075129353417278,,9000.684068445347,11088.532817195925,150,9,2025-09-17,2025-09-26 15:09:25.235,AA,D,354069680,AMBUSH51,1,1,48,2,1,1,225,2,1,0,0,9,1,225,2,1,-162966.84421781485,-4790418.049533001,4197766.685897441,1.50498,-3.03151,0.222384,-119.736,-4.90115,-24.185,-0.331685,-13.6518,12.0252,0.0256173,0.096524,-0.0686024,4,0,41.401889114087794,-91.94841299976932,8738.996000399402,-104.9677481814986,-2.33874507288699,-45.78896508005378,204.545,9000.684068445347,11088.532817195925,150,False,3.074444622953284,False,173.117579163734,140.24891312546825,False,35.14392557075785,False,False
9,1970-07-23 11:40:17.662366568,2025-09-17,2025-09-26 15:09:26.236,AA,D,560073362,JASSM,3,105,76,2,2,1,225,9,2,0,1,26,0,0,0,0,-166962.17834647125,-4793258.503877486,4194970.248503208,-2.29541,0.0352816,-0.0792876,89.75,3.125,7.125,0.0,0.0,0.0,0.0,0.0,0.0,2,0,41.36529740000861,-91.9949606319484,9999.999289562424,83.93902272407998,-0.0034280970536606,0.0075132066184946,,9000.684068445347,11088.532817195925,150,9,2025-09-17,2025-09-26 15:09:26.269,AA,D,355302446,AMBUSH51,1,1,48,2,1,1,225,2,1,0,0,9,1,225,2,1,-163090.3098340719,-4790429.272346801,4197736.822187265,1.60806,-2.94752,0.279754,-116.597,-15.9249,-31.6134,-0.169139,-12.7548,11.0356,0.227169,0.0686607,-0.052663,4,0,41.4015957472489,-91.94988343694732,8712.136633959642,-110.54339176893342,-1.1219852634599543,-40.91094241151362,204.081,9000.684068445347,11088.532817195925,150,False,2.9771751651589295,False,168.05670848354387,138.93865202151173,False,30.043510089125206,False,False
9,1970-07-23 11:40:17.673744495,2025-09-17,2025-09-26 15:09:27.374,AA,D,561385714,JASSM,3,105,76,2,2,1,225,9,2,0,1,26,0,0,0,0,-166863.4465349478,-4793255.014619674,4194978.111784458,-2.29541,0.0353774,-0.0792876,89.75,3.125,7.125,0.0,0.0,0.0,0.0,0.0,0.0,2,0,41.36539168764512,-91.9937833297812,10000.00131896266,83.93617050346816,-0.0066391375210407,0.0079490548100041,,9000.684068445347,11088.532817195925,150,9,2025-09-17,2025-09-26 15:09:27.301,AA,D,356535212,AMBUSH51,1,1,48,2,1,1,225,2,1,0,0,9,1,225,2,1,-163209.14958311358,-4790450.35281376,4197701.329195759,1.8234,-2.86426,0.31589,-113.195,-25.0218,-35.4789,-0.334671,-12.8188,11.1685,0.16406,0.080595,-0.0340063,4,0,41.4012066547752,-91.95129458918112,8696.929125900593,-115.19227178363,0.7446897261743761,-29.95883852605132,202.81,9000.684068445347,11088.532817195925,150,False,2.8772310357329327,False,163.8420418387257,137.62623948538035,False,26.53065615776683,True,False
9,1970-07-23 11:40:17.684404414,2025-09-17,2025-09-26 15:09:28.440,AA,D,562698064,JASSM,3,105,76,2,2,1,225,9,2,0,1,26,0,0,0,0,-166764.71472342435,-4793251.523408736,4194985.973112583,-2.29541,0.0353774,-0.0792876,89.75,3.125,7.125,0.0,0.0,0.0,0.0,0.0,0.0,2,0,41.36548596165337,-91.992606025027,9999.99935010145,83.9369485361877,-0.0057505437338152,0.0079494693500701,,9000.684068445347,11088.532817195925,150,9,2025-09-17,2025-09-26 15:09:28.302,AA,D,357728210,AMBUSH51,1,1,48,2,1,1,225,2,1,0,0,9,1,225,2,1,-163320.4900703162,-4790479.444040289,4197664.176996503,2.00385,-2.80195,0.313198,-109.631,-33.1498,-36.9118,-0.171756,-11.9585,10.163,0.215316,0.053541,-0.0132898,4,0,41.40076021088967,-91.95261287418045,8697.203668605893,-117.48688788463012,3.254624816357458,-20.80436381302494,201.893,9000.684068445347,11088.532817195925,150,False,2.778969668328598,False,160.29926622274036,136.33574486035087,False,23.9777284511494,True,False
9,1970-07-23 11:40:17.695759991,2025-09-17,2025-09-26 15:09:29.575,AA,D,564069906,JASSM,3,105,76,2,2,1,225,9,2,0,1,26,0,0,0,0,-166661.50720389312,-4793247.873994674,4194994.189909458,-2.29541,0.0353774,-0.0792876,89.75,3.125,7.125,0.0,0.0,0.0,0.0,0.0,0.0,2,0,41.36558448996872,-91.9913753470652,10000.000878271068,83.93776184264587,-0.004821668912674,0.0079498962241468,,9000.684068445347,11088.532817195925,150,9,2025-09-17,2025-09-26 15:09:29.568,AA,D,359239342,AMBUSH51,1,1,48,2,1,1,225,2,1,0,0,9,1,225,2,1,-163456.7989231372,-4790525.435636355,4197616.836794861,2.17446,-2.74073,0.309449,-105.955,-39.9851,-36.2609,-0.218838,-11.0558,9.47488,0.0845335,0.0350611,0.00511514,4,0,41.40013937101969,-91.9542225333683,8719.043764387245,-119.75795336734905,5.72065556599186,-12.28207219050132,199.083,9000.684068445347,11088.532817195925,150,False,2.6641140593754424,False,157.44147338012488,134.84176913280703,False,22.736977910016897,True,False
9,1970-07-23 11:40:17.706386381,2025-09-17,2025-09-26 15:09:30.638,AA,D,565322750,JASSM,3,105,76,2,2,1,225,9,2,0,1,26,0,0,0,0,-166567.25207694,-4793244.539033736,4195001.692839146,-2.29541,0.0353774,-0.0792876,89.75,3.125,7.125,0.0,0.0,0.0,0.0,0.0,0.0,2,0,41.3656744651529,-91.99025141779414,9999.99946568262,83.93850460450375,-0.0039733663948095,0.0079502909473599,,9000.684068445347,11088.532817195925,150,9,2025-09-17,2025-09-26 15:09:30.635,AA,D,360511874,AMBUSH51,1,1,48,2,1,1,225,2,1,0,0,9,1,225,2,1,-163568.68647455613,-4790569.965114681,4197578.798710752,2.25527,-2.70799,0.296004,-103.502,-44.1637,-34.411,-0.274057,-9.94525,9.02902,0.0515436,0.0245313,-0.0147961,4,0,41.39959496827972,-91.9555410135654,8755.43062845359,-120.55419726918171,7.503485198184995,-8.30254555688541,197.139,9000.684068445347,11088.532817195925,150,True,2.5661658154758054,False,155.84264118404562,133.46874031012263,False,22.975316551276432,True,False
9,1970-07-23 11:40:17.716426167,2025-09-17,2025-09-26 15:09:31.642,AA,D,566575464,JASSM,3,105,76,2,2,1,225,9,2,0,1,26,0,0,0,0,-166473.0068376822,-4793241.204072799,4195009.194792271,-2.29541,0.0353774,-0.0792876,89.75,3.125,7.125,0.0,0.0,0.0,0.0,0.0,0.0,2,0,41.3657644207218,-91.9891276034765,10000.00137657144,83.93924729172345,-0.0031251529040802,0.0079506863941807,,9000.684068445347,11088.532817195925,150,9,2025-09-17,2025-09-26 15:09:31.768,AA,D,361863940,AMBUSH51,1,1,48,2,1,1,225,2,1,0,0,9,1,225,2,1,-163685.2459599078,-4790620.824196612,4197539.520976977,2.29776,-2.68285,0.296225,-101.223,-46.5458,-33.1219,-0.190697,-8.37785,7.71829,0.0113486,0.00427666,-0.00734346,4,0,41.39900358276303,-91.956912694822,8805.096947767817,-121.59437047688824,8.420858781818797,-6.432347737881193,194.463,9000.684068445347,11088.532817195925,150,True,2.466133334369966,False,154.6960162890844,131.98432035341764,False,23.760023348670906,True,False
9,1970-07-23 11:40:17.727444808,2025-09-17,2025-09-26 15:09:32.744,AA,D,567887816,JASSM,3,105,76,2,2,1,225,9,2,0,1,26,0,0,0,0,-166374.27478201812,-4793237.707979049,4195017.052214146,-2.29541,0.0353774,-0.0792876,89.75,3.125,7.125,0.0,0.0,0.0,0.0,0.0,0.0,2,0,41.36585864978499,-91.98795028439685,9999.998843373956,83.94002533968315,-0.0022365582271527,0.0079511033572991,,9000.684068445347,11088.532817195925,150,9,2025-09-17,2025-09-26 15:09:32.868,AA,D,363176238,AMBUSH51,1,1,48,2,1,1,225,2,1,0,0,9,1,225,2,1,-163795.0170272192,-4790671.679696098,4197502.823773629,2.27814,-2.67645,0.293942,-99.8735,-49.4386,-30.8917,-0.0802441,-7.69708,7.08719,-0.0342372,0.0064925,-0.00366497,4,0,41.398431007527385,-91.95820325242144,8859.791250544524,-121.77143098186188,8.753606296295208,-7.689654980288157,192.312,9000.684068445347,11088.532817195925,150,True,2.369337126397184,False,153.68504118908152,130.38934375511337,False,25.151720293964633,True,False
9,1970-07-23 11:40:17.739327507,2025-09-17,2025-09-26 15:09:33.932,AA,D,569200168,JASSM,3,105,76,2,2,1,225,9,2,0,1,26,0,0,0,0,-166275.54272635406,-4793234.211885299,4195024.908659458,-2.29541,0.0353774,-0.0792876,89.75,3.125,7.125,0.0,0.0,0.0,0.0,0.0,0.0,2,0,41.36595286020638,-91.98677296192037,9999.999235522491,83.94080339134739,-0.0013479642610613,0.0079515137154299,,9000.684068445347,11088.532817195925,150,9,2025-09-17,2025-09-26 15:09:34.034,AA,D,364568070,AMBUSH51,1,1,48,2,1,1,225,2,1,0,0,9,1,225,2,1,-163910.57983578104,-4790725.954027499,4197461.782112497,2.105,-2.67089,0.310834,-97.1233,-47.6789,-34.2662,0.00683536,-6.51639,6.09674,-0.135955,-0.00637806,-0.0210338,4,0,41.397807575293285,-91.9595615700221,8913.964517682218,-122.65249175448749,8.233945812022883,-17.834823325247033,189.942,9000.684068445347,11088.532817195925,150,False,2.270341185174193,False,153.00284316552944,128.63536324238018,False,25.40758441775416,True,False
9,1970-07-23 11:40:17.749332020,2025-09-17,2025-09-26 15:09:34.933,AA,D,570512518,JASSM,3,105,76,2,2,1,225,9,2,0,1,26,0,0,0,0,-166176.81067069,-4793230.714814986,4195032.765104771,-2.29541,0.0353774,-0.0792876,89.75,3.125,7.125,0.0,0.0,0.0,0.0,0.0,0.0,2,0,41.36604706438669,-91.98559563645225,10000.0022672709,83.94158144644777,-0.0004593699988286,0.0079519298321308,,9000.684068445347,11088.532817195925,150,9,2025-09-17,2025-09-26 15:09:34.935,AA,D,365641768,AMBUSH51,1,1,48,2,1,1,225,2,1,0,0,9,1,225,2,1,-163997.01315808052,-4790768.169149454,4197429.339163124,2.01525,-2.67241,0.341797,-95.2627,-47.0856,-37.0844,0.0700164,-5.39433,5.07792,-0.0939336,-0.016005,-0.0355126,4,0,41.39731984456587,-91.9605768169382,8954.687735678397,-123.77662195234969,6.8514463774957015,-23.096383629543684,188.133,9000.684068445347,11088.532817195925,150,False,2.1886031530831107,False,152.1067029481096,126.95867902680634,False,25.760614028051506,True,False
9,1970-07-23 11:40:17.769806463,2025-09-17,2025-09-26 15:09:36.980,AA,D,571824870,JASSM,3,105,76,2,2,1,225,9,2,0,1,26,0,0,0,0,-166078.07849295562,-4793227.215791549,4195040.619596958,-2.29541,0.0354733,-0.0791918,89.75,3.125,7.125,0.0,0.0,0.0,0.0,0.0,0.0,2,0,41.36614125496372,-91.9844183069393,10000.001290317156,83.942841737537,-0.0073121207218699,0.0083871378547073,,9000.684068445347,11088.532817195925,150,9,2025-09-17,2025-09-26 15:09:37.002,AA,D,368107300,AMBUSH51,1,1,48,2,1,1,225,2,1,0,0,9,1,225,2,1,-164190.0330615097,-4790862.794717263,4197343.664610522,1.92538,-2.67694,0.42972,-91.3656,-44.6233,-45.4105,0.0375134,-4.72677,4.48934,-0.0081216,-0.0120227,-0.0341478,4,0,41.39613925838635,-91.96284381797624,9017.82503105389,-126.93652375401754,2.9119112267168927,-28.417276363935155,185.738,9000.684068445347,11088.532817195925,150,False,2.0453322214200473,False,149.71639198970738,124.34261454068708,False,25.375830657790715,True,False
9,1970-07-23 11:40:17.771384128,2025-09-17,2025-09-26 15:09:37.138,AA,D,573137218,JASSM,3,105,76,2,2,1,225,9,2,0,1,26,0,0,0,0,-165979.3466814322,-4793223.715791549,4195048.473112583,-2.29551,0.0354733,-0.0791918,89.75,3.125,7.125,0.0,0.0,0.0,0.0,0.0,0.0,2,0,41.36623543262812,-91.98324097880706,10000.000866779255,83.94361979725919,-0.0064235298283963,0.0028960871823224,,9000.684068445347,11088.532817195925,150,9,2025-09-17,2025-09-26 15:09:37.002,AA,D,368107300,AMBUSH51,1,1,48,2,1,1,225,2,1,0,0,9,1,225,2,1,-164190.0330615097,-4790862.794717263,4197343.664610522,1.92538,-2.67694,0.42972,-91.3656,-44.6233,-45.4105,0.0375134,-4.72677,4.48934,-0.0081216,-0.0120227,-0.0341478,4,0,41.39613925838635,-91.96284381797624,9017.82503105389,-126.93652375401754,2.9119112267168927,-28.417276363935155,185.738,9000.684068445347,11088.532817195925,150,False,2.0156572789879967,False,149.71639198970738,123.09189233780049,False,26.626496409376323,True,False
9,1970-07-23 11:40:17.782405928,2025-09-17,2025-09-26 15:09:38.240,AA,D,574449572,JASSM,3,105,76,2,2,1,225,9,2,0,1,26,0,0,0,0,-165880.61413748687,-4793220.214814986,4195056.325651646,-2.29551,0.0354733,-0.0791918,89.75,3.125,7.125,0.0,0.0,0.0,0.0,0.0,0.0,2,0,41.36632959760603,-91.98206363893895,10000.000903039116,83.9443978661962,-0.0055349327922347,0.0028965072594955,,9000.684068445347,11088.532817195925,150,9,2025-09-17,2025-09-26 15:09:38.301,AA,D,369658198,AMBUSH51,1,1,48,2,1,1,225,2,1,0,0,9,1,225,2,1,-164307.4309511718,-4790919.946861956,4197280.32040977,1.91521,-2.67471,0.487667,-88.9832,-43.1857,-51.2125,0.00459284,-5.23595,4.95243,-0.035521,-0.0100545,-0.0346305,4,0,41.39534771375346,-91.96422276275314,9030.87894439892,-129.21168167788355,0.4905264644423494,-29.123632374255823,185.86,9000.684068445347,11088.532817195925,150,False,1.917496785580751,False,147.75113870750252,120.7503046123381,False,27.19503630240373,True,False
9,1970-07-23 11:40:17.794426284,2025-09-17,2025-09-26 15:09:39.442,AA,D,575821576,JASSM,3,105,76,2,2,1,225,9,2,0,1,26,0,0,0,0,-165777.39416678375,-4793216.553682174,4195064.533659458,-2.29551,0.0354733,-0.0791918,89.75,3.125,7.125,0.0,0.0,0.0,0.0,0.0,0.0,2,0,41.36642802601933,-91.98083278538309,10000.000679705025,83.94521130229926,-0.0046059494327172,0.0028969429197417,,9000.684068445347,11088.532817195925,150,9,2025-09-17,2025-09-26 15:09:39.534,AA,D,371129564,AMBUSH51,1,1,48,2,1,1,225,2,1,0,0,9,1,225,2,1,-164415.95003654005,-4790973.231356088,4197213.412226788,1.85241,-2.66548,0.533613,-86.3991,-42.7783,-56.5843,0.155372,-5.53211,5.13458,-0.05274,0.00306368,-0.0508737,4,0,41.39455690682537,-91.96549720020676,9025.94891379968,-131.28826544471036,-1.191831720375403,-32.967861189936166,186.618,9000.684068445347,11088.532817195925,150,False,1.8235446858367141,False,145.41686774535253,118.22637835760354,False,27.866513675018222,True,False
9,1970-07-23 11:40:17.805448462,2025-09-17,2025-09-26 15:09:40.544,AA,D,577133920,JASSM,3,105,76,2,2,1,225,9,2,0,1,26,0,0,0,0,-165678.66223319,-4793213.049775924,4195072.384245396,-2.29551,0.0354733,-0.0791918,89.75,3.125,7.125,0.0,0.0,0.0,0.0,0.0,0.0,2,0,41.36652217045434,-91.979655447069,9999.999638432571,83.94598937319219,-0.0037173583357253,0.0028973676500197,,9000.684068445347,11088.532817195925,150,9,2025-09-17,2025-09-26 15:09:40.534,AA,D,372322562,AMBUSH51,1,1,48,2,1,1,225,2,1,0,0,9,1,225,2,1,-164500.29218584445,-4791015.722508147,4197154.942391952,1.81841,-2.64225,0.577896,-83.8208,-43.1134,-61.1567,0.0528737,-6.31417,5.94883,-0.020472,0.0127488,-0.0669795,4,0,41.393892191590616,-91.96648724310393,9010.743510019449,-133.79932716921604,-2.382241710226409,-35.53984322153353,187.815,9000.684068445347,11088.532817195925,150,False,1.7459751112426642,False,143.0892126162149,115.81917777747573,False,28.473177432504166,True,False
9,1970-07-23 11:40:17.815532776,2025-09-17,2025-09-26 15:09:41.553,AA,D,578386626,JASSM,3,105,76,2,2,1,225,9,2,0,1,26,0,0,0,0,-165584.41736014312,-4793209.705049361,4195079.877409458,-2.29551,0.0354733,-0.0791918,89.75,3.125,7.125,0.0,0.0,0.0,0.0,0.0,0.0,2,0,41.366612021144576,-91.97853161199396,10000.001814757505,83.94673208660925,-0.0028691513992462,0.0028977691244818,,9000.684068445347,11088.532817195925,150,9,2025-09-17,2025-09-26 15:09:41.468,AA,D,373436028,AMBUSH51,1,1,48,2,1,1,225,2,1,0,0,9,1,225,2,1,-164577.83437164768,-4791056.96659082,4197095.256048648,1.81208,-2.60996,0.621805,-80.8143,-44.3583,-65.5112,-0.099378,-7.22963,6.74825,-0.0268678,0.0296162,-0.0464524,4,0,41.39322805952527,-91.96739655473232,8989.263258775989,-136.58759614965194,-3.335334225790312,-36.80876945639331,189.428,9000.684068445347,11088.532817195925,150,False,1.673827871886299,False,140.47296434403643,113.38790489323644,False,28.78001049990562,True,False
9,1970-07-23 11:40:17.826384430,2025-09-17,2025-09-26 15:09:42.638,AA,D,579698978,JASSM,3,105,76,2,2,1,225,9,2,0,1,26,0,0,0,0,-165485.68493826812,-4793206.199189986,4195087.726042271,-2.29551,0.0354733,-0.0791918,89.75,3.125,7.125,0.0,0.0,0.0,0.0,0.0,0.0,2,0,41.36670614055256,-91.97735426202286,10000.001547151976,83.94751016805625,-0.0019805567376239,0.00289819189389,,9000.684068445347,11088.532817195925,150,9,2025-09-17,2025-09-26 15:09:42.601,AA,D,374788092,AMBUSH51,1,1,48,2,1,1,225,2,1,0,0,9,1,225,2,1,-164666.49683663488,-4791108.554515521,4197018.003451519,1.81962,-2.56365,0.667864,-76.3283,-46.6182,-71.0841,-0.211675,-7.85353,7.32629,-0.0445736,0.0300053,-0.0564122,4,0,41.39238152010086,-91.96843443155318,8956.06586069339,-139.89929724588362,-4.0691277146259415,-37.757828971716286,191.726,9000.684068445347,11088.532817195925,150,False,1.592023582860532,False,136.8002680947026,110.55866603250035,False,28.59319965372425,True,False
9,1970-07-23 11:40:17.837413624,2025-09-17,2025-09-26 15:09:43.741,AA,D,580951678,JASSM,3,105,76,2,2,1,225,9,2,0,1,26,0,0,0,0,-165391.44030936187,-4793202.851533736,4195095.216276646,-2.29551,0.0354733,-0.0791918,89.75,3.125,7.125,0.0,0.0,0.0,0.0,0.0,0.0,2,0,41.36679596634429,-91.97623042474,9999.99959091312,83.94825288565262,-0.001132353160818,0.0028985911992283,,9000.684068445347,11088.532817195925,150,9,2025-09-17,2025-09-26 15:09:43.768,AA,D,376179924,AMBUSH51,1,1,48,2,1,1,225,2,1,0,0,9,1,225,2,1,-164753.11019999193,-4791165.400809207,4196931.465032541,1.84485,-2.49167,0.716463,-70.8973,-49.8376,-76.026,-0.204161,-8.75684,8.0693,-0.003072,0.0498604,-0.0523883,4,0,41.39144141589803,-91.9694456494023,8915.494764903917,-144.12121230518628,-4.3927608502357485,-38.634406545273926,193.962,9000.684068445347,11088.532817195925,150,False,1.5099581214563988,False,132.83125800135406,107.60735928824404,False,28.093255748334066,True,False
