Subject_cm,Timestamp,SampleDate_cm,SampleTime_cm,Configuration_cm,Scenario_cm,DisTime_cm,MarkingTxt_cm,Application_cm,EntId_cm,Site_cm,ExerciseId_cm,ForceId_cm,Category_cm,Country_cm,Domain_cm,Kind_cm,Extra_cm,Specific_cm,Subcategory_cm,AltCategory_cm,AltCountry_cm,AltDomain_cm,AltKind_cm,ECEF_X_cm,ECEF_Y_cm,ECEF_Z_cm,OriPhi_cm,OriPsi_cm,OriTheta_cm,LinVelX_cm,LinVelY_cm,LinVelZ_cm,LinAccX_cm,LinAccY_cm,LinAccZ_cm,AngVelX_cm,AngVelY_cm,AngVelZ_cm,DrAlg_cm,Appearance_cm,Latitude_cm,Longitude_cm,Altitude_cm,Heading_cm,Pitch_cm,Roll_cm,CalibratedAirspeed_cm,CM_Altitude_Lead_cm,CM_Altitude_Wing_cm,CM_Airspeed_cm,Subject_ac,SampleDate_ac,SampleTime_ac,Configuration_ac,Scenario_ac,DisTime_ac,MarkingTxt_ac,Application_ac,EntId_ac,Site_ac,ExerciseId_ac,ForceId_ac,Category_ac,Country_ac,Domain_ac,Kind_ac,Extra_ac,Specific_ac,Subcategory_ac,AltCategory_ac,AltCountry_ac,AltDomain_ac,AltKind_ac,ECEF_X_ac,ECEF_Y_ac,ECEF_Z_ac,OriPhi_ac,OriPsi_ac,OriTheta_ac,LinVelX_ac,LinVelY_ac,LinVelZ_ac,LinAccX_ac,LinAccY_ac,LinAccZ_ac,AngVelX_ac,AngVelY_ac,AngVelZ_ac,DrAlg_ac,Appearance_ac,Latitude_ac,Longitude_ac,Altitude_ac,Heading_ac,Pitch_ac,Roll_ac,CalibratedAirspeed_ac,CM_Altitude_Lead_ac,CM_Altitude_Wing_ac,CM_Airspeed_ac,Bank_Angle_Condition,distance_nm,Distance_Condition,angle_between_vel,angle_between_pos,Cone_Condition,angle_between_pos_nose,Nose_Cone_Condition,Intercept_Criteria
9,1970-07-23 10:31:21.548219601,2025-09-12,2025-09-26 20:15:54.821,HA,C,2763212532,JASSM,3,114,76,2,2,1,225,9,2,0,1,26,0,0,0,0,-163207.49694998687,-4786730.663057174,4205269.940886021,-2.36559,-0.397301,0.382249,80.125,-33.5,-34.875,0.0,0.0,0.0,0.0,0.0,0.0,2,0,41.47440438798324,-91.95278997602055,15986.881533050308,119.854196513054,-0.0029893668187967,0.0050440883906288,,14957.496266617703,17020.816047025746,150,9,2025-09-12,2025-09-26 20:15:54.821,HA,C,811076854,AMBUSH51,1,1,48,2,1,1,225,2,1,0,0,9,1,225,2,1,-143509.28558216942,-4795552.702917148,4195514.127347002,2.32389,2.85667,-0.290014,-96.8902,31.3303,30.9875,-0.162352,-7.21479,6.70488,-0.00565194,0.00482594,0.0059994,4,0,41.35984860575257,-91.71409297453664,14956.545701821904,-68.0144642869263,0.4317600571480313,-0.2717962696516215,172.65,14957.496266617703,17020.816047025746,150,True,12.743221426921918,False,173.30919949528953,177.2218677055716,False,9.402042516877945,True,False
9,1970-07-23 10:31:21.560754873,2025-09-12,2025-09-26 20:15:56.075,HA,C,2764524882,JASSM,3,114,76,2,2,1,225,9,2,0,1,26,0,0,0,0,-163119.27771170562,-4786767.688447799,4205231.476042271,-2.36559,-0.397301,0.382249,80.125,-33.5,-34.875,0.0,0.0,0.0,0.0,0.0,0.0,2,0,41.47394251247236,-91.95172015789122,15986.878192272685,119.8549050348228,-0.0020642536473715,0.0050425269305495,,14957.496266617703,17020.816047025746,150,9,2025-09-12,2025-09-26 20:15:56.054,HA,C,812548218,AMBUSH51,1,1,48,2,1,1,225,2,1,0,0,9,1,225,2,1,-143628.1882941209,-4795514.142614169,4195552.108330719,2.32907,2.85628,-0.288126,-97.0337,31.3566,31.1776,-0.213627,-7.12012,6.72433,-0.00922016,-0.00238748,-0.00500487,4,0,41.3603131090933,-91.71552610125592,14952.735769918476,-68.07915602517852,0.3429264493464162,0.0180515862407385,173.041,14957.496266617703,17020.816047025746,150,True,12.618563417532219,False,173.35840275108717,177.15863483377774,False,9.41228157859851,True,False
9,1970-07-23 10:31:21.570318610,2025-09-12,2025-09-26 20:15:57.031,HA,C,2765837232,JASSM,3,114,76,2,2,1,225,9,2,0,1,26,0,0,0,0,-163031.05847342435,-4786804.711885299,4205193.011198521,-2.36559,-0.397301,0.382249,80.125,-33.5,-34.875,0.0,0.0,0.0,0.0,0.0,0.0,2,0,41.47348063860564,-91.9506503557456,15986.875515520742,119.85561353951888,-0.0011391467082533,0.0050409752177823,,14957.496266617703,17020.816047025746,150,9,2025-09-12,2025-09-26 20:15:56.887,HA,C,813542384,AMBUSH51,1,1,48,2,1,1,225,2,1,0,0,9,1,225,2,1,-143709.02098495516,-4795487.922873861,4195577.766538705,2.32945,2.85478,-0.287325,-97.1145,31.5902,31.0351,-0.173649,-7.16738,6.66371,-0.00364208,-0.00186317,-0.00346939,4,0,41.36062781712178,-91.71650038640084,14949.785492772307,-68.05642076717736,0.2522990885357439,0.01571793438659,173.078,14957.496266617703,17020.816047025746,150,True,12.51613031329868,False,173.3560041068071,177.11058230463948,False,9.473998855723806,True,False
9,1970-07-23 10:31:21.581256301,2025-09-12,2025-09-26 20:15:58.125,HA,C,2767149584,JASSM,3,114,76,2,2,1,225,9,2,0,1,26,0,0,0,0,-162942.83972342435,-4786841.735322799,4205154.546354771,-2.36559,-0.397205,0.382249,80.125,-33.5,-34.875,0.0,0.0,0.0,0.0,0.0,0.0,2,0,41.47301875465356,-91.94958057462571,15986.87834195957,119.85268414212644,-0.0037836988381255,0.0029905484021261,,14957.496266617703,17020.816047025746,150,9,2025-09-12,2025-09-26 20:15:58.255,HA,C,815172816,AMBUSH51,1,1,48,2,1,1,225,2,1,0,0,9,1,225,2,1,-143842.5288689432,-4795443.990759361,4195620.665516852,2.33879,2.85282,-0.284858,-97.2908,32.0933,31.1418,-0.0142231,-7.10098,6.45692,0.00940533,-0.00528367,0.00252064,4,0,41.36115482434381,-91.71810981667132,14944.508723058363,-68.08607974414497,0.0782794820225984,0.519110720708193,173.517,14957.496266617703,17020.816047025746,150,True,12.38280478651384,False,173.50522727490892,177.0394443220737,False,9.408838511277217,True,False
9,1970-07-23 10:31:21.592215236,2025-09-12,2025-09-26 20:15:59.221,HA,C,2768461930,JASSM,3,114,76,2,2,1,225,9,2,0,1,26,0,0,0,0,-162854.62194998687,-4786878.756807174,4205116.079557896,-2.36559,-0.397205,0.382249,80.125,-33.5,-34.875,0.0,0.0,0.0,0.0,0.0,0.0,2,0,41.47255685898218,-91.94851082116388,15986.877670166752,119.85339260170798,-0.0028586028357136,0.0029889294473448,,14957.496266617703,17020.816047025746,150,9,2025-09-12,2025-09-26 20:15:59.321,HA,C,816445348,AMBUSH51,1,1,48,2,1,1,225,2,1,0,0,9,1,225,2,1,-143946.3109824402,-4795409.78867061,4195653.9035405945,2.33978,2.85399,-0.283949,-97.4038,32.1851,31.3583,-0.153345,-7.1111,6.52714,-0.00190895,0.00682123,0.00511098,4,0,41.36156404442238,-91.71936094136288,14940.050419418403,-68.16902711769123,0.0902476881605102,0.5941887598210079,173.603,14957.496266617703,17020.816047025746,150,True,12.266861659598755,False,173.59187178463284,176.97990135302837,False,9.379842183409767,True,False
9,1970-07-23 10:31:21.601338569,2025-09-12,2025-09-26 20:16:00.133,HA,C,2769595328,JASSM,3,114,76,2,2,1,225,9,2,0,1,26,0,0,0,0,-162778.43103201812,-4786910.729463424,4205082.856901646,-2.36559,-0.397205,0.382345,80.125,-33.5,-34.875,0.0,0.0,0.0,0.0,0.0,0.0,2,0,41.47215793528986,-91.94758692161255,15986.877264402816,119.85785185645508,-0.0059804196261287,0.0029872688872136,,14957.496266617703,17020.816047025746,150,9,2025-09-12,2025-09-26 20:16:00.155,HA,C,817439514,AMBUSH51,1,1,48,2,1,1,225,2,1,0,0,9,1,225,2,1,-144026.88426587253,-4795383.320423342,4195680.065005676,2.34031,2.85199,-0.285374,-97.563,30.3173,33.2534,-0.339409,-7.39977,6.70902,-0.0042725,0.00238748,0.00281192,4,0,41.36188364206663,-91.720332257228,14937.576331675382,-68.03470348481477,0.0673681499166315,0.592624284381235,173.982,14957.496266617703,17020.816047025746,150,True,12.171960923898846,False,173.61033606733622,176.93233301499004,False,9.259288671465272,True,False
9,1970-07-23 10:31:21.611317857,2025-09-12,2025-09-26 20:16:01.131,HA,C,2770788374,JASSM,3,114,76,2,2,1,225,9,2,0,1,26,0,0,0,0,-162698.23132498687,-4786944.383760299,4205047.884245396,-2.36559,-0.397205,0.382345,80.125,-33.5,-34.875,0.0,0.0,0.0,0.0,0.0,0.0,2,0,41.47173800434418,-91.94661442352196,15986.875439102178,119.85849589664268,-0.0051394053906963,0.0029858529370444,,14957.496266617703,17020.816047025746,150,9,2025-09-12,2025-09-26 20:16:01.320,HA,C,818831346,AMBUSH51,1,1,48,2,1,1,225,2,1,0,0,9,1,225,2,1,-144141.27262421045,-4795344.715062257,4195717.03579744,2.3515,2.84986,-0.285044,-97.5915,32.6444,31.8579,-0.0781863,-7.20174,6.68979,-0.000895696,0.00254769,0.00768051,4,0,41.36234232062477,-91.721711601799,14931.169563324676,-67.96882435533696,-0.0292855911644413,1.19941453978406,174.495,14957.496266617703,17020.816047025746,150,True,12.054621391763968,False,173.8769318142662,176.86843726510511,False,9.209192195200929,True,False
9,1970-07-23 10:31:21.621299217,2025-09-12,2025-09-26 20:16:02.129,HA,C,2771921770,JASSM,3,114,76,2,2,1,225,9,2,0,1,26,0,0,0,0,-162622.04187186187,-4786976.354463424,4205014.661589146,-2.36559,-0.397205,0.382345,80.125,-33.5,-34.875,0.0,0.0,0.0,0.0,0.0,0.0,2,0,41.47133907669814,-91.94569056552984,15986.878720132156,119.85910771979188,-0.0043404512957027,0.0029845189053511,,14957.496266617703,17020.816047025746,150,9,2025-09-12,2025-09-26 20:16:02.320,HA,C,820024344,AMBUSH51,1,1,48,2,1,1,225,2,1,0,0,9,1,225,2,1,-144238.65117453298,-4795311.92914304,4195748.972700752,2.35272,2.85232,-0.287103,-97.5797,32.8098,32.189,-0.250251,-7.15469,6.91553,0.00446184,0.000993484,-0.00073549,4,0,41.36273544362012,-91.72288582236337,14926.92118249166,-67.97688354802452,0.1506722309619086,1.3089039009013763,174.801,14957.496266617703,17020.816047025746,150,True,11.94968768381328,False,174.05570585874744,176.81262217432584,False,9.084211601136904,True,False
9,1970-07-23 10:31:21.631299741,2025-09-12,2025-09-26 20:16:03.129,HA,C,2773114816,JASSM,3,114,76,2,2,1,225,9,2,0,1,26,0,0,0,0,-162541.84265311187,-4787010.006807174,4204979.686979771,-2.36559,-0.397205,0.382345,80.125,-33.5,-34.875,0.0,0.0,0.0,0.0,0.0,0.0,2,0,41.47091912802573,-91.9447180985462,15986.876696482414,119.85975172892464,-0.0034994404351112,0.0029830989937833,,14957.496266617703,17020.816047025746,150,9,2025-09-12,2025-09-26 20:16:03.287,HA,C,821177576,AMBUSH51,1,1,48,2,1,1,225,2,1,0,0,9,1,225,2,1,-144332.23046217352,-4795280.342090195,4195779.841839593,2.35957,2.85295,-0.289831,-97.5536,32.9781,32.47,-0.261177,-7.42351,6.76099,0.0122786,0.00263299,-0.00553542,4,0,41.36311489862111,-91.72401427286115,14923.033036539266,-67.88803118660003,0.2842192453127423,1.7118603874055822,175.094,14957.496266617703,17020.816047025746,150,True,11.844419040239867,False,174.2184697326782,176.75729812988587,False,8.97591133758278,True,False
9,1970-07-23 10:31:21.641316093,2025-09-12,2025-09-26 20:16:04.131,HA,C,2774307862,JASSM,3,114,76,2,2,1,225,9,2,0,1,26,0,0,0,0,-162461.64294608062,-4787043.657197799,4204944.712370396,-2.36559,-0.397205,0.382345,80.125,-33.5,-34.875,0.0,0.0,0.0,0.0,0.0,0.0,2,0,41.47049918283054,-91.9437456390693,15986.87434787197,119.86039572772395,-0.0026584320743309,0.0029816911003959,,14957.496266617703,17020.816047025746,150,9,2025-09-12,2025-09-26 20:16:04.154,HA,C,822211508,AMBUSH51,1,1,48,2,1,1,225,2,1,0,0,9,1,225,2,1,-144416.71746087866,-4795251.624085485,4195808.105149192,2.36638,2.85272,-0.289949,-97.5406,32.9908,32.9803,-0.15939,-7.40906,6.82224,0.00432452,0.00561032,0.00661525,4,0,41.3634613214905,-91.72503316511911,14919.88820908628,-67.87530869908969,0.2808219353751863,2.0984902066892173,175.265,14957.496266617703,17020.816047025746,150,True,11.744368236570915,False,174.41990202222502,176.7061102029275,False,8.812847962797687,True,False
9,1970-07-23 10:31:21.651256430,2025-09-12,2025-09-26 20:16:05.125,HA,C,2775500910,JASSM,3,114,76,2,2,1,225,9,2,0,1,26,0,0,0,0,-162381.44372733062,-4787077.307588424,4204909.737761021,-2.36559,-0.397205,0.382345,80.125,-33.5,-34.875,0.0,0.0,0.0,0.0,0.0,0.0,2,0,41.47007922928504,-91.94277319798124,15986.876554318218,119.86103970898432,-0.0018174273961466,0.0029802809078318,,14957.496266617703,17020.816047025746,150,9,2025-09-12,2025-09-26 20:16:05.188,HA,C,823444274,AMBUSH51,1,1,48,2,1,1,225,2,1,0,0,9,1,225,2,1,-144517.3916339671,-4795217.421592049,4195842.351166768,2.37075,2.85108,-0.298024,-97.5237,31.6932,34.6296,-0.247822,-7.66157,6.72325,0.00284937,0.0104664,0.0118292,4,0,41.36387783316511,-91.72624727882946,14917.420986709443,-67.47833377426183,0.5347502119231139,2.32456439383501,175.399,14957.496266617703,17020.816047025746,150,True,11.634679457277302,False,174.55196556360815,176.64786139888957,False,8.598539843641902,True,False
9,1970-07-23 10:31:21.661235574,2025-09-12,2025-09-26 20:16:06.123,HA,C,2776693954,JASSM,3,114,76,2,2,1,225,9,2,0,1,26,0,0,0,0,-162301.24402029935,-4787110.956025924,4204874.761198521,-2.36559,-0.397205,0.382345,80.125,-33.5,-34.875,0.0,0.0,0.0,0.0,0.0,0.0,2,0,41.46965926605007,-91.94180076439903,15986.874192248208,119.86168367991266,-0.0009764186617614,0.0029788713145997,,14957.496266617703,17020.816047025746,150,9,2025-09-12,2025-09-26 20:16:06.287,HA,C,824756572,AMBUSH51,1,1,48,2,1,1,225,2,1,0,0,9,1,225,2,1,-144624.26618528675,-4795180.588841806,4195879.443315587,2.37756,2.85278,-0.305007,-97.2491,33.1661,34.3377,-0.112748,-7.73704,7.10986,0.00786985,0.00757232,0.00902874,4,0,41.3643280729161,-91.7275363739044,14915.117537009271,-67.2531334009857,0.8788863401173433,2.746044398816566,175.693,14957.496266617703,17020.816047025746,150,True,11.52107288975817,False,175.0334208139683,176.5876793025152,False,8.278605030677413,True,False
9,1970-07-23 10:31:21.674355849,2025-09-12,2025-09-26 20:16:07.435,HA,C,2777887002,JASSM,3,114,76,2,2,1,225,9,2,0,1,26,0,0,0,0,-162221.04431326812,-4787144.604463424,4204839.784636021,-2.36559,-0.397109,0.382345,80.125,-33.5,-34.875,0.0,0.0,0.0,0.0,0.0,0.0,2,0,41.46923929456391,-91.94082834336808,15986.876344553692,119.85869002420182,-0.0037050585898099,0.0009280952529071,,14957.496266617703,17020.816047025746,150,9,2025-09-12,2025-09-26 20:16:07.520,HA,C,826227938,AMBUSH51,1,1,48,2,1,1,225,2,1,0,0,9,1,225,2,1,-144744.5963165445,-4795139.522746112,4195922.542055946,2.37535,2.85459,-0.314295,-96.9606,32.9517,35.4095,-0.248137,-7.67823,7.29439,0.00163431,0.000747974,-0.00345067,4,0,41.36484160661265,-91.72898764299322,14916.425005248791,-66.93573062297472,1.317889949903845,2.6574731459369687,175.693,14957.496266617703,17020.816047025746,150,True,11.399299566308208,False,175.37980320273925,176.52286673578155,False,7.927745868149474,True,False
9,1970-07-23 10:31:21.681341221,2025-09-12,2025-09-26 20:16:08.134,HA,C,2779139700,JASSM,3,114,76,2,2,1,225,9,2,0,1,26,0,0,0,0,-162136.83484061187,-4787179.934541549,4204803.058073521,-2.36559,-0.397109,0.382345,80.125,-33.5,-34.875,0.0,0.0,0.0,0.0,0.0,0.0,2,0,41.46879831233088,-91.93980731773726,15986.87901580875,119.85936616275023,-0.0028219996571647,0.0009265550863605,,14957.496266617703,17020.816047025746,150,9,2025-09-12,2025-09-26 20:16:07.953,HA,C,826744904,AMBUSH51,1,1,48,2,1,1,225,2,1,0,0,9,1,225,2,1,-144785.93379234173,-4795125.454581415,4195937.706800863,2.37583,2.8543,-0.317273,-96.8466,32.7438,35.8794,-0.00194581,-7.6505,6.96673,0.00228761,0.00159061,0.00544388,4,0,41.36502020761568,-91.7294861940929,14917.751427678571,-66.8011123400449,1.423961523697923,2.6825840774440053,175.57,14957.496266617703,17020.816047025746,150,True,11.32184804396725,False,175.46897427497285,176.49018063931476,False,7.822666726077128,True,False
9,1970-07-23 10:31:21.691537968,2025-09-12,2025-09-26 20:16:09.153,HA,C,2780273096,JASSM,3,114,76,2,2,1,225,9,2,0,1,26,0,0,0,0,-162060.64489920562,-4787211.897432174,4204769.827604771,-2.36559,-0.397109,0.382441,80.125,-33.5,-34.875,0.0,0.0,0.0,0.0,0.0,0.0,2,0,41.46839932376477,-91.93888354054188,15986.876107949472,119.86382543218495,-0.0059436902218242,0.0009248983508249,,14957.496266617703,17020.816047025746,150,9,2025-09-12,2025-09-26 20:16:09.220,HA,C,828256036,AMBUSH51,1,1,48,2,1,1,225,2,1,0,0,9,1,225,2,1,-144908.8487729615,-4795083.717311129,4195983.687958203,2.3769,2.85484,-0.324203,-96.3994,32.7099,36.6986,0.0413958,-7.44982,6.71802,-0.00472607,0.00144705,-0.00261843,4,0,41.36555670577356,-91.73096859353922,14923.861308132507,-66.53391409017308,1.719528476247242,2.761258755404827,175.363,14957.496266617703,17020.816047025746,150,True,11.200684159373816,False,175.7784663556718,176.42680973968123,False,7.499910993770743,True,False
9,1970-07-23 10:31:21.701156690,2025-09-12,2025-09-26 20:16:10.115,HA,C,2781406490,JASSM,3,114,76,2,2,1,225,9,2,0,1,26,0,0,0,0,-161984.45544608062,-4787243.860322799,4204736.597136021,-2.36559,-0.397109,0.382441,80.125,-33.5,-34.875,0.0,0.0,0.0,0.0,0.0,0.0,2,0,41.46800032765414,-91.93795978051092,15986.877314913623,119.86443715014448,-0.0051447346550863,0.0009235604630291,,14957.496266617703,17020.816047025746,150,9,2025-09-12,2025-09-26 20:16:10.220,HA,C,829449034,AMBUSH51,1,1,48,2,1,1,225,2,1,0,0,9,1,225,2,1,-145004.96555459697,-4795051.6321079945,4196020.75579123,2.37118,2.85637,-0.333097,-96.1844,29.9949,39.4623,-0.160396,-7.54146,7.01024,-0.00393545,0.0074246,0.00451801,4,0,41.36598044485944,-91.73212761387953,14932.415609069289,-66.22129809411392,2.130958860361972,2.4725650291513097,175.106,14957.496266617703,17020.816047025746,150,True,11.095392465821305,False,174.9848597689991,176.37482137972236,False,7.679579469080365,True,False
9,1970-07-23 10:31:21.712336462,2025-09-12,2025-09-26 20:16:11.233,HA,C,2782599536,JASSM,3,114,76,2,2,1,225,9,2,0,1,26,0,0,0,0,-161904.25573904935,-4787277.504854049,4204701.616667271,-2.36559,-0.397109,0.382441,80.125,-33.5,-34.875,0.0,0.0,0.0,0.0,0.0,0.0,2,0,41.46758032050362,-91.93698741063815,15986.87921464674,119.8650810525276,-0.0043037251077617,0.0009221505174019,,14957.496266617703,17020.816047025746,150,9,2025-09-12,2025-09-26 20:16:11.153,HA,C,830562500,AMBUSH51,1,1,48,2,1,1,225,2,1,0,0,9,1,225,2,1,-145093.51870154167,-4795020.951681819,4196054.758360499,2.37727,2.85359,-0.337232,-95.5605,32.4783,37.7595,-0.108974,-7.55618,6.6699,0.00375859,0.00525662,0.0126677,4,0,41.36637648403703,-91.7331958455213,14937.22379531274,-65.9465242839165,2.1855869811503164,2.7794417112916148,174.727,14957.496266617703,17020.816047025746,150,True,10.991914552242923,False,176.09959836299453,176.3246061408911,False,7.119771545168244,True,False
9,1970-07-23 10:31:21.720276682,2025-09-12,2025-09-26 20:16:12.027,HA,C,2783732930,JASSM,3,114,76,2,2,1,225,9,2,0,1,26,0,0,0,0,-161828.06579764312,-4787309.465791549,4204668.384245396,-2.36549,-0.397109,0.382441,80.125,-33.5,-34.875,0.0,0.0,0.0,0.0,0.0,0.0,2,0,41.46718130767034,-91.93606366881032,15986.879701721127,119.86569274850012,-0.0035047654305158,0.0064122852910977,,14957.496266617703,17020.816047025746,150,9,2025-09-12,2025-09-26 20:16:11.987,HA,C,831556666,AMBUSH51,1,1,48,2,1,1,225,2,1,0,0,9,1,225,2,1,-145172.75375828816,-4794993.686749663,4196086.17139058,2.37871,2.85255,-0.342262,-95.1069,32.666,38.0831,-0.177369,-7.35653,6.82474,-0.00227721,-0.000541995,0.00332999,4,0,41.36673640331423,-91.73415161439468,14944.133987762849,-65.69887116145941,2.3435875765296927,2.85169188808326,174.556,14957.496266617703,17020.816047025746,150,True,10.896371314361526,False,176.34059820234995,176.27990836473953,False,6.884497964043786,True,False
9,1970-07-23 10:31:21.729289925,2025-09-12,2025-09-26 20:16:12.928,HA,C,2784866324,JASSM,3,114,76,2,2,1,225,9,2,0,1,26,0,0,0,0,-161751.87732108062,-4787341.424775924,4204635.149870396,-2.36549,-0.397109,0.382441,80.125,-33.5,-34.875,0.0,0.0,0.0,0.0,0.0,0.0,2,0,41.46678228555884,-91.93513995661012,15986.875342480513,119.86630442001484,-0.0027058166771561,0.0064109395214909,,14957.496266617703,17020.816047025746,150,9,2025-09-12,2025-09-26 20:16:12.820,HA,C,832550832,AMBUSH51,1,1,48,2,1,1,225,2,1,0,0,9,1,225,2,1,-145252.28793060692,-4794966.07676097,4196118.204318047,2.37971,2.84916,-0.343477,-94.669,32.8574,38.404,-0.188683,-7.27358,6.62569,0.00267044,-0.00268917,-0.00218983,4,0,41.36710249736116,-91.73511108885856,14951.565458542784,-65.52294401477256,2.259408656320783,2.850709371891209,174.006,14957.496266617703,17020.816047025746,150,True,10.800491182657527,False,176.5732932533635,176.23561257180125,False,6.651715207950458,True,False
9,1970-07-23 10:31:21.741194928,2025-09-12,2025-09-26 20:16:14.119,HA,C,2786119022,JASSM,3,114,76,2,2,1,225,9,2,0,1,26,0,0,0,0,-161667.66589529935,-4787376.748994674,4204598.417448521,-2.36549,-0.397109,0.382441,80.125,-33.5,-34.875,0.0,0.0,0.0,0.0,0.0,0.0,2,0,41.46634124842948,-91.93411898709456,15986.878454659382,119.866980488566,-0.0018227415314477,0.0064094626030602,,14957.496266617703,17020.816047025746,150,9,2025-09-12,2025-09-26 20:16:13.987,HA,C,833942662,AMBUSH51,1,1,48,2,1,1,225,2,1,0,0,9,1,225,2,1,-145361.6686362307,-4794927.652864704,4196162.618541017,2.36699,2.84515,-0.344925,-94.1488,33.2398,38.5733,-0.0999675,-7.12514,6.47282,-0.0168226,-0.00515675,-0.00251232,4,0,41.36761108572698,-91.73643080255378,14961.45959260652,-65.31457075735922,2.160897260764111,2.052049329596365,173.566,14957.496266617703,17020.816047025746,150,True,10.681365788566705,False,176.88887391214155,176.1791243529293,False,6.391643529552689,True,False
9,1970-07-23 10:31:21.750194733,2025-09-12,2025-09-26 20:16:15.019,HA,C,2787312068,JASSM,3,114,76,2,2,1,225,9,2,0,1,26,0,0,0,0,-161587.46618826812,-4787410.387666549,4204563.433073521,-2.36549,-0.397013,0.382441,80.125,-33.5,-34.875,0.0,0.0,0.0,0.0,0.0,0.0,2,0,41.46592121724598,-91.93314666916358,15986.875302890136,119.86398699107563,-0.0045513794688468,0.0043582577205511,,14957.496266617703,17020.816047025746,150,9,2025-09-12,2025-09-26 20:16:14.853,HA,C,834976596,AMBUSH51,1,1,48,2,1,1,225,2,1,0,0,9,1,225,2,1,-145443.06272058858,-4794898.586198564,4196196.00879926,2.35563,2.84293,-0.345639,-93.8396,33.3943,38.7602,0.00986193,-7.04678,6.49505,-0.00734138,0.00486131,0.00513803,4,0,41.367994648275,-91.7374130327884,14968.397899544134,-65.20309008861929,2.103379680771758,1.3624112851511343,173.31,14957.496266617703,17020.816047025746,150,True,10.581551601877221,False,177.05144146199905,176.133484323883,False,6.245736099357485,True,False
9,1970-07-23 10:31:21.762426515,2025-09-12,2025-09-26 20:16:16.242,HA,C,2788505116,JASSM,3,114,76,2,2,1,225,9,2,0,1,26,0,0,0,0,-161507.26599295562,-4787444.026338424,4204528.448698521,-2.36549,-0.397013,0.382441,80.125,-33.5,-34.875,0.0,0.0,0.0,0.0,0.0,0.0,2,0,41.46550117791143,-91.93217435794556,15986.876624955736,119.8646308281674,-0.0037103717605924,0.0043568030049475,,14957.496266617703,17020.816047025746,150,9,2025-09-12,2025-09-26 20:16:16.120,HA,C,836487726,AMBUSH51,1,1,48,2,1,1,225,2,1,0,0,9,1,225,2,1,-145562.30859615398,-4794855.595705039,4196245.137906834,2.34867,2.83742,-0.344829,-93.5033,33.7918,38.7246,-0.0483457,-6.97722,6.62557,-0.00858974,0.00808831,0.00508809,4,0,41.368560409245454,-91.7388522098332,14978.027561149058,-65.03236164238965,1.8575203058394711,0.8626253275536783,173.053,14957.496266617703,17020.816047025746,150,True,10.458588972836498,False,177.3103901377494,176.0745519489224,False,6.095462884601498,True,False
9,1970-07-23 10:31:21.771133369,2025-09-12,2025-09-26 20:16:17.113,HA,C,2789757814,JASSM,3,114,76,2,2,1,225,9,2,0,1,26,0,0,0,0,-161423.05603201812,-4787479.346650924,4204491.712370396,-2.36549,-0.397013,0.382441,80.125,-33.5,-34.875,0.0,0.0,0.0,0.0,0.0,0.0,2,0,41.46506011099253,-91.9311534477106,15986.876231777487,119.86530684038794,-0.0028273072384866,0.0043552598651653,,14957.496266617703,17020.816047025746,150,9,2025-09-12,2025-09-26 20:16:16.986,HA,C,837521660,AMBUSH51,1,1,48,2,1,1,225,2,1,0,0,9,1,225,2,1,-145643.23319558497,-4794826.145862669,4196278.659503641,2.34615,2.83513,-0.343756,-93.3277,33.7768,38.9309,-0.160919,-7.07056,6.73601,0.00100389,0.00736218,0.00350476,4,0,41.36894719958935,-91.73982900100164,14984.283421269629,-64.99198756468931,1.726529135021804,0.6750486815754811,173.016,14957.496266617703,17020.816047025746,150,True,10.356369226202592,False,177.36271693206436,176.02736512064246,False,6.034977286745914,True,False
9,1970-07-23 10:31:21.781295509,2025-09-12,2025-09-26 20:16:18.129,HA,C,2791010512,JASSM,3,114,76,2,2,1,225,9,2,0,1,26,0,0,0,0,-161338.84607108062,-4787514.665010299,4204454.976042271,-2.36549,-0.397013,0.382536,80.125,-33.5,-34.875,0.0,0.0,0.0,0.0,0.0,0.0,2,0,41.46461904660859,-91.93013255209954,15986.87601662608,119.8698305135294,-0.0058647601480555,0.0043534642713689,,14957.496266617703,17020.816047025746,150,9,2025-09-12,2025-09-26 20:16:18.020,HA,C,838754424,AMBUSH51,1,1,48,2,1,1,225,2,1,0,0,9,1,225,2,1,-145739.4635257772,-4794791.206884141,4196318.6861118665,2.34262,2.83468,-0.344819,-93.1103,33.8233,38.969,-0.180585,-7.23881,6.89153,0.00790938,0.00987762,-0.00493413,4,0,41.36940776726257,-91.74099052320284,14992.284761375457,-64.93208960803695,1.7522258692277657,0.4661005282015625,172.76,14957.496266617703,17020.816047025746,150,True,10.244793353268545,False,177.43494822092026,175.97417456517337,False,6.00411712454473,True,False
9,1970-07-23 10:31:21.791834483,2025-09-12,2025-09-26 20:16:19.183,HA,C,2792203560,JASSM,3,114,76,2,2,1,225,9,2,0,1,26,0,0,0,0,-161258.64587576812,-4787548.301729049,4204419.987761021,-2.36549,-0.397013,0.382536,80.125,-33.5,-34.875,0.0,0.0,0.0,0.0,0.0,0.0,2,0,41.46419896699631,-91.92916028057468,15986.8780480949,119.87047430780794,-0.0050237453406346,0.0043520528752773,,14957.496266617703,17020.816047025746,150,9,2025-09-12,2025-09-26 20:16:19.187,HA,C,840146256,AMBUSH51,1,1,48,2,1,1,225,2,1,0,0,9,1,225,2,1,-145847.44149092803,-4794751.9454807285,4196363.937149509,2.33841,2.83275,-0.342058,-92.9679,33.8047,39.1245,-0.0178584,-7.27796,6.60908,-0.00903082,-0.0037794,0.00166968,4,0,41.36992716804525,-91.74229388125552,15001.862686121394,-64.97529368072097,1.5688446024304306,0.1864219495573282,172.369,14957.496266617703,17020.816047025746,150,True,10.128478659054798,False,177.46706530024787,175.91747217824127,False,5.980779484073067,True,False
9,1970-07-23 10:31:21.802483782,2025-09-12,2025-09-26 20:16:20.248,HA,C,2793515910,JASSM,3,114,76,2,2,1,225,9,2,0,1,26,0,0,0,0,-161170.42566092435,-4787585.299775924,4204381.499479771,-2.36549,-0.397013,0.382536,80.125,-33.5,-34.875,0.0,0.0,0.0,0.0,0.0,0.0,2,0,41.46373687594996,-91.92809079733644,15986.877192069483,119.8711824650971,-0.0040986326096866,0.004350505195632,,14957.496266617703,17020.816047025746,150,9,2025-09-12,2025-09-26 20:16:20.258,HA,C,841418788,AMBUSH51,1,1,48,2,1,1,225,2,1,0,0,9,1,225,2,1,-145946.39521356503,-4794715.769371521,4196405.649401506,2.30189,2.83188,-0.341156,-92.8649,33.3487,39.5429,-0.166217,-7.2146,6.53905,-0.136286,-0.00243326,-0.0042829,4,0,41.37040595263837,-91.74348839972764,15010.691785027757,-64.98057378695815,1.4999095379783174,-1.9229309601170537,172.063,14957.496266617703,17020.816047025746,150,True,10.012564476079223,False,177.27489186232347,175.86132523981482,False,6.042123252059385,True,False
9,1970-07-23 10:31:21.816034437,2025-09-12,2025-09-26 20:16:21.603,HA,C,2794768610,JASSM,3,114,76,2,2,1,225,9,2,0,1,26,0,0,0,0,-161086.21569998687,-4787620.614229049,4204344.761198521,-2.36549,-0.397013,0.382536,80.125,-33.5,-34.875,0.0,0.0,0.0,0.0,0.0,0.0,2,0,41.463295794374815,-91.92706994480686,15986.878066846628,119.8718584155562,-0.0032155800647142,0.0043490391527238,,14957.496266617703,17020.816047025746,150,9,2025-09-12,2025-09-26 20:16:21.686,HA,C,843128754,AMBUSH51,1,1,48,2,1,1,225,2,1,0,0,9,1,225,2,1,-146079.45873809425,-4794668.722135715,4196461.0753457565,2.04485,2.8605,-0.341944,-93.5057,31.6904,38.0709,0.0823686,-8.04941,7.21189,-0.0809507,0.00692942,-0.0330222,4,0,41.37103576378363,-91.74509411861926,15025.068255367652,-66.01433537258232,2.652247458751557,-16.1383070094963,172.589,14957.496266617703,17020.816047025746,150,False,9.87878307207496,False,176.22435996147075,175.7895175352043,False,7.334841012593095,True,False
9,1970-07-23 10:31:21.826773986,2025-09-12,2025-09-26 20:16:22.677,HA,C,2796021308,JASSM,3,114,76,2,2,1,225,9,2,0,1,26,0,0,0,0,-161002.00525076812,-4787655.928682174,4204308.020964146,-2.36549,-0.397013,0.382536,80.125,-33.5,-34.875,0.0,0.0,0.0,0.0,0.0,0.0,2,0,41.462854690636085,-91.92604910027636,15986.879635401056,119.8725343548072,-0.0023325171491207,0.004347563914907,,14957.496266617703,17020.816047025746,150,9,2025-09-12,2025-09-26 20:16:22.554,HA,C,844162686,AMBUSH51,1,1,48,2,1,1,225,2,1,0,0,9,1,225,2,1,-146161.15881358713,-4794642.242234723,4196493.758565311,1.98579,2.88579,-0.306659,-94.3845,29.8486,36.4427,0.0172289,-7.50965,6.83169,-0.0220803,0.00791562,-0.0455931,4,0,41.37139904445311,-91.74607915712906,15036.901186475729,-68.43184019670142,2.273941370640421,-19.16404866688451,171.807,14957.496266617703,17020.816047025746,150,False,9.77708965802605,False,174.92110277692535,175.72984710826972,False,8.800615188811364,True,False
9,1970-07-23 10:31:21.834789786,2025-09-12,2025-09-26 20:16:23.478,HA,C,2797333658,JASSM,3,114,76,2,2,1,225,9,2,0,1,26,0,0,0,0,-160913.78503592435,-4787692.922822799,4204269.528776646,-2.36549,-0.397013,0.382536,80.125,-33.5,-34.875,0.0,0.0,0.0,0.0,0.0,0.0,2,0,41.462392567478354,-91.9249796627841,15986.876585710635,119.87324246293012,-0.0014074036885113,0.0043460128527563,,14957.496266617703,17020.816047025746,150,9,2025-09-12,2025-09-26 20:16:23.654,HA,C,845474984,AMBUSH51,1,1,48,2,1,1,225,2,1,0,0,9,1,225,2,1,-146265.67828373166,-4794610.605335902,4196532.200327763,1.95938,2.90611,-0.280968,-95.6336,27.7541,33.6565,-0.0534446,-7.44449,6.78381,0.000448368,0.00313025,-0.0155181,4,0,41.37182771471409,-91.74733852256828,15050.247590509018,-70.27084642526631,2.091949551257073,-20.41028904595328,170.841,14957.496266617703,17020.816047025746,150,False,9.660487059757811,False,173.1081793082757,175.64646402565145,False,10.857251527226714,True,False
9,1970-07-23 10:31:21.844213657,2025-09-12,2025-09-26 20:16:24.421,HA,C,2798526706,JASSM,3,114,76,2,2,1,225,9,2,0,1,26,0,0,0,0,-160833.58484061187,-4787726.553682174,4204234.536589146,-2.36549,-0.396918,0.382536,80.125,-33.5,-34.875,0.0,0.0,0.0,0.0,0.0,0.0,2,0,41.46197245270285,-91.9240074601304,15986.87965992772,119.87024910774828,-0.0041360296004434,0.0022942914958426,,14957.496266617703,17020.816047025746,150,9,2025-09-12,2025-09-26 20:16:24.553,HA,C,846548684,AMBUSH51,1,1,48,2,1,1,225,2,1,0,0,9,1,225,2,1,-146353.08567981777,-4794586.226754667,4196561.75615388,1.97004,2.91332,-0.270599,-96.7395,25.9235,31.5913,-0.050682,-7.37837,6.90686,0.0268948,0.0112446,-0.0250576,4,0,41.37215633280387,-91.74839095685785,15060.908525965246,-70.97843162781945,1.9830310139643108,-19.71240022048508,170.805,14957.496266617703,17020.816047025746,150,False,9.56000251216885,False,171.54598783678045,175.5646364324643,False,12.555929392220033,True,False
9,1970-07-23 10:31:21.856773430,2025-09-12,2025-09-26 20:16:25.677,HA,C,2799779406,JASSM,3,114,76,2,2,1,225,9,2,0,1,26,0,0,0,0,-160749.37439139312,-4787761.864229049,4204197.792448521,-2.36549,-0.396918,0.382536,80.125,-33.5,-34.875,0.0,0.0,0.0,0.0,0.0,0.0,2,0,41.46153131860628,-91.92298665867712,15986.878075570135,119.87092500083511,-0.0032529660625958,0.0022927568271703,,14957.496266617703,17020.816047025746,150,9,2025-09-12,2025-09-26 20:16:25.653,HA,C,847860982,AMBUSH51,1,1,48,2,1,1,225,2,1,0,0,9,1,225,2,1,-146459.648529176,-4794558.96256889,4196594.697723113,1.9749,2.93647,-0.242352,-97.9381,23.9463,28.806,-0.287001,-7.60786,7.15948,-0.0015386,0.0125678,-0.037768,4,0,41.37252147610688,-91.74967315040524,15073.254767067445,-73.04057040441495,1.838378424138543,-19.16589260382926,170.23,14957.496266617703,17020.816047025746,150,False,9.447263057758095,False,169.6656315805528,175.45608075985618,False,14.614590888942415,True,False
9,1970-07-23 10:31:21.865314478,2025-09-12,2025-09-26 20:16:26.531,HA,C,2801091756,JASSM,3,114,76,2,2,1,225,9,2,0,1,26,0,0,0,0,-160661.15417654935,-4787798.854463424,4204159.298307896,-2.36549,-0.396918,0.382536,80.125,-33.5,-34.875,0.0,0.0,0.0,0.0,0.0,0.0,2,0,41.461069176960784,-91.92191726623678,15986.87682672397,119.87163306064495,-0.0023278585323181,0.0022911550784255,,14957.496266617703,17020.816047025746,150,9,2025-09-12,2025-09-26 20:16:26.454,HA,C,848815380,AMBUSH51,1,1,48,2,1,1,225,2,1,0,0,9,1,225,2,1,-146538.51238103662,-4794540.4259691285,4196616.874083037,1.98432,2.94672,-0.230713,-98.795,22.3556,26.9385,-0.00914113,-7.51569,6.99043,0.0390164,0.00858765,-0.0204013,4,0,41.37276707229879,-91.75062147152698,15081.657469440375,-73.91901197729148,1.8129938493393063,-18.516861029638765,169.79,14957.496266617703,17020.816047025746,150,False,9.348480141777694,False,168.26977228324208,175.35869470590782,False,16.130375211081066,True,False
9,1970-07-23 10:31:21.875314263,2025-09-12,2025-09-26 20:16:27.531,HA,C,2802284802,JASSM,3,114,76,2,2,1,225,9,2,0,1,26,0,0,0,0,-160580.95349295562,-4787832.481416549,4204124.302214146,-2.36549,-0.396918,0.382632,80.125,-33.5,-34.875,0.0,0.0,0.0,0.0,0.0,0.0,2,0,41.46064903322483,-91.92094509884448,15986.875996688808,119.87612455849336,-0.0054072174122141,0.0022894640415437,,14957.496266617703,17020.816047025746,150,9,2025-09-12,2025-09-26 20:16:27.586,HA,C,850167446,AMBUSH51,1,1,48,2,1,1,225,2,1,0,0,9,1,225,2,1,-146651.8405459158,-4794516.35488764,4196645.870447781,2.03173,2.966,-0.209929,-99.7668,20.1527,24.5107,-0.186851,-7.42121,7.04985,0.0292292,-0.00254145,-0.0399256,4,0,41.3730853415654,-91.75198329273331,15093.82724091691,-75.5270515750172,1.8152796959249995,-15.60975754291027,169.521,14957.496266617703,17020.816047025746,150,False,9.236974923472218,False,166.4171747592843,175.21972625861434,False,18.140676753186558,True,False
9,1970-07-23 10:31:21.885272064,2025-09-12,2025-09-26 20:16:28.527,HA,C,2803477848,JASSM,3,114,76,2,2,1,225,9,2,0,1,26,0,0,0,0,-160500.75329764312,-4787866.106416549,4204089.306120396,-2.36549,-0.396918,0.382632,80.125,-33.5,-34.875,0.0,0.0,0.0,0.0,0.0,0.0,2,0,41.460228892773166,-91.91997295062076,15986.874921820914,119.87676822063553,-0.0045662135932605,0.0022880684686058,,14957.496266617703,17020.816047025746,150,9,2025-09-12,2025-09-26 20:16:28.386,HA,C,851121844,AMBUSH51,1,1,48,2,1,1,225,2,1,0,0,9,1,225,2,1,-146731.80784315336,-4794500.845291076,4196664.639918958,2.0473,2.97892,-0.194162,-100.264,18.8133,22.9829,-0.227502,-7.37733,6.91962,0.0336151,0.0118896,-0.0225589,4,0,41.37328972115415,-91.75294369703197,15102.382939039262,-76.68476265203228,1.7510475159499344,-14.60539015712228,169.167,14957.496266617703,17020.816047025746,150,False,9.144249483872155,False,165.2839192974042,175.10568851633548,False,19.399161818946464,True,False
9,1970-07-23 10:31:21.895293189,2025-09-12,2025-09-26 20:16:29.529,HA,C,2804670896,JASSM,3,114,76,2,2,1,225,9,2,0,1,26,0,0,0,0,-160420.55261404935,-4787899.731416549,4204054.308073521,-2.36549,-0.396918,0.382632,80.125,-33.5,-34.875,0.0,0.0,0.0,0.0,0.0,0.0,2,0,41.45980873100388,-91.9190008091092,15986.87407843924,119.87741187297136,-0.0037251994085096,0.0022866637044788,,14957.496266617703,17020.816047025746,150,9,2025-09-12,2025-09-26 20:16:29.519,HA,C,852473910,AMBUSH51,1,1,48,2,1,1,225,2,1,0,0,9,1,225,2,1,-146845.2818063472,-4794480.641402731,4196688.993999652,2.07411,2.99216,-0.181763,-100.926,17.0539,21.1217,-0.0471157,-7.3556,6.80912,0.0272381,0.000797908,-0.0159446,4,0,41.37355360386761,-91.75430586434604,15114.025779091366,-77.71282802789875,1.8335448062737865,-12.959699601887303,168.593,14957.496266617703,17020.816047025746,150,False,9.034705247361837,False,163.84009787481043,174.9433763930967,False,21.014202974982968,True,False
9,1970-07-23 10:31:21.905436505,2025-09-12,2025-09-26 20:16:30.543,HA,C,2805804290,JASSM,3,114,76,2,2,1,225,9,2,0,1,26,0,0,0,0,-160344.36218436187,-4787931.674775924,4204021.060026646,-2.36549,-0.396918,0.382632,80.125,-33.5,-34.875,0.0,0.0,0.0,0.0,0.0,0.0,2,0,41.45940957262552,-91.91807728907972,15986.876729005373,119.87802332818418,-0.0029262391490728,0.0022853306559012,,14957.496266617703,17020.816047025746,150,9,2025-09-12,2025-09-26 20:16:30.686,HA,C,853865742,AMBUSH51,1,1,48,2,1,1,225,2,1,0,0,9,1,225,2,1,-146964.02266025977,-4794461.432219505,4196712.15435042,2.10838,3.00974,-0.163797,-101.433,15.6664,19.1877,-0.128607,-7.29339,6.74334,0.0396946,-0.000922744,-0.0168351,4,0,41.37380253776232,-91.75573055955792,15125.93217700254,-79.14315322042701,1.889906681343196,-10.86946490939111,168.055,14957.496266617703,17020.816047025746,150,False,8.925965104815289,False,162.5351033794826,174.76351269355177,False,22.519336379160293,True,False
9,1970-07-23 10:31:21.917980240,2025-09-12,2025-09-26 20:16:31.798,HA,C,2807056988,JASSM,3,114,76,2,2,1,225,9,2,0,1,26,0,0,0,0,-160260.15173514312,-4787966.979463424,4203984.310026646,-2.36549,-0.396918,0.382632,80.125,-33.5,-34.875,0.0,0.0,0.0,0.0,0.0,0.0,2,0,41.45896838108938,-91.91705657035187,15986.8769329583,119.87869913224549,-0.0020431743390768,0.0022838501771669,,14957.496266617703,17020.816047025746,150,9,2025-09-12,2025-09-26 20:16:31.953,HA,C,855376874,AMBUSH51,1,1,48,2,1,1,225,2,1,0,0,9,1,225,2,1,-147091.9212409111,-4794442.714335797,4196735.03222574,2.13925,3.02549,-0.155251,-101.767,13.9883,17.8204,-0.280839,-7.40845,7.09559,0.00961963,0.00352973,-0.00226057,4,0,41.37404495601727,-91.75726442017708,15139.134070515329,-80.10247919689218,2.2318945205431,-8.991623743048894,167.701,14957.496266617703,17020.816047025746,150,True,8.808518793122428,False,161.33750673193637,174.5558822457909,False,23.92047587075441,True,False
9,1970-07-23 10:31:21.928773472,2025-09-12,2025-09-26 20:16:32.877,HA,C,2808190382,JASSM,3,114,76,2,2,1,225,9,2,0,1,26,0,0,0,0,-160183.96130545562,-4787998.918916549,4203951.060026646,-2.36549,-0.396822,0.382632,80.125,-33.5,-34.875,0.0,0.0,0.0,0.0,0.0,0.0,2,0,41.45856921713111,-91.91613307572815,15986.874319137856,119.8756737538112,-0.0048138484471286,0.0002317633529592,,14957.496266617703,17020.816047025746,150,9,2025-09-12,2025-09-26 20:16:32.819,HA,C,856410806,AMBUSH51,1,1,48,2,1,1,225,2,1,0,0,9,1,225,2,1,-147180.15634904391,-4794431.042674692,4196749.849332216,2.15017,3.03017,-0.147454,-101.939,12.9655,17.0493,-0.0576511,-7.42638,6.77139,0.0416587,0.0138807,-0.00825476,4,0,41.37419828240031,-91.75832215565052,15149.207344845629,-80.61368213955797,2.134749124694712,-8.345059109124756,167.248,14957.496266617703,17020.816047025746,150,True,8.71674353308621,False,160.63194563977942,174.3978746817487,False,24.780424495936476,True,False
9,1970-07-23 10:31:21.936384986,2025-09-12,2025-09-26 20:16:33.638,HA,C,2809443080,JASSM,3,114,76,2,2,1,225,9,2,0,1,26,0,0,0,0,-160099.75036795562,-4788034.221650924,4203914.310026646,-2.36549,-0.396822,0.382632,80.125,-33.5,-34.875,0.0,0.0,0.0,0.0,0.0,0.0,2,0,41.45812802000492,-91.91511237829737,15986.879163555384,119.8763495326047,-0.0039307861590379,0.0002302388012376,,14957.496266617703,17020.816047025746,150,9,2025-09-12,2025-09-26 20:16:33.519,HA,C,857245906,AMBUSH51,1,1,48,2,1,1,225,2,1,0,0,9,1,225,2,1,-147251.37769883548,-4794422.033750348,4196761.287645517,2.20637,3.03645,-0.139968,-102.003,12.4724,16.4474,-0.341145,-7.08555,6.95294,0.107445,-0.000781263,-0.0149626,4,0,41.37431606412774,-91.75917578713783,15157.224214215055,-81.17190807573414,2.1177238666100275,-5.094069073243597,166.845,14957.496266617703,17020.816047025746,150,True,8.62872001845918,False,160.209764211971,174.2565100835089,False,25.348795638797156,True,False
9,1970-07-23 10:31:21.945333901,2025-09-12,2025-09-26 20:16:34.533,HA,C,2810576476,JASSM,3,114,76,2,2,1,225,9,2,0,1,26,0,0,0,0,-160023.55993826812,-4788066.161104049,4203881.058073521,-2.3654,-0.396822,0.382632,80.125,-33.5,-34.875,0.0,0.0,0.0,0.0,0.0,0.0,2,0,41.4577288272117,-91.91418890751578,15986.880884516111,119.87696093491742,-0.003131825232006,0.0057203237393664,,14957.496266617703,17020.816047025746,150,9,2025-09-12,2025-09-26 20:16:34.653,HA,C,858597970,AMBUSH51,1,1,48,2,1,1,225,2,1,0,0,9,1,225,2,1,-147367.6002529054,-4794407.60443451,4196779.166305576,2.28541,3.03938,-0.134278,-102.006,12.2539,15.9739,-0.0789154,-6.99609,6.44336,0.0298305,-0.00495078,0.00318227,4,0,41.374501322868205,-91.7605686910434,15169.27489093746,-81.52739504183528,2.0272621130712816,-0.55531275599624,166.124,14957.496266617703,17020.816047025746,150,True,8.523736526527406,False,159.94937632817286,174.0435998190524,False,25.831818021325358,True,False
9,1970-07-23 10:31:21.955315107,2025-09-12,2025-09-26 20:16:35.531,HA,C,2811769522,JASSM,3,114,76,2,2,1,225,9,2,0,1,26,0,0,0,0,-159943.35925467435,-4788099.778291549,4203846.054167271,-2.3654,-0.396822,0.382632,80.125,-33.5,-34.875,0.0,0.0,0.0,0.0,0.0,0.0,2,0,41.45730862338571,-91.9132168437928,15986.874975750849,119.87760450392904,-0.0022908162901836,0.0057188702855922,,14957.496266617703,17020.816047025746,150,9,2025-09-12,2025-09-26 20:16:35.453,HA,C,859552370,AMBUSH51,1,1,48,2,1,1,225,2,1,0,0,9,1,225,2,1,-147448.2465049653,-4794397.7136708405,4196791.3070206735,2.28305,3.03162,-0.145827,-101.879,12.3822,15.6863,-0.100262,-6.89226,6.63412,-0.00198801,-0.00733722,0.00809247,4,0,41.374627349162616,-91.76153517916372,15177.36532192584,-80.74017993781133,2.136844319584203,-0.7239815519854866,166.075,14957.496266617703,17020.816047025746,150,True,8.43396297034549,False,159.90749136910463,173.8794584254025,False,26.049893949238886,True,False
9,1970-07-23 10:31:21.965296274,2025-09-12,2025-09-26 20:16:36.529,HA,C,2812962568,JASSM,3,114,76,2,2,1,225,9,2,0,1,26,0,0,0,0,-159863.15808279935,-4788133.397432174,4203811.050261021,-2.3654,-0.396822,0.382728,80.125,-33.5,-34.875,0.0,0.0,0.0,0.0,0.0,0.0,2,0,41.45688839978469,-91.91224478600184,15986.878341027636,119.88209602260106,-0.0053700312312397,0.0057171802598776,,14957.496266617703,17020.816047025746,150,9,2025-09-12,2025-09-26 20:16:36.719,HA,C,861063502,AMBUSH51,1,1,48,2,1,1,225,2,1,0,0,9,1,225,2,1,-147576.8865423219,-4794381.672805812,4196810.671171623,2.2778,3.03117,-0.143917,-101.696,12.6111,15.3883,-0.112707,-6.89492,6.66219,2.18462e-05,-0.00753071,-0.0190676,4,0,41.37482991628063,-91.76307694193883,15189.62445044825,-80.80616257962689,2.0463427853449963,-1.0312412020461836,165.403,14957.496266617703,17020.816047025746,150,True,8.320681356774287,False,159.90570527094158,173.6331986271109,False,26.313672451274147,True,False
9,1970-07-23 10:31:21.975253879,2025-09-12,2025-09-26 20:16:37.525,HA,C,2814215268,JASSM,3,114,76,2,2,1,225,9,2,0,1,26,0,0,0,0,-159778.94763358062,-4788168.694307174,4203774.296354771,-2.3654,-0.396822,0.382728,80.125,-33.5,-34.875,0.0,0.0,0.0,0.0,0.0,0.0,2,0,41.45644717647764,-91.91122414945072,15986.879301936844,119.88277173865748,-0.0044869781058508,0.0057157191344915,,14957.496266617703,17020.816047025746,150,9,2025-09-12,2025-09-26 20:16:37.686,HA,C,862216734,AMBUSH51,1,1,48,2,1,1,225,2,1,0,0,9,1,225,2,1,-147675.56025068933,-4794369.097558117,4196825.114321949,2.26056,3.03258,-0.145351,-101.583,12.7358,14.9858,-0.020753,-6.96385,6.42301,-0.0169121,-0.0102459,0.0098797,4,0,41.37498412366592,-91.76425966042542,15197.477310341246,-80.79865701757399,2.1617725435927992,-2.0070829710550635,165.036,14957.496266617703,17020.816047025746,150,True,8.219760159939515,False,159.81431616731982,173.42761289961845,False,26.62461760510214,True,False
9,1970-07-23 10:31:21.988339199,2025-09-12,2025-09-26 20:16:38.833,HA,C,2815408314,JASSM,3,114,76,2,2,1,225,9,2,0,1,26,0,0,0,0,-159698.74646170562,-4788202.309541549,4203739.290495396,-2.3654,-0.396822,0.382728,80.125,-33.5,-34.875,0.0,0.0,0.0,0.0,0.0,0.0,2,0,41.45602694606101,-91.9102521189421,15986.878079857031,119.88341526941352,-0.0036459648739327,0.0057143226884472,,14957.496266617703,17020.816047025746,150,9,2025-09-12,2025-09-26 20:16:38.953,HA,C,863727866,AMBUSH51,1,1,48,2,1,1,225,2,1,0,0,9,1,225,2,1,-147803.27136283868,-4794352.820832628,4196843.5340298135,2.26251,3.02858,-0.145915,-101.511,12.7846,14.5443,-0.261714,-6.92134,6.61017,0.0155056,0.000342258,-0.00925761,4,0,41.37518184955567,-91.76579043307024,15207.05302965537,-80.6250037410778,2.0146909839200013,-1.9218699393678,165.085,14957.496266617703,17020.816047025746,150,True,8.107345824169817,False,159.67208641953764,173.16811631076024,False,27.039539386831724,True,False
9,1970-07-23 10:31:21.996353086,2025-09-12,2025-09-26 20:16:39.635,HA,C,2816601360,JASSM,3,114,76,2,2,1,225,9,2,0,1,26,0,0,0,0,-159618.54577811187,-4788235.924775924,4203704.282682896,-2.3654,-0.396822,0.382728,80.125,-33.5,-34.875,0.0,0.0,0.0,0.0,0.0,0.0,2,0,41.45560669413368,-91.90928010681782,15986.877169913903,119.8840587826354,-0.002804948762854,0.0057129125244253,,14957.496266617703,17020.816047025746,150,9,2025-09-12,2025-09-26 20:16:39.819,HA,C,864761798,AMBUSH51,1,1,48,2,1,1,225,2,1,0,0,9,1,225,2,1,-147891.07065952712,-4794341.563969081,4196855.943748778,2.26681,3.02923,-0.141849,-101.471,12.7742,14.3658,-0.170481,-6.87183,6.34004,-0.00773253,-0.0141033,-0.0059994,4,0,41.37531645677316,-91.76684284337594,15212.926833264208,-80.82462076324015,1.8885469673973587,-1.676845969277594,164.768,14957.496266617703,17020.816047025746,150,True,8.0145662475871,False,159.60350891841867,172.97118914566715,False,27.309911576367977,True,False
9,1970-07-23 10:31:22.006331982,2025-09-12,2025-09-26 20:16:40.633,HA,C,2817854060,JASSM,3,114,76,2,2,1,225,9,2,0,1,26,0,0,0,0,-159534.33435233062,-4788271.217744674,4203667.524870396,-2.3654,-0.396822,0.382728,80.125,-33.5,-34.875,0.0,0.0,0.0,0.0,0.0,0.0,2,0,41.45516544153418,-91.90825950033548,15986.87442378943,119.88473446160798,-0.0019218874262698,0.005711452554666,,14957.496266617703,17020.816047025746,150,9,2025-09-12,2025-09-26 20:16:40.519,HA,C,865596896,AMBUSH51,1,1,48,2,1,1,225,2,1,0,0,9,1,225,2,1,-147961.88760632026,-4794332.3396953605,4196865.611621549,2.2647,3.02683,-0.138673,-101.436,12.9579,14.0096,-0.165945,-6.80503,6.2837,-0.0044223,-0.00402907,-0.00113496,4,0,41.3754235753764,-91.76769175002804,15216.57068997917,-80.87077432776918,1.6663326051535257,-1.81852771974797,164.364,14957.496266617703,17020.816047025746,150,True,7.927674135362692,False,159.53943575929432,172.79723943486658,False,27.559988634525325,True,False
9,1970-07-23 10:31:22.016312101,2025-09-12,2025-09-26 20:16:41.631,HA,C,2819106758,JASSM,3,114,76,2,2,1,225,9,2,0,1,26,0,0,0,0,-159450.12341483062,-4788306.510713424,4203630.767057896,-2.3654,-0.396726,0.382728,80.125,-33.5,-34.875,0.0,0.0,0.0,0.0,0.0,0.0,2,0,41.45472417974944,-91.90723891352305,15986.876694728546,119.88177358396176,-0.0046084514747018,0.0036587268025299,,14957.496266617703,17020.816047025746,150,9,2025-09-12,2025-09-26 20:16:41.752,HA,C,867068262,AMBUSH51,1,1,48,2,1,1,225,2,1,0,0,9,1,225,2,1,-148087.22713039088,-4794315.738674249,4196882.485217741,2.27677,3.02858,-0.139854,-101.354,13.1435,13.687,-0.158858,-6.98882,6.60238,0.00806126,0.000161246,-0.00669015,4,0,41.37561317962823,-91.7691943447059,15221.834677751747,-80.88712798309541,1.7867628938800388,-1.1138736862257743,164.499,14957.496266617703,17020.816047025746,150,True,7.814487211799749,False,159.4919584133499,172.51831348371485,False,27.89809011991794,True,False
9,1970-07-23 10:31:22.026306592,2025-09-12,2025-09-26 20:16:42.630,HA,C,2820299804,JASSM,3,114,76,2,2,1,225,9,2,0,1,26,0,0,0,0,-159369.92321951812,-4788340.123994674,4203595.757292271,-2.3654,-0.396726,0.382728,80.125,-33.5,-34.875,0.0,0.0,0.0,0.0,0.0,0.0,2,0,41.45430390062799,-91.90626694691149,15986.880777288736,119.8824170505165,-0.0037674387451924,0.0036572592571739,,14957.496266617703,17020.816047025746,150,9,2025-09-12,2025-09-26 20:16:42.586,HA,C,868062428,AMBUSH51,1,1,48,2,1,1,225,2,1,0,0,9,1,225,2,1,-148171.49708104733,-4794304.65757644,4196893.469954834,2.27729,3.02918,-0.135135,-101.339,13.3322,13.3264,-0.284636,-6.9314,6.64957,0.0106121,-0.00191727,-0.00252272,4,0,41.37573773811774,-91.77020456416444,15224.79559847308,-81.11295445270294,1.6337587553415762,-1.0858454874727066,164.401,14957.496266617703,17020.816047025746,150,True,7.723904948547348,False,159.42177416601095,172.31046067480864,False,28.18733282838918,True,False
9,1970-07-23 10:31:22.036250577,2025-09-12,2025-09-26 20:16:43.625,HA,C,2821492850,JASSM,3,114,76,2,2,1,225,9,2,0,1,26,0,0,0,0,-159289.72204764312,-4788373.733369674,4203560.745573521,-2.3654,-0.396726,0.382728,80.125,-33.5,-34.875,0.0,0.0,0.0,0.0,0.0,0.0,2,0,41.453883623540655,-91.90529498272925,15986.87545230508,119.88306051009714,-0.0029264244989408,0.0036558043649697,,14957.496266617703,17020.816047025746,150,9,2025-09-12,2025-09-26 20:16:43.453,HA,C,869096360,AMBUSH51,1,1,48,2,1,1,225,2,1,0,0,9,1,225,2,1,-148259.22943600584,-4794292.863554873,4196904.782455192,2.28605,3.025,-0.131678,-101.374,13.3989,13.2165,0.0181332,-6.93445,6.2563,0.0158136,-0.00997541,-0.0053128,4,0,41.37586810210224,-91.77125638948225,15226.98024110859,-81.1040563457684,1.3253440911482277,-0.6154810938037546,164.181,14957.496266617703,17020.816047025746,150,True,7.631735540849856,False,159.39936945066933,172.09097060361321,False,28.43318717280606,True,False
9,1970-07-23 10:31:22.046231895,2025-09-12,2025-09-26 20:16:44.623,HA,C,2822685896,JASSM,3,114,76,2,2,1,225,9,2,0,1,26,0,0,0,0,-159209.52087576812,-4788407.342744674,4203525.735807896,-2.3654,-0.396726,0.382728,80.125,-33.5,-34.875,0.0,0.0,0.0,0.0,0.0,0.0,2,0,41.453463351380776,-91.90432303109428,15986.878883834715,119.88370395600596,-0.0020854167528405,0.0036543608561499,,14957.496266617703,17020.816047025746,150,9,2025-09-12,2025-09-26 20:16:44.519,HA,C,870368892,AMBUSH51,1,1,48,2,1,1,225,2,1,0,0,9,1,225,2,1,-148366.49274620248,-4794278.285004304,4196918.340765315,2.30542,3.02317,-0.132135,-101.395,13.6576,13.0738,-0.0277062,-6.84574,6.56176,0.00375859,-0.00368161,0.000467094,4,0,41.37602657911021,-91.7725424360301,15228.674541564826,-81.01637084230816,1.2660510527034885,0.4823562817986069,164.364,14957.496266617703,17020.816047025746,150,True,7.53034995034732,False,159.4362492712394,171.82681668803886,False,28.668630713910797,True,False
9,1970-07-23 10:31:22.057254096,2025-09-12,2025-09-26 20:16:45.725,HA,C,2823878942,JASSM,3,114,76,2,2,1,225,9,2,0,1,26,0,0,0,0,-159129.31970389312,-4788440.950166549,4203490.722136021,-2.3654,-0.396726,0.382824,80.125,-33.5,-34.875,0.0,0.0,0.0,0.0,0.0,0.0,2,0,41.45304305626435,-91.90335109278269,15986.873545538156,119.88819548793384,-0.0051644974529265,0.0036526890467476,,14957.496266617703,17020.816047025746,150,9,2025-09-12,2025-09-26 20:16:45.686,HA,C,871760724,AMBUSH51,1,1,48,2,1,1,225,2,1,0,0,9,1,225,2,1,-148485.38930814795,-4794261.621535632,4196933.378380599,2.30706,3.02,-0.132676,-101.469,14.1656,12.9793,-0.00476117,-7.12034,6.57713,-0.00804878,-0.00753071,0.011332,4,0,41.37620528142631,-91.77396815421784,15229.339193022151,-80.87458981611725,1.1531692147700012,0.5555936800916866,164.218,14957.496266617703,17020.816047025746,150,True,7.4234512850071575,False,159.57720104113218,171.53255186999533,False,28.833389586517747,True,False
9,1970-07-23 10:31:22.066372315,2025-09-12,2025-09-26 20:16:46.637,HA,C,2825012336,JASSM,3,114,76,2,2,1,225,9,2,0,1,26,0,0,0,0,-159053.13025076812,-4788472.877900924,4203457.460417271,-2.3654,-0.396726,0.382824,80.125,-33.5,-34.875,0.0,0.0,0.0,0.0,0.0,0.0,2,0,41.452643772432495,-91.90242778257948,15986.877228509618,119.8888067225432,-0.0043655481939182,0.0036513552110587,,14957.496266617703,17020.816047025746,150,9,2025-09-12,2025-09-26 20:16:46.553,HA,C,872794656,AMBUSH51,1,1,48,2,1,1,225,2,1,0,0,9,1,225,2,1,-148573.17987406353,-4794248.942922337,4196944.759252995,2.30909,3.01602,-0.135941,-101.504,14.306,13.255,-0.0825557,-7.00747,6.54378,0.0065029,0.00328838,-0.00676089,4,0,41.37634132027308,-91.7750210162689,15229.514454116184,-80.58507743649977,1.109225629511847,0.646627366369065,164.584,14957.496266617703,17020.816047025746,150,True,7.333939798396387,False,159.73635119330072,171.29863235077872,False,28.906879160336405,True,False
9,1970-07-23 10:31:22.077993955,2025-09-12,2025-09-26 20:16:47.799,HA,C,2826145732,JASSM,3,114,76,2,2,1,225,9,2,0,1,26,0,0,0,0,-158976.93786795562,-4788504.803682174,4203424.196745396,-2.3654,-0.396726,0.382824,80.125,-33.5,-34.875,0.0,0.0,0.0,0.0,0.0,0.0,2,0,41.45224448019753,-91.90150444945944,15986.87570444662,119.88941796748146,-0.0035665761485014,0.003650033295259,,14957.496266617703,17020.816047025746,150,9,2025-09-12,2025-09-26 20:16:47.753,HA,C,874226254,AMBUSH51,1,1,48,2,1,1,225,2,1,0,0,9,1,225,2,1,-148694.32276595378,-4794231.219594218,4196960.53940386,2.30648,3.01343,-0.134361,-101.628,14.7505,13.3482,-0.136334,-7.07595,6.56027,-0.0144112,-0.000400514,-0.0118188,4,0,41.37653089131717,-91.77647396049645,15229.36591547264,-80.55605685868204,0.9404530047970364,0.4777028341591365,164.548,14957.496266617703,17020.816047025746,150,True,7.228533234144994,False,159.92249785283903,170.9893474045245,False,29.037034267693926,True,False
9,1970-07-23 10:31:22.085211446,2025-09-12,2025-09-26 20:16:48.521,HA,C,2827219474,JASSM,3,114,76,2,2,1,225,9,2,0,1,26,0,0,0,0,-158904.75622733062,-4788535.047822799,4203392.683073521,-2.3654,-0.396726,0.382824,80.125,-33.5,-34.875,0.0,0.0,0.0,0.0,0.0,0.0,2,0,41.45186619946246,-91.9006297311668,15986.873222086884,119.88999702502184,-0.0028096618321683,0.0036487805569718,,14957.496266617703,17020.816047025746,150,9,2025-09-12,2025-09-26 20:16:48.585,HA,C,875220420,AMBUSH51,1,1,48,2,1,1,225,2,1,0,0,9,1,225,2,1,-148779.5235536604,-4794218.591924957,4196971.628240718,2.30061,3.01068,-0.133828,-101.675,15.0103,13.3433,-0.0524218,-7.11353,6.57814,-0.00816737,0.00355053,0.00930962,4,0,41.37666511046053,-91.77749589341953,15228.845216738357,-80.47543180045116,0.8040334444961331,0.1214182684942811,164.584,14957.496266617703,17020.816047025746,150,True,7.142949962997123,False,160.0090587546634,170.75163695637818,False,29.193005822522696,True,False
9,1970-07-23 10:31:22.094350400,2025-09-12,2025-09-26 20:16:49.435,HA,C,2828352868,JASSM,3,114,76,2,2,1,225,9,2,0,1,26,0,0,0,0,-158828.56482108062,-4788566.973604049,4203359.419401646,-2.3654,-0.39663,0.382824,80.125,-33.5,-34.875,0.0,0.0,0.0,0.0,0.0,0.0,2,0,41.4514668925495,-91.89970643177054,15986.879711844063,119.88697196940672,-0.0055803119973742,0.0015957636975939,,14957.496266617703,17020.816047025746,150,9,2025-09-12,2025-09-26 20:16:49.454,HA,C,876254352,AMBUSH51,1,1,48,2,1,1,225,2,1,0,0,9,1,225,2,1,-148866.96235056192,-4794205.6622923,4196982.852315879,2.2952,3.01179,-0.133657,-101.807,15.0045,13.405,-0.0619061,-7.19412,6.67107,-0.00171545,-0.00450345,-0.00884773,4,0,41.37680161552733,-91.77854466333343,15228.049638241266,-80.52571446693938,0.8457703795105007,-0.1802942943167607,164.951,14957.496266617703,17020.816047025746,150,True,7.053985247135133,False,160.01801735915464,170.49939188140883,False,29.43561205836836,True,False
9,1970-07-23 10:31:22.103371693,2025-09-12,2025-09-26 20:16:50.337,HA,C,2829486262,JASSM,3,114,76,2,2,1,225,9,2,0,1,26,0,0,0,0,-158752.37439139312,-4788598.895479049,4203326.153776646,-2.3654,-0.39663,0.382824,80.125,-33.5,-34.875,0.0,0.0,0.0,0.0,0.0,0.0,2,0,41.45106758808768,-91.89878315691816,15986.876513129804,119.8875831615904,-0.0047813608812997,0.0015943900898436,,14957.496266617703,17020.816047025746,150,9,2025-09-12,2025-09-26 20:16:50.354,HA,C,877328050,AMBUSH51,1,1,48,2,1,1,225,2,1,0,0,9,1,225,2,1,-148958.45512018696,-4794191.974529548,4196994.838829802,2.29645,3.0111,-0.132134,-101.89,15.0692,13.5045,-0.113641,-7.15283,6.61994,-0.00228761,-0.0117668,-0.00446392,4,0,41.37694701663681,-91.77964212158038,15227.356037262442,-80.56547316825453,0.7591932604351332,-0.1148666863324942,165.415,14957.496266617703,17020.816047025746,150,True,6.963135255376856,False,160.0727391791312,170.2325799744286,False,29.647699696858997,True,False
9,1970-07-23 10:31:22.114530266,2025-09-12,2025-09-26 20:16:51.453,HA,C,2830619656,JASSM,3,114,76,2,2,1,225,9,2,0,1,26,0,0,0,0,-158676.18298514312,-4788630.819307174,4203292.886198521,-2.3654,-0.39663,0.382824,80.125,-33.5,-34.875,0.0,0.0,0.0,0.0,0.0,0.0,2,0,41.45066825158389,-91.89785988094356,15986.877867397536,119.88819434967616,-0.0039823893615592,0.0015929997660344,,14957.496266617703,17020.816047025746,150,9,2025-09-12,2025-09-26 20:16:51.552,HA,C,878759650,AMBUSH51,1,1,48,2,1,1,225,2,1,0,0,9,1,225,2,1,-149080.6011314335,-4794173.624031278,4197010.817352325,2.29813,3.01121,-0.131965,-102.007,15.2023,13.5566,-0.155712,-7.07432,6.48555,0.00189646,-0.00120154,-0.00562281,4,0,41.377141411471975,-91.78110730255824,15226.196081665506,-80.57758808279509,0.7583072661780231,-0.0174971605014105,166.039,14957.496266617703,17020.816047025746,150,True,6.857881040248588,False,160.12898652516506,169.8888221964519,False,29.93719144401046,True,False
9,1970-07-23 10:31:22.122332161,2025-09-12,2025-09-26 20:16:52.233,HA,C,2831753050,JASSM,3,114,76,2,2,1,225,9,2,0,1,26,0,0,0,0,-158599.99157889312,-4788662.739229049,4203259.620573521,-2.3654,-0.39663,0.382824,80.125,-33.5,-34.875,0.0,0.0,0.0,0.0,0.0,0.0,2,0,41.4502689440657,-91.89693661783936,15986.877937283398,119.88880552439772,-0.0031834369415313,0.0015916404108989,,14957.496266617703,17020.816047025746,150,9,2025-09-12,2025-09-26 20:16:52.219,HA,C,879554982,AMBUSH51,1,1,48,2,1,1,225,2,1,0,0,9,1,225,2,1,-149149.65587238647,-4794163.175070526,4197019.886418764,2.29835,3.01146,-0.132866,-102.114,15.1298,13.7439,-0.145157,-7.2457,6.7127,6.55387e-05,0.00320932,-0.00230842,4,0,41.37725198775977,-91.78193566818416,15225.437673552156,-80.54919414068887,0.8040606070236296,-0.0026860888490484,166.356,14957.496266617703,17020.816047025746,150,True,6.777969194943764,False,160.16723883006387,169.65865529467942,False,30.12520909221929,False,False
9,1970-07-23 10:31:22.137293800,2025-09-12,2025-09-26 20:16:53.729,HA,C,2832886444,JASSM,3,114,76,2,2,1,225,9,2,0,1,26,0,0,0,0,-158523.80017264312,-4788694.659150924,4203226.351042271,-2.3654,-0.39663,0.382824,80.125,-33.5,-34.875,0.0,0.0,0.0,0.0,0.0,0.0,2,0,41.44986960276806,-91.89601336605809,15986.87359772339,119.88941668678298,-0.0023844713390175,0.001590258185072,,14957.496266617703,17020.816047025746,150,9,2025-09-12,2025-09-26 20:16:53.753,HA,C,881384246,AMBUSH51,1,1,48,2,1,1,225,2,1,0,0,9,1,225,2,1,-149305.14612194145,-4794139.713918216,4197040.882219148,2.28923,3.0131,-0.13478,-102.281,15.0574,14.1056,-0.11449,-7.2725,6.90306,-0.0102188,-0.00679418,0.00331543,4,0,41.3775044356697,-91.78380088101692,15225.150529358412,-80.53055291254398,0.9480012263823596,-0.5123464409672069,166.857,14957.496266617703,17020.816047025746,150,True,6.657226316014173,False,160.26822622619193,169.21840944882825,False,30.458098616582106,False,False
9,1970-07-23 10:31:22.146437044,2025-09-12,2025-09-26 20:16:54.643,HA,C,2834079490,JASSM,3,114,76,2,2,1,225,9,2,0,1,26,0,0,0,0,-158443.59900076812,-4788728.258760299,4203191.331511021,-2.3654,-0.39663,0.382824,80.125,-33.5,-34.875,0.0,0.0,0.0,0.0,0.0,0.0,2,0,41.44944924417987,-91.89504153811824,15986.874930981365,119.89005999975976,-0.0015434616685292,0.0015888093022828,,14957.496266617703,17020.816047025746,150,9,2025-09-12,2025-09-26 20:16:54.619,HA,C,882418178,AMBUSH51,1,1,48,2,1,1,225,2,1,0,0,9,1,225,2,1,-149394.65310728826,-4794126.354039578,4197053.115277479,2.28728,3.01177,-0.134984,-102.332,14.9535,14.2548,-0.290034,-7.13037,6.78113,0.000569043,-0.00105382,-0.00517756,4,0,41.37764986991913,-91.78487453153772,15225.667546930104,-80.47225228309368,0.9001842316769564,-0.6335376112568005,167.163,14957.496266617703,17020.816047025746,150,True,6.565467447556346,False,160.28447962778853,168.9197996706076,False,30.73624560738591,False,False
9,1970-07-23 10:31:22.151318996,2025-09-12,2025-09-26 20:16:55.131,HA,C,2835153232,JASSM,3,114,76,2,2,1,225,9,2,0,1,26,0,0,0,0,-158371.41736014312,-4788758.498994674,4203159.811979771,-2.3654,-0.39663,0.38292,80.125,-33.5,-34.875,0.0,0.0,0.0,0.0,0.0,0.0,2,0,41.449070897861525,-91.89416689646524,15986.877141448676,119.89448721605028,-0.004706496582908,0.0015873091680267,,14957.496266617703,17020.816047025746,150,9,2025-09-12,2025-09-26 20:16:55.219,HA,C,883133978,AMBUSH51,1,1,48,2,1,1,225,2,1,0,0,9,1,225,2,1,-149455.39077238983,-4794117.261233373,4197061.375835644,2.28586,3.01366,-0.134192,-102.416,15.0621,14.171,-0.131206,-7.19085,6.88699,-0.00764515,0.00450761,-0.00578717,4,0,41.37774844006462,-91.78560310225306,15225.866297492705,-80.57780195542546,0.950465021476802,-0.7022925506195989,167.297,14957.496266617703,17020.816047025746,150,True,6.492355130367723,False,160.281385133502,168.69309817025314,False,30.969717462787266,False,False
