Subject_cm,Timestamp,SampleDate_cm,SampleTime_cm,Configuration_cm,Scenario_cm,DisTime_cm,MarkingTxt_cm,Application_cm,EntId_cm,Site_cm,ExerciseId_cm,ForceId_cm,Category_cm,Country_cm,Domain_cm,Kind_cm,Extra_cm,Specific_cm,Subcategory_cm,AltCategory_cm,AltCountry_cm,AltDomain_cm,AltKind_cm,ECEF_X_cm,ECEF_Y_cm,ECEF_Z_cm,OriPhi_cm,OriPsi_cm,OriTheta_cm,LinVelX_cm,LinVelY_cm,LinVelZ_cm,LinAccX_cm,LinAccY_cm,LinAccZ_cm,AngVelX_cm,AngVelY_cm,AngVelZ_cm,DrAlg_cm,Appearance_cm,Latitude_cm,Longitude_cm,Altitude_cm,Heading_cm,Pitch_cm,Roll_cm,CalibratedAirspeed_cm,CM_Altitude_Lead_cm,CM_Altitude_Wing_cm,CM_Airspeed_cm,Subject_ac,SampleDate_ac,SampleTime_ac,Configuration_ac,Scenario_ac,DisTime_ac,MarkingTxt_ac,Application_ac,EntId_ac,Site_ac,ExerciseId_ac,ForceId_ac,Category_ac,Country_ac,Domain_ac,Kind_ac,Extra_ac,Specific_ac,Subcategory_ac,AltCategory_ac,AltCountry_ac,AltDomain_ac,AltKind_ac,ECEF_X_ac,ECEF_Y_ac,ECEF_Z_ac,OriPhi_ac,OriPsi_ac,OriTheta_ac,LinVelX_ac,LinVelY_ac,LinVelZ_ac,LinAccX_ac,LinAccY_ac,LinAccZ_ac,AngVelX_ac,AngVelY_ac,AngVelZ_ac,DrAlg_ac,Appearance_ac,Latitude_ac,Longitude_ac,Altitude_ac,Heading_ac,Pitch_ac,Roll_ac,CalibratedAirspeed_ac,CM_Altitude_Lead_ac,CM_Altitude_Wing_ac,CM_Airspeed_ac,Bank_Angle_Condition,distance_nm,Distance_Condition,angle_between_vel,angle_between_pos,Cone_Condition,angle_between_pos_nose,Nose_Cone_Condition,Intercept_Criteria
9,1970-07-23 11:39:59.520929032,2025-09-17,2025-09-26 14:39:12.092,HA,D,1207000618,JASSM,3,102,76,2,2,1,225,9,2,0,1,26,0,0,0,0,-188307.7386492056,-4786081.243135299,4202206.097136021,-2.30155,-0.153302,0.128183,87.875,-13.5,-11.375,0.0,0.0,0.0,0.0,0.0,0.0,2,0,41.45212331562154,-92.25313277758836,10000.002679998368,99.8159147865644,-0.0046575838685693,0.0023912102081378,,9554.640030125043,10944.541949582395,150,9,2025-09-17,2025-09-26 14:39:11.903,HA,D,2485692812,AMBUSH51,1,1,48,2,1,1,225,2,1,0,0,9,1,225,2,1,-149438.58189236055,-4792099.499181049,4196734.93009742,2.38605,2.69505,-0.396221,-86.5063,47.372,46.3464,-0.137171,-6.72453,5.31343,0.00296381,-0.00294092,0.00543971,4,0,41.387545085669935,-91.78615368476382,9551.930189076813,-57.59978222077069,-1.3829676949425282,0.0768619690868048,175.461,9554.640030125043,10944.541949582395,150,True,21.354767842488556,False,153.86016208235358,179.36840604097415,False,25.648229492576714,True,False
9,1970-07-23 11:39:59.530932721,2025-09-17,2025-09-26 14:39:13.093,HA,D,1208134766,JASSM,3,102,76,2,2,1,225,9,2,0,1,26,0,0,0,0,-188224.1331804556,-4786094.168916549,4202195.192839146,-2.30155,-0.153302,0.128183,87.875,-13.5,-11.375,0.0,0.0,0.0,0.0,0.0,0.0,2,0,41.45199239260742,-92.25212737877656,9999.999162428336,99.81658035370944,-0.0038927389493026,0.0023906769776579,,9554.640030125043,10944.541949582395,150,9,2025-09-17,2025-09-26 14:39:13.136,HA,D,2487164176,AMBUSH51,1,1,48,2,1,1,225,2,1,0,0,9,1,225,2,1,-149545.50836979825,-4792040.41099128,4196791.709498107,2.39032,2.69273,-0.396503,-86.2342,48.0032,45.7346,-0.264774,-7.23382,6.2447,-0.00450969,0.00017373,0.00604101,4,0,41.38826005535858,-91.78745291248435,9537.927083533776,-57.50031706814023,-1.4541862594725636,0.2674615859337211,175.241,9554.640030125043,10944.541949582395,150,True,21.243703149910747,False,153.7748046230539,179.42933869698092,False,25.824733249749826,True,False
9,1970-07-23 11:39:59.539227514,2025-09-17,2025-09-26 14:39:13.922,HA,D,1209267690,JASSM,3,102,76,2,2,1,225,9,2,0,1,26,0,0,0,0,-188140.6175554556,-4786107.081025924,4202184.300261021,-2.30155,-0.153302,0.128183,87.875,-13.5,-11.375,0.0,0.0,0.0,0.0,0.0,0.0,2,0,41.45186160021528,-92.25112306431588,9999.999916717146,99.81724520129518,-0.0031287156303718,0.0023901430242406,,9554.640030125043,10944.541949582395,150,9,2025-09-17,2025-09-26 14:39:13.936,HA,D,2488118576,AMBUSH51,1,1,48,2,1,1,225,2,1,0,0,9,1,225,2,1,-149614.33259512618,-4792002.042738128,4196828.237144149,2.39039,2.6936,-0.397927,-86.0793,48.0749,45.7072,-0.179489,-7.55047,6.27633,0.00233963,0.0101419,0.0114547,4,0,41.38872211297222,-91.78828931366488,9528.052066971752,-57.4785985878419,-1.3622907484418416,0.2903639197637914,175.375,9554.640030125043,10944.541949582395,150,True,21.1559250125269,False,153.71221926039703,179.46514461063222,False,25.942396293958094,True,False
9,1970-07-23 11:39:59.549267729,2025-09-17,2025-09-26 14:39:14.926,HA,D,1210402326,JASSM,3,102,76,2,2,1,225,9,2,0,1,26,0,0,0,0,-188056.9769304556,-4786120.010713424,4202173.390104771,-2.30155,-0.153302,0.128183,87.875,-13.5,-11.375,0.0,0.0,0.0,0.0,0.0,0.0,2,0,41.45173060507717,-92.25011725153654,9999.997344766498,99.81791103902565,-0.0023635496746242,0.002389609911432,,9554.640030125043,10944.541949582395,150,9,2025-09-17,2025-09-26 14:39:14.703,HA,D,2489033208,AMBUSH51,1,1,48,2,1,1,225,2,1,0,0,9,1,225,2,1,-149680.12168265588,-4791965.511945829,4196863.156158882,2.39078,2.69426,-0.398125,-85.8931,47.869,45.7768,-0.143024,-7.50837,6.19215,0.00331543,-0.000693878,0.00200465,4,0,41.38916293874178,-91.78908878722945,9518.978779736512,-57.49679810064428,-1.329299443958236,0.3275955518548097,175.326,9554.640030125043,10944.541949582395,150,True,21.069958437107363,False,153.69166893623452,179.49646813462948,False,26.01362950796146,True,False
9,1970-07-23 11:39:59.558309513,2025-09-17,2025-09-26 14:39:15.830,HA,D,1211534194,JASSM,3,102,76,2,2,1,225,9,2,0,1,26,0,0,0,0,-187973.53747733065,-4786132.909150924,4202162.507292271,-2.30155,-0.153302,0.128183,87.875,-13.5,-11.375,0.0,0.0,0.0,0.0,0.0,0.0,2,0,41.45159992458322,-92.2491138620348,10000.000526861784,99.81857527084648,-0.0016002255483768,0.0023890862567434,,9554.640030125043,10944.541949582395,150,9,2025-09-17,2025-09-26 14:39:15.636,HA,D,2490146674,AMBUSH51,1,1,48,2,1,1,225,2,1,0,0,9,1,225,2,1,-149760.12027464897,-4791920.951493558,4196905.691888444,2.38897,2.69369,-0.398845,-85.6931,47.9514,45.6368,-0.181173,-7.5875,6.21286,0.0160403,0.00352973,0.00424337,4,0,41.389700303864096,-91.7900610032524,9507.76933696497,-57.44710359598254,-1.3191127401186633,0.2102494390027699,175.069,9554.640030125043,10944.541949582395,150,True,20.975448021783716,False,153.64486508307758,179.53002457668643,False,26.126290101978555,True,False
9,1970-07-23 11:39:59.567373932,2025-09-17,2025-09-26 14:39:16.737,HA,D,1212609748,JASSM,3,102,76,2,2,1,225,9,2,0,1,26,0,0,0,0,-187894.25232108065,-4786145.165010299,4202152.163542271,-2.30155,-0.153302,0.128183,87.875,-13.5,-11.375,0.0,0.0,0.0,0.0,0.0,0.0,2,0,41.45147572592983,-92.24816043336502,10000.00002121594,99.81920642759997,-0.0008749032500391,0.0023885724702851,,9554.640030125043,10944.541949582395,150,9,2025-09-17,2025-09-26 14:39:16.869,HA,D,2491618038,AMBUSH51,1,1,48,2,1,1,225,2,1,0,0,9,1,225,2,1,-149865.54135740994,-4791862.292711458,4196962.544355361,2.38391,2.69053,-0.399391,-85.5482,45.3989,47.8563,-0.193398,-7.71793,6.44438,-0.0183665,-0.00517548,0.00428498,4,0,41.39041345148938,-91.7913421793546,9494.893364661986,-57.305062529148834,-1.4095062021635605,-0.1533777559512731,174.52,9554.640030125043,10944.541949582395,150,True,20.867710575578922,False,153.6274351677844,179.56521324156256,False,26.201802827988185,True,False
9,1970-07-23 11:39:59.577230392,2025-09-17,2025-09-26 14:39:17.723,HA,D,1213742826,JASSM,3,102,76,2,2,1,225,9,2,0,1,26,0,0,0,0,-187810.72497733065,-4786158.075166549,4202141.267057896,-2.30145,-0.153206,0.128183,87.875,-13.5,-11.375,0.0,0.0,0.0,0.0,0.0,0.0,2,0,41.45134488691016,-92.24715599568908,10000.001086862278,99.81623498020306,-0.0041677126826841,0.0071774451485746,,9554.640030125043,10944.541949582395,150,9,2025-09-17,2025-09-26 14:39:17.937,HA,D,2492890570,AMBUSH51,1,1,48,2,1,1,225,2,1,0,0,9,1,225,2,1,-149955.82265347798,-4791811.452786316,4197010.727837119,2.37845,2.69244,-0.403425,-85.198,47.8171,45.6819,-0.154178,-7.75704,6.29475,0.00536481,0.00583295,0.0053877,4,0,41.391024366850125,-91.79243961230972,9481.290865905594,-57.220417028732726,-1.1714379422474055,-0.4257257753897592,174.385,9554.640030125043,10944.541949582395,150,True,20.766900260355335,False,153.5100943874199,179.5820244036962,False,26.421761695813846,True,False
9,1970-07-23 11:39:59.588248532,2025-09-17,2025-09-26 14:39:18.824,HA,D,1215054676,JASSM,3,102,76,2,2,1,225,9,2,0,1,26,0,0,0,0,-187714.0198992056,-4786173.020479049,4202128.649870396,-2.30145,-0.153206,0.128279,87.875,-13.5,-11.375,0.0,0.0,0.0,0.0,0.0,0.0,2,0,41.45119339381339,-92.2459930981886,9999.999490007616,99.82109531796084,-0.00694945679475,0.007176410958194,,9554.640030125043,10944.541949582395,150,9,2025-09-17,2025-09-26 14:39:18.902,HA,D,2494043802,AMBUSH51,1,1,48,2,1,1,225,2,1,0,0,9,1,225,2,1,-150037.8258226757,-4791765.801707262,4197054.867353095,2.37684,2.69814,-0.404958,-84.9311,47.4034,45.7423,-0.120935,-7.87686,6.16997,0.00621162,0.00786777,-0.0109595,4,0,41.39157864751582,-91.79343624063549,9471.04993731835,-57.37927396492916,-0.9003014817548441,-0.3866693834738899,174.043,9554.640030125043,10944.541949582395,150,True,20.663951840248075,False,153.5258641962553,179.5866433570883,False,26.471830368604703,True,False
9,1970-07-23 11:39:59.598289975,2025-09-17,2025-09-26 14:39:19.828,HA,D,1216248580,JASSM,3,102,76,2,2,1,225,9,2,0,1,26,0,0,0,0,-187626.0081804556,-4786186.622041549,4202117.165495396,-2.30145,-0.153206,0.128279,87.875,-13.5,-11.375,0.0,0.0,0.0,0.0,0.0,0.0,2,0,41.451055500881736,-92.24493474484912,9999.998732583845,99.8217959277406,-0.0061443034149648,0.0071758515404008,,9554.640030125043,10944.541949582395,150,9,2025-09-17,2025-09-26 14:39:19.869,HA,D,2495197036,AMBUSH51,1,1,48,2,1,1,225,2,1,0,0,9,1,225,2,1,-150119.54269478557,-4791720.335510455,4197099.213039057,2.37674,2.70273,-0.409005,-84.6431,46.8694,46.0241,-0.160028,-7.89048,6.53052,0.00295548,0.00395209,0.00329046,4,0,41.39213326573625,-91.79442939770688,9461.69454311023,-57.39546045874656,-0.5650600680071142,-0.2883212900867137,173.664,9554.640030125043,10944.541949582395,150,True,20.565950881514425,False,153.500403521119,179.5802937566845,False,26.56176815331952,True,False
9,1970-07-23 11:39:59.608312618,2025-09-17,2025-09-26 14:39:20.831,HA,D,1217501222,JASSM,3,102,76,2,2,1,225,9,2,0,1,26,0,0,0,0,-187533.6683367056,-4786200.891572799,4202105.116667271,-2.30145,-0.153206,0.128279,87.875,-13.5,-11.375,0.0,0.0,0.0,0.0,0.0,0.0,2,0,41.450910823879546,-92.243824350441,10000.000823708642,99.82253098565644,-0.0052995568340013,0.0071752719250016,,9554.640030125043,10944.541949582395,150,9,2025-09-17,2025-09-26 14:39:20.702,HA,D,2496191200,AMBUSH51,1,1,48,2,1,1,225,2,1,0,0,9,1,225,2,1,-150190.06219914867,-4791681.4016438965,4197137.676455664,2.38048,2.70151,-0.408788,-84.4754,46.6892,46.0982,-0.211929,-7.82364,6.44151,0.00495078,-0.00346523,-0.000616896,4,0,41.39261139383471,-91.79528636716286,9454.790507026424,-57.35835013060588,-0.6171646324955818,-0.1023999877678109,173.188,9554.640030125043,10944.541949582395,150,True,20.472425053575236,False,153.474401913076,179.56604457962706,False,26.646650523216433,True,False
9,1970-07-23 11:39:59.619358097,2025-09-17,2025-09-26 14:39:21.935,HA,D,1218753416,JASSM,3,102,76,2,2,1,225,9,2,0,1,26,0,0,0,0,-187441.3597429556,-4786215.155244674,4202093.069792271,-2.30145,-0.153206,0.128279,87.875,-13.5,-11.375,0.0,0.0,0.0,0.0,0.0,0.0,2,0,41.45076617692605,-92.24271433723118,10000.000323364127,99.82326578911852,-0.0044550950719878,0.0071746843256109,,9554.640030125043,10944.541949582395,150,9,2025-09-17,2025-09-26 14:39:21.903,HA,D,2497622800,AMBUSH51,1,1,48,2,1,1,225,2,1,0,0,9,1,225,2,1,-150291.5992539468,-4791625.653102459,4197193.258001646,2.37823,2.7034,-0.410075,-84.1638,45.1272,47.089,-0.207793,-7.59749,6.21851,0.00119946,0.00144081,-0.0016031,4,0,41.39329932004208,-91.79652017596968,9446.054313917555,-57.38026488952987,-0.4942459008271943,-0.1877749176836918,172.491,9554.640030125043,10944.541949582395,150,True,20.36010280268834,False,153.49780704424214,179.53301674900885,False,26.694829884985857,True,False
9,1970-07-23 11:39:59.629226869,2025-09-17,2025-09-26 14:39:22.922,HA,D,1220005128,JASSM,3,102,76,2,2,1,225,9,2,0,1,26,0,0,0,0,-187349.08825858065,-4786229.413057174,4202081.026823521,-2.30145,-0.153206,0.128279,87.875,-13.5,-11.375,0.0,0.0,0.0,0.0,0.0,0.0,2,0,41.4506215718415,-92.2416047752498,10000.002032371662,99.82400029177016,-0.0036109718667906,0.0071740914219497,,9554.640030125043,10944.541949582395,150,9,2025-09-17,2025-09-26 14:39:23.102,HA,D,2499054398,AMBUSH51,1,1,48,2,1,1,225,2,1,0,0,9,1,225,2,1,-150391.61156188362,-4791570.490278502,4197248.050898728,2.37652,2.70074,-0.408896,-83.7322,46.205,45.9148,-0.115973,-7.59172,6.12547,0.00737675,0.00604101,-0.00720614,4,0,41.39397870961437,-91.79773557780806,9436.938850928464,-57.326249542294086,-0.6383301274600576,-0.3471856095016487,171.672,9554.640030125043,10944.541949582395,150,True,20.248750910577513,False,153.4259876758593,179.4868376616633,False,26.86831533775029,True,False
9,1970-07-23 11:39:59.640329666,2025-09-17,2025-09-26 14:39:24.032,HA,D,1221258466,JASSM,3,102,76,2,2,1,225,9,2,0,1,26,0,0,0,0,-187256.6956804556,-4786243.686494674,4202068.968229771,-2.30145,-0.153206,0.128279,87.875,-13.5,-11.375,0.0,0.0,0.0,0.0,0.0,0.0,2,0,41.45047678584216,-92.24049376350096,10000.00110931424,99.82473575201924,-0.0027657452519002,0.0071735168132235,,9554.640030125043,10944.541949582395,150,9,2025-09-17,2025-09-26 14:39:23.936,HA,D,2500048564,AMBUSH51,1,1,48,2,1,1,225,2,1,0,0,9,1,225,2,1,-150461.22560165345,-4791531.990432248,4197286.397428275,2.37736,2.69927,-0.40738,-83.4956,46.3127,45.7266,-0.19219,-7.56476,6.13687,0.00804462,0.000781263,0.00175914,4,0,41.39445361243385,-91.7985816183928,9430.794776760387,-57.33030356636147,-0.7539446372385269,-0.3323491894148062,171.098,9554.640030125043,10944.541949582395,150,True,20.155802741265713,False,153.37528993919787,179.44778105452963,False,26.983032090339396,True,False
9,1970-07-23 11:39:59.650367809,2025-09-17,2025-09-26 14:39:25.036,HA,D,1222451860,JASSM,3,102,76,2,2,1,225,9,2,0,1,26,0,0,0,0,-187168.7230242056,-4786257.276338424,4202057.483854771,-2.30145,-0.153206,0.128279,87.875,-13.5,-11.375,0.0,0.0,0.0,0.0,0.0,0.0,2,0,41.45033890296924,-92.23943590583558,9999.996821530023,99.82543602371462,-0.0019609509937279,0.0071729565601344,,9554.640030125043,10944.541949582395,150,9,2025-09-17,2025-09-26 14:39:24.869,HA,D,2501162028,AMBUSH51,1,1,48,2,1,1,225,2,1,0,0,9,1,225,2,1,-150538.95609406024,-4791489.061045959,4197328.98826658,2.37202,2.69778,-0.406765,-83.2633,45.9946,45.7143,-0.173449,-7.38007,6.14993,-0.00290555,-0.00520669,-0.00052535,4,0,41.39498199589647,-91.79952629359802,9423.593229664488,-57.29823916453612,-0.8325349629658824,-0.6729760906431697,170.658,9554.640030125043,10944.541949582395,150,True,20.06039613133541,False,153.39409135762,179.39942451668122,False,27.031880516634903,True,False
9,1970-07-23 11:39:59.660245012,2025-09-17,2025-09-26 14:39:26.024,HA,D,1223705326,JASSM,3,102,76,2,2,1,225,9,2,0,1,26,0,0,0,0,-187076.3206804556,-4786271.549775924,4202045.423307896,-2.30145,-0.153206,0.128279,87.875,-13.5,-11.375,0.0,0.0,0.0,0.0,0.0,0.0,2,0,41.45019408511455,-92.23832478700784,9999.999624957729,99.82617155072153,-0.0011156362715123,0.0071723860594111,,9554.640030125043,10944.541949582395,150,9,2025-09-17,2025-09-26 14:39:26.202,HA,D,2502752694,AMBUSH51,1,1,48,2,1,1,225,2,1,0,0,9,1,225,2,1,-150650.0191869408,-4791427.362367295,4197389.9504018985,2.36909,2.69596,-0.402171,-82.9176,46.0259,45.362,-0.22693,-7.41229,6.04201,0.000831198,0.00628236,-0.00738715,4,0,41.395739816803335,-91.8008762299523,9412.65903577483,-57.41052078412263,-1.088207564041436,-0.8798132600149903,169.998,9554.640030125043,10944.541949582395,150,True,19.942352824822237,False,153.3805382641445,179.32307180664083,False,27.14835241991289,True,False
9,1970-07-23 11:39:59.671246046,2025-09-17,2025-09-26 14:39:27.124,HA,D,1224957660,JASSM,3,102,76,2,2,1,225,9,2,0,1,26,0,0,0,0,-186984.00232108065,-4786285.809541549,4202033.370573521,-2.30145,-0.15311,0.128279,87.875,-13.5,-11.375,0.0,0.0,0.0,0.0,0.0,0.0,2,0,41.450049371080006,-92.2372146833368,9999.998426060152,99.82327012896285,-0.0043280195739034,0.0064692156942959,,9554.640030125043,10944.541949582395,150,9,2025-09-17,2025-09-26 14:39:27.002,HA,D,2503707092,AMBUSH51,1,1,48,2,1,1,225,2,1,0,0,9,1,225,2,1,-150716.27835482522,-4791390.325678194,4197425.99144335,2.36559,2.68402,-0.390263,-82.8013,46.38,44.8584,-0.100279,-6.80626,5.30966,-0.00933251,-0.0241339,-0.000899857,4,0,41.39619105657381,-91.8016816901626,9404.867741243706,-57.41885668044223,-2.016795251205184,-1.3444212720042488,169.644,9554.640030125043,10944.541949582395,150,True,19.851566436684262,False,153.39456289760145,179.2731816214147,False,27.20079912861662,True,False
9,1970-07-23 11:39:59.682269689,2025-09-17,2025-09-26 14:39:28.226,HA,D,1226268318,JASSM,3,102,76,2,2,1,225,9,2,0,1,26,0,0,0,0,-186887.38513358065,-4786300.733369674,4202020.755339146,-2.30145,-0.15311,0.128279,87.875,-13.5,-11.375,0.0,0.0,0.0,0.0,0.0,0.0,2,0,41.449897898100645,-92.23605289266256,9999.999439866528,99.82403919477628,-0.003444142309482,0.0064685366374177,,9554.640030125043,10944.541949582395,150,9,2025-09-17,2025-09-26 14:39:28.202,HA,D,2505138692,AMBUSH51,1,1,48,2,1,1,225,2,1,0,0,9,1,225,2,1,-150814.94288093093,-4791334.453284293,4197478.696453626,2.36003,2.68674,-0.387971,-82.7341,46.9736,43.9801,-0.160925,-7.57118,6.1695,-0.00665894,0.00166344,0.00136175,4,0,41.39686077114484,-91.80288136995772,9389.407779624333,-57.61470270236568,-2.012998096230864,-1.5967043940185772,169.644,9554.640030125043,10944.541949582395,150,True,19.738832148359716,False,153.4628065516236,179.19535184663167,False,27.232541494875903,True,False
9,1970-07-23 11:39:59.692526425,2025-09-17,2025-09-26 14:39:29.252,HA,D,1227461364,JASSM,3,102,76,2,2,1,225,9,2,0,1,26,0,0,0,0,-186799.4378679556,-4786314.315400924,4202009.272917271,-2.30145,-0.15311,0.128375,87.875,-13.5,-11.375,0.0,0.0,0.0,0.0,0.0,0.0,2,0,41.44976002816152,-92.23499536093384,9999.999995445683,99.82882980762234,-0.0063059584300253,0.0064676195369326,,9554.640030125043,10944.541949582395,150,9,2025-09-17,2025-09-26 14:39:29.169,HA,D,2506291924,AMBUSH51,1,1,48,2,1,1,225,2,1,0,0,9,1,225,2,1,-150894.6701513875,-4791289.302979162,4197521.019832699,2.35724,2.68851,-0.387521,-82.6996,46.6806,43.8779,-0.160697,-7.58784,6.24313,0.000720926,-0.00361711,0.00109959,4,0,41.39740015240468,-91.80385080821138,9376.340168387658,-57.701541491737046,-1.96653260358416,-1.715354724840959,169.253,9554.640030125043,10944.541949582395,150,True,19.6423735490228,False,153.572167256584,179.1297730928606,False,27.19627970679485,True,False
9,1970-07-23 11:39:59.701311315,2025-09-17,2025-09-26 14:39:30.131,HA,D,1228536322,JASSM,3,102,76,2,2,1,225,9,2,0,1,26,0,0,0,0,-186720.19372733065,-4786326.553682174,4201998.925261021,-2.30145,-0.15311,0.128375,87.875,-13.5,-11.375,0.0,0.0,0.0,0.0,0.0,0.0,2,0,41.44963578122969,-92.23404248459715,10000.001495522847,99.82946057584442,-0.0055810157566978,0.0064671207797938,,9554.640030125043,10944.541949582395,150,9,2025-09-17,2025-09-26 14:39:30.302,HA,D,2507643988,AMBUSH51,1,1,48,2,1,1,225,2,1,0,0,9,1,225,2,1,-150988.34755584312,-4791236.62522234,4197570.236639866,2.34737,2.69348,-0.382655,-82.7447,46.5614,43.4535,-0.246496,-7.48658,6.2322,-0.01092,-0.00883317,-0.0034257,4,0,41.39802822778951,-91.80498975389337,9360.79851326079,-58.08581535270604,-1.987479975037223,-2.16092554505584,168.984,9554.640030125043,10944.541949582395,150,True,19.542349972819444,False,153.75377781265547,179.05171929759445,False,27.103138510959106,True,False
9,1970-07-23 11:39:59.710207360,2025-09-17,2025-09-26 14:39:31.020,HA,D,1229610790,JASSM,3,102,76,2,2,1,225,9,2,0,1,26,0,0,0,0,-186640.98669608065,-4786338.784150924,4201988.581511021,-2.30145,-0.15311,0.128375,87.875,-13.5,-11.375,0.0,0.0,0.0,0.0,0.0,0.0,2,0,41.44951159064513,-92.23309005908855,9999.999193774918,99.83009104408076,-0.0048564143024383,0.0064666280661094,,9554.640030125043,10944.541949582395,150,9,2025-09-17,2025-09-26 14:39:31.002,HA,D,2508479088,AMBUSH51,1,1,48,2,1,1,225,2,1,0,0,9,1,225,2,1,-151046.84526403752,-4791203.729565309,4197600.8643421065,2.34399,2.69153,-0.379685,-82.8213,46.436,43.3097,-0.174469,-7.34076,6.09173,-0.0101419,-0.00381685,-0.00635726,4,0,41.3984197163434,-91.8057009910822,9350.865294942309,-58.12768540074183,-2.18170928101957,-2.3947433550120185,168.813,9554.640030125043,10944.541949582395,150,True,19.463619246033204,False,153.86221295075111,179.00102053819538,False,27.050054044384204,True,False
9,1970-07-23 11:39:59.720533083,2025-09-17,2025-09-26 14:39:32.053,HA,D,1230803820,JASSM,3,102,76,2,2,1,225,9,2,0,1,26,0,0,0,0,-186553.0394304556,-4786352.364229049,4201977.097136021,-2.30145,-0.15311,0.128375,87.875,-13.5,-11.375,0.0,0.0,0.0,0.0,0.0,0.0,2,0,41.44937369191271,-92.23203254081774,10000.00228969231,99.8307910777727,-0.0040518563189605,0.0064660859881165,,9554.640030125043,10944.541949582395,150,9,2025-09-17,2025-09-26 14:39:32.069,HA,D,2509751620,AMBUSH51,1,1,48,2,1,1,225,2,1,0,0,9,1,225,2,1,-151135.2748938464,-4791154.038803505,4197646.72109174,2.34037,2.69624,-0.377118,-82.8666,46.3143,42.9153,-0.105057,-7.55491,6.04517,0.00536897,-0.0053232,-0.00270373,4,0,41.39900830673352,-91.80677615545837,9334.985481469665,-58.41169824126132,-2.1156342954413097,-2.491748553568386,168.715,9554.640030125043,10944.541949582395,150,True,19.36209955119412,False,154.0359107828572,178.92407107178144,False,26.96093829385584,True,False
9,1970-07-23 11:39:59.729286818,2025-09-17,2025-09-26 14:39:32.928,HA,D,1231935756,JASSM,3,102,76,2,2,1,225,9,2,0,1,26,0,0,0,0,-186469.59607108065,-4786365.247041549,4201966.198698521,-2.30145,-0.15311,0.128375,87.875,-13.5,-11.375,0.0,0.0,0.0,0.0,0.0,0.0,2,0,41.44924284215997,-92.23102918456608,9999.999835800856,99.83145525666042,-0.00328850082768,0.0064655675644737,,9554.640030125043,10944.541949582395,150,9,2025-09-17,2025-09-26 14:39:33.102,HA,D,2510984386,AMBUSH51,1,1,48,2,1,1,225,2,1,0,0,9,1,225,2,1,-151220.49364214946,-4791106.424080439,4197690.475532897,2.33455,2.70209,-0.371988,-82.9685,46.1092,42.5669,-0.152981,-7.54939,6.08132,0.000781263,0.00765347,-0.00564569,4,0,41.399570948114736,-91.80781219801706,9319.408094207767,-58.8414208900117,-2.1131300837278983,-2.6870488621887936,168.446,9554.640030125043,10944.541949582395,150,True,19.265069121365805,False,154.24082070197565,178.8490695992051,False,26.83682736355384,True,False
9,1970-07-23 11:39:59.738327501,2025-09-17,2025-09-26 14:39:33.832,HA,D,1233010548,JASSM,3,102,76,2,2,1,225,9,2,0,1,26,0,0,0,0,-186390.36560233065,-4786377.479463424,4201955.849089146,-2.30145,-0.15311,0.128375,87.875,-13.5,-11.375,0.0,0.0,0.0,0.0,0.0,0.0,2,0,41.44911858090172,-92.23007648950706,9999.99797367203,99.83208589841158,-0.0025636839557046,0.0064650656800901,,9554.640030125043,10944.541949582395,150,9,2025-09-17,2025-09-26 14:39:33.837,HA,D,2511859250,AMBUSH51,1,1,48,2,1,1,225,2,1,0,0,9,1,225,2,1,-151280.6536696697,-4791072.8293545805,4197721.171222101,2.33175,2.70348,-0.371003,-83.0305,46.2443,42.1223,-0.244941,-7.50231,6.14673,0.000169568,-0.00294924,-0.00290555,4,0,41.39996672600663,-91.80854359505804,9308.043001646543,-58.934303017301104,-2.102540831484768,-2.8152836857416506,168.629,9554.640030125043,10944.541949582395,150,True,19.18546136876603,False,154.35412903789845,178.7946974893287,False,26.784460616954828,True,False
9,1970-07-23 11:39:59.748232810,2025-09-17,2025-09-26 14:39:34.823,HA,D,1234142424,JASSM,3,102,76,2,2,1,225,9,2,0,1,26,0,0,0,0,-186306.9261492056,-4786390.362275924,4201944.950651646,-2.30145,-0.15311,0.128375,87.875,-13.5,-11.375,0.0,0.0,0.0,0.0,0.0,0.0,2,0,41.44898771317816,-92.22907318780592,10000.003147963533,99.83275003782744,-0.0018003627576223,0.0064645403230191,,9554.640030125043,10944.541949582395,150,9,2025-09-17,2025-09-26 14:39:35.035,HA,D,2513290850,AMBUSH51,1,1,48,2,1,1,225,2,1,0,0,9,1,225,2,1,-151380.4729396966,-4791017.432029841,4197771.670879902,2.3301,2.70569,-0.36308,-83.1586,45.8727,41.8891,-0.037752,-7.35653,5.88007,-0.00904955,-0.01216,-0.00289307,4,0,41.40061844309344,-91.80975704179586,9289.102085914168,-59.33422578769278,-2.3484521835686087,-2.8488692185020463,168.36,9554.640030125043,10944.541949582395,150,True,19.079798353599838,False,154.58619470033722,178.7055734716147,False,26.645167840484977,True,False
9,1970-07-23 11:39:59.757267658,2025-09-17,2025-09-26 14:39:35.726,HA,D,1235216166,JASSM,3,102,76,2,2,1,225,9,2,0,1,26,0,0,0,0,-186227.7738054556,-4786402.581025924,4201934.610807896,-2.30145,-0.153015,0.128375,87.875,-13.5,-11.375,0.0,0.0,0.0,0.0,0.0,0.0,2,0,41.4488635648833,-92.2281214403544,10000.00325617173,99.8297438695761,-0.0051331893986878,0.0057609906033321,,9554.640030125043,10944.541949582395,150,9,2025-09-17,2025-09-26 14:39:35.769,HA,D,2514165716,AMBUSH51,1,1,48,2,1,1,225,2,1,0,0,9,1,225,2,1,-151441.17953563196,-4790983.943844194,4197801.718209012,2.32315,2.70703,-0.359212,-83.2956,45.7955,41.468,-0.12489,-7.46467,6.02891,0.00542307,0.000860326,-0.0035755,4,0,41.40100909609812,-91.81049495419036,9276.64255057824,-59.54002664016624,-2.45831658612361,-3.2111406568109766,168.226,9554.640030125043,10944.541949582395,150,True,19.000040671038608,False,154.78463289118363,178.650183990508,False,26.50649985447704,True,False
9,1970-07-23 11:39:59.766931375,2025-09-17,2025-09-26 14:39:36.693,HA,D,1236291870,JASSM,3,102,76,2,2,1,225,9,2,0,1,26,0,0,0,0,-186148.47497733065,-4786414.821260299,4201924.251432896,-2.30145,-0.153015,0.128375,87.875,-13.5,-11.375,0.0,0.0,0.0,0.0,0.0,0.0,2,0,41.44873918298149,-92.22716793570204,10000.003090040032,99.83037504252948,-0.0044077499114758,0.0057604525147317,,9554.640030125043,10944.541949582395,150,9,2025-09-17,2025-09-26 14:39:36.602,HA,D,2515159880,AMBUSH51,1,1,48,2,1,1,225,2,1,0,0,9,1,225,2,1,-151511.51241566252,-4790945.273963673,4197836.314024183,2.31904,2.70748,-0.352848,-83.515,45.8264,40.9749,-0.109689,-7.23409,5.89648,-0.0182562,-0.0172991,-0.00925553,4,0,41.40145946597917,-91.8113498414085,9262.058191158245,-59.81011153510237,-2.70457311493358,-3.4256342151980705,168.226,9554.640030125043,10944.541949582395,150,True,18.914482871981786,False,154.99622836701272,178.58608072112983,False,26.36458870529784,True,False
9,1970-07-23 11:39:59.776929768,2025-09-17,2025-09-26 14:39:37.692,HA,D,1237484182,JASSM,3,102,76,2,2,1,225,9,2,0,1,26,0,0,0,0,-186060.5823992056,-4786428.387666549,4201912.767057896,-2.30145,-0.153015,0.128375,87.875,-13.5,-11.375,0.0,0.0,0.0,0.0,0.0,0.0,2,0,41.448601298524174,-92.2261111025215,10000.000963342867,99.8310746120415,-0.0036036910328013,0.0057598424227895,,9554.640030125043,10944.541949582395,150,9,2025-09-17,2025-09-26 14:39:37.769,HA,D,2516551712,AMBUSH51,1,1,48,2,1,1,225,2,1,0,0,9,1,225,2,1,-151608.2900881759,-4790891.993466366,4197883.036614755,2.30739,2.70591,-0.339269,-83.8832,46.0135,40.1697,-0.161729,-7.13072,5.79292,-0.00193807,0.00336536,-0.00387095,4,0,41.40207363729132,-91.81252620978157,9239.910391466668,-60.288018650934816,-3.324364067404131,-4.098468354311939,168.189,9554.640030125043,10944.541949582395,150,True,18.808480057907428,False,155.29587400017067,178.49810693935032,False,26.161523913574754,True,False
9,1970-07-23 11:39:59.785247225,2025-09-17,2025-09-26 14:39:38.524,HA,D,1238618272,JASSM,3,102,76,2,2,1,225,9,2,0,1,26,0,0,0,0,-185976.97888358065,-4786441.290010299,4201901.845182896,-2.30145,-0.153015,0.128471,87.875,-13.5,-11.375,0.0,0.0,0.0,0.0,0.0,0.0,2,0,41.44847015978664,-92.225105846753,10000.002273510274,99.83583064842584,-0.0065051983198465,0.0057589541255612,,9554.640030125043,10944.541949582395,150,9,2025-09-17,2025-09-26 14:39:38.569,HA,D,2517506112,AMBUSH51,1,1,48,2,1,1,225,2,1,0,0,9,1,225,2,1,-151675.56867603917,-4790855.171679085,4197914.736541844,2.2962,2.72292,-0.344553,-84.2895,45.6038,39.9572,-0.177164,-8.20142,6.93965,-0.019852,0.0247476,-0.0122183,4,0,41.402494024791615,-91.81334393789054,9223.359771126776,-60.74103853859,-2.469150485654584,-4.390153641137592,168.776,9554.640030125043,10944.541949582395,150,True,18.722539793119488,False,155.627282901847,178.43601660696274,False,25.89269451011874,True,False
9,1970-07-23 11:39:59.795288511,2025-09-17,2025-09-26 14:39:39.528,HA,D,1239751316,JASSM,3,102,76,2,2,1,225,9,2,0,1,26,0,0,0,0,-185893.4534929556,-4786454.180635299,4201890.931120396,-2.30145,-0.153015,0.128471,87.875,-13.5,-11.375,0.0,0.0,0.0,0.0,0.0,0.0,2,0,41.44833911666008,-92.22410153425244,10000.002945116705,99.83649544845912,-0.0057410932084875,0.0057584365516103,,9554.640030125043,10944.541949582395,150,9,2025-09-17,2025-09-26 14:39:39.536,HA,D,2518659344,AMBUSH51,1,1,48,2,1,1,225,2,1,0,0,9,1,225,2,1,-151757.139320769,-4790811.601779822,4197953.209085765,2.28189,2.73347,-0.345015,-84.7911,44.6943,39.8885,-0.141629,-7.94944,6.74069,0.0136914,-0.00185069,-0.0142177,4,0,41.402997579755,-91.81433498620166,9206.023308998738,-61.131628556115416,-2.0531026185402643,-4.990626812372186,168.678,9554.640030125043,10944.541949582395,150,True,18.62822444009125,False,156.1110425520734,178.36222945603947,False,25.47973230552091,True,False
9,1970-07-23 11:39:59.804329120,2025-09-17,2025-09-26 14:39:40.432,HA,D,1240825058,JASSM,3,102,76,2,2,1,225,9,2,0,1,26,0,0,0,0,-185814.3011492056,-4786466.395479049,4201880.587370396,-2.30145,-0.153015,0.128471,87.875,-13.5,-11.375,0.0,0.0,0.0,0.0,0.0,0.0,2,0,41.44821492412391,-92.22314980757425,10000.002461968656,99.83712543795446,-0.0050169934174851,0.0057579438281815,,9554.640030125043,10944.541949582395,150,9,2025-09-17,2025-09-26 14:39:40.602,HA,D,2519931876,AMBUSH51,1,1,48,2,1,1,225,2,1,0,0,9,1,225,2,1,-151848.62997462865,-4790764.048979751,4197995.978619521,2.28955,2.74184,-0.339376,-85.266,43.8238,39.7492,-0.259672,-7.82219,6.61785,0.0033612,0.0162879,-0.011205,4,0,41.403551959292365,-91.81544608025678,9188.992539221876,-61.68182841809632,-1.966977734983175,-4.371762498722329,168.422,9554.640030125043,10944.541949582395,150,True,18.530555530868387,False,156.59185571423575,178.28134695592166,False,25.077327082829797,True,False
9,1970-07-23 11:39:59.814206207,2025-09-17,2025-09-26 14:39:41.420,HA,D,1242018104,JASSM,3,102,76,2,2,1,225,9,2,0,1,26,0,0,0,0,-185726.3519304556,-4786479.965791549,4201869.093229771,-2.30145,-0.153015,0.128471,87.875,-13.5,-11.375,0.0,0.0,0.0,0.0,0.0,0.0,2,0,41.448076926695954,-92.22209231261182,9999.999022601613,99.83782543827958,-0.0042124201150474,0.0057574030057225,,9554.640030125043,10944.541949582395,150,9,2025-09-17,2025-09-26 14:39:41.468,HA,D,2520965808,AMBUSH51,1,1,48,2,1,1,225,2,1,0,0,9,1,225,2,1,-151922.52305490355,-4790726.3572416,4198030.009673988,2.28721,2.75196,-0.337295,-85.5627,43.0435,39.6274,-0.196147,-7.85208,6.68449,0.00279736,-0.00347563,-0.00450761,4,0,41.40399199241411,-91.8163432076556,9175.888773195316,-62.15596284718953,-1.6675690139335846,-4.298404489720508,168.336,9554.640030125043,10944.541949582395,150,True,18.438609437142837,False,156.97934303752172,178.21537750776392,False,24.752888127626367,True,False
9,1970-07-23 11:39:59.824247015,2025-09-17,2025-09-26 14:39:42.424,HA,D,1243210218,JASSM,3,102,76,2,2,1,225,9,2,0,1,26,0,0,0,0,-185638.4730242056,-4786493.526338424,4201857.608854771,-2.30145,-0.153015,0.128471,87.875,-13.5,-11.375,0.0,0.0,0.0,0.0,0.0,0.0,2,0,41.44793902731942,-92.22103566705572,10000.003629073546,99.83852487443266,-0.0034084892145378,0.005756860119823,,9554.640030125043,10944.541949582395,150,9,2025-09-17,2025-09-26 14:39:42.568,HA,D,2522278106,AMBUSH51,1,1,48,2,1,1,225,2,1,0,0,9,1,225,2,1,-152016.03929242346,-4790679.45260745,4198072.962798211,2.29822,2.76254,-0.340823,-85.846,42.3355,39.4519,-0.249432,-7.99826,6.75619,0.00956554,-0.000918583,-0.00924304,4,0,41.40454335483148,-91.817478294511,9161.020200296152,-62.42029640381779,-1.1206422677851022,-3.459675940781121,168.287,9554.640030125043,10944.541949582395,150,True,18.335184492205887,False,157.35486495611013,178.1333802844341,False,24.457453694689285,True,False
9,1970-07-23 11:39:59.834526045,2025-09-17,2025-09-26 14:39:43.452,HA,D,1244403372,JASSM,3,102,76,2,2,1,225,9,2,0,1,26,0,0,0,0,-185550.5159929556,-4786507.096650924,4201846.112761021,-2.30145,-0.153015,0.128471,87.875,-13.5,-11.375,0.0,0.0,0.0,0.0,0.0,0.0,2,0,41.44780099907889,-92.21997808767642,10000.003468408177,99.83922492680423,-0.0026038449678911,0.0057563199782671,,9554.640030125043,10944.541949582395,150,9,2025-09-17,2025-09-26 14:39:43.336,HA,D,2523192740,AMBUSH51,1,1,48,2,1,1,225,2,1,0,0,9,1,225,2,1,-152081.81986112188,-4790647.1310916,4198103.046945285,2.29356,2.76962,-0.340082,-86.0073,41.6349,39.5245,-0.192792,-7.97968,6.57803,-0.00954057,0.00730601,0.00207539,4,0,41.40492631201055,-91.8182764873852,9151.936459526894,-62.72158891752528,-0.8798192895034606,-3.586140169769781,167.969,9554.640030125043,10944.541949582395,150,True,18.248178834716086,False,157.60805518453031,178.07455904649808,False,24.258348610963825,True,False
9,1970-07-23 11:39:59.843348041,2025-09-17,2025-09-26 14:39:44.334,HA,D,1245537516,JASSM,3,102,76,2,2,1,225,9,2,0,1,26,0,0,0,0,-185466.9105242056,-4786519.995088424,4201835.183073521,-2.30145,-0.153015,0.128471,87.875,-13.5,-11.375,0.0,0.0,0.0,0.0,0.0,0.0,2,0,41.44766977773538,-92.21897283508284,10000.000817383714,99.83989034029156,-0.0018390074301565,0.0057557938250964,,9554.640030125043,10944.541949582395,150,9,2025-09-17,2025-09-26 14:39:44.135,HA,D,2524147138,AMBUSH51,1,1,48,2,1,1,225,2,1,0,0,9,1,225,2,1,-152150.7009059922,-4790613.7296499545,4198134.361059951,2.29317,2.77373,-0.341809,-86.1895,41.096,39.4601,-0.189674,-7.85389,6.78198,-0.00541267,0.00497574,-0.00933667,4,0,41.405323405985456,-91.81911214446828,9143.110890409587,-62.8089524529132,-0.652141627777821,-3.528546178311236,167.847,9554.640030125043,10944.541949582395,150,True,18.161791448831305,False,157.85849571438348,178.01359958304485,False,24.06624407480203,True,False
9,1970-07-23 11:39:59.853207156,2025-09-17,2025-09-26 14:39:45.320,HA,D,1246729066,JASSM,3,102,76,2,2,1,225,9,2,0,1,26,0,0,0,0,-185379.0706804556,-4786533.543916549,4201823.700651646,-2.30145,-0.152919,0.128471,87.875,-13.375,-11.375,0.0,0.0,0.0,0.0,0.0,0.0,2,0,41.44753192362559,-92.2179166750512,9999.99677091533,99.83695336509166,-0.0050923598544568,0.0050516835566172,,9554.640030125043,10944.541949582395,150,9,2025-09-17,2025-09-26 14:39:45.402,HA,D,2525658270,AMBUSH51,1,1,48,2,1,1,225,2,1,0,0,9,1,225,2,1,-152260.1088675459,-4790561.70683807,4198184.285197383,2.30096,2.78298,-0.341759,-86.2358,40.2515,39.3886,-0.202137,-7.69297,6.541,-0.0210837,-0.0029326,-0.0116399,4,0,41.40594924602736,-91.82043910048458,9132.038686790094,-63.16412572769308,-0.2985998238408305,-2.9012872279027784,167.713,9554.640030125043,10944.541949582395,150,True,18.04932089576442,False,158.1120647209684,177.98637794386983,False,23.848015450113518,True,False
9,1970-07-23 11:39:59.863244264,2025-09-17,2025-09-26 14:39:46.324,HA,D,1247923670,JASSM,3,102,76,2,2,1,225,9,2,0,1,26,0,0,0,0,-185291.0081804556,-4786547.129854049,4201812.188932896,-2.30145,-0.152919,0.128471,87.875,-13.375,-11.375,0.0,0.0,0.0,0.0,0.0,0.0,2,0,41.447393692592826,-92.2168578410758,10000.003234798363,99.83765424230872,-0.0042867495015025,0.0050510830586311,,9554.640030125043,10944.541949582395,150,9,2025-09-17,2025-09-26 14:39:46.168,HA,D,2526572902,AMBUSH51,1,1,48,2,1,1,225,2,1,0,0,9,1,225,2,1,-152326.25485245552,-4790530.714436816,4198214.19668731,2.29178,2.78256,-0.337827,-86.3347,39.8754,39.2817,-0.164428,-7.46328,6.43154,-0.0166624,-0.0109575,-0.00146162,4,0,41.40632304139754,-91.82124119142054,9125.889759239595,-63.30849991114121,-0.4728402148703115,-3.4348930995468616,167.395,9554.640030125043,10944.541949582395,150,True,17.962232395540497,False,158.2981588763264,177.92722063369564,False,23.719820572020975,True,False
9,1970-07-23 11:39:59.873288457,2025-09-17,2025-09-26 14:39:47.328,HA,D,1249116878,JASSM,3,102,76,2,2,1,225,9,2,0,1,26,0,0,0,0,-185203.0472429556,-4786560.696260299,4201800.688932896,-2.30145,-0.152919,0.128471,87.875,-13.375,-11.375,0.0,0.0,0.0,0.0,0.0,0.0,2,0,41.44725562373495,-92.21580023452812,10000.00095397464,99.8383543051301,-0.0034820716929051,0.0050504952882197,,9554.640030125043,10944.541949582395,150,9,2025-09-17,2025-09-26 14:39:47.336,HA,D,2527964734,AMBUSH51,1,1,48,2,1,1,225,2,1,0,0,9,1,225,2,1,-152426.36545348086,-4790484.222680457,4198259.168949722,2.29435,2.7875,-0.33611,-86.6206,39.4792,39.0415,-0.162958,-7.40658,6.73268,0.00981104,-0.00295548,-0.00697103,4,0,41.406884283282565,-91.82245500047316,9116.962291082007,-63.567127539368656,-0.351053427019139,-3.19198388047785,167.309,9554.640030125043,10944.541949582395,150,True,17.85534627646356,False,158.5927814894719,177.8405449950276,False,23.511952428216752,True,False
9,1970-07-23 11:39:59.883324557,2025-09-17,2025-09-26 14:39:48.332,HA,D,1250250540,JASSM,3,102,76,2,2,1,225,9,2,0,1,26,0,0,0,0,-185119.4769304556,-4786573.584932174,4201789.761198521,-2.30145,-0.152919,0.128471,87.875,-13.375,-11.375,0.0,0.0,0.0,0.0,0.0,0.0,2,0,41.4471244290864,-92.21479542348268,9999.997413543204,99.83901941918188,-0.0027175585861756,0.0050499283414531,,9554.640030125043,10944.541949582395,150,9,2025-09-17,2025-09-26 14:39:48.468,HA,D,2529316800,AMBUSH51,1,1,48,2,1,1,225,2,1,0,0,9,1,225,2,1,-152525.29175716056,-4790438.9533287175,4198302.962249557,2.2987,2.78784,-0.330111,-87.091,39.1938,38.8183,-0.321963,-7.26962,6.6743,-0.00791354,-0.00160518,-0.00109959,4,0,41.40743050585154,-91.82365421602992,9108.397520010569,-63.825257931425945,-0.5785600883824636,-2.9347653655707115,167.529,9554.640030125043,10944.541949582395,150,True,17.75168047800148,False,158.90103414622175,177.7555639229639,False,23.289368270841372,True,False
9,1970-07-23 11:39:59.893368814,2025-09-17,2025-09-26 14:39:49.336,HA,D,1251502214,JASSM,3,102,76,2,2,1,225,9,2,0,1,26,0,0,0,0,-185027.20544608065,-4786587.815400924,4201777.696745396,-2.30145,-0.152919,0.128567,87.875,-13.375,-11.375,0.0,0.0,0.0,0.0,0.0,0.0,2,0,41.44697957250087,-92.2136859983136,9999.999773226857,99.84384443407652,-0.0055397204519667,0.005049045549517,,9554.640030125043,10944.541949582395,150,9,2025-09-17,2025-09-26 14:39:49.435,HA,D,2530470032,AMBUSH51,1,1,48,2,1,1,225,2,1,0,0,9,1,225,2,1,-152608.8484051596,-4790400.885562757,4198339.604106901,2.29314,2.78853,-0.327842,-87.4645,39.2138,38.5143,-0.155231,-7.00061,6.89945,-0.00329878,-0.00136591,-0.00914525,4,0,41.4078885080118,-91.82466706815843,9100.828811166346,-63.94498223695574,-0.6421456855375131,-3.238887525180782,168.067,9554.640030125043,10944.541949582395,150,True,17.652296909240256,False,159.11022681502064,177.6818491373272,False,23.157674979153043,True,False
9,1970-07-23 11:39:59.903245749,2025-09-17,2025-09-26 14:39:50.324,HA,D,1252696122,JASSM,3,102,76,2,2,1,225,9,2,0,1,26,0,0,0,0,-184939.19372733065,-4786601.387666549,4201766.186979771,-2.30145,-0.152919,0.128567,87.875,-13.375,-11.375,0.0,0.0,0.0,0.0,0.0,0.0,2,0,41.44684138539726,-92.21262779556368,9999.998263203972,99.84454488581753,-0.0047345770670789,0.0050485054845214,,9554.640030125043,10944.541949582395,150,9,2025-09-17,2025-09-26 14:39:50.168,HA,D,2531344898,AMBUSH51,1,1,48,2,1,1,225,2,1,0,0,9,1,225,2,1,-152673.14404049207,-4790371.859313116,4198367.491750112,2.28943,2.80048,-0.330517,-87.891,38.9391,38.4803,-0.108018,-7.84977,7.34668,0.0101876,0.00967373,-0.00542723,4,0,41.40823726619554,-91.8254463520165,9094.99548561842,-64.29042244941111,-0.0720807757350258,-3.228535913386649,168.422,9554.640030125043,10944.541949582395,150,True,17.56655423329763,False,159.33469926288464,177.6238611683181,False,22.989627319402988,True,False
9,1970-07-23 11:39:59.913264855,2025-09-17,2025-09-26 14:39:51.326,HA,D,1253887344,JASSM,3,102,76,2,2,1,225,9,2,0,1,26,0,0,0,0,-184851.3792742056,-4786614.928682174,4201754.702604771,-2.30145,-0.152919,0.128567,87.875,-13.375,-11.375,0.0,0.0,0.0,0.0,0.0,0.0,2,0,41.44670350051032,-92.2115719694819,9999.9979599283,99.8452437624661,-0.0039312389341968,0.0050479687058093,,9554.640030125043,10944.541949582395,150,9,2025-09-17,2025-09-26 14:39:51.336,HA,D,2532736730,AMBUSH51,1,1,48,2,1,1,225,2,1,0,0,9,1,225,2,1,-152776.5258148646,-4790326.748081033,4198412.285735702,2.30545,2.81032,-0.329446,-88.4585,37.9767,38.7224,-0.184332,-7.47548,7.11965,0.0252199,-0.00435156,-0.00219191,4,0,41.40878842712242,-91.82669879623954,9089.358179416498,-64.70769799495923,0.2677949161112934,-2.128623655025742,168.69,9554.640030125043,10944.541949582395,150,True,17.45825452942196,False,159.71614991126063,177.53603148346846,False,22.685498668241443,True,False
9,1970-07-23 11:39:59.923303711,2025-09-17,2025-09-26 14:39:52.330,HA,D,1255082142,JASSM,3,102,76,2,2,1,225,9,2,0,1,26,0,0,0,0,-184763.3011492056,-4786628.510713424,4201743.183073521,-2.30145,-0.152919,0.128567,87.875,-13.375,-11.375,0.0,0.0,0.0,0.0,0.0,0.0,2,0,41.44656518520424,-92.21051297750056,10000.00121164056,99.8459447327792,-0.0031254874150505,0.0050474237287585,,9554.640030125043,10944.541949582395,150,9,2025-09-17,2025-09-26 14:39:52.369,HA,D,2533969494,AMBUSH51,1,1,48,2,1,1,225,2,1,0,0,9,1,225,2,1,-152867.37423506158,-4790287.815662867,4198451.858869365,2.31536,2.81691,-0.334066,-88.7677,37.3336,39.1006,-0.201099,-7.64228,7.20272,0.0208444,0.00780951,0.00114121,4,0,41.40926994980923,-91.82779914940188,9086.611294748898,-64.76725176754893,0.7092696679304057,-1.438537481079054,168.91,9554.640030125043,10944.541949582395,150,True,17.357174681623373,False,159.86544587255491,177.45774649482055,False,22.604667487621874,True,False
9,1970-07-23 11:39:59.933327029,2025-09-17,2025-09-26 14:39:53.332,HA,D,1256215536,JASSM,3,102,76,2,2,1,225,9,2,0,1,26,0,0,0,0,-184679.7503679556,-4786641.391572799,4201732.255339146,-2.30145,-0.152919,0.128567,87.875,-13.375,-11.375,0.0,0.0,0.0,0.0,0.0,0.0,2,0,41.4464339863798,-92.20950842480524,9999.999964921037,99.84660966674096,-0.0023611564290865,0.0050469222025089,,9554.640030125043,10944.541949582395,150,9,2025-09-17,2025-09-26 14:39:53.468,HA,D,2535281794,AMBUSH51,1,1,48,2,1,1,225,2,1,0,0,9,1,225,2,1,-152965.58325752118,-4790246.360140117,4198494.613864197,2.32408,2.81539,-0.331408,-88.978,36.8388,39.3685,0.0794133,-7.05414,6.41843,0.00384598,-0.00430163,-0.00706466,4,0,41.40978655369549,-91.8289884316966,9085.14791819212,-64.81995491816556,0.5450376947079687,-0.967835138632922,168.996,9554.640030125043,10944.541949582395,150,True,17.254374359946926,False,159.97517811100928,177.37395134058528,False,22.571171224367294,True,False
9,1970-07-23 11:39:59.943225218,2025-09-17,2025-09-26 14:39:54.322,HA,D,1257408356,JASSM,3,102,76,2,2,1,225,9,2,0,1,26,0,0,0,0,-184591.8167742056,-4786654.948213424,4201720.753386021,-2.30145,-0.152823,0.128567,87.875,-13.375,-11.375,0.0,0.0,0.0,0.0,0.0,0.0,2,0,41.446295888614735,-92.20845118074864,10000.000770603698,99.84367348726424,-0.0056136464178093,0.0043423184174844,,9554.640030125043,10944.541949582395,150,9,2025-09-17,2025-09-26 14:39:54.335,HA,D,2536315726,AMBUSH51,1,1,48,2,1,1,225,2,1,0,0,9,1,225,2,1,-153041.87303026253,-4790214.101894109,4198527.8701356165,2.33297,2.81517,-0.333129,-89.0463,36.9413,39.3142,-0.144567,-7.05551,6.77582,0.00129725,0.00589328,-0.000363064,4,0,41.41018847202707,-91.82991231252232,9083.975094020656,-64.74148493124132,0.6059230826442813,-0.4617216495344016,168.996,9554.640030125043,10944.541949582395,150,True,17.161920182130977,False,159.98425875279804,177.30589122233542,False,22.633121691551562,True,False
9,1970-07-23 11:39:59.952263194,2025-09-17,2025-09-26 14:39:55.226,HA,D,1258541728,JASSM,3,102,76,2,2,1,225,9,2,0,1,26,0,0,0,0,-184508.26794608065,-4786667.827119674,4201709.823698521,-2.30145,-0.152823,0.128567,87.875,-13.375,-11.375,0.0,0.0,0.0,0.0,0.0,0.0,2,0,41.44616466978315,-92.20744666060496,9999.998324916316,99.84433839616698,-0.0048493329931388,0.0043417632426223,,9554.640030125043,10944.541949582395,150,9,2025-09-17,2025-09-26 14:39:55.069,HA,D,2537190592,AMBUSH51,1,1,48,2,1,1,225,2,1,0,0,9,1,225,2,1,-153107.23432207218,-4790186.55151224,4198556.333319902,2.33867,2.81346,-0.332773,-89.2393,37.1356,39.2877,-0.134646,-7.13227,6.84671,0.0123535,-3.64104e-05,0.00477392,4,0,41.41053209617997,-91.83070382372917,9083.123972140096,-64.69217118174758,0.52597793136652,-0.1666785751377382,169.216,9554.640030125043,10944.541949582395,150,True,17.078237621620797,False,159.99116826870255,177.24634472178252,False,22.689325627978835,True,False
9,1970-07-23 11:39:59.962317390,2025-09-17,2025-09-26 14:39:56.231,HA,D,1259673620,JASSM,3,102,76,2,2,1,225,9,2,0,1,26,0,0,0,0,-184424.82653983065,-4786680.690400924,4201698.907682896,-2.30145,-0.152823,0.128567,87.875,-13.375,-11.375,0.0,0.0,0.0,0.0,0.0,0.0,2,0,41.44603360277924,-92.20644343562056,10000.001073689928,99.8450024460538,-0.0040860005501383,0.0043412007947285,,9554.640030125043,10944.541949582395,150,9,2025-09-17,2025-09-26 14:39:56.168,HA,D,2538502890,AMBUSH51,1,1,48,2,1,1,225,2,1,0,0,9,1,225,2,1,-153205.26649458424,-4790145.368471017,4198598.84912705,2.34317,2.81156,-0.336996,-89.5627,37.2138,39.4242,-0.115839,-7.0523,7.03827,-0.000123795,-0.0030075,0.00748702,4,0,41.41104546796648,-91.83189093514495,9081.814292974934,-64.44787191275397,0.6219925917646347,0.0576288814713073,169.754,9554.640030125043,10944.541949582395,150,True,16.9757161350753,False,160.00998849834644,177.16026295431104,False,22.75731196563639,True,False
9,1970-07-23 11:39:59.971344246,2025-09-17,2025-09-26 14:39:57.134,HA,D,1260747516,JASSM,3,102,76,2,2,1,225,9,2,0,1,26,0,0,0,0,-184345.6605242056,-4786692.891572799,4201688.550261021,-2.30145,-0.152823,0.128567,87.875,-13.375,-11.375,0.0,0.0,0.0,0.0,0.0,0.0,2,0,41.44590925640749,-92.2054916192388,9999.998134658232,99.8456324662061,-0.0033617831630734,0.0043406798441677,,9554.640030125043,10944.541949582395,150,9,2025-09-17,2025-09-26 14:39:57.001,HA,D,2539497056,AMBUSH51,1,1,48,2,1,1,225,2,1,0,0,9,1,225,2,1,-153279.701371739,-4790114.070782268,4198631.334733379,2.33857,2.81154,-0.343189,-89.774,36.6401,40.2304,-0.0571703,-7.06596,7.10712,-0.0139681,-0.00191103,0.00443479,4,0,41.41143679885656,-91.83279232053602,9081.198189864715,-64.19345430919809,0.8695103681537351,-0.2032490115673366,170.145,9554.640030125043,10944.541949582395,150,True,16.889226523370837,False,159.9400969291885,177.09233254185204,False,22.879088658888413,True,False
9,1970-07-23 11:39:59.980247540,2025-09-17,2025-09-26 14:39:58.024,HA,D,1261822116,JASSM,3,102,76,2,2,1,225,9,2,0,1,26,0,0,0,0,-184266.44372733065,-4786705.102510299,4201678.185026646,-2.30145,-0.152823,0.128567,87.875,-13.375,-11.375,0.0,0.0,0.0,0.0,0.0,0.0,2,0,41.44578480296139,-92.20453919505762,10000.000773735606,99.84626288711344,-0.0026370972280172,0.0043401395028806,,9554.640030125043,10944.541949582395,150,9,2025-09-17,2025-09-26 14:39:57.868,HA,D,2540530988,AMBUSH51,1,1,48,2,1,1,225,2,1,0,0,9,1,225,2,1,-153358.0719363283,-4790080.99552433,4198665.437957177,2.33811,2.80787,-0.342346,-90.0991,37.3182,39.8793,-0.0614178,-6.69899,6.75988,-0.0139306,-0.00522541,0.00108295,4,0,41.41184886847545,-91.8337414246926,9080.034804388126,-64.09036346864288,0.6945663825527468,-0.2984985468679891,170.719,9554.640030125043,10944.541949582395,150,True,16.80045243860568,False,159.96537779950555,177.02034598969297,False,22.939867250800095,True,False
9,1970-07-23 11:39:59.989285245,2025-09-17,2025-09-26 14:39:58.928,HA,D,1262954674,JASSM,3,102,76,2,2,1,225,9,2,0,1,26,0,0,0,0,-184182.95446951807,-4786717.969697799,4201667.261198521,-2.30145,-0.152823,0.128567,87.875,-13.375,-11.375,0.0,0.0,0.0,0.0,0.0,0.0,2,0,41.44565364559993,-92.20353540805708,10000.002415307808,99.84692730399613,-0.0018733299041583,0.0043395864663164,,9554.640030125043,10944.541949582395,150,9,2025-09-17,2025-09-26 14:39:58.935,HA,D,2541803520,AMBUSH51,1,1,48,2,1,1,225,2,1,0,0,9,1,225,2,1,-153453.55462067452,-4790040.690822917,4198706.876552411,2.32996,2.8086,-0.341831,-90.489,37.6229,39.8441,-0.108643,-6.73942,6.85198,-0.0068462,-0.0106537,-0.0133335,4,0,41.41235019766943,-91.83489778383831,9078.36383328508,-64.13968269975956,0.7030972604166472,-0.7522258757110548,171.293,9554.640030125043,10944.541949582395,150,True,16.699470185481154,False,159.99852714217752,176.93302300058664,False,22.999291079250998,True,False
9,1970-07-23 11:39:59.998326518,2025-09-17,2025-09-26 14:39:59.832,HA,D,1264029334,JASSM,3,102,76,2,2,1,225,9,2,0,1,26,0,0,0,0,-184103.73181326807,-4786730.178682174,4201656.894011021,-2.30145,-0.152823,0.128663,87.875,-13.375,-11.375,0.0,0.0,0.0,0.0,0.0,0.0,2,0,41.44552917574513,-92.20258292221943,10000.002347789972,99.85164846364115,-0.0048148152736978,0.0043388418383588,,9554.640030125043,10944.541949582395,150,9,2025-09-17,2025-09-26 14:39:59.768,HA,D,2542797686,AMBUSH51,1,1,48,2,1,1,225,2,1,0,0,9,1,225,2,1,-153529.4404262858,-4790008.459022121,4198739.8540275,2.32857,2.80785,-0.342302,-90.7982,37.8183,39.9037,-0.270317,-6.94751,6.97141,-0.00696895,-0.00551046,-0.00316354,4,0,41.41275010652968,-91.83581690080185,9076.645324417725,-64.0928836493126,0.6939320570490529,-0.8456114310821246,171.904,9554.640030125043,10944.541949582395,150,True,16.612179732123188,False,160.00636821759224,176.8610874530198,False,23.065857273018022,True,False
9,1970-07-23 11:40:00.007225264,2025-09-17,2025-09-26 14:40:00.722,HA,D,1265103520,JASSM,3,102,76,2,2,1,225,9,2,0,1,26,0,0,0,0,-184024.54528983065,-4786742.379854049,4201646.530729771,-2.30145,-0.152823,0.128663,87.875,-13.375,-11.375,0.0,0.0,0.0,0.0,0.0,0.0,2,0,41.4454047625886,-92.2016308754723,9999.998332127345,99.852278629995,-0.0040904108066083,0.0043383695892843,,9554.640030125043,10944.541949582395,150,9,2025-09-17,2025-09-26 14:40:00.835,HA,D,2544070218,AMBUSH51,1,1,48,2,1,1,225,2,1,0,0,9,1,225,2,1,-153625.6780521205,-4789967.680911696,4198781.532189472,2.32202,2.81122,-0.342633,-91.2305,37.8588,40.0769,-0.151054,-7.14663,7.1696,-0.0211191,-0.0062137,0.0032967,4,0,41.41325570481658,-91.83698249471291,9074.401087172915,-64.20682308722893,0.8383745346724643,-1.1581176274034504,172.686,9554.640030125043,10944.541949582395,150,True,16.513185245087207,False,160.05298811463757,176.7713914104482,False,23.108366911087714,True,False
9,1970-07-23 11:40:00.017266871,2025-09-17,2025-09-26 14:40:01.726,HA,D,1266235562,JASSM,3,102,76,2,2,1,225,9,2,0,1,26,0,0,0,0,-183941.09314139312,-4786755.239229049,4201635.608854771,-2.30145,-0.152823,0.128663,87.875,-13.375,-11.375,0.0,0.0,0.0,0.0,0.0,0.0,2,0,41.44527363103437,-92.20062754730677,9999.999313838536,99.85294273819274,-0.0033269823673169,0.0043378640702115,,9554.640030125043,10944.541949582395,150,9,2025-09-17,2025-09-26 14:40:01.735,HA,D,2545143916,AMBUSH51,1,1,48,2,1,1,225,2,1,0,0,9,1,225,2,1,-153708.40709167795,-4789932.976414492,4198817.290750544,2.31822,2.81185,-0.341195,-91.6307,38.0483,39.9271,-0.0341343,-6.95916,7.00182,-0.00232298,0.00401451,-0.00722487,4,0,41.41368777530143,-91.83798435825844,9073.186549883934,-64.29021129424501,0.806132430286583,-1.365081484123883,173.151,9554.640030125043,10944.541949582395,150,True,16.41972028367714,False,160.16164040898494,176.6922014686345,False,23.083612299129996,True,False
9,1970-07-23 11:40:00.026325757,2025-09-17,2025-09-26 14:40:02.632,HA,D,1267310312,JASSM,3,102,76,2,2,1,225,9,2,0,1,26,0,0,0,0,-183861.86462576807,-4786767.446260299,4201625.239714146,-2.30145,-0.152727,0.128663,87.875,-13.375,-11.375,0.0,0.0,0.0,0.0,0.0,0.0,2,0,41.445149136886286,-92.19967500345054,9999.999892285205,99.8499373366268,-0.0066591054981563,0.0036328678293729,,9554.640030125043,10944.541949582395,150,9,2025-09-17,2025-09-26 14:40:02.501,HA,D,2546058548,AMBUSH51,1,1,48,2,1,1,225,2,1,0,0,9,1,225,2,1,-153778.63595142288,-4789903.610580104,4198847.528914552,2.3166,2.8157,-0.33841,-91.9498,37.921,40.0806,-0.162324,-6.98696,6.9676,-0.00073341,-0.00222312,-0.00215654,4,0,41.41405319730597,-91.838834816487,9072.137944027296,-64.5504048791887,0.8451740536517728,-1.3877807460448022,173.713,9554.640030125043,10944.541949582395,150,True,16.335821904486018,False,160.23207434620966,176.62352119092031,False,23.079135235103927,True,False
9,1970-07-23 11:40:00.035348255,2025-09-17,2025-09-26 14:40:03.534,HA,D,1268443388,JASSM,3,102,76,2,2,1,225,9,2,0,1,26,0,0,0,0,-183778.3363054556,-4786780.315400924,4201614.306120396,-2.30145,-0.152727,0.128663,87.875,-13.375,-11.375,0.0,0.0,0.0,0.0,0.0,0.0,2,0,41.4450178684917,-92.1986707682766,9999.999493139523,99.85060204184684,-0.0058949808882076,0.0036323131126503,,9554.640030125043,10944.541949582395,150,9,2025-09-17,2025-09-26 14:40:03.601,HA,D,2547370848,AMBUSH51,1,1,48,2,1,1,225,2,1,0,0,9,1,225,2,1,-153879.8695356106,-4789861.4782318855,4198891.0096201645,2.32027,2.82194,-0.336856,-92.4064,37.8816,40.1716,-0.150083,-7.20463,7.16186,0.0102833,0.000860326,-0.0105413,4,0,41.4145780348482,-91.84006067700454,9070.886952718269,-64.84964394641604,1.0265190231941677,-1.0642908179602282,174.495,9554.640030125043,10944.541949582395,150,True,16.23173866643374,False,160.33598941432473,176.5273706696679,False,23.070665251570702,True,False
9,1970-07-23 11:40:00.044242252,2025-09-17,2025-09-26 14:40:04.424,HA,D,1269517130,JASSM,3,102,76,2,2,1,225,9,2,0,1,26,0,0,0,0,-183699.18298514312,-4786792.510713424,4201603.944792271,-2.30145,-0.152727,0.128663,87.875,-13.375,-11.375,0.0,0.0,0.0,0.0,0.0,0.0,2,0,41.44489346341835,-92.19771913600792,10000.002221505316,99.85123192750324,-0.0051708783811348,0.0036317834033644,,9554.640030125043,10944.541949582395,150,9,2025-09-17,2025-09-26 14:40:04.268,HA,D,2548166180,AMBUSH51,1,1,48,2,1,1,225,2,1,0,0,9,1,225,2,1,-153940.95035180676,-4789836.200985777,4198917.311911475,2.3219,2.82349,-0.336491,-92.7062,37.7876,40.3714,-0.0760519,-7.07756,7.07574,0.00494037,-0.00520877,0.00386262,4,0,41.41489429659448,-91.84080027284814,9070.636190452624,-64.92368083422416,1.0731563956961805,-0.94279345070948,174.788,9554.640030125043,10944.541949582395,150,True,16.153223199584314,False,160.37339873210746,176.46529002137515,False,23.092252646288504,True,False
9,1970-07-23 11:40:00.054285097,2025-09-17,2025-09-26 14:40:05.428,HA,D,1270651690,JASSM,3,102,76,2,2,1,225,9,2,0,1,26,0,0,0,0,-183615.5433367056,-4786805.393525924,4201592.995573521,-2.30145,-0.152727,0.128663,87.875,-13.375,-11.375,0.0,0.0,0.0,0.0,0.0,0.0,2,0,41.44476201657592,-92.19671357186412,9999.99825758487,99.85189750899076,-0.0044057388060178,0.0036312410928277,,9554.640030125043,10944.541949582395,150,9,2025-09-17,2025-09-26 14:40:05.435,HA,D,2549558012,AMBUSH51,1,1,48,2,1,1,225,2,1,0,0,9,1,225,2,1,-154048.97917219336,-4789791.977031652,4198963.598529484,2.31994,2.82794,-0.334538,-93.0652,37.4855,40.6086,-0.179174,-7.12342,7.11548,0.00245614,0.00080623,-0.012984,4,0,41.41544919741945,-91.84210817005972,9070.880272498278,-65.17202495007241,1.169835889027752,-0.9763591023624149,175.509,9554.640030125043,10944.541949582395,150,True,16.045292111693534,False,160.4711432473153,176.36221986,False,23.091526304889232,True,False
9,1970-07-23 11:40:00.063325100,2025-09-17,2025-09-26 14:40:06.332,HA,D,1271784950,JASSM,3,102,76,2,2,1,225,9,2,0,1,26,0,0,0,0,-183532.00134451807,-4786818.262666549,4201582.058073521,-2.30145,-0.152727,0.128663,87.875,-13.375,-11.375,0.0,0.0,0.0,0.0,0.0,0.0,2,0,41.444630699090425,-92.19570918522396,9999.999083320914,99.85256230935774,-0.003641489488663,0.0036306843474201,,9554.640030125043,10944.541949582395,150,9,2025-09-17,2025-09-26 14:40:06.235,HA,D,2550512410,AMBUSH51,1,1,48,2,1,1,225,2,1,0,0,9,1,225,2,1,-154123.56366759312,-4789761.580958525,4198995.759074176,2.31765,2.82699,-0.333678,-93.4089,37.4123,40.7906,-0.254231,-7.13206,7.15489,-0.00971742,-0.00324885,0.00107879,4,0,41.4158328604769,-91.8430111196208,9071.831743570585,-65.17251224396092,1.0993920586398291,-1.1254118525236276,175.815,9554.640030125043,10944.541949582395,150,True,15.956684560624817,False,160.5186350551381,176.28676308854554,False,23.116779262304693,True,False
9,1970-07-23 11:40:00.073200975,2025-09-17,2025-09-26 14:40:07.320,HA,D,1272976348,JASSM,3,102,76,2,2,1,225,9,2,0,1,26,0,0,0,0,-183444.17419608065,-4786831.790010299,4201570.560026646,-2.30145,-0.152727,0.128663,87.875,-13.375,-11.375,0.0,0.0,0.0,0.0,0.0,0.0,2,0,41.4444926509324,-92.1946532853742,10000.0003372698,99.8532612042872,-0.0028380423011197,0.0036301131940407,,9554.640030125043,10944.541949582395,150,9,2025-09-17,2025-09-26 14:40:07.302,HA,D,2551784942,AMBUSH51,1,1,48,2,1,1,225,2,1,0,0,9,1,225,2,1,-154223.30232027645,-4789721.266815953,4199038.212545223,2.31148,2.82643,-0.330344,-93.8883,37.6006,40.5013,-0.0337479,-6.97092,6.8562,0.00976735,-0.00741628,0.00512763,4,0,41.41634018714998,-91.84421848367634,9072.728395527743,-65.29001692390527,0.9462165898488094,-1.4914127913201725,176.316,9554.640030125043,10944.541949582395,150,True,15.851355214507173,False,160.69768956363998,176.18891833899877,False,23.042552435555578,True,False
9,1970-07-23 11:40:00.082244214,2025-09-17,2025-09-26 14:40:08.224,HA,D,1274051062,JASSM,3,102,76,2,2,1,225,9,2,0,1,26,0,0,0,0,-183364.94763358065,-4786843.993135299,4201560.185026646,-2.30145,-0.152727,0.128663,87.875,-13.375,-11.375,0.0,0.0,0.0,0.0,0.0,0.0,2,0,41.44436809058112,-92.19370078949684,9999.999816459413,99.85389165499254,-0.0021132696980531,0.0036295758788289,,9554.640030125043,10944.541949582395,150,9,2025-09-17,2025-09-26 14:40:08.301,HA,D,2552977942,AMBUSH51,1,1,48,2,1,1,225,2,1,0,0,9,1,225,2,1,-154317.41064524546,-4789683.213564743,4199078.604472902,2.31227,2.8277,-0.32902,-94.2349,37.3923,40.8327,-0.104718,-6.95199,6.98009,0.00338201,-0.00409565,0.000648105,4,0,41.41682121258432,-91.8453577139136,9074.271209649394,-65.39296971943234,0.943947229603407,-1.424511139995557,177.122,9554.640030125043,10944.541949582395,150,True,15.753993344143588,False,160.7292368460792,176.09542451635804,False,23.09815254368499,True,False
9,1970-07-23 11:40:00.092313189,2025-09-17,2025-09-26 14:40:09.231,HA,D,1275243774,JASSM,3,102,76,2,2,1,225,9,2,0,1,26,0,0,0,0,-183277.02282889312,-4786857.534150924,4201548.671354771,-2.30145,-0.152727,0.128663,87.875,-13.375,-11.375,0.0,0.0,0.0,0.0,0.0,0.0,2,0,41.44422985945091,-92.1926437247308,9999.99939104237,99.85459131732644,-0.0013089276885439,0.003628993092723,,9554.640030125043,10944.541949582395,150,9,2025-09-17,2025-09-26 14:40:09.168,HA,D,2554011874,AMBUSH51,1,1,48,2,1,1,225,2,1,0,0,9,1,225,2,1,-154399.8782218906,-4789649.942215675,4199113.75391782,2.32666,2.82561,-0.322427,-94.6203,37.7477,40.6498,-0.13123,-6.75689,6.71167,0.0165896,-0.00184237,-0.000500383,4,0,41.417240620780746,-91.84635601166563,9075.27806372396,-65.58709885796937,0.6011311591786126,-0.6406201852015838,177.257,9554.640030125043,10944.541949582395,150,True,15.658602173514971,False,160.7976129053819,176.01025274922458,False,23.12296117349353,True,False
9,1970-07-23 11:40:00.101342393,2025-09-17,2025-09-26 14:40:10.134,HA,D,1276318332,JASSM,3,102,76,2,2,1,225,9,2,0,1,26,0,0,0,0,-183197.80798514312,-4786869.733369674,4201538.298307896,-2.30145,-0.152727,0.128759,87.875,-13.375,-11.375,0.0,0.0,0.0,0.0,0.0,0.0,2,0,41.4441053162142,-92.19169137838782,10000.001691378646,99.85931241235843,-0.0042504372886952,0.0036282981828495,,9554.640030125043,10944.541949582395,150,9,2025-09-17,2025-09-26 14:40:10.001,HA,D,2555006040,AMBUSH51,1,1,48,2,1,1,225,2,1,0,0,9,1,225,2,1,-154478.0446867906,-4789618.393444287,4199146.652306469,2.33997,2.8247,-0.319875,-94.9212,37.8712,40.6772,-0.250418,-6.84291,6.80645,0.00144081,-0.00903914,0.00263299,4,0,41.4176354021243,-91.84730225967463,9075.29865727422,-65.6585709366765,0.4647930339529129,0.104404697927915,177.843,9554.640030125043,10944.541949582395,150,True,15.570491757549894,False,160.83260548267296,175.9296380268201,False,23.17045788583825,True,False
