Subject_cm,Timestamp,SampleDate_cm,SampleTime_cm,Configuration_cm,Scenario_cm,DisTime_cm,MarkingTxt_cm,Application_cm,EntId_cm,Site_cm,ExerciseId_cm,ForceId_cm,Category_cm,Country_cm,Domain_cm,Kind_cm,Extra_cm,Specific_cm,Subcategory_cm,AltCategory_cm,AltCountry_cm,AltDomain_cm,AltKind_cm,ECEF_X_cm,ECEF_Y_cm,ECEF_Z_cm,OriPhi_cm,OriPsi_cm,OriTheta_cm,LinVelX_cm,LinVelY_cm,LinVelZ_cm,LinAccX_cm,LinAccY_cm,LinAccZ_cm,AngVelX_cm,AngVelY_cm,AngVelZ_cm,DrAlg_cm,Appearance_cm,Latitude_cm,Longitude_cm,Altitude_cm,Heading_cm,Pitch_cm,Roll_cm,CalibratedAirspeed_cm,CM_Altitude_Lead_cm,CM_Altitude_Wing_cm,CM_Airspeed_cm,Subject_ac,SampleDate_ac,SampleTime_ac,Configuration_ac,Scenario_ac,DisTime_ac,MarkingTxt_ac,Application_ac,EntId_ac,Site_ac,ExerciseId_ac,ForceId_ac,Category_ac,Country_ac,Domain_ac,Kind_ac,Extra_ac,Specific_ac,Subcategory_ac,AltCategory_ac,AltCountry_ac,AltDomain_ac,AltKind_ac,ECEF_X_ac,ECEF_Y_ac,ECEF_Z_ac,OriPhi_ac,OriPsi_ac,OriTheta_ac,LinVelX_ac,LinVelY_ac,LinVelZ_ac,LinAccX_ac,LinAccY_ac,LinAccZ_ac,AngVelX_ac,AngVelY_ac,AngVelZ_ac,DrAlg_ac,Appearance_ac,Latitude_ac,Longitude_ac,Altitude_ac,Heading_ac,Pitch_ac,Roll_ac,CalibratedAirspeed_ac,CM_Altitude_Lead_ac,CM_Altitude_Wing_ac,CM_Airspeed_ac,Bank_Angle_Condition,distance_nm,Distance_Condition,angle_between_vel,angle_between_pos,Cone_Condition,angle_between_pos_nose,Nose_Cone_Condition,Intercept_Criteria
9,1970-07-23 10:31:21.546256236,2025-09-12,2025-09-26 20:15:54.625,HA,C,2763033574,JASSM,3,117,76,2,2,1,225,9,2,0,1,26,0,0,0,0,-188296.73669608065,-4787457.903291549,4203405.655729771,-2.30155,-0.153302,0.128183,98.0,-15.0,-12.625,0.0,0.0,0.0,0.0,0.0,0.0,2,0,41.45202191909031,-92.2523540773772,15986.874248711169,99.81643028093514,-0.0040651982722942,0.0023908021232682,,14957.496266617703,17020.816047025746,150,9,2025-09-12,2025-09-26 20:15:54.835,HA,C,130902304,HAWK11,1,1,73,2,1,1,225,2,1,0,0,12,1,225,2,1,-140816.34411795562,-4793343.904268111,4199062.729948521,2.41391,2.71438,-0.430857,-116.5,37.5,39.0,-0.078125,-7.20312,6.35938,-0.0332031,-0.00195312,0.00390625,4,0,41.3974110526129,-91.68272139920388,17020.816047025746,-56.89864274297283,0.6941424705609576,2.064133889018902,172.65,14957.496266617703,17020.816047025746,150,True,25.825443306157048,False,166.2912549417046,177.36750100692538,False,16.340524156205884,True,False
9,1970-07-23 10:31:21.557959942,2025-09-12,2025-09-26 20:15:55.795,HA,C,2764286272,JASSM,3,117,76,2,2,1,225,9,2,0,1,26,0,0,0,0,-188193.77575858065,-4787473.823213424,4203392.227995396,-2.30155,-0.153302,0.128183,98.0,-15.0,-12.625,0.0,0.0,0.0,0.0,0.0,0.0,2,0,41.45186071942705,-92.25111627617002,15986.880382148844,99.81724969498364,-0.0031235521551754,0.0023901426344424,,14957.496266617703,17020.816047025746,150,9,2025-09-12,2025-09-26 20:15:55.475,HA,C,131101138,HAWK11,1,1,73,2,1,1,225,2,1,0,0,12,1,225,2,1,-140835.78552420562,-4793337.637666549,4199069.222136021,2.40701,2.71352,-0.431528,-116.5,37.375,39.125,-0.03125,-7.15625,6.40625,-0.0371094,-0.00390625,0.00976562,4,0,41.3974887361216,-91.68295578468675,17020.890258248328,-56.8397599536399,0.6910543559322838,1.6487072587518323,172.821,14957.496266617703,17020.816047025746,150,True,25.758018309846115,False,166.28277502048016,177.35426391424542,False,16.362531832899663,True,False
9,1970-07-23 10:31:21.568340618,2025-09-12,2025-09-26 20:15:56.834,HA,C,2765538972,JASSM,3,117,76,2,2,1,225,9,2,0,1,26,0,0,0,0,-188090.8128679556,-4787489.739229049,4203378.798307896,-2.30155,-0.153302,0.128183,98.0,-15.0,-12.625,0.0,0.0,0.0,0.0,0.0,0.0,2,0,41.45169951697456,-92.2498784595879,15986.87815099566,99.8180691165886,-0.0021818919265145,0.0023894962222678,,14957.496266617703,17020.816047025746,150,9,2025-09-12,2025-09-26 20:15:56.741,HA,C,133248536,HAWK11,1,1,73,2,1,1,225,2,1,0,0,12,1,225,2,1,-141045.29528983062,-4793270.086885299,4199140.050261021,2.38592,2.69894,-0.438527,-116.5,37.875,39.625,0.0,-7.17188,6.82812,-0.0996094,0.00585938,-0.00585938,4,0,41.39833181170737,-91.68548167518948,17023.535638245547,-56.01637491409658,0.4618022432600964,0.096970209378562,173.078,14957.496266617703,17020.816047025746,150,True,25.582584285764217,False,165.99921484968317,177.2691317016014,False,16.73112195461614,True,False
9,1970-07-23 10:31:21.579159514,2025-09-12,2025-09-26 20:15:57.915,HA,C,2766851322,JASSM,3,117,76,2,2,1,225,9,2,0,1,26,0,0,0,0,-187982.94763358065,-4787506.413057174,4203364.726042271,-2.30155,-0.153302,0.128183,98.0,-15.0,-12.625,0.0,0.0,0.0,0.0,0.0,0.0,2,0,41.45153060362941,-92.24858171375593,15986.875057250743,99.81892754592864,-0.0011953930228678,0.0023887979757116,,14957.496266617703,17020.816047025746,150,9,2025-09-12,2025-09-26 20:15:58.039,HA,C,134680134,HAWK11,1,1,73,2,1,1,225,2,1,0,0,12,1,225,2,1,-141185.47693045562,-4793225.064424361,4199187.302214146,2.37048,2.70259,-0.441786,-116.875,37.75,39.75,-0.296875,-7.20312,6.95312,0.0429688,0.00976562,0.00390625,4,0,41.39889389836049,-91.68717170674203,17025.451388315665,-56.02619884635567,0.7286281446785546,-0.6983358610879351,173.383,14957.496266617703,17020.816047025746,150,True,25.443912160729862,False,166.06107859687293,177.20932795375361,False,16.72932590155981,True,False
9,1970-07-23 10:31:21.589198781,2025-09-12,2025-09-26 20:15:58.919,HA,C,2768044368,JASSM,3,117,76,2,2,1,225,9,2,0,1,26,0,0,0,0,-187884.88903983065,-4787521.571260299,4203351.933073521,-2.30145,-0.153206,0.128183,98.0,-15.0,-12.625,0.0,0.0,0.0,0.0,0.0,0.0,2,0,41.45137703213196,-92.24740286815025,15986.878144041291,99.81607155457112,-0.0043555194365846,0.0071775735831213,,14957.496266617703,17020.816047025746,150,9,2025-09-12,2025-09-26 20:15:58.631,HA,C,135236866,HAWK11,1,1,73,2,1,1,225,2,1,0,0,12,1,225,2,1,-141239.31872733062,-4793207.740205611,4199205.640104771,2.38793,2.70316,-0.441595,-117.0,36.875,40.625,-0.296875,-7.29688,6.92188,0.0410156,0.00195312,-0.0078125,4,0,41.39911124598744,-91.68782084291868,17026.522654986806,-56.055809523840665,0.7416914999770917,0.3152203141715788,173.42,14957.496266617703,17020.816047025746,150,True,25.359641288102708,False,166.0115326169759,177.18238611572517,False,16.805377436766236,True,False
9,1970-07-23 10:31:21.601157705,2025-09-12,2025-09-26 20:16:00.115,HA,C,2769356720,JASSM,3,117,76,2,2,1,225,9,2,0,1,26,0,0,0,0,-187777.0238054556,-4787538.241182174,4203337.860807896,-2.30145,-0.153206,0.128279,98.0,-15.0,-12.625,0.0,0.0,0.0,0.0,0.0,0.0,2,0,41.45120811411997,-92.24610613699411,15986.8773198819,99.82102048830926,-0.0070354508665309,0.0071764638893716,,14957.496266617703,17020.816047025746,150,9,2025-09-12,2025-09-26 20:16:00.241,HA,C,137344498,HAWK11,1,1,73,2,1,1,225,2,1,0,0,12,1,225,2,1,-141446.81872733062,-4793140.888643111,4199276.876432896,2.40672,2.69722,-0.453195,-117.0,37.875,40.625,-0.015625,-7.1875,6.89062,-0.0234375,0.0,0.0078125,4,0,41.39995316331233,-91.69032260812789,17031.680709240583,-55.37745295406231,1.015334015310116,1.255333786871739,174.116,14957.496266617703,17020.816047025746,150,True,25.1827249135998,False,165.77512290482812,177.09416135703623,False,17.13071526288265,True,False
9,1970-07-23 10:31:21.616784128,2025-09-12,2025-09-26 20:16:01.678,HA,C,2770609418,JASSM,3,117,76,2,2,1,225,9,2,0,1,26,0,0,0,0,-187674.06091483065,-4787554.153291549,4203324.425261021,-2.30145,-0.153206,0.128279,98.0,-15.0,-12.625,0.0,0.0,0.0,0.0,0.0,0.0,2,0,41.45104684147685,-92.24486834705526,15986.875691381216,99.82183988175412,-0.0060937891044491,0.0071758084740346,,14957.496266617703,17020.816047025746,150,9,2025-09-12,2025-09-26 20:16:01.335,HA,C,138736330,HAWK11,1,1,73,2,1,1,225,2,1,0,0,12,1,225,2,1,-141582.86755545562,-4793096.976533736,4199324.095182896,2.35974,2.693,-0.459044,-117.125,37.875,41.0,0.0,-7.14062,6.875,-0.0878906,0.0078125,0.0,4,0,41.40050907694902,-91.69196297075617,17035.990680564068,-54.990717494749575,1.1116321813773251,-1.5353412917247615,174.495,14957.496266617703,17020.816047025746,150,True,25.049080612760438,False,165.67853804663318,177.0329064588824,False,17.28850006445237,True,False
9,1970-07-23 10:31:21.620340028,2025-09-12,2025-09-26 20:16:02.034,HA,C,2771862116,JASSM,3,117,76,2,2,1,225,9,2,0,1,26,0,0,0,0,-187571.0980242056,-4787570.063447799,4203310.989714146,-2.30145,-0.153206,0.128279,98.0,-15.0,-12.625,0.0,0.0,0.0,0.0,0.0,0.0,2,0,41.45088556713482,-92.24363056416225,15986.8749279839,99.8226592679115,-0.0051521299742692,0.0071751643439995,,14957.496266617703,17020.816047025746,150,9,2025-09-12,2025-09-26 20:16:02.037,HA,C,139571428,HAWK11,1,1,73,2,1,1,225,2,1,0,0,12,1,225,2,1,-141664.98474295562,-4793070.428682174,4199352.700651646,2.33088,2.68964,-0.459715,-117.25,37.875,40.875,0.015625,-7.10938,6.79688,0.0292969,-0.00195312,0.00390625,4,0,41.40084557145779,-91.69295309933058,17038.719274419323,-54.83943342282864,1.0224457276530257,-3.271043750460692,174.63,14957.496266617703,17020.816047025746,150,True,24.9460772406045,False,165.74223576096742,176.99267946195081,False,17.265059944574162,True,False
9,1970-07-23 10:31:21.632255737,2025-09-12,2025-09-26 20:16:03.225,HA,C,2773114816,JASSM,3,117,76,2,2,1,225,9,2,0,1,26,0,0,0,0,-187468.13513358065,-4787585.973604049,4203297.552214146,-2.30145,-0.153206,0.128279,98.0,-15.0,-12.625,0.0,0.0,0.0,0.0,0.0,0.0,2,0,41.45072426629956,-92.24239278740076,15986.875586961862,99.82347864738882,-0.0042104685706854,0.0071745071852003,,14957.496266617703,17020.816047025746,150,9,2025-09-12,2025-09-26 20:16:03.155,HA,C,140406528,HAWK11,1,1,73,2,1,1,225,2,1,0,0,12,1,225,2,1,-141747.28357108062,-4793043.934541549,4199381.282682896,2.36588,2.69271,-0.457318,-117.5,37.75,40.875,-0.015625,-7.125,6.875,0.0605469,0.00195312,-0.00585938,4,0,41.40118154780089,-91.6939453883151,17041.54659647,-55.04903056955831,1.0311003864631725,-1.1918290788096095,175.057,14957.496266617703,17020.816047025746,150,True,24.842993142564772,False,165.81889782351618,176.95221122805515,False,17.228813159545197,True,False
9,1970-07-23 10:31:21.640275398,2025-09-12,2025-09-26 20:16:04.027,HA,C,2774248210,JASSM,3,117,76,2,2,1,225,9,2,0,1,26,0,0,0,0,-187374.97888358065,-4787600.366182174,4203285.394011021,-2.30145,-0.153206,0.128279,98.0,-15.0,-12.625,0.0,0.0,0.0,0.0,0.0,0.0,2,0,41.45057832651917,-92.24127290829152,15986.874403256332,99.8242199790973,-0.0033584975315457,0.0071739218303371,,14957.496266617703,17020.816047025746,150,9,2025-09-12,2025-09-26 20:16:04.037,HA,C,141798360,HAWK11,1,1,73,2,1,1,225,2,1,0,0,12,1,225,2,1,-141884.60583670562,-4792999.861299361,4199428.661589146,2.43376,2.69147,-0.467001,-117.625,37.625,41.25,0.03125,-7.1875,7.03125,0.078125,0.00585938,0.0175781,4,0,41.40173922403788,-91.6956010775669,17045.92613846286,-54.62336841493679,1.3928045689612365,2.674763610886043,175.228,14957.496266617703,17020.816047025746,150,True,24.714086491430834,False,165.75086053631475,176.8899909670209,False,17.358723567403906,True,False
9,1970-07-23 10:31:21.649278791,2025-09-12,2025-09-26 20:16:04.927,HA,C,2775321952,JASSM,3,117,76,2,2,1,225,9,2,0,1,26,0,0,0,0,-187286.72497733065,-4787614.000947799,4203273.876432896,-2.30145,-0.153206,0.128279,98.0,-15.0,-12.625,0.0,0.0,0.0,0.0,0.0,0.0,2,0,41.45044006455184,-92.24021196759271,15986.878304605832,99.8249222930848,-0.0025513628826525,0.0071733749004677,,14957.496266617703,17020.816047025746,150,9,2025-09-12,2025-09-26 20:16:05.037,HA,C,143110658,HAWK11,1,1,73,2,1,1,225,2,1,0,0,12,1,225,2,1,-142013.68396170562,-4792957.887666549,4199474.089323521,2.49032,2.67584,-0.475055,-117.125,38.25,41.875,-0.078125,-6.85938,6.59375,0.0,-0.00585938,0.00976562,4,0,41.40227267502942,-91.69715758605138,17050.647742109584,-53.72608618292177,1.1867714936321578,5.5298774395448005,175.399,14957.496266617703,17020.816047025746,150,True,24.592492731000704,False,165.30944220310735,176.82957002076532,False,17.860742004813577,True,False
9,1970-07-23 10:31:21.661175491,2025-09-12,2025-09-26 20:16:06.117,HA,C,2776455346,JASSM,3,117,76,2,2,1,225,9,2,0,1,26,0,0,0,0,-187193.56872733065,-4787628.391572799,4203261.716276646,-2.30145,-0.153206,0.128279,98.0,-15.0,-12.625,0.0,0.0,0.0,0.0,0.0,0.0,2,0,41.4502941019876,-92.23909209917224,15986.877109121271,99.82566361353705,-0.0016993922117178,0.0071727878228244,,14957.496266617703,17020.816047025746,150,9,2025-09-12,2025-09-26 20:16:06.241,HA,C,144303658,HAWK11,1,1,73,2,1,1,225,2,1,0,0,12,1,225,2,1,-142130.59607108062,-4792918.879854049,4199515.962370396,2.47757,2.66606,-0.481191,-116.625,38.875,42.625,-0.1875,-7.25,6.90625,-0.0332031,-0.00585938,0.00976562,4,0,41.40276662401238,-91.6985677608825,17054.07485538117,-53.12291654791795,1.1086879415354411,4.553811960254509,175.57,14957.496266617703,17020.816047025746,150,True,24.47505554852809,False,164.82741533021277,176.77186119548617,False,18.40053706694013,True,False
9,1970-07-23 10:31:21.673156630,2025-09-12,2025-09-26 20:16:07.315,HA,C,2777529088,JASSM,3,117,76,2,2,1,225,9,2,0,1,26,0,0,0,0,-187105.31482108065,-4787642.024385299,4203250.194792271,-2.30145,-0.153206,0.128279,98.0,-15.0,-12.625,0.0,0.0,0.0,0.0,0.0,0.0,2,0,41.45015580518317,-92.23803116864808,15986.876281689414,99.82636591682872,-0.0008922556854492,0.0071722261966559,,14957.496266617703,17020.816047025746,150,9,2025-09-12,2025-09-26 20:16:07.427,HA,C,146013622,HAWK11,1,1,73,2,1,1,225,2,1,0,0,12,1,225,2,1,-142297.91247733062,-4792862.135713424,4199577.101042271,2.40845,2.65225,-0.484738,-116.5,39.625,43.25,-0.015625,-7.09375,6.82812,-0.0214844,-0.00390625,0.00585938,4,0,41.40348714858251,-91.7005862663355,17059.36612535418,-52.46991144425556,0.7877901799348642,0.2370563093270396,175.607,14957.496266617703,17020.816047025746,150,True,24.33158353976652,False,164.4296738993771,176.6898784792088,False,18.880405984152958,True,False
9,1970-07-23 10:31:21.678736394,2025-09-12,2025-09-26 20:16:07.873,HA,C,2778722134,JASSM,3,117,76,2,2,1,225,9,2,0,1,26,0,0,0,0,-187007.25622733065,-4787657.170869674,4203237.392057896,-2.30145,-0.15311,0.128279,98.0,-15.0,-12.625,0.0,0.0,0.0,0.0,0.0,0.0,2,0,41.45000212942571,-92.23685237830529,15986.875345227423,99.82350996278896,-0.004052381394674,0.0064689979629393,,14957.496266617703,17020.816047025746,150,9,2025-09-12,2025-09-26 20:16:07.741,HA,C,146331756,HAWK11,1,1,73,2,1,1,225,2,1,0,0,12,1,225,2,1,-142329.02185233062,-4792851.526338424,4199588.612761021,2.40452,2.65149,-0.48445,-116.5,39.5,43.5,-0.125,-7.25,6.84375,0.00976562,-0.00390625,-0.00585938,4,0,41.40362243535607,-91.70096159557642,17060.51985491895,-52.45244233066147,0.749757103334889,-0.0083323290730384,175.57,14957.496266617703,17020.816047025746,150,True,24.260219358178897,False,164.37947291467276,176.66797783456454,False,18.95232781955485,True,False
9,1970-07-23 10:31:21.687236962,2025-09-12,2025-09-26 20:16:08.723,HA,C,2779855528,JASSM,3,117,76,2,2,1,225,9,2,0,1,26,0,0,0,0,-186914.0980242056,-4787671.559541549,4203225.229948521,-2.30145,-0.15311,0.128375,98.0,-15.0,-12.625,0.0,0.0,0.0,0.0,0.0,0.0,2,0,41.44985613305311,-92.23573250252136,15986.87883125532,99.82834184660734,-0.0068667683948072,0.0064679991135953,,14957.496266617703,17020.816047025746,150,9,2025-09-12,2025-09-26 20:16:08.631,HA,C,147405454,HAWK11,1,1,73,2,1,1,225,2,1,0,0,12,1,225,2,1,-142435.09802420562,-4792815.165010299,4199628.024870396,2.43107,2.64966,-0.480615,-116.625,39.75,43.75,0.0,-6.875,6.6875,0.0351562,-0.00195312,0.00390625,4,0,41.40408590608048,-91.70224146358676,17064.34822617579,-52.53238390085028,0.5259170614901532,1.4641717561504466,175.399,14957.496266617703,17020.816047025746,150,True,24.14888132543998,False,164.26722165129945,176.61135036328994,False,19.121242997550084,True,False
9,1970-07-23 10:31:21.697234038,2025-09-12,2025-09-26 20:16:09.723,HA,C,2780988922,JASSM,3,117,76,2,2,1,225,9,2,0,1,26,0,0,0,0,-186820.9417742056,-4787685.946260299,4203213.065886021,-2.30145,-0.15311,0.128375,98.0,-15.0,-12.625,0.0,0.0,0.0,0.0,0.0,0.0,2,0,41.4497101237742,-92.23461265600844,15986.878100307633,99.8290831440465,-0.0060147984509658,0.006467415341172,,14957.496266617703,17020.816047025746,150,9,2025-09-12,2025-09-26 20:16:09.836,HA,C,148757520,HAWK11,1,1,73,2,1,1,225,2,1,0,0,12,1,225,2,1,-142567.12341483062,-4792769.334932174,4199677.208464146,2.46664,2.63413,-0.485984,-116.5,40.5,43.875,-0.15625,-6.29688,6.0,0.0527344,-0.0273438,0.0,4,0,41.40466702537766,-91.70383465195356,17067.994457036177,-51.74185759703796,0.2289718283769664,3.0940817906452875,175.155,14957.496266617703,17020.816047025746,150,True,24.02277200825193,False,164.02893432485178,176.5414215987204,False,19.429631601189612,True,False
9,1970-07-23 10:31:21.709956287,2025-09-12,2025-09-26 20:16:10.995,HA,C,2782122318,JASSM,3,117,76,2,2,1,225,9,2,0,1,26,0,0,0,0,-186727.7855242056,-4787700.331025924,4203200.901823521,-2.30145,-0.15311,0.128375,98.0,-15.0,-12.625,0.0,0.0,0.0,0.0,0.0,0.0,2,0,41.44956411521414,-92.23349281542777,15986.877206690147,99.82982443541,-0.005162831142162,0.006466842863284,,14957.496266617703,17020.816047025746,150,9,2025-09-12,2025-09-26 20:16:11.039,HA,C,150268650,HAWK11,1,1,73,2,1,1,225,2,1,0,0,12,1,225,2,1,-142714.36755545562,-4792715.998994674,4199731.858854771,2.62704,2.61764,-0.482149,-115.875,42.875,43.5,-0.109375,-6.1875,6.0,0.128906,-0.00585938,0.0,4,0,41.405326958453,-91.70561231281704,17066.16670502648,-51.2628727412983,-0.4886496666921888,11.843656238845831,174.727,14957.496266617703,17020.816047025746,150,False,23.887928449879496,False,163.4397892817746,176.46193123508596,False,20.093174063671928,True,False
9,1970-07-23 10:31:21.716356267,2025-09-12,2025-09-26 20:16:11.635,HA,C,2783315362,JASSM,3,117,76,2,2,1,225,9,2,0,1,26,0,0,0,0,-186629.72497733065,-4787715.473604049,4203188.095182896,-2.30145,-0.15311,0.128375,98.0,-15.0,-12.625,0.0,0.0,0.0,0.0,0.0,0.0,2,0,41.44941039029632,-92.23231402499114,15986.877780535204,99.8306047469904,-0.0042660079844014,0.0064662226724092,,14957.496266617703,17020.816047025746,150,9,2025-09-12,2025-09-26 20:16:11.427,HA,C,150706084,HAWK11,1,1,73,2,1,1,225,2,1,0,0,12,1,225,2,1,-142756.11364920562,-4792700.242158736,4199747.423307896,2.66663,2.61294,-0.481766,-115.625,43.75,43.75,0.0,-6.21875,6.01562,0.0957031,0.0117188,0.0214844,4,0,41.40551830687983,-91.70611654100428,17064.240885265976,-51.098407450724935,-0.6620466844395556,13.986002350848745,174.727,14957.496266617703,17020.816047025746,150,False,23.810466201760224,False,163.09450093941342,176.43258377072695,False,20.465298961619375,True,False
9,1970-07-23 10:31:21.726795747,2025-09-12,2025-09-26 20:16:12.679,HA,C,2784389104,JASSM,3,117,76,2,2,1,225,9,2,0,1,26,0,0,0,0,-186541.4730242056,-4787729.098604049,4203176.569792271,-2.30145,-0.15311,0.128375,98.0,-15.0,-12.625,0.0,0.0,0.0,0.0,0.0,0.0,2,0,41.44927205066192,-92.2312531502422,15986.876046451014,99.83130700111968,-0.0034588946185432,0.0064656831630353,,14957.496266617703,17020.816047025746,150,9,2025-09-12,2025-09-26 20:16:12.631,HA,C,152217216,HAWK11,1,1,73,2,1,1,225,2,1,0,0,12,1,225,2,1,-142902.64099295562,-4792641.591768111,4199803.261198521,2.84678,2.56386,-0.495859,-113.875,47.25,44.875,-0.25,-6.57812,6.26562,0.132812,0.0136719,0.0195312,4,0,41.40621795362551,-91.7078875797394,17051.88372168683,-48.68690510771525,-1.660085803845924,22.93816015128488,174.128,14957.496266617703,17020.816047025746,150,False,23.678405584282988,False,161.50163853070865,176.34665021170858,False,22.131378340624,True,False
9,1970-07-23 10:31:21.736314882,2025-09-12,2025-09-26 20:16:13.631,HA,C,2785641804,JASSM,3,117,76,2,2,1,225,9,2,0,1,26,0,0,0,0,-186438.5081804556,-4787744.997041549,4203163.120573521,-2.30145,-0.15311,0.128375,98.0,-15.0,-12.625,0.0,0.0,0.0,0.0,0.0,0.0,2,0,41.44911060777911,-92.23001541695464,15986.87891433492,99.83212632567192,-0.0025172182417432,0.0064650265448018,,14957.496266617703,17020.816047025746,150,9,2025-09-12,2025-09-26 20:16:13.555,HA,C,152933014,HAWK11,1,1,73,2,1,1,225,2,1,0,0,12,1,225,2,1,-142970.60778983062,-4792612.470674361,4199830.308073521,2.90756,2.54852,-0.502858,-112.5,49.25,45.75,-0.234375,-6.73438,6.375,0.0585938,0.00976562,0.0175781,4,0,41.40656160839024,-91.70870977346702,17043.931548542652,-47.83695761046603,-1.842349344158984,25.9741098464154,173.786,14957.496266617703,17020.816047025746,150,False,23.583078635912177,False,160.43356405708883,176.29825716412967,False,23.2405149877672,True,False
9,1970-07-23 10:31:21.746272988,2025-09-12,2025-09-26 20:16:14.627,HA,C,2786894504,JASSM,3,117,76,2,2,1,225,9,2,0,1,26,0,0,0,0,-186335.54528983065,-4787760.891572799,4203149.671354771,-2.30145,-0.15311,0.128375,98.0,-15.0,-12.625,0.0,0.0,0.0,0.0,0.0,0.0,2,0,41.44894917436935,-92.22877771495936,15986.87803471172,99.83294562688462,-0.0015755643091667,0.0064643891150087,,14957.496266617703,17020.816047025746,150,9,2025-09-12,2025-09-26 20:16:14.741,HA,C,154603214,HAWK11,1,1,73,2,1,1,225,2,1,0,0,12,1,225,2,1,-143127.30896170562,-4792539.232393111,4199896.104948521,3.00047,2.50307,-0.498736,-109.625,54.5,48.75,-0.3125,-7.34375,6.84375,0.0546875,0.0117188,0.03125,4,0,41.40741337586357,-91.71060759679207,17018.072899818704,-46.20227454906546,-3.453759749694629,29.97143883445716,173.359,14957.496266617703,17020.816047025746,150,False,23.436414733876124,False,157.6017885984572,176.18910717863977,False,26.166906084030273,True,False
9,1970-07-23 10:31:21.757232925,2025-09-12,2025-09-26 20:16:15.723,HA,C,2788147202,JASSM,3,117,76,2,2,1,225,9,2,0,1,26,0,0,0,0,-186232.5823992056,-4787776.786104049,4203136.220182896,-2.30145,-0.153015,0.128375,98.0,-15.0,-12.625,0.0,0.0,0.0,0.0,0.0,0.0,2,0,41.44878771446784,-92.22754001910086,15986.8785775738,99.83012874189544,-0.0046908352786654,0.0057606558885327,,14957.496266617703,17020.816047025746,150,9,2025-09-12,2025-09-26 20:16:15.955,HA,C,155756446,HAWK11,1,1,73,2,1,1,225,2,1,0,0,12,1,225,2,1,-143232.96521170562,-4792484.324189986,4199944.716276646,3.0507,2.48083,-0.499886,-106.875,57.875,51.5,-0.234375,-8.04688,6.92188,0.0449219,0.0117188,0.0332031,4,0,41.408049201840726,-91.71188921376869,16996.270474181998,-45.27582896802648,-4.085031207853163,32.17887295695972,173.053,14957.496266617703,17020.816047025746,150,False,23.31875430711583,False,155.3698016563084,176.1026914004846,False,28.482665537595416,True,False
9,1970-07-23 10:31:21.768375361,2025-09-12,2025-09-26 20:16:16.837,HA,C,2789399900,JASSM,3,117,76,2,2,1,225,9,2,0,1,26,0,0,0,0,-186129.61950858065,-4787792.678682174,4203122.769011021,-2.30145,-0.153015,0.128375,98.0,-15.0,-12.625,0.0,0.0,0.0,0.0,0.0,0.0,2,0,41.4486262528692,-92.22630233028748,15986.87998523675,99.8309480291827,-0.0037491817418598,0.005759956954835,,14957.496266617703,17020.816047025746,150,9,2025-09-12,2025-09-26 20:16:16.835,HA,C,157068744,HAWK11,1,1,73,2,1,1,225,2,1,0,0,12,1,225,2,1,-143350.19763358062,-4792417.210908736,4200004.013151646,3.11964,2.44114,-0.509473,-103.0,61.75,55.25,-0.34375,-8.85938,7.26562,0.0527344,0.0253906,0.0429688,4,0,41.40882765270774,-91.7133134941144,16968.49699903507,-43.34749677556044,-4.835148930831887,34.87888623523821,172.845,14957.496266617703,17020.816047025746,150,False,23.19388402810629,False,152.49107347767045,175.9962362915804,False,31.46935609078291,False,False
9,1970-07-23 10:31:21.778354924,2025-09-12,2025-09-26 20:16:17.835,HA,C,2790652600,JASSM,3,117,76,2,2,1,225,9,2,0,1,26,0,0,0,0,-186026.65466483065,-4787808.569307174,4203109.315886021,-2.30145,-0.153015,0.128471,98.0,-15.0,-12.625,0.0,0.0,0.0,0.0,0.0,0.0,2,0,41.44846477685383,-92.225064625181,15986.877829502972,99.83585793489009,-0.0064738352470864,0.0057589284415569,,14957.496266617703,17020.816047025746,150,9,2025-09-12,2025-09-26 20:16:17.741,HA,C,158142442,HAWK11,1,1,73,2,1,1,225,2,1,0,0,12,1,225,2,1,-143440.96521170562,-4792359.719697799,4200055.140104771,-3.11686,2.40653,-0.523854,-99.0,65.375,58.5,-0.28125,-9.09375,7.54688,0.03125,0.0214844,0.0507812,4,0,41.40949844035581,-91.71441825027529,16944.722724603955,-41.45930856344398,-5.166757116591016,36.40984080398835,172.796,14957.496266617703,17020.816047025746,150,False,23.08404478386307,False,149.76106709271016,175.90069489045322,False,34.29447811590956,False,False
9,1970-07-23 10:31:21.791313643,2025-09-12,2025-09-26 20:16:19.131,HA,C,2791905298,JASSM,3,117,76,2,2,1,225,9,2,0,1,26,0,0,0,0,-185923.6917742056,-4787824.459932174,4203095.862761021,-2.30145,-0.153015,0.128471,98.0,-15.0,-12.625,0.0,0.0,0.0,0.0,0.0,0.0,2,0,41.44830328706659,-92.22382694955046,15986.881524525406,99.8366772082368,-0.00553218201544,0.0057582949933913,,14957.496266617703,17020.816047025746,150,9,2025-09-12,2025-09-26 20:16:19.241,HA,C,160051240,HAWK11,1,1,73,2,1,1,225,2,1,0,0,12,1,225,2,1,-143593.04724295562,-4792249.962861861,4200154.456511021,-3.01849,2.31583,-0.572654,-90.125,70.875,65.125,-0.15625,-9.98438,8.40625,0.0371094,0.0449219,0.0429688,4,0,41.41079433464006,-91.71627414415286,16901.5026485404,-36.19826527842047,-5.273665153330272,38.85639888252516,172.283,14957.496266617703,17020.816047025746,150,False,22.936948895950263,False,144.41688835921858,175.72034591496953,False,39.827540369011864,False,False
9,1970-07-23 10:31:21.802353699,2025-09-12,2025-09-26 20:16:20.235,HA,C,2793098344,JASSM,3,117,76,2,2,1,225,9,2,0,1,26,0,0,0,0,-185825.63122733065,-4787839.590791549,4203083.048307896,-2.30145,-0.153015,0.128471,98.0,-15.0,-12.625,0.0,0.0,0.0,0.0,0.0,0.0,2,0,41.44814948012955,-92.22264821020644,15986.87846386872,99.83745746655492,-0.0046353655916709,0.0057576976427522,,14957.496266617703,17020.816047025746,150,9,2025-09-12,2025-09-26 20:16:20.131,HA,C,160886340,HAWK11,1,1,73,2,1,1,225,2,1,0,0,12,1,225,2,1,-143655.46130545562,-4792197.970674361,4200202.331511021,-2.98091,2.27969,-0.590679,-85.75,73.25,68.625,-0.375,-10.4219,8.71875,0.00585938,0.0546875,0.0429688,4,0,41.41141550233984,-91.71703830970505,16882.12527983906,-34.175195020259494,-5.283893508533151,39.6857082246724,172.112,14957.496266617703,17020.816047025746,150,False,22.845514281006096,False,141.80111083377102,175.62637075208005,False,42.54299741576676,False,False
9,1970-07-23 10:31:21.810751801,2025-09-12,2025-09-26 20:16:21.075,HA,C,2794351044,JASSM,3,117,76,2,2,1,225,9,2,0,1,26,0,0,0,0,-185722.6683367056,-4787855.479463424,4203069.591276646,-2.30145,-0.153015,0.128471,98.0,-15.0,-12.625,0.0,0.0,0.0,0.0,0.0,0.0,2,0,41.44798794961717,-92.2214105474674,15986.879934799275,99.8382767262435,-0.0036937104627916,0.0057570494757645,,14957.496266617703,17020.816047025746,150,9,2025-09-12,2025-09-26 20:16:20.753,HA,C,161363540,HAWK11,1,1,73,2,1,1,225,2,1,0,0,12,1,225,2,1,-143689.46130545562,-4792167.450166549,4200230.720182896,-2.96384,2.26003,-0.597773,-83.125,74.75,70.75,-0.109375,-10.4844,9.03125,0.0136719,0.0527344,0.0625,4,0,41.41178253281626,-91.71745538206602,16871.176494363885,-33.16001084115462,-5.399986775714517,39.93852526384312,171.978,14957.496266617703,17020.816047025746,150,False,22.768452146461232,False,140.21588050811627,175.56515424892783,False,44.19217596060696,False,False
9,1970-07-23 10:31:21.821612805,2025-09-12,2025-09-26 20:16:22.161,HA,C,2795603742,JASSM,3,117,76,2,2,1,225,9,2,0,1,26,0,0,0,0,-185619.70544608065,-4787871.364229049,4203056.134245396,-2.30145,-0.153015,0.128471,98.0,-15.0,-12.75,0.0,0.0,0.0,0.0,0.0,0.0,2,0,41.4478264290314,-92.22017289267824,15986.877470962105,99.83909597804252,-0.0027520606165439,0.0057564239302824,,14957.496266617703,17020.816047025746,150,9,2025-09-12,2025-09-26 20:16:22.241,HA,C,163590470,HAWK11,1,1,73,2,1,1,225,2,1,0,0,12,1,225,2,1,-143830.42810233062,-4792021.959932174,4200371.780729771,-2.83911,2.1214,-0.670254,-68.125,79.75,80.25,-0.34375,-11.7969,10.3281,0.0175781,0.0625,0.046875,4,0,41.413574587651205,-91.71919144742571,16829.88732756776,-25.54787852586956,-4.617069393932712,41.70637525771639,172.198,14957.496266617703,17020.816047025746,150,False,22.624435049369346,False,132.36637021308601,175.24929963458305,False,52.36718696382953,False,False
9,1970-07-23 10:31:21.830314704,2025-09-12,2025-09-26 20:16:23.031,HA,C,2796856452,JASSM,3,117,76,2,2,1,225,9,2,0,1,26,0,0,0,0,-185516.74060233065,-4787887.248994674,4203042.675261021,-2.30145,-0.153015,0.128471,98.0,-15.0,-12.75,0.0,0.0,0.0,0.0,0.0,0.0,2,0,41.44766488240502,-92.2189352206908,15986.876243675686,99.83991523860035,-0.0018103913341737,0.0057557887892898,,14957.496266617703,17020.816047025746,150,9,2025-09-12,2025-09-26 20:16:23.131,HA,C,164465336,HAWK11,1,1,73,2,1,1,225,2,1,0,0,12,1,225,2,1,-143878.10388358062,-4791961.113252486,4200433.327604771,-2.78485,2.05755,-0.699687,-61.125,81.375,84.375,-0.171875,-12.0938,10.7031,0.0175781,0.0761719,0.0488281,4,0,41.41434329029239,-91.71978279317958,16817.336030353938,-22.271333282975792,-4.176619268754306,42.24906126628478,171.11,14957.496266617703,17020.816047025746,150,False,22.53755476047613,False,128.83528680594378,175.12753499764688,False,56.025689669872456,False,False
9,1970-07-23 10:31:21.841154920,2025-09-12,2025-09-26 20:16:24.115,HA,C,2798049498,JASSM,3,117,76,2,2,1,225,9,2,0,1,26,0,0,0,0,-185418.6800554556,-4787902.375947799,4203029.856901646,-2.30145,-0.152919,0.128471,98.0,-15.0,-12.75,0.0,0.0,0.0,0.0,0.0,0.0,2,0,41.44751102223352,-92.21775650626628,15986.876421913355,99.83705938622892,-0.0049704975510951,0.0050516006228051,,14957.496266617703,17020.816047025746,150,9,2025-09-12,2025-09-26 20:16:23.741,HA,C,165260668,HAWK11,1,1,73,2,1,1,225,2,1,0,0,12,1,225,2,1,-143916.12341483062,-4791905.470674361,4200491.317839146,-2.73049,1.99696,-0.722984,-53.875,83.0,87.75,-0.328125,-12.5156,10.7188,0.0078125,0.0722656,0.0566406,4,0,41.415058761461005,-91.72025693270562,16809.156026755776,-19.333618119383083,-3.850551871993331,42.89105138762808,170.841,14957.496266617703,17020.816047025746,150,False,22.458984553573018,False,125.3227804202252,175.01223539823542,False,59.656356333990175,False,False
9,1970-07-23 10:31:21.850258116,2025-09-12,2025-09-26 20:16:25.025,HA,C,2799242534,JASSM,3,117,76,2,2,1,225,9,2,0,1,26,0,0,0,0,-185320.6214617056,-4787917.502900924,4203017.036589146,-2.30145,-0.152919,0.128471,98.0,-15.0,-12.75,0.0,0.0,0.0,0.0,0.0,0.0,2,0,41.44735713635958,-92.21657782074922,15986.877681958003,99.8378395966996,-0.0040736967592806,0.0050509264275876,,14957.496266617703,17020.816047025746,150,9,2025-09-12,2025-09-26 20:16:24.927,HA,C,166771800,HAWK11,1,1,73,2,1,1,225,2,1,0,0,12,1,225,2,1,-143975.35388358062,-4791799.030244674,4200606.735807896,-2.71016,1.86858,-0.766607,-40.5,83.625,93.5,-0.328125,-12.4688,10.8438,-0.140625,0.0703125,0.046875,4,0,41.416460087992114,-91.72100270502104,16802.25974658484,-13.428563866446064,-3.0083429442273992,38.71164949242316,170.707,14957.496266617703,17020.816047025746,150,False,22.364886342366766,False,119.13729643041216,174.79426924593977,False,66.06596371535343,False,False
9,1970-07-23 10:31:21.859255084,2025-09-12,2025-09-26 20:16:25.925,HA,C,2800375928,JASSM,3,117,76,2,2,1,225,9,2,0,1,26,0,0,0,0,-185227.46325858065,-4787931.872041549,4203004.856901646,-2.30145,-0.152919,0.128471,98.0,-15.0,-12.75,0.0,0.0,0.0,0.0,0.0,0.0,2,0,41.44721094025735,-92.2154580450063,15986.878948190086,99.83858081065682,-0.0032217152179684,0.0050502962677889,,14957.496266617703,17020.816047025746,150,9,2025-09-12,2025-09-26 20:16:25.834,HA,C,167964800,HAWK11,1,1,73,2,1,1,225,2,1,0,0,12,1,225,2,1,-144010.12146170562,-4791714.845674361,4200702.741667271,-2.73154,1.77731,-0.803327,-30.75,82.75,97.875,-0.390625,-12.4219,11.0469,0.0,0.0683594,0.0234375,4,0,41.41760241522503,-91.72144827264528,16806.169227063405,-9.368971966625931,-1.7237718829231463,33.620979210845576,170.145,14957.496266617703,17020.816047025746,150,False,22.288484410741624,False,114.68693393112301,174.6117681936309,False,70.70126353594377,False,False
9,1970-07-23 10:31:21.870253832,2025-09-12,2025-09-26 20:16:27.025,HA,C,2801568972,JASSM,3,117,76,2,2,1,225,9,2,0,1,26,0,0,0,0,-185129.4027117056,-4787946.995088424,4202992.034636021,-2.30145,-0.152919,0.128471,98.0,-15.0,-12.75,0.0,0.0,0.0,0.0,0.0,0.0,2,0,41.44705704135019,-92.21427934882011,15986.876200091743,99.83936102354116,-0.0023249002755812,0.0050496351094438,,14957.496266617703,17020.816047025746,150,9,2025-09-12,2025-09-26 20:16:27.037,HA,C,169157798,HAWK11,1,1,73,2,1,1,225,2,1,0,0,12,1,225,2,1,-144034.96521170562,-4791632.169893111,4200802.366667271,-2.71591,1.71288,-0.833143,-21.625,81.125,101.125,-0.328125,-11.5781,9.98438,-0.105469,0.0449219,0.0410156,4,0,41.41876195567685,-91.7217747571486,16820.9196992456,-6.615305598239554,-0.4185539026016463,31.769703989085123,169.827,14957.496266617703,17020.816047025746,150,False,22.214897420040554,False,110.61392026121511,174.4234407360992,False,74.96148155720391,False,False
9,1970-07-23 10:31:21.879277451,2025-09-12,2025-09-26 20:16:27.927,HA,C,2802702368,JASSM,3,117,76,2,2,1,225,9,2,0,1,26,0,0,0,0,-185036.24450858065,-4787961.362275924,4202979.852995396,-2.30145,-0.152919,0.128567,98.0,-15.0,-12.75,0.0,0.0,0.0,0.0,0.0,0.0,2,0,41.44691082131956,-92.2131595842998,15986.877942731391,99.8441928813542,-0.0051391922080838,0.0050487671852948,,14957.496266617703,17020.816047025746,150,9,2025-09-12,2025-09-26 20:16:27.928,HA,C,170430330,HAWK11,1,1,73,2,1,1,225,2,1,0,0,12,1,225,2,1,-144052.68982108062,-4791546.195283736,4200910.962370396,-2.76778,1.61691,-0.848675,-14.0,79.125,103.375,-0.46875,-10.2656,9.125,-0.144531,0.0292969,0.0117188,4,0,41.42000291294514,-91.72201738617132,16846.51158792515,-2.8830960263103687,0.1278365378364606,24.689114093330183,169.338,14957.496266617703,17020.816047025746,150,False,22.147631665706474,False,107.23106942871961,174.22112855461572,False,78.54303223839082,False,False
9,1970-07-23 10:31:21.889373822,2025-09-12,2025-09-26 20:16:28.937,HA,C,2803895408,JASSM,3,117,76,2,2,1,225,9,2,0,1,26,0,0,0,0,-184938.1839617056,-4787976.483369674,4202967.028776646,-2.30145,-0.152919,0.128567,98.0,-15.0,-12.75,0.0,0.0,0.0,0.0,0.0,0.0,2,0,41.44675689730645,-92.21198089987908,15986.876171870956,99.84497308183958,-0.0042423775751299,0.0050481683237351,,14957.496266617703,17020.816047025746,150,9,2025-09-12,2025-09-26 20:16:28.833,HA,C,171225662,HAWK11,1,1,73,2,1,1,225,2,1,0,0,12,1,225,2,1,-144059.32068045562,-4791493.666963424,4200978.677214146,-2.84448,1.59793,-0.865549,-10.0,78.0,104.25,0.015625,-9.57812,8.6875,-0.144531,0.0234375,0.015625,4,0,41.42077106856728,-91.72211547194736,16864.806216653637,-2.123710239434435,1.058595424961713,19.4802358156286,168.947,14957.496266617703,17020.816047025746,150,False,22.086440805894792,False,105.45885495140122,174.0888154013514,False,80.44497977761192,False,False
9,1970-07-23 10:31:21.905251305,2025-09-12,2025-09-26 20:16:30.525,HA,C,2805088470,JASSM,3,117,76,2,2,1,225,9,2,0,1,26,0,0,0,0,-184840.12341483065,-4787991.602510299,4202954.204557896,-2.30145,-0.152919,0.128567,98.0,-15.0,-12.75,0.0,0.0,0.0,0.0,0.0,0.0,2,0,41.44660297283585,-92.21080222193105,15986.87473900302,99.84575327565692,-0.0033455655710247,0.00504758075215,,14957.496266617703,17020.816047025746,150,9,2025-09-12,2025-09-26 20:16:30.631,HA,C,173532126,HAWK11,1,1,73,2,1,1,225,2,1,0,0,12,1,225,2,1,-144068.56872733062,-4791343.712861861,4201179.040495396,-2.80095,1.5313,-0.88923,-1.875,76.0,105.25,-0.140625,-7.59375,7.39062,0.0390625,0.0,0.0273438,4,0,41.4230132671279,-91.7222798263058,16931.65301585033,0.3410627470255928,2.3733198801150657,19.111268321188,168.055,14957.496266617703,17020.816047025746,150,False,22.01653233808938,False,101.85294174058075,173.7270108339273,False,84.40811326819765,False,False
9,1970-07-23 10:31:21.909394017,2025-09-12,2025-09-26 20:16:30.939,HA,C,2806341160,JASSM,3,117,76,2,2,1,225,9,2,0,1,26,0,0,0,0,-184737.15857108065,-4788007.477510299,4202940.737761021,-2.30145,-0.152919,0.128567,98.0,-15.0,-12.75,0.0,0.0,0.0,0.0,0.0,0.0,2,0,41.44644133079279,-92.20956460095792,15986.875434384454,99.84657248264269,-0.0024039003436407,0.0050469574663087,,14957.496266617703,17020.816047025746,150,9,2025-09-12,2025-09-26 20:16:30.927,HA,C,174049092,HAWK11,1,1,73,2,1,1,225,2,1,0,0,12,1,225,2,1,-144069.08630545562,-4791310.311494674,4201224.245573521,-2.77593,1.51193,-0.887696,-0.375,76.125,105.125,-0.1875,-7.42188,7.20312,0.0273438,0.0117188,0.0390625,4,0,41.42351685858335,-91.72229800924588,16947.682005219733,1.0425487046939832,2.2959852628177573,19.71238637864542,167.957,14957.496266617703,17020.816047025746,150,False,21.957688538954386,False,101.19546083853733,173.63230835765245,False,85.16107319003723,False,False
9,1970-07-23 10:31:21.925134071,2025-09-12,2025-09-26 20:16:32.513,HA,C,2807534206,JASSM,3,117,76,2,2,1,225,9,2,0,1,26,0,0,0,0,-184639.0980242056,-4788022.596650924,4202927.911589146,-2.30145,-0.152823,0.128567,98.0,-15.0,-12.75,0.0,0.0,0.0,0.0,0.0,0.0,2,0,41.44628736838599,-92.2083859344329,15986.880292102658,99.84371667495844,-0.0055640027048164,0.0043422848303198,,14957.496266617703,17020.816047025746,150,9,2025-09-12,2025-09-26 20:16:32.427,HA,C,175679524,HAWK11,1,1,73,2,1,1,225,2,1,0,0,12,1,225,2,1,-144065.34216483062,-4791205.354463424,4201365.206511021,-2.70594,1.44338,-0.888463,4.75,76.0,104.375,-0.1875,-7.09375,6.89062,-0.0527344,0.0117188,0.0253906,4,0,41.42509291637312,-91.72229098152364,16995.30398664185,3.517486922548692,2.4586499774940087,20.77738131562222,167.334,14957.496266617703,17020.816047025746,150,False,21.898877348597853,False,98.93261537795112,173.3699346064176,False,87.68808528563581,False,False
9,1970-07-23 10:31:21.929276020,2025-09-12,2025-09-26 20:16:32.927,HA,C,2808667602,JASSM,3,117,76,2,2,1,225,9,2,0,1,26,0,0,0,0,-184545.93982108065,-4788036.957979049,4202915.724089146,-2.30145,-0.152823,0.128567,98.0,-15.0,-12.75,0.0,0.0,0.0,0.0,0.0,0.0,2,0,41.44614108632698,-92.20726619908324,15986.879315203912,99.844457846523,-0.0047120226037628,0.0043416545600658,,14957.496266617703,17020.816047025746,150,9,2025-09-12,2025-09-26 20:16:33.037,HA,C,176474856,HAWK11,1,1,73,2,1,1,225,2,1,0,0,12,1,225,2,1,-144060.99060233062,-4791154.270479049,4201433.267057896,-2.78456,1.41721,-0.886545,7.0,76.0,103.75,0.03125,-6.85938,6.60938,-0.181641,-0.00195312,0.0253906,4,0,41.42585676435029,-91.72225734193614,17017.11350946707,4.470998630272658,2.42824801470826,15.150667941307626,167.028,14957.496266617703,17020.816047025746,150,False,21.84705221241152,False,97.93277269028974,173.23427089339054,False,88.82488410048332,False,False
9,1970-07-23 10:31:21.939296790,2025-09-12,2025-09-26 20:16:33.929,HA,C,2809860648,JASSM,3,117,76,2,2,1,225,9,2,0,1,26,0,0,0,0,-184447.8792742056,-4788052.073213424,4202902.895964146,-2.30145,-0.152823,0.128567,98.0,-15.0,-12.75,0.0,0.0,0.0,0.0,0.0,0.0,2,0,41.44598711043812,-92.20608754522536,15986.880350460042,99.84523801490772,-0.0038152113427456,0.0043410066088818,,14957.496266617703,17020.816047025746,150,9,2025-09-12,2025-09-26 20:16:33.928,HA,C,177349722,HAWK11,1,1,73,2,1,1,225,2,1,0,0,12,1,225,2,1,-144055.06286795562,-4791097.601533736,4201508.034636021,-2.85186,1.38662,-0.880793,8.625,76.375,103.125,0.109375,-6.59375,6.45312,-0.03125,-0.00195312,0.0175781,4,0,41.42669936686274,-91.7222068759099,17039.637154448323,5.61168664327891,2.2167217167033337,9.986012043923534,166.796,14957.496266617703,17020.816047025746,150,True,21.793185835910364,False,97.21752950154914,173.08463521654957,False,89.69160267659927,False,False
9,1970-07-23 10:31:21.948251635,2025-09-12,2025-09-26 20:16:34.825,HA,C,2810994042,JASSM,3,117,76,2,2,1,225,9,2,0,1,26,0,0,0,0,-184354.72107108065,-4788066.430635299,4202890.706511021,-2.30145,-0.152823,0.128567,98.0,-15.0,-12.75,0.0,0.0,0.0,0.0,0.0,0.0,2,0,41.445840816074735,-92.2049678219984,15986.8750502261,99.84597917402968,-0.002963234247436,0.0043403859478291,,14957.496266617703,17020.816047025746,150,9,2025-09-12,2025-09-26 20:16:34.833,HA,C,178662022,HAWK11,1,1,73,2,1,1,225,2,1,0,0,12,1,225,2,1,-144044.19372733062,-4791012.666963424,4201619.462370396,-2.88532,1.39046,-0.876958,10.5,77.0,102.0,0.0,-6.23438,6.04688,-0.046875,0.0,0.00585938,4,0,41.42795832976836,-91.72210752183918,17071.883299149165,5.497392433751704,1.983734101501552,8.233952624375899,166.124,14957.496266617703,17020.816047025746,150,True,21.74308497724639,False,96.38975908532808,172.8692284092608,False,90.73738483673698,False,False
9,1970-07-23 10:31:21.960233774,2025-09-12,2025-09-26 20:16:36.023,HA,C,2812306392,JASSM,3,117,76,2,2,1,225,9,2,0,1,26,0,0,0,0,-184246.85388358065,-4788083.055635299,4202876.593229771,-2.30145,-0.152823,0.128567,98.0,-15.0,-12.75,0.0,0.0,0.0,0.0,0.0,0.0,2,0,41.445671410810085,-92.2036713088243,15986.878026800978,99.84683734998924,-0.0019767363430011,0.0043396687587664,,14957.496266617703,17020.816047025746,150,9,2025-09-12,2025-09-26 20:16:36.037,HA,C,179974320,HAWK11,1,1,73,2,1,1,225,2,1,0,0,12,1,225,2,1,-144031.62732108062,-4790925.635713424,4201730.827604771,-2.85742,1.36735,-0.860084,12.0,78.25,100.75,-0.015625,-5.73438,5.64062,0.09375,-0.00976562,0.0253906,4,0,41.42922964634405,-91.7219886377336,17098.723157121163,6.463538503489731,1.128682327436845,8.848092780284809,166.075,14957.496266617703,17020.816047025746,150,True,21.686138179560476,False,95.74609610789085,172.64811479361177,False,91.60468413046677,False,False
9,1970-07-23 10:31:21.970333353,2025-09-12,2025-09-26 20:16:37.033,HA,C,2813559092,JASSM,3,117,76,2,2,1,225,9,2,0,1,26,0,0,0,0,-184143.89001639312,-4788098.922822799,4202863.118620396,-2.30145,-0.152823,0.128663,98.0,-15.0,-12.75,0.0,0.0,0.0,0.0,0.0,0.0,2,0,41.445509685609096,-92.20243373852118,15986.875286934208,99.85174720946952,-0.0047013036050356,0.0043387723609369,,14957.496266617703,17020.816047025746,150,9,2025-09-12,2025-09-26 20:16:36.929,HA,C,181087786,HAWK11,1,1,73,2,1,1,225,2,1,0,0,12,1,225,2,1,-144019.81091483062,-4790851.570283736,4201822.731901646,-2.77373,1.35681,-0.848387,13.625,79.625,99.25,-0.1875,-5.4375,5.39062,0.0136719,-0.015625,0.015625,4,0,41.43029240331902,-91.7218740535438,17115.25927926141,6.946294749270304,0.5184509698196953,13.194946822407072,165.318,14957.496266617703,17020.816047025746,150,False,21.632512677379456,False,95.04361676470694,172.45994902990415,False,92.4964290069572,False,False
9,1970-07-23 10:31:21.984792583,2025-09-12,2025-09-26 20:16:38.479,HA,C,2814811790,JASSM,3,117,76,2,2,1,225,9,2,0,1,26,0,0,0,0,-184040.9261492056,-4788114.790010299,4202849.644011021,-2.30145,-0.152823,0.128663,98.0,-15.0,-12.75,0.0,0.0,0.0,0.0,0.0,0.0,2,0,41.44534794709062,-92.2011961743643,15986.878211256631,99.85256636116048,-0.0037596483689956,0.0043381479208063,,14957.496266617703,17020.816047025746,150,9,2025-09-12,2025-09-26 20:16:38.537,HA,C,183115884,HAWK11,1,1,73,2,1,1,225,2,1,0,0,12,1,225,2,1,-143994.01208670562,-4790712.963838424,4201986.942839146,-2.84084,1.31405,-0.818762,16.375,81.75,97.125,-0.0625,-5.625,5.53125,-0.103516,-0.0195312,0.0117188,4,0,41.43222943458591,-91.7216155721067,17129.06303200795,8.833409397674979,-0.9051060490215568,7.529331260613182,165.036,14957.496266617703,17020.816047025746,150,True,21.58361228512873,False,93.85333458642573,172.13172340252174,False,94.0130337702416,False,False
9,1970-07-23 10:31:21.991272319,2025-09-12,2025-09-26 20:16:39.127,HA,C,2816064490,JASSM,3,117,76,2,2,1,225,9,2,0,1,26,0,0,0,0,-183937.96228201807,-4788130.655244674,4202836.167448521,-2.30145,-0.152823,0.128663,98.0,-15.0,-12.75,0.0,0.0,0.0,0.0,0.0,0.0,2,0,41.44518619370546,-92.19995861725124,15986.87775863018,99.85338550556015,-0.002817993503876,0.0043375217881684,,14957.496266617703,17020.816047025746,150,9,2025-09-12,2025-09-26 20:16:39.131,HA,C,183672616,HAWK11,1,1,73,2,1,1,225,2,1,0,0,12,1,225,2,1,-143986.14685233062,-4790673.935518111,4202031.563932896,-2.89021,1.31002,-0.807162,17.125,83.25,96.0,0.265625,-5.32812,5.32812,-0.117188,-0.0273438,0.00390625,4,0,41.43276405819388,-91.72153560701716,17129.399505414527,9.10280842246826,-1.5326001547153836,4.527064819709618,164.951,14957.496266617703,17020.816047025746,150,True,21.53015070157965,False,93.5541008151498,172.0256945866446,False,94.41492842560834,False,False
9,1970-07-23 10:31:22.002233413,2025-09-12,2025-09-26 20:16:40.223,HA,C,2817436492,JASSM,3,117,76,2,2,1,225,9,2,0,1,26,0,0,0,0,-183825.1917742056,-4788148.028291549,4202821.407682896,-2.30145,-0.152727,0.128663,98.0,-15.0,-12.75,0.0,0.0,0.0,0.0,0.0,0.0,2,0,41.44500904078276,-92.1986031993924,15986.876544164725,99.85064676576036,-0.005843568308469,0.0036322805936763,,14957.496266617703,17020.816047025746,150,9,2025-09-12,2025-09-26 20:16:40.333,HA,C,185263280,HAWK11,1,1,73,2,1,1,225,2,1,0,0,12,1,225,2,1,-143963.16638358062,-4790561.498018111,4202156.702604771,-2.96739,1.3221,-0.800259,17.75,85.375,94.75,-0.03125,-5.98438,5.8125,-0.0175781,-0.015625,0.0,4,0,41.434281315391495,-91.7213013866662,17122.94932710585,8.695250736023262,-2.001293836126276,0.6159969518822239,164.45,14957.496266617703,17020.816047025746,150,True,21.47652599029558,False,93.33679759386773,171.7601185517656,False,94.89117995104968,False,False
9,1970-07-23 10:31:22.014332086,2025-09-12,2025-09-26 20:16:41.433,HA,C,2818748842,JASSM,3,117,76,2,2,1,225,9,2,0,1,26,0,0,0,0,-183717.3245867056,-4788164.647432174,4202807.286589146,-2.30145,-0.152727,0.128663,98.0,-15.0,-12.75,0.0,0.0,0.0,0.0,0.0,0.0,2,0,41.44483954594728,-92.19730672202682,15986.878673287974,99.851504903946,-0.0048570691952313,0.0036315530582731,,14957.496266617703,17020.816047025746,150,9,2025-09-12,2025-09-26 20:16:41.537,HA,C,186456280,HAWK11,1,1,73,2,1,1,225,2,1,0,0,12,1,225,2,1,-143945.15661795562,-4790474.927705611,4202250.370573521,-2.94668,1.31357,-0.796999,18.125,86.625,94.375,-0.125,-6.46875,6.3125,0.0332031,0.00390625,0.00585938,4,0,41.43543148536807,-91.72111726532876,17112.147798691207,9.062955506030567,-2.127745111125762,1.4390794438761354,164.633,14957.496266617703,17020.816047025746,150,True,21.42434327579248,False,93.21994731668563,171.55311015624872,False,95.21097709896816,False,False
9,1970-07-23 10:31:22.024312190,2025-09-12,2025-09-26 20:16:42.431,HA,C,2820061194,JASSM,3,117,76,2,2,1,225,9,2,0,1,26,0,0,0,0,-183609.45642264312,-4788181.262666549,4202793.165495396,-2.30145,-0.152727,0.128663,98.0,-15.0,-12.75,0.0,0.0,0.0,0.0,0.0,0.0,2,0,41.44467005996439,-92.19601024153114,15986.877327312925,99.8523630413142,-0.0038705667731274,0.0036308498558282,,14957.496266617703,17020.816047025746,150,9,2025-09-12,2025-09-26 20:16:42.427,HA,C,187649278,HAWK11,1,1,73,2,1,1,225,2,1,0,0,12,1,225,2,1,-143927.02966483062,-4790387.612275924,4202344.022917271,-2.99701,1.31222,-0.798916,18.375,87.375,94.5,-0.1875,-6.70312,6.57812,-0.0742188,-0.00390625,-0.00585938,4,0,41.43658600589468,-91.72093200445576,17099.480360412286,9.097394459071838,-2.009210060942586,-1.501080880032793,164.401,14957.496266617703,17020.816047025746,150,True,21.372488262642808,False,93.15287412206933,171.34440662882668,False,95.4851976957342,False,False
9,1970-07-23 10:31:22.036733455,2025-09-12,2025-09-26 20:16:43.673,HA,C,2821313894,JASSM,3,117,76,2,2,1,225,9,2,0,1,26,0,0,0,0,-183506.4925554556,-4788197.122041549,4202779.685026646,-2.30145,-0.152727,0.128663,98.0,-15.0,-12.75,0.0,0.0,0.0,0.0,0.0,0.0,2,0,41.44450825929821,-92.19477271286668,15986.877728285806,99.85318215591226,-0.0029289152811603,0.0036301718071063,,14957.496266617703,17020.816047025746,150,9,2025-09-12,2025-09-26 20:16:43.631,HA,C,189160410,HAWK11,1,1,73,2,1,1,225,2,1,0,0,12,1,225,2,1,-143903.88708670562,-4790275.377900924,4202463.583464146,-3.03584,1.31203,-0.799204,18.0,88.5,94.625,-0.09375,-7.01562,6.73438,0.0214844,0.00585938,-0.0136719,4,0,41.43806446275141,-91.72069574565086,17081.443249457447,9.102302630185653,-1.9901812507454648,-3.7337933888831993,164.364,14957.496266617703,17020.816047025746,150,True,21.32550896150025,False,93.37600878440026,171.08376576946227,False,95.52004398247499,False,False
9,1970-07-23 10:31:22.045250817,2025-09-12,2025-09-26 20:16:44.525,HA,C,2822568992,JASSM,3,117,76,2,2,1,225,9,2,0,1,26,0,0,0,0,-183403.33044608065,-4788213.010713424,4202766.177214146,-2.30145,-0.152727,0.128663,98.0,-15.0,-12.75,0.0,0.0,0.0,0.0,0.0,0.0,2,0,41.444346131752575,-92.19353280825138,15986.87775156887,99.854002840503,-0.001985450823826,0.0036294903581563,,14957.496266617703,17020.816047025746,150,9,2025-09-12,2025-09-26 20:16:44.537,HA,C,189995510,HAWK11,1,1,73,2,1,1,225,2,1,0,0,12,1,225,2,1,-143891.59607108062,-4790213.713838424,4202529.054167271,-3.12012,1.33217,-0.806107,17.625,88.75,94.875,-0.078125,-6.9375,6.73438,-0.113281,0.0,-0.00390625,4,0,41.43887521095656,-91.72057100234336,17071.096098940834,8.246775022684249,-1.7295464298140462,-7.704820951513078,164.364,14957.496266617703,17020.816047025746,150,True,21.27443434120784,False,93.5596534483686,170.92940490349537,False,95.49103096377692,False,False
9,1970-07-23 10:31:22.057254686,2025-09-12,2025-09-26 20:16:45.725,HA,C,2823878942,JASSM,3,117,76,2,2,1,225,9,2,0,1,26,0,0,0,0,-183295.6605242056,-4788229.592744674,4202752.077604771,-2.30145,-0.152727,0.128759,98.0,-15.0,-12.75,0.0,0.0,0.0,0.0,0.0,0.0,2,0,41.4441769005441,-92.19223873127538,15986.87820823472,99.85895012517508,-0.0046669315109149,0.0036285717532407,,14957.496266617703,17020.816047025746,150,9,2025-09-12,2025-09-26 20:16:45.833,HA,C,191824774,HAWK11,1,1,73,2,1,1,225,2,1,0,0,12,1,225,2,1,-143866.29138358062,-4790076.978486861,4202673.938932896,3.06835,1.3547,-0.810325,15.375,89.625,95.75,-0.140625,-7.07812,6.85938,-0.0351562,0.0,-0.0234375,4,0,41.44067067059042,-91.72031768210653,17047.67815005676,7.328974583097941,-1.6197947874003489,-12.171769642110306,164.401,14957.496266617703,17020.816047025746,150,False,21.22619065424661,False,94.59939414249777,170.6143893288412,False,94.76706551913396,False,False
9,1970-07-23 10:31:22.067350181,2025-09-12,2025-09-26 20:16:46.735,HA,C,2825131642,JASSM,3,117,76,2,2,1,225,9,2,0,1,26,0,0,0,0,-183192.6956804556,-4788245.448213424,4202738.593229771,-2.30145,-0.152727,0.128759,98.0,-15.0,-12.75,0.0,0.0,0.0,0.0,0.0,0.0,2,0,41.44401505641736,-92.19100121147078,15986.877697299771,99.85976922592864,-0.0037252721022553,0.003627959213971,,14957.496266617703,17020.816047025746,150,9,2025-09-12,2025-09-26 20:16:46.738,HA,C,192739406,HAWK11,1,1,73,2,1,1,225,2,1,0,0,12,1,225,2,1,-143855.01794608062,-4790007.345674361,4202747.602995396,3.03201,1.38279,-0.813969,13.875,90.25,96.0,0.125,-7.1875,6.96875,0.0117188,0.0,-0.00585938,4,0,41.44158392399755,-91.7202079495582,17035.621467828263,6.203762951713412,-1.5540114287754312,-13.05433661467498,164.731,14957.496266617703,17020.816047025746,150,False,21.174979930797214,False,95.27696902859874,170.4416633288359,False,94.26139518992488,False,False
9,1970-07-23 10:31:22.078310808,2025-09-12,2025-09-26 20:16:47.831,HA,C,2826503646,JASSM,3,117,76,2,2,1,225,9,2,0,1,26,0,0,0,0,-183079.92419608065,-4788262.811494674,4202723.823698521,-2.30145,-0.152631,0.128759,98.0,-15.0,-12.75,0.0,0.0,0.0,0.0,0.0,0.0,2,0,41.44383779040126,-92.18964583515756,15986.876087886923,99.85703053324164,-0.0067508347885822,0.0029222545807391,,14957.496266617703,17020.816047025746,150,9,2025-09-12,2025-09-26 20:16:47.927,HA,C,194330072,HAWK11,1,1,73,2,1,1,225,2,1,0,0,12,1,225,2,1,-143838.41247733062,-4789887.118135299,4202874.843229771,3.14025,1.40867,-0.824035,11.625,90.625,97.0,-0.109375,-7.45312,7.21875,0.201172,0.00976562,-0.00585938,4,0,41.443160585121454,-91.72005264863844,17015.1418570479,5.134134642908935,-1.0888458925961932,-5.7444078276800905,164.682,14957.496266617703,17020.816047025746,150,True,21.120599493450072,False,96.27932230146517,170.15815451535005,False,93.54520162905155,False,False
9,1970-07-23 10:31:22.089310186,2025-09-12,2025-09-26 20:16:48.931,HA,C,2827815996,JASSM,3,117,76,2,2,1,225,9,2,0,1,26,0,0,0,0,-182972.05700858065,-4788279.418916549,4202709.694792271,-2.30145,-0.152631,0.128759,98.0,-15.0,-12.75,0.0,0.0,0.0,0.0,0.0,0.0,2,0,41.44366821163586,-92.1883494097844,15986.875403083704,99.85788861715602,-0.0057643423466152,0.0029215505985657,,14957.496266617703,17020.816047025746,150,9,2025-09-12,2025-09-26 20:16:48.837,HA,C,195125404,HAWK11,1,1,73,2,1,1,225,2,1,0,0,12,1,225,2,1,-143830.83239920562,-4789826.208955611,4202939.720182896,-3.08541,1.42229,-0.831609,11.125,90.625,97.25,-0.09375,-7.46875,7.1875,0.0332031,0.0,0.00195312,4,0,41.44396199773319,-91.7199839173052,17005.735343858953,4.568102997139903,-0.7054344524087133,-1.865162546592491,164.768,14957.496266617703,17020.816047025746,150,True,21.065405709035932,False,96.49838137928404,170.00029461074703,False,93.48500200962614,False,False
9,1970-07-23 10:31:22.101238692,2025-09-12,2025-09-26 20:16:50.123,HA,C,2829128348,JASSM,3,117,76,2,2,1,225,9,2,0,1,26,0,0,0,0,-182864.18884451807,-4788296.026338424,4202695.563932896,-2.30145,-0.152631,0.128759,98.0,-15.0,-12.75,0.0,0.0,0.0,0.0,0.0,0.0,2,0,41.44349860530585,-92.18705297949396,15986.876601810172,99.85874670143752,-0.004777839040826,0.0029208352988689,,14957.496266617703,17020.816047025746,150,9,2025-09-12,2025-09-26 20:16:50.037,HA,C,196716068,HAWK11,1,1,73,2,1,1,225,2,1,0,0,12,1,225,2,1,-143816.45153983062,-4789706.040010299,4203068.731901646,-3.06077,1.39851,-0.839854,11.0,90.125,98.375,0.109375,-7.51562,7.29688,-0.0117188,0.00585938,0.00195312,4,0,41.44554986254696,-91.7198551712443,16989.434930553874,5.431421491717265,-0.144666043930775,-1.4703610323262588,165.134,14957.496266617703,17020.816047025746,150,True,21.013295443428856,False,96.55751386090841,169.7135549083002,False,93.71747306764097,False,False
9,1970-07-23 10:31:22.114469745,2025-09-12,2025-09-26 20:16:51.446,HA,C,2830381046,JASSM,3,117,76,2,2,1,225,9,2,0,1,26,0,0,0,0,-182761.22400076807,-4788311.875947799,4202682.075651646,-2.30145,-0.152631,0.128759,98.0,-15.0,-12.75,0.0,0.0,0.0,0.0,0.0,0.0,2,0,41.44333671390087,-92.18581548814,15986.876944468446,99.8595657723829,-0.0038361829969721,0.0029201708447462,,14957.496266617703,17020.816047025746,150,9,2025-09-12,2025-09-26 20:16:51.239,HA,C,198187434,HAWK11,1,1,73,2,1,1,225,2,1,0,0,12,1,225,2,1,-143803.10583670562,-4789593.796846236,4203190.472136021,3.13459,1.41203,-0.83995,10.375,90.25,99.0,-0.125,-7.23438,6.96875,-0.0214844,-0.00390625,0.00195312,4,0,41.44704133079456,-91.71973594658613,16976.918066228103,4.916570915821487,-0.1900627104905093,-5.923826591339098,166.039,14957.496266617703,17020.816047025746,150,True,20.963869977764634,False,96.83865660695592,169.44241982154034,False,93.70896477113878,False,False
9,1970-07-23 10:31:22.122332863,2025-09-12,2025-09-26 20:16:52.233,HA,C,2831693396,JASSM,3,117,76,2,2,1,225,9,2,0,1,26,0,0,0,0,-182653.3558367056,-4788328.479463424,4202667.942839146,-2.30145,-0.152631,0.128759,98.0,-15.0,-12.75,0.0,0.0,0.0,0.0,0.0,0.0,2,0,41.44316708907905,-92.18451907282812,15986.876452621334,99.86042384110291,-0.0028496826749294,0.0029194651305103,,14957.496266617703,17020.816047025746,150,9,2025-09-12,2025-09-26 20:16:52.131,HA,C,199102066,HAWK11,1,1,73,2,1,1,225,2,1,0,0,12,1,225,2,1,-143795.69177420562,-4789524.848604049,4203265.435026646,3.09068,1.42536,-0.841101,9.5,90.25,99.5,-0.140625,-7.40625,7.10938,-0.0273438,0.00976562,-0.015625,4,0,41.44795858338042,-91.71967207587704,16969.68686569215,4.403381773351228,-0.1699981877360643,-7.869218454943504,166.222,14957.496266617703,17020.816047025746,150,True,20.909286991226384,False,97.21821370001369,169.2624665252237,False,93.51070127754659,False,False
9,1970-07-23 10:31:22.137294398,2025-09-12,2025-09-26 20:16:53.729,HA,C,2832946096,JASSM,3,117,76,2,2,1,225,9,2,0,1,26,0,0,0,0,-182550.3909929556,-4788344.327119674,4202654.450651646,-2.30145,-0.152631,0.128759,98.0,-15.0,-12.75,0.0,0.0,0.0,0.0,0.0,0.0,2,0,41.44300515568618,-92.18328159496184,15986.875111030957,99.8612428977317,-0.0019080247131042,0.0029187859526539,,14957.496266617703,17020.816047025746,150,9,2025-09-12,2025-09-26 20:16:53.631,HA,C,201050630,HAWK11,1,1,73,2,1,1,225,2,1,0,0,12,1,225,2,1,-143781.46911795562,-4789376.180635299,4203428.614714146,3.09337,1.44549,-0.848483,7.5,90.25,100.5,-0.203125,-7.45312,7.21875,0.0644531,0.0,-0.00976562,4,0,41.4499464766786,-91.7195554306864,16957.593797407546,3.606672938112809,0.1932686226771013,-6.852820546292398,166.76,14957.496266617703,17020.816047025746,150,True,20.861108915844913,False,98.07762372922795,168.90740930016912,False,93.00877729283552,False,False
9,1970-07-23 10:31:22.146557469,2025-09-12,2025-09-26 20:16:54.655,HA,C,2834198796,JASSM,3,117,76,2,2,1,225,9,2,0,1,26,0,0,0,0,-182447.4261492056,-4788360.172822799,4202640.958464146,-2.30145,-0.152631,0.128759,98.0,-15.0,-12.75,0.0,0.0,0.0,0.0,0.0,0.0,2,0,41.44284322060019,-92.18204412413805,15986.874633697567,99.86206194706602,-0.0009663693721461,0.0029181180601566,,14957.496266617703,17020.816047025746,150,9,2025-09-12,2025-09-26 20:16:54.955,HA,C,201686896,HAWK11,1,1,73,2,1,1,225,2,1,0,0,12,1,225,2,1,-143777.60388358062,-4789327.768525924,4203482.065886021,3.10171,1.45172,-0.849442,7.0,90.375,100.75,-0.125,-7.48438,7.17188,0.0175781,0.0,-0.0078125,4,0,41.45059578978899,-91.71952660307532,16954.398622083183,3.367534464668682,0.2324411711108629,-6.107792234583047,167.212,14957.496266617703,17020.816047025746,150,True,20.807841902186027,False,98.29408520957371,168.77056047192414,False,92.92946469537426,False,False
9,1970-07-23 10:31:22.167948868,2025-09-12,2025-09-26 20:16:56.794,HA,C,2836823498,JASSM,3,117,76,2,2,1,225,9,2,0,1,26,0,0,0,0,-182231.68982108065,-4788393.370088424,4202612.685026646,-2.30145,-0.152535,0.128854,98.0,-15.0,-12.75,0.0,0.0,0.0,0.0,0.0,0.0,2,0,41.44250387673902,-92.17945134400462,15986.875070679756,99.86423312064936,-0.0067163944646079,0.0022110862395653,,14957.496266617703,17020.816047025746,150,9,2025-09-12,2025-09-26 20:16:56.673,HA,C,204351260,HAWK11,1,1,73,2,1,1,225,2,1,0,0,12,1,225,2,1,-143765.39294608062,-4789126.672822799,4203706.061979771,2.92808,1.48748,-0.85251,3.625,90.0,101.375,0.140625,-7.5625,6.32812,-0.101562,0.0,-0.0195312,4,0,41.45330551736783,-91.71945280602588,16945.7153388659,2.0093862640210203,0.3386621808124485,-14.521874261938764,167.297,14957.496266617703,17020.816047025746,150,False,20.699602359437094,False,99.71442323429976,168.25846585988103,False,92.02336909392133,False,False
9,1970-07-23 10:31:22.170731788,2025-09-12,2025-09-26 20:16:57.073,HA,C,2835511146,JASSM,3,117,76,2,2,1,225,9,2,0,1,26,0,0,0,0,-182339.55798514312,-4788376.772432174,4202626.823698521,-2.30145,-0.152631,0.128854,98.0,-15.0,-12.75,0.0,0.0,0.0,0.0,0.0,0.0,2,0,41.44267356333777,-92.1807477302501,15986.87838512185,99.8670107852858,-0.0036459929370496,0.002917292438647,,14957.496266617703,17020.816047025746,150,9,2025-09-12,2025-09-26 20:16:57.239,HA,C,205345426,HAWK11,1,1,73,2,1,1,225,2,1,0,0,12,1,225,2,1,-143763.23474295562,-4789050.582979049,4203790.722136021,2.89951,1.50704,-0.853948,1.625,90.0,101.25,0.0,-7.73438,6.48438,0.0292969,-0.00195312,-0.0214844,4,0,41.45432973601361,-91.71945431149304,16942.418057945022,1.2702257193782889,0.3980059581017453,-15.319278097986995,167.346,14957.496266617703,17020.816047025746,150,False,20.75942385853534,False,100.55957902823182,168.1230522453833,False,91.31366642251865,False,False
9,1970-07-23 10:31:22.185848624,2025-09-12,2025-09-26 20:16:58.584,HA,C,2838195502,JASSM,3,117,76,2,2,1,225,9,2,0,1,26,0,0,0,0,-182118.9183367056,-4788410.721650924,4202597.903776646,-2.30145,-0.152535,0.128854,98.0,-15.0,-12.75,0.0,0.0,0.0,0.0,0.0,0.0,2,0,41.44232646530703,-92.17809603592386,15986.877115317868,99.86513015439432,-0.0056850531641504,0.0022103552740035,,14957.496266617703,17020.816047025746,150,9,2025-09-12,2025-09-26 20:16:58.738,HA,C,207055392,HAWK11,1,1,73,2,1,1,225,2,1,0,0,12,1,225,2,1,-143763.50622733062,-4788921.872041549,4203934.192839146,2.91619,1.55939,-0.854044,-1.5,89.75,100.375,-0.09375,-7.625,6.3125,-0.0078125,-0.00390625,0.0,4,0,41.45606333813744,-91.71950374237278,16937.715293958485,-0.7001750405389564,0.3940517697500447,-12.115626790038794,167.749,14957.496266617703,17020.816047025746,150,False,20.642722350847123,False,101.88922635032368,167.76590012670565,False,90.34056952165581,False,False
