Subject_cm,Timestamp,SampleDate_cm,SampleTime_cm,Configuration_cm,Scenario_cm,DisTime_cm,MarkingTxt_cm,Application_cm,EntId_cm,Site_cm,ExerciseId_cm,ForceId_cm,Category_cm,Country_cm,Domain_cm,Kind_cm,Extra_cm,Specific_cm,Subcategory_cm,AltCategory_cm,AltCountry_cm,AltDomain_cm,AltKind_cm,ECEF_X_cm,ECEF_Y_cm,ECEF_Z_cm,OriPhi_cm,OriPsi_cm,OriTheta_cm,LinVelX_cm,LinVelY_cm,LinVelZ_cm,LinAccX_cm,LinAccY_cm,LinAccZ_cm,AngVelX_cm,AngVelY_cm,AngVelZ_cm,DrAlg_cm,Appearance_cm,Latitude_cm,Longitude_cm,Altitude_cm,Heading_cm,Pitch_cm,Roll_cm,CalibratedAirspeed_cm,CM_Altitude_Lead_cm,CM_Altitude_Wing_cm,CM_Airspeed_cm,Subject_ac,SampleDate_ac,SampleTime_ac,Configuration_ac,Scenario_ac,DisTime_ac,MarkingTxt_ac,Application_ac,EntId_ac,Site_ac,ExerciseId_ac,ForceId_ac,Category_ac,Country_ac,Domain_ac,Kind_ac,Extra_ac,Specific_ac,Subcategory_ac,AltCategory_ac,AltCountry_ac,AltDomain_ac,AltKind_ac,ECEF_X_ac,ECEF_Y_ac,ECEF_Z_ac,OriPhi_ac,OriPsi_ac,OriTheta_ac,LinVelX_ac,LinVelY_ac,LinVelZ_ac,LinAccX_ac,LinAccY_ac,LinAccZ_ac,AngVelX_ac,AngVelY_ac,AngVelZ_ac,DrAlg_ac,Appearance_ac,Latitude_ac,Longitude_ac,Altitude_ac,Heading_ac,Pitch_ac,Roll_ac,CalibratedAirspeed_ac,CM_Altitude_Lead_ac,CM_Altitude_Wing_ac,CM_Airspeed_ac,Bank_Angle_Condition,distance_nm,Distance_Condition,angle_between_vel,angle_between_pos,Cone_Condition,angle_between_pos_nose,Nose_Cone_Condition,Intercept_Criteria
9,1970-07-23 10:31:14.392159374,2025-09-12,2025-09-26 20:03:59.215,HH,C,1909468476,JASSM,3,101,76,2,2,1,225,9,2,0,1,26,0,0,0,0,-155755.44372733062,-4778332.209932174,4214568.796354771,-2.71093,-1.01118,0.751842,37.0,-59.0,-65.125,0.0,0.0,0.0,0.0,0.0,0.0,2,0,41.58858749427204,-91.8669633082707,14989.499635183958,155.93843230943477,-0.0038491241462578,-0.0006572403930738,,13817.683391404704,16277.165501477106,150,9,2025-09-12,2025-09-26 20:03:58.946,HH,C,3569256732,HAWK11,1,1,73,2,1,1,225,2,1,0,0,12,1,225,2,1,-148671.49841483062,-4792755.359346236,4199109.815886021,2.24604,-3.13191,-0.102873,-93.625,-1.5,-0.625,-0.234375,-6.75,6.84375,-0.00976562,-0.015625,0.00390625,4,0,41.39981812479487,-91.776748054376,16258.729841374976,-87.10457131234632,5.639303597329897,-2.4487739618845974,179.31,13817.683391404704,16277.165501477106,150,True,12.027974372689883,False,111.93299648743813,175.61946007868772,False,72.382516907935,False,False
9,1970-07-23 10:31:14.403861425,2025-09-12,2025-09-26 20:04:00.386,HH,C,1910840478,JASSM,3,101,76,2,2,1,225,9,2,0,1,26,0,0,0,0,-155712.85778983062,-4778400.207979049,4214493.780729771,-2.71093,-1.01118,0.751842,37.0,-59.0,-65.125,0.0,0.0,0.0,0.0,0.0,0.0,2,0,41.58768509434167,-91.86642667144608,14989.50096394726,155.93878851367265,-0.0028614899641329,-0.0006586681946268,,13817.683391404704,16277.165501477106,150,9,2025-09-12,2025-09-26 20:04:00.320,HH,C,3573432228,HAWK11,1,1,73,2,1,1,225,2,1,0,0,12,1,225,2,1,-148999.06091483062,-4792760.399385299,4199105.331511021,2.23539,-3.12923,-0.0932852,-93.125,-1.5,-1.75,-0.21875,-6.73438,6.85938,-0.00195312,0.00390625,-0.00390625,4,0,41.39969739477313,-91.78065830992776,16286.419643999709,-87.62385770751729,5.395975189944664,-3.0928858793972043,179.848,13817.683391404704,16277.165501477106,150,True,11.917902173561034,False,111.41604469229338,174.79732641643605,False,73.72516491700105,False,False
9,1970-07-23 10:31:14.414179270,2025-09-12,2025-09-26 20:04:01.417,HH,C,1912093178,JASSM,3,101,76,2,2,1,225,9,2,0,1,26,0,0,0,0,-155673.97595389312,-4778462.291963424,4214425.284636021,-2.71093,-1.01118,0.751842,37.0,-59.0,-65.125,0.0,0.0,0.0,0.0,0.0,0.0,2,0,41.586861144564246,-91.86593672390649,14989.4969975824,155.9391137213516,-0.0019597249784728,-0.0006599871351014,,13817.683391404704,16277.165501477106,150,9,2025-09-12,2025-09-26 20:04:01.210,HH,C,3574346860,HAWK11,1,1,73,2,1,1,225,2,1,0,0,12,1,225,2,1,-149070.64685233062,-4792761.512666549,4199103.974089146,2.23693,-3.13018,-0.0912719,-93.125,-2.25,-1.125,-0.1875,-6.73438,6.9375,0.0,0.0,-0.0136719,4,0,41.39966837531399,-91.78151285459866,16291.68860136226,-87.6754562744927,5.279498297929657,-3.0147489453272915,180.349,13817.683391404704,16277.165501477106,150,True,11.853365022683514,False,111.3901564380487,174.59649827013453,False,73.96215114077276,False,False
9,1970-07-23 10:31:14.424157496,2025-09-12,2025-09-26 20:04:02.415,HH,C,1913345878,JASSM,3,101,76,2,2,1,225,9,2,0,1,26,0,0,0,0,-155635.09314139312,-4778524.375947799,4214356.792448521,-2.71083,-1.01118,0.751842,37.0,-59.0,-65.125,0.0,0.0,0.0,0.0,0.0,0.0,2,0,41.58603721905785,-91.86544677712811,14989.50663818606,155.93943892323418,-0.0010579804730551,0.0048438451595337,,13817.683391404704,16277.165501477106,150,9,2025-09-12,2025-09-26 20:04:01.820,HH,C,3575221726,HAWK11,1,1,73,2,1,1,225,2,1,0,0,12,1,225,2,1,-149139.04528983062,-4792762.481416549,4199102.462370396,2.24402,-3.12951,-0.0915595,-93.0,-1.5,-2.125,0.0,-6.73438,6.79688,0.0136719,0.0,-0.00195312,4,0,41.3996397575817,-91.78232938322252,16296.025914490212,-87.68885682590913,5.319780731726986,-2.605881387249364,180.642,13817.683391404704,16277.165501477106,150,True,11.789493560443292,False,111.24291941289054,174.40130481775077,False,74.29533958210133,False,False
9,1970-07-23 10:31:14.435323282,2025-09-12,2025-09-26 20:04:03.532,HH,C,1914598584,JASSM,3,101,76,2,2,1,225,9,2,0,1,26,0,0,0,0,-155596.21032889312,-4778586.457979049,4214288.292448521,-2.71083,-1.01118,0.751842,37.0,-59.0,-65.125,0.0,0.0,0.0,0.0,0.0,0.0,2,0,41.58521325042816,-91.86495684356947,14989.499654241235,155.9397641110521,-0.0001561987083279,0.0048425277612963,,13817.683391404704,16277.165501477106,150,9,2025-09-12,2025-09-26 20:04:03.148,HH,C,3574744526,HAWK11,1,1,73,2,1,1,225,2,1,0,0,12,1,225,2,1,-149102.37927420562,-4792761.883760299,4199103.343229771,2.24201,-3.13009,-0.0912719,-93.125,-1.5,-1.875,-0.109375,-6.64062,6.89062,0.0,-0.00585938,-0.00585938,4,0,41.39965604081892,-91.78189169995886,16293.660739526673,-87.67932072267975,5.283897593556415,-2.723413710709784,181.131,13817.683391404704,16277.165501477106,150,True,11.740949586201841,False,111.35906253266057,174.46764002586767,False,74.11317073756521,False,False
9,1970-07-23 10:31:14.446140835,2025-09-12,2025-09-26 20:04:04.614,HH,C,1915910926,JASSM,3,101,76,2,2,1,225,9,2,0,1,26,0,0,0,0,-155555.47693045562,-4778651.495088424,4214216.534636021,-2.71083,-1.01118,0.751842,37.0,-59.0,-65.125,0.0,0.0,0.0,0.0,0.0,0.0,2,0,41.58435007739721,-91.86444360537044,14989.503915912976,155.94010476138547,0.0007884899105619,0.0048411533908624,,13817.683391404704,16277.165501477106,150,9,2025-09-12,2025-09-26 20:04:04.615,HH,C,3578363290,HAWK11,1,1,73,2,1,1,225,2,1,0,0,12,1,225,2,1,-149384.87146170562,-4792764.978486861,4199102.886198521,2.8231,3.10775,-0.185995,-91.875,2.25,4.0,-0.015625,-7.79688,8.23438,0.113281,0.0429688,0.103516,4,0,41.399582239922445,-91.78526437104028,16321.919696305256,-81.86607244262649,6.910152797467946,30.82970632269325,181.546,13817.683391404704,16277.165501477106,150,False,11.641652618693566,False,115.62019016083724,173.72888946884655,False,70.60750027053153,False,False
9,1970-07-23 10:31:14.457179461,2025-09-12,2025-09-26 20:04:05.717,HH,C,1917223278,JASSM,3,101,76,2,2,1,225,9,2,0,1,26,0,0,0,0,-155514.74255545562,-4778716.530244674,4214144.772917271,-2.71083,-1.01118,0.751938,37.0,-59.0,-65.125,0.0,0.0,0.0,0.0,0.0,0.0,2,0,41.58348688750422,-91.86393036990704,14989.500486454985,155.94273801494816,-0.0032568149509918,0.0048397500974029,,13817.683391404704,16277.165501477106,150,9,2025-09-12,2025-09-26 20:04:05.665,HH,C,3578880256,HAWK11,1,1,73,2,1,1,225,2,1,0,0,12,1,225,2,1,-149424.01403983062,-4792763.797822799,4199105.114714146,2.86672,3.07026,-0.216387,-91.375,3.75,6.0,-0.015625,-7.90625,8.21875,0.0546875,0.0546875,0.113281,4,0,41.39959704462174,-91.78573229180986,16326.851997049176,-79.15332279849045,6.463352242348304,33.21579515748152,182.438,13817.683391404704,16277.165501477106,150,False,11.578089555700569,False,117.18907178754145,173.60065255421384,False,69.16956426235919,False,False
9,1970-07-23 10:31:14.475926716,2025-09-12,2025-09-26 20:04:07.592,HH,C,1918595280,JASSM,3,101,76,2,2,1,225,9,2,0,1,26,0,0,0,0,-155472.15759451812,-4778784.520479049,4214069.749479771,-2.71083,-1.01109,0.751938,37.0,-59.0,-65.125,0.0,0.0,0.0,0.0,0.0,0.0,2,0,41.58258446648217,-91.86339383228665,14989.500829525754,155.93944963706258,-0.0039437438759847,0.0010875656365217,,13817.683391404704,16277.165501477106,150,9,2025-09-12,2025-09-26 20:04:07.820,HH,C,3582379718,HAWK11,1,1,73,2,1,1,225,2,1,0,0,12,1,225,2,1,-149685.94568045562,-4792733.102510299,4199145.923307896,2.91092,2.93125,-0.356746,-85.75,16.875,20.5,-0.171875,-8.03125,8.46875,-0.0195312,0.0351562,0.0605469,4,0,41.400006386369725,-91.78887199442244,16359.992921284304,-68.00878453122303,6.068438782093278,34.708475813319104,183.343,13817.683391404704,16277.165501477106,150,False,11.453866746817853,False,130.01535085153378,172.93172233651268,False,57.01847738256198,False,False
9,1970-07-23 10:31:14.479699756,2025-09-12,2025-09-26 20:04:07.969,HH,C,1919907632,JASSM,3,101,76,2,2,1,225,9,2,0,1,26,0,0,0,0,-155431.42321951812,-4778849.553682174,4213997.987761021,-2.71083,-1.01109,0.751938,37.0,-59.0,-65.125,0.0,0.0,0.0,0.0,0.0,0.0,2,0,41.58172128329463,-91.86288062554506,14989.504234722915,155.93979024899608,-0.0029990492118698,0.0010861747250496,,13817.683391404704,16277.165501477106,150,9,2025-09-12,2025-09-26 20:04:07.820,HH,C,3582379718,HAWK11,1,1,73,2,1,1,225,2,1,0,0,12,1,225,2,1,-149685.94568045562,-4792733.102510299,4199145.923307896,2.91092,2.93125,-0.356746,-85.75,16.875,20.5,-0.171875,-8.03125,8.46875,-0.0195312,0.0351562,0.0605469,4,0,41.400006386369725,-91.78887199442244,16359.992921284304,-68.00878453122303,6.068438782093278,34.708475813319104,183.343,13817.683391404704,16277.165501477106,150,False,11.397622366231108,False,130.01535085153378,172.89676962526022,False,57.05327695025022,False,False
9,1970-07-23 10:31:14.490139991,2025-09-12,2025-09-26 20:04:09.013,HH,C,1921219984,JASSM,3,101,76,2,2,1,225,9,2,0,1,26,0,0,0,0,-155390.68884451812,-4778914.584932174,4213926.222136021,-2.71083,-1.01109,0.751938,37.0,-59.0,-65.125,0.0,0.0,0.0,0.0,0.0,0.0,2,0,41.580858083053904,-91.86236743323283,14989.500027066666,155.94013084554695,-0.0020543412762745,0.0010847773069707,,13817.683391404704,16277.165501477106,150,9,2025-09-12,2025-09-26 20:04:09.116,HH,C,3584049916,HAWK11,1,1,73,2,1,1,225,2,1,0,0,12,1,225,2,1,-149804.26013358062,-4792704.665986861,4199180.017057896,2.93652,2.85464,-0.422803,-81.875,23.125,27.0,-0.1875,-8.07812,8.53125,-0.0117188,0.0410156,0.0429688,4,0,41.40038360059071,-91.7902956464808,16373.110190339748,-62.44756851493189,5.64332534978367,35.07383110751774,184.1,13817.683391404704,16277.165501477106,150,False,11.301274913759544,False,136.29162698850487,172.58395367607918,False,51.09009942291473,False,False
9,1970-07-23 10:31:14.501138100,2025-09-12,2025-09-26 20:04:10.113,HH,C,1922532334,JASSM,3,101,76,2,2,1,225,9,2,0,1,26,0,0,0,0,-155349.95446951812,-4778979.616182174,4213854.456511021,-2.71083,-1.01109,0.751938,37.0,-59.0,-65.125,0.0,0.0,0.0,0.0,0.0,0.0,2,0,41.57999488039265,-91.86185425458856,14989.501502937996,155.9404714272205,-0.0011096331983449,0.001083379867594,,13817.683391404704,16277.165501477106,150,9,2025-09-12,2025-09-26 20:04:09.914,HH,C,3584924782,HAWK11,1,1,73,2,1,1,225,2,1,0,0,12,1,225,2,1,-149863.27771170562,-4792686.353486861,4199201.169401646,2.93498,2.82233,-0.452524,-79.625,26.25,30.125,-0.109375,-7.60938,8.28125,-0.0234375,0.0117188,0.046875,4,0,41.40062428148647,-91.79100733917645,16378.497843368808,-60.04722240512002,5.597664343151084,34.436432152658035,184.87,13817.683391404704,16277.165501477106,150,False,11.22214090196796,False,139.47480785347847,172.4111012664644,False,48.07883561891956,False,False
9,1970-07-23 10:31:14.513059315,2025-09-12,2025-09-26 20:04:11.305,HH,C,1923844686,JASSM,3,101,76,2,2,1,225,9,2,0,1,26,0,0,0,0,-155309.22009451812,-4779044.645479049,4213782.690886021,-2.71083,-1.01109,0.751938,37.0,-59.0,-65.125,0.0,0.0,0.0,0.0,0.0,0.0,2,0,41.57913168696752,-91.86134109037184,14989.503871516266,155.94081199351265,-0.0001649358538804,0.0010819866396387,,13817.683391404704,16277.165501477106,150,9,2025-09-12,2025-09-26 20:04:11.209,HH,C,3586316614,HAWK11,1,1,73,2,1,1,225,2,1,0,0,12,1,225,2,1,-149954.58435233062,-4792651.701143111,4199238.532682896,2.94352,2.74026,-0.462687,-76.375,30.375,33.875,0.171875,-6.29688,6.65625,0.0,-0.00585938,0.0605469,4,0,41.40106552460731,-91.79211077717544,16381.353307302785,-56.6608464657663,3.005232652277192,33.1011797048192,186.19,13817.683391404704,16277.165501477106,150,False,11.126636422576327,False,143.6163024586508,172.16651650221294,False,44.17745452211088,False,False
9,1970-07-23 10:31:14.524158187,2025-09-12,2025-09-26 20:04:12.415,HH,C,1925216690,JASSM,3,101,76,2,2,1,225,9,2,0,1,26,0,0,0,0,-155266.63415701812,-4779112.627900924,4213707.659636021,-2.71083,-1.01109,0.751938,37.0,-59.0,-65.125,0.0,0.0,0.0,0.0,0.0,0.0,2,0,41.578229247414015,-91.86080461619215,14989.497941820688,155.94116802347446,0.0008227089308418,0.0010805262809898,,13817.683391404704,16277.165501477106,150,9,2025-09-12,2025-09-26 20:04:12.710,HH,C,3588225412,HAWK11,1,1,73,2,1,1,225,2,1,0,0,12,1,225,2,1,-150072.73278983062,-4792592.314424361,4199292.962370396,3.00075,2.64353,-0.488285,-71.75,39.375,36.0,0.0,-6.3125,6.67188,-0.0136719,0.0117188,0.0546875,4,0,41.40176402924316,-91.79354405975704,16362.471281228383,-52.06678045391567,0.696015918535474,33.990144555971675,187.461,13817.683391404704,16277.165501477106,150,False,11.00987738373812,False,149.19392016621234,171.86610362731852,False,38.783616092354826,False,False
9,1970-07-23 10:31:14.535201262,2025-09-12,2025-09-26 20:04:13.520,HH,C,1926588692,JASSM,3,101,76,2,2,1,225,9,2,0,1,26,0,0,0,0,-155224.04821951812,-4779180.610322799,4213632.628386021,-2.71083,-1.01109,0.752034,37.0,-59.0,-65.125,0.0,0.0,0.0,0.0,0.0,0.0,2,0,41.57732680521523,-91.86026815694852,14989.498224025492,155.94381840150953,-0.0031826089285241,0.0010790384236126,,13817.683391404704,16277.165501477106,150,9,2025-09-12,2025-09-26 20:04:13.616,HH,C,3589338878,HAWK11,1,1,73,2,1,1,225,2,1,0,0,12,1,225,2,1,-150138.62146170562,-4792552.233369674,4199326.948698521,3.01667,2.5791,-0.502954,-69.0,44.125,37.625,-0.140625,-6.42188,6.625,-0.0292969,0.0136719,0.0566406,4,0,41.40221948008498,-91.79434598806174,16342.701051059785,-49.07029598870986,-0.8092595933057607,33.14302047956608,188.06,13817.683391404704,16277.165501477106,150,False,10.915123909841656,False,152.26789068974256,171.68184346351055,False,35.78931959072193,False,False
9,1970-07-23 10:31:14.546167481,2025-09-12,2025-09-26 20:04:14.616,HH,C,1927841392,JASSM,3,101,76,2,2,1,225,9,2,0,1,26,0,0,0,0,-155185.16540701812,-4779242.680635299,4213564.120573521,-2.71083,-1.01109,0.752034,37.0,-59.0,-65.125,0.0,0.0,0.0,0.0,0.0,0.0,2,0,41.57650283063017,-91.85977835960972,14989.500230047935,155.94414344326265,-0.0022808430154513,0.0010777396137915,,13817.683391404704,16277.165501477106,150,9,2025-09-12,2025-09-26 20:04:14.616,HH,C,3590611410,HAWK11,1,1,73,2,1,1,225,2,1,0,0,12,1,225,2,1,-150210.96521170562,-4792502.228486861,4199368.017057896,3.02568,2.50911,-0.531045,-66.0,48.5,40.0,-0.125,-7.04688,7.23438,-0.0371094,0.0332031,0.0351562,4,0,41.40278053468293,-91.79522874048553,16314.389031164435,-45.352976849255086,-1.769567294332558,31.59286459171685,188.695,13817.683391404704,16277.165501477106,150,False,10.818506406048211,False,155.50123290714578,171.489566685672,False,32.632398150692666,False,False
9,1970-07-23 10:31:14.557140309,2025-09-12,2025-09-26 20:04:15.714,HH,C,1929153742,JASSM,3,101,76,2,2,1,225,9,2,0,1,26,0,0,0,0,-155144.43103201812,-4779307.704072799,4213492.351042271,-2.71083,-1.01109,0.752034,37.0,-59.0,-65.125,0.0,0.0,0.0,0.0,0.0,0.0,2,0,41.5756396360921,-91.85926525295432,14989.50271275906,155.94448394798715,-0.0013361536590753,0.0010763861091195,,13817.683391404704,16277.165501477106,150,9,2025-09-12,2025-09-26 20:04:15.709,HH,C,3591883942,HAWK11,1,1,73,2,1,1,225,2,1,0,0,12,1,225,2,1,-150279.19763358062,-4792448.229463424,4199412.161589146,3.00238,2.45111,-0.566231,-62.5,52.25,43.25,0.03125,-7.70312,7.875,-0.0566406,0.0332031,0.0488281,4,0,41.40338686421537,-91.79606390200944,16282.615176781384,-41.87482092811052,-1.8846577235264064,28.413272488554497,189.282,13817.683391404704,16277.165501477106,150,False,10.717415266217973,False,159.03269372200933,171.3067223004919,False,29.17992766098567,True,False
9,1970-07-23 10:31:14.567157996,2025-09-12,2025-09-26 20:04:16.715,HH,C,1930406442,JASSM,3,101,76,2,2,1,225,9,2,0,1,26,0,0,0,0,-155105.54821951812,-4779369.770479049,4213423.839323521,-2.71083,-1.01109,0.752034,37.0,-59.0,-65.125,0.0,0.0,0.0,0.0,0.0,0.0,2,0,41.57481565401177,-91.85877548262664,14989.497235598268,155.94480896098435,-0.0004343852218171,0.0010750850070649,,13817.683391404704,16277.165501477106,150,9,2025-09-12,2025-09-26 20:04:16.521,HH,C,3592838340,HAWK11,1,1,73,2,1,1,225,2,1,0,0,12,1,225,2,1,-150328.61950858062,-4792404.896455611,4199448.347136021,2.96432,2.41161,-0.593075,-59.875,54.375,46.0,0.0,-7.90625,8.1875,-0.0722656,0.0351562,0.0429688,4,0,41.40387955438983,-91.79667041590086,16258.35965279458,-39.43882842491354,-1.7413563619725083,24.915573274397104,189.6,13817.683391404704,16277.165501477106,150,False,10.628250614903413,False,161.62047454586303,171.16547162238174,False,26.68605545548649,True,False
9,1970-07-23 10:31:14.578160786,2025-09-12,2025-09-26 20:04:17.816,HH,C,1931659140,JASSM,3,101,76,2,2,1,225,9,2,0,1,26,0,0,0,0,-155066.66638358062,-4779431.834932174,4213355.331511021,-2.71083,-1.01099,0.752034,37.0,-59.0,-65.125,0.0,0.0,0.0,0.0,0.0,0.0,2,0,41.573991707484936,-91.85828573720124,14989.50072792359,155.94148537624292,-0.001209392378906,-0.0026822171868197,,13817.683391404704,16277.165501477106,150,9,2025-09-12,2025-09-26 20:04:17.820,HH,C,3594349472,HAWK11,1,1,73,2,1,1,225,2,1,0,0,12,1,225,2,1,-150401.52185233062,-4792334.239229049,4199509.354948521,2.89989,2.36319,-0.631712,-56.125,56.75,50.25,-0.078125,-8.03125,8.34375,-0.0683594,0.015625,0.0195312,4,0,41.40469787682108,-91.79756763067864,16222.573051073718,-36.31657281625228,-1.1874677300079632,19.54926059661629,189.954,13817.683391404704,16277.165501477106,150,False,10.51690061107676,False,165.27099284825104,170.9815792914879,False,23.197945831135932,True,False
9,1970-07-23 10:31:14.589137771,2025-09-12,2025-09-26 20:04:18.913,HH,C,1932971492,JASSM,3,101,76,2,2,1,225,9,2,0,1,26,0,0,0,0,-155025.93103201812,-4779496.856416549,4213283.554167271,-2.71074,-1.01099,0.752034,37.0,-59.0,-65.125,0.0,0.0,0.0,0.0,0.0,0.0,2,0,41.573128465168296,-91.85777265935582,14989.49786642878,155.94182584500197,-0.000264662160937,0.0028078320433663,,13817.683391404704,16277.165501477106,150,9,2025-09-12,2025-09-26 20:04:19.115,HH,C,3595940138,HAWK11,1,1,73,2,1,1,225,2,1,0,0,12,1,225,2,1,-150473.84021170562,-4792257.644502486,4199579.878386021,2.82396,2.34229,-0.690771,-52.625,57.5,55.125,-0.15625,-9.0625,9.40625,-0.0605469,0.0371094,0.0136719,4,0,41.40561583088056,-91.79846012264102,16192.79272940083,-33.680554867575765,1.1356859810756423,14.461781119086908,190.076,13817.683391404704,16277.165501477106,150,False,10.397392468001142,False,168.8056398841374,170.80017574493976,False,20.00670491281134,True,False
9,1970-07-23 10:31:14.599146754,2025-09-12,2025-09-26 20:04:19.914,HH,C,1934224190,JASSM,3,101,76,2,2,1,225,9,2,0,1,26,0,0,0,0,-154987.04821951812,-4779558.920869674,4213215.042448521,-2.71074,-1.01099,0.75213,37.0,-59.0,-65.125,0.0,0.0,0.0,0.0,0.0,0.0,2,0,41.57230448802468,-91.85728292772404,14989.50338023137,155.9444440824215,-0.0043526132937884,0.0028064033339339,,13817.683391404704,16277.165501477106,150,9,2025-09-12,2025-09-26 20:04:19.914,HH,C,3596934302,HAWK11,1,1,73,2,1,1,225,2,1,0,0,12,1,225,2,1,-150516.57068045562,-4792209.925752486,4199627.409636021,2.78791,2.32858,-0.711384,-50.5,57.375,57.75,0.03125,-8.34375,8.5625,-0.0449219,0.0175781,0.0234375,4,0,41.40621241003887,-91.79898840235018,16181.86484790151,-32.54064704443808,1.811511175575738,11.91895666217648,190.223,13817.683391404704,16277.165501477106,150,False,10.303332781605432,False,170.7202866468104,170.6761277891766,False,18.353531758809627,True,False
9,1970-07-23 10:31:14.610158029,2025-09-12,2025-09-26 20:04:21.015,HH,C,1935536542,JASSM,3,101,76,2,2,1,225,9,2,0,1,26,0,0,0,0,-154946.31286795562,-4779623.938447799,4213143.265104771,-2.71074,-1.01099,0.75213,37.0,-59.0,-65.125,0.0,0.0,0.0,0.0,0.0,0.0,2,0,41.57144126428877,-91.856769878097,14989.502044953697,155.9447845212278,-0.0034079044891436,0.0028050267077424,,13817.683391404704,16277.165501477106,150,9,2025-09-12,2025-09-26 20:04:21.115,HH,C,3598326134,HAWK11,1,1,73,2,1,1,225,2,1,0,0,12,1,225,2,1,-150574.15075858062,-4792142.410127486,4199697.102995396,2.77756,2.30183,-0.730271,-48.25,57.25,60.625,0.015625,-7.6875,8.01562,-0.0253906,0.0078125,0.0234375,4,0,41.407073509695714,-91.7997014910895,16171.487809998924,-30.99197349033125,2.1280580304889685,10.367348802891108,190.382,13817.683391404704,16277.165501477106,150,False,10.189332074434846,False,172.70035685180764,170.52440489601372,False,16.67326564257215,True,False
9,1970-07-23 10:31:14.621176538,2025-09-12,2025-09-26 20:04:22.117,HH,C,1936848892,JASSM,3,101,76,2,2,1,225,9,2,0,1,26,0,0,0,0,-154905.57849295562,-4779688.954072799,4213071.487761021,-2.71074,-1.01099,0.75213,37.0,-59.0,-65.125,0.0,0.0,0.0,0.0,0.0,0.0,2,0,41.57057804959924,-91.85625685458211,14989.50167937902,155.9451249369022,-0.0024632098093273,0.0028036462268034,,13817.683391404704,16277.165501477106,150,9,2025-09-12,2025-09-26 20:04:22.210,HH,C,3599638434,HAWK11,1,1,73,2,1,1,225,2,1,0,0,12,1,225,2,1,-150625.74646170562,-4792078.800752486,4199764.069792271,2.76596,2.2794,-0.741104,-46.5,57.875,62.25,-0.015625,-7.17188,7.51562,-0.0273438,0.0078125,0.00976562,4,0,41.40789409203442,-91.8003416520598,16164.345383164176,-29.85521324412328,2.1739150917844494,8.882696401243939,190.186,13817.683391404704,16277.165501477106,150,True,10.078573948328621,False,174.11365283800055,170.38355811051363,False,15.436569499652414,True,False
9,1970-07-23 10:31:14.632156829,2025-09-12,2025-09-26 20:04:23.215,HH,C,1938101590,JASSM,3,101,76,2,2,1,225,9,2,0,1,26,0,0,0,0,-154866.69568045562,-4779751.014619674,4213002.972136021,-2.71074,-1.01099,0.75213,37.0,-59.0,-65.125,0.0,0.0,0.0,0.0,0.0,0.0,2,0,41.569754062649416,-91.85576716299074,14989.505135086987,155.9454498653126,-0.0015614492188663,0.0028023256545205,,13817.683391404704,16277.165501477106,150,9,2025-09-12,2025-09-26 20:04:23.115,HH,C,3600751898,HAWK11,1,1,73,2,1,1,225,2,1,0,0,12,1,225,2,1,-150668.44372733062,-4792023.328096236,4199822.813932896,2.73998,2.2655,-0.756924,-45.25,58.375,63.5,0.0,-7.32812,7.85938,-0.0585938,0.0117188,0.015625,4,0,41.40861245338618,-91.8008724845739,16158.689032811368,-28.89502763220093,2.6654288763497167,6.892213073337856,190.663,13817.683391404704,16277.165501477106,150,True,9.977570889353576,False,175.13680376674847,170.26067507321395,False,14.563507297321957,True,False
9,1970-07-23 10:31:14.643159827,2025-09-12,2025-09-26 20:04:24.315,HH,C,1939413942,JASSM,3,101,76,2,2,1,225,9,2,0,1,26,0,0,0,0,-154825.96032889312,-4779816.028291549,4212931.190886021,-2.71074,-1.01099,0.75213,37.0,-59.0,-65.125,0.0,0.0,0.0,0.0,0.0,0.0,2,0,41.568890828781086,-91.85525415523608,14989.50250519756,155.94579025918284,-0.0006167377299654,0.0028009467128419,,13817.683391404704,16277.165501477106,150,9,2025-09-12,2025-09-26 20:04:24.615,HH,C,3602541398,HAWK11,1,1,73,2,1,1,225,2,1,0,0,12,1,225,2,1,-150734.59216483062,-4791935.055635299,4199919.313932896,2.744,2.24814,-0.775523,-43.625,58.375,65.375,0.078125,-7.3125,7.625,0.138672,0.00390625,0.0195312,4,0,41.40977628761722,-91.80169577291782,16156.11552308953,-27.744897453521187,3.2397146170465527,6.492712317942673,190.076,13817.683391404704,16277.165501477106,150,True,9.844947785739853,False,176.3521721651925,170.09595026467238,False,13.551153849396087,True,False
9,1970-07-23 10:31:14.653156441,2025-09-12,2025-09-26 20:04:25.315,HH,C,1940666642,JASSM,3,101,76,2,2,1,225,9,2,0,1,26,0,0,0,0,-154787.07751639312,-4779878.084932174,4212862.671354771,-2.71074,-1.01099,0.75213,37.0,-59.0,-65.125,0.0,0.0,0.0,0.0,0.0,0.0,2,0,41.56806683433207,-91.85476449064149,14989.498477856734,155.94611515884935,0.0002850253910412,0.0027996238482419,,13817.683391404704,16277.165501477106,150,9,2025-09-12,2025-09-26 20:04:25.413,HH,C,3603495796,HAWK11,1,1,73,2,1,1,225,2,1,0,0,12,1,225,2,1,-150768.69568045562,-4791887.899385299,4199971.852995396,2.8718,2.23722,-0.789617,-42.25,58.625,66.5,-0.0625,-7.23438,7.75,0.138672,0.015625,0.0117188,4,0,41.41040491463552,-91.80212085814352,16156.792886098196,-26.963228296507552,3.730354109528671,13.42106434485052,189.722,13817.683391404704,16277.165501477106,150,False,9.750426470312943,False,177.25856047969498,169.9860252792375,False,12.720361877426765,True,False
9,1970-07-23 10:31:14.664136554,2025-09-12,2025-09-26 20:04:26.413,HH,C,1941919340,JASSM,3,101,76,2,2,1,225,9,2,0,1,26,0,0,0,0,-154748.19372733062,-4779940.141572799,4212794.151823521,-2.71074,-1.01099,0.75213,37.0,-59.0,-65.125,0.0,0.0,0.0,0.0,0.0,0.0,2,0,41.56724283786801,-91.8542748267967,14989.499551487144,155.94644005272897,0.0011867920354257,0.0027983090302575,,13817.683391404704,16277.165501477106,150,9,2025-09-12,2025-09-26 20:04:26.523,HH,C,3604768328,HAWK11,1,1,73,2,1,1,225,2,1,0,0,12,1,225,2,1,-150811.97888358062,-4791824.630830611,4200042.778776646,3.03757,2.17643,-0.808983,-39.25,59.625,68.0,0.0,-7.04688,7.4375,0.0917969,0.0136719,0.0585938,4,0,41.411251727335184,-91.80266166130778,16158.459748559131,-24.2928570702143,3.5839818239443684,20.592035060627506,189.062,13817.683391404704,16277.165501477106,150,False,9.641984593447946,False,178.93982217463568,169.86236393853181,False,10.86176013953354,True,False
9,1970-07-23 10:31:14.675141759,2025-09-12,2025-09-26 20:04:27.514,HH,C,1943231692,JASSM,3,101,76,2,2,1,225,9,2,0,1,26,0,0,0,0,-154707.45837576812,-4780005.151338424,4212722.370573521,-2.71074,-1.01099,0.752226,37.0,-59.0,-65.125,0.0,0.0,0.0,0.0,0.0,0.0,2,0,41.56637962027119,-91.85376186028589,14989.503871944038,155.94907509551686,-0.0028613294855982,0.0027969238765279,,13817.683391404704,16277.165501477106,150,9,2025-09-12,2025-09-26 20:04:27.413,HH,C,3605722728,HAWK11,1,1,73,2,1,1,225,2,1,0,0,12,1,225,2,1,-150842.54333670562,-4791775.587861861,4200097.792448521,3.12702,2.11574,-0.820104,-36.375,60.625,69.125,-0.046875,-7.1875,7.59375,0.0214844,0.015625,0.0449219,4,0,41.41190893346608,-91.80304519980466,16159.600764256478,-21.86016954581791,3.138399164183219,23.330082620337564,187.986,13817.683391404704,16277.165501477106,150,False,9.543784087899732,False,178.48704014746625,169.75830476309335,False,9.116593679491626,True,False
9,1970-07-23 10:31:14.685838779,2025-09-12,2025-09-26 20:04:28.583,HH,C,1944484404,JASSM,3,101,76,2,2,1,225,9,2,0,1,26,0,0,0,0,-154668.57458670562,-4780067.206025924,4212653.847136021,-2.71074,-1.01089,0.752226,37.0,-59.0,-65.125,0.0,0.0,0.0,0.0,0.0,0.0,2,0,41.56555560465328,-91.85327222267615,14989.502254388228,155.94575668151427,-0.0036341431028203,-0.0009563181338696,,13817.683391404704,16277.165501477106,150,9,2025-09-12,2025-09-26 20:04:28.413,HH,C,3606995260,HAWK11,1,1,73,2,1,1,225,2,1,0,0,12,1,225,2,1,-150878.80700858062,-4791709.594697799,4200171.448698521,-3.11753,2.04633,-0.838129,-32.125,62.125,70.625,0.0625,-7.3125,7.76562,-0.0429688,0.0195312,0.0273438,4,0,41.41279168688051,-91.80350320084617,16159.959019111018,-18.979793926549053,3.051053323378154,22.766306280797405,186.324,13817.683391404704,16277.165501477106,150,False,9.434208044600847,False,175.947046087005,169.6544709905163,False,6.53916153848067,True,False
9,1970-07-23 10:31:14.697156762,2025-09-12,2025-09-26 20:04:29.715,HH,C,1945856394,JASSM,3,101,76,2,2,1,225,9,2,0,1,26,0,0,0,0,-154625.98864920562,-4780135.166963424,4212578.800261021,-2.71074,-1.01089,0.752226,37.0,-59.0,-65.125,0.0,0.0,0.0,0.0,0.0,0.0,2,0,41.56465314834982,-91.85273598143657,14989.50305078211,155.9461124619172,-0.0026465195585887,-0.0009577822142287,,13817.683391404704,16277.165501477106,150,9,2025-09-12,2025-09-26 20:04:29.731,HH,C,3608585924,HAWK11,1,1,73,2,1,1,225,2,1,0,0,12,1,225,2,1,-150918.15857108062,-4791624.987275924,4200266.421354771,3.11791,1.98325,-0.858358,-27.125,63.375,72.375,-0.015625,-7.4375,7.84375,-0.0683594,0.0136719,0.015625,4,0,41.413928415821545,-91.8040051043894,16161.0469641078,-16.333339591690155,3.3186818211691724,17.465964214234642,185.078,13817.683391404704,16277.165501477106,150,False,9.304322019680988,False,172.8546202267484,169.55236982307807,False,3.7658442299600785,True,False
9,1970-07-23 10:31:14.708157918,2025-09-12,2025-09-26 20:04:30.815,HH,C,1947168744,JASSM,3,101,76,2,2,1,225,9,2,0,1,26,0,0,0,0,-154585.25329764312,-4780200.172822799,4212507.011198521,-2.71074,-1.01089,0.752226,37.0,-59.0,-65.125,0.0,0.0,0.0,0.0,0.0,0.0,2,0,41.5637898942128,-91.85222305740308,14989.497831950286,155.946452766098,-0.0017018027259895,-0.0009591880229851,,13817.683391404704,16277.165501477106,150,9,2025-09-12,2025-09-26 20:04:30.914,HH,C,3609977756,HAWK11,1,1,73,2,1,1,225,2,1,0,0,12,1,225,2,1,-150947.78747733062,-4791550.354463424,4200351.604948521,3.0693,1.93886,-0.874657,-23.875,63.5,74.0,0.046875,-7.42188,7.875,-0.0703125,0.015625,0.0273438,4,0,41.414941580025406,-91.80438712636264,16164.675168647796,-14.476060826813418,3.701742690433244,12.856284421429452,183.184,13817.683391404704,16277.165501477106,150,False,9.185462131645828,False,170.80767083778898,169.47204054800827,False,2.739719595732339,True,False
9,1970-07-23 10:31:14.718156992,2025-09-12,2025-09-26 20:04:31.815,HH,C,1948421444,JASSM,3,101,76,2,2,1,225,9,2,0,1,26,0,0,0,0,-154546.37048514312,-4780262.223604049,4212438.487761021,-2.71074,-1.01089,0.752226,37.0,-59.0,-65.125,0.0,0.0,0.0,0.0,0.0,0.0,2,0,41.56296589478804,-91.85173347209926,14989.502983505665,155.94677758056795,-0.0008000474381121,-0.0009605302526033,,13817.683391404704,16277.165501477106,150,9,2025-09-12,2025-09-26 20:04:31.819,HH,C,3610892388,HAWK11,1,1,73,2,1,1,225,2,1,0,0,12,1,225,2,1,-150965.43005545562,-4791500.590791549,4200409.093229771,3.03479,1.91805,-0.881751,-22.0,63.75,74.875,0.046875,-7.51562,7.84375,-0.0703125,0.00390625,0.0136719,4,0,41.41562218537812,-91.80461661115046,16168.431125401356,-13.628918021483903,3.8750157967642713,10.017335993828258,181.632,13817.683391404704,16277.165501477106,150,False,9.090152681160523,False,169.64057028282346,169.40570349878152,False,2.601254089395778,True,False
9,1970-07-23 10:31:14.730235723,2025-09-12,2025-09-26 20:04:33.023,HH,C,1949733794,JASSM,3,101,76,2,2,1,225,9,2,0,1,26,0,0,0,0,-154505.63513358062,-4780327.227510299,4212366.698698521,-2.71074,-1.01089,0.752226,37.0,-59.0,-65.125,0.0,0.0,0.0,0.0,0.0,0.0,2,0,41.56210264757786,-91.85122057550704,14989.504081329682,155.9471178551962,0.0001446588011662,-0.0009619318701909,,13817.683391404704,16277.165501477106,150,9,2025-09-12,2025-09-26 20:04:33.021,HH,C,3612483054,HAWK11,1,1,73,2,1,1,225,2,1,0,0,12,1,225,2,1,-150992.93982108062,-4791415.454072799,4200509.108854771,2.9624,1.8938,-0.896516,-19.875,63.375,76.25,-0.09375,-7.39062,7.78125,-0.0644531,0.0117188,0.00585938,4,0,41.41679830202844,-91.80497729111514,16178.267375250532,-12.55507443842581,4.4548127172768135,4.8687586835125325,180.471,13817.683391404704,16277.165501477106,150,True,8.962035499213545,False,168.26795344578724,169.3410278211609,False,3.3921154413706964,True,False
9,1970-07-23 10:31:14.740157584,2025-09-12,2025-09-26 20:04:34.015,HH,C,1951046144,JASSM,3,101,76,2,2,1,225,9,2,0,1,26,0,0,0,0,-154464.89978201812,-4780392.229463424,4212294.907682896,-2.71074,-1.01089,0.752322,37.0,-59.0,-65.125,0.0,0.0,0.0,0.0,0.0,0.0,2,0,41.56123939645362,-91.85070769332243,14989.50181934324,155.9497517089385,-0.0039001917904288,-0.0009633908951629,,13817.683391404704,16277.165501477106,150,9,2025-09-12,2025-09-26 20:04:33.914,HH,C,3613397686,HAWK11,1,1,73,2,1,1,225,2,1,0,0,12,1,225,2,1,-151007.68786795562,-4791366.411104049,4200567.796354771,2.91658,1.8868,-0.906199,-19.125,63.0,76.875,0.0,-7.375,7.78125,-0.0625,0.015625,0.00976562,4,0,41.417483251549584,-91.80517193815894,16186.182609252754,-12.17000835231487,4.9270524026118,1.9600702483877928,179.725,13817.683391404704,16277.165501477106,150,True,8.86432333520507,False,167.7544240833226,169.2782284342584,False,3.8973394541682596,True,False
9,1970-07-23 10:31:14.751837528,2025-09-12,2025-09-26 20:04:35.183,HH,C,1952298844,JASSM,3,101,76,2,2,1,225,9,2,0,1,26,0,0,0,0,-154426.01599295562,-4780454.276338424,4212226.378386021,-2.71064,-1.01089,0.752322,37.0,-59.0,-65.125,0.0,0.0,0.0,0.0,0.0,0.0,2,0,41.56041537425785,-91.85021813633904,14989.50058446691,155.95007648836273,-0.0029984183760861,0.0045267754606779,,13817.683391404704,16277.165501477106,150,9,2025-09-12,2025-09-26 20:04:35.209,HH,C,3614908818,HAWK11,1,1,73,2,1,1,225,2,1,0,0,12,1,225,2,1,-151031.28161795562,-4791285.860322799,4200665.913542271,2.84803,1.88823,-0.908213,-18.625,62.625,77.5,-0.078125,-6.875,7.35938,-0.0214844,-0.00585938,-0.00585938,4,0,41.4186200081429,-91.80548412834317,16202.886602769107,-12.189705012537486,5.052736642550684,-1.9043328824925752,178.063,13817.683391404704,16277.165501477106,150,True,8.7415563197898,False,167.37043811684222,169.22265890008157,False,4.380533320955008,True,False
9,1970-07-23 10:31:14.761159852,2025-09-12,2025-09-26 20:04:36.115,HH,C,1953551544,JASSM,3,101,76,2,2,1,225,9,2,0,1,26,0,0,0,0,-154387.13220389312,-4780516.321260299,4212157.849089146,-2.71064,-1.01089,0.752322,37.0,-59.0,-65.125,0.0,0.0,0.0,0.0,0.0,0.0,2,0,41.55959136151131,-91.84972859254864,14989.499735930574,155.95040125374564,-0.0020966557028408,0.004525473936805,,13817.683391404704,16277.165501477106,150,9,2025-09-12,2025-09-26 20:04:36.116,HH,C,3616260882,HAWK11,1,1,73,2,1,1,225,2,1,0,0,12,1,225,2,1,-151052.35583670562,-4791214.090791549,4200752.890104771,2.8324,1.88766,-0.899488,-18.75,62.125,78.125,-0.015625,-6.39062,6.6875,-0.00585938,0.00976562,0.0,4,0,41.41962983078949,-91.80576292155774,16216.816396179482,-12.299093334093138,4.56545255328096,-2.8347751556394023,177.135,13817.683391404704,16277.165501477106,150,True,8.626554124262666,False,167.3080484880523,169.16406353095203,False,4.793201703980672,True,False
9,1970-07-23 10:31:14.772157434,2025-09-12,2025-09-26 20:04:37.215,HH,C,1954863894,JASSM,3,101,76,2,2,1,225,9,2,0,1,26,0,0,0,0,-154346.39685233062,-4780581.319307174,4212086.056120396,-2.71064,-1.01089,0.752322,37.0,-59.0,-65.125,0.0,0.0,0.0,0.0,0.0,0.0,2,0,41.55872811350933,-91.84921575158462,14989.500172133605,155.95074146889797,-0.0011519574500164,0.0045241120331119,,13817.683391404704,16277.165501477106,150,9,2025-09-12,2025-09-26 20:04:37.021,HH,C,3617294814,HAWK11,1,1,73,2,1,1,225,2,1,0,0,12,1,225,2,1,-151068.42028983062,-4791158.748994674,4200818.894011021,2.8348,1.89159,-0.900543,-18.75,63.25,76.875,0.09375,-6.59375,7.03125,0.0371094,0.00195312,-0.0136719,4,0,41.42040136373022,-91.80597568413845,16225.238261434712,-12.419269532294203,4.660763107516322,-2.530688631249605,176.035,13817.683391404704,16277.165501477106,150,True,8.523626437054645,False,167.55708190180562,169.0991070055484,False,3.898534712137349,True,False
9,1970-07-23 10:31:14.783156644,2025-09-12,2025-09-26 20:04:38.315,HH,C,1956176246,JASSM,3,101,76,2,2,1,225,9,2,0,1,26,0,0,0,0,-154305.66150076812,-4780646.317354049,4212014.261198521,-2.71064,-1.01089,0.752322,37.0,-59.0,-65.125,0.0,0.0,0.0,0.0,0.0,0.0,2,0,41.55786484994101,-91.84870292426946,14989.502040889854,155.95108166919175,-0.0002072470471596,0.0045227447494803,,13817.683391404704,16277.165501477106,150,9,2025-09-12,2025-09-26 20:04:38.413,HH,C,3618885480,HAWK11,1,1,73,2,1,1,225,2,1,0,0,12,1,225,2,1,-151093.02771170562,-4791073.980439986,4200920.302214146,2.97439,1.87673,-0.896516,-18.25,63.625,76.875,0.015625,-6.39062,6.76562,0.0898438,0.00195312,0.0,4,0,41.42158521889952,-91.8063016005001,16238.814985880805,-11.963954186373966,4.30400626524501,4.836762742351006,175.057,13817.683391404704,16277.165501477106,150,True,8.395461124623433,False,167.29239054712556,169.03574776577727,False,3.870232336928632,True,False
9,1970-07-23 10:31:14.794153811,2025-09-12,2025-09-26 20:04:39.415,HH,C,1957488596,JASSM,3,101,76,2,2,1,225,9,2,0,1,26,0,0,0,0,-154264.92614920562,-4780711.313447799,4211942.464323521,-2.71064,-1.01089,0.752322,37.0,-59.0,-65.125,0.0,0.0,0.0,0.0,0.0,0.0,2,0,41.55700158245754,-91.84819011135724,14989.500549908977,155.95142185412672,0.0007374646358776,0.0045213763182764,,13817.683391404704,16277.165501477106,150,9,2025-09-12,2025-09-26 20:04:39.709,HH,C,3620515912,HAWK11,1,1,73,2,1,1,225,2,1,0,0,12,1,225,2,1,-151117.03747733062,-4790985.323213424,4201024.892057896,3.11609,1.83339,-0.901022,-16.25,64.625,76.625,0.03125,-6.46875,6.89062,0.0546875,0.00390625,0.0273438,4,0,41.42281378376926,-91.8066218533659,16249.698958351792,-10.396590163930416,4.195314702437288,11.128672568414846,174.422,13817.683391404704,16277.165501477106,150,False,8.264748813725122,False,166.23665711047136,168.97655856511057,False,4.0508636792901935,True,False
9,1970-07-23 10:31:14.806236248,2025-09-12,2025-09-26 20:04:40.623,HH,C,1958800948,JASSM,3,101,76,2,2,1,225,9,2,0,1,26,0,0,0,0,-154224.19079764312,-4780776.307588424,4211870.667448521,-2.71064,-1.0108,0.752322,37.0,-59.0,-65.125,0.0,0.0,0.0,0.0,0.0,0.0,2,0,41.55613832420829,-91.84767731284684,14989.499949902554,155.9481191808316,7.482536551704426e-06,0.0007674394668511,,13817.683391404704,16277.165501477106,150,9,2025-09-12,2025-09-26 20:04:40.819,HH,C,3621748676,HAWK11,1,1,73,2,1,1,225,2,1,0,0,12,1,225,2,1,-151132.86560233062,-4790917.687471236,4201103.595182896,-3.09327,1.77731,-0.902268,-14.0,65.5,76.5,0.0625,-6.65625,6.95312,0.0195312,0.00195312,0.0371094,4,0,41.42374417324095,-91.80683644576376,16255.455382456465,-8.423814513154813,3.8722639444512543,12.97643912763666,173.689,13817.683391404704,16277.165501477106,150,False,8.152543959368368,False,165.0013663132965,168.92082182065732,False,4.721432379683582,True,False
9,1970-07-23 10:31:14.817158767,2025-09-12,2025-09-26 20:04:41.715,HH,C,1960172950,JASSM,3,101,76,2,2,1,225,9,2,0,1,26,0,0,0,0,-154181.60388358062,-4780844.254854049,4211795.606901646,-2.71064,-1.0108,0.752418,37.0,-59.0,-65.125,0.0,0.0,0.0,0.0,0.0,0.0,2,0,41.555235830044495,-91.8471412208814,14989.502184511532,155.95077014483903,-0.0039973913420686,0.0007658919299616,,13817.683391404704,16277.165501477106,150,9,2025-09-12,2025-09-26 20:04:41.820,HH,C,3623021208,HAWK11,1,1,73,2,1,1,225,2,1,0,0,12,1,225,2,1,-151146.57849295562,-4790847.142549361,4201185.274870396,-3.07688,1.74653,-0.902556,-11.625,66.0,76.875,-0.09375,-6.64062,7.0,-0.0351562,0.0175781,0.0136719,4,0,41.42471234793263,-91.8070268689173,16260.36147876143,-7.341258604142613,3.70816029378814,12.603431991567044,173.163,13817.683391404704,16277.165501477106,150,False,8.035851269645702,False,163.64555242851094,168.87115417320774,False,5.838001120692259,True,False
9,1970-07-23 10:31:14.828155375,2025-09-12,2025-09-26 20:04:42.815,HH,C,1961485300,JASSM,3,101,76,2,2,1,225,9,2,0,1,26,0,0,0,0,-154140.86755545562,-4780909.247041549,4211723.806120396,-2.71064,-1.0108,0.752418,37.0,-59.0,-65.125,0.0,0.0,0.0,0.0,0.0,0.0,2,0,41.5543725523908,-91.84662843934645,14989.49983859606,155.95111029144385,-0.0030526735867609,0.0007645070293429,,13817.683391404704,16277.165501477106,150,9,2025-09-12,2025-09-26 20:04:42.819,HH,C,3624214208,HAWK11,1,1,73,2,1,1,225,2,1,0,0,12,1,225,2,1,-151157.05505545562,-4790780.511689986,4201262.237761021,-3.09797,1.71624,-0.908596,-9.375,66.375,77.25,-0.078125,-7.0,7.42188,-0.0410156,0.00390625,0.0273438,4,0,41.42562602137359,-91.80717715545376,16264.407455833374,-6.228951916397709,3.897815020540128,10.102943367503835,172.65,13817.683391404704,16277.165501477106,150,False,7.925280954633502,False,162.36584285240133,168.83121605621895,False,6.9776529913708885,True,False
9,1970-07-23 10:31:14.838159282,2025-09-12,2025-09-26 20:04:43.815,HH,C,1962738000,JASSM,3,101,76,2,2,1,225,9,2,0,1,26,0,0,0,0,-154101.98376639312,-4780971.284150924,4211655.269011021,-2.71064,-1.0108,0.752418,37.0,-59.0,-65.125,0.0,0.0,0.0,0.0,0.0,0.0,2,0,41.55354851750113,-91.8461389897632,14989.500792972563,155.95143495570397,-0.0021509054406714,0.0007631796500792,,13817.683391404704,16277.165501477106,150,9,2025-09-12,2025-09-26 20:04:43.911,HH,C,3625486740,HAWK11,1,1,73,2,1,1,225,2,1,0,0,12,1,225,2,1,-151166.11950858062,-4790709.734346236,4201344.567839146,-3.10737,1.68191,-0.908884,-7.5,66.625,77.875,-0.234375,-7.01562,7.35938,-0.0351562,-0.00390625,0.00585938,4,0,41.42660083746818,-91.80731213769477,16269.805129902825,-5.0241658649110095,3.770580793888304,8.094054866434925,172.088,13817.683391404704,16277.165501477106,150,True,7.813819513105233,False,161.28588816115757,168.80434084363324,False,8.010501406258225,True,False
9,1970-07-23 10:31:14.849154293,2025-09-12,2025-09-26 20:04:44.915,HH,C,1963990700,JASSM,3,101,76,2,2,1,225,9,2,0,1,26,0,0,0,0,-154063.09997733062,-4781033.319307174,4211586.731901646,-2.71064,-1.0108,0.752418,37.0,-58.875,-65.125,0.0,0.0,0.0,0.0,0.0,0.0,2,0,41.55272449206029,-91.84564955336576,14989.502133102404,155.95175960592906,-0.0012491480340572,0.0007618564840292,,13817.683391404704,16277.165501477106,150,9,2025-09-12,2025-09-26 20:04:44.819,HH,C,3626520672,HAWK11,1,1,73,2,1,1,225,2,1,0,0,12,1,225,2,1,-151172.01599295562,-4790651.819307174,4201412.263151646,-3.13201,1.67003,-0.911472,-6.25,66.5,78.375,0.171875,-7.10938,7.35938,-0.0371094,0.015625,0.00585938,4,0,41.42740099194351,-91.80740442341224,16274.81832992672,-4.592314769852257,3.876112921331083,6.173260475739896,171.611,13817.683391404704,16277.165501477106,150,True,7.713003404635346,False,160.54847393595762,168.74803542729737,False,8.735968085030162,True,False
9,1970-07-23 10:31:14.861061683,2025-09-12,2025-09-26 20:04:46.106,HH,C,1965243398,JASSM,3,101,76,2,2,1,225,9,2,0,1,26,0,0,0,0,-154024.21618826812,-4781095.354463424,4211518.192839146,-2.71064,-1.0108,0.752418,37.0,-58.875,-65.125,0.0,0.0,0.0,0.0,0.0,0.0,2,0,41.55190045126752,-91.84516012939984,14989.504401349606,155.95208424261978,-0.0003473784889015,0.0007605279396552,,13817.683391404704,16277.165501477106,150,9,2025-09-12,2025-09-26 20:04:46.021,HH,C,3628031804,HAWK11,1,1,73,2,1,1,225,2,1,0,0,12,1,225,2,1,-151179.14685233062,-4790566.828096236,4201512.411589146,3.11168,1.65315,-0.913581,-4.875,66.5,79.0,-0.140625,-6.96875,7.4375,-0.0410156,0.0078125,0.00195312,4,0,41.42858094288592,-91.8075216690962,16283.811124351743,-3.9909724934241697,3.943389460835962,3.1863042830389405,170.34,13817.683391404704,16277.165501477106,150,True,7.589721930176212,False,159.75462806998425,168.7447085516322,False,9.555847138352728,True,False
9,1970-07-23 10:31:14.870134092,2025-09-12,2025-09-26 20:04:47.013,HH,C,1966496098,JASSM,3,101,76,2,2,1,225,9,2,0,1,26,0,0,0,0,-153985.33142264312,-4781157.387666549,4211449.651823521,-2.71064,-1.0108,0.752418,37.0,-58.875,-65.125,0.0,0.0,0.0,0.0,0.0,0.0,2,0,41.55107640696021,-91.8446707069274,14989.502727776942,155.95240887303132,0.0005543957204101,0.0007592063155411,,13817.683391404704,16277.165501477106,150,9,2025-09-12,2025-09-26 20:04:46.913,HH,C,3629065736,HAWK11,1,1,73,2,1,1,225,2,1,0,0,12,1,225,2,1,-151182.99646170562,-4790509.151338424,4201581.067839146,3.09193,1.63532,-0.918375,-4.375,66.25,79.5,-0.1875,-7.07812,7.5,-0.0214844,0.00390625,0.0,4,0,41.42938654458893,-91.80758941340912,16291.347625288943,-3.34746259073105,4.168982537628995,1.2898380611834983,170.035,13817.683391404704,16277.165501477106,150,True,7.488832535715052,False,159.44558194855145,168.7206181141984,False,9.911518162911559,True,False
9,1970-07-23 10:31:14.881162484,2025-09-12,2025-09-26 20:04:48.116,HH,C,1967808448,JASSM,3,101,76,2,2,1,225,9,2,0,1,26,0,0,0,0,-153944.59607108062,-4781222.372041549,4211377.847136021,-2.71064,-1.0108,0.752513,37.0,-58.875,-65.125,0.0,0.0,0.0,0.0,0.0,0.0,2,0,41.55021313777618,-91.8441580058349,14989.500171064174,155.95504286111918,-0.0034903158589243,0.0007577795980956,,13817.683391404704,16277.165501477106,150,9,2025-09-12,2025-09-26 20:04:48.115,HH,C,3630417802,HAWK11,1,1,73,2,1,1,225,2,1,0,0,12,1,225,2,1,-151187.61755545562,-4790434.109346236,4201671.280729771,3.05435,1.63426,-0.923936,-4.0,66.0,79.875,-0.015625,-7.01562,7.5,-0.0449219,0.00976562,0.0,4,0,41.43044074199932,-91.80767292584808,16303.052201323178,-3.2880361107635365,4.485200294736145,-0.9071169565631332,169.24,13817.683391404704,16277.165501477106,150,True,7.370716880012389,False,159.21043116361795,168.71084057068157,False,10.20590812591545,True,False
9,1970-07-23 10:31:14.892673594,2025-09-12,2025-09-26 20:04:49.267,HH,C,1969061148,JASSM,3,101,76,2,2,1,225,9,2,0,1,26,0,0,0,0,-153905.71130545562,-4781284.403291549,4211309.304167271,-2.71064,-1.0108,0.752513,37.0,-58.875,-65.125,0.0,0.0,0.0,0.0,0.0,0.0,2,0,41.54938908745999,-91.84366860956727,14989.500058058808,155.9553674634341,-0.0025885401904553,0.0007564929118877,,13817.683391404704,16277.165501477106,150,9,2025-09-12,2025-09-26 20:04:49.411,HH,C,3632008466,HAWK11,1,1,73,2,1,1,225,2,1,0,0,12,1,225,2,1,-151192.57458670562,-4790347.055635299,4201777.392057896,3.00344,1.64021,-0.932564,-4.125,65.375,80.5,-0.140625,-6.96875,7.35938,-0.0175781,-0.00585938,-0.0117188,4,0,41.43167359252087,-91.80776498484884,16319.77398855538,-3.4558121288457757,4.994500240175344,-3.565182068290006,168.971,13817.683391404704,16277.165501477106,150,True,7.244591650926353,False,159.2155636601756,168.7189648138265,False,10.373883586075607,True,False
9,1970-07-23 10:31:14.902192950,2025-09-12,2025-09-26 20:04:50.219,HH,C,1970373498,JASSM,3,101,76,2,2,1,225,9,2,0,1,26,0,0,0,0,-153864.97595389312,-4781349.387666549,4211237.497526646,-2.71064,-1.0108,0.752513,37.0,-58.875,-65.125,0.0,0.0,0.0,0.0,0.0,0.0,2,0,41.54852580040319,-91.843155935137,14989.504359773142,155.95570749980652,-0.0016438322573383,0.0007551384775284,,13817.683391404704,16277.165501477106,150,9,2025-09-12,2025-09-26 20:04:50.119,HH,C,3632803798,HAWK11,1,1,73,2,1,1,225,2,1,0,0,12,1,225,2,1,-151195.49450858062,-4790302.964814986,4201831.479948521,2.99423,1.64682,-0.927291,-4.375,65.5,80.375,-0.125,-6.71875,7.125,0.0,0.00390625,-0.0273438,4,0,41.43230025265985,-91.8078165026043,16329.027250299796,-3.706326705317855,4.711678211883625,-3.8098976600167913,168.703,13817.683391404704,16277.165501477106,150,True,7.151805090774058,False,159.36577504152655,168.67577664794197,False,10.186254991143233,True,False
9,1970-07-23 10:31:14.913215437,2025-09-12,2025-09-26 20:04:51.321,HH,C,1971685848,JASSM,3,101,76,2,2,1,225,9,2,0,1,26,0,0,0,0,-153824.23962576812,-4781414.368135299,4211165.688932896,-2.71054,-1.0107,0.752513,37.0,-58.875,-65.125,0.0,0.0,0.0,0.0,0.0,0.0,2,0,41.54766252126535,-91.84264326416128,14989.500431470897,155.95240544912036,-0.0023737524181518,0.0024920773188088,,13817.683391404704,16277.165501477106,150,9,2025-09-12,2025-09-26 20:04:51.213,HH,C,3634195630,HAWK11,1,1,73,2,1,1,225,2,1,0,0,12,1,225,2,1,-151200.77185233062,-4790226.962861861,4201924.405729771,2.97813,1.65804,-0.928634,-4.875,65.5,80.375,0.09375,-6.71875,7.14062,-0.00585938,-0.00195312,-0.00585938,4,0,41.43337833407926,-91.80790822581348,16344.332232907876,-4.0850449110287625,4.822122797438616,-4.249804334748841,167.994,13817.683391404704,16277.165501477106,150,True,7.032209810942744,False,159.63900737428565,168.66316006610995,False,9.954203283632541,True,False
9,1970-07-23 10:31:14.927111324,2025-09-12,2025-09-26 20:04:52.711,HH,C,1972998200,JASSM,3,101,76,2,2,1,225,9,2,0,1,26,0,0,0,0,-153783.50427420562,-4781479.350557174,4211093.878386021,-2.71054,-1.0107,0.752513,37.0,-58.875,-65.125,0.0,0.0,0.0,0.0,0.0,0.0,2,0,41.546799214723904,-91.8421306177628,14989.50280703714,155.952745455336,-0.0014290311362597,0.0024906563047223,,13817.683391404704,16277.165501477106,150,9,2025-09-12,2025-09-26 20:04:52.524,HH,C,3635746528,HAWK11,1,1,73,2,1,1,225,2,1,0,0,12,1,225,2,1,-151207.44958670562,-4790142.185518111,4202028.376432896,2.96892,1.66907,-0.932948,-5.5,65.25,80.25,0.0,-6.6875,7.07812,0.00976562,-0.0078125,-0.0078125,4,0,41.43458287070947,-91.80801999558328,16362.159432568964,-4.438995148815939,5.104646409659489,-4.301074008275196,167.151,13817.683391404704,16277.165501477106,150,True,6.905015050497152,False,159.97881675047387,168.65560147731208,False,9.695702173360312,True,False
9,1970-07-23 10:31:14.936291342,2025-09-12,2025-09-26 20:04:53.629,HH,C,1974310552,JASSM,3,101,76,2,2,1,225,9,2,0,1,26,0,0,0,0,-153742.76794608062,-4781544.329072799,4211022.067839146,-2.71054,-1.0107,0.752513,37.0,-58.875,-65.125,0.0,0.0,0.0,0.0,0.0,0.0,2,0,41.54593592925229,-91.84161797481698,14989.501202507014,155.9530854534571,-0.0004843280525479,0.0024892518010121,,13817.683391404704,16277.165501477106,150,9,2025-09-12,2025-09-26 20:04:53.713,HH,C,3637217894,HAWK11,1,1,73,2,1,1,225,2,1,0,0,12,1,225,2,1,-151214.84997733062,-4790061.191377486,4202127.630339146,2.96173,1.67971,-0.93151,-6.125,65.375,80.125,0.15625,-6.625,7.09375,0.00195312,0.00390625,-0.00390625,4,0,41.43573294074282,-91.80813897754228,16379.111598204689,-4.810447549872334,5.060682205266998,-4.256371319954652,166.295,13817.683391404704,16277.165501477106,150,True,6.780936178324111,False,160.334742557308,168.63910171767736,False,9.364709110539506,True,False
9,1970-07-23 10:31:14.946050806,2025-09-12,2025-09-26 20:04:54.605,HH,C,1975563250,JASSM,3,101,76,2,2,1,225,9,2,0,1,26,0,0,0,0,-153703.88318045562,-4781606.354463424,4210953.520964146,-2.71054,-1.0107,0.752513,37.0,-58.875,-65.125,0.0,0.0,0.0,0.0,0.0,0.0,2,0,41.54511187615693,-91.84112864531193,14989.50508926946,155.9534099840844,0.0004174396224369,0.0024879096717528,,13817.683391404704,16277.165501477106,150,9,2025-09-12,2025-09-26 20:04:54.915,HH,C,3638609726,HAWK11,1,1,73,2,1,1,225,2,1,0,0,12,1,225,2,1,-151222.33630545562,-4789984.821260299,4202220.394011021,2.96039,1.68498,-0.915115,-6.5,65.625,79.75,-0.09375,-5.65625,6.10938,0.0,-0.0332031,-0.00976562,4,0,41.43681169872382,-91.80825724598672,16393.35461970748,-5.093384702855089,4.1474021952878655,-4.1150039488212,165.293,13817.683391404704,16277.165501477106,150,True,6.66356392672485,False,160.57631867674263,168.61913586483274,False,9.080136502154023,True,False
9,1970-07-23 10:31:14.956069518,2025-09-12,2025-09-26 20:04:55.606,HH,C,1976815950,JASSM,3,101,76,2,2,1,225,9,2,0,1,26,0,0,0,0,-153664.99841483062,-4781668.377900924,4210884.972136021,-2.71054,-1.0107,0.752609,37.0,-58.875,-65.125,0.0,0.0,0.0,0.0,0.0,0.0,2,0,41.54428781935752,-91.84063932898418,14989.505111418926,155.956030177923,-0.0036731507132179,0.0024865192388861,,13817.683391404704,16277.165501477106,150,9,2025-09-12,2025-09-26 20:04:55.915,HH,C,3639802724,HAWK11,1,1,73,2,1,1,225,2,1,0,0,12,1,225,2,1,-151229.19372733062,-4789918.132783736,4202298.112761021,2.96097,1.68719,-0.899776,-6.875,67.375,78.5,0.171875,-5.67188,6.03125,0.00390625,-0.00390625,-0.0117188,4,0,41.43773148144317,-91.80836435010325,16398.69025283248,-5.267764644474993,3.283298877337951,-3.993785776701276,165.024,13817.683391404704,16277.165501477106,150,True,6.555604806362929,False,160.89581800111654,168.58695617314072,False,8.386055602975256,True,False
9,1970-07-23 10:31:14.968069847,2025-09-12,2025-09-26 20:04:56.806,HH,C,1978187952,JASSM,3,101,76,2,2,1,225,9,2,0,1,26,0,0,0,0,-153622.41052420562,-4781736.305635299,4210809.894011021,-2.71054,-1.0107,0.752609,37.0,-58.875,-65.125,0.0,0.0,0.0,0.0,0.0,0.0,2,0,41.54338528884673,-91.84010342862172,14989.502651297267,155.95638558330413,-0.0026855093061462,0.0024850895948244,,13817.683391404704,16277.165501477106,150,9,2025-09-12,2025-09-26 20:04:56.823,HH,C,3640876424,HAWK11,1,1,73,2,1,1,225,2,1,0,0,12,1,225,2,1,-151235.93982108062,-4789856.298799361,4202368.270964146,2.94908,1.69725,-0.897475,-7.25,68.125,78.0,0.109375,-5.98438,6.40625,0.00195312,-0.00976562,-0.00195312,4,0,41.43857140048293,-91.80846829516148,16399.54016152479,-5.64030823210811,3.1942692790147365,-4.244675659497735,165.208,13817.683391404704,16277.165501477106,150,True,6.447298625515056,False,161.1277876594202,168.5378942511947,False,7.990985313252342,True,False
9,1970-07-23 10:31:14.979943974,2025-09-12,2025-09-26 20:04:57.994,HH,C,1979440652,JASSM,3,101,76,2,2,1,225,9,2,0,1,26,0,0,0,0,-153583.52673514312,-4781798.327119674,4210741.341276646,-2.71054,-1.0107,0.752609,37.0,-58.875,-65.125,0.0,0.0,0.0,0.0,0.0,0.0,2,0,41.54256121259314,-91.83961415076698,14989.500308012595,155.9567100634248,-0.0017837302707811,0.0024837678593449,,13817.683391404704,16277.165501477106,150,9,2025-09-12,2025-09-26 20:04:57.957,HH,C,3641791056,HAWK11,1,1,73,2,1,1,225,2,1,0,0,12,1,225,2,1,-151241.95544608062,-4789803.507783736,4202427.308073521,2.93824,1.70281,-0.889709,-7.75,69.0,77.375,0.0,-6.0,6.40625,-0.00390625,-0.015625,0.00195312,4,0,41.43928263108246,-91.80856010145618,16398.420271044357,-5.892383281866225,2.7772596054163263,-4.630236594290765,165.977,13817.683391404704,16277.165501477106,150,True,6.351700405973608,False,161.41848284578597,168.48696191216126,False,7.513157474544325,True,False
9,1970-07-23 10:31:14.995211052,2025-09-12,2025-09-26 20:04:59.521,HH,C,1980753002,JASSM,3,101,76,2,2,1,225,9,2,0,1,26,0,0,0,0,-153542.79040701812,-4781863.299775924,4210669.524870396,-2.71054,-1.0107,0.752609,37.0,-58.875,-65.125,0.0,0.0,0.0,0.0,0.0,0.0,2,0,41.541697910753896,-91.83910157701736,14989.499474704971,155.95704998728488,-0.0008390229998136,0.0024823977237397,,13817.683391404704,16277.165501477106,150,9,2025-09-12,2025-09-26 20:04:59.322,HH,C,3643938454,HAWK11,1,1,73,2,1,1,225,2,1,0,0,12,1,225,2,1,-151256.82263358062,-4789677.246064986,4202566.144011021,2.94045,1.71068,-0.882998,-8.625,70.25,77.25,0.015625,-6.53125,6.82812,-0.00585938,0.0,-0.0136719,4,0,41.44096766161576,-91.80878541491876,16390.65737182445,-6.223533208899904,2.433086395299324,-4.169958173796317,165.745,13817.683391404704,16277.165501477106,150,True,6.195259956429152,False,161.86843141292434,168.4909643477621,False,6.957195932066938,True,False
9,1970-07-23 10:31:15.004630871,2025-09-12,2025-09-26 20:05:00.463,HH,C,1982125006,JASSM,3,101,76,2,2,1,225,9,2,0,1,26,0,0,0,0,-153500.20251639312,-4781931.225557174,4210594.442839146,-2.71054,-1.0107,0.752609,37.0,-58.875,-65.125,0.0,0.0,0.0,0.0,0.0,0.0,2,0,41.54079535801221,-91.83856572016988,14989.50154740804,155.9574053456071,0.0001486320102281,0.002480961527841,,13817.683391404704,16277.165501477106,150,9,2025-09-12,2025-09-26 20:05:00.323,HH,C,3645012152,HAWK11,1,1,73,2,1,1,225,2,1,0,0,12,1,225,2,1,-151264.93982108062,-4789613.891572799,4202635.745573521,2.92904,1.72141,-0.880697,-9.125,70.5,77.5,0.03125,-6.6875,7.03125,-0.00976562,0.0078125,0.0,4,0,41.44181261771835,-91.80890632983268,16386.68477183636,-6.62906526804059,2.3548755249475155,-4.365676982818703,165.794,13817.683391404704,16277.165501477106,150,True,6.086497665515586,False,162.12398371848522,168.43210089884533,False,6.661181660875005,True,False
9,1970-07-23 10:31:15.017177521,2025-09-12,2025-09-26 20:05:01.717,HH,C,1983437356,JASSM,3,101,76,2,2,1,225,9,2,0,1,26,0,0,0,0,-153459.46618826812,-4781996.196260299,4210522.624479771,-2.71054,-1.0107,0.752609,37.0,-58.875,-65.125,0.0,0.0,0.0,0.0,0.0,0.0,2,0,41.53993204972905,-91.83805317505838,14989.503296305393,155.95774523860553,0.0010933407177683,0.0024795902223772,,13817.683391404704,16277.165501477106,150,9,2025-09-12,2025-09-26 20:05:01.024,HH,C,3645966552,HAWK11,1,1,73,2,1,1,225,2,1,0,0,12,1,225,2,1,-151272.35974295562,-4789557.472627486,4202697.610807896,2.93086,1.72055,-0.881368,-9.5,70.625,77.625,-0.015625,-6.73438,7.04688,0.0117188,0.0175781,-0.00390625,4,0,41.442564250412815,-91.809016297268,16382.91193485143,-6.592723671426522,2.3894604996863915,-4.297930919078978,165.745,13817.683391404704,16277.165501477106,150,True,5.985838787106201,False,162.31873308984513,168.36935702392887,False,6.4220802670923,True,False
9,1970-07-23 10:31:15.023049344,2025-09-12,2025-09-26 20:05:02.304,HH,C,1984749708,JASSM,3,101,76,2,2,1,225,9,2,0,1,26,0,0,0,0,-153418.72986014312,-4782061.165010299,4210450.804167271,-2.71054,-1.01061,0.752705,37.0,-58.875,-65.125,0.0,0.0,0.0,0.0,0.0,0.0,2,0,41.53906873752572,-91.83754064432982,14989.501685566447,155.9567335235985,-0.0046278490533924,-0.0012802848137031,,13817.683391404704,16277.165501477106,150,9,2025-09-12,2025-09-26 20:05:02.524,HH,C,3647676516,HAWK11,1,1,73,2,1,1,225,2,1,0,0,12,1,225,2,1,-151286.53943045562,-4789456.119111861,4202809.222136021,2.94764,1.72621,-0.882039,-10.25,71.0,78.125,0.09375,-6.82812,7.26562,0.00976562,-0.00195312,-0.00390625,4,0,41.44391755304044,-91.809224014975,16377.238394758317,-6.79187657321731,2.457221326246647,-3.0949067974770874,165.892,13817.683391404704,16277.165501477106,150,True,5.84899384450375,False,162.69220188665025,168.33651647750855,False,6.058301641590705,True,False
9,1970-07-23 10:31:15.035907946,2025-09-12,2025-09-26 20:05:03.590,HH,C,1986002406,JASSM,3,101,76,2,2,1,225,9,2,0,1,26,0,0,0,0,-153379.84509451812,-4782123.178682174,4210382.247526646,-2.71054,-1.01061,0.752705,37.0,-58.875,-65.125,0.0,0.0,0.0,0.0,0.0,0.0,2,0,41.53824467021927,-91.83705142285646,14989.498717543973,155.95705793878665,-0.0037260854156593,-0.0012816136448615,,13817.683391404704,16277.165501477106,150,9,2025-09-12,2025-09-26 20:05:03.353,HH,C,3648153716,HAWK11,1,1,73,2,1,1,225,2,1,0,0,12,1,225,2,1,-151290.63903983062,-4789428.221650924,4202839.993620396,2.94467,1.73033,-0.883189,-10.375,71.125,78.125,0.0,-6.90625,7.28125,0.00195312,0.0,0.0,4,0,41.44429035240959,-91.80928354095026,16375.80391741084,-6.93127476588955,2.544009644003389,-3.088821200309296,166.026,13817.683391404704,16277.165501477106,150,True,5.7735511178023105,False,162.7544868485699,168.24916575510943,False,5.90992116558618,True,False
9,1970-07-23 10:31:15.054354031,2025-09-12,2025-09-26 20:05:05.435,HH,C,1988507806,JASSM,3,101,76,2,2,1,225,9,2,0,1,26,0,0,0,0,-153302.07458670562,-4782247.206025924,4210245.132292271,-2.71054,-1.01061,0.752705,37.0,-58.875,-65.125,0.0,0.0,0.0,0.0,0.0,0.0,2,0,41.53659651604087,-91.83607300548168,14989.50399115822,155.95770673634252,-0.0019225423451399,-0.0012842686584224,,13817.683391404704,16277.165501477106,150,9,2025-09-12,2025-09-26 20:05:06.823,HH,C,3652806412,HAWK11,1,1,73,2,1,1,225,2,1,0,0,12,1,225,2,1,-151331.40857108062,-4789150.701143111,4203150.079557896,-2.98819,1.66916,-0.896132,-8.25,71.25,80.25,-0.09375,-7.03125,7.3125,0.0976562,0.0078125,0.0390625,4,0,41.44802572293957,-91.80987558165926,16370.214355792232,-4.64941332576386,3.0191242518412027,14.371015693537991,167.102,13817.683391404704,16277.165501477106,150,False,5.442936812065214,False,161.53643593327305,168.23373358316545,False,7.334996282470529,True,False
9,1970-07-23 10:31:15.058331432,2025-09-12,2025-09-26 20:05:05.833,HH,C,1987255106,JASSM,3,101,76,2,2,1,225,9,2,0,1,26,0,0,0,0,-153340.95935233062,-4782185.192354049,4210313.690886021,-2.71054,-1.01061,0.752705,37.0,-58.875,-65.125,0.0,0.0,0.0,0.0,0.0,0.0,2,0,41.53742060089994,-91.836562202115,14989.500851183282,155.9573823482012,-0.0028243182543716,-0.0012829344294422,,13817.683391404704,16277.165501477106,150,9,2025-09-12,2025-09-26 20:05:06.823,HH,C,3652806412,HAWK11,1,1,73,2,1,1,225,2,1,0,0,12,1,225,2,1,-151331.40857108062,-4789150.701143111,4203150.079557896,-2.98819,1.66916,-0.896132,-8.25,71.25,80.25,-0.09375,-7.03125,7.3125,0.0976562,0.0078125,0.0390625,4,0,41.44802572293957,-91.80987558165926,16370.214355792232,-4.64941332576386,3.0191242518412027,14.371015693537991,167.102,13817.683391404704,16277.165501477106,150,False,5.495969395171882,False,161.53643593327305,168.34830042837282,False,7.434054903653285,True,False
