Subject_cm,Timestamp,SampleDate_cm,SampleTime_cm,Configuration_cm,Scenario_cm,DisTime_cm,MarkingTxt_cm,Application_cm,EntId_cm,Site_cm,ExerciseId_cm,ForceId_cm,Category_cm,Country_cm,Domain_cm,Kind_cm,Extra_cm,Specific_cm,Subcategory_cm,AltCategory_cm,AltCountry_cm,AltDomain_cm,AltKind_cm,ECEF_X_cm,ECEF_Y_cm,ECEF_Z_cm,OriPhi_cm,OriPsi_cm,OriTheta_cm,LinVelX_cm,LinVelY_cm,LinVelZ_cm,LinAccX_cm,LinAccY_cm,LinAccZ_cm,AngVelX_cm,AngVelY_cm,AngVelZ_cm,DrAlg_cm,Appearance_cm,Latitude_cm,Longitude_cm,Altitude_cm,Heading_cm,Pitch_cm,Roll_cm,CalibratedAirspeed_cm,CM_Altitude_Lead_cm,CM_Altitude_Wing_cm,CM_Airspeed_cm,Subject_ac,SampleDate_ac,SampleTime_ac,Configuration_ac,Scenario_ac,DisTime_ac,MarkingTxt_ac,Application_ac,EntId_ac,Site_ac,ExerciseId_ac,ForceId_ac,Category_ac,Country_ac,Domain_ac,Kind_ac,Extra_ac,Specific_ac,Subcategory_ac,AltCategory_ac,AltCountry_ac,AltDomain_ac,AltKind_ac,ECEF_X_ac,ECEF_Y_ac,ECEF_Z_ac,OriPhi_ac,OriPsi_ac,OriTheta_ac,LinVelX_ac,LinVelY_ac,LinVelZ_ac,LinAccX_ac,LinAccY_ac,LinAccZ_ac,AngVelX_ac,AngVelY_ac,AngVelZ_ac,DrAlg_ac,Appearance_ac,Latitude_ac,Longitude_ac,Altitude_ac,Heading_ac,Pitch_ac,Roll_ac,CalibratedAirspeed_ac,CM_Altitude_Lead_ac,CM_Altitude_Wing_ac,CM_Airspeed_ac,Bank_Angle_Condition,distance_nm,Distance_Condition,angle_between_vel,angle_between_pos,Cone_Condition,angle_between_pos_nose,Nose_Cone_Condition,Intercept_Criteria
9,1970-07-23 11:40:00.674281270,2025-09-17,2025-09-26 14:41:07.428,HA,D,1344631032,JASSM,3,105,76,2,2,1,225,9,2,0,1,26,0,0,0,0,-171305.56286795562,-4793410.872041549,4194623.352018833,-2.29541,0.0350898,-0.0800546,89.75,3.125,7.25,0.0,0.0,0.0,0.0,0.0,0.0,2,0,41.36113772215921,-92.04674931113313,10000.00054238077,83.87915846735049,-0.0051871873466388,0.0066288575475706,,9554.640030125043,10944.541949582395,150,9,2025-09-17,2025-09-26 14:41:07.334,HA,D,2623404634,AMBUSH51,1,1,48,2,1,1,225,2,1,0,0,9,1,225,2,1,-160155.49418348784,-4787465.024311922,4201313.020120191,2.28606,2.87738,-0.252526,-106.575,33.2433,34.0923,-0.226692,-7.18884,6.53766,0.000941469,-0.00280776,-0.00187566,4,0,41.44396096519704,-91.91600629214666,8942.941033542515,-70.49551296716731,-0.0370402001944919,-2.154296361673595,189.587,9554.640030125043,10944.541949582395,150,True,7.704632356543871,False,151.1779241176676,145.98753479508386,False,62.811247261822466,False,False
9,1970-07-23 11:40:00.683303446,2025-09-17,2025-09-26 14:41:08.330,HA,D,1345704774,JASSM,3,105,76,2,2,1,225,9,2,0,1,26,0,0,0,0,-171224.78405936187,-4793408.058564986,4194629.821745396,-2.29541,0.0348022,-0.079767,89.75,3.125,7.125,0.0,0.0,0.0,0.0,0.0,0.0,2,0,41.36121529878219,-92.04578619046694,10000.000621659305,83.90302273301822,-0.0030862229926375,0.0053118964969522,,9554.640030125043,10944.541949582395,150,9,2025-09-17,2025-09-26 14:41:08.266,HA,D,2624518100,AMBUSH51,1,1,48,2,1,1,225,2,1,0,0,9,1,225,2,1,-160254.97908726896,-4787433.650510358,4201344.23198677,2.28896,2.87935,-0.24976,-106.803,33.2528,33.7891,-0.251559,-7.29731,6.65943,-0.00196096,-0.00839208,-0.00850235,4,0,41.44433850570814,-91.9172081379007,8941.78698301672,-70.6867316585201,-0.0645668023890528,-1.9602076052518804,189.819,9554.640030125043,10944.541949582395,150,True,7.642113932074306,False,151.38381964382634,145.3562279839741,False,63.24233089275898,False,False
9,1970-07-23 11:40:00.693827595,2025-09-17,2025-09-26 14:41:09.382,HA,D,1346886562,JASSM,3,105,76,2,2,1,225,9,2,0,1,26,0,0,0,0,-171135.8761003775,-4793404.960908736,4194636.941862583,-2.29541,0.0348022,-0.079767,89.75,3.125,7.125,0.0,0.0,0.0,0.0,0.0,0.0,2,0,41.3613006745551,-92.04472614425266,10000.000544085751,83.90372321631617,-0.0022860292860477,0.0053122894918837,,9554.640030125043,10944.541949582395,150,9,2025-09-17,2025-09-26 14:41:09.333,HA,D,2625790632,AMBUSH51,1,1,48,2,1,1,225,2,1,0,0,9,1,225,2,1,-160368.9850957676,-4787398.076162057,4201379.604880429,2.28528,2.87868,-0.246745,-107.094,32.985,33.6127,-0.217779,-7.06696,6.49998,0.00758065,-0.0063635,-0.00284729,4,0,41.44476621890027,-91.91858527411672,8940.545964556413,-70.78823262278152,-0.2087015665461464,-2.180057585778482,190.088,9554.640030125043,10944.541949582395,150,True,7.572855544418683,False,151.57944834930174,144.69690220310102,False,63.704788487551625,False,False
9,1970-07-23 11:40:00.707721089,2025-09-17,2025-09-26 14:41:10.772,HA,D,1348020112,JASSM,3,105,76,2,2,1,225,9,2,0,1,26,0,0,0,0,-171050.59753592435,-4793401.989229049,4194643.769987583,-2.29541,0.0348022,-0.079767,89.75,3.125,7.125,0.0,0.0,0.0,0.0,0.0,0.0,2,0,41.36138254975669,-92.04370936877086,10000.000246380292,83.904395107239,-0.0015185018514916,0.0053126602683429,,9554.640030125043,10944.541949582395,150,9,2025-09-17,2025-09-26 14:41:10.800,HA,D,2627540362,AMBUSH51,1,1,48,2,1,1,225,2,1,0,0,9,1,225,2,1,-160526.0490035617,-4787349.66302286,4201428.125030524,2.29222,2.89593,-0.251865,-107.361,32.3793,33.6183,-0.335184,-8.25394,7.50834,0.00738923,0.00974238,-0.00968205,4,0,41.44535045701272,-91.9204823190593,8939.855287353073,-71.22820744595144,0.6935242002926927,-1.5408582095955217,190.479,9554.640030125043,10944.541949582395,150,True,7.49515093437253,False,151.80523524526185,143.86133622072697,False,64.30723659430073,False,False
9,1970-07-23 11:40:00.712967260,2025-09-17,2025-09-26 14:41:11.296,HA,D,1349212096,JASSM,3,105,76,2,2,1,225,9,2,0,1,26,0,0,0,0,-170960.92273123687,-4793398.863252486,4194650.949675083,-2.29541,0.0348022,-0.079767,89.75,3.125,7.125,0.0,0.0,0.0,0.0,0.0,0.0,2,0,41.36146863965284,-92.04264017468056,10000.000329881554,83.90510163785295,-0.000711407186118,0.0053130537330917,,9554.640030125043,10944.541949582395,150,9,2025-09-17,2025-09-26 14:41:11.166,HA,D,2627977796,AMBUSH51,1,1,48,2,1,1,225,2,1,0,0,9,1,225,2,1,-160566.14008287416,-4787337.584557941,4201440.669411691,2.29305,2.89986,-0.254281,-107.436,31.7297,34.123,-0.396617,-8.24153,7.58451,0.0139327,0.0122828,0.00437653,4,0,41.44549899441018,-91.92096643956856,8940.713792085804,-71.27540747302623,0.9479287347977976,-1.437225612068449,190.797,9554.640030125043,10944.541949582395,150,True,7.446039617115566,False,151.83089402822233,143.47809175618474,False,64.64845470138059,False,False
9,1970-07-23 11:40:00.723827818,2025-09-17,2025-09-26 14:41:12.382,HA,D,1350406230,JASSM,3,105,76,2,2,1,225,9,2,0,1,26,0,0,0,0,-170871.08630545562,-4793395.730439986,4194658.141081333,-2.29541,0.0348981,-0.079767,89.75,3.125,7.125,0.0,0.0,0.0,0.0,0.0,0.0,2,0,41.36155487364222,-92.04156905126558,9999.998979369057,83.90217949043974,-0.0040024761200029,0.0057512804823329,,9554.640030125043,10944.541949582395,150,9,2025-09-17,2025-09-26 14:41:12.269,HA,D,2629290094,AMBUSH51,1,1,48,2,1,1,225,2,1,0,0,9,1,225,2,1,-160683.5015512866,-4787303.17258882,4201477.936447189,2.30474,2.90392,-0.257498,-107.478,30.1885,35.2578,-0.182943,-7.92615,7.08014,0.0226358,-0.000854084,-0.00573308,4,0,41.44593184978159,-91.92238327277724,8946.741671145792,-71.29401080626559,1.2394847963455582,-0.7092413366385113,190.712,9554.640030125043,10944.541949582395,150,True,7.378231402261146,False,151.86660022965938,142.77067135181156,False,65.26692191927191,False,False
9,1970-07-23 11:40:00.734247504,2025-09-17,2025-09-26 14:41:13.424,HA,D,1351598154,JASSM,3,105,76,2,2,1,225,9,2,0,1,26,0,0,0,0,-170781.41589529935,-4793392.603486861,4194665.318815708,-2.29541,0.0348981,-0.079767,89.75,3.125,7.125,0.0,0.0,0.0,0.0,0.0,0.0,2,0,41.3616409353317,-92.04049990441209,10000.00113832335,83.90288599223898,-0.0031954218021169,0.0057516186811787,,9554.640030125043,10944.541949582395,150,9,2025-09-17,2025-09-26 14:41:13.303,HA,D,2630522860,AMBUSH51,1,1,48,2,1,1,225,2,1,0,0,9,1,225,2,1,-160794.97338783552,-4787271.132912485,4201513.658240259,2.29767,2.91217,-0.263463,-107.345,30.1305,35.0476,-0.166553,-7.65878,7.07274,-0.00263715,0.00478433,0.00144081,4,0,41.44634131615291,-91.92372876160364,8954.766743022949,-71.35327519340994,1.807761724561558,-0.9940216281164724,190.284,9554.640030125043,10944.541949582395,150,True,7.312976422149743,False,151.93188696434228,142.07605633832782,False,65.89935844296092,False,False
9,1970-07-23 11:40:00.743437577,2025-09-17,2025-09-26 14:41:14.343,HA,D,1352792240,JASSM,3,105,76,2,2,1,225,9,2,0,1,26,0,0,0,0,-170691.58288748687,-4793389.468721236,4194672.508268833,-2.29541,0.0348981,-0.0796711,89.75,3.125,7.125,0.0,0.0,0.0,0.0,0.0,0.0,2,0,41.36172714709022,-92.03942881698144,9999.999389062392,83.90770645851974,-0.0060284532286364,0.0057516594549055,,9554.640030125043,10944.541949582395,150,9,2025-09-17,2025-09-26 14:41:14.269,HA,D,2631676092,AMBUSH51,1,1,48,2,1,1,225,2,1,0,0,9,1,225,2,1,-160897.86869086878,-4787242.350967774,4201546.931736298,2.28861,2.91298,-0.270513,-107.208,29.5295,35.1638,-0.241987,-7.61734,6.99828,-0.000207019,0.004905,-0.00176747,4,0,41.446716569546375,-91.92497042546304,8964.780964389935,-71.08721942158597,2.1154315109573685,-1.4916777568418476,189.819,9554.640030125043,10944.541949582395,150,True,7.25062775523906,False,152.02695811683384,141.40610011721463,False,66.45559056130557,False,False
9,1970-07-23 11:40:00.755917013,2025-09-17,2025-09-26 14:41:15.591,HA,D,1353985194,JASSM,3,105,76,2,2,1,225,9,2,0,1,26,0,0,0,0,-170601.8350847525,-4793386.336885299,4194679.690886021,-2.29541,0.0348981,-0.0796711,89.75,3.125,7.125,0.0,0.0,0.0,0.0,0.0,0.0,2,0,41.36181326726782,-92.03835874265454,10000.001666525044,83.9084135755989,-0.0052207026666606,0.0057520600180346,,9554.640030125043,10944.541949582395,150,9,2025-09-17,2025-09-26 14:41:15.769,HA,D,2633465590,AMBUSH51,1,1,48,2,1,1,225,2,1,0,0,9,1,225,2,1,-161058.90951241562,-4787198.205119355,4201599.303844168,2.27132,2.9178,-0.273948,-106.931,28.5421,35.288,-0.2726,-7.57267,6.86144,-0.0148378,-0.00721862,-8.63447e-05,4,0,41.44730048306386,-91.92691341022892,8983.323302607567,-71.12345910633108,2.445853220220476,-2.409636204486204,189.147,9554.640030125043,10944.541949582395,150,True,7.17611794375086,False,152.19338781477782,140.4757086814952,False,67.18661876168822,False,False
9,1970-07-23 11:40:00.762328628,2025-09-17,2025-09-26 14:41:16.232,HA,D,1355179130,JASSM,3,105,76,2,2,1,225,9,2,0,1,26,0,0,0,0,-170512.01330740875,-4793383.200166549,4194686.878386021,-2.29541,0.0348981,-0.0796711,89.75,3.125,7.125,0.0,0.0,0.0,0.0,0.0,0.0,2,0,41.36189945513696,-92.03728778447204,10000.000205210212,83.9091212779535,-0.0044122863505471,0.0057524675839421,,9554.640030125043,10944.541949582395,150,9,2025-09-17,2025-09-26 14:41:16.104,HA,D,2633863256,AMBUSH51,1,1,48,2,1,1,225,2,1,0,0,9,1,225,2,1,-161093.8315531455,-4787188.786687436,4201610.712466703,2.26708,2.91823,-0.274976,-106.884,28.6153,35.0239,-0.213198,-7.44157,6.95796,-0.00610759,0.0058912,0.00199009,4,0,41.44742652868086,-91.92733469247274,8987.838619266013,-71.09638922748779,2.50355345118023,-2.6449978128164218,188.952,9554.640030125043,10944.541949582395,150,True,7.130998449298109,False,152.26182523273653,140.07623633358432,False,67.52676789857959,False,False
9,1970-07-23 11:40:00.772369215,2025-09-17,2025-09-26 14:41:17.236,HA,D,1356371894,JASSM,3,105,76,2,2,1,225,9,2,0,1,26,0,0,0,0,-170422.27966483062,-4793380.067354049,4194694.057096958,-2.29541,0.0348981,-0.0796711,89.75,3.125,7.125,0.0,0.0,0.0,0.0,0.0,0.0,2,0,41.361985531830406,-92.03621787395994,10000.001186762514,83.90982828920866,-0.0036046647838655,0.0057528581242809,,9554.640030125043,10944.541949582395,150,9,2025-09-17,2025-09-26 14:41:17.270,HA,D,2635255088,AMBUSH51,1,1,48,2,1,1,225,2,1,0,0,9,1,225,2,1,-161218.3122715405,-4787156.163552917,4201651.774395091,2.27138,2.92821,-0.274581,-106.849,25.4217,37.4252,-0.278556,-7.54888,6.90413,0.0103978,0.00725607,-0.0156138,4,0,41.44787282611932,-91.92883599599357,9007.131437945547,-71.4860317434396,2.895394895720778,-2.261804156783104,188.439,9554.640030125043,10944.541949582395,150,True,7.06683126699859,False,152.16562910035375,139.27977890080783,False,68.20334549710384,False,False
9,1970-07-23 11:40:00.782387807,2025-09-17,2025-09-26 14:41:18.238,HA,D,1357564224,JASSM,3,105,76,2,2,1,225,9,2,0,1,26,0,0,0,0,-170332.57849295562,-4793376.933564986,4194701.232878208,-2.29541,0.0348981,-0.0796711,89.75,3.125,7.125,0.0,0.0,0.0,0.0,0.0,0.0,2,0,41.36207157773288,-92.03514834867946,10000.00041850692,83.9105350471083,-0.0027973350481936,0.0057532587976813,,9554.640030125043,10944.541949582395,150,9,2025-09-17,2025-09-26 14:41:18.102,HA,D,2636249254,AMBUSH51,1,1,48,2,1,1,225,2,1,0,0,9,1,225,2,1,-161307.5425250645,-4787132.416225855,4201680.418997588,2.25975,2.92892,-0.279724,-106.469,27.1468,34.9967,-0.172205,-7.69595,7.14302,-0.0042829,-0.00062938,0.00443063,4,0,41.44818956094322,-91.92991231715844,9018.361563665769,-71.29538020724421,3.1239214009568674,-2.907041349939294,187.815,9554.640030125043,10944.541949582395,150,True,7.0112509646783625,False,152.5825955132807,138.6268124284167,False,68.60457259097075,False,False
9,1970-07-23 11:40:00.792249424,2025-09-17,2025-09-26 14:41:19.224,HA,D,1358757608,JASSM,3,105,76,2,2,1,225,9,2,0,1,26,0,0,0,0,-170242.79821951812,-4793373.795869674,4194708.414518833,-2.29541,0.0348981,-0.0796711,89.75,3.125,7.125,0.0,0.0,0.0,0.0,0.0,0.0,2,0,41.36215769318716,-92.03407787791843,9999.999989753249,83.91124243100779,-0.0019892933706086,0.005753663432212,,9554.640030125043,10944.541949582395,150,9,2025-09-17,2025-09-26 14:41:19.169,HA,D,2637521786,AMBUSH51,1,1,48,2,1,1,225,2,1,0,0,9,1,225,2,1,-161420.1261650123,-4787103.820078963,4201717.293982534,2.25935,2.93308,-0.278003,-106.216,26.5649,34.8175,-0.107544,-7.19364,6.60538,-0.0183144,0.00536897,-0.0100586,4,0,41.44858598964223,-91.93126979611851,9037.48880325112,-71.52372381697587,3.227816942582664,-2.8772748133271984,187.058,9554.640030125043,10944.541949582395,150,True,6.95168850906108,False,152.75481395499258,137.85954311615959,False,69.18228216914524,False,False
9,1970-07-23 11:40:00.802308506,2025-09-17,2025-09-26 14:41:20.230,HA,D,1359950350,JASSM,3,105,76,2,2,1,225,9,2,0,1,26,0,0,0,0,-170153.06628592435,-4793370.659150924,4194715.591276646,-2.29541,0.0348981,-0.0796711,89.75,3.125,7.125,0.0,0.0,0.0,0.0,0.0,0.0,2,0,41.36224374969814,-92.03300798100676,9999.99977070605,83.91194943691094,-0.0011816872781945,0.005754065223546,,9554.640030125043,10944.541949582395,150,9,2025-09-17,2025-09-26 14:41:20.402,HA,D,2638993150,AMBUSH51,1,1,48,2,1,1,225,2,1,0,0,9,1,225,2,1,-161551.43264876195,-4787071.245092611,4201759.790474935,2.24227,2.94753,-0.273422,-105.886,25.8036,34.4202,-0.123033,-7.41418,6.88212,-0.0252761,-0.00416431,0.00492373,4,0,41.44904025274139,-91.93285273041644,9060.606115114944,-72.25599033575199,3.6424919253417474,-3.674073037023479,186.056,9554.640030125043,10944.541949582395,150,True,6.8893851524687255,False,153.04308292975634,136.99672099366632,False,69.73797307422436,False,False
9,1970-07-23 11:40:00.812308613,2025-09-17,2025-09-26 14:41:21.230,HA,D,1361144240,JASSM,3,105,76,2,2,1,225,9,2,0,1,26,0,0,0,0,-170063.24768240875,-4793367.519502486,4194722.773893833,-2.29541,0.0349939,-0.0796711,89.75,3.125,7.125,0.0,0.0,0.0,0.0,0.0,0.0,2,0,41.36232987152825,-92.0319370478422,10000.001643782804,83.909027115307,-0.0044729231417986,0.0061917980653055,,9554.640030125043,10944.541949582395,150,9,2025-09-17,2025-09-26 14:41:21.169,HA,D,2639907784,AMBUSH51,1,1,48,2,1,1,225,2,1,0,0,9,1,225,2,1,-161632.55146112526,-4787051.526306646,4201785.943535667,2.23091,2.94554,-0.275908,-105.751,25.2118,34.2345,-0.11339,-7.33307,6.83139,-0.00148034,-0.00184861,0.0070501,4,0,41.44931778471532,-91.9338304847173,9075.670941327422,-72.0769556380962,3.6574176082945136,-4.344372699978585,185.457,9554.640030125043,10944.541949582395,150,True,6.8381006100670785,False,153.24332945883214,136.34957259015567,False,70.1644770329688,False,False
9,1970-07-23 11:40:00.822948077,2025-09-17,2025-09-26 14:41:22.294,HA,D,1362277634,JASSM,3,105,76,2,2,1,225,9,2,0,1,26,0,0,0,0,-169977.98034842435,-4793364.537080611,4194729.592253208,-2.29541,0.0349939,-0.0796711,89.75,3.125,7.125,0.0,0.0,0.0,0.0,0.0,0.0,2,0,41.36241162923548,-92.0309203789567,10000.002039720188,83.90969894948483,-0.0037054997653061,0.0061921328298268,,9554.640030125043,10944.541949582395,150,9,2025-09-17,2025-09-26 14:41:22.303,HA,D,2641259848,AMBUSH51,1,1,48,2,1,1,225,2,1,0,0,9,1,225,2,1,-161751.43493779458,-4787023.390099468,4201823.759477909,2.23429,2.94976,-0.267804,-105.511,24.8651,33.3623,-0.29464,-7.20586,6.68228,-0.0147025,-0.00225849,-0.0140721,4,0,41.44971650646806,-91.93526313458558,9098.517232009825,-72.57952394129406,3.5197985982157225,-4.11718768100395,184.858,9554.640030125043,10944.541949582395,150,True,6.7820359255475715,False,153.62818115601635,135.53501231499658,False,70.60966789317096,False,False
9,1970-07-23 11:40:00.833150560,2025-09-17,2025-09-26 14:41:23.315,HA,D,1363587968,JASSM,3,105,76,2,2,1,225,9,2,0,1,26,0,0,0,0,-169879.40173514312,-4793361.087861861,4194737.473112583,-2.29541,0.0349939,-0.0796711,89.75,3.125,7.125,0.0,0.0,0.0,0.0,0.0,0.0,2,0,41.3625061332527,-92.02974499289506,10000.00003826269,83.91047566836077,-0.0028182731809878,0.0061925140083914,,9554.640030125043,10944.541949582395,150,9,2025-09-17,2025-09-26 14:41:23.468,HA,D,2642651680,AMBUSH51,1,1,48,2,1,1,225,2,1,0,0,9,1,225,2,1,-161875.23386300108,-4786994.473177371,4201862.043852702,2.21908,2.94386,-0.255137,-105.44,24.5253,32.4154,-0.144346,-6.46741,6.09613,0.00295132,-0.0127447,0.0124784,4,0,41.45012202833772,-91.93675488054691,9120.878997798993,-72.89969087143845,2.791830157696749,-5.093576527911033,183.526,9554.640030125043,10944.541949582395,150,True,6.720971564255451,False,154.07465696045725,134.64338810861346,False,71.07303738151512,False,False
9,1970-07-23 11:40:00.842210355,2025-09-17,2025-09-26 14:41:24.221,HA,D,1364721362,JASSM,3,105,76,2,2,1,225,9,2,0,1,26,0,0,0,0,-169794.13415701812,-4793358.103486861,4194744.289518833,-2.29541,0.0349939,-0.0795753,89.75,3.125,7.125,0.0,0.0,0.0,0.0,0.0,0.0,2,0,41.36258787005955,-92.02872831643502,9999.999481659936,83.91526016279472,-0.0056924289705319,0.0061925691050542,,9554.640030125043,10944.541949582395,150,9,2025-09-17,2025-09-26 14:41:24.269,HA,D,2643606080,AMBUSH51,1,1,48,2,1,1,225,2,1,0,0,9,1,225,2,1,-161959.57021477862,-4786974.622231834,4201887.435036733,2.22874,2.94196,-0.254822,-105.422,24.6246,31.5843,-0.0588712,-6.67956,6.2131,0.0127759,0.00744957,0.00377316,4,0,41.45039452481681,-91.93777118257862,9134.247497849125,-72.84265801819356,2.702364981629126,-4.564929463762355,183.196,9554.640030125043,10944.541949582395,150,True,6.673343728135482,False,154.36895568806946,133.96729396802226,False,71.4872215931553,False,False
9,1970-07-23 11:40:00.852228788,2025-09-17,2025-09-26 14:41:25.222,HA,D,1365854756,JASSM,3,105,76,2,2,1,225,9,2,0,1,26,0,0,0,0,-169708.86682303375,-4793355.119111861,4194751.104948521,-2.29541,0.0349939,-0.0795753,89.75,3.125,7.125,0.0,0.0,0.0,0.0,0.0,0.0,2,0,41.36266959123597,-92.0277116403455,10000.000590315774,83.91593200515739,-0.0049250071385606,0.0061929507779798,,9554.640030125043,10944.541949582395,150,9,2025-09-17,2025-09-26 14:41:25.346,HA,D,2644878612,AMBUSH51,1,1,48,2,1,1,225,2,1,0,0,9,1,225,2,1,-162071.15677834785,-4786948.623884601,4201919.964798685,2.23004,2.94892,-0.241283,-105.329,24.4596,30.6383,-0.0541729,-6.69011,6.20197,-0.00848987,-0.00505689,-0.00638014,4,0,41.45074627755183,-91.93911576861608,9150.283005058998,-73.67865852774386,2.468291784925811,-4.43053185074758,183.159,9554.640030125043,10944.541949582395,150,True,6.621530746186289,False,154.7660472355492,133.15482435119424,False,71.92637469816118,False,False
9,1970-07-23 11:40:00.862970108,2025-09-17,2025-09-26 14:41:26.297,HA,D,1367047802,JASSM,3,105,76,2,2,1,225,9,2,0,1,26,0,0,0,0,-169619.1115740103,-4793351.975557174,4194758.278776646,-2.29541,0.0349939,-0.0795753,89.75,3.125,7.125,0.0,0.0,0.0,0.0,0.0,0.0,2,0,41.36275561429827,-92.02664145121317,9999.999952246735,83.9166392113195,-0.0041171928190807,0.0061933628369898,,9554.640030125043,10944.541949582395,150,9,2025-09-17,2025-09-26 14:41:26.436,HA,D,2646190910,AMBUSH51,1,1,48,2,1,1,225,2,1,0,0,9,1,225,2,1,-162187.78157495544,-4786921.599634721,4201952.950779107,2.24183,2.95435,-0.236138,-105.335,24.4343,29.5789,-0.135847,-7.04566,6.65452,0.023235,0.0053981,-0.0146588,4,0,41.4511061837232,-91.94052101731162,9165.21483782607,-74.10118274229922,2.4953110607703763,-3.699709759223852,182.756,9554.640030125043,10944.541949582395,150,True,6.56821941545582,False,155.18602635458493,132.29218345060494,False,72.39992180874387,False,False
9,1970-07-23 11:40:00.871165707,2025-09-17,2025-09-26 14:41:27.116,HA,D,1368181720,JASSM,3,105,76,2,2,1,225,9,2,0,1,26,0,0,0,0,-169533.804811315,-4793348.987275924,4194765.096159458,-2.29541,0.0349939,-0.0795753,89.75,3.125,7.125,0.0,0.0,0.0,0.0,0.0,0.0,2,0,41.3628373617347,-92.0256243008428,9999.999971252071,83.91731136934285,-0.0033494162071887,0.0061937515820309,,9554.640030125043,10944.541949582395,150,9,2025-09-17,2025-09-26 14:41:27.302,HA,D,2647224842,AMBUSH51,1,1,48,2,1,1,225,2,1,0,0,9,1,225,2,1,-162278.37607482498,-4786901.392430689,4201978.94691362,2.25865,2.95764,-0.228469,-105.386,21.167,32.3198,-0.132576,-7.07341,6.53659,0.0219201,-0.00485091,-0.0104623,4,0,41.45138358453258,-91.94161230986047,9179.558481763574,-74.55140123237092,2.337574328501202,-2.7116650874406507,182.096,9554.640030125043,10944.541949582395,150,True,6.522163994521605,False,154.96832723675124,131.5578576163234,False,73.08291674996948,False,False
9,1970-07-23 11:40:00.881208764,2025-09-17,2025-09-26 14:41:28.120,HA,D,1369315688,JASSM,3,105,76,2,2,1,225,9,2,0,1,26,0,0,0,0,-169448.4941423697,-4793345.998994674,4194771.912565708,-2.29541,0.0349939,-0.0795753,89.75,3.125,7.125,0.0,0.0,0.0,0.0,0.0,0.0,2,0,41.362919094404425,-92.024607101293,10000.001297870402,83.91798356096005,-0.0025816054147702,0.0061941308413966,,9554.640030125043,10944.541949582395,150,9,2025-09-17,2025-09-26 14:41:28.102,HA,D,2648179242,AMBUSH51,1,1,48,2,1,1,225,2,1,0,0,9,1,225,2,1,-162362.72688594455,-4786881.442511408,4202001.602557538,2.08469,2.96749,-0.238169,-105.324,23.3114,28.9337,-0.144617,-7.86136,7.26239,-0.464517,0.0406767,0.0148856,4,0,41.451638170002695,-91.9426288589664,9186.763592240924,-74.50714739491151,3.118355391167441,-12.545996562947495,181.155,9554.640030125043,10944.541949582395,150,False,6.477986336635057,False,155.7531805078575,130.84430019733128,False,73.25826949143969,False,False
9,1970-07-23 11:40:00.890307397,2025-09-17,2025-09-26 14:41:29.030,HA,D,1370449854,JASSM,3,105,76,2,2,1,225,9,2,0,1,26,0,0,0,0,-169363.16858084625,-4793343.007783736,4194778.729948521,-2.29541,0.0349939,-0.0795753,89.75,3.125,7.125,0.0,0.0,0.0,0.0,0.0,0.0,2,0,41.363000845218906,-92.02358972264192,10000.00000230838,83.91865587202595,-0.0018136599922424,0.006194523012181,,9554.640030125043,10944.541949582395,150,9,2025-09-17,2025-09-26 14:41:28.902,HA,D,2649133640,AMBUSH51,1,1,48,2,1,1,225,2,1,0,0,9,1,225,2,1,-162447.55579117546,-4786864.213118541,4202023.933751606,1.72054,2.99748,-0.251015,-105.956,20.5082,26.848,0.504293,-8.78375,8.10822,-0.375051,0.0471473,-0.029069,4,0,41.45187426181317,-91.94365002743967,9199.994031974022,-75.07197528513433,4.852717865907039,-33.033299136438686,182.719,9554.640030125043,10944.541949582395,150,False,6.4337844372031805,False,157.4716597913287,130.12510420032982,False,72.20796851695982,False,False
9,1970-07-23 11:40:00.900166987,2025-09-17,2025-09-26 14:41:30.016,HA,D,1371581378,JASSM,3,105,76,2,2,1,225,9,2,0,1,26,0,0,0,0,-169278.04162772125,-4793340.023408736,4194785.530729771,-2.29541,0.0350898,-0.0795753,89.75,3.125,7.125,0.0,0.0,0.0,0.0,0.0,0.0,2,0,41.36308239258279,-92.0225747096124,10000.000562174431,83.91569654815314,-0.0051471272401481,0.0066317662955075,,9554.640030125043,10944.541949582395,150,9,2025-09-17,2025-09-26 14:41:30.036,HA,D,2650485706,AMBUSH51,1,1,48,2,1,1,225,2,1,0,0,9,1,225,2,1,-162567.72955715252,-4786844.85043544,4202051.368556052,1.43574,3.07038,-0.133355,-107.475,14.8993,20.3199,0.0258077,-9.58628,9.21605,-0.109336,0.0659767,-0.125948,4,0,41.4521503267906,-91.94509463839692,9222.019986878982,-82.85811471769243,3.4593884010874927,-49.11699199173665,182.145,9554.640030125043,10944.541949582395,150,False,6.38223829021197,False,161.9382494662157,129.2420371826589,False,68.59143766894944,False,False
9,1970-07-23 11:40:00.912206879,2025-09-17,2025-09-26 14:41:31.220,HA,D,1372714772,JASSM,3,105,76,2,2,1,225,9,2,0,1,26,0,0,0,0,-169192.77417166656,-4793337.033174361,4194792.341276646,-2.29541,0.0350898,-0.0795753,89.75,3.125,7.125,0.0,0.0,0.0,0.0,0.0,0.0,2,0,41.36316406125915,-92.0215580191464,9999.999420014812,83.91636840660935,-0.0043797060118257,0.0066321010801054,,9554.640030125043,10944.541949582395,150,9,2025-09-17,2025-09-26 14:41:31.069,HA,D,2651718470,AMBUSH51,1,1,48,2,1,1,225,2,1,0,0,9,1,225,2,1,-162680.1296605521,-4786832.626685533,4202068.116210881,1.36669,3.11404,-0.0440408,-108.636,9.12019,11.6271,-0.098786,-9.13059,8.54971,-0.0431214,0.0561958,-0.0406725,4,0,41.4523133470901,-91.94644341863244,9237.737719651032,-88.35139160651553,1.945662410443904,-53.11043407317565,180.715,9554.640030125043,10944.541949582395,150,False,6.328755255556434,False,167.39546430212593,128.4098480736084,False,64.01514438281184,False,False
9,1970-07-23 11:40:00.919268304,2025-09-17,2025-09-26 14:41:31.926,HA,D,1373848166,JASSM,3,105,76,2,2,1,225,9,2,0,1,26,0,0,0,0,-169107.50659354156,-4793334.041963424,4194799.151823521,-2.29541,0.0350898,-0.0795753,89.75,3.125,7.125,0.0,0.0,0.0,0.0,0.0,0.0,2,0,41.36324572678248,-92.02054132509237,9999.999625269393,83.91704026852838,-0.0036122833960585,0.0066324415444357,,9554.640030125043,10944.541949582395,150,9,2025-09-17,2025-09-26 14:41:31.768,HA,D,2652553570,AMBUSH51,1,1,48,2,1,1,225,2,1,0,0,9,1,225,2,1,-162756.3216213712,-4786827.571939187,4202074.344290755,1.37951,3.1353,-0.00618083,-109.007,6.07077,5.69073,-0.0556248,-8.21687,7.84541,0.0604423,0.0293894,-0.0663991,4,0,41.452370035108565,-91.94735639708514,9245.207145887884,-90.78511465913292,1.423689706076307,-52.41685116700173,181.045,9554.640030125043,10944.541949582395,150,False,6.281461903702843,False,170.86987504354136,127.74652106302872,False,61.29621299307107,False,False
9,1970-07-23 11:40:00.928196801,2025-09-17,2025-09-26 14:41:32.819,HA,D,1374921908,JASSM,3,105,76,2,2,1,225,9,2,0,1,26,0,0,0,0,-169026.726686315,-4793331.207979049,4194805.602995396,-2.29541,0.0350898,-0.0795753,89.75,3.125,7.125,0.0,0.0,0.0,0.0,0.0,0.0,2,0,41.36332308082713,-92.01957813784296,10000.000769078992,83.91767677255405,-0.0028852511909627,0.006632758994687,,9554.640030125043,10944.541949582395,150,9,2025-09-17,2025-09-26 14:41:32.968,HA,D,2653985168,AMBUSH51,1,1,48,2,1,1,225,2,1,0,0,9,1,225,2,1,-162886.92403502832,-4786823.183893406,4202075.698030173,1.50423,-3.11622,0.102136,-108.932,1.79953,-3.55634,-0.205721,-7.98286,7.50895,0.0946702,0.029791,-0.0805409,4,0,41.452378843240815,-91.9489196171186,9248.280873145231,-96.63465079766628,-1.3317648005594656,-45.363098931059135,181.449,9554.640030125043,10944.541949582395,150,False,6.2189887398202774,False,176.03394202423064,126.8731701213182,False,57.079440078856486,False,False
9,1970-07-23 11:40:00.937186860,2025-09-17,2025-09-26 14:41:33.718,HA,D,1375995650,JASSM,3,105,76,2,2,1,225,9,2,0,1,26,0,0,0,0,-168945.94677908844,-4793328.373018111,4194812.053190708,-2.29541,0.0350898,-0.0795753,89.75,3.125,7.125,0.0,0.0,0.0,0.0,0.0,0.0,2,0,41.36340042601744,-92.01861494872362,10000.000768150116,83.91831327879541,-0.0021582193864397,0.0066330756594547,,9554.640030125043,10944.541949582395,150,9,2025-09-17,2025-09-26 14:41:33.668,HA,D,2654820268,AMBUSH51,1,1,48,2,1,1,225,2,1,0,0,9,1,225,2,1,-162963.29421054746,-4786822.803683408,4202071.137238065,1.56061,-3.08654,0.137085,-108.817,-1.00438,-8.41937,-0.241506,-8.65871,8.2574,0.070167,0.0603778,-0.0339314,4,0,41.45233486453079,-91.94983282534588,9243.828986058292,-99.25404554188862,-1.3989921947977857,-42.273509848514735,181.29,9554.640030125043,10944.541949582395,150,False,6.169884091964208,False,178.53482613739382,126.23252298717527,False,54.851270779586805,False,False
9,1970-07-23 11:40:00.946985718,2025-09-17,2025-09-26 14:41:34.698,HA,D,1377129044,JASSM,3,105,76,2,2,1,225,9,2,0,1,26,0,0,0,0,-168860.67920096344,-4793325.378877486,4194818.861784458,-2.29541,0.0350898,-0.0794794,89.75,3.125,7.125,0.0,0.0,0.0,0.0,0.0,0.0,2,0,41.363482069757566,-92.0175982485451,10000.000417037216,83.92309777280988,-0.0050324094394532,0.0066331897944233,,9554.640030125043,10944.541949582395,150,9,2025-09-17,2025-09-26 14:41:34.635,HA,D,2655973500,AMBUSH51,1,1,48,2,1,1,225,2,1,0,0,9,1,225,2,1,-163067.71438096854,-4786826.109055751,4202059.532062702,1.65847,-3.04681,0.168219,-108.341,-5.47869,-14.3206,-0.12386,-8.42658,7.86041,0.0968881,0.0309208,-0.0460779,4,0,41.452215725479626,-91.95107988643616,9235.486188280254,-102.0852729125752,-0.910864698640784,-36.955876483616606,182.402,9554.640030125043,10944.541949582395,150,False,6.108838665204452,False,176.88451897036055,125.46106289157345,False,51.7601454482024,False,False
9,1970-07-23 11:40:00.957132002,2025-09-17,2025-09-26 14:41:35.713,HA,D,1378382286,JASSM,3,105,76,2,2,1,225,9,2,0,1,26,0,0,0,0,-168766.39496024078,-4793322.068330611,4194826.388151646,-2.29541,0.0350898,-0.0794794,89.75,3.125,7.125,0.0,0.0,0.0,0.0,0.0,0.0,2,0,41.363572320353605,-92.01647403385176,10000.00014598506,83.92384069232999,-0.0041838375796851,0.0066336157104522,,9554.640030125043,10944.541949582395,150,9,2025-09-17,2025-09-26 14:41:35.668,HA,D,2657206266,AMBUSH51,1,1,48,2,1,1,225,2,1,0,0,9,1,225,2,1,-163179.91326809858,-4786834.402510529,4202041.433615643,1.75591,-3.00197,0.228443,-107.493,-9.98852,-19.4161,-0.213436,-8.61065,8.21483,0.0401295,0.0336255,-0.0566015,4,0,41.45202149193968,-91.9524179100235,9225.956717242792,-106.3349843372972,-1.360643165914562,-31.794951661177176,182.561,9554.640030125043,10944.541949582395,150,False,6.040236165168461,False,173.45580473661477,124.62234692149188,False,49.01879723840903,False,False
9,1970-07-23 11:40:00.967165750,2025-09-17,2025-09-26 14:41:36.716,HA,D,1379635882,JASSM,3,105,76,2,2,1,225,9,2,0,1,26,0,0,0,0,-168672.0842302603,-4793318.754854049,4194833.916471958,-2.29541,0.0350898,-0.0794794,89.75,3.125,7.125,0.0,0.0,0.0,0.0,0.0,0.0,2,0,41.36366259611214,-92.01534950104164,9999.999204854235,83.92458382340774,-0.0033350268107285,0.0066340525050809,,9554.640030125043,10944.541949582395,150,9,2025-09-17,2025-09-26 14:41:36.736,HA,D,2658478798,AMBUSH51,1,1,48,2,1,1,225,2,1,0,0,9,1,225,2,1,-163294.27611203736,-4786847.639523067,4202017.180321366,1.81099,-2.96009,0.258527,-106.35,-14.8936,-23.9667,-0.25278,-8.8086,8.51656,0.0756369,0.0281993,-0.0275169,4,0,41.45175584909202,-91.95377978188772,9215.39702480968,-109.18184023389378,-0.8149824607592688,-29.163715584038272,182.842,9554.640030125043,10944.541949582395,150,False,5.968652082822268,False,170.0200571199633,123.77434699660495,False,46.33478299641977,False,False
9,1970-07-23 11:40:00.979166760,2025-09-17,2025-09-26 14:41:37.916,HA,D,1381006446,JASSM,3,105,76,2,2,1,225,9,2,0,1,26,0,0,0,0,-168568.97357352203,-4793315.131807174,4194842.146940708,-2.29541,0.0350898,-0.0794794,89.75,3.125,7.125,0.0,0.0,0.0,0.0,0.0,0.0,2,0,41.36376128304394,-92.0141200371588,10000.001808023137,83.92539629818086,-0.0024070154823929,0.0066345303362296,,9554.640030125043,10944.541949582395,150,9,2025-09-17,2025-09-26 14:41:38.102,HA,D,2660109228,AMBUSH51,1,1,48,2,1,1,225,2,1,0,0,9,1,225,2,1,-163437.73541101153,-4786871.592042314,4201980.442926327,1.89697,-2.91911,0.302759,-104.769,-20.1616,-28.653,-0.203156,-8.22401,7.89217,0.0369982,0.0257068,-0.0383277,4,0,41.45133625794904,-91.95548513122812,9206.506502586471,-112.57508521003476,-0.9049613297692776,-24.83708277657525,183.941,9554.640030125043,10944.541949582395,150,False,5.88061546438012,False,166.33134114623707,122.77301856242644,False,43.59616691913142,False,False
9,1970-07-23 11:40:00.991050918,2025-09-17,2025-09-26 14:41:39.105,HA,D,1382319498,JASSM,3,105,76,2,2,1,225,9,2,0,1,26,0,0,0,0,-168470.18963797516,-4793311.659150924,4194850.029753208,-2.29541,0.0351857,-0.0794794,89.75,3.125,7.125,0.0,0.0,0.0,0.0,0.0,0.0,2,0,41.36385581083769,-92.01294216114604,10000.000461473648,83.9225446923787,-0.005617415252734,0.0070713265239725,,9554.640030125043,10944.541949582395,150,9,2025-09-17,2025-09-26 14:41:39.268,HA,D,2661501060,AMBUSH51,1,1,48,2,1,1,225,2,1,0,0,9,1,225,2,1,-163558.98511432376,-4786897.148831639,4201943.945686817,1.91041,-2.88056,0.326679,-103.178,-24.2979,-32.1119,-0.505587,-8.34297,7.95613,-0.168161,0.0249827,-0.0260709,4,0,41.45091322762303,-91.95692428146562,9200.22669709231,-115.019602007582,-0.3384505867463004,-24.72451584834829,184.308,9554.640030125043,10944.541949582395,150,False,5.800671116745007,False,163.46083029047466,121.86894898005694,False,41.60576766643551,False,False
9,1970-07-23 11:40:01.000246785,2025-09-17,2025-09-26 14:41:40.024,HA,D,1383573248,JASSM,3,105,76,2,2,1,225,9,2,0,1,26,0,0,0,0,-168375.86712820953,-4793308.341768111,4194857.556120396,-2.29541,0.0351857,-0.0794794,89.75,3.125,7.125,0.0,0.0,0.0,0.0,0.0,0.0,2,0,41.36394606456479,-92.01181747958128,9999.999106267873,83.92328792592899,-0.0047684994455415,0.0070717107819412,,9554.640030125043,10944.541949582395,150,9,2025-09-17,2025-09-26 14:41:40.202,HA,D,2662614526,AMBUSH51,1,1,48,2,1,1,225,2,1,0,0,9,1,225,2,1,-163653.34745843575,-4786921.297028961,4201911.417547968,1.60719,-2.83468,0.340831,-100.858,-28.2811,-36.0713,0.421506,-9.16581,8.62218,-0.303229,0.0533995,-0.0390143,4,0,41.4505308142628,-91.95804254436196,9196.85455564161,-117.34163148525155,0.8608466994223816,-42.96961114897931,184.992,9554.640030125043,10944.541949582395,150,False,5.731746854111623,False,160.32206938054105,121.08150934532665,False,39.2500876194512,False,False
9,1970-07-23 11:40:01.012266554,2025-09-17,2025-09-26 14:41:41.226,HA,D,1384943498,JASSM,3,105,76,2,2,1,225,9,2,0,1,26,0,0,0,0,-168272.78000052398,-4793304.715791549,4194865.780729771,-2.29541,0.0351857,-0.0794794,89.75,3.125,7.125,0.0,0.0,0.0,0.0,0.0,0.0,2,0,41.36404468668443,-92.01058828716144,9999.999629327123,83.92410022586591,-0.003840701559374,0.0070721251661067,,9554.640030125043,10944.541949582395,150,9,2025-09-17,2025-09-26 14:41:41.135,HA,D,2663727992,AMBUSH51,1,1,48,2,1,1,225,2,1,0,0,9,1,225,2,1,-163745.95938684914,-4786950.326202836,4201874.413447513,1.62709,-2.80334,0.414927,-97.5808,-31.9393,-41.7762,-0.173226,-7.96029,7.45841,0.0612829,0.0357394,-0.122463,4,0,41.45008949027931,-91.95913787187632,9195.615507710829,-121.51217421059071,-0.9881338436257276,-42.4877881069032,186.483,9554.640030125043,10944.541949582395,150,False,5.658740068413796,False,156.46573505970542,120.25779871115427,False,36.253884008818304,False,False
9,1970-07-23 11:40:01.022305081,2025-09-17,2025-09-26 14:41:42.230,HA,D,1386198016,JASSM,3,105,76,2,2,1,225,9,2,0,1,26,0,0,0,0,-168178.3996599478,-4793301.394502486,4194873.310026646,-2.29541,0.0351857,-0.0794794,89.75,3.125,7.125,0.0,0.0,0.0,0.0,0.0,0.0,2,0,41.36413497247146,-92.00946291031032,9999.999652717132,83.9248439216851,-0.0029912659071658,0.0070725093839017,,9554.640030125043,10944.541949582395,150,9,2025-09-17,2025-09-26 14:41:42.236,HA,D,2665040290,AMBUSH51,1,1,48,2,1,1,225,2,1,0,0,9,1,225,2,1,-163850.65673218446,-4786987.3437009845,4201823.916810671,1.68186,-2.72642,0.488616,-93.1898,-36.7379,-48.1252,-0.276904,-9.52822,9.10863,0.0247435,0.0464004,-0.0069315,4,0,41.449507110994944,-91.96037439799404,9185.728422906715,-127.29471725648663,-1.3304110622674927,-41.15872358516792,185.078,9554.640030125043,10944.541949582395,150,False,5.578950235612922,False,151.78073083051694,119.4291007048069,False,32.43796158509071,False,False
9,1970-07-23 11:40:01.034147955,2025-09-17,2025-09-26 14:41:43.414,HA,D,1387510478,JASSM,3,105,76,2,2,1,225,9,2,0,1,26,0,0,0,0,-168079.66006644195,-4793297.918916549,4194881.186003208,-2.29541,0.0351857,-0.0794794,89.75,3.125,7.125,0.0,0.0,0.0,0.0,0.0,0.0,2,0,41.36422941459124,-92.00828555143336,10000.000061176035,83.92562197081915,-0.0021025969043704,0.0070729093244323,,9554.640030125043,10944.541949582395,150,9,2025-09-17,2025-09-26 14:41:43.301,HA,D,2666312822,AMBUSH51,1,1,48,2,1,1,225,2,1,0,0,9,1,225,2,1,-163945.85540747436,-4787028.9350305535,4201769.104582911,1.71268,-2.66764,0.509177,-88.0943,-41.7789,-53.648,-0.0733351,-9.22026,8.74129,-0.0137891,0.0473637,-0.0664552,4,0,41.44887030937561,-91.96149547433292,9176.918134956984,-130.2874766300603,-0.2414265119127531,-40.9641370240045,187.229,9554.640030125043,10944.541949582395,150,False,5.498203508382514,False,147.11988950086095,118.6180673036763,False,28.600223435504525,True,False
9,1970-07-23 11:40:01.072212241,2025-09-17,2025-09-26 14:41:47.221,HA,D,1390194378,JASSM,3,105,76,2,2,1,225,9,2,0,1,26,0,0,0,0,-167877.74366934723,-4793290.808564986,4194897.288542271,-2.29541,0.0351857,-0.0793835,89.75,3.125,7.125,0.0,0.0,0.0,0.0,0.0,0.0,2,0,41.36442250057885,-92.00587791558128,10000.001975551206,83.93132564108109,-0.0039269687019663,0.0070735711515586,,9554.640030125043,10944.541949582395,150,9,2025-09-17,2025-09-26 14:41:47.168,HA,D,2670925750,AMBUSH51,1,1,48,2,1,1,225,2,1,0,0,9,1,225,2,1,-164242.70375062243,-4787221.186219526,4201523.865359679,1.89824,-2.36669,0.694329,-64.6982,-57.7857,-70.8986,0.00828451,-9.57494,9.19793,0.00928049,0.0483187,-0.0395427,4,0,41.446010685805554,-91.96496541879108,9141.848031230336,-147.97255758210608,-0.3804092263152195,-40.08870918901368,189.514,9554.640030125043,10944.541949582395,150,False,5.230497258545408,False,130.03620761624833,116.70396928206827,False,13.561305418834541,True,False
9,1970-07-23 11:40:01.077886723,2025-09-17,2025-09-26 14:41:47.788,HA,D,1388880818,JASSM,3,105,76,2,2,1,225,9,2,0,1,26,0,0,0,0,-167976.5659654898,-4793294.289033736,4194889.407682896,-2.29541,0.0351857,-0.0794794,89.75,3.125,7.125,0.0,0.0,0.0,0.0,0.0,0.0,2,0,41.36432800386353,-92.00705626673474,9999.9998146261,83.92643433631939,-0.0011747376372759,0.0070733219384052,,9554.640030125043,10944.541949582395,150,9,2025-09-17,2025-09-26 14:41:47.901,HA,D,2671800616,AMBUSH51,1,1,48,2,1,1,225,2,1,0,0,9,1,225,2,1,-164287.4189840058,-4787263.742755758,4201471.020923986,1.95621,-2.30923,0.712266,-59.7412,-60.5225,-73.0526,-0.0307941,-9.50976,9.03567,0.0584158,0.0467021,-0.0509923,4,0,41.44539168113836,-91.96548250429736,9135.457190509753,-150.66055230816812,-0.0096695855563352,-38.88771771173399,189.942,9554.640030125043,10944.541949582395,150,False,5.211678790727543,False,126.95246605361169,117.13347668588855,False,10.069947860516718,True,False
9,1970-07-23 11:40:01.079363643,2025-09-17,2025-09-26 14:41:47.936,HA,D,1391506274,JASSM,3,105,76,2,2,1,225,9,2,0,1,26,0,0,0,0,-167779.04641135162,-4793287.331025924,4194905.157682896,-2.29541,0.0351857,-0.0793835,89.75,3.125,7.125,0.0,0.0,0.0,0.0,0.0,0.0,2,0,41.36451686264521,-92.00470105258891,10000.001760445628,83.93210336693501,-0.0030386821813242,0.0070740317738236,,9554.640030125043,10944.541949582395,150,9,2025-09-17,2025-09-26 14:41:47.901,HA,D,2671800616,AMBUSH51,1,1,48,2,1,1,225,2,1,0,0,9,1,225,2,1,-164287.4189840058,-4787263.742755758,4201471.020923986,1.95621,-2.30923,0.712266,-59.7412,-60.5225,-73.0526,-0.0307941,-9.50976,9.03567,0.0584158,0.0467021,-0.0509923,4,0,41.44539168113836,-91.96548250429736,9135.457190509753,-150.66055230816812,-0.0096695855563352,-38.88771771173399,189.942,9554.640030125043,10944.541949582395,150,False,5.163876101669036,False,126.95246605361169,116.07730879753271,False,11.104592293749112,True,False
9,1970-07-23 11:40:01.103866008,2025-09-17,2025-09-26 14:41:50.386,HA,D,1392759968,JASSM,3,105,76,2,2,1,225,9,2,0,1,26,0,0,0,0,-167684.72783072418,-4793284.006807174,4194912.676237583,-2.29541,0.0352816,-0.0793835,89.75,3.125,7.125,0.0,0.0,0.0,0.0,0.0,0.0,2,0,41.36460702286774,-92.00357639803131,10000.0007068686,83.92921640128334,-0.0062894365938563,0.0075103463551884,,9554.640030125043,10944.541949582395,150,9,2025-09-17,2025-09-26 14:41:50.268,HA,D,2674624046,AMBUSH51,1,1,48,2,1,1,225,2,1,0,0,9,1,225,2,1,-164411.18492832367,-4787413.177892663,4201289.258175804,2.51103,-2.15507,0.756577,-47.2131,-66.8521,-77.2799,-0.537009,-8.57419,8.11311,0.199715,0.0168393,-0.0163337,4,0,41.443250476203694,-91.96690068921497,9118.483154727364,-157.6613406983868,0.5957753670933478,-13.061932297397217,189.942,9554.640030125043,10944.541949582395,150,False,4.999287058842886,False,119.52286005245875,115.36667730531487,False,4.422047688489359,True,False
9,1970-07-23 11:40:01.118383909,2025-09-17,2025-09-26 14:41:51.838,HA,D,1394131634,JASSM,3,105,76,2,2,1,225,9,2,0,1,26,0,0,0,0,-167581.53395255035,-4793280.368135299,4194920.902800083,-2.29541,0.0352816,-0.0793835,89.75,3.125,7.125,0.0,0.0,0.0,0.0,0.0,0.0,2,0,41.364705667787646,-92.0023459115754,10000.001896819613,83.93002956701251,-0.0053606799099423,0.0075107777060895,,9554.640030125043,10944.541949582395,150,9,2025-09-17,2025-09-26 14:41:51.968,HA,D,2676652144,AMBUSH51,1,1,48,2,1,1,225,2,1,0,0,9,1,225,2,1,-164488.97602367823,-4787527.18873821,4201156.822292405,2.66102,-2.14472,0.733823,-45.0149,-69.3536,-76.4471,-0.13884,-7.93009,7.47439,-0.044557,-0.00244574,-0.00277447,4,0,41.44166233564235,-91.96778377074337,9117.700422765336,-157.55704382316793,1.968161776511841,-4.868443431107181,189.551,9554.640030125043,10944.541949582395,150,True,4.8726455399235755,False,118.24969065042752,114.70163423563851,False,3.563853233599133,True,False
9,1970-07-23 11:40:01.121540254,2025-09-17,2025-09-26 14:41:52.154,HA,D,1395503722,JASSM,3,105,76,2,2,1,225,9,2,0,1,26,0,0,0,0,-167478.30822928375,-4793276.727510299,4194929.129362583,-2.29541,0.0352816,-0.0793835,89.75,3.125,7.125,0.0,0.0,0.0,0.0,0.0,0.0,2,0,41.364804317772,-92.00111504202644,10000.0010512288,83.9308429875069,-0.0044316381825657,0.0075111970234992,,9554.640030125043,10944.541949582395,150,9,2025-09-17,2025-09-26 14:41:52.301,HA,D,2677049812,AMBUSH51,1,1,48,2,1,1,225,2,1,0,0,9,1,225,2,1,-164503.38853021112,-4787549.464672312,4201131.596467449,2.64417,-2.14519,0.731816,-44.5833,-69.6893,-76.2626,-0.0359152,-7.69696,7.15242,-0.0273858,-0.00510474,-0.0208486,4,0,41.44135658375618,-91.9679469027005,9118.894841506086,-157.49437524197268,2.066889979524282,-5.813392006263537,189.428,9554.640030125043,10944.541949582395,150,True,4.82987839829195,False,118.02417570726911,114.08614754278567,False,3.9410596170385643,True,False
9,1970-07-23 11:40:01.127163213,2025-09-17,2025-09-26 14:41:52.716,HA,D,1397947696,JASSM,3,105,76,2,2,1,225,9,2,0,1,26,0,0,0,0,-167294.44162161773,-4793270.239229049,4194943.780729771,-2.29541,0.0352816,-0.0793835,89.75,3.125,7.125,0.0,0.0,0.0,0.0,0.0,0.0,2,0,41.36498001004359,-91.99892259814386,10000.000385867852,83.93229186863115,-0.0027768207509281,0.0075119524860497,,9554.640030125043,10944.541949582395,150,9,2025-09-17,2025-09-26 14:41:52.835,HA,D,2677686078,AMBUSH51,1,1,48,2,1,1,225,2,1,0,0,9,1,225,2,1,-164527.00874371632,-4787585.980401341,4201090.281843892,2.64896,-2.13708,0.733571,-44.1052,-69.8688,-76.3023,-0.192396,-7.60872,7.15399,0.018999,0.00629692,-0.0177693,4,0,41.44085562955906,-91.96821424784925,9120.933515972883,-157.8522785661031,2.1068083468442267,-5.863043623573208,189.819,9554.640030125043,10944.541949582395,150,True,4.75791964883874,False,117.7686108935477,112.9655377507646,False,4.804457502948889,True,False
9,1970-07-23 11:40:01.128946332,2025-09-17,2025-09-26 14:41:52.894,HA,D,1396814302,JASSM,3,105,76,2,2,1,225,9,2,0,1,26,0,0,0,0,-167379.70984061187,-4793273.248018111,4194936.986784458,-2.29541,0.0352816,-0.0793835,89.75,3.125,7.125,0.0,0.0,0.0,0.0,0.0,0.0,2,0,41.364898543059816,-91.99993934647551,9999.999511924863,83.93161994773972,-0.0035442425451756,0.0075116073248318,,9554.640030125043,10944.541949582395,150,9,2025-09-17,2025-09-26 14:41:52.835,HA,D,2677686078,AMBUSH51,1,1,48,2,1,1,225,2,1,0,0,9,1,225,2,1,-164527.00874371632,-4787585.980401341,4201090.281843892,2.64896,-2.13708,0.733571,-44.1052,-69.8688,-76.3023,-0.192396,-7.60872,7.15399,0.018999,0.00629692,-0.0177693,4,0,41.44085562955906,-91.96821424784925,9120.933515972883,-157.8522785661031,2.1068083468442267,-5.863043623573208,189.819,9554.640030125043,10944.541949582395,150,True,4.776092125768123,False,117.7686108935477,113.475560501032,False,4.294594943299688,True,False
9,1970-07-23 11:40:01.131267801,2025-09-17,2025-09-26 14:41:53.126,HA,D,1399200404,JASSM,3,105,76,2,2,1,225,9,2,0,1,26,0,0,0,0,-167200.19714529935,-4793266.912080611,4194951.289518833,-2.29541,0.0352816,-0.0793835,89.75,3.125,7.125,0.0,0.0,0.0,0.0,0.0,0.0,2,0,41.36507004987606,-91.99779881358285,10000.000955426012,83.93303452597235,-0.0019286115728312,0.0075123411592251,,9554.640030125043,10944.541949582395,150,9,2025-09-17,2025-09-26 14:41:53.135,HA,D,2678043976,AMBUSH51,1,1,48,2,1,1,225,2,1,0,0,9,1,225,2,1,-164540.3244548189,-4787606.806341652,4201066.788559082,2.65599,-2.13057,0.735632,-43.8109,-69.9079,-76.3927,-0.119685,-7.64642,6.79488,0.00370242,0.00511514,-0.0234015,4,0,41.440570422529454,-91.96836486096218,9122.235045448042,-158.1533425567205,2.1025335911840703,-5.721216270176364,189.709,9554.640030125043,10944.541949582395,150,True,4.719945187658037,False,117.61264707505067,112.37669457703097,False,5.2378526101083045,True,False
9,1970-07-23 11:40:01.142287997,2025-09-17,2025-09-26 14:41:54.228,HA,D,1400453102,JASSM,3,105,76,2,2,1,225,9,2,0,1,26,0,0,0,0,-167105.953248815,-4793263.582979049,4194958.797331333,-2.29541,0.0352816,-0.0793835,89.75,3.125,7.125,0.0,0.0,0.0,0.0,0.0,0.0,2,0,41.36516008362629,-91.99667503365949,9999.999245862376,83.93377718157971,-0.0010804076642845,0.0075127352697418,,9554.640030125043,10944.541949582395,150,9,2025-09-17,2025-09-26 14:41:54.101,HA,D,2679197208,AMBUSH51,1,1,48,2,1,1,225,2,1,0,0,9,1,225,2,1,-164581.931033832,-4787673.343792348,4200992.470477092,2.655,-2.12136,0.743202,-42.8694,-70.2362,-76.4182,-0.0729715,-6.97745,6.54843,0.00169673,-0.00928257,0.00345483,4,0,41.43966439785585,-91.96883485989692,9127.927990787328,-158.67774074737918,1.8467001706651185,-6.151682949980376,189.233,9554.640030125043,10944.541949582395,150,True,4.6427243869141686,False,117.11903162487033,111.7319855818922,False,5.387268243534392,True,False
9,1970-07-23 11:40:01.159225358,2025-09-17,2025-09-26 14:41:55.922,HA,D,1401707746,JASSM,3,105,76,2,2,1,225,9,2,0,1,26,0,0,0,0,-167011.56292899078,-4793260.248994674,4194966.315886021,-2.29541,0.0352816,-0.0792876,89.75,3.125,7.125,0.0,0.0,0.0,0.0,0.0,0.0,2,0,41.36525023830688,-91.99554950453432,10000.000851489433,83.93863356345831,-0.0038725620060056,0.0075129747661238,,9554.640030125043,10944.541949582395,150,9,2025-09-17,2025-09-26 14:41:55.901,HA,D,2681344606,AMBUSH51,1,1,48,2,1,1,225,2,1,0,0,9,1,225,2,1,-164658.04203556717,-4787797.700304958,4200852.715630608,2.65331,-2.11179,0.761036,-41.406,-69.8178,-77.4743,-0.0760459,-6.37411,5.89059,-0.0190739,-0.00874994,0.0116316,4,0,41.43796561911852,-91.9696935104391,9136.584686653956,-159.42576697932836,1.044822257504158,-6.641612570332378,189.477,9554.640030125043,10944.541949582395,150,True,4.515608818558644,False,116.34747533859029,111.00623686967256,False,5.378156594572779,True,False
9,1970-07-23 11:40:01.165145640,2025-09-17,2025-09-26 14:41:56.514,HA,D,1402960600,JASSM,3,105,76,2,2,1,225,9,2,0,1,26,0,0,0,0,-166917.30737479156,-4793256.917939986,4194973.822721958,-2.29541,0.0352816,-0.0792876,89.75,3.125,7.125,0.0,0.0,0.0,0.0,0.0,0.0,2,0,41.36534025751605,-91.99442558004264,10000.000415876118,83.93937631724023,-0.003024254104122,0.0075134260958356,,9554.640030125043,10944.541949582395,150,9,2025-09-17,2025-09-26 14:41:56.535,HA,D,2682100172,AMBUSH51,1,1,48,2,1,1,225,2,1,0,0,9,1,225,2,1,-164684.17469532727,-4787841.239514562,4200803.033482761,2.64899,-2.1109,0.768079,-40.8653,-69.2251,-78.3218,-0.115819,-6.37503,5.92099,-0.00300334,-0.0105933,-0.00483634,4,0,41.43736588154072,-91.96998797105522,9137.94474072574,-159.606955113019,0.6829395545340876,-6.927145843880743,189.233,9554.640030125043,10944.541949582395,150,True,4.459445888893824,False,116.06163006314254,110.34850409156589,False,5.833233308560163,True,False
9,1970-07-23 11:40:01.180036587,2025-09-17,2025-09-26 14:41:58.003,HA,D,1404283356,JASSM,3,105,76,2,2,1,225,9,2,0,1,26,0,0,0,0,-166817.79272635406,-4793253.400361861,4194981.746550083,-2.29541,0.0353774,-0.0792876,89.75,3.125,7.125,0.0,0.0,0.0,0.0,0.0,0.0,2,0,41.36543527891386,-91.99323894183884,9999.999277737565,83.93653026708621,-0.006228250044193,0.007949243773543,,9554.640030125043,10944.541949582395,150,9,2025-09-17,2025-09-26 14:41:58.134,HA,D,2684008970,AMBUSH51,1,1,48,2,1,1,225,2,1,0,0,9,1,225,2,1,-164748.8493189422,-4787950.905820236,4200674.800728248,2.65098,-2.10697,0.797616,-39.6021,-68.1141,-80.4344,-0.0818869,-5.99929,5.45177,0.0327309,-0.0228481,-0.00960299,4,0,41.435834624196765,-91.97071590906458,9134.567911058772,-160.3690361584584,-0.8351646115292396,-6.971418506147581,189.905,9554.640030125043,10944.541949582395,150,True,4.344018593770162,False,115.33396670474937,109.5616340556702,False,6.255840124849452,True,False
9,1970-07-23 11:40:01.185203505,2025-09-17,2025-09-26 14:41:58.520,HA,D,1405584978,JASSM,3,105,76,2,2,1,225,9,2,0,1,26,0,0,0,0,-166719.86804373687,-4793249.937471236,4194989.543425083,-2.29541,0.0353774,-0.0792876,89.75,3.125,7.125,0.0,0.0,0.0,0.0,0.0,0.0,2,0,41.365528776805576,-91.99207126005405,9999.998669762344,83.93730194104128,-0.0053469205483284,0.0079496549563882,,9554.640030125043,10944.541949582395,150,9,2025-09-17,2025-09-26 14:41:58.401,HA,D,2684327104,AMBUSH51,1,1,48,2,1,1,225,2,1,0,0,9,1,225,2,1,-164759.2110525276,-4787968.283606797,4200653.795417984,2.66541,-2.1057,0.799983,-39.4425,-67.8322,-80.8018,0.0314435,-5.91881,5.38845,0.0597183,-0.0157033,-0.00119946,4,0,41.43558733143982,-91.9708326102986,9132.555658348703,-160.46502892640788,-0.9432752913797596,-6.1949465070625145,190.101,9554.640030125043,10944.541949582395,150,True,4.310939706336961,False,115.24648278562056,108.87548011951729,False,6.906544485526009,True,False
9,1970-07-23 11:40:01.195222836,2025-09-17,2025-09-26 14:41:59.522,HA,D,1406837684,JASSM,3,105,76,2,2,1,225,9,2,0,1,26,0,0,0,0,-166625.62341483062,-4793246.604463424,4194997.046354771,-2.29541,0.0353774,-0.0792876,89.75,3.125,7.125,0.0,0.0,0.0,0.0,0.0,0.0,2,0,41.36561874500851,-91.9909474572259,10000.000115866796,83.9380446185144,-0.0044987124121378,0.007950045873375,,9554.640030125043,10944.541949582395,150,9,2025-09-17,2025-09-26 14:41:59.468,HA,D,2685599636,AMBUSH51,1,1,48,2,1,1,225,2,1,0,0,9,1,225,2,1,-164801.07351238478,-4788040.21861653,4200565.825871992,2.72094,-2.09829,0.814707,-38.8534,-66.9996,-82.3593,-0.170547,-6.15887,5.83858,0.0197667,9.05059e-05,-0.00993588,4,0,41.43455700490305,-91.9713033759268,9121.932260806425,-161.04130921781143,-1.625085904443852,-3.30701107564379,190.174,9554.640030125043,10944.541949582395,150,True,4.229825858023176,False,114.86967806098971,108.126491800985,False,7.638559311281296,True,False
9,1970-07-23 11:40:01.213772004,2025-09-17,2025-09-26 14:42:01.377,HA,D,1408148254,JASSM,3,105,76,2,2,1,225,9,2,0,1,26,0,0,0,0,-166527.02551444,-4793243.115205611,4195004.894987583,-2.29541,0.0353774,-0.0792876,89.75,3.125,7.125,0.0,0.0,0.0,0.0,0.0,0.0,2,0,41.3657128649899,-91.98977174224729,9999.999022797168,83.93882160412693,-0.0036113244359488,0.0079504626224112,,9554.640030125043,10944.541949582395,150,9,2025-09-17,2025-09-26 14:42:01.334,HA,D,2687826566,AMBUSH51,1,1,48,2,1,1,225,2,1,0,0,9,1,225,2,1,-164872.55904774924,-4788163.809245424,4200410.291234741,2.70312,-2.10773,0.837163,-38.2909,-66.189,-84.6182,-0.199786,-6.11083,5.61827,-0.0188575,-0.00372114,-0.014432,4,0,41.432757238647525,-91.97210692585446,9094.118472969456,-161.1607008823062,-2.95572298858259,-3.9257468421932846,192.154,9554.640030125043,10944.541949582395,150,True,4.1005560145423585,False,114.41201000174706,107.23720563136709,False,8.625122914507273,True,False
9,1970-07-23 11:40:01.221668630,2025-09-17,2025-09-26 14:42:02.166,HA,D,1409402138,JASSM,3,105,76,2,2,1,225,9,2,0,1,26,0,0,0,0,-166432.69214041656,-4793239.776338424,4195012.403776646,-2.29541,0.0353774,-0.0792876,89.75,3.125,7.125,0.0,0.0,0.0,0.0,0.0,0.0,2,0,41.36580290345553,-91.98864687598136,10000.00057328736,83.93956498710897,-0.002762317609674,0.0079508618954618,,9554.640030125043,10944.541949582395,150,9,2025-09-17,2025-09-26 14:42:02.134,HA,D,2688780966,AMBUSH51,1,1,48,2,1,1,225,2,1,0,0,9,1,225,2,1,-164903.0623006684,-4788216.617164573,4200342.124990449,2.69473,-2.09155,0.831463,-37.9597,-66.3297,-85.351,-0.108447,-7.8774,7.18321,-0.0101107,0.0335548,-0.00452841,4,0,41.4319767043494,-91.97244976267476,9078.526821823549,-161.6267535831189,-2.428044170131295,-5.07139515386222,192.728,9554.640030125043,10944.541949582395,150,True,4.036863524912442,False,114.1484718109611,106.45797466547072,False,9.196296790632937,True,False
9,1970-07-23 11:40:01.231368636,2025-09-17,2025-09-26 14:42:03.136,HA,D,1410714366,JASSM,3,105,76,2,2,1,225,9,2,0,1,26,0,0,0,0,-166333.96936209625,-4793236.281221236,4195020.260221958,-2.29541,0.0353774,-0.0792876,89.75,3.125,7.125,0.0,0.0,0.0,0.0,0.0,0.0,2,0,41.36589711328575,-91.98746966587296,10000.001177146793,83.9403429636496,-0.0018738068114905,0.0079512733487354,,9554.640030125043,10944.541949582395,150,9,2025-09-17,2025-09-26 14:42:03.335,HA,D,2690212564,AMBUSH51,1,1,48,2,1,1,225,2,1,0,0,9,1,225,2,1,-164948.00794611944,-4788297.735080421,4200239.129211448,2.69598,-2.07508,0.826304,-37.0923,-68.0264,-85.2399,-0.117214,-7.72696,7.00428,0.00316146,0.017838,-0.00353389,4,0,41.43078968322919,-91.97295354707266,9058.144169105382,-162.12408778350425,-1.929191360669526,-5.676381632507984,193.73,9554.640030125043,10944.541949582395,150,True,3.9480427996795915,False,113.56635599059226,105.57578628373186,False,9.143675798785205,True,False
9,1970-07-23 11:40:01.240824144,2025-09-17,2025-09-26 14:42:04.082,HA,D,1412027656,JASSM,3,105,76,2,2,1,225,9,2,0,1,26,0,0,0,0,-166235.16662772125,-4793232.782197799,4195028.121550083,-2.29541,0.0353774,-0.0792876,89.75,3.125,7.125,0.0,0.0,0.0,0.0,0.0,0.0,2,0,41.365991383754334,-91.98629149938212,10000.00097342914,83.9411215736904,-0.0009845771318006,0.0079516815403803,,9554.640030125043,10944.541949582395,150,9,2025-09-17,2025-09-26 14:42:04.101,HA,D,2691127196,AMBUSH51,1,1,48,2,1,1,225,2,1,0,0,9,1,225,2,1,-164976.21731261504,-4788350.147146701,4200173.673897628,2.71314,-2.05849,0.821518,-36.5123,-68.8186,-85.3555,-0.19726,-8.23522,7.46231,-0.00209412,0.0123764,-0.0108721,4,0,41.43003026294118,-91.973269112296,9047.28115916318,-162.64134920921197,-1.4543375928881934,-5.375152267973041,194.231,9554.640030125043,10944.541949582395,150,True,3.8868222069996667,False,113.19406130934438,104.7200421452298,False,9.47660082788926,True,False
9,1970-07-23 11:40:01.250314429,2025-09-17,2025-09-26 14:42:05.031,HA,D,1413338594,JASSM,3,105,76,2,2,1,225,9,2,0,1,26,0,0,0,0,-166136.54089529935,-4793229.287080611,4195035.968229771,-2.29541,0.0353774,-0.0792876,89.75,3.125,7.125,0.0,0.0,0.0,0.0,0.0,0.0,2,0,41.36608548353338,-91.9851154411252,9999.99876841593,83.9418987919285,-9.694014406993036e-05,0.0079520991990712,,9554.640030125043,10944.541949582395,150,9,2025-09-17,2025-09-26 14:42:04.934,HA,D,2692121362,AMBUSH51,1,1,48,2,1,1,225,2,1,0,0,9,1,225,2,1,-165006.56403906003,-4788408.022583828,4200102.693255607,2.7244,-2.04791,0.816896,-36.0104,-70.1438,-84.8928,-0.077376,-8.07754,7.24554,0.00295757,0.0065237,-0.00128893,4,0,41.429200600874495,-91.9736079647808,9038.03953545886,-162.9470561413963,-1.0685786045901355,-5.166177269658776,194.573,9554.640030125043,10944.541949582395,150,True,3.822195556230085,False,112.86732703575017,103.83155062027491,False,9.742545800309895,True,False
9,1970-07-23 11:40:01.273082285,2025-09-17,2025-09-26 14:42:07.308,HA,D,1414652380,JASSM,3,105,76,2,2,1,225,9,2,0,1,26,0,0,0,0,-166037.70092947906,-4793225.784150924,4195043.831511021,-2.29541,0.0354733,-0.0791918,89.75,3.125,7.125,0.0,0.0,0.0,0.0,0.0,0.0,2,0,41.3661797739745,-91.983936824943,10000.00010412443,83.94315993390902,-0.0069487205961213,0.0083873126651474,,9554.640030125043,10944.541949582395,150,9,2025-09-17,2025-09-26 14:42:07.434,HA,D,2695103858,AMBUSH51,1,1,48,2,1,1,225,2,1,0,0,9,1,225,2,1,-165093.7131586156,-4788585.824200507,4199893.224452024,2.75239,-2.00742,0.794804,-34.3988,-75.0194,-81.4032,-0.210316,-8.07214,7.32919,-0.0205011,0.00577885,-0.0059453,4,0,41.42671099037661,-91.97457625035234,9027.818152207285,-164.08746651949934,0.6322454506350514,-5.231937106895843,194.769,9554.640030125043,10944.541949582395,150,True,3.656250793055801,False,111.93928547279202,102.65589194109674,False,9.31484694222214,True,False
9,1970-07-23 11:40:01.280685176,2025-09-17,2025-09-26 14:42:08.068,HA,D,1416023246,JASSM,3,105,76,2,2,1,225,9,2,0,1,26,0,0,0,0,-165934.5664079947,-4793222.127900924,4195052.034636021,-2.29551,0.0354733,-0.0791918,89.75,3.125,7.125,0.0,0.0,0.0,0.0,0.0,0.0,2,0,41.36627814283732,-91.98270699521017,10000.000200953871,83.94397269097156,-0.0060205054860276,0.0028962777832347,,9554.640030125043,10944.541949582395,150,9,2025-09-17,2025-09-26 14:42:07.901,HA,D,2695660592,AMBUSH51,1,1,48,2,1,1,225,2,1,0,0,9,1,225,2,1,-165109.2897389929,-4788619.779363945,4199853.939903373,2.74434,-2.00058,0.788906,-33.6273,-73.6762,-82.9931,-0.283028,-8.29612,7.63061,-0.023156,0.0135083,-0.00817986,4,0,41.42624060796056,-91.9747484124206,9027.33960052024,-164.25259798547106,1.036201998595656,-5.974521375398404,194.683,9554.640030125043,10944.541949582395,150,True,3.61555288832465,False,111.56465120481391,101.7216954039606,False,10.015047170773471,True,False
9,1970-07-23 11:40:01.283260860,2025-09-17,2025-09-26 14:42:08.326,HA,D,1417276616,JASSM,3,105,76,2,2,1,225,9,2,0,1,26,0,0,0,0,-165840.2714861197,-4793218.784150924,4195059.533659458,-2.29551,0.0354733,-0.0791918,89.75,3.125,7.125,0.0,0.0,0.0,0.0,0.0,0.0,2,0,41.36636806739525,-91.98158257058569,10000.00074739091,83.94471579039715,-0.005171847610455,0.0028966758507061,,9554.640030125043,10944.541949582395,150,9,2025-09-17,2025-09-26 14:42:08.335,HA,D,2696177558,AMBUSH51,1,1,48,2,1,1,225,2,1,0,0,9,1,225,2,1,-165123.5150650007,-4788651.611708256,4199818.148911981,2.73454,-1.99189,0.784504,-33.0458,-73.9943,-82.7362,-0.235232,-8.23073,7.36428,-0.0488097,0.00247695,-0.00863551,4,0,41.42580671202504,-91.97490529837064,9029.112632208931,-164.51752459761715,1.3788095161266396,-6.894151302523431,194.647,9554.640030125043,10944.541949582395,150,True,3.5789713186787715,False,111.28080341261756,100.84993830047425,False,10.563179696437768,True,False
9,1970-07-23 11:40:01.303165249,2025-09-17,2025-09-26 14:42:10.316,HA,D,1419661152,JASSM,3,105,76,2,2,1,225,9,2,0,1,26,0,0,0,0,-165660.87707694,-4793212.418916549,4195073.798307896,-2.29551,0.0354733,-0.0791918,89.75,3.125,7.125,0.0,0.0,0.0,0.0,0.0,0.0,2,0,41.366539125320735,-91.97944336579243,10000.000536743337,83.94612953209891,-0.003557291445138,0.002897441521861,,9554.640030125043,10944.541949582395,150,9,2025-09-17,2025-09-26 14:42:10.234,HA,D,2698444256,AMBUSH51,1,1,48,2,1,1,225,2,1,0,0,9,1,225,2,1,-165183.34466480676,-4788793.2264405545,4199661.463887301,2.62483,-1.95865,0.793389,-29.6645,-74.9299,-82.6922,-0.177786,-7.16022,6.47071,0.0297535,-0.00588288,-0.0191883,4,0,41.42389426355155,-91.9755619266332,9042.238267984938,-165.94812994189274,1.254798738221292,-14.564750381303794,194.121,9554.640030125043,10944.541949582395,150,False,3.445743898056721,False,109.57877917409925,98.93293206259231,False,10.73830760756194,True,False
