Subject_cm,Timestamp,SampleDate_cm,SampleTime_cm,Configuration_cm,Scenario_cm,DisTime_cm,MarkingTxt_cm,Application_cm,EntId_cm,Site_cm,ExerciseId_cm,ForceId_cm,Category_cm,Country_cm,Domain_cm,Kind_cm,Extra_cm,Specific_cm,Subcategory_cm,AltCategory_cm,AltCountry_cm,AltDomain_cm,AltKind_cm,ECEF_X_cm,ECEF_Y_cm,ECEF_Z_cm,OriPhi_cm,OriPsi_cm,OriTheta_cm,LinVelX_cm,LinVelY_cm,LinVelZ_cm,LinAccX_cm,LinAccY_cm,LinAccZ_cm,AngVelX_cm,AngVelY_cm,AngVelZ_cm,DrAlg_cm,Appearance_cm,Latitude_cm,Longitude_cm,Altitude_cm,Heading_cm,Pitch_cm,Roll_cm,CalibratedAirspeed_cm,CM_Altitude_Lead_cm,CM_Altitude_Wing_cm,CM_Airspeed_cm,Subject_ac,SampleDate_ac,SampleTime_ac,Configuration_ac,Scenario_ac,DisTime_ac,MarkingTxt_ac,Application_ac,EntId_ac,Site_ac,ExerciseId_ac,ForceId_ac,Category_ac,Country_ac,Domain_ac,Kind_ac,Extra_ac,Specific_ac,Subcategory_ac,AltCategory_ac,AltCountry_ac,AltDomain_ac,AltKind_ac,ECEF_X_ac,ECEF_Y_ac,ECEF_Z_ac,OriPhi_ac,OriPsi_ac,OriTheta_ac,LinVelX_ac,LinVelY_ac,LinVelZ_ac,LinAccX_ac,LinAccY_ac,LinAccZ_ac,AngVelX_ac,AngVelY_ac,AngVelZ_ac,DrAlg_ac,Appearance_ac,Latitude_ac,Longitude_ac,Altitude_ac,Heading_ac,Pitch_ac,Roll_ac,CalibratedAirspeed_ac,CM_Altitude_Lead_ac,CM_Altitude_Wing_ac,CM_Airspeed_ac,Bank_Angle_Condition,distance_nm,Distance_Condition,angle_between_vel,angle_between_pos,Cone_Condition,angle_between_pos_nose,Nose_Cone_Condition,Intercept_Criteria
9,1970-07-23 10:31:14.389162282,2025-09-12,2025-09-26 20:03:58.916,HH,C,1909110562,JASSM,3,104,76,2,2,1,225,9,2,0,1,26,0,0,0,0,-180695.24841483065,-4779087.161104049,4212729.300261021,-2.36693,-0.400848,0.381002,83.5,-35.25,-36.125,0.0,0.0,0.0,0.0,0.0,0.0,2,0,41.56646295246453,-92.16529758299164,14989.504047691458,119.79807224528015,-0.0037869755581587,0.0045545353675392,,13817.683391404704,16277.165501477106,150,9,2025-09-12,2025-09-26 20:03:58.922,HH,C,4251976346,AMBUSH51,1,1,48,2,1,1,225,2,1,0,0,9,1,225,2,1,-148243.7400182675,-4794701.3390545575,4195791.498449989,2.29475,2.9532,-0.165728,-112.485,7.61174,3.75637,-0.121707,-6.96968,6.24146,0.00633853,-0.00869585,0.00709795,4,0,41.3659256358825,-91.7709206679196,13816.973046046,-76.93567567359209,-0.4051281903900955,-0.6839190479645311,179.359,13817.683391404704,16277.165501477106,150,True,21.405798135408208,False,152.88335236340438,175.68868010324223,False,31.376593458027358,False,False
9,1970-07-23 10:31:14.400242849,2025-09-12,2025-09-26 20:04:00.024,HH,C,1910363260,JASSM,3,104,76,2,2,1,225,9,2,0,1,26,0,0,0,0,-180607.6097429556,-4779124.313447799,4212691.167448521,-2.36693,-0.400848,0.381002,83.5,-35.25,-36.125,0.0,0.0,0.0,0.0,0.0,0.0,2,0,41.56600439128244,-92.16423158626982,14989.503312646317,119.79877951862773,-0.0028669813092759,0.0045529567060379,,13817.683391404704,16277.165501477106,150,9,2025-09-12,2025-09-26 20:04:00.122,HH,C,4253407944,AMBUSH51,1,1,48,2,1,1,225,2,1,0,0,9,1,225,2,1,-148379.38579798638,-4794691.593386055,4195796.23155759,2.30266,2.94774,-0.163394,-112.666,8.12946,3.64527,-0.0752297,-6.91103,6.31516,0.00571019,0.00142001,-0.0143884,4,0,41.36599058554789,-91.77254366058706,13813.576664477048,-76.82857192035823,-0.7224321529800848,-0.282772160288379,179.762,13817.683391404704,16277.165501477106,150,True,21.288449418764625,False,153.00740868159866,175.57690491522388,False,31.370582962374264,False,False
9,1970-07-23 10:31:14.410144114,2025-09-12,2025-09-26 20:04:01.014,HH,C,1911615960,JASSM,3,104,76,2,2,1,225,9,2,0,1,26,0,0,0,0,-180519.97107108065,-4779161.467744674,4212653.030729771,-2.36693,-0.400848,0.381098,83.5,-35.25,-36.125,0.0,0.0,0.0,0.0,0.0,0.0,2,0,41.56554578223469,-92.16316560373956,14989.504267536147,119.80332879690386,-0.0058730214486168,0.0045510832127651,,13817.683391404704,16277.165501477106,150,9,2025-09-12,2025-09-26 20:04:01.154,HH,C,4254640708,AMBUSH51,1,1,48,2,1,1,225,2,1,0,0,9,1,225,2,1,-148494.839479794,-4794682.841589567,4195799.985304064,2.30735,2.94302,-0.162216,-112.799,8.50229,3.58049,0.0153603,-6.91903,6.12734,-0.0209672,-0.00942613,0.00824852,4,0,41.36604670856519,-91.77392522803125,13808.973166497237,-76.70019772120712,-0.9641688144921646,-0.0595342183594327,180.312,13817.683391404704,16277.165501477106,150,True,21.180421031568553,False,153.10105151501088,175.4790420518019,False,31.379022832671055,False,False
9,1970-07-23 10:31:14.421182557,2025-09-12,2025-09-26 20:04:02.118,HH,C,1912928310,JASSM,3,104,76,2,2,1,225,9,2,0,1,26,0,0,0,0,-180428.15954764312,-4779200.387666549,4212613.077604771,-2.36693,-0.400848,0.381098,83.5,-35.25,-36.125,0.0,0.0,0.0,0.0,0.0,0.0,2,0,41.56506534306104,-92.16204888295616,14989.501393486202,119.80406971145092,-0.004909211106376,0.0045494738103188,,13817.683391404704,16277.165501477106,150,9,2025-09-12,2025-09-26 20:04:01.987,HH,C,4255634874,AMBUSH51,1,1,48,2,1,1,225,2,1,0,0,9,1,225,2,1,-148588.56607420408,-4794675.290067302,4195802.915465944,2.31049,2.93708,-0.165437,-112.904,9.01061,3.42587,-0.0567126,-7.08418,6.37497,0.0122724,-0.00425586,-0.0129944,4,0,41.366094121556586,-91.77504696745062,13803.887598468968,-76.33836282290423,-1.0875777333447485,0.0586362882898127,180.801,13817.683391404704,16277.165501477106,150,True,21.079748672680722,False,153.204231058567,175.396221037167,False,31.364237485592813,False,False
9,1970-07-23 10:31:14.431201745,2025-09-12,2025-09-26 20:04:03.120,HH,C,1914181010,JASSM,3,104,76,2,2,1,225,9,2,0,1,26,0,0,0,0,-180340.52087576807,-4779237.536104049,4212574.940886021,-2.36693,-0.400848,0.381098,83.5,-35.25,-36.125,0.0,0.0,0.0,0.0,0.0,0.0,2,0,41.56460674865622,-92.16098293394238,14989.49903683363,119.80477693371674,-0.0039892161877131,0.0045479534541103,,13817.683391404704,16277.165501477106,150,9,2025-09-12,2025-09-26 20:04:03.221,HH,C,4257106240,AMBUSH51,1,1,48,2,1,1,225,2,1,0,0,9,1,225,2,1,-148728.45981393915,-4794663.419689995,4195807.210351074,2.31567,2.93443,-0.164926,-113.131,9.67626,3.37159,-0.203047,-7.16602,6.51207,-0.0207529,-0.00142001,-0.000323532,4,0,41.36616789920614,-91.77672147082154,13794.660416486056,-76.26034087261607,-1.2167180228516017,0.3290124167040921,181.045,13817.683391404704,16277.165501477106,150,True,20.960410370718215,False,153.38980645964833,175.27817881003412,False,31.30260423885985,False,False
9,1970-07-23 10:31:14.442201892,2025-09-12,2025-09-26 20:04:04.220,HH,C,1915433708,JASSM,3,104,76,2,2,1,225,9,2,0,1,26,0,0,0,0,-180252.88220389312,-4779274.686494674,4212536.804167271,-2.36693,-0.400848,0.381098,83.5,-35.25,-36.125,0.0,0.0,0.0,0.0,0.0,0.0,2,0,41.56414813268278,-92.159916999121,14989.50687320752,119.80548414015894,-0.003069214831976,0.0045464232735713,,13817.683391404704,16277.165501477106,150,9,2025-09-12,2025-09-26 20:04:04.288,HH,C,4258378772,AMBUSH51,1,1,48,2,1,1,225,2,1,0,0,9,1,225,2,1,-148848.2253450166,-4794652.738985509,4195810.882580056,2.33183,2.92241,-0.16063,-113.331,10.3206,3.33095,-0.05865,-6.32308,5.61033,0.0301364,-0.0122932,-0.0105351,4,0,41.36623409093711,-91.77815523934376,13785.48322736583,-75.98467833804199,-1.8833473515710089,1.136018124496396,181.546,13817.683391404704,16277.165501477106,150,True,20.85030249083857,False,153.5715871954518,175.1745451151407,False,31.229588312508337,False,False
9,1970-07-23 10:31:14.463160281,2025-09-12,2025-09-26 20:04:06.316,HH,C,1917998758,JASSM,3,104,76,2,2,1,225,9,2,0,1,26,0,0,0,0,-180073.43200858062,-4779350.747041549,4212458.706511021,-2.36693,-0.400752,0.381098,83.5,-35.25,-36.25,0.0,0.0,0.0,0.0,0.0,0.0,2,0,41.56320903122244,-92.15773442692138,14989.499183263331,119.80328785058398,-0.0047518552882855,0.0025003409296456,,13817.683391404704,16277.165501477106,150,9,2025-09-12,2025-09-26 20:04:06.322,HH,C,4260804536,AMBUSH51,1,1,48,2,1,1,225,2,1,0,0,9,1,225,2,1,-149079.69763204374,-4794629.362252278,4195817.195909602,2.35558,2.90947,-0.166185,-113.828,12.0151,3.24499,-0.297681,-6.95136,6.22267,0.0310955,-0.00371074,0.00958634,4,0,41.36637292560684,-91.780927327726,13759.338851146264,-75.25675840355814,-2.2053134590270544,2.350250540502401,182.487,13817.683391404704,16277.165501477106,150,True,20.63097015514961,False,153.99296064955018,175.0246866382907,False,30.972217152968437,False,False
9,1970-07-23 10:31:14.466239776,2025-09-12,2025-09-26 20:04:06.623,HH,C,1916686406,JASSM,3,104,76,2,2,1,225,9,2,0,1,26,0,0,0,0,-180165.24353201807,-4779311.832979049,4212498.663542271,-2.36693,-0.400848,0.381098,83.5,-35.25,-36.125,0.0,0.0,0.0,0.0,0.0,0.0,2,0,41.56368950379629,-92.15885108113798,14989.502026764185,119.80619132902125,-0.0021492130590099,0.0045448897951228,,13817.683391404704,16277.165501477106,150,9,2025-09-12,2025-09-26 20:04:06.787,HH,C,4261361268,AMBUSH51,1,1,48,2,1,1,225,2,1,0,0,9,1,225,2,1,-149132.0835242038,-4794623.732236178,4195818.688667366,2.35925,2.90475,-0.168031,-113.964,12.2776,3.37526,-0.15238,-7.06145,6.38298,0.0100919,-0.00384598,0.0153496,4,0,41.36640678657993,-91.7815548244576,13752.72896882156,-74.99858497111329,-2.3293059855492126,2.505728698618074,182.609,13817.683391404704,16277.165501477106,150,True,20.664214657565957,False,154.16935155038618,174.94378226699206,False,30.874430851793985,False,False
9,1970-07-23 10:31:14.473218659,2025-09-12,2025-09-26 20:04:07.321,HH,C,1919191806,JASSM,3,104,76,2,2,1,225,9,2,0,1,26,0,0,0,0,-179989.96618826812,-4779386.123994674,4212422.382292271,-2.36693,-0.400752,0.381098,83.5,-35.25,-36.25,0.0,0.0,0.0,0.0,0.0,0.0,2,0,41.56277222792144,-92.15671929127554,14989.50374881879,119.80396133538164,-0.0038756626132853,0.0024988309528164,,13817.683391404704,16277.165501477106,150,9,2025-09-12,2025-09-26 20:04:07.421,HH,C,4262116834,AMBUSH51,1,1,48,2,1,1,225,2,1,0,0,9,1,225,2,1,-149204.99611950872,-4794615.517898853,4195821.093969429,2.36384,2.89765,-0.170129,-114.134,12.7513,3.65039,-0.157378,-7.14144,6.28023,-0.0044015,-0.014482,-0.00383142,4,0,41.36645837072659,-91.78242833957135,13743.3108673425,-74.63834011466203,-2.5418904751299087,2.6849204227110737,183.294,13817.683391404704,16277.165501477106,150,True,20.52054323223453,False,154.36213411292144,174.91562697801186,False,30.713985875674663,False,False
9,1970-07-23 10:31:14.482140761,2025-09-12,2025-09-26 20:04:08.214,HH,C,1920265546,JASSM,3,104,76,2,2,1,225,9,2,0,1,26,0,0,0,0,-179914.84704764312,-4779417.961885299,4212389.686979771,-2.36693,-0.400752,0.381098,83.5,-35.25,-36.25,0.0,0.0,0.0,0.0,0.0,0.0,2,0,41.562379081725794,-92.15580568267006,14989.50105014349,119.80456745778912,-0.0030870825870392,0.0024974577970013,,13817.683391404704,16277.165501477106,150,9,2025-09-12,2025-09-26 20:04:08.187,HH,C,4263031466,AMBUSH51,1,1,48,2,1,1,225,2,1,0,0,9,1,225,2,1,-149292.98340770707,-4794605.480006483,4195823.976984751,2.35417,2.89314,-0.168139,-114.401,13.194,3.91165,-0.209307,-7.32108,6.58384,-0.0242462,-0.00559368,-0.00365456,4,0,41.366521223281296,-91.78348250353804,13731.598566020872,-74.54982611294069,-2.805375647565178,2.083684584304063,183.868,13817.683391404704,16277.165501477106,150,True,20.43260324249536,False,154.58540269103057,174.83610494751883,False,30.5712160104148,False,False
9,1970-07-23 10:31:14.493839249,2025-09-12,2025-09-26 20:04:09.383,HH,C,1921518244,JASSM,3,104,76,2,2,1,225,9,2,0,1,26,0,0,0,0,-179827.20837576812,-4779455.104463424,4212351.544401646,-2.36693,-0.400752,0.381098,83.5,-35.25,-36.25,0.0,0.0,0.0,0.0,0.0,0.0,2,0,41.56192042473992,-92.1547398245913,14989.503206476147,119.80527458228676,-0.002167086818952,0.0024958737902865,,13817.683391404704,16277.165501477106,150,9,2025-09-12,2025-09-26 20:04:09.254,HH,C,4264303998,AMBUSH51,1,1,48,2,1,1,225,2,1,0,0,9,1,225,2,1,-149413.7965223044,-4794591.148743206,4195828.210797608,2.34113,2.88968,-0.170379,-114.736,13.6655,4.2018,-0.207349,-7.17911,6.4101,-0.0130609,0.00572892,-0.0102188,4,0,41.36661262755971,-91.7849301586356,13714.770127030088,-74.32373014007564,-2.860182108854674,1.291658898446531,184.345,13817.683391404704,16277.165501477106,150,True,20.32144206558333,False,154.82369313047775,174.7289125594237,False,30.441061328748166,False,False
9,1970-07-23 10:31:14.502139135,2025-09-12,2025-09-26 20:04:10.213,HH,C,1922651640,JASSM,3,104,76,2,2,1,225,9,2,0,1,26,0,0,0,0,-179747.91638358062,-4779488.707979049,4212317.032682896,-2.36693,-0.400752,0.381194,83.5,-35.25,-36.25,0.0,0.0,0.0,0.0,0.0,0.0,2,0,41.56150543888517,-92.15377549221846,14989.501871989856,119.809756507536,-0.0052606262050446,0.0024942168815041,,13817.683391404704,16277.165501477106,150,9,2025-09-12,2025-09-26 20:04:10.354,HH,C,4265616298,AMBUSH51,1,1,48,2,1,1,225,2,1,0,0,9,1,225,2,1,-149540.7699912043,-4794575.316244387,4195833.26163261,2.34531,2.88279,-0.176901,-115.004,14.1284,4.7107,-0.0388466,-7.18909,6.38808,-0.00231258,-0.00210452,0.0130048,4,0,41.36671731218414,-91.78645192454955,13696.498999289475,-73.78528643240556,-2.8899379771404594,1.4363158160223055,185.237,13817.683391404704,16277.165501477106,150,True,20.212400208869305,False,155.14709562889976,174.61821778020277,False,30.22862064538318,False,False
9,1970-07-23 10:31:14.513060393,2025-09-12,2025-09-26 20:04:11.306,HH,C,1923844686,JASSM,3,104,76,2,2,1,225,9,2,0,1,26,0,0,0,0,-179664.45056326812,-4779524.081025924,4212280.702604771,-2.36693,-0.400752,0.381194,83.5,-35.25,-36.25,0.0,0.0,0.0,0.0,0.0,0.0,2,0,41.561068584360015,-92.15276041165625,14989.503210845543,119.81042993321508,-0.0043844262874204,0.0024927508450126,,13817.683391404704,16277.165501477106,150,9,2025-09-12,2025-09-26 20:04:11.322,HH,C,4266769530,AMBUSH51,1,1,48,2,1,1,225,2,1,0,0,9,1,225,2,1,-149651.0640179984,-4794561.153616493,4195838.076372175,2.34671,2.88105,-0.179059,-115.272,14.5686,5.14229,0.0844248,-7.14056,6.14686,-0.0113569,0.00769924,0.0025789,4,0,41.36681355170779,-91.78777394766684,13680.5526825874,-73.62895342242064,-2.8762125891654198,1.4914316548370397,186.239,13817.683391404704,16277.165501477106,150,True,20.108420593528884,False,155.43160063715683,174.51933991140675,False,30.043377942078195,False,False
9,1970-07-23 10:31:14.522138238,2025-09-12,2025-09-26 20:04:12.213,HH,C,1925037732,JASSM,3,104,76,2,2,1,225,9,2,0,1,26,0,0,0,0,-179580.98474295562,-4779559.450166549,4212244.372526646,-2.36693,-0.400752,0.381194,83.5,-35.25,-36.25,0.0,0.0,0.0,0.0,0.0,0.0,2,0,41.560631744140686,-92.15174534652392,14989.499866893231,119.81110334284296,-0.0035082390272394,0.0024913043324303,,13817.683391404704,16277.165501477106,150,9,2025-09-12,2025-09-26 20:04:12.121,HH,C,4267723928,AMBUSH51,1,1,48,2,1,1,225,2,1,0,0,9,1,225,2,1,-149743.4268160492,-4794549.203829292,4195842.15271785,2.34149,2.87919,-0.181102,-115.608,14.7619,5.47185,-0.18126,-7.54479,6.52275,-0.0126407,-0.00186109,0.00147618,4,0,41.36689496598627,-91.78888107872936,13667.079266720628,-73.47224154672934,-2.8724205856302785,1.1650142437403954,186.911,13817.683391404704,16277.165501477106,150,True,20.012870154349372,False,155.59864492112675,174.43350811914345,False,29.961867670728047,True,False
9,1970-07-23 10:31:14.531878894,2025-09-12,2025-09-26 20:04:13.187,HH,C,1926111474,JASSM,3,104,76,2,2,1,225,9,2,0,1,26,0,0,0,0,-179505.86560233062,-4779591.284150924,4212211.675261021,-2.36693,-0.400752,0.381194,83.5,-35.25,-36.25,0.0,0.0,0.0,0.0,0.0,0.0,2,0,41.560238568432126,-92.15083179997288,14989.504942760312,119.81170939853234,-0.0027196648047327,0.0024899920398283,,13817.683391404704,16277.165501477106,150,9,2025-09-12,2025-09-26 20:04:13.355,HH,C,4269195294,AMBUSH51,1,1,48,2,1,1,225,2,1,0,0,9,1,225,2,1,-149886.62091122626,-4794530.273132381,4195849.2218267415,2.33864,2.87568,-0.187414,-115.968,15.0385,6.04972,-0.217616,-7.60282,6.62228,-0.0066527,-0.00374403,0.00311153,4,0,41.36702862959279,-91.79059767176082,13646.829170960676,-73.07363872051971,-2.768941291867089,0.9455978800916464,187.864,13817.683391404704,16277.165501477106,150,True,19.89851569534992,False,155.88400279716856,174.30950990924018,False,29.79979296778294,True,False
9,1970-07-23 10:31:14.541486389,2025-09-12,2025-09-26 20:04:14.148,HH,C,1927244868,JASSM,3,104,76,2,2,1,225,9,2,0,1,26,0,0,0,0,-179426.57361014312,-4779624.883760299,4212177.159636021,-2.36693,-0.400752,0.381194,83.5,-35.25,-36.25,0.0,0.0,0.0,0.0,0.0,0.0,2,0,41.55982354668466,-92.14986751936284,14989.50344434841,119.81234910658266,-0.001887287538301,0.002488608687782,,13817.683391404704,16277.165501477106,150,9,2025-09-12,2025-09-26 20:04:14.155,HH,C,4270149692,AMBUSH51,1,1,48,2,1,1,225,2,1,0,0,9,1,225,2,1,-149979.52807930525,-4794518.032923716,4195854.077071486,2.33413,2.8777,-0.18863,-116.294,15.0519,6.47069,-0.27192,-7.63425,6.71868,-0.00657988,0.00157605,-0.00546052,4,0,41.36711690191704,-91.79171142105014,13634.383129328187,-73.10084236548961,-2.637707198009995,0.7102824296943857,188.451,13817.683391404704,16277.165501477106,150,True,19.805202576082646,False,156.0316343029445,174.22303167213255,False,29.73721003668374,True,False
9,1970-07-23 10:31:14.550140099,2025-09-12,2025-09-26 20:04:15.014,HH,C,1928378262,JASSM,3,104,76,2,2,1,225,9,2,0,1,26,0,0,0,0,-179347.28064139312,-4779658.483369674,4212142.642057896,-2.36693,-0.400657,0.381194,83.5,-35.25,-36.25,0.0,0.0,0.0,0.0,0.0,0.0,2,0,41.559408503890346,-92.14890323940158,14989.502027097236,119.80934475532143,-0.0046213368196647,0.0004437754476813,,13817.683391404704,16277.165501477106,150,9,2025-09-12,2025-09-26 20:04:15.021,HH,C,4271183624,AMBUSH51,1,1,48,2,1,1,225,2,1,0,0,9,1,225,2,1,-150079.17562688052,-4794504.869536422,4195859.683090053,2.32612,2.88228,-0.194453,-116.453,14.9477,6.94234,-0.160034,-7.66731,6.98174,-0.00854188,0.00724567,0.00963211,4,0,41.36721446673778,-91.7929059903774,13621.81673472412,-73.0335254131962,-2.220604312203779,0.2988205659217992,188.891,13817.683391404704,16277.165501477106,150,True,19.70866402051647,False,156.1726010586638,174.13088395445453,False,29.68607869048193,True,False
9,1970-07-23 10:31:14.559140058,2025-09-12,2025-09-26 20:04:15.914,HH,C,1929452004,JASSM,3,104,76,2,2,1,225,9,2,0,1,26,0,0,0,0,-179272.16150076812,-4779690.311494674,4212109.942839146,-2.36693,-0.400657,0.381194,83.5,-35.25,-36.25,0.0,0.0,0.0,0.0,0.0,0.0,2,0,41.55901532731896,-92.1479897299366,14989.500825141082,119.80995077184208,-0.0038327750605748,0.0004424308392287,,13817.683391404704,16277.165501477106,150,9,2025-09-12,2025-09-26 20:04:15.821,HH,C,4272138024,AMBUSH51,1,1,48,2,1,1,225,2,1,0,0,9,1,225,2,1,-150172.26775269432,-4794492.634208348,4195865.380169816,2.32381,2.88361,-0.199568,-116.667,14.7232,7.48948,-0.0841882,-8.10159,6.98545,-0.00439734,0.00701473,0.00871041,4,0,41.36730833843719,-91.79402195496782,13611.231627594065,-72.8704996482145,-1.965557559356832,0.1750612654756959,189.404,13817.683391404704,16277.165501477106,150,True,19.617775466753326,False,156.301166150544,174.04423546448243,False,29.640426272911437,True,False
9,1970-07-23 10:31:14.569145822,2025-09-12,2025-09-26 20:04:16.914,HH,C,1930585398,JASSM,3,104,76,2,2,1,225,9,2,0,1,26,0,0,0,0,-179192.86853201812,-4779723.909150924,4212075.423307896,-2.36693,-0.400657,0.381194,83.5,-35.25,-36.25,0.0,0.0,0.0,0.0,0.0,0.0,2,0,41.55860026721982,-92.14702547488054,14989.498976957651,119.81059044756586,-0.0030003835121062,0.0004409859450198,,13817.683391404704,16277.165501477106,150,9,2025-09-12,2025-09-26 20:04:17.122,HH,C,4273688922,AMBUSH51,1,1,48,2,1,1,225,2,1,0,0,9,1,225,2,1,-150323.84938289842,-4794473.153914982,4195875.783971446,2.32817,2.88868,-0.205751,-116.943,14.307,8.52339,-0.183006,-7.92425,7.05525,0.00971742,0.000284001,0.0106766,4,0,41.36746614904088,-91.7958389204294,13597.538727051333,-72.80634392038338,-1.5143538859330443,0.4822053821179543,189.758,13817.683391404704,16277.165501477106,150,True,19.496605408226124,False,156.54633707638396,173.91070348545728,False,29.520201180006204,True,False
9,1970-07-23 10:31:14.578161051,2025-09-12,2025-09-26 20:04:17.816,HH,C,1931718780,JASSM,3,104,76,2,2,1,225,9,2,0,1,26,0,0,0,0,-179113.57653983062,-4779757.504854049,4212040.905729771,-2.36684,-0.400657,0.381194,83.5,-35.25,-36.25,0.0,0.0,0.0,0.0,0.0,0.0,2,0,41.55818522358542,-92.14606124472944,14989.501100043191,119.8112301015196,-0.0021680122820311,0.0059310297615367,,13817.683391404704,16277.165501477106,150,9,2025-09-12,2025-09-26 20:04:17.822,HH,C,4274524022,AMBUSH51,1,1,48,2,1,1,225,2,1,0,0,9,1,225,2,1,-150406.27741465106,-4794463.190474704,4195882.225994308,2.32842,2.89406,-0.208522,-117.031,12.0057,10.736,-0.291265,-8.01056,6.92536,0.00274743,0.00815073,-0.0021711,4,0,41.36755350788188,-91.79682673042008,13593.348582645762,-72.89598152142801,-1.1844932000137098,0.561692648833922,189.954,13817.683391404704,16277.165501477106,150,True,19.408099350102493,False,156.6142137946519,173.83070532447488,False,29.489008534180954,True,False
9,1970-07-23 10:31:14.587158218,2025-09-12,2025-09-26 20:04:18.715,HH,C,1932792534,JASSM,3,104,76,2,2,1,225,9,2,0,1,26,0,0,0,0,-179038.45642264312,-4779789.332979049,4212008.202604771,-2.36684,-0.400657,0.38129,83.5,-35.25,-36.25,0.0,0.0,0.0,0.0,0.0,0.0,2,0,41.557791998272656,-92.14514775802677,14989.50365395405,119.81567839087074,-0.0053052078729977,0.0059294426356902,,13817.683391404704,16277.165501477106,150,9,2025-09-12,2025-09-26 20:04:18.687,HH,C,4275557954,AMBUSH51,1,1,48,2,1,1,225,2,1,0,0,9,1,225,2,1,-150507.43098757468,-4794450.471731096,4195890.012334607,2.32072,2.89785,-0.21393,-117.055,13.7329,9.69867,-0.260083,-7.96517,7.08479,-0.00259554,0.00546676,0.00784904,4,0,41.36766281986988,-91.79803913407352,13586.742587529608,-72.813730761809,-0.8173966003605122,0.1649624407275845,190.027,13817.683391404704,16277.165501477106,150,True,19.31332274491408,False,156.79418370419612,173.73618476420995,False,29.433513608997433,True,False
9,1970-07-23 10:31:14.596161065,2025-09-12,2025-09-26 20:04:19.616,HH,C,1933866276,JASSM,3,104,76,2,2,1,225,9,2,0,1,26,0,0,0,0,-178963.33728201812,-4779821.159150924,4211975.497526646,-2.36684,-0.400657,0.38129,83.5,-35.25,-36.25,0.0,0.0,0.0,0.0,0.0,0.0,2,0,41.55739876395784,-92.14423429496368,14989.501224094263,119.81628435733734,-0.0045166325503942,0.0059281263339036,,13817.683391404704,16277.165501477106,150,9,2025-09-12,2025-09-26 20:04:19.487,HH,C,4276512352,AMBUSH51,1,1,48,2,1,1,225,2,1,0,0,9,1,225,2,1,-150600.74837988574,-4794439.456869391,4195897.905863775,2.31633,2.90465,-0.21757,-117.002,13.3444,10.2301,-0.0231296,-7.91494,6.81458,0.00633229,0.00139088,0.000417159,4,0,41.36776417841818,-91.7991573498513,13583.961843586794,-72.91972336454803,-0.3955356956430373,-0.0021808502507095,190.076,13817.683391404704,16277.165501477106,150,True,19.22228947799645,False,156.86768610786572,173.6472693774137,False,29.44046062124119,True,False
9,1970-07-23 10:31:14.606139370,2025-09-12,2025-09-26 20:04:20.613,HH,C,1934999670,JASSM,3,104,76,2,2,1,225,9,2,0,1,26,0,0,0,0,-178884.04431326812,-4779854.750947799,4211940.976042271,-2.36684,-0.400657,0.38129,83.5,-35.25,-36.25,0.0,0.0,0.0,0.0,0.0,0.0,2,0,41.55698369404944,-92.14327009059016,14989.497973258936,119.8169239790942,-0.003684253216164,0.005926755059075,,13817.683391404704,16277.165501477106,150,9,2025-09-12,2025-09-26 20:04:20.521,HH,C,4277745118,AMBUSH51,1,1,48,2,1,1,225,2,1,0,0,9,1,225,2,1,-150720.7340844809,-4794425.697737963,4195908.766942581,2.31279,2.91187,-0.220374,-117.004,12.6416,11.1148,-0.164987,-8.0883,7.12476,-0.000797908,0.0139223,-0.00127228,4,0,41.36789689491408,-91.80059498422,13582.929527448608,-73.07646386951735,0.0115219195487422,-0.1141262927784303,190.272,13817.683391404704,16277.165501477106,150,True,19.11603487456901,False,156.95695800627064,173.53583049535064,False,29.44550374526138,True,False
9,1970-07-23 10:31:14.615157131,2025-09-12,2025-09-26 20:04:21.515,HH,C,1936073412,JASSM,3,104,76,2,2,1,225,9,2,0,1,26,0,0,0,0,-178808.92517264312,-4779886.575166549,4211908.270964146,-2.36684,-0.400657,0.38129,83.5,-35.25,-36.25,0.0,0.0,0.0,0.0,0.0,0.0,2,0,41.55659045641263,-92.14235665116448,14989.498909910368,119.81752992019976,-0.0028956841426142,0.0059254484739159,,13817.683391404704,16277.165501477106,150,9,2025-09-12,2025-09-26 20:04:21.654,HH,C,4279097184,AMBUSH51,1,1,48,2,1,1,225,2,1,0,0,9,1,225,2,1,-150853.8281099454,-4794411.118108464,4195921.4785758015,2.29936,2.91464,-0.226376,-116.912,12.029,11.7223,-0.383739,-7.73399,6.80075,-0.0426449,0.00042132,0.00106422,4,0,41.36804451572712,-91.80218942929343,13584.91303651508,-72.9290898519308,0.3593024332856961,-0.8477510447614862,190.308,13817.683391404704,16277.165501477106,150,True,19.00626969279732,False,156.9746997723501,173.4137786690253,False,29.534752217663748,True,False
9,1970-07-23 10:31:14.624137933,2025-09-12,2025-09-26 20:04:22.413,HH,C,1937147154,JASSM,3,104,76,2,2,1,225,9,2,0,1,26,0,0,0,0,-178733.80505545562,-4779918.399385299,4211875.565886021,-2.36684,-0.400657,0.38129,83.5,-35.25,-36.25,0.0,0.0,0.0,0.0,0.0,0.0,2,0,41.55619721171086,-92.14144321112296,14989.503725783225,119.8181358570044,-0.0021071075342761,0.0059241463958142,,13817.683391404704,16277.165501477106,150,9,2025-09-12,2025-09-26 20:04:22.454,HH,C,4280051582,AMBUSH51,1,1,48,2,1,1,225,2,1,0,0,9,1,225,2,1,-150947.1012063988,-4794401.415737152,4195930.412619788,2.17189,2.91992,-0.225702,-116.882,11.5435,11.4561,0.033102,-7.51882,6.67752,-0.193657,0.00917646,-0.00225016,4,0,41.36814506750665,-91.80330663651765,13587.63195505902,-73.15755630856134,0.5510269199596973,-8.085164170051348,190.149,13817.683391404704,16277.165501477106,150,True,18.91547047627883,False,156.72297090300606,173.32214300268598,False,29.875137775935755,True,False
9,1970-07-23 10:31:14.634136833,2025-09-12,2025-09-26 20:04:23.413,HH,C,1938340200,JASSM,3,104,76,2,2,1,225,9,2,0,1,26,0,0,0,0,-178650.34021170562,-4779953.756807174,4211839.224089146,-2.36684,-0.400561,0.38129,83.5,-35.25,-36.25,0.0,0.0,0.0,0.0,0.0,0.0,2,0,41.55576026200831,-92.14042831537256,14989.500849441636,119.81516530403538,-0.0047973602795005,0.0038787675347679,,13817.683391404704,16277.165501477106,150,9,2025-09-12,2025-09-26 20:04:23.320,HH,C,4281085514,AMBUSH51,1,1,48,2,1,1,225,2,1,0,0,9,1,225,2,1,-151047.29497941933,-4794391.896590492,4195939.767066037,2.06089,2.94186,-0.216111,-117.087,10.1363,10.6229,-0.0444354,-8.00093,7.0946,-0.0112404,0.00871457,-0.026822,4,0,41.3682460623332,-91.80450640209423,13592.254464300098,-74.39114439388042,1.087170540990959,-14.186821883663775,190.663,13817.683391404704,16277.165501477106,150,False,18.816521437191906,False,155.95048965967857,173.22120739340795,False,30.739904335659354,False,False
9,1970-07-23 10:31:14.645139305,2025-09-12,2025-09-26 20:04:24.513,HH,C,1939652552,JASSM,3,104,76,2,2,1,225,9,2,0,1,26,0,0,0,0,-178558.52673514312,-4779992.649385299,4211799.247526646,-2.36684,-0.400561,0.38129,83.5,-35.25,-36.25,0.0,0.0,0.0,0.0,0.0,0.0,2,0,41.5552796069797,-92.13931192038204,14989.500434972522,119.8159058597302,-0.00383354404341,0.0038771116512114,,13817.683391404704,16277.165501477106,150,9,2025-09-12,2025-09-26 20:04:24.454,HH,C,4282437580,AMBUSH51,1,1,48,2,1,1,225,2,1,0,0,9,1,225,2,1,-151179.6737060499,-4794381.3242384335,4195950.806371945,2.04874,2.98964,-0.174045,-117.36,7.90561,8.95772,-0.141224,-8.24412,7.31268,-0.0329369,0.0162005,-0.0100441,4,0,41.36835865080935,-91.80609081509368,13600.440906872696,-77.98159073593098,1.469694167303268,-14.43235703084324,190.113,13817.683391404704,16277.165501477106,150,False,18.69818094610707,False,154.60772839066934,173.0875738052494,False,32.20749762938465,False,False
9,1970-07-23 10:31:14.655182093,2025-09-12,2025-09-26 20:04:25.518,HH,C,1940905250,JASSM,3,104,76,2,2,1,225,9,2,0,1,26,0,0,0,0,-178470.88708670562,-4780029.774385299,4211761.087370396,-2.36684,-0.400561,0.38129,83.5,-35.25,-36.25,0.0,0.0,0.0,0.0,0.0,0.0,2,0,41.554820783279816,-92.1382462917751,14989.504722542852,119.81661273320512,-0.0029135380569406,0.0038755232394177,,13817.683391404704,16277.165501477106,150,9,2025-09-12,2025-09-26 20:04:25.554,HH,C,4283749878,AMBUSH51,1,1,48,2,1,1,225,2,1,0,0,9,1,225,2,1,-151308.17915082624,-4794374.206315951,4195959.756413949,2.04649,3.04287,-0.161207,-117.315,4.3976,7.84224,-0.0269937,-9.52003,8.64575,0.0317655,0.0265057,-0.00247279,4,0,41.36843730243972,-91.80762768863096,13612.306699118317,-80.53127287572035,3.2306653839584736,-14.156454591067956,189.648,13817.683391404704,16277.165501477106,150,False,18.585478224283104,False,153.0168532350536,172.9523929825322,False,33.89692449252175,False,False
9,1970-07-23 10:31:14.666156547,2025-09-12,2025-09-26 20:04:26.615,HH,C,1942157948,JASSM,3,104,76,2,2,1,225,9,2,0,1,26,0,0,0,0,-178383.24743826812,-4780066.895479049,4211722.925261021,-2.36684,-0.400561,0.38129,83.5,-35.25,-36.25,0.0,0.0,0.0,0.0,0.0,0.0,2,0,41.55436195981524,-92.1371806799858,14989.500577937264,119.81731958911266,-0.0019935381757056,0.0038739429389609,,13817.683391404704,16277.165501477106,150,9,2025-09-12,2025-09-26 20:04:26.787,HH,C,4285221244,AMBUSH51,1,1,48,2,1,1,225,2,1,0,0,9,1,225,2,1,-151452.89079006764,-4794371.6161256805,4195968.955547045,2.06765,3.08663,-0.133985,-116.857,0.0562601,7.0292,0.0437495,-8.48202,7.59699,0.0731402,0.0172845,-0.00260594,4,0,41.3684876601972,-91.8093563379564,13637.123518200897,-83.34692081585611,4.06545835350622,-12.754574793601908,188.744,13817.683391404704,16277.165501477106,150,False,18.467042207178917,False,151.20163539918303,172.79604162829008,False,35.809820710942496,False,False
9,1970-07-23 10:31:14.677136237,2025-09-12,2025-09-26 20:04:27.713,HH,C,1943470300,JASSM,3,104,76,2,2,1,225,9,2,0,1,26,0,0,0,0,-178291.43396170562,-4780105.784150924,4211682.944792271,-2.36684,-0.400561,0.381386,83.5,-35.25,-36.25,0.0,0.0,0.0,0.0,0.0,0.0,2,0,41.55388127013754,-92.1360643348616,14989.49932609974,119.82190253480488,-0.0049553614465155,0.0038720829736727,,13817.683391404704,16277.165501477106,150,9,2025-09-12,2025-09-26 20:04:27.554,HH,C,4286135876,AMBUSH51,1,1,48,2,1,1,225,2,1,0,0,9,1,225,2,1,-151541.07254390544,-4794371.952676252,4195973.991050868,2.20897,3.10318,-0.122673,-116.309,-1.3622,6.56723,-0.326819,-7.96184,6.98113,0.184107,0.00113496,-0.00764098,4,0,41.3685031016023,-91.81040898761503,13655.727597307825,-84.45783805666593,4.347027088182295,-4.617578265315942,187.791,13817.683391404704,16277.165501477106,150,True,18.371562653399227,False,150.53835872701896,172.68826565745152,False,36.564661251748966,False,False
9,1970-07-23 10:31:14.688158864,2025-09-12,2025-09-26 20:04:28.815,HH,C,1944782650,JASSM,3,104,76,2,2,1,225,9,2,0,1,26,0,0,0,0,-178199.62048514312,-4780144.672822799,4211642.964323521,-2.36684,-0.400561,0.381386,83.5,-35.25,-36.25,0.0,0.0,0.0,0.0,0.0,0.0,2,0,41.55340056958229,-92.13494800627883,14989.504003093083,119.82264301905208,-0.0039915444257756,0.0038704882877356,,13817.683391404704,16277.165501477106,150,9,2025-09-12,2025-09-26 20:04:28.654,HH,C,4287448174,AMBUSH51,1,1,48,2,1,1,225,2,1,0,0,9,1,225,2,1,-151668.08342472787,-4794373.743695611,4195980.998245454,2.23871,3.12077,-0.129358,-115.359,-2.8073,6.86371,-0.246526,-8.53256,7.57882,0.0306981,0.0209589,0.0126282,4,0,41.36851590250122,-91.81192465540164,13685.21278872008,-84.82936058711498,5.353175706728232,-2.817891035495279,186.129,13817.683391404704,16277.165501477106,150,True,18.259728035653144,False,150.10163101583592,172.5400355508986,False,37.11658999753904,False,False
9,1970-07-23 10:31:14.699157756,2025-09-12,2025-09-26 20:04:29.915,HH,C,1946095006,JASSM,3,104,76,2,2,1,225,9,2,0,1,26,0,0,0,0,-178107.80700858062,-4780183.557588424,4211602.981901646,-2.36684,-0.400561,0.381386,83.5,-35.25,-36.25,0.0,0.0,0.0,0.0,0.0,0.0,2,0,41.55291986829595,-92.13383169598016,14989.500774535554,119.82338348413512,-0.0030277335018063,0.0038689017085283,,13817.683391404704,16277.165501477106,150,9,2025-09-12,2025-09-26 20:04:30.020,HH,C,4289078606,AMBUSH51,1,1,48,2,1,1,225,2,1,0,0,9,1,225,2,1,-151824.74000855576,-4794378.04808996,4195990.71662841,2.27825,3.12104,-0.127912,-114.161,-3.90465,7.43522,-0.0595935,-7.08865,6.18491,0.00659653,-0.00519629,-0.00703345,4,0,41.36852647292032,-91.813793299096,13729.080340565211,-84.90332490726246,5.3115674148234735,-0.5572023015571885,184.516,13817.683391404704,16277.165501477106,150,True,18.13554092872807,False,149.87023688620772,172.3598545035574,False,37.49395836585435,False,False
9,1970-07-23 10:31:14.710136071,2025-09-12,2025-09-26 20:04:31.013,HH,C,1947467006,JASSM,3,104,76,2,2,1,225,9,2,0,1,26,0,0,0,0,-178011.82068045562,-4780224.209932174,4211561.181120396,-2.36684,-0.400561,0.381386,83.5,-35.25,-36.25,0.0,0.0,0.0,0.0,0.0,0.0,2,0,41.552417298108175,-92.13266466779451,14989.501875573982,119.82415758361851,-0.0020201130852794,0.0038672345434382,,13817.683391404704,16277.165501477106,150,9,2025-09-12,2025-09-26 20:04:31.153,HH,C,4290430672,AMBUSH51,1,1,48,2,1,1,225,2,1,0,0,9,1,225,2,1,-151953.46927381278,-4794381.379656926,4195998.304345121,2.28153,3.11188,-0.121396,-113.307,-3.13127,6.69492,-0.0925381,-6.75102,5.89083,0.00715204,0.0100129,0.0148502,4,0,41.36853366881328,-91.81532889024672,13763.767977451243,-84.84280924050005,4.674827402494617,-0.4287208558674834,182.939,13817.683391404704,16277.165501477106,150,True,18.020885767371567,False,149.94169785309094,172.20398226175416,False,37.612645972853414,False,False
9,1970-07-23 10:31:14.721164947,2025-09-12,2025-09-26 20:04:32.116,HH,C,1948779356,JASSM,3,104,76,2,2,1,225,9,2,0,1,26,0,0,0,0,-177920.00818045562,-4780263.094697799,4211521.194792271,-2.36684,-0.400465,0.381386,83.5,-35.25,-36.25,0.0,0.0,0.0,0.0,0.0,0.0,2,0,41.55193654805598,-92.13154840301809,14989.502362504762,119.82125448664512,-0.0046227244640366,0.0018211999270304,,13817.683391404704,16277.165501477106,150,9,2025-09-12,2025-09-26 20:04:32.187,HH,C,4291663436,AMBUSH51,1,1,48,2,1,1,225,2,1,0,0,9,1,225,2,1,-152070.93842559276,-4794383.861795783,4196005.086577372,2.29388,3.12114,-0.129137,-112.585,-3.08361,6.84343,-0.312004,-7.89908,7.26757,-0.0114714,-0.00720406,0.00697103,4,0,41.36854257671613,-91.81673036844182,13793.74819155302,-84.85580657348044,5.364114946360456,0.3439718576837893,181.461,13817.683391404704,16277.165501477106,150,True,17.91365544025538,False,150.0145268195869,172.05899143097102,False,37.68313573529551,False,False
9,1970-07-23 10:31:14.732136325,2025-09-12,2025-09-26 20:04:33.213,HH,C,1950032056,JASSM,3,104,76,2,2,1,225,9,2,0,1,26,0,0,0,0,-177832.36755545562,-4780300.207979049,4211483.026823521,-2.36684,-0.400465,0.381386,83.5,-35.25,-36.25,0.0,0.0,0.0,0.0,0.0,0.0,2,0,41.55147766965363,-92.13048287775736,14989.50016511202,119.8219612450618,-0.0037027224464111,0.0018196319883241,,13817.683391404704,16277.165501477106,150,9,2025-09-12,2025-09-26 20:04:33.153,HH,C,4292816668,AMBUSH51,1,1,48,2,1,1,225,2,1,0,0,9,1,225,2,1,-152178.45953479392,-4794386.355033492,4196011.632230021,2.26785,3.11467,-0.122724,-111.849,-2.9333,6.78007,-0.154404,-6.56658,6.12407,-0.0246478,-0.00554791,-0.00798012,4,0,41.36855168086681,-91.81801307341918,13822.472714212963,-84.8919527286058,4.846469206701292,-1.1969779842339932,180.178,13817.683391404704,16277.165501477106,150,True,17.813335100835324,False,150.059635673045,171.92386678625107,False,37.77837025233114,False,False
9,1970-07-23 10:31:14.743155975,2025-09-12,2025-09-26 20:04:34.315,HH,C,1951344406,JASSM,3,104,76,2,2,1,225,9,2,0,1,26,0,0,0,0,-177740.55505545562,-4780339.088838424,4211443.040495396,-2.36684,-0.400465,0.381386,83.5,-35.25,-36.25,0.0,0.0,0.0,0.0,0.0,0.0,2,0,41.55099692163993,-92.12936664704984,14989.502655895823,119.82270162931182,-0.0027389184189395,0.0018179761375548,,13817.683391404704,16277.165501477106,150,9,2025-09-12,2025-09-26 20:04:34.387,HH,C,4294288034,AMBUSH51,1,1,48,2,1,1,225,2,1,0,0,9,1,225,2,1,-152316.395671062,-4794389.367787177,4196019.775217417,2.26749,3.11738,-0.126394,-110.983,-2.88606,6.55267,-0.0875329,-7.37004,6.82184,0.00756816,0.00860222,-0.000410917,4,0,41.3685627264831,-91.8196586893192,13858.322884421514,-84.83554151657232,5.1018416317045565,-1.1931026220298395,178.894,13817.683391404704,16277.165501477106,150,True,17.697639717875592,False,150.0116806607184,171.7539909353395,False,38.003452778614275,False,False
9,1970-07-23 10:31:14.753155854,2025-09-12,2025-09-26 20:04:35.315,HH,C,1952597106,JASSM,3,104,76,2,2,1,225,9,2,0,1,26,0,0,0,0,-177652.91443045562,-4780376.200166549,4211404.868620396,-2.36684,-0.400465,0.381386,83.5,-35.25,-36.25,0.0,0.0,0.0,0.0,0.0,0.0,2,0,41.55053800829263,-92.1283011535172,14989.498227139067,119.8234083535555,-0.0018189095271577,0.001816395074117,,13817.683391404704,16277.165501477106,150,9,2025-09-12,2025-09-26 20:04:35.353,HH,C,473970,AMBUSH51,1,1,48,2,1,1,225,2,1,0,0,9,1,225,2,1,-152423.3577200303,-4794391.910239077,4196026.248176135,2.26964,3.11865,-0.120638,-110.381,-3.13998,6.736,-0.0148239,-6.95494,6.45538,-0.0107265,-0.0157158,0.0102022,4,0,41.36857112017327,-91.82093469410796,13886.980672228308,-85.13350219172929,4.940400854488733,-1.087180031239791,177.807,13817.683391404704,16277.165501477106,150,True,17.597811811633758,False,149.9767123701306,171.61580011724436,False,38.167665396822926,False,False
9,1970-07-23 10:31:14.764154838,2025-09-12,2025-09-26 20:04:36.415,HH,C,1953849806,JASSM,3,104,76,2,2,1,225,9,2,0,1,26,0,0,0,0,-177565.27380545562,-4780413.311494674,4211366.696745396,-2.36684,-0.400465,0.381482,83.5,-35.25,-36.25,0.0,0.0,0.0,0.0,0.0,0.0,2,0,41.55007908503613,-92.1272356750552,14989.499200490354,119.82795764590075,-0.004824402680504,0.0018146220489853,,13817.683391404704,16277.165501477106,150,9,2025-09-12,2025-09-26 20:04:35.353,HH,C,473970,AMBUSH51,1,1,48,2,1,1,225,2,1,0,0,9,1,225,2,1,-152423.3577200303,-4794391.910239077,4196026.248176135,2.26964,3.11865,-0.120638,-110.381,-3.13998,6.736,-0.0148239,-6.95494,6.45538,-0.0107265,-0.0157158,0.0102022,4,0,41.36857112017327,-91.82093469410796,13886.980672228308,-85.13350219172929,4.940400854488733,-1.087180031239791,177.807,13817.683391404704,16277.165501477106,150,True,17.543285361330167,False,149.9767123701306,171.58977148365057,False,38.19308596659775,False,False
9,1970-07-23 10:31:14.776237188,2025-09-12,2025-09-26 20:04:37.623,HH,C,1955162156,JASSM,3,104,76,2,2,1,225,9,2,0,1,26,0,0,0,0,-177473.46032889312,-4780452.188447799,4211326.706511021,-2.36684,-0.400465,0.381482,83.5,-35.25,-36.25,0.0,0.0,0.0,0.0,0.0,0.0,2,0,41.54959830259554,-92.12611948251325,14989.5007647365,119.8286979844729,-0.003860590460922,0.0018130319830313,,13817.683391404704,16277.165501477106,150,9,2025-09-12,2025-09-26 20:04:37.920,HH,C,3536000,AMBUSH51,1,1,48,2,1,1,225,2,1,0,0,9,1,225,2,1,-152703.74592069557,-4794397.34148646,4196041.363873096,2.29339,3.10202,-0.108264,-108.978,-1.6906,5.4003,-0.0418636,-6.6328,5.98329,-0.00120362,-0.00170921,0.0103811,4,0,41.3685878787551,-91.82428004186022,13955.079355880964,-85.04587717222107,3.763706117351052,0.1720521584610836,175.228,13817.683391404704,16277.165501477106,150,True,17.368066005537354,False,150.11473849888182,171.26026796853282,False,38.44739210878965,False,False
9,1970-07-23 10:31:14.785155535,2025-09-12,2025-09-26 20:04:38.515,HH,C,1956414854,JASSM,3,104,76,2,2,1,225,9,2,0,1,26,0,0,0,0,-177385.82068045562,-4780489.297822799,4211288.532682896,-2.36684,-0.400465,0.381482,83.5,-35.25,-36.25,0.0,0.0,0.0,0.0,0.0,0.0,2,0,41.54913935733043,-92.12505404746676,14989.503846042391,119.82940465048748,-0.0029405885376587,0.0018115063238556,,13817.683391404704,16277.165501477106,150,9,2025-09-12,2025-09-26 20:04:38.553,HH,C,4291566,AMBUSH51,1,1,48,2,1,1,225,2,1,0,0,9,1,225,2,1,-152773.21279701794,-4794397.930974626,4196044.699044028,2.29695,3.09696,-0.109528,-108.668,-1.26413,5.1909,-0.172174,-6.78818,6.2446,0.00869376,-0.00930546,0.000304807,4,0,41.368593742726304,-91.82510914465948,13969.207913053786,-84.80155998278735,3.5954411341500467,0.3599700416926994,175.021,13817.683391404704,16277.165501477106,150,True,17.2843437342195,False,150.21353928128678,171.15707483875403,False,38.46467387843777,False,False
9,1970-07-23 10:31:14.796156056,2025-09-12,2025-09-26 20:04:39.615,HH,C,1957727206,JASSM,3,104,76,2,2,1,225,9,2,0,1,26,0,0,0,0,-177294.00720389312,-4780528.170869674,4211248.540495396,-2.36684,-0.400369,0.381482,83.5,-35.25,-36.25,0.0,0.0,0.0,0.0,0.0,0.0,2,0,41.54865856377928,-92.12393788898753,14989.503163610254,119.8265017033099,-0.0055432039944965,-0.000234926551524,,13817.683391404704,16277.165501477106,150,9,2025-09-12,2025-09-26 20:04:39.653,HH,C,5603864,AMBUSH51,1,1,48,2,1,1,225,2,1,0,0,9,1,225,2,1,-152892.42758011312,-4794398.597619975,4196050.188146561,2.29295,3.08919,-0.10897,-108.105,-0.49234,4.75214,-0.139986,-6.50983,6.04455,-0.00898089,-0.0199872,-0.00115993,4,0,41.36860425915268,-91.8265321290078,13992.102725876097,-84.53399579704694,3.242541364440955,0.0984687188788087,174.458,13817.683391404704,16277.165501477106,150,True,17.177169489951837,False,150.36859688750187,170.99671012800383,False,38.49383732855685,False,False
9,1970-07-23 10:31:14.807154559,2025-09-12,2025-09-26 20:04:40.715,HH,C,1959039556,JASSM,3,104,76,2,2,1,225,9,2,0,1,26,0,0,0,0,-177202.19470389312,-4780567.043916549,4211208.546354771,-2.36674,-0.400369,0.381482,83.5,-35.25,-36.25,0.0,0.0,0.0,0.0,0.0,0.0,2,0,41.54817774598705,-92.12282175873578,14989.5042486622,119.82724197988324,-0.0045793987512021,0.0052548862572527,,13817.683391404704,16277.165501477106,150,9,2025-09-12,2025-09-26 20:04:40.720,HH,C,6876396,AMBUSH51,1,1,48,2,1,1,225,2,1,0,0,9,1,225,2,1,-153006.43326504788,-4794398.556021743,4196055.048677678,2.28397,3.08599,-0.107167,-107.785,-0.106846,4.55925,-0.167189,-7.08224,6.50742,-0.0156367,0.00115161,0.00394793,4,0,41.3686157111153,-91.82789319221918,14011.489834830789,-84.49236346127005,3.0386810217094484,-0.433224789262527,173.774,13817.683391404704,16277.165501477106,150,True,17.072253626630577,False,150.45453247834885,170.84017563891672,False,38.575793037170705,False,False
9,1970-07-23 10:31:14.817159367,2025-09-12,2025-09-26 20:04:41.715,HH,C,1960172950,JASSM,3,104,76,2,2,1,225,9,2,0,1,26,0,0,0,0,-177122.89978201812,-4780600.614229049,4211174.003386021,-2.36674,-0.400369,0.381482,83.5,-35.25,-36.25,0.0,0.0,0.0,0.0,0.0,0.0,2,0,41.54776247979877,-92.12185781457434,14989.499570205262,119.82788131293388,-0.0037470011915978,0.0052534582254801,,13817.683391404704,16277.165501477106,150,9,2025-09-12,2025-09-26 20:04:41.721,HH,C,8069396,AMBUSH51,1,1,48,2,1,1,225,2,1,0,0,9,1,225,2,1,-153114.45884264883,-4794398.303184651,4196059.557863074,2.27817,3.08004,-0.10576,-107.41,0.347678,4.18678,-0.0110332,-6.61218,6.1566,-0.00250608,-0.0187867,0.00157397,4,0,41.36862716512904,-91.82918294107428,14029.131938750306,-84.32960348508634,2.7315168011757662,-0.7937719300604676,173.298,13817.683391404704,16277.165501477106,150,True,16.977715209477108,False,150.50183088488455,170.6927099048744,False,38.691263901308574,False,False
9,1970-07-23 10:31:14.827834890,2025-09-12,2025-09-26 20:04:42.783,HH,C,1961365998,JASSM,3,104,76,2,2,1,225,9,2,0,1,26,0,0,0,0,-177039.43200858062,-4780635.950166549,4211137.644011021,-2.36674,-0.400369,0.381482,83.5,-35.25,-36.25,0.0,0.0,0.0,0.0,0.0,0.0,2,0,41.54732536703974,-92.1208431571504,14989.500026467784,119.82855427573088,-0.0028708070227846,0.0052519681546751,,13817.683391404704,16277.165501477106,150,9,2025-09-12,2025-09-26 20:04:42.921,HH,C,9500994,AMBUSH51,1,1,48,2,1,1,225,2,1,0,0,9,1,225,2,1,-153242.66139573226,-4794398.111813958,4196064.918268642,2.28748,3.08018,-0.108993,-107.195,-2.14555,6.50426,-0.0158252,-6.95465,6.37246,0.0119041,0.00967373,-0.00102261,4,0,41.36864015445328,-91.83071354501548,14050.363982488414,-84.19667168355303,2.8610471956182315,-0.2526205110482975,172.65,13817.683391404704,16277.165501477106,150,True,16.872291543418278,False,150.3340678344762,170.5191460943461,False,38.93596093843829,False,False
9,1970-07-23 10:31:14.837157311,2025-09-12,2025-09-26 20:04:43.715,HH,C,1962559044,JASSM,3,104,76,2,2,1,225,9,2,0,1,26,0,0,0,0,-176955.96521170562,-4780671.286104049,4211101.282682896,-2.36674,-0.400369,0.381482,83.5,-35.25,-36.25,0.0,0.0,0.0,0.0,0.0,0.0,2,0,41.5468882319275,-92.11982852508312,14989.501221325963,119.82922721589485,-0.0019946137268081,0.0052504620975368,,13817.683391404704,16277.165501477106,150,9,2025-09-12,2025-09-26 20:04:43.554,HH,C,10256560,AMBUSH51,1,1,48,2,1,1,225,2,1,0,0,9,1,225,2,1,-153310.9676690969,-4794396.972829883,4196067.156706161,2.28933,3.07929,-0.108644,-106.929,0.607851,4.13013,-0.188025,-7.29664,6.79313,0.0110074,-0.00625739,0.00239997,4,0,41.368649060239925,-91.83152944510545,14057.788702698062,-84.17898137012774,2.810707968098223,-0.1514415060788768,172.308,13817.683391404704,16277.165501477106,150,True,16.79191217476457,False,150.5897039786064,170.41206885832742,False,38.89060073077275,False,False
9,1970-07-23 10:31:14.847134940,2025-09-12,2025-09-26 20:04:44.713,HH,C,1963752090,JASSM,3,104,76,2,2,1,225,9,2,0,1,26,0,0,0,0,-176872.49841483062,-4780706.620088424,4211064.919401646,-2.36674,-0.400369,0.381482,83.5,-35.25,-36.25,0.0,0.0,0.0,0.0,0.0,0.0,2,0,41.54645108632482,-92.11881390754958,14989.498273607422,119.82990014060296,-0.001118420177213,0.0052489543739135,,13817.683391404704,16277.165501477106,150,9,2025-09-12,2025-09-26 20:04:44.820,HH,C,11767692,AMBUSH51,1,1,48,2,1,1,225,2,1,0,0,9,1,225,2,1,-153445.31799847822,-4794395.950733514,4196072.526143458,2.37077,3.07527,-0.113156,-106.576,0.944765,4.40743,-0.0943452,-7.11334,6.72665,0.108926,0.0160924,-0.0058912,4,0,41.36866584745347,-91.83313375722838,14077.49310552139,-83.8341546858033,2.810469778936408,4.506654105336128,171.611,13817.683391404704,16277.165501477106,150,True,16.68405237958361,False,150.82921099446054,170.22800586785024,False,38.83701708388823,False,False
9,1970-07-23 10:31:14.857134877,2025-09-12,2025-09-26 20:04:45.713,HH,C,1964945136,JASSM,3,104,76,2,2,1,225,9,2,0,1,26,0,0,0,0,-176789.03064139312,-4780741.954072799,4211028.556120396,-2.36674,-0.400369,0.381578,83.5,-35.25,-36.25,0.0,0.0,0.0,0.0,0.0,0.0,2,0,41.54601393195219,-92.11779929199665,14989.5001370929,119.83441578374132,-0.0041675831200178,0.0052473032707413,,13817.683391404704,16277.165501477106,150,9,2025-09-12,2025-09-26 20:04:45.753,HH,C,12881158,AMBUSH51,1,1,48,2,1,1,225,2,1,0,0,9,1,225,2,1,-153544.94230195152,-4794394.543120085,4196077.116766017,2.42509,3.07408,-0.124657,-106.103,1.50522,5.37693,-0.273764,-7.31858,7.04869,0.0230624,-0.00743709,0.00905163,4,0,41.3686862555222,-91.8343236438605,14091.832152092413,-83.29475252873893,3.195771475180306,7.638837577257429,170.511,13817.683391404704,16277.165501477106,150,True,16.590502455491997,False,151.4163556539224,170.08315985414978,False,38.387758408120064,False,False
9,1970-07-23 10:31:14.866133753,2025-09-12,2025-09-26 20:04:46.613,HH,C,1966078530,JASSM,3,104,76,2,2,1,225,9,2,0,1,26,0,0,0,0,-176709.73669608062,-4780775.520479049,4210994.011198521,-2.36674,-0.400369,0.381578,83.5,-35.25,-36.25,0.0,0.0,0.0,0.0,0.0,0.0,2,0,41.54559863343511,-92.11683542553048,14989.504754106376,119.83505503800347,-0.0033351988023664,0.0052459344986218,,13817.683391404704,16277.165501477106,150,9,2025-09-12,2025-09-26 20:04:46.553,HH,C,13835556,AMBUSH51,1,1,48,2,1,1,225,2,1,0,0,9,1,225,2,1,-153629.64493035007,-4794393.005680154,4196081.715272481,2.44726,3.06022,-0.140029,-105.736,2.10089,6.39268,-0.129682,-7.39249,7.14806,0.029094,-0.00213157,0.0273276,4,0,41.36871031825112,-91.83533543952944,14104.697167867726,-82.11229192263426,3.186930707849047,8.870589757732004,170.206,13817.683391404704,16277.165501477106,150,True,16.505627744580718,False,152.03481762082805,169.95662673827297,False,37.88800058869085,False,False
9,1970-07-23 10:31:14.876154670,2025-09-12,2025-09-26 20:04:47.615,HH,C,1967271578,JASSM,3,104,76,2,2,1,225,9,2,0,1,26,0,0,0,0,-176626.26989920562,-4780810.850557174,4210957.645964146,-2.36674,-0.400369,0.381578,83.5,-35.25,-36.25,0.0,0.0,0.0,0.0,0.0,0.0,2,0,41.54516147146794,-92.11582085004694,14989.502425876251,119.83572791776376,-0.0024590111242184,0.0052444935787528,,13817.683391404704,16277.165501477106,150,9,2025-09-12,2025-09-26 20:04:47.420,HH,C,14869488,AMBUSH51,1,1,48,2,1,1,225,2,1,0,0,9,1,225,2,1,-153721.0230556662,-4794390.785324359,4196087.747469302,2.46772,3.05406,-0.150044,-105.283,2.81803,7.6809,-0.172348,-7.14445,6.91214,0.00309697,0.0105164,0.0043474,4,0,41.36874684030231,-91.83642719027036,14119.520675135494,-81.45046579360056,3.3047055880889182,10.029026958928275,169.68,13817.683391404704,16277.165501477106,150,False,16.41502462480356,False,152.80657630552653,169.8211302436413,False,37.23998528893563,False,False
9,1970-07-23 10:31:14.886154133,2025-09-12,2025-09-26 20:04:48.615,HH,C,1968464624,JASSM,3,104,76,2,2,1,225,9,2,0,1,26,0,0,0,0,-176542.80212576812,-4780846.180635299,4210921.278776646,-2.36674,-0.400273,0.381578,83.5,-35.25,-36.25,0.0,0.0,0.0,0.0,0.0,0.0,2,0,41.54472428757912,-92.1148062765436,14989.500659174384,119.83275780925923,-0.0051492247350199,0.0031976810260313,,13817.683391404704,16277.165501477106,150,9,2025-09-12,2025-09-26 20:04:48.620,HH,C,16301086,AMBUSH51,1,1,48,2,1,1,225,2,1,0,0,9,1,225,2,1,-153846.1543847285,-4794386.208521281,4196097.705219586,2.46221,3.04051,-0.165911,-104.578,4.28987,9.1887,0.00636557,-7.31795,6.69552,-0.0122225,0.000163327,0.027777,4,0,41.36881742920937,-91.83792279933284,14139.726442826946,-80.26036354758165,3.331491188485421,9.660716087382731,169.24,13817.683391404704,16277.165501477106,150,True,16.309361276497622,False,153.97723115232694,169.6485132140085,False,36.2402317731685,False,False
9,1970-07-23 10:31:14.896135782,2025-09-12,2025-09-26 20:04:49.613,HH,C,1969657670,JASSM,3,104,76,2,2,1,225,9,2,0,1,26,0,0,0,0,-176459.33435233062,-4780881.508760299,4210884.911589146,-2.36674,-0.400273,0.381578,83.5,-35.25,-36.25,0.0,0.0,0.0,0.0,0.0,0.0,2,0,41.54428710635224,-92.11379171757132,14989.498999687668,119.83343066653131,-0.0042730293466313,0.0031961872291527,,13817.683391404704,16277.165501477106,150,9,2025-09-12,2025-09-26 20:04:49.820,HH,C,17732686,AMBUSH51,1,1,48,2,1,1,225,2,1,0,0,9,1,225,2,1,-153971.79930034617,-4794380.13387871,4196109.617655442,2.448,3.02644,-0.182576,-103.857,5.32574,10.8736,-0.16551,-7.38671,7.00231,-0.0156284,0.00263715,0.0053024,4,0,41.36891000264672,-91.83942511436383,14160.5332299821,-79.01787674569239,3.3694516861291106,8.779204369404424,168.837,13817.683391404704,16277.165501477106,150,True,16.202762953402896,False,155.04641700357107,169.47646623835857,False,35.32677563809282,False,False
9,1970-07-23 10:31:14.906173844,2025-09-12,2025-09-26 20:04:50.617,HH,C,1970791064,JASSM,3,104,76,2,2,1,225,9,2,0,1,26,0,0,0,0,-176380.04040701812,-4780915.071260299,4210850.362761021,-2.36674,-0.400273,0.381578,83.5,-35.25,-36.25,0.0,0.0,0.0,0.0,0.0,0.0,2,0,41.54387177110995,-92.11282790412191,14989.503918513225,119.83406986389711,-0.0034406444909033,0.0031947621312406,,13817.683391404704,16277.165501477106,150,9,2025-09-12,2025-09-26 20:04:50.657,HH,C,18726850,AMBUSH51,1,1,48,2,1,1,225,2,1,0,0,9,1,225,2,1,-154057.91570020517,-4794375.066224117,4196119.155253754,2.4428,3.02184,-0.195406,-103.262,6.12212,12.0144,-0.0545166,-7.49491,6.91457,-0.0148149,0.00306159,0.013991,4,0,41.36898808503611,-91.84045514118192,14175.550698528754,-78.29532206543826,3.663563569585191,8.476538626902133,168.348,13817.683391404704,16277.165501477106,150,True,16.115550227415394,False,155.8200465468606,169.35049679479428,False,34.66874632470766,False,False
9,1970-07-23 10:31:14.915170938,2025-09-12,2025-09-26 20:04:51.517,HH,C,1971924460,JASSM,3,104,76,2,2,1,225,9,2,0,1,26,0,0,0,0,-176300.74646170562,-4780948.631807174,4210815.811979771,-2.36674,-0.400273,0.381578,83.5,-35.25,-36.25,0.0,0.0,0.0,0.0,0.0,0.0,2,0,41.54345642625376,-92.11186410387025,14989.50421704673,119.8347090472605,-0.002608259385735,0.0031933353706387,,13817.683391404704,16277.165501477106,150,9,2025-09-12,2025-09-26 20:04:51.624,HH,C,19880084,AMBUSH51,1,1,48,2,1,1,225,2,1,0,0,9,1,225,2,1,-154157.41423440093,-4794368.445160926,4196131.446118201,2.45762,3.01118,-0.203818,-102.653,6.85225,13.3963,0.00333327,-7.0606,6.80763,0.0875712,-0.00919103,0.0177506,4,0,41.36909142561801,-91.84164552516668,14193.778084268,-77.53671611648616,3.535553825287012,9.252235848025542,167.725,13817.683391404704,16277.165501477106,150,True,16.021972116021633,False,156.65682817332046,169.21050368827954,False,33.951843792662714,False,False
9,1970-07-23 10:31:14.925191840,2025-09-12,2025-09-26 20:04:52.519,HH,C,1973117504,JASSM,3,104,76,2,2,1,225,9,2,0,1,26,0,0,0,0,-176217.27868826812,-4780983.956025924,4210779.440886021,-2.36674,-0.400273,0.381578,83.5,-35.25,-36.25,0.0,0.0,0.0,0.0,0.0,0.0,2,0,41.54301921596124,-92.1108495862586,14989.498682301602,119.83538186023344,-0.0017320634245227,0.0031918382057935,,13817.683391404704,16277.165501477106,150,9,2025-09-12,2025-09-26 20:04:52.390,HH,C,20794716,AMBUSH51,1,1,48,2,1,1,225,2,1,0,0,9,1,225,2,1,-154235.3164862072,-4794362.399373572,4196141.972798424,2.54339,3.00594,-0.215951,-101.982,8.06162,14.3735,-0.249106,-7.33296,6.90369,0.0989604,0.0205199,0.000204939,4,0,41.36918355123482,-91.8425778669837,14207.891148388191,-76.82086082086647,3.7777312490774286,14.149304689716454,167.236,13817.683391404704,16277.165501477106,150,False,15.935113082873595,False,157.56110918947314,169.09242401416583,False,33.16879562876041,False,False
9,1970-07-23 10:31:14.936291908,2025-09-12,2025-09-26 20:04:53.629,HH,C,1974250898,JASSM,3,104,76,2,2,1,225,9,2,0,1,26,0,0,0,0,-176137.98669608062,-4781017.514619674,4210744.890104771,-2.36674,-0.400273,0.381578,83.5,-35.25,-36.25,0.0,0.0,0.0,0.0,0.0,0.0,2,0,41.54260386568033,-92.10988583556228,14989.503441518997,119.83602099995636,-0.0008996995118119,0.0031904120785892,,13817.683391404704,16277.165501477106,150,9,2025-09-12,2025-09-26 20:04:53.523,HH,C,22146780,AMBUSH51,1,1,48,2,1,1,225,2,1,0,0,9,1,225,2,1,-154349.9313754882,-4794351.735599099,4196159.4617159655,2.58797,2.98389,-0.2422,-100.839,9.84884,16.9169,-0.206855,-7.43763,7.00254,0.0179753,-0.0159779,0.0523405,4,0,41.3693431064469,-91.84395027159208,14228.647816267669,-74.87599772466781,3.859010740342657,16.54654645901304,166.295,13817.683391404704,16277.165501477106,150,False,15.833334729325193,False,159.30868435489938,168.93908130837022,False,31.542145571141923,False,False
9,1970-07-23 10:31:14.946051620,2025-09-12,2025-09-26 20:04:54.605,HH,C,1975563250,JASSM,3,104,76,2,2,1,225,9,2,0,1,26,0,0,0,0,-176046.17028983062,-4781056.370088424,4210704.880339146,-2.36674,-0.400273,0.381674,83.5,-35.125,-36.25,0.0,0.0,0.0,0.0,0.0,0.0,2,0,41.54212291146844,-92.1087698745684,14989.501689816678,119.84060394247,-0.0038610941365156,0.0031886431433213,,13817.683391404704,16277.165501477106,150,9,2025-09-12,2025-09-26 20:04:54.523,HH,C,23339780,AMBUSH51,1,1,48,2,1,1,225,2,1,0,0,9,1,225,2,1,-154450.78472188773,-4794339.956120966,4196177.463152108,2.63705,2.94128,-0.242277,-99.788,12.4511,18.3978,-0.20247,-5.7206,5.32395,0.0401045,-0.0383943,0.0232933,4,0,41.36951537243878,-91.84515881959496,14246.686107417245,-73.2862224229761,2.101208818160373,18.85595804927038,165.892,13817.683391404704,16277.165501477106,150,False,15.728979437679847,False,161.09273843112652,168.7597865138379,False,29.978116412182622,True,False
9,1970-07-23 10:31:14.956069773,2025-09-12,2025-09-26 20:04:55.606,HH,C,1976815950,JASSM,3,104,76,2,2,1,225,9,2,0,1,26,0,0,0,0,-175958.52917654935,-4781093.457979049,4210666.688932896,-2.36674,-0.400273,0.381674,83.5,-35.125,-36.25,0.0,0.0,0.0,0.0,0.0,0.0,2,0,41.5416638149486,-92.10770467690784,14989.501647751327,119.8413103470188,-0.0029410908018696,0.0031871349208279,,13817.683391404704,16277.165501477106,150,9,2025-09-12,2025-09-26 20:04:55.590,HH,C,24612312,AMBUSH51,1,1,48,2,1,1,225,2,1,0,0,9,1,225,2,1,-154556.16668220377,-4794323.86236804,4196196.634669579,2.68121,2.91712,-0.245276,-98.9064,16.3145,18.6618,-0.193965,-6.32664,5.86118,0.0202868,0.018354,0.0244959,4,0,41.36972030182488,-91.84642309639858,14257.009413911876,-72.25410904118785,1.225815048763082,21.081827429010826,164.89,13817.683391404704,16277.165501477106,150,False,15.624122010497103,False,162.88423168361206,168.61755305128779,False,28.428324864516984,True,False
9,1970-07-23 10:31:14.968070720,2025-09-12,2025-09-26 20:04:56.807,HH,C,1978187952,JASSM,3,104,76,2,2,1,225,9,2,0,1,26,0,0,0,0,-175862.54138358062,-4781134.077119674,4210624.858854771,-2.36674,-0.400177,0.381674,83.5,-35.125,-36.25,0.0,0.0,0.0,0.0,0.0,0.0,2,0,41.541160979718114,-92.10653805066262,14989.502490671615,119.83844129546584,-0.0054998760803912,0.0011396478731981,,13817.683391404704,16277.165501477106,150,9,2025-09-12,2025-09-26 20:04:56.723,HH,C,25964376,AMBUSH51,1,1,48,2,1,1,225,2,1,0,0,9,1,225,2,1,-154668.16215995146,-4794302.554096629,4196218.937039424,2.68702,2.88454,-0.274399,-97.6274,19.5322,21.0531,-0.152237,-7.15974,6.90004,-0.0226337,0.00210868,0.0366466,4,0,41.36997608422847,-91.8477683428279,14261.820449198896,-69.80460509447616,1.03478180759274,20.98340524818666,165.293,13817.683391404704,16277.165501477106,150,False,15.509470976464632,False,165.2310665412183,168.46890621102256,False,26.250416534794162,True,False
9,1970-07-23 10:31:14.979944700,2025-09-12,2025-09-26 20:04:57.994,HH,C,1979440652,JASSM,3,104,76,2,2,1,225,9,2,0,1,26,0,0,0,0,-175774.90027029935,-4781171.163057174,4210586.663542271,-2.36674,-0.400177,0.381674,83.5,-35.125,-36.25,0.0,0.0,0.0,0.0,0.0,0.0,2,0,41.54070184778882,-92.10547288543304,14989.500475397055,119.83914766517172,-0.0045798659533464,0.0011380680326288,,13817.683391404704,16277.165501477106,150,9,2025-09-12,2025-09-26 20:04:57.958,HH,C,27435742,AMBUSH51,1,1,48,2,1,1,225,2,1,0,0,9,1,225,2,1,-154787.1070761308,-4794276.304265532,4196246.510379478,2.68462,2.8543,-0.300407,-96.3134,21.4514,24.5371,-0.159214,-7.64294,7.06973,-0.00507977,0.00632813,0.0234535,4,0,41.37029548126463,-91.84919846914158,14266.459626117128,-67.58164345927571,0.8446180148665604,20.391587200722693,165.977,13817.683391404704,16277.165501477106,150,False,15.394681969570941,False,167.48476027916257,168.32310745406423,False,24.09937074120748,True,False
9,1970-07-23 10:31:14.995211641,2025-09-12,2025-09-26 20:04:59.521,HH,C,1980753002,JASSM,3,104,76,2,2,1,225,9,2,0,1,26,0,0,0,0,-175683.08581717435,-4781210.012666549,4210546.649870396,-2.36674,-0.400177,0.381674,83.5,-35.125,-36.25,0.0,0.0,0.0,0.0,0.0,0.0,2,0,41.54022085879839,-92.10435701579016,14989.499468245604,119.83988765288515,-0.0036160552179599,0.0011364270608289,,13817.683391404704,16277.165501477106,150,9,2025-09-12,2025-09-26 20:04:59.323,HH,C,29066174,AMBUSH51,1,1,48,2,1,1,225,2,1,0,0,9,1,225,2,1,-154917.0301752582,-4794242.418169411,4196281.711971937,2.68459,2.82391,-0.33267,-94.1888,25.9141,27.5513,-0.216408,-7.58987,7.26849,0.00289931,0.00228553,0.0365508,4,0,41.3707096503967,-91.85076261738236,14269.729337148114,-65.1026397241095,0.9254192309121796,19.886115451836456,165.745,13817.683391404704,16277.165501477106,150,False,15.269146895672023,False,170.7183009994582,168.17387170429257,False,21.0619944392135,True,False
9,1970-07-23 10:31:15.004631774,2025-09-12,2025-09-26 20:05:00.463,HH,C,1982125006,JASSM,3,104,76,2,2,1,225,9,2,0,1,26,0,0,0,0,-175587.09753592435,-4781250.627900924,4210504.815886021,-2.36674,-0.400177,0.381674,83.5,-35.125,-36.25,0.0,0.0,0.0,0.0,0.0,0.0,2,0,41.5397179865734,-92.10319043728612,14989.500777242743,119.84066126059744,-0.0026084272256062,0.0011347060294922,,13817.683391404704,16277.165501477106,150,9,2025-09-12,2025-09-26 20:05:00.423,HH,C,30378472,AMBUSH51,1,1,48,2,1,1,225,2,1,0,0,9,1,225,2,1,-155020.33966361277,-4794212.085238671,4196313.795662353,2.7041,2.7942,-0.3571,-92.5703,28.2269,30.4445,-0.329988,-7.6183,7.19707,0.01412,0.00187358,0.017607,4,0,41.37108674047947,-91.85200768526016,14272.873844382566,-62.98307147441823,0.7538277695357325,20.45953163380832,165.843,13817.683391404704,16277.165501477106,150,False,15.15329761511631,False,172.97842257165328,168.05013155845532,False,18.906154679572552,True,False
