Subject_cm,Timestamp,SampleDate_cm,SampleTime_cm,Configuration_cm,Scenario_cm,DisTime_cm,MarkingTxt_cm,Application_cm,EntId_cm,Site_cm,ExerciseId_cm,ForceId_cm,Category_cm,Country_cm,Domain_cm,Kind_cm,Extra_cm,Specific_cm,Subcategory_cm,AltCategory_cm,AltCountry_cm,AltDomain_cm,AltKind_cm,ECEF_X_cm,ECEF_Y_cm,ECEF_Z_cm,OriPhi_cm,OriPsi_cm,OriTheta_cm,LinVelX_cm,LinVelY_cm,LinVelZ_cm,LinAccX_cm,LinAccY_cm,LinAccZ_cm,AngVelX_cm,AngVelY_cm,AngVelZ_cm,DrAlg_cm,Appearance_cm,Latitude_cm,Longitude_cm,Altitude_cm,Heading_cm,Pitch_cm,Roll_cm,CalibratedAirspeed_cm,CM_Altitude_Lead_cm,CM_Altitude_Wing_cm,CM_Airspeed_cm,Subject_ac,SampleDate_ac,SampleTime_ac,Configuration_ac,Scenario_ac,DisTime_ac,MarkingTxt_ac,Application_ac,EntId_ac,Site_ac,ExerciseId_ac,ForceId_ac,Category_ac,Country_ac,Domain_ac,Kind_ac,Extra_ac,Specific_ac,Subcategory_ac,AltCategory_ac,AltCountry_ac,AltDomain_ac,AltKind_ac,ECEF_X_ac,ECEF_Y_ac,ECEF_Z_ac,OriPhi_ac,OriPsi_ac,OriTheta_ac,LinVelX_ac,LinVelY_ac,LinVelZ_ac,LinAccX_ac,LinAccY_ac,LinAccZ_ac,AngVelX_ac,AngVelY_ac,AngVelZ_ac,DrAlg_ac,Appearance_ac,Latitude_ac,Longitude_ac,Altitude_ac,Heading_ac,Pitch_ac,Roll_ac,CalibratedAirspeed_ac,CM_Altitude_Lead_ac,CM_Altitude_Wing_ac,CM_Airspeed_ac,Bank_Angle_Condition,distance_nm,Distance_Condition,angle_between_vel,angle_between_pos,Cone_Condition,angle_between_pos_nose,Nose_Cone_Condition,Intercept_Criteria
9,1970-07-23 11:40:16.029203068,2025-09-17,2025-09-26 15:06:42.920,AA,D,365248870,JASSM,3,101,76,2,2,1,225,9,2,0,1,26,0,0,0,0,-121434.05339967164,-4791469.410230932,4198553.431120396,2.29618,-3.09845,0.0772743,-87.625,-3.625,-6.625,0.0,0.0,0.0,0.0,0.0,0.0,2,0,41.408279137544255,-91.45178213053396,10000.001665223392,-95.913325994518,0.0062462737174446,0.0009497779535863,,9000.684068445347,11088.532817195925,150,9,2025-09-17,2025-09-26 15:06:42.914,AA,D,3769326550,HAWK11,1,1,73,2,1,1,225,2,1,0,0,12,1,225,2,1,-143750.67614920562,-4791306.569307174,4198539.171354771,2.5349,2.4003,-0.655777,-104.0,54.125,57.25,-0.234375,-6.76562,6.98438,0.0722656,0.00585938,0.015625,4,0,41.40547727018114,-91.71849514813248,11087.592762617098,-36.90243406524524,0.8716967261745007,-0.1334305476319948,207.295,9000.684068445347,11088.532817195925,150,True,12.003511172146673,False,41.92605396395326,174.89116885107433,False,143.11367141761042,False,False
9,1970-07-23 11:40:16.038342954,2025-09-17,2025-09-26 15:06:43.834,AA,D,366322616,JASSM,3,101,76,2,2,1,225,9,2,0,1,26,0,0,0,0,-121513.08074342164,-4791472.812574682,4198547.302214146,2.29618,-3.09845,0.0772743,-87.625,-3.625,-6.625,0.0,0.0,0.0,0.0,0.0,0.0,2,0,41.40820559964856,-91.45272549132156,9999.999664328108,-95.91394995196138,0.0069576206147402,0.0009500276045748,,9000.684068445347,11088.532817195925,150,9,2025-09-17,2025-09-26 15:06:43.820,AA,D,3770360482,HAWK11,1,1,73,2,1,1,225,2,1,0,0,12,1,225,2,1,-143841.59411795562,-4791258.691377486,4198589.030729771,2.57038,2.3933,-0.658749,-104.0,54.625,57.5,-0.34375,-6.82812,6.95312,0.00195312,-0.0078125,0.0078125,4,0,41.406082418133096,-91.7195985652101,11084.730671534464,-36.54504777032728,0.8331553594376143,1.659678732922673,207.942,9000.684068445347,11088.532817195925,150,True,12.010225793142206,False,42.10667817544403,174.69903625900986,False,143.12567803819337,False,False
9,1970-07-23 11:40:16.048386156,2025-09-17,2025-09-26 15:06:44.838,AA,D,367515662,JASSM,3,101,76,2,2,1,225,9,2,0,1,26,0,0,0,0,-121600.88933717164,-4791476.591871557,4198540.493620396,2.29618,-3.09845,0.0773702,-87.625,-3.625,-6.625,0.0,0.0,0.0,0.0,0.0,0.0,2,0,41.408123896983625,-91.45377367299494,10000.001414771556,-95.91875355191162,0.0041037871608674,0.0009498643882402,,9000.684068445347,11088.532817195925,150,9,2025-09-17,2025-09-26 15:06:44.726,AA,D,3771394414,HAWK11,1,1,73,2,1,1,225,2,1,0,0,12,1,225,2,1,-143931.20153983062,-4791211.251924361,4198638.495573521,2.56616,2.38381,-0.665844,-104.0,54.875,58.0,0.15625,-6.9375,7.15625,-0.0117188,0.00390625,0.00976562,4,0,41.40668251818615,-91.72068618761983,11082.000829425811,-35.96247836523956,0.9290179130406188,1.0928437784096807,208.871,9000.684068445347,11088.532817195925,150,True,12.011651479034615,False,42.29474956384135,174.50615392747483,False,143.13433434676946,False,False
9,1970-07-23 11:40:16.057442414,2025-09-17,2025-09-26 15:06:45.744,AA,D,368649058,JASSM,3,101,76,2,2,1,225,9,2,0,1,26,0,0,0,0,-121684.30730592164,-4791480.181715307,4198534.022917271,2.29618,-3.09845,0.0773702,-87.625,-3.625,-6.625,0.0,0.0,0.0,0.0,0.0,0.0,2,0,41.40804625640311,-91.45476944096576,10000.00005006311,-95.91941217046406,0.0048546556237246,0.0009500736560676,,9000.684068445347,11088.532817195925,150,9,2025-09-17,2025-09-26 15:06:45.726,AA,D,3772587412,HAWK11,1,1,73,2,1,1,225,2,1,0,0,12,1,225,2,1,-144036.39099295562,-4791155.813447799,4198696.745573521,2.55159,2.37527,-0.670541,-104.25,55.0,58.625,-0.375,-6.90625,6.95312,-0.0761719,0.00195312,0.0,4,0,41.40738670791716,-91.72196287506172,11079.818762239522,-35.49460957232852,0.9393954847384935,-0.0370148268680961,209.653,9000.684068445347,11088.532817195925,150,True,12.024061298066663,False,42.419796199621366,174.28472372499942,False,143.2364413488709,False,False
9,1970-07-23 11:40:16.067236244,2025-09-17,2025-09-26 15:06:46.723,AA,D,369782450,JASSM,3,101,76,2,2,1,225,9,2,0,1,26,0,0,0,0,-121767.72136842164,-4791483.770582494,4198527.552214146,2.29618,-3.09855,0.0773702,-87.625,-3.625,-6.625,0.0,0.0,0.0,0.0,0.0,0.0,2,0,41.40796861360591,-91.45576516018193,9999.999639624228,-95.91643858087568,0.0015087325932364,0.001374957977601,,9000.684068445347,11088.532817195925,150,9,2025-09-17,2025-09-26 15:06:46.616,AA,D,3773740646,HAWK11,1,1,73,2,1,1,225,2,1,0,0,12,1,225,2,1,-144137.09802420562,-4791102.630830611,4198752.663542271,2.44632,2.37182,-0.672938,-104.875,55.0,58.75,-0.21875,-7.0,7.01562,-0.0351562,0.00390625,-0.0117188,4,0,41.40806252428364,-91.72318522359292,11077.801962780724,-35.29039933046954,0.9688134785124676,-6.187815874833205,210.496,9000.684068445347,11088.532817195925,150,True,12.034210444824115,False,42.28693686827707,174.07155044060175,False,143.58550761933586,False,False
9,1970-07-23 11:40:16.076385331,2025-09-17,2025-09-26 15:06:47.638,AA,D,370915844,JASSM,3,101,76,2,2,1,225,9,2,0,1,26,0,0,0,0,-121851.13933717164,-4791487.358473119,4198521.081511021,2.29618,-3.09855,0.0773702,-87.625,-3.625,-6.625,0.0,0.0,0.0,0.0,0.0,0.0,2,0,41.40789096741098,-91.45676092400382,10000.000671665948,-95.91709719466807,0.00225960030609,0.001375203304726,,9000.684068445347,11088.532817195925,150,9,2025-09-17,2025-09-26 15:06:47.616,AA,D,3774893878,HAWK11,1,1,73,2,1,1,225,2,1,0,0,12,1,225,2,1,-144239.65271170562,-4791048.817354049,4198809.479948521,2.48035,2.37201,-0.66546,-105.75,55.25,58.5,0.0625,-6.21875,6.35938,0.0898438,-0.0136719,0.0,4,0,41.408747814152,-91.724429900584,11076.328261296778,-35.53584528241351,0.6180206810378621,-4.233944047066301,211.34,9000.684068445347,11088.532817195925,150,True,12.045534610856008,False,42.04874892343836,173.8558836020422,False,144.03793246877947,False,False
9,1970-07-23 11:40:16.086425938,2025-09-17,2025-09-26 15:06:48.642,AA,D,372108892,JASSM,3,101,76,2,2,1,225,9,2,0,1,26,0,0,0,0,-121938.94793092164,-4791491.134840307,4198514.269011021,2.29618,-3.09855,0.0773702,-87.625,-3.625,-6.625,0.0,0.0,0.0,0.0,0.0,0.0,2,0,41.40780921904678,-91.4578090964522,10000.002099009504,-95.91779047124987,0.0030499899384483,0.0013754675641825,,9000.684068445347,11088.532817195925,150,9,2025-09-17,2025-09-26 15:06:48.524,AA,D,3775768742,HAWK11,1,1,73,2,1,1,225,2,1,0,0,12,1,225,2,1,-144316.86755545562,-4791008.432588424,4198851.292448521,2.57268,2.36981,-0.659037,-106.125,55.875,58.125,-0.125,-6.25,6.25,0.154297,0.0,0.0117188,4,0,41.409256467635664,-91.72536700493563,11073.454469606157,-35.65723078483121,0.2571834619720105,0.97763344883341,211.902,9000.684068445347,11088.532817195925,150,True,12.040754970639096,False,41.99565346994796,173.68868563825137,False,144.25235120581522,False,False
9,1970-07-23 11:40:16.096425599,2025-09-17,2025-09-26 15:06:49.642,AA,D,373301938,JASSM,3,101,76,2,2,1,225,9,2,0,1,26,0,0,0,0,-122026.75261842164,-4791494.909254369,4198507.454557896,2.29618,-3.09855,0.0773702,-87.625,-3.625,-6.625,0.0,0.0,0.0,0.0,0.0,0.0,2,0,41.40772746016372,-91.45885722018689,9999.99822860326,-95.91848371448611,0.0038403453008681,0.001375736388153,,9000.684068445347,11088.532817195925,150,9,2025-09-17,2025-09-26 15:06:49.726,AA,D,3777319642,HAWK11,1,1,73,2,1,1,225,2,1,0,0,12,1,225,2,1,-144454.52771170562,-4790934.174775924,4198926.802214146,2.82789,2.34766,-0.672459,-105.0,57.375,58.875,-0.3125,-6.65625,6.625,0.134766,0.00195312,0.0234375,4,0,41.41018324458847,-91.72703854392594,11064.882278493806,-34.40220983767209,0.356010525047654,14.82387029831408,212.989,9000.684068445347,11088.532817195925,150,False,12.069410969361153,False,42.82081981426101,173.40547994723963,False,143.7069514645319,False,False
9,1970-07-23 11:40:16.106200959,2025-09-17,2025-09-26 15:06:50.620,AA,D,374494984,JASSM,3,101,76,2,2,1,225,9,2,0,1,26,0,0,0,0,-122114.56121217164,-4791498.683668432,4198500.640104771,2.29618,-3.09855,0.0773702,-87.625,-3.625,-6.625,0.0,0.0,0.0,0.0,0.0,0.0,2,0,41.40764569113957,-91.4599053879735,9999.998592466844,-95.91917698573351,0.00463073556006,0.0013760022270822,,9000.684068445347,11088.532817195925,150,9,2025-09-17,2025-09-26 15:06:50.616,AA,D,3778433106,HAWK11,1,1,73,2,1,1,225,2,1,0,0,12,1,225,2,1,-144553.46521170562,-4790878.339814986,4198982.731901646,2.94505,2.31564,-0.671788,-103.375,59.375,60.125,-0.125,-6.95312,6.95312,0.105469,0.0195312,0.0371094,4,0,41.41087518530913,-91.7282408118624,11056.270568937263,-33.20903483418855,-0.4410359795956092,20.393549214440306,213.991,9000.684068445347,11088.532817195925,150,False,12.07701598148066,False,44.016792372020596,173.1878679339396,False,142.7240009208784,False,False
9,1970-07-23 11:40:16.117320646,2025-09-17,2025-09-26 15:06:51.732,AA,D,375807334,JASSM,3,101,76,2,2,1,225,9,2,0,1,26,0,0,0,0,-122211.14714967164,-4791502.834059057,4198493.144011021,2.29618,-3.09855,0.0773702,-87.625,-3.625,-6.75,0.0,0.0,0.0,0.0,0.0,0.0,2,0,41.4075557421152,-91.46105832793732,9999.999353059196,-95.91993955330608,0.0055001330311779,0.0013762900175619,,9000.684068445347,11088.532817195925,150,9,2025-09-17,2025-09-26 15:06:51.820,AA,D,3779705638,HAWK11,1,1,73,2,1,1,225,2,1,0,0,12,1,225,2,1,-144662.86560233062,-4790812.613252486,4199047.960417271,3.05761,2.29445,-0.662776,-100.75,62.125,62.25,-0.359375,-7.35938,7.1875,0.078125,0.0136719,0.03125,4,0,41.411686848571584,-91.72957169199827,11044.296285506747,-32.6628802702747,-1.3761792445386107,26.082928442854264,215.336,9000.684068445347,11088.532817195925,150,False,12.086027645298426,False,45.922937642246545,172.86864472211298,False,141.1263409293021,False,False
9,1970-07-23 11:40:16.128422066,2025-09-17,2025-09-26 15:06:52.842,AA,D,377060034,JASSM,3,101,76,2,2,1,225,9,2,0,1,26,0,0,0,0,-122303.34636842164,-4791506.794996557,4198485.987761021,2.29618,-3.09855,0.0773702,-87.625,-3.625,-6.75,0.0,0.0,0.0,0.0,0.0,0.0,2,0,41.40746986912736,-91.46215890125168,10000.000913177331,-95.92066748371212,0.00633004447139,0.0013765632335053,,9000.684068445347,11088.532817195925,150,9,2025-09-17,2025-09-26 15:06:52.726,AA,D,3780819104,HAWK11,1,1,73,2,1,1,225,2,1,0,0,12,1,225,2,1,-144757.82263358062,-4790751.293916549,4199108.384245396,3.1368,2.28899,-0.639191,-98.125,65.25,64.875,-0.390625,-7.45312,7.17188,0.0878906,0.0214844,0.0292969,4,0,41.41244244343187,-91.73072843526622,11031.671194020542,-33.1421192794491,-2.663274033622464,30.4477253734002,216.607,9000.684068445347,11088.532817195925,150,False,12.089711408059895,False,47.95703800667823,172.63222552219392,False,139.32594037464693,False,False
9,1970-07-23 11:40:16.138462069,2025-09-17,2025-09-26 15:06:53.846,AA,D,378312732,JASSM,3,101,76,2,2,1,225,9,2,0,1,26,0,0,0,0,-122395.54168092164,-4791510.754957494,4198478.829557896,2.29618,-3.09855,0.0773702,-87.625,-3.625,-6.75,0.0,0.0,0.0,0.0,0.0,0.0,2,0,41.40738397883253,-91.46325942528574,9999.999986046903,-95.92139538028124,0.0071599220213515,0.0013768468207862,,9000.684068445347,11088.532817195925,150,9,2025-09-17,2025-09-26 15:06:53.914,AA,D,3782409770,HAWK11,1,1,73,2,1,1,225,2,1,0,0,12,1,225,2,1,-144886.04919608062,-4790659.668916549,4199197.661589146,-3.03527,2.24268,-0.643505,-92.625,70.125,68.625,-0.171875,-7.89062,7.6875,0.0371094,0.0253906,0.0507812,4,0,41.41356709828508,-91.73229369247198,11009.615042819556,-31.173844305882096,-3.5064411493030714,35.121164255960096,218.0,9000.684068445347,11088.532817195925,150,False,12.1126417342623,False,51.43469620825528,172.29512372184766,False,136.17856592003102,False,False
9,1970-07-23 11:40:16.149462675,2025-09-17,2025-09-26 15:06:54.946,AA,D,379565432,JASSM,3,101,76,2,2,1,225,9,2,0,1,26,0,0,0,0,-122487.74089967164,-4791514.713941869,4198471.671354771,2.29618,-3.09855,0.077466,-87.625,-3.625,-6.75,0.0,0.0,0.0,0.0,0.0,0.0,2,0,41.40729808322725,-91.46435999339862,10000.001300623426,-95.92623364488423,0.0043456432550782,0.0013766791564369,,9000.684068445347,11088.532817195925,150,9,2025-09-17,2025-09-26 15:06:54.820,AA,D,3783244868,HAWK11,1,1,73,2,1,1,225,2,1,0,0,12,1,225,2,1,-144950.63903983062,-4790608.674775924,4199247.151823521,-3.00785,2.23568,-0.632288,-89.625,73.25,71.25,-0.125,-8.39062,8.20312,0.0449219,0.0371094,0.0566406,4,0,41.41419290782149,-91.73308391043692,10996.414554482526,-31.203159028451555,-4.223939191183818,36.45553755682405,219.442,9000.684068445347,11088.532817195925,150,False,12.100082713477683,False,53.52707062160979,172.09292813348912,False,134.2856746920519,False,False
9,1970-07-23 11:40:16.159344814,2025-09-17,2025-09-26 15:06:55.934,AA,D,380818130,JASSM,3,101,76,2,2,1,225,9,2,0,1,26,0,0,0,0,-122579.93621217164,-4791518.671949682,4198464.511198521,2.29618,-3.09864,0.077466,-87.625,-3.625,-6.75,0.0,0.0,0.0,0.0,0.0,0.0,2,0,41.40721217031594,-91.46546051223112,10000.00012759694,-95.92332038313074,0.0010685776609913,0.0018031375758584,,9000.684068445347,11088.532817195925,150,9,2025-09-17,2025-09-26 15:06:56.024,AA,D,3784756000,HAWK11,1,1,73,2,1,1,225,2,1,0,0,12,1,225,2,1,-145061.99450858062,-4790511.066377486,4199341.837370396,-2.94256,2.18889,-0.637561,-83.25,78.125,76.25,-0.140625,-8.84375,8.48438,0.0,0.046875,0.0371094,4,0,41.4153926768267,-91.7344498228036,10970.150348702018,-29.149019370580955,-4.965945552659359,38.44186244214534,221.116,9000.684068445347,11088.532817195925,150,False,12.114914948812848,False,57.45180762121838,171.73407236468495,False,130.7238443172975,False,False
9,1970-07-23 11:40:16.170382460,2025-09-17,2025-09-26 15:06:57.038,AA,D,382070830,JASSM,3,101,76,2,2,1,225,9,2,0,1,26,0,0,0,0,-122672.13543092164,-4791522.628980932,4198457.351042271,2.29618,-3.09864,0.077466,-87.625,-3.625,-6.75,0.0,0.0,0.0,0.0,0.0,0.0,2,0,41.40712625209337,-91.466561075142,10000.001196659345,-95.92404830172693,0.0018984903650018,0.0018034071695861,,9000.684068445347,11088.532817195925,150,9,2025-09-17,2025-09-26 15:06:57.024,AA,D,3785988766,HAWK11,1,1,73,2,1,1,225,2,1,0,0,12,1,225,2,1,-145146.48083670562,-4790425.957979049,4199424.620573521,-2.89932,2.13952,-0.649737,-77.125,82.375,81.125,-0.15625,-9.85938,9.57812,0.0273438,0.0429688,0.0507812,4,0,41.41644256984899,-91.7354901893201,10946.807746600223,-26.80118564897201,-5.333221759314734,39.01067648072397,222.753,9000.684068445347,11088.532817195925,150,False,12.115177209552765,False,61.07864628476477,171.4145904830413,False,127.42338277013081,False,False
9,1970-07-23 11:40:16.180403177,2025-09-17,2025-09-26 15:06:58.040,AA,D,383323528,JASSM,3,101,76,2,2,1,225,9,2,0,1,26,0,0,0,0,-122764.33074342164,-4791526.584059057,4198450.190886021,2.29618,-3.09864,0.077466,-87.625,-3.625,-6.75,0.0,0.0,0.0,0.0,0.0,0.0,2,0,41.407040335560346,-91.46766158907144,10000.001613695096,-95.92477618668518,0.0027283674423625,0.0018036682185819,,9000.684068445347,11088.532817195925,150,9,2025-09-17,2025-09-26 15:06:57.914,AA,D,3787102232,HAWK11,1,1,73,2,1,1,225,2,1,0,0,12,1,225,2,1,-145216.68200858062,-4790345.909150924,4199503.872526646,-2.85014,2.08871,-0.667378,-70.875,85.125,86.125,-0.21875,-10.2969,9.85938,0.0214844,0.0566406,0.0410156,4,0,41.41744109379823,-91.73635805540424,10927.18929909057,-24.27642817180104,-5.350727026072192,39.81168824420693,223.804,9000.684068445347,11088.532817195925,150,False,12.10791391709891,False,64.46247064162351,171.10728979833422,False,124.3633327228315,False,False
9,1970-07-23 11:40:16.191766465,2025-09-17,2025-09-26 15:06:59.176,AA,D,384576226,JASSM,3,101,76,2,2,1,225,9,2,0,1,26,0,0,0,0,-122856.52996217164,-4791530.539137182,4198443.028776646,2.29618,-3.09864,0.077466,-87.625,-3.625,-6.75,0.0,0.0,0.0,0.0,0.0,0.0,2,0,41.4069543947206,-91.46876214678002,10000.002437252551,-95.92550409935691,0.0035582807782425,0.0018039393992096,,9000.684068445347,11088.532817195925,150,9,2025-09-17,2025-09-26 15:06:59.116,AA,D,3788653130,HAWK11,1,1,73,2,1,1,225,2,1,0,0,12,1,225,2,1,-145303.07458670562,-4790229.456025924,4199621.601042271,-2.74822,1.98315,-0.702371,-60.375,88.75,92.5,-0.140625,-10.75,10.3438,0.0332031,0.0703125,0.0546875,4,0,41.41891298462272,-91.73743263087702,10902.77562323708,-19.16563528901418,-5.154422481825077,41.354347112932885,225.014,9000.684068445347,11088.532817195925,150,False,12.111939828837968,False,69.60087412217563,170.66884225104067,False,119.67996035106296,False,False
9,1970-07-23 11:40:16.201203795,2025-09-17,2025-09-26 15:07:00.120,AA,D,385769274,JASSM,3,101,76,2,2,1,225,9,2,0,1,26,0,0,0,0,-122944.33464967164,-4791534.304762182,4198436.206511021,2.29618,-3.09864,0.077466,-87.625,-3.625,-6.75,0.0,0.0,0.0,0.0,0.0,0.0,2,0,41.40687253561856,-91.46981024572204,10000.001683694012,-95.926197314464,0.0043486383085947,0.0018042023546312,,9000.684068445347,11088.532817195925,150,9,2025-09-17,2025-09-26 15:07:00.024,AA,D,3789527996,HAWK11,1,1,73,2,1,1,225,2,1,0,0,12,1,225,2,1,-145344.75622733062,-4790161.732393111,4199691.097136021,-2.69041,1.92553,-0.717328,-53.875,90.75,96.0,-0.3125,-10.875,10.5,0.0214844,0.0585938,0.0625,4,0,41.41977746520962,-91.73795528111572,10890.184549091213,-16.50967876296072,-5.094995268043227,42.27753867790397,225.894,9000.684068445347,11088.532817195925,150,False,12.091853549591713,False,72.64220562911888,170.39533148698544,False,116.91963457580678,False,False
9,1970-07-23 11:40:16.211341429,2025-09-17,2025-09-26 15:07:01.134,AA,D,387021972,JASSM,3,101,76,2,2,1,225,9,2,0,1,26,0,0,0,0,-123036.53386842164,-4791538.257887182,4198429.042448521,2.29618,-3.09864,0.077466,-87.625,-3.625,-6.75,0.0,0.0,0.0,0.0,0.0,0.0,2,0,41.4067865726631,-91.4709107983658,10000.00205229671,-95.9269252213604,0.0051785522765436,0.0018044751202714,,9000.684068445347,11088.532817195925,150,9,2025-09-17,2025-09-26 15:07:01.226,AA,D,3791158426,HAWK11,1,1,73,2,1,1,225,2,1,0,0,12,1,225,2,1,-145408.86364920562,-4790033.164033736,4199826.833464146,-2.58313,1.7914,-0.752034,-40.25,93.0,101.75,-0.453125,-11.6875,10.8594,0.0136719,0.0644531,0.0488281,4,0,41.42144699237089,-91.73876801317384,10873.430553261447,-10.48133254033594,-4.503574778996753,42.76308587125423,227.165,9000.684068445347,11088.532817195925,150,False,12.086152615267283,False,78.57086359818771,169.89609535894573,False,111.5048367053911,False,False
9,1970-07-23 11:40:16.222363762,2025-09-17,2025-09-26 15:07:02.236,AA,D,388276972,JASSM,3,101,76,2,2,1,225,9,2,0,1,26,0,0,0,0,-123128.90105592164,-4791542.216871557,4198421.864714146,2.29618,-3.09864,0.077466,-87.625,-3.625,-6.75,0.0,0.0,0.0,0.0,0.0,0.0,2,0,41.40670044634409,-91.47201335350164,10000.002183839915,-95.92765445146208,0.0060099781110009,0.0018047446107508,,9000.684068445347,11088.532817195925,150,9,2025-09-17,2025-09-26 15:07:02.116,AA,D,3792112826,HAWK11,1,1,73,2,1,1,225,2,1,0,0,12,1,225,2,1,-145436.81872733062,-4789955.755830611,4199909.872526646,-2.51678,1.71154,-0.766895,-31.5,93.875,104.75,-0.328125,-11.9062,11.0469,0.00390625,0.0742188,0.0371094,4,0,41.42246297470116,-91.73913017628908,10865.413165895765,-7.061156609439054,-4.184659967121921,43.15373707788268,227.324,9000.684068445347,11088.532817195925,150,False,12.057944296079832,False,82.23592720266188,169.5727477175364,False,108.17030530731124,False,False
9,1970-07-23 11:40:16.233400985,2025-09-17,2025-09-26 15:07:03.340,AA,D,389646674,JASSM,3,101,76,2,2,1,225,9,2,0,1,26,0,0,0,0,-123229.70574342164,-4791546.536207494,4198414.028776646,2.29618,-3.09864,0.077466,-87.625,-3.625,-6.75,0.0,0.0,0.0,0.0,0.0,0.0,2,0,41.40660643111977,-91.4732166212268,9999.998686234654,-95.92845029145838,0.0069173537964112,0.0018050481172947,,9000.684068445347,11088.532817195925,150,9,2025-09-17,2025-09-26 15:07:03.320,AA,D,3793584190,HAWK11,1,1,73,2,1,1,225,2,1,0,0,12,1,225,2,1,-145464.70935233062,-4789834.626924361,4200041.755339146,-2.39464,1.58384,-0.781563,-16.75,95.125,108.5,-0.21875,-12.125,11.1406,0.015625,0.0722656,0.0507812,4,0,41.42406876482422,-91.73950744869784,10855.91465434998,-1.7685562005807605,-3.766880523455988,44.665539733664886,227.458,9000.684068445347,11088.532817195925,150,False,12.029358653622774,False,88.24858404058338,169.0769767515387,False,102.66028652942953,False,False
9,1970-07-23 11:40:16.244421947,2025-09-17,2025-09-26 15:07:04.442,AA,D,390899372,JASSM,3,101,76,2,2,1,225,9,2,0,1,26,0,0,0,0,-123321.90496217164,-4791550.486402807,4198406.862761021,2.29618,-3.09864,0.077466,-87.625,-3.625,-6.75,0.0,0.0,0.0,0.0,0.0,0.0,2,0,41.40652043982838,-91.47431716578905,10000.001224565412,-95.92917818916408,0.0077472680351151,0.0018053167104933,,9000.684068445347,11088.532817195925,150,9,2025-09-17,2025-09-26 15:07:04.522,AA,D,3795095322,HAWK11,1,1,73,2,1,1,225,2,1,0,0,12,1,225,2,1,-145475.20935233062,-4789712.517549361,4200179.911589146,-2.27633,1.44367,-0.783385,-1.875,94.75,110.625,-0.453125,-11.4531,10.5156,0.0117188,0.0488281,0.0546875,4,0,41.42572586578794,-91.73967725657748,10856.341488944196,3.932755688768935,-3.54694455673171,45.41349770099836,227.324,9000.684068445347,11088.532817195925,150,False,11.997242366409607,False,94.14397351777247,168.5640072140009,False,97.2835324503327,False,False
9,1970-07-23 11:40:16.255440725,2025-09-17,2025-09-26 15:07:05.544,AA,D,392211724,JASSM,3,101,76,2,2,1,225,9,2,0,1,26,0,0,0,0,-123418.49089967164,-4791554.623121557,4198399.352995396,2.29618,-3.09874,0.0775619,-87.625,-3.625,-6.75,0.0,0.0,0.0,0.0,0.0,0.0,2,0,41.40643033544983,-91.47547007015264,9999.9990274935,-95.9304190239087,0.0008757603439762,0.0022308085285238,,9000.684068445347,11088.532817195925,150,9,2025-09-17,2025-09-26 15:07:05.414,AA,D,3795970188,HAWK11,1,1,73,2,1,1,225,2,1,0,0,12,1,225,2,1,-145472.04919608062,-4789640.701143111,4200260.964323521,-2.22149,1.36745,-0.778687,6.625,94.5,110.875,-0.375,-11.2188,10.2969,-0.0136719,0.0507812,0.0527344,4,0,41.426700788157326,-91.73966555713062,10855.46643481045,7.051016395886188,-3.500440840673793,45.288738569313104,227.104,9000.684068445347,11088.532817195925,150,False,11.951426215424277,False,97.48725323650439,168.2360776437053,False,94.26920257354737,False,False
9,1970-07-23 11:40:16.266462069,2025-09-17,2025-09-26 15:07:06.646,AA,D,393583728,JASSM,3,101,76,2,2,1,225,9,2,0,1,26,0,0,0,0,-123519.47136842164,-4791558.946363744,4198391.503386021,2.29618,-3.09874,0.0775619,-87.625,-3.625,-6.75,0.0,0.0,0.0,0.0,0.0,0.0,2,0,41.40633614157918,-91.47667542724074,10000.00172448521,-95.93121624157187,0.0017847169472964,0.0022310836201511,,9000.684068445347,11088.532817195925,150,9,2025-09-17,2025-09-26 15:07:06.615,AA,D,3797401786,HAWK11,1,1,73,2,1,1,225,2,1,0,0,12,1,225,2,1,-145454.89685233062,-4789526.237275924,4200392.337370396,-2.1329,1.24339,-0.763251,19.75,93.5,110.25,-0.390625,-10.75,9.84375,0.015625,0.0566406,0.0449219,4,0,41.42827161163406,-91.73950210782064,10857.929269970326,12.233291120846042,-3.477513670839293,45.0923760947712,227.006,9000.684068445347,11088.532817195925,150,False,11.900799056683482,False,102.66492980707265,167.7292483506462,False,89.59923047857491,False,False
9,1970-07-23 11:40:16.278206358,2025-09-17,2025-09-26 15:07:07.820,AA,D,394955732,JASSM,3,101,76,2,2,1,225,9,2,0,1,26,0,0,0,0,-123620.44793092164,-4791563.268629369,4198383.649870396,2.29618,-3.09874,0.0775619,-87.625,-3.625,-6.75,0.0,0.0,0.0,0.0,0.0,0.0,2,0,41.40624191512313,-91.477880734469,9999.998571505976,-95.93201342476628,0.0026936410290323,0.0022313822048744,,9000.684068445347,11088.532817195925,150,9,2025-09-17,2025-09-26 15:07:07.820,AA,D,3799032218,HAWK11,1,1,73,2,1,1,225,2,1,0,0,12,1,225,2,1,-145417.69372733062,-4789397.951143111,4200542.122526646,-2.03789,1.10437,-0.73353,33.375,91.0,109.125,-0.375,-10.6094,9.60938,0.0,0.0566406,0.046875,4,0,41.43005256250658,-91.73910401991336,10864.89744310388,18.32180213216388,-3.543572482066772,44.73792470455509,226.774,9000.684068445347,11088.532817195925,150,False,11.842150884535537,False,108.11140637419447,167.15158351572381,False,84.73317618863722,False,False
9,1970-07-23 11:40:16.288340644,2025-09-17,2025-09-26 15:07:08.834,AA,D,396208430,JASSM,3,101,76,2,2,1,225,9,2,0,1,26,0,0,0,0,-123712.64324342164,-4791567.213941869,4198376.479948521,2.29618,-3.09874,0.0775619,-87.625,-3.625,-6.75,0.0,0.0,0.0,0.0,0.0,0.0,2,0,41.40615588250279,-91.47898122155398,9999.999015943637,-95.9327412792252,0.0035235212813482,0.0022316442719429,,9000.684068445347,11088.532817195925,150,9,2025-09-17,2025-09-26 15:07:08.726,AA,D,3800105918,HAWK11,1,1,73,2,1,1,225,2,1,0,0,12,1,225,2,1,-145383.01208670562,-4789315.874971236,4200637.800261021,-1.97577,1.01971,-0.709658,42.375,89.375,107.25,-0.375,-10.8906,9.89062,0.0078125,0.0644531,0.0546875,4,0,41.43119292675782,-91.73871928219114,10868.221672565416,22.21867583473833,-3.566320557632096,44.85047803511244,226.554,9000.684068445347,11088.532817195925,150,False,11.784972094255115,False,111.7771567851927,166.75851211184414,False,81.46046895937329,False,False
9,1970-07-23 11:40:16.299370062,2025-09-17,2025-09-26 15:07:09.937,AA,D,397520782,JASSM,3,101,76,2,2,1,225,9,2,0,1,26,0,0,0,0,-123809.23308717164,-4791571.346754369,4198368.968229771,2.29618,-3.09874,0.0775619,-87.625,-3.625,-6.75,0.0,0.0,0.0,0.0,0.0,0.0,2,0,41.40606574084533,-91.48013416091013,10000.002748573412,-95.93350382391604,0.0043929579780373,0.0022319158386741,,9000.684068445347,11088.532817195925,150,9,2025-09-17,2025-09-26 15:07:09.914,AA,D,3801418216,HAWK11,1,1,73,2,1,1,225,2,1,0,0,12,1,225,2,1,-145328.77575858062,-4789217.219697799,4200752.696745396,-1.90396,0.913965,-0.676198,53.625,86.25,104.5,-0.34375,-11.1406,10.2188,-0.00390625,0.0664062,0.0664062,4,0,41.43256517747017,-91.73810681795284,10871.058661931114,27.265235928852604,-3.415186523193053,44.78446800880092,226.456,9000.684068445347,11088.532817195925,150,False,11.71777612875905,False,116.48864006669918,166.28509396148377,False,77.2236026158272,False,False
9,1970-07-23 11:40:16.310384647,2025-09-17,2025-09-26 15:07:11.038,AA,D,398773480,JASSM,3,101,76,2,2,1,225,9,2,0,1,26,0,0,0,0,-123901.42839967164,-4791575.290113744,4198361.796354771,2.29618,-3.09874,0.0775619,-87.625,-3.625,-6.75,0.0,0.0,0.0,0.0,0.0,0.0,2,0,41.40597968510813,-91.481234642652,10000.003156683988,-95.93423167229504,0.0052228388668362,0.0022321794945371,,9000.684068445347,11088.532817195925,150,9,2025-09-17,2025-09-26 15:07:11.116,AA,D,3802969114,HAWK11,1,1,73,2,1,1,225,2,1,0,0,12,1,225,2,1,-145248.22302420562,-4789105.248018111,4200885.024870396,-1.84126,0.789617,-0.629316,66.625,81.125,101.0,-0.28125,-11.4062,10.7031,-0.0117188,0.0722656,0.0585938,4,0,41.434139052609154,-91.7371846021528,10877.053310575586,33.529103678752435,-3.0731649253116298,43.69033732567788,226.615,9000.684068445347,11088.532817195925,150,False,11.641650141373876,False,122.12528242886867,165.74054167466232,False,72.13379306066543,False,False
9,1970-07-23 11:40:16.322138894,2025-09-17,2025-09-26 15:07:12.213,AA,D,400085832,JASSM,3,101,76,2,2,1,225,9,2,0,1,26,0,0,0,0,-123998.01433717164,-4791579.419996557,4198354.280729771,2.29608,-3.09874,0.0775619,-87.625,-3.625,-6.75,0.0,0.0,0.0,0.0,0.0,0.0,2,0,41.40588951253494,-91.48238753000496,10000.000393216378,-95.93499417992273,0.0060922423038357,-0.0032590091067693,,9000.684068445347,11088.532817195925,150,9,2025-09-17,2025-09-26 15:07:12.319,AA,D,3804321180,HAWK11,1,1,73,2,1,1,225,2,1,0,0,12,1,225,2,1,-145161.52185233062,-4789012.587861861,4200993.323698521,-1.76993,0.695181,-0.59087,78.625,76.375,96.25,-0.375,-11.6562,10.9219,0.00976562,0.0820312,0.0488281,4,0,41.43543695163813,-91.73618185277438,10877.914221451152,38.45822913003524,-2.546202260477049,44.43348093625791,226.456,9000.684068445347,11088.532817195925,150,False,11.558173611879301,False,127.52860464491462,165.263990772213,False,67.2073592817083,False,False
9,1970-07-23 11:40:16.332419881,2025-09-17,2025-09-26 15:07:13.241,AA,D,401398182,JASSM,3,101,76,2,2,1,225,9,2,0,1,26,0,0,0,0,-124094.60418092164,-4791583.548902807,4198346.765104771,2.29608,-3.09874,0.0775619,-87.625,-3.625,-6.75,0.0,0.0,0.0,0.0,0.0,0.0,2,0,41.405799333617765,-91.48354046115016,10000.000303610188,-95.9357567151498,0.0069616802641906,-0.0032587343964903,,9000.684068445347,11088.532817195925,150,9,2025-09-17,2025-09-26 15:07:13.225,AA,D,3805474412,HAWK11,1,1,73,2,1,1,225,2,1,0,0,12,1,225,2,1,-145080.93786795562,-4788940.018525924,4201083.311979771,-1.72343,0.611675,-0.547152,87.0,70.875,92.625,-0.328125,-11.4375,10.6562,0.0117188,0.0625,0.0527344,4,0,41.4364906050805,-91.7352449085374,10888.881509975112,43.19776269063853,-2.2382757803379114,44.32032173227529,226.517,9000.684068445347,11088.532817195925,150,False,11.476073750520756,False,131.6494139643471,164.8544261382906,False,63.494829204563295,False,False
9,1970-07-23 11:40:16.343460617,2025-09-17,2025-09-26 15:07:14.346,AA,D,402710532,JASSM,3,101,76,2,2,1,225,9,2,0,1,26,0,0,0,0,-124191.19011842164,-4791587.676832494,4198339.249479771,2.29608,-3.09883,0.0775619,-87.625,-3.625,-6.75,0.0,0.0,0.0,0.0,0.0,0.0,2,0,41.40570914956014,-91.48469334273123,10000.002390307538,-95.93288718715998,0.003734306359954,-0.0028325937287222,,9000.684068445347,11088.532817195925,150,9,2025-09-17,2025-09-26 15:07:14.413,AA,D,3806707178,HAWK11,1,1,73,2,1,1,225,2,1,0,0,12,1,225,2,1,-144980.19372733062,-4788865.717744674,4201170.997526646,-1.66236,0.540153,-0.501899,97.25,65.875,86.375,-0.28125,-11.1875,10.6562,-0.00976562,0.0664062,0.0566406,4,0,41.43754265500636,-91.734067578899,10889.101905186972,47.59221822415837,-2.091789271796106,45.600106978807865,226.322,9000.684068445347,11088.532817195925,150,False,11.383892822678186,False,136.76545681067665,164.430778896561,False,58.80243650534074,False,False
9,1970-07-23 11:40:16.353365606,2025-09-17,2025-09-26 15:07:15.336,AA,D,403963232,JASSM,3,101,76,2,2,1,225,9,2,0,1,26,0,0,0,0,-124283.38543092164,-4791591.616285619,4198332.073698521,2.29608,-3.09883,0.0775619,-87.625,-3.625,-6.75,0.0,0.0,0.0,0.0,0.0,0.0,2,0,41.40562304708874,-91.48579381364728,10000.002935115985,-95.9336150232405,0.0045641885063094,-0.0028322742863882,,9000.684068445347,11088.532817195925,150,9,2025-09-17,2025-09-26 15:07:15.617,AA,D,3808218308,HAWK11,1,1,73,2,1,1,225,2,1,0,0,12,1,225,2,1,-144848.26208670562,-4788784.526338424,4201271.921354771,-1.62391,0.452333,-0.436609,107.375,58.875,79.0,-0.34375,-10.8438,10.3906,0.00195312,0.0585938,0.0605469,4,0,41.43873064099933,-91.7325198991324,10898.819534807388,53.437859008329575,-2.02809438678095,45.3149446980838,226.322,9000.684068445347,11088.532817195925,150,False,11.279651949155683,False,142.39800267491168,163.94790171026875,False,53.65061526391796,False,False
9,1970-07-23 11:40:16.364360217,2025-09-17,2025-09-26 15:07:16.436,AA,D,405275582,JASSM,3,101,76,2,2,1,225,9,2,0,1,26,0,0,0,0,-124379.97527467164,-4791595.741285619,4198324.554167271,2.29608,-3.09883,0.0776578,-87.625,-3.625,-6.75,0.0,0.0,0.0,0.0,0.0,0.0,2,0,41.40553283091207,-91.48694673658134,9999.999023304385,-95.93848797069168,0.0017895288829491,-0.0028322004141028,,9000.684068445347,11088.532817195925,150,9,2025-09-17,2025-09-26 15:07:16.521,AA,D,3809292008,HAWK11,1,1,73,2,1,1,225,2,1,0,0,12,1,225,2,1,-144746.11169608062,-4788731.918916549,4201337.522917271,-1.59783,0.394425,-0.389919,114.0,53.75,73.25,-0.28125,-10.8438,10.4531,-0.0214844,0.0605469,0.046875,4,0,41.43950478344119,-91.73131783722924,10904.33994960924,57.48844353703746,-1.954238065117921,45.33530477450075,226.395,9000.684068445347,11088.532817195925,150,False,11.18469313072849,False,146.3880526121761,163.59178496989873,False,50.014893043499214,False,False
9,1970-07-23 11:40:16.376146009,2025-09-17,2025-09-26 15:07:17.614,AA,D,406528282,JASSM,3,101,76,2,2,1,225,9,2,0,1,26,0,0,0,0,-124472.17058717164,-4791599.678785619,4198317.376432896,2.29608,-3.09883,0.0776578,-87.625,-3.625,-6.75,0.0,0.0,0.0,0.0,0.0,0.0,2,0,41.4054467053242,-91.48804720215284,9999.9995318438,-95.93921580071022,0.0026194116891068,-0.0028319389190367,,9000.684068445347,11088.532817195925,150,9,2025-09-17,2025-09-26 15:07:17.726,AA,D,3810723606,HAWK11,1,1,73,2,1,1,225,2,1,0,0,12,1,225,2,1,-144596.22302420562,-4788668.725557174,4201412.739714146,-1.55728,0.32808,-0.326163,122.875,46.5,64.125,-0.203125,-10.7812,10.3125,0.0078125,0.0585938,0.0625,4,0,41.44041538426467,-91.72954890804368,10901.179670013986,62.590423061924845,-2.117253754715811,46.14450293111476,226.517,9000.684068445347,11088.532817195925,150,False,11.06894377003012,False,152.1373048603674,163.16730199064503,False,44.68954447822823,False,False
9,1970-07-23 11:40:16.386398827,2025-09-17,2025-09-26 15:07:18.639,AA,D,407840636,JASSM,3,101,76,2,2,1,225,9,2,0,1,26,0,0,0,0,-124568.75652467164,-4791603.801832494,4198309.856901646,2.29608,-3.09883,0.0776578,-87.625,-3.625,-6.75,0.0,0.0,0.0,0.0,0.0,0.0,2,0,41.40535647879193,-91.4892000727813,10000.00000132756,-95.9399782892464,0.0034888153096191,-0.0028316768230107,,9000.684068445347,11088.532817195925,150,9,2025-09-17,2025-09-26 15:07:18.616,AA,D,3811797306,HAWK11,1,1,73,2,1,1,225,2,1,0,0,12,1,225,2,1,-144480.94568045562,-4788627.895479049,4201464.802214146,-1.53446,0.2765,-0.277842,128.25,40.625,57.375,-0.46875,-10.875,10.3906,-0.00390625,0.0644531,0.0527344,4,0,41.44103040057372,-91.72818561176744,10905.300928642017,66.54639084613366,-2.068138133888257,46.42806746245496,226.456,9000.684068445347,11088.532817195925,150,False,10.965978230763735,False,156.22221379922408,162.83902821750232,False,40.92968689289459,False,False
9,1970-07-23 11:40:16.397420800,2025-09-17,2025-09-26 15:07:19.742,AA,D,409212632,JASSM,3,101,76,2,2,1,225,9,2,0,1,26,0,0,0,0,-124669.73308717164,-4791608.112379369,4198301.993620396,2.29608,-3.09883,0.0776578,-87.625,-3.625,-6.75,0.0,0.0,0.0,0.0,0.0,0.0,2,0,41.40526212493437,-91.490405347425,10000.001656625158,-95.94077543542336,0.0043977418608837,-0.0028313894006277,,9000.684068445347,11088.532817195925,150,9,2025-09-17,2025-09-26 15:07:19.819,AA,D,3813228904,HAWK11,1,1,73,2,1,1,225,2,1,0,0,12,1,225,2,1,-144321.64489920562,-4788582.418916549,4201525.198698521,-1.52353,0.209101,-0.208813,134.25,32.375,48.125,-0.375,-10.8281,10.3281,-0.0214844,0.0625,0.0507812,4,0,41.44173718555007,-91.72629769900244,10912.843449611251,71.99934516654311,-2.095620912862537,45.92495116533148,226.591,9000.684068445347,11088.532817195925,150,False,10.839105375506454,False,161.59993093543403,162.44734735682064,False,35.93373631199596,False,False
9,1970-07-23 11:40:16.408439431,2025-09-17,2025-09-26 15:07:20.843,AA,D,410524988,JASSM,3,101,76,2,2,1,225,9,2,0,1,26,0,0,0,0,-124766.32293092164,-4791612.233473119,4198294.470182896,2.29608,-3.09883,0.0776578,-87.625,-3.625,-6.75,0.0,0.0,0.0,0.0,0.0,0.0,2,0,41.40517185942032,-91.49155825881226,9999.99896961889,-95.94153794812146,0.005267182373477,-0.0028311156168042,,9000.684068445347,11088.532817195925,150,9,2025-09-17,2025-09-26 15:07:20.726,AA,D,3814421902,HAWK11,1,1,73,2,1,1,225,2,1,0,0,12,1,225,2,1,-144184.72888358062,-4788552.317354049,4201567.479948521,-1.52554,0.158479,-0.155699,138.5,25.375,40.25,-0.234375,-10.8281,10.4062,-0.00390625,0.0546875,0.0546875,4,0,41.44222618418466,-91.7246718079268,10920.517926282577,76.17385032687822,-2.0741198317544782,45.13185009985253,226.713,9000.684068445347,11088.532817195925,150,False,10.723822084393897,False,166.0209410166192,162.1313697981793,False,31.81139789277867,False,False
9,1970-07-23 11:40:16.420458362,2025-09-17,2025-09-26 15:07:22.045,AA,D,411896990,JASSM,3,101,76,2,2,1,225,9,2,0,1,26,0,0,0,0,-124867.29949342164,-4791616.541090307,4198286.604948521,2.29608,-3.09883,0.0776578,-87.625,-3.625,-6.75,0.0,0.0,0.0,0.0,0.0,0.0,2,0,41.40507748510634,-91.4927635275436,9999.999503045525,-95.9423350874665,0.0061761091940308,-0.0028308323967699,,9000.684068445347,11088.532817195925,150,9,2025-09-17,2025-09-26 15:07:21.913,AA,D,3815773968,HAWK11,1,1,73,2,1,1,225,2,1,0,0,12,1,225,2,1,-144024.26013358062,-4788526.774385299,4201606.335417271,-1.53139,0.0974078,-0.0969284,142.25,17.125,31.25,-0.3125,-10.9062,10.4375,-0.0566406,0.0605469,0.0527344,4,0,41.44266912683916,-91.72276269539276,10930.229025513498,81.00380657456466,-1.7649061485542743,44.193941844096976,226.75,9000.684068445347,11088.532817195925,150,False,10.593582258365865,False,170.93327957701908,161.80441569483554,False,27.16776438356886,True,False
9,1970-07-23 11:40:16.431318853,2025-09-17,2025-09-26 15:07:23.131,AA,D,413209348,JASSM,3,101,76,2,2,1,225,9,2,0,1,26,0,0,0,0,-124963.88543092164,-4791620.660230932,4198279.081511021,2.29608,-3.09893,0.0776578,-87.625,-3.625,-6.75,0.0,0.0,0.0,0.0,0.0,0.0,2,0,41.40498720818868,-91.49391638633396,10000.00163544429,-95.93946559120938,0.0029487408875199,-0.0024042233102762,,9000.684068445347,11088.532817195925,150,9,2025-09-17,2025-09-26 15:07:23.116,AA,D,3817285100,HAWK11,1,1,73,2,1,1,225,2,1,0,0,12,1,225,2,1,-143841.40466483062,-4788509.817354049,4201638.579557896,-1.7055,0.0333641,-0.0373908,144.75,7.625,23.25,-0.15625,-10.75,10.3125,-0.255859,0.0507812,0.0351562,4,0,41.44302032380077,-91.7205828535226,10945.05108297047,85.98936603642099,-1.3015121590751304,33.83863144807946,226.688,9000.684068445347,11088.532817195925,150,False,10.452852526250156,False,175.24511130642918,161.488115501361,False,22.702527570792796,True,False
9,1970-07-23 11:40:16.442337449,2025-09-17,2025-09-26 15:07:24.233,AA,D,414581346,JASSM,3,101,76,2,2,1,225,9,2,0,1,26,0,0,0,0,-125064.86199342164,-4791624.964918432,4198271.214323521,2.29608,-3.09893,0.0776578,-87.625,-3.625,-6.75,0.0,0.0,0.0,0.0,0.0,0.0,2,0,41.40489281341894,-91.49512164915306,10000.001046792182,-95.94026272373893,0.0038576679587684,-0.0024038866758362,,9000.684068445347,11088.532817195925,150,9,2025-09-17,2025-09-26 15:07:24.319,AA,D,3818716698,HAWK11,1,1,73,2,1,1,225,2,1,0,0,12,1,225,2,1,-143665.52966483062,-4788503.997041549,4201660.419401646,-1.96915,-0.0191748,-0.0138058,145.625,0.0,18.875,-0.140625,-9.76562,9.35938,-0.210938,0.03125,0.0234375,4,0,41.443233740845415,-91.71848244523927,10965.189495892577,88.99679483052357,0.0589457030539719,18.622899244309032,226.224,9000.684068445347,11088.532817195925,150,False,10.311844945712622,False,176.19798137820152,161.20769944384855,False,19.968475297651253,True,False
9,1970-07-23 11:40:16.453738747,2025-09-17,2025-09-26 15:07:25.373,AA,D,415893696,JASSM,3,101,76,2,2,1,225,9,2,0,1,26,0,0,0,0,-125161.44793092164,-4791629.081129369,4198263.686979771,2.29608,-3.09893,0.0776578,-87.625,-3.625,-6.75,0.0,0.0,0.0,0.0,0.0,0.0,2,0,41.40480250393564,-91.49627450232806,9999.997370249535,-95.9410251923611,0.0047270744805222,-0.0024035573680991,,9000.684068445347,11088.532817195925,150,9,2025-09-17,2025-09-26 15:07:25.226,AA,D,3819671096,HAWK11,1,1,73,2,1,1,225,2,1,0,0,12,1,225,2,1,-143549.85778983062,-4788504.967744674,4201674.374479771,-2.09168,-0.0372949,-0.0101626,145.875,-3.375,18.0,-0.078125,-8.76562,8.46875,-0.0585938,0.0234375,0.00976562,4,0,41.44334275469856,-91.71709929497348,10989.351725569417,89.8413170433007,0.7000303935055303,11.595883506724368,225.185,9000.684068445347,11088.532817195925,150,False,10.203341707962565,False,175.47962888033766,160.99885697449173,False,19.26573350537227,True,False
9,1970-07-23 11:40:16.464400360,2025-09-17,2025-09-26 15:07:26.440,AA,D,417206048,JASSM,3,101,76,2,2,1,225,9,2,0,1,26,0,0,0,0,-125258.03777467164,-4791633.197340307,4198256.159636021,2.29608,-3.09893,0.0777537,-87.625,-3.625,-6.75,0.0,0.0,0.0,0.0,0.0,0.0,2,0,41.40471218229261,-91.49742739898753,9999.998772223107,-95.94589813731638,0.0019524478260835,-0.0024035018209991,,9000.684068445347,11088.532817195925,150,9,2025-09-17,2025-09-26 15:07:26.413,AA,D,3821221996,HAWK11,1,1,73,2,1,1,225,2,1,0,0,12,1,225,2,1,-143359.64685233062,-4788511.006807174,4201691.522917271,-2.10932,-0.0620303,-0.0159151,145.375,-6.875,15.125,-0.203125,-7.6875,7.35938,-0.0273438,0.0,0.00976562,4,0,41.44345640768266,-91.71482324818837,11027.427453902676,90.533816649364,1.9822263189685143,10.58295193793057,224.171,9000.684068445347,11088.532817195925,150,False,10.055939233579267,False,174.71725900577363,160.73100225290543,False,17.96643236657491,True,False
9,1970-07-23 11:40:16.475419759,2025-09-17,2025-09-26 15:07:27.541,AA,D,418458748,JASSM,3,101,76,2,2,1,225,9,2,0,1,26,0,0,0,0,-125350.23308717164,-4791637.125074682,4198248.974089146,2.29608,-3.09893,0.0777537,-87.625,-3.625,-6.75,0.0,0.0,0.0,0.0,0.0,0.0,2,0,41.40462596182793,-91.4985278399058,10000.000195554769,-95.94662593920675,0.0027823324652811,-0.0024032524540592,,9000.684068445347,11088.532817195925,150,9,2025-09-17,2025-09-26 15:07:27.617,AA,D,3822574060,HAWK11,1,1,73,2,1,1,225,2,1,0,0,12,1,225,2,1,-143196.91443045562,-4788519.053682174,4201706.118620396,-2.17001,-0.0690291,-0.00412257,145.125,-8.0,13.125,-0.109375,-6.3125,6.15625,-0.0546875,-0.0117188,0.0078125,4,0,41.44353594904003,-91.7128749774221,11066.934022634205,91.30740557303596,1.836985767696342,7.127591845966313,222.986,9000.684068445347,11088.532817195925,150,True,9.92485119461732,False,174.44305639965606,160.49103844035923,False,17.32208283629574,True,False
9,1970-07-23 11:40:16.486462355,2025-09-17,2025-09-26 15:07:28.646,AA,D,419771096,JASSM,3,101,76,2,2,1,225,9,2,0,1,26,0,0,0,0,-125446.81902467164,-4791641.238355932,4198241.444792271,2.29608,-3.09893,0.0777537,-87.625,-3.625,-6.75,0.0,0.0,0.0,0.0,0.0,0.0,2,0,41.40453562246097,-91.49968068456246,9999.999336742716,-95.9473883981775,0.0036517392918022,-0.0024029896848739,,9000.684068445347,11088.532817195925,150,9,2025-09-17,2025-09-26 15:07:28.522,AA,D,3823727292,HAWK11,1,1,73,2,1,1,225,2,1,0,0,12,1,225,2,1,-143055.68200858062,-4788526.364229049,4201717.239714146,-2.21718,-0.0645231,0.00508131,145.0,-7.625,11.375,0.0,-5.64062,5.6875,0.0,-0.0234375,0.0078125,4,0,41.44359257803571,-91.71118399508194,11098.677784217818,91.53284294735674,1.2956029073142137,4.431050019910771,222.191,9000.684068445347,11088.532817195925,150,True,9.802623683103393,False,174.63644705015093,160.26409997136423,False,16.98329575626998,True,False
9,1970-07-23 11:40:16.496400990,2025-09-17,2025-09-26 15:07:29.640,AA,D,421023796,JASSM,3,101,76,2,2,1,225,9,2,0,1,26,0,0,0,0,-125539.01794608062,-4791645.164033736,4198234.257292271,2.29608,-3.09893,0.0777537,-87.625,-3.625,-6.75,0.0,0.0,0.0,0.0,0.0,0.0,2,0,41.40444937893396,-91.50078116328942,10000.000701839212,-95.94811622252249,0.0044816567638635,-0.0024027421361596,,9000.684068445347,11088.532817195925,150,9,2025-09-17,2025-09-26 15:07:29.725,AA,D,3825158892,HAWK11,1,1,73,2,1,1,225,2,1,0,0,12,1,225,2,1,-142881.93005545562,-4788534.198213424,4201728.970182896,-2.26387,-0.0513884,0.0218592,145.25,-6.0,9.0,0.15625,-4.92188,4.90625,-0.0566406,-0.0136719,-0.00390625,4,0,41.443655954066855,-91.70910407160332,11130.656265463833,91.75636224321684,0.0967416192096375,1.748553380195027,221.36,9000.684068445347,11088.532817195925,150,True,9.66589795437849,False,175.19963659777505,160.00879265638346,False,16.678766218832113,True,False
9,1970-07-23 11:40:16.508381224,2025-09-17,2025-09-26 15:07:30.838,AA,D,422395800,JASSM,3,101,76,2,2,1,225,9,2,0,1,26,0,0,0,0,-125639.99450858062,-4791649.461885299,4198226.384245396,2.29608,-3.09893,0.0777537,-87.625,-3.625,-6.75,0.0,0.0,0.0,0.0,0.0,0.0,2,0,41.40435491337152,-91.50198640836727,10000.000634434433,-95.94891333482872,0.0053905854195671,-0.0024024717181076,,9000.684068445347,11088.532817195925,150,9,2025-09-17,2025-09-26 15:07:30.913,AA,D,3826510956,HAWK11,1,1,73,2,1,1,225,2,1,0,0,12,1,225,2,1,-142719.25232108062,-4788539.842744674,4201736.524870396,-2.31775,-0.0423762,0.0292415,145.25,-4.25,6.75,0.109375,-5.29688,5.09375,-0.0214844,-0.0214844,0.00585938,4,0,41.44370219370631,-91.7071573179802,11149.011562331196,91.73295590747637,-0.5686944382641075,-1.3516096709000824,221.629,9000.684068445347,11088.532817195925,150,True,9.530475024742621,False,175.6032460697308,159.75171906237142,False,16.505172058123488,True,False
9,1970-07-23 11:40:16.518421541,2025-09-17,2025-09-26 15:07:31.842,AA,D,423648498,JASSM,3,101,76,2,2,1,225,9,2,0,1,26,0,0,0,0,-125732.18982108062,-4791653.384736861,4198219.194792271,2.29608,-3.09893,0.0777537,-87.625,-3.625,-6.75,0.0,0.0,0.0,0.0,0.0,0.0,2,0,41.40426865198542,-91.50308683875772,9999.9997923758,-95.94964112459456,0.0062204709721808,-0.0024022249747722,,9000.684068445347,11088.532817195925,150,9,2025-09-17,2025-09-26 15:07:31.822,AA,D,3827664188,HAWK11,1,1,73,2,1,1,225,2,1,0,0,12,1,225,2,1,-142578.15075858062,-4788542.778291549,4201742.065886021,-2.32465,-0.0290498,0.0301044,145.625,-2.25,5.0,-0.234375,-5.42188,5.3125,-0.0117188,-0.0136719,-0.00195312,4,0,41.44374712053799,-91.70546946326944,11157.927482436817,91.265981250542,-1.1723134945963507,-1.7625690557472486,221.825,9000.684068445347,11088.532817195925,150,True,9.410944090402399,False,175.93992556919392,159.51611324577559,False,16.589994069136274,True,False
9,1970-07-23 11:40:16.529436584,2025-09-17,2025-09-26 15:07:32.943,AA,D,424901198,JASSM,3,101,76,2,2,1,225,9,2,0,1,26,0,0,0,0,-125824.38513358062,-4791657.307588424,4198212.003386021,2.29608,-3.09902,0.0777537,-87.625,-3.625,-6.75,0.0,0.0,0.0,0.0,0.0,0.0,2,0,41.40418236688971,-91.50418726623715,9999.999110768653,-95.94673699758982,0.0029535880882724,-0.0019750960780093,,9000.684068445347,11088.532817195925,150,9,2025-09-17,2025-09-26 15:07:32.820,AA,D,3828817420,HAWK11,1,1,73,2,1,1,225,2,1,0,0,12,1,225,2,1,-142438.64099295562,-4788543.799775924,4201746.218229771,-2.35763,-0.0171614,0.0384454,146.0,-0.25,3.625,0.296875,-4.76562,4.79688,0.0175781,-0.0292969,0.0078125,4,0,41.44379376882713,-91.70380131759238,11159.249239756173,91.17504994711165,-1.997714721757497,-3.6729461464349074,222.582,9000.684068445347,11088.532817195925,150,True,9.292460518848905,False,176.13435444274353,159.2756038748062,False,16.85986099989101,True,False
9,1970-07-23 11:40:16.540223112,2025-09-17,2025-09-26 15:07:34.022,AA,D,426213548,JASSM,3,101,76,2,2,1,225,9,2,0,1,26,0,0,0,0,-125920.97107108062,-4791661.415986861,4198204.470182896,2.29608,-3.09902,0.0777537,-87.625,-3.625,-6.75,0.0,0.0,0.0,0.0,0.0,0.0,2,0,41.40409197349818,-91.50534009674176,10000.00146228184,-95.94749944050186,0.003822995826652,-0.0019747807719366,,9000.684068445347,11088.532817195925,150,9,2025-09-17,2025-09-26 15:07:34.021,AA,D,3830209252,HAWK11,1,1,73,2,1,1,225,2,1,0,0,12,1,225,2,1,-142268.30310233062,-4788543.184541549,4201748.921354771,-2.31487,-0.0022051,0.0378702,146.625,1.25,2.125,-0.234375,-5.75,5.67188,0.0253906,-0.0117188,-0.00195312,4,0,41.44384581513128,-91.7017652125053,11151.158725599582,90.5848528419257,-2.616674459201334,-1.2317996722598823,223.609,9000.684068445347,11088.532817195925,150,True,9.156027981555582,False,175.96524525907125,158.9952871752107,False,17.05484303307238,True,False
9,1970-07-23 11:40:16.551341947,2025-09-17,2025-09-26 15:07:35.134,AA,D,427525908,JASSM,3,101,76,2,2,1,225,9,2,0,1,26,0,0,0,0,-126017.56091483062,-4791665.522432174,4198196.935026646,2.29608,-3.09902,0.0777537,-87.625,-3.625,-6.75,0.0,0.0,0.0,0.0,0.0,0.0,2,0,41.40400156638066,-91.50649297134034,9999.999851225122,-95.94826191120715,0.0046924390832815,-0.0019744669351458,,9000.684068445347,11088.532817195925,150,9,2025-09-17,2025-09-26 15:07:35.225,AA,D,3831481784,HAWK11,1,1,73,2,1,1,225,2,1,0,0,12,1,225,2,1,-142110.90075858062,-4788540.774385299,4201750.669401646,-2.2491,-0.00412257,0.0428556,147.25,2.25,1.125,-0.125,-6.45312,6.23438,0.078125,-0.0117188,0.00390625,4,0,41.44389978375611,-91.6998843793778,11137.540407714594,90.87327294409572,-2.721804201670623,2.527642519939319,225.32,9000.684068445347,11088.532817195925,150,True,9.026588908786174,False,175.76499620749647,158.7177785138909,False,17.29616995827018,True,False
9,1970-07-23 11:40:16.562358587,2025-09-17,2025-09-26 15:07:36.235,AA,D,428897904,JASSM,3,101,76,2,2,1,225,9,2,0,1,26,0,0,0,0,-126118.53747733062,-4791669.815400924,4198189.056120396,2.29608,-3.09902,0.0777537,-87.625,-3.625,-6.75,0.0,0.0,0.0,0.0,0.0,0.0,2,0,41.40390703048288,-91.50769820139976,10000.000062917685,-95.94905900650753,0.0056013700218454,-0.0019741283497954,,9000.684068445347,11088.532817195925,150,9,2025-09-17,2025-09-26 15:07:36.115,AA,D,3832635016,HAWK11,1,1,73,2,1,1,225,2,1,0,0,12,1,225,2,1,-141969.64294608062,-4788538.272432174,4201751.343229771,-2.24095,-0.00498544,0.0367197,147.75,2.125,0.375,-0.21875,-7.14062,6.84375,-0.0273438,0.0175781,0.015625,4,0,41.44394417216209,-91.69819657601066,11122.553003780204,90.6431000030816,-2.450999752927612,3.007032722474975,226.297,9000.684068445347,11088.532817195925,150,True,8.903377608191004,False,175.47298614160113,158.44519265872685,False,17.319395816382084,True,False
9,1970-07-23 11:40:16.573378156,2025-09-17,2025-09-26 15:07:37.337,AA,D,430150602,JASSM,3,101,76,2,2,1,225,9,2,0,1,26,0,0,0,0,-126210.73278983062,-4791673.733369674,4198181.862761021,2.29608,-3.09902,0.0778495,-87.625,-3.625,-6.75,0.0,0.0,0.0,0.0,0.0,0.0,2,0,41.40382071714937,-91.50879861821068,10000.001563447064,-95.95389725708768,0.0027872192158964,-0.0019741622555813,,9000.684068445347,11088.532817195925,150,9,2025-09-17,2025-09-26 15:07:37.319,AA,D,3834066616,HAWK11,1,1,73,2,1,1,225,2,1,0,0,12,1,225,2,1,-141792.06482108062,-4788535.748994674,4201751.890104771,-2.34805,-0.0118884,0.0395,148.5,1.75,0.5,-0.125,-7.35938,6.79688,-0.132812,-0.00195312,-0.0136719,4,0,41.44399421136288,-91.69607457660092,11104.603221763497,91.02569424156982,-2.258324062525731,-3.129359369976466,227.275,9000.684068445347,11088.532817195925,150,True,8.766078646410609,False,175.4642755343249,158.13965398440035,False,17.559025262901173,True,False
9,1970-07-23 11:40:16.584399103,2025-09-17,2025-09-26 15:07:38.439,AA,D,431462952,JASSM,3,101,76,2,2,1,225,9,2,0,1,26,0,0,0,0,-126307.31872733062,-4791677.836885299,4198174.325651646,2.29608,-3.09902,0.0778495,-87.625,-3.625,-6.75,0.0,0.0,0.0,0.0,0.0,0.0,2,0,41.40373028023545,-91.50995143746545,10000.002736919656,-95.95465968710582,0.0036566278959047,-0.001973911935726,,9000.684068445347,11088.532817195925,150,9,2025-09-17,2025-09-26 15:07:38.525,AA,D,3835617514,HAWK11,1,1,73,2,1,1,225,2,1,0,0,12,1,225,2,1,-141598.29333670562,-4788532.622041549,4201753.733854771,-2.4468,-0.00594418,0.0245437,148.875,2.25,2.0,-0.03125,-7.39062,6.78125,0.0488281,-0.00390625,-0.0136719,4,0,41.4440594043034,-91.69375919608196,11086.8250703907,90.15881087437153,-1.9450101645936928,-8.766283812784204,228.143,9000.684068445347,11088.532817195925,150,True,8.61874718996914,False,176.07029500458017,157.79646785159878,False,18.458089802712095,True,False
9,1970-07-23 11:40:16.593737109,2025-09-17,2025-09-26 15:07:39.373,AA,D,432596346,JASSM,3,101,76,2,2,1,225,9,2,0,1,26,0,0,0,0,-126390.73278983062,-4791681.379854049,4198167.813932896,2.29608,-3.09902,0.0778495,-87.625,-3.625,-6.75,0.0,0.0,0.0,0.0,0.0,0.0,2,0,41.40365215612891,-91.51094703909952,9999.999962623284,-95.95531813837476,0.0044074726491675,-0.0019736846003897,,9000.684068445347,11088.532817195925,150,9,2025-09-17,2025-09-26 15:07:39.415,AA,D,3836651446,HAWK11,1,1,73,2,1,1,225,2,1,0,0,12,1,225,2,1,-141470.43591483062,-4788530.319307174,4201755.712370396,-2.38467,-0.00124636,0.00929976,149.0,2.625,2.875,-0.234375,-7.60938,6.84375,0.0703125,0.0,-0.015625,4,0,41.44410896110384,-91.6922315043012,11076.17090634952,89.32652823563699,-1.5676246652318957,-5.185687356343457,228.79,9000.684068445347,11088.532817195925,150,True,8.512006678425285,False,176.4352690914408,157.53351752803368,False,19.0674387117018,True,False
9,1970-07-23 11:40:16.603340241,2025-09-17,2025-09-26 15:07:40.334,AA,D,433789394,JASSM,3,101,76,2,2,1,225,9,2,0,1,26,0,0,0,0,-126478.54138358062,-4791685.108369674,4198160.960417271,2.29608,-3.09902,0.0778495,-87.625,-3.625,-6.75,0.0,0.0,0.0,0.0,0.0,0.0,2,0,41.4035699219915,-91.5119950901239,10000.000943903646,-95.9560112764795,0.0051978731137834,-0.0019734603147256,,9000.684068445347,11088.532817195925,150,9,2025-09-17,2025-09-26 15:07:40.319,AA,D,3837725144,HAWK11,1,1,73,2,1,1,225,2,1,0,0,12,1,225,2,1,-141336.10778983062,-4788527.670869674,4201758.446745396,-2.34018,-0.00325971,0.00709466,149.375,2.625,3.625,0.046875,-7.64062,6.96875,0.0546875,0.0078125,0.00976562,4,0,41.44416679193815,-91.69062657464907,11065.84719551788,89.30923430770702,-1.3963268330411291,-2.635401844884209,229.133,9000.684068445347,11088.532817195925,150,True,8.400081223085806,False,176.69576033911946,157.24752109941534,False,19.566412864747743,True,False
9,1970-07-23 11:40:16.614359989,2025-09-17,2025-09-26 15:07:41.435,AA,D,435042092,JASSM,3,101,76,2,2,1,225,9,2,0,1,26,0,0,0,0,-126570.73669608062,-4791689.022432174,4198153.763151646,2.29608,-3.09912,0.0778495,-87.625,-3.625,-6.75,0.0,0.0,0.0,0.0,0.0,0.0,2,0,41.403483564433294,-91.51309549679036,10000.001534196568,-95.95310718347348,0.0019309945023739,-0.0015458908425235,,9000.684068445347,11088.532817195925,150,9,2025-09-17,2025-09-26 15:07:41.521,AA,D,3838957910,HAWK11,1,1,73,2,1,1,225,2,1,0,0,12,1,225,2,1,-141181.86560233062,-4788524.737275924,4201762.300261021,-2.3235,-0.00412257,0.00287621,149.625,2.625,4.0,-0.140625,-7.46875,6.65625,0.00976562,0.00585938,0.00195312,4,0,41.44423734367762,-91.68878367181271,11055.818619615704,89.16197630359805,-1.1978947731294218,-1.675925510705798,229.841,9000.684068445347,11088.532817195925,150,True,8.276187131212724,False,176.82318510902965,156.92053127766073,False,19.99941840826901,True,False
9,1970-07-23 11:40:16.624396584,2025-09-17,2025-09-26 15:07:42.439,AA,D,436294790,JASSM,3,101,76,2,2,1,225,9,2,0,1,26,0,0,0,0,-126662.93200858062,-4791692.935518111,4198146.563932896,2.29608,-3.09912,0.0778495,-87.625,-3.625,-6.75,0.0,0.0,0.0,0.0,0.0,0.0,2,0,41.4033971889763,-91.51419590085106,9999.999882675593,-95.95383494328529,0.0027608832687832,-0.0015455904876853,,9000.684068445347,11088.532817195925,150,9,2025-09-17,2025-09-26 15:07:42.411,AA,D,3840150908,HAWK11,1,1,73,2,1,1,225,2,1,0,0,12,1,225,2,1,-141032.33825858062,-4788522.055635299,4201766.186979771,-2.33165,-0.00306796,-0.00498544,149.875,2.5,4.25,-0.078125,-7.79688,7.01562,-0.0175781,0.0136719,0.00390625,4,0,41.44430576308099,-91.68699703982423,11046.835083365417,88.78549343837554,-0.9436388158500668,-2.135685166998077,230.355,9000.684068445347,11088.532817195925,150,True,8.15494951184159,False,176.88487664893552,156.58972220430184,False,20.369015574815013,True,False
9,1970-07-23 11:40:16.635403233,2025-09-17,2025-09-26 15:07:43.540,AA,D,437547488,JASSM,3,101,76,2,2,1,225,9,2,0,1,26,0,0,0,0,-126755.12732108062,-4791696.848604049,4198139.364714146,2.29608,-3.09912,0.0778495,-87.625,-3.625,-6.75,0.0,0.0,0.0,0.0,0.0,0.0,2,0,41.40331080299447,-91.5152963019972,10000.002629615892,-95.95456269992076,0.0035907720476328,-0.0015452900928925,,9000.684068445347,11088.532817195925,150,9,2025-09-17,2025-09-26 15:07:43.616,AA,D,3841741574,HAWK11,1,1,73,2,1,1,225,2,1,0,0,12,1,225,2,1,-140831.70349295562,-4788518.866182174,4201772.423307896,-2.33529,-0.00546481,-0.00699879,150.0,2.25,5.125,-0.28125,-7.29688,6.60938,0.0429688,0.00390625,-0.00390625,4,0,41.44440197906055,-91.68459959724416,11038.021405636677,88.79154598653388,-0.7625476631177801,-2.345246932047716,230.709,9000.684068445347,11088.532817195925,150,True,8.008347150637794,False,177.1281657337999,156.17754173992836,False,20.97468815045525,True,False
9,1970-07-23 11:40:16.645438164,2025-09-17,2025-09-26 15:07:44.543,AA,D,438740536,JASSM,3,101,76,2,2,1,225,9,2,0,1,26,0,0,0,0,-126842.93591483062,-4791700.573213424,4198132.507292271,2.29608,-3.09912,0.0778495,-87.625,-3.625,-6.75,0.0,0.0,0.0,0.0,0.0,0.0,2,0,41.40322852611077,-91.51634434328513,10000.002083007745,-95.95525582690205,0.0043811737878244,-0.0015450125409994,,9000.684068445347,11088.532817195925,150,9,2025-09-17,2025-09-26 15:07:44.521,AA,D,3842536906,HAWK11,1,1,73,2,1,1,225,2,1,0,0,12,1,225,2,1,-140732.65466483062,-4788517.262666549,4201775.767057896,-2.33779,0.0,-0.00958738,150.125,2.25,5.375,-0.21875,-7.4375,6.6875,-0.03125,0.0,0.00195312,4,0,41.44445142044904,-91.68341604109912,11034.182242431662,88.47384118514718,-0.8980987141076322,-2.4808259595541915,231.027,9000.684068445347,11088.532817195925,150,True,7.915328836825654,False,177.20710487145033,155.90003168019587,False,21.324100215979954,True,False
9,1970-07-23 11:40:16.655218528,2025-09-17,2025-09-26 15:07:45.521,AA,D,439993236,JASSM,3,101,76,2,2,1,225,9,2,0,1,26,0,0,0,0,-126935.13122733062,-4791704.483369674,4198125.306120396,2.29608,-3.09912,0.0778495,-87.625,-3.625,-6.75,0.0,0.0,0.0,0.0,0.0,0.0,2,0,41.403142123827145,-91.51744473966636,10000.001972614851,-95.95598357794832,0.0052110628414396,-0.0015447163643174,,9000.684068445347,11088.532817195925,150,9,2025-09-17,2025-09-26 15:07:45.411,AA,D,3843888972,HAWK11,1,1,73,2,1,1,225,2,1,0,0,12,1,225,2,1,-140562.54724295562,-4788514.151338424,4201782.067839146,-2.47364,0.00201335,-0.00661529,150.375,3.0,5.875,0.265625,-6.875,6.25,-0.238281,-0.0136719,0.00390625,4,0,41.44454219678025,-91.68138351048212,11027.934084459028,88.52641985153285,-1.0957719549163147,-10.26455215714144,231.406,9000.684068445347,11088.532817195925,150,False,7.784913194835583,False,177.51360764623388,155.50274805585076,False,22.04604965108873,True,False
9,1970-07-23 11:40:16.666334903,2025-09-17,2025-09-26 15:07:46.633,AA,D,441245934,JASSM,3,101,76,2,2,1,225,9,2,0,1,26,0,0,0,0,-127027.32653983062,-4791708.392549361,4198118.102995396,2.29608,-3.09912,0.0778495,-87.625,-3.625,-6.75,0.0,0.0,0.0,0.0,0.0,0.0,2,0,41.4030557036448,-91.51854513344136,9999.999620438615,-95.95671132602112,0.0060409529034146,-0.0015444128375091,,9000.684068445347,11088.532817195925,150,9,2025-09-17,2025-09-26 15:07:46.726,AA,D,3845439870,HAWK11,1,1,73,2,1,1,225,2,1,0,0,12,1,225,2,1,-140366.21911795562,-4788509.069307174,4201790.397917271,-2.52052,0.0215716,-0.0202294,150.5,5.125,7.375,-0.03125,-7.17188,6.4375,0.0898438,0.0,-0.0292969,4,0,41.44466293660718,-91.6790381954714,11019.373490036414,87.2010655148699,-1.4167016476692178,-12.906526529688424,232.2,9000.684068445347,11088.532817195925,150,False,7.642167416698762,False,178.34888770757047,155.0450977866054,False,23.456216200787985,True,False
9,1970-07-23 11:40:16.676377047,2025-09-17,2025-09-26 15:07:47.637,AA,D,442498632,JASSM,3,101,76,2,2,1,225,9,2,0,1,26,0,0,0,0,-127119.52185233062,-4791712.300752486,4198110.899870396,2.29608,-3.09912,0.0779454,-87.625,-3.625,-6.75,0.0,0.0,0.0,0.0,0.0,0.0,2,0,41.40296927874823,-91.51964552460996,9999.999264372716,-95.96154957470716,0.0032268361614903,-0.0015444772868162,,9000.684068445347,11088.532817195925,150,9,2025-09-17,2025-09-26 15:07:47.615,AA,D,3846513568,HAWK11,1,1,73,2,1,1,225,2,1,0,0,12,1,225,2,1,-140230.72693045562,-4788504.073213424,4201797.255339146,-2.349,0.0316384,-0.0336517,150.75,5.875,8.25,-0.53125,-7.60938,6.78125,0.234375,0.0078125,0.0,4,0,41.44476257771812,-91.67742013518716,11012.22458373548,86.24387135077042,-1.3372657732996518,-3.040654583541501,232.383,9000.684068445347,11088.532817195925,150,True,7.530361696345887,False,178.7215418876818,154.66197160325524,False,24.270015743915177,True,False
