Subject_cm,Timestamp,SampleDate_cm,SampleTime_cm,Configuration_cm,Scenario_cm,DisTime_cm,MarkingTxt_cm,Application_cm,EntId_cm,Site_cm,ExerciseId_cm,ForceId_cm,Category_cm,Country_cm,Domain_cm,Kind_cm,Extra_cm,Specific_cm,Subcategory_cm,AltCategory_cm,AltCountry_cm,AltDomain_cm,AltKind_cm,ECEF_X_cm,ECEF_Y_cm,ECEF_Z_cm,OriPhi_cm,OriPsi_cm,OriTheta_cm,LinVelX_cm,LinVelY_cm,LinVelZ_cm,LinAccX_cm,LinAccY_cm,LinAccZ_cm,AngVelX_cm,AngVelY_cm,AngVelZ_cm,DrAlg_cm,Appearance_cm,Latitude_cm,Longitude_cm,Altitude_cm,Heading_cm,Pitch_cm,Roll_cm,CalibratedAirspeed_cm,CM_Altitude_Lead_cm,CM_Altitude_Wing_cm,CM_Airspeed_cm,Subject_ac,SampleDate_ac,SampleTime_ac,Configuration_ac,Scenario_ac,DisTime_ac,MarkingTxt_ac,Application_ac,EntId_ac,Site_ac,ExerciseId_ac,ForceId_ac,Category_ac,Country_ac,Domain_ac,Kind_ac,Extra_ac,Specific_ac,Subcategory_ac,AltCategory_ac,AltCountry_ac,AltDomain_ac,AltKind_ac,ECEF_X_ac,ECEF_Y_ac,ECEF_Z_ac,OriPhi_ac,OriPsi_ac,OriTheta_ac,LinVelX_ac,LinVelY_ac,LinVelZ_ac,LinAccX_ac,LinAccY_ac,LinAccZ_ac,AngVelX_ac,AngVelY_ac,AngVelZ_ac,DrAlg_ac,Appearance_ac,Latitude_ac,Longitude_ac,Altitude_ac,Heading_ac,Pitch_ac,Roll_ac,CalibratedAirspeed_ac,CM_Altitude_Lead_ac,CM_Altitude_Wing_ac,CM_Airspeed_ac,Bank_Angle_Condition,distance_nm,Distance_Condition,angle_between_vel,angle_between_pos,Cone_Condition,angle_between_pos_nose,Nose_Cone_Condition,Intercept_Criteria
9,1970-07-23 10:31:29.540236432,2025-09-12,2025-09-26 20:29:14.023,AH,C,3716635618,JASSM,3,124,76,2,2,1,225,9,2,0,1,26,0,0,0,0,-155732.05896170562,-4777174.159150924,4213583.905729771,-2.71093,-1.01118,0.751842,34.375,-54.75,-60.375,0.0,0.0,0.0,0.0,0.0,0.0,2,0,41.58887687754758,-91.86713539366602,10002.625400574403,155.9383180827071,-0.0041658387038437,-0.0006567772067105,,9026.08902586808,11243.505992254835,150,9,2025-09-12,2025-09-26 20:29:14.032,AH,C,1084307138,HAWK11,1,1,73,2,1,1,225,2,1,0,0,12,1,225,2,1,-145078.27185233062,-4790845.939424361,4199087.175261021,2.37278,2.62733,-0.505063,-92.5,38.25,39.125,0.078125,-6.79688,6.40625,-0.015625,-0.0078125,0.00585938,4,0,41.41167848805086,-91.73452315076766,11242.256262069057,-50.77885843895269,0.8395681053416837,-2.451071221155969,181.546,9026.08902586808,11243.505992254835,150,True,12.184106085602677,False,143.44183923881766,174.6410970289785,False,31.27155286631799,False,False
9,1970-07-23 10:31:29.551343884,2025-09-12,2025-09-26 20:29:15.134,AH,C,3717947968,JASSM,3,124,76,2,2,1,225,9,2,0,1,26,0,0,0,0,-155694.28650076812,-4777234.471650924,4213517.366667271,-2.71093,-1.01118,0.751842,34.375,-54.75,-60.375,0.0,0.0,0.0,0.0,0.0,0.0,2,0,41.58807626753593,-91.8666592944408,10002.619825288632,155.93863410593443,-0.0032896112154118,-0.0006580514348348,,9026.08902586808,11243.505992254835,150,9,2025-09-12,2025-09-26 20:29:15.032,AH,C,1085380838,HAWK11,1,1,73,2,1,1,225,2,1,0,0,12,1,225,2,1,-145161.62341483062,-4790811.360322799,4199121.886198521,2.36195,2.62426,-0.50631,-92.75,38.375,38.75,-0.171875,-6.73438,6.40625,0.00195312,-0.0234375,0.0,4,0,41.41210347660977,-91.7355315929736,11238.750051070623,-50.61706031024769,0.7918467353410843,-3.154485893563656,181.791,9026.08902586808,11243.505992254835,150,True,12.087455349506467,False,143.2802329925348,174.7446438126386,False,31.534034464368197,False,False
9,1970-07-23 10:31:29.561344444,2025-09-12,2025-09-26 20:29:16.134,AH,C,3719200668,JASSM,3,124,76,2,2,1,225,9,2,0,1,26,0,0,0,0,-155658.23083670562,-4777292.043916549,4213453.854948521,-2.71093,-1.01118,0.751842,34.375,-54.625,-60.375,0.0,0.0,0.0,0.0,0.0,0.0,2,0,41.58731205867268,-91.8662048449824,10002.6282877417,155.93893575390675,-0.0024532222090749,-0.0006592615580773,,9026.08902586808,11243.505992254835,150,9,2025-09-12,2025-09-26 20:29:16.236,AH,C,1087051036,HAWK11,1,1,73,2,1,1,225,2,1,0,0,12,1,225,2,1,-145291.53552420562,-4790757.514619674,4199174.854948521,2.35293,2.62761,-0.498448,-93.375,38.75,37.875,-0.015625,-6.73438,6.28125,-0.0078125,-0.0078125,0.0,4,0,41.41275791506868,-91.73710336436817,11230.96002333074,-51.043032959837085,0.5679088675016835,-3.58307887374352,182.121,9026.08902586808,11243.505992254835,150,True,11.968930911724348,False,142.93322967243571,174.93288122401506,False,32.07043652415108,False,False
9,1970-07-23 10:31:29.572282178,2025-09-12,2025-09-26 20:29:17.228,AH,C,3720513018,JASSM,3,124,76,2,2,1,225,9,2,0,1,26,0,0,0,0,-155620.45837576812,-4777352.354463424,4213387.315886021,-2.71083,-1.01118,0.751842,34.375,-54.625,-60.375,0.0,0.0,0.0,0.0,0.0,0.0,2,0,41.58651145625013,-91.86572876951146,10002.627476446043,155.9392517516035,-0.0015770053615313,0.0048446008824826,,9026.08902586808,11243.505992254835,150,9,2025-09-12,2025-09-26 20:29:17.330,AH,C,1088244034,HAWK11,1,1,73,2,1,1,225,2,1,0,0,12,1,225,2,1,-145385.03747733062,-4790718.582979049,4199212.376432896,2.49425,2.62292,-0.501899,-93.5,39.125,37.625,-0.03125,-6.89062,6.40625,0.333984,0.00585938,0.0,4,0,41.4132259147955,-91.73823470363446,11223.618675417025,-50.73583806496901,0.5602473382280763,4.387969060477113,182.976,9026.08902586808,11243.505992254835,150,True,11.867472125223724,False,142.9202274769836,175.05763708425567,False,32.204806000794946,False,False
9,1970-07-23 10:31:29.585042408,2025-09-12,2025-09-26 20:29:18.504,AH,C,3721825368,JASSM,3,124,76,2,2,1,225,9,2,0,1,26,0,0,0,0,-155582.68591483062,-4777412.665010299,4213320.772917271,-2.71083,-1.01118,0.751842,34.375,-54.625,-60.375,0.0,0.0,0.0,0.0,0.0,0.0,2,0,41.585710825450825,-91.86525270580287,10002.62304694374,155.93956773649816,-0.0007007643824099,0.0048433201136835,,9026.08902586808,11243.505992254835,150,9,2025-09-12,2025-09-26 20:29:18.329,AH,C,1089556332,HAWK11,1,1,73,2,1,1,225,2,1,0,0,12,1,225,2,1,-145487.94372733062,-4790674.526338424,4199254.552214146,2.78389,2.61927,-0.518294,-92.0,40.375,39.125,-0.46875,-7.54688,7.14062,0.136719,0.0175781,0.0410156,4,0,41.41375411032288,-91.73948028995092,11214.482537053893,-49.9784062146972,1.1450107862034846,20.89236281309593,183.098,9026.08902586808,11243.505992254835,150,False,11.76044047762212,False,144.21725839806234,175.19787159815965,False,31.050647714726395,False,False
9,1970-07-23 10:31:29.592241152,2025-09-12,2025-09-26 20:29:19.224,AH,C,3722899110,JASSM,3,124,76,2,2,1,225,9,2,0,1,26,0,0,0,0,-155551.78161795562,-4777462.008760299,4213266.331511021,-2.71083,-1.01118,0.751842,34.375,-54.625,-60.375,0.0,0.0,0.0,0.0,0.0,0.0,2,0,41.5850557887952,-91.86486321368352,10002.626232189268,155.9398262562201,1.6134218478488964e-05,0.0048422790214569,,9026.08902586808,11243.505992254835,150,9,2025-09-12,2025-09-26 20:29:19.532,AH,C,1090908398,HAWK11,1,1,73,2,1,1,225,2,1,0,0,12,1,225,2,1,-145591.35583670562,-4790627.013643111,4199300.505339146,2.85761,2.55801,-0.557027,-89.25,42.625,42.5,-0.171875,-8.85938,8.70312,0.0449219,0.0449219,0.0546875,4,0,41.4143282583152,-91.74073319703736,11205.089887378015,-46.245402023559656,0.8734920421786289,23.38420608430349,183.514,9026.08902586808,11243.505992254835,150,False,11.66042696521612,False,146.81484267895146,175.33940912856343,False,28.603878646483235,True,False
9,1970-07-23 10:31:29.601244596,2025-09-12,2025-09-26 20:29:20.124,AH,C,3723972854,JASSM,3,124,76,2,2,1,225,9,2,0,1,26,0,0,0,0,-155520.87634451812,-4777511.352510299,4213211.886198521,-2.71083,-1.01118,0.751842,34.375,-54.625,-60.375,0.0,0.0,0.0,0.0,0.0,0.0,2,0,41.58440072464099,-91.86447371773808,10002.6241054921,155.94008477513776,0.0007330603052554,0.0048412352648888,,9026.08902586808,11243.505992254835,150,9,2025-09-12,2025-09-26 20:29:20.236,AH,C,1091783264,HAWK11,1,1,73,2,1,1,225,2,1,0,0,12,1,225,2,1,-145655.42028983062,-4790595.630830611,4199332.395964146,2.91082,2.53385,-0.574476,-87.0,43.75,45.0,-0.171875,-7.75,7.57812,0.0683594,-0.00195312,0.0253906,4,0,41.41471863048061,-91.7415101003597,11201.91080885266,-44.70823651462755,0.9077366697663356,25.71485369545346,183.831,9026.08902586808,11243.505992254835,150,False,11.580351784974505,False,148.65796835541786,175.4165395484162,False,26.852836109589266,True,False
9,1970-07-23 10:31:29.611220981,2025-09-12,2025-09-26 20:29:21.122,AH,C,3725106248,JASSM,3,124,76,2,2,1,225,9,2,0,1,26,0,0,0,0,-155488.25427420562,-4777563.436494674,4213154.417448521,-2.71083,-1.01118,0.751842,34.375,-54.625,-60.375,0.0,0.0,0.0,0.0,0.0,0.0,2,0,41.58370928173213,-91.8640625940434,10002.625597774631,155.94035764534587,0.0014898010948756,0.0048401380891611,,9026.08902586808,11243.505992254835,150,9,2025-09-12,2025-09-26 20:29:20.830,AH,C,1092300230,HAWK11,1,1,73,2,1,1,225,2,1,0,0,12,1,225,2,1,-145693.99450858062,-4790575.736299361,4199352.675261021,2.92674,2.54507,-0.549357,-86.25,45.375,46.375,-0.046875,-7.15625,7.0,0.0566406,0.0,0.0273438,4,0,41.41496688973884,-91.74197825355397,11199.881070517917,-46.03836172675762,0.1343093719217602,26.95715016359092,183.758,9026.08902586808,11243.505992254835,150,False,11.512009235741433,False,149.79333951118508,175.45390998485502,False,25.7509286771158,True,False
9,1970-07-23 10:31:29.620222192,2025-09-12,2025-09-26 20:29:22.022,AH,C,3726179990,JASSM,3,124,76,2,2,1,225,9,2,0,1,26,0,0,0,0,-155457.34997733062,-4777612.778291549,4213099.972136021,-2.71083,-1.01109,0.751938,34.375,-54.625,-60.375,0.0,0.0,0.0,0.0,0.0,0.0,2,0,41.5830542261822,-91.8636731267419,10002.625485056487,155.9392642687324,-0.00445786214055,0.0010883281638652,,9026.08902586808,11243.505992254835,150,9,2025-09-12,2025-09-26 20:29:22.032,AH,C,1093970428,HAWK11,1,1,73,2,1,1,225,2,1,0,0,12,1,225,2,1,-145813.27966483062,-4790508.057588424,4199421.151823521,3.00027,2.48965,-0.578598,-82.0,49.375,51.0,-0.09375,-7.9375,7.89062,0.0332031,0.03125,0.0507812,4,0,41.4158101361944,-91.74342821192457,11190.98201788076,-42.89614329385812,-0.2194916470321385,29.47053902431543,183.88,9026.08902586808,11243.505992254835,150,False,11.393720929095368,False,153.7267481187948,175.60069991311283,False,21.967639508823837,True,False
9,1970-07-23 10:31:29.629839057,2025-09-12,2025-09-26 20:29:22.983,AH,C,3727313384,JASSM,3,124,76,2,2,1,225,9,2,0,1,26,0,0,0,0,-155424.72790701812,-4777664.860322799,4213042.503386021,-2.71083,-1.01109,0.751938,34.375,-54.625,-60.375,0.0,0.0,0.0,0.0,0.0,0.0,2,0,41.58236279190847,-91.86326202089002,10002.629286808246,155.9395371199717,-0.0037011320785167,0.0010872173402575,,9026.08902586808,11243.505992254835,150,9,2025-09-12,2025-09-26 20:29:23.033,AH,C,1095163426,HAWK11,1,1,73,2,1,1,225,2,1,0,0,12,1,225,2,1,-145894.58630545562,-4790456.184541549,4199474.259245396,3.06106,2.45226,-0.576489,-78.75,52.75,54.25,-0.3125,-6.875,6.6875,0.0449219,-0.0078125,0.0390625,4,0,41.416462476763215,-91.74441863826549,11184.76321051556,-41.53543412207361,-1.394587238502651,31.76439977299948,183.795,9026.08902586808,11243.505992254835,150,False,11.292959623796726,False,156.6862392152144,175.6856112310576,False,19.085766670610585,True,False
9,1970-07-23 10:31:29.640640901,2025-09-12,2025-09-26 20:29:24.064,AH,C,3728446776,JASSM,3,124,76,2,2,1,225,9,2,0,1,26,0,0,0,0,-155392.10583670562,-4777716.942354049,4212985.030729771,-2.71083,-1.01109,0.751938,34.375,-54.625,-60.375,0.0,0.0,0.0,0.0,0.0,0.0,2,0,41.58167132978628,-91.86285092380918,10002.628228773212,155.93980996166468,-0.0029443779146852,0.0010860957823881,,9026.08902586808,11243.505992254835,150,9,2025-09-12,2025-09-26 20:29:24.031,AH,C,1096276892,HAWK11,1,1,73,2,1,1,225,2,1,0,0,12,1,225,2,1,-145967.10388358062,-4790403.658174361,4199526.106901646,3.11082,2.41477,-0.582337,-75.5,56.75,56.375,-0.3125,-7.39062,7.21875,0.0253906,0.015625,0.0507812,4,0,41.41711178870879,-91.7453042985548,11173.551181686027,-39.8811004456769,-2.172268588280516,33.387814658396245,183.514,9026.08902586808,11243.505992254835,150,False,11.194598322714924,False,159.38890160645326,175.75253420385624,False,16.414036978304463,True,False
9,1970-07-23 10:31:29.648241032,2025-09-12,2025-09-26 20:29:24.824,AH,C,3729520518,JASSM,3,124,76,2,2,1,225,9,2,0,1,26,0,0,0,0,-155361.20153983062,-4777766.280244674,4212930.581511021,-2.71083,-1.01109,0.751938,34.375,-54.625,-60.375,0.0,0.0,0.0,0.0,0.0,0.0,2,0,41.58101626692288,-91.86246148252016,10002.620209587538,155.9400684271533,-0.0022274634493887,0.0010850289596041,,9026.08902586808,11243.505992254835,150,9,2025-09-12,2025-09-26 20:29:24.626,AH,C,1097072224,HAWK11,1,1,73,2,1,1,225,2,1,0,0,12,1,225,2,1,-146016.56677420562,-4790364.596650924,4199564.145964146,3.14063,2.37719,-0.592788,-73.0,59.375,58.375,-0.046875,-7.89062,7.70312,0.00195312,0.03125,0.0527344,4,0,41.41759196507682,-91.74590957966016,11163.758450265794,-38.06394098190656,-2.693867952628865,33.825303443715804,183.477,9026.08902586808,11243.505992254835,150,False,11.113510385830608,False,161.43365722902885,175.78950841473602,False,14.389435837981424,True,False
9,1970-07-23 10:31:29.657221389,2025-09-12,2025-09-26 20:29:25.722,AH,C,3730594262,JASSM,3,124,76,2,2,1,225,9,2,0,1,26,0,0,0,0,-155330.29626639312,-4777815.620088424,4212876.136198521,-2.71083,-1.01109,0.751938,34.375,-54.625,-60.375,0.0,0.0,0.0,0.0,0.0,0.0,2,0,41.58036121749162,-91.8620720366428,10002.62868102078,155.94032689234277,-0.0015105586404523,0.0010839766792662,,9026.08902586808,11243.505992254835,150,9,2025-09-12,2025-09-26 20:29:25.625,AH,C,1098185690,HAWK11,1,1,73,2,1,1,225,2,1,0,0,12,1,225,2,1,-146083.19372733062,-4790306.790986861,4199620.120573521,-3.13344,2.32475,-0.60899,-69.0,62.875,61.125,-0.234375,-8.07812,7.875,-0.0410156,0.0292969,0.0429688,4,0,41.41830160155259,-91.74672680476752,11148.088749778744,-35.476635542793886,-3.262823206678057,32.513593554520604,183.147,9026.08902586808,11243.505992254835,150,False,11.015804331592344,False,164.37241149260998,175.83766657813902,False,11.476659693083441,True,False
9,1970-07-23 10:31:29.667202615,2025-09-12,2025-09-26 20:29:26.720,AH,C,3731787308,JASSM,3,124,76,2,2,1,225,9,2,0,1,26,0,0,0,0,-155295.95739920562,-4777870.440400924,4212815.636198521,-2.71083,-1.01109,0.751938,34.375,-54.625,-60.375,0.0,0.0,0.0,0.0,0.0,0.0,2,0,41.57963335839472,-91.86163933280856,10002.626358547255,155.94061406280176,-0.0007139764314964,0.0010827942444091,,9026.08902586808,11243.505992254835,150,9,2025-09-12,2025-09-26 20:29:26.830,AH,C,1099458222,HAWK11,1,1,73,2,1,1,225,2,1,0,0,12,1,225,2,1,-146154.38318045562,-4790237.112275924,4199687.507292271,3.1088,2.26636,-0.632959,-64.375,65.875,64.875,-0.015625,-8.5,8.39062,-0.0898438,0.0273438,0.0410156,4,0,41.41915807180305,-91.74760289872638,11128.339371183816,-32.432684009877235,-3.4854663443588776,28.041935353278127,182.536,9026.08902586808,11243.505992254835,150,False,10.9043199193152,False,167.69913583859113,175.8762314950739,False,8.179569049360312,True,False
9,1970-07-23 10:31:29.676198778,2025-09-12,2025-09-26 20:29:27.619,AH,C,3732920722,JASSM,3,124,76,2,2,1,225,9,2,0,1,26,0,0,0,0,-155263.33532889312,-4777922.518525924,4212758.159636021,-2.71083,-1.01109,0.751938,34.375,-54.625,-60.375,0.0,0.0,0.0,0.0,0.0,0.0,2,0,41.57894188716383,-91.86122827186776,10002.62160597562,155.94088686580264,4.278034806128063e-05,0.0010816703794543,,9026.08902586808,11243.505992254835,150,9,2025-09-12,2025-09-26 20:29:27.738,AH,C,1100651222,HAWK11,1,1,73,2,1,1,225,2,1,0,0,12,1,225,2,1,-146216.84802420562,-4790169.170869674,4199754.224089146,3.03076,2.22168,-0.653955,-60.625,68.0,68.25,-0.265625,-9.45312,9.23438,-0.162109,0.0292969,0.0234375,4,0,41.42000126242206,-91.74837412467237,11110.760622363608,-30.05454130468662,-3.4286640969427884,21.891050867981576,182.292,9026.08902586808,11243.505992254835,150,False,10.798133037563883,False,170.39385669747486,175.89648606801433,False,5.5027261133467995,True,False
9,1970-07-23 10:31:29.686339443,2025-09-12,2025-09-26 20:29:28.633,AH,C,3734054096,JASSM,3,124,76,2,2,1,225,9,2,0,1,26,0,0,0,0,-155230.71325858062,-4777974.594697799,4212700.686979771,-2.71083,-1.01109,0.751938,34.375,-54.625,-60.375,0.0,0.0,0.0,0.0,0.0,0.0,2,0,41.5782504523354,-91.86081722045628,10002.624213736966,155.9411596587539,0.0007995023289995,0.0010805614551465,,9026.08902586808,11243.505992254835,150,9,2025-09-12,2025-09-26 20:29:28.626,AH,C,1101764686,HAWK11,1,1,73,2,1,1,225,2,1,0,0,12,1,225,2,1,-146272.25818045562,-4790104.248018111,4199819.974089146,2.909,2.19378,-0.678499,-57.75,68.625,71.5,-0.28125,-8.8125,8.53125,-0.132812,0.0175781,0.0117188,4,0,41.42082124373311,-91.74905996581782,11097.983099855364,-28.286122825875932,-2.7668022338979466,13.831142447371596,182.011,9026.08902586808,11243.505992254835,150,False,10.694975900659259,False,172.5061088724877,175.90193003159132,False,3.4095441052339184,True,False
9,1970-07-23 10:31:29.695339018,2025-09-12,2025-09-26 20:29:29.533,AH,C,3735247142,JASSM,3,124,76,2,2,1,225,9,2,0,1,26,0,0,0,0,-155196.37439139312,-4778029.411104049,4212640.186979771,-2.71083,-1.01109,0.752034,34.375,-54.625,-60.375,0.0,0.0,0.0,0.0,0.0,0.0,2,0,41.5775226115659,-91.86038454632,10002.624025202193,155.9437411618362,-0.0033968997366609,0.0010793513872832,,9026.08902586808,11243.505992254835,150,9,2025-09-12,2025-09-26 20:29:29.544,AH,C,1102599786,HAWK11,1,1,73,2,1,1,225,2,1,0,0,12,1,225,2,1,-146311.83825858062,-4790055.702119674,4199870.620573521,2.84141,2.18429,-0.694893,-56.375,68.75,73.5,-0.109375,-8.375,8.20312,-0.09375,0.0136719,0.015625,4,0,41.42144471875263,-91.7495506730773,11091.510466894257,-27.48491646189783,-2.1196143070026374,9.579543156611171,181.84,9026.08902586808,11243.505992254835,150,True,10.603956230092646,False,173.57708639594907,175.8938574257816,False,2.399735355006789,True,False
9,1970-07-23 10:31:29.704341550,2025-09-12,2025-09-26 20:29:30.434,AH,C,3736320884,JASSM,3,124,76,2,2,1,225,9,2,0,1,26,0,0,0,0,-155165.47009451812,-4778078.745088424,4212585.737761021,-2.71083,-1.01109,0.752034,34.375,-54.625,-60.375,0.0,0.0,0.0,0.0,0.0,0.0,2,0,41.57686756319274,-91.85999515639654,10002.627148558156,155.94399957214975,-0.0026800064660803,0.001078321661667,,9026.08902586808,11243.505992254835,150,9,2025-09-12,2025-09-26 20:29:30.344,AH,C,1103514418,HAWK11,1,1,73,2,1,1,225,2,1,0,0,12,1,225,2,1,-146354.74060233062,-4790002.782197799,4199927.653776646,2.77727,2.18209,-0.70937,-55.5,68.375,75.5,-0.234375,-8.45312,8.17188,-0.0742188,0.0136719,0.00390625,4,0,41.42213671637949,-91.75008268942332,11088.398075445935,-27.02580742974057,-1.4213778845219238,5.808854806145617,181.681,9026.08902586808,11243.505992254835,150,True,10.513201549693125,False,174.3048694280359,175.8852362446329,False,1.983111326937524,True,False
9,1970-07-23 10:31:29.714223718,2025-09-12,2025-09-26 20:29:31.422,AH,C,3737454278,JASSM,3,124,76,2,2,1,225,9,2,0,1,26,0,0,0,0,-155132.84704764312,-4778130.821260299,4212528.257292271,-2.71083,-1.01109,0.752034,34.375,-54.625,-60.375,0.0,0.0,0.0,0.0,0.0,0.0,2,0,41.57617607130083,-91.85958411959186,10002.623606467572,155.94427234432715,-0.0019232327469395,0.0010772296274308,,9026.08902586808,11243.505992254835,150,9,2025-09-12,2025-09-26 20:29:31.422,AH,C,1105144850,HAWK11,1,1,73,2,1,1,225,2,1,0,0,12,1,225,2,1,-146427.31482108062,-4789908.818330611,4200030.874479771,2.71265,2.17672,-0.732763,-54.0,68.125,77.25,-0.328125,-7.48438,7.15625,-0.0332031,0.00390625,0.00195312,4,0,41.42337924842416,-91.75098430540255,11086.851026483071,-26.22005179706286,-0.3245947997666512,1.8911307166049007,181.351,9026.08902586808,11243.505992254835,150,True,10.383107324971832,False,175.17696968524086,175.86992171412433,False,1.8576597998068618,True,False
9,1970-07-23 10:31:29.724198744,2025-09-12,2025-09-26 20:29:32.419,AH,C,3738587672,JASSM,3,124,76,2,2,1,225,9,2,0,1,26,0,0,0,0,-155100.22497733062,-4778182.895479049,4212470.780729771,-2.71083,-1.01109,0.752034,34.375,-54.625,-60.375,0.0,0.0,0.0,0.0,0.0,0.0,2,0,41.57548461562297,-91.85917310401246,10002.62750195353,155.94454509869377,-0.0011664972219143,0.0010761444644454,,9026.08902586808,11243.505992254835,150,9,2025-09-12,2025-09-26 20:29:32.421,AH,C,1106377616,HAWK11,1,1,73,2,1,1,225,2,1,0,0,12,1,225,2,1,-146482.35778983062,-4789838.326143111,4200110.479948521,2.71409,2.18688,-0.740913,-53.375,68.0,77.875,0.015625,-7.125,6.89062,0.164062,-0.0253906,0.0,4,0,41.42432592353851,-91.75166786459216,11090.451433059972,-26.396351085455137,0.2872560033344138,2.3648909362051,181.473,9026.08902586808,11243.505992254835,150,True,10.273284054705108,False,175.48967659333312,175.85183579897046,False,1.993335410012257,True,False
9,1970-07-23 10:31:29.733340763,2025-09-12,2025-09-26 20:29:33.334,AH,C,3739661414,JASSM,3,124,76,2,2,1,225,9,2,0,1,26,0,0,0,0,-155069.31970389312,-4778232.227510299,4212416.325651646,-2.71083,-1.01109,0.752034,34.375,-54.625,-60.375,0.0,0.0,0.0,0.0,0.0,0.0,2,0,41.57482953531514,-91.85878372763167,10002.623179840542,155.94480348961903,-0.0004495751587311,0.0010751109225224,,9026.08902586808,11243.505992254835,150,9,2025-09-12,2025-09-26 20:29:33.422,AH,C,1107332014,HAWK11,1,1,73,2,1,1,225,2,1,0,0,12,1,225,2,1,-146524.84607108062,-4789783.329072799,4200172.659636021,2.95253,2.16905,-0.745035,-52.375,68.875,78.25,0.1875,-7.07812,6.96875,0.302734,0.015625,0.0351562,4,0,41.4250650762824,-91.75219573824336,11093.388783601167,-25.617935608778613,0.1635262005255015,15.338293488551,181.522,9026.08902586808,11243.505992254835,150,False,10.180117488520557,False,176.14705756775473,175.8329860664256,False,1.7821870593844051,True,False
9,1970-07-23 10:31:29.742338865,2025-09-12,2025-09-26 20:29:34.233,AH,C,3740794808,JASSM,3,124,76,2,2,1,225,9,2,0,1,26,0,0,0,0,-155036.69763358062,-4778284.299775924,4212358.847136021,-2.71083,-1.01099,0.752034,34.375,-54.625,-60.375,0.0,0.0,0.0,0.0,0.0,0.0,2,0,41.57413807512289,-91.85837272988412,10002.62513193611,155.9414276489673,-0.0013695757583238,-0.0026819731488685,,9026.08902586808,11243.505992254835,150,9,2025-09-12,2025-09-26 20:29:34.327,AH,C,1108644312,HAWK11,1,1,73,2,1,1,225,2,1,0,0,12,1,225,2,1,-146579.40466483062,-4789706.432588424,4200258.751432896,-3.07084,2.11431,-0.769195,-48.0,70.375,79.5,-0.125,-7.32812,7.17188,0.078125,0.0292969,0.0546875,4,0,41.42609371472148,-91.7528758857878,11095.298997019512,-22.966933310391948,0.4508419140374889,28.084272512295357,181.644,9026.08902586808,11243.505992254835,150,False,10.066027133753371,False,178.4535252416213,175.80076466454148,False,3.093625339835255,True,False
9,1970-07-23 10:31:29.751338038,2025-09-12,2025-09-26 20:29:35.133,AH,C,3741928202,JASSM,3,124,76,2,2,1,225,9,2,0,1,26,0,0,0,0,-155004.07556326812,-4778336.372041549,4212301.366667271,-2.71074,-1.01099,0.752034,34.375,-54.625,-60.375,0.0,0.0,0.0,0.0,0.0,0.0,2,0,41.57344660022899,-91.857961740903,10002.62647782866,155.94170037473725,-0.0006128268981802,0.0028083590647034,,9026.08902586808,11243.505992254835,150,9,2025-09-12,2025-09-26 20:29:35.235,AH,C,1109718012,HAWK11,1,1,73,2,1,1,225,2,1,0,0,12,1,225,2,1,-146621.14880545562,-4789641.174775924,4200331.282682896,-2.97142,2.03099,-0.786261,-43.5,72.125,80.75,-0.109375,-8.09375,7.92188,0.0429688,0.0390625,0.0488281,4,0,41.4269639132844,-91.75339864769737,11095.432895885877,-19.45049717081205,0.0613690713412936,30.4459291135883,181.644,9026.08902586808,11243.505992254835,150,False,9.96365179278967,False,178.9434588275443,175.75856107059008,False,5.29605960489969,True,False
9,1970-07-23 10:31:29.761858523,2025-09-12,2025-09-26 20:29:36.185,AH,C,3743001944,JASSM,3,124,76,2,2,1,225,9,2,0,1,26,0,0,0,0,-154973.17028983062,-4778385.702119674,4212246.911589146,-2.71074,-1.01099,0.752034,34.375,-54.625,-60.375,0.0,0.0,0.0,0.0,0.0,0.0,2,0,41.57279152724393,-91.85757238975924,10002.627545039422,155.94195873854483,0.0001040844761726,0.002807284065226,,9026.08902586808,11243.505992254835,150,9,2025-09-12,2025-09-26 20:29:36.421,AH,C,1110871244,HAWK11,1,1,73,2,1,1,225,2,1,0,0,12,1,225,2,1,-146660.46130545562,-4789570.416963424,4200410.069792271,-2.92894,1.96848,-0.800546,-38.125,73.375,82.625,0.0,-8.15625,7.9375,-0.0390625,0.0234375,0.0351562,4,0,41.42790949851701,-91.75389437485263,11095.4467563037,-16.80972442632342,-0.0012248950778941,30.32765037378244,181.803,9026.08902586808,11243.505992254835,150,False,9.860248525576017,False,176.11401914285761,175.69831815168024,False,8.170328873431734,True,False
9,1970-07-23 10:31:29.770322391,2025-09-12,2025-09-26 20:29:37.032,AH,C,3744135328,JASSM,3,124,76,2,2,1,225,9,2,0,1,26,0,0,0,0,-154940.54821951812,-4778437.770479049,4212189.429167271,-2.71074,-1.01099,0.75213,34.375,-54.625,-60.375,0.0,0.0,0.0,0.0,0.0,0.0,2,0,41.57210005949239,-91.85716141936594,10002.62215632678,155.9445247109362,-0.0041288852244385,0.0028060818647083,,9026.08902586808,11243.505992254835,150,9,2025-09-12,2025-09-26 20:29:37.032,AH,C,1111626810,HAWK11,1,1,73,2,1,1,225,2,1,0,0,12,1,225,2,1,-146683.29919608062,-4789523.219697799,4200462.106901646,-2.93019,1.9355,-0.787507,-34.75,75.0,83.125,0.0,-6.54688,6.32812,-0.03125,-0.015625,0.0371094,4,0,41.42853736264475,-91.75418459499048,11094.08482659158,-15.77054564202658,-1.110677583299818,28.898425578797703,181.803,9026.08902586808,11243.505992254835,150,False,9.775633271923285,False,174.3534759566904,175.64153117622337,False,9.93098192844344,True,False
9,1970-07-23 10:31:29.779318270,2025-09-12,2025-09-26 20:29:37.931,AH,C,3745209080,JASSM,3,124,76,2,2,1,225,9,2,0,1,26,0,0,0,0,-154909.64294608062,-4778487.100557174,4212134.972136021,-2.71074,-1.01099,0.75213,34.375,-54.625,-60.375,0.0,0.0,0.0,0.0,0.0,0.0,2,0,41.57144497049394,-91.8567720843934,10002.6256979132,155.94478305723206,-0.0034119616317054,0.0028050301743235,,9026.08902586808,11243.505992254835,150,9,2025-09-12,2025-09-26 20:29:37.921,AH,C,1112780042,HAWK11,1,1,73,2,1,1,225,2,1,0,0,12,1,225,2,1,-146715.34216483062,-4789448.435518111,4200542.604948521,-2.93105,1.88028,-0.775907,-30.875,77.5,83.5,0.125,-7.15625,6.875,-0.0253906,0.015625,0.0371094,4,0,41.429519778722,-91.75459493646892,11087.3766056778,-13.786810801165863,-2.355033281207305,26.559654675862948,181.803,9026.08902586808,11243.505992254835,150,False,9.672120938312263,False,172.24382270534576,175.55474827194325,False,12.032138919371715,True,False
9,1970-07-23 10:31:29.789301905,2025-09-12,2025-09-26 20:29:38.930,AH,C,3746342474,JASSM,3,124,76,2,2,1,225,9,2,0,1,26,0,0,0,0,-154877.02087576812,-4778539.168916549,4212077.489714146,-2.71074,-1.01099,0.75213,34.375,-54.625,-60.375,0.0,0.0,0.0,0.0,0.0,0.0,2,0,41.57075349971958,-91.85636113106888,10002.627409282652,155.94505574492894,-0.0026552221162449,0.0028039236378699,,9026.08902586808,11243.505992254835,150,9,2025-09-12,2025-09-26 20:29:38.828,AH,C,1114012808,HAWK11,1,1,73,2,1,1,225,2,1,0,0,12,1,225,2,1,-146745.32458670562,-4789366.617158736,4200629.435026646,-2.94035,1.83416,-0.776674,-26.5,79.375,84.5,-0.015625,-7.5,7.20312,-0.0410156,0.00976562,0.0332031,4,0,41.43058716110245,-91.75498323910568,11076.97172960758,-11.942097654172258,-2.752289024648888,24.093255339444763,182.011,9026.08902586808,11243.505992254835,150,False,9.562237646854575,False,169.93437875492137,175.44630116234194,False,14.42220364736244,True,False
9,1970-07-23 10:31:29.801059524,2025-09-12,2025-09-26 20:29:40.105,AH,C,3747535522,JASSM,3,124,76,2,2,1,225,9,2,0,1,26,0,0,0,0,-154842.68103201812,-4778593.975557174,4212016.979948521,-2.71074,-1.01099,0.75213,34.375,-54.625,-60.375,0.0,0.0,0.0,0.0,0.0,0.0,2,0,41.57002563396279,-91.85592854907851,10002.623536450325,155.94534278028237,-0.0018586512607366,0.0028027649610252,,9026.08902586808,11243.505992254835,150,9,2025-09-12,2025-09-26 20:29:39.921,AH,C,1115285340,HAWK11,1,1,73,2,1,1,225,2,1,0,0,12,1,225,2,1,-146771.39880545562,-4789280.114229049,4200720.813932896,-2.96365,1.76916,-0.783481,-22.25,80.25,86.25,0.0625,-7.8125,7.54688,-0.046875,0.015625,0.046875,4,0,41.431713830872205,-91.755326559481,11064.638089685215,-9.26648578817808,-2.882342503086634,20.006962360535464,182.671,9026.08902586808,11243.505992254835,150,False,9.44784951465281,False,167.781856100318,175.31376197112513,False,16.742811944381746,True,False
9,1970-07-23 10:31:29.808279862,2025-09-12,2025-09-26 20:29:40.827,AH,C,3748609264,JASSM,3,124,76,2,2,1,225,9,2,0,1,26,0,0,0,0,-154811.77575858062,-4778643.301729049,4211962.520964146,-2.71074,-1.01099,0.75213,34.375,-54.625,-60.375,0.0,0.0,0.0,0.0,0.0,0.0,2,0,41.56937055071714,-91.85553924053234,10002.623605529529,155.94560109845605,-0.0011417371524901,0.002801716338784,,9026.08902586808,11243.505992254835,150,9,2025-09-12,2025-09-26 20:29:40.922,AH,C,1116478338,HAWK11,1,1,73,2,1,1,225,2,1,0,0,12,1,225,2,1,-146791.38708670562,-4789199.583955611,4200806.720182896,-2.9696,1.7195,-0.795561,-18.5,80.875,87.5,-0.125,-8.0,7.65625,-0.0703125,0.0136719,0.0195312,4,0,41.43276913586413,-91.75559496297468,11054.657172127345,-7.178761721720145,-2.5022045512169493,17.547779078555806,184.174,9026.08902586808,11243.505992254835,150,False,9.34364688500341,False,165.92398104413553,175.17451804497526,False,18.759089292523964,True,False
9,1970-07-23 10:31:29.819864284,2025-09-12,2025-09-26 20:29:41.986,AH,C,3749921618,JASSM,3,124,76,2,2,1,225,9,2,0,1,26,0,0,0,0,-154774.00232108062,-4778703.588838424,4211895.958464146,-2.71074,-1.01099,0.75213,34.375,-54.625,-60.375,0.0,0.0,0.0,0.0,0.0,0.0,2,0,41.568569883950566,-91.855063425927,10002.6237362508,155.94591681151587,-0.0002655006322159,0.0028004341338487,,9026.08902586808,11243.505992254835,150,9,2025-09-12,2025-09-26 20:29:41.923,AH,C,1117671336,HAWK11,1,1,73,2,1,1,225,2,1,0,0,12,1,225,2,1,-146808.14489920562,-4789117.464814986,4200895.364714146,-3.0508,1.68891,-0.8086,-15.5,80.875,89.125,-0.109375,-8.25,7.89062,-0.101562,0.0234375,0.0234375,4,0,41.43385296303981,-91.75582534537004,11046.478921811204,-5.877387965922921,-1.908985450585147,11.585375658323448,184.577,9026.08902586808,11243.505992254835,150,False,9.229307548347647,False,164.44915166089362,175.01222504646861,False,20.431762487750408,True,False
9,1970-07-23 10:31:29.830338946,2025-09-12,2025-09-26 20:29:43.033,AH,C,3751233954,JASSM,3,124,76,2,2,1,225,9,2,0,1,26,0,0,0,0,-154736.22986014312,-4778763.873994674,4211829.395964146,-2.71074,-1.01099,0.75213,34.375,-54.625,-60.375,0.0,0.0,0.0,0.0,0.0,0.0,2,0,41.56776922657109,-91.854587635525,10002.624041194787,155.94623250352228,0.0006107217406123,0.0027991480762072,,9026.08902586808,11243.505992254835,150,9,2025-09-12,2025-09-26 20:29:43.032,AH,C,1118943868,HAWK11,1,1,73,2,1,1,225,2,1,0,0,12,1,225,2,1,-146823.26013358062,-4789031.581025924,4200990.464323521,-3.09902,1.65248,-0.820871,-13.375,80.375,90.875,0.0,-8.20312,7.875,-0.046875,0.00976562,0.00585938,4,0,41.435003050468886,-91.75603748189316,11042.944093435506,-4.383085310976596,-1.3479395556288194,7.261117030699275,185.701,9026.08902586808,11243.505992254835,150,True,9.11196870792579,False,163.3901093522334,174.8283271039724,False,21.711975081446617,True,False
9,1970-07-23 10:31:29.840322614,2025-09-12,2025-09-26 20:29:44.032,AH,C,3752486664,JASSM,3,124,76,2,2,1,225,9,2,0,1,26,0,0,0,0,-154700.17321951812,-4778821.418916549,4211765.858854771,-2.71074,-1.01099,0.752226,34.375,-54.625,-60.375,0.0,0.0,0.0,0.0,0.0,0.0,2,0,41.56700495978711,-91.85413346962775,10002.62841757687,155.94882853586657,-0.0035456908307467,0.0027978871156497,,9026.08902586808,11243.505992254835,150,9,2025-09-12,2025-09-26 20:29:44.032,AH,C,1120136868,HAWK11,1,1,73,2,1,1,225,2,1,0,0,12,1,225,2,1,-146835.41833670562,-4788951.348604049,4201081.479948521,-3.13862,1.64404,-0.838129,-11.75,79.5,92.25,-0.109375,-8.25,7.96875,-0.0429688,0.00195312,0.0117188,4,0,41.43609248314935,-91.7562122095865,11044.221474360247,-3.977813324167816,-0.3877263892434789,4.629786369459343,186.654,9026.08902586808,11243.505992254835,150,True,9.001101582814966,False,162.5705306440169,174.6419899547852,False,22.74589089326568,True,False
9,1970-07-23 10:31:29.851297218,2025-09-12,2025-09-26 20:29:45.129,AH,C,3753799016,JASSM,3,124,76,2,2,1,225,9,2,0,1,26,0,0,0,0,-154662.39978201812,-4778881.702119674,4211699.292448521,-2.71074,-1.01099,0.752226,34.375,-54.625,-60.375,0.0,0.0,0.0,0.0,0.0,0.0,2,0,41.56620428388467,-91.85365769124928,10002.624904290677,155.94914421024433,-0.0026694516310127,0.0027966376967764,,9026.08902586808,11243.505992254835,150,9,2025-09-12,2025-09-26 20:29:45.031,AH,C,1121329866,HAWK11,1,1,73,2,1,1,225,2,1,0,0,12,1,225,2,1,-146846.16443045562,-4788871.463838424,4201174.030729771,3.11858,1.62966,-0.845799,-10.75,79.0,93.5,-0.03125,-7.92188,7.65625,-0.0332031,0.00585938,0.0136719,4,0,41.43719046041579,-91.75636993656109,11049.587968476111,-3.3987801971169582,0.0119438733276877,2.524636909965442,187.534,9026.08902586808,11243.505992254835,150,True,8.88788259286048,False,162.03133004512085,174.44276307658654,False,23.500455132395082,True,False
9,1970-07-23 10:31:29.862258443,2025-09-12,2025-09-26 20:29:46.225,AH,C,3755051714,JASSM,3,124,76,2,2,1,225,9,2,0,1,26,0,0,0,0,-154626.34314139312,-4778939.243135299,4211635.753386021,-2.71074,-1.01089,0.752226,34.375,-54.625,-60.375,0.0,0.0,0.0,0.0,0.0,0.0,2,0,41.56544002338054,-91.85320354878417,10002.62456552208,155.94580224499063,-0.0035076556799819,-0.0009565094965864,,9026.08902586808,11243.505992254835,150,9,2025-09-12,2025-09-26 20:29:46.327,AH,C,1122920532,HAWK11,1,1,73,2,1,1,225,2,1,0,0,12,1,225,2,1,-146859.20739920562,-4788766.934541549,4201297.935026646,3.09164,1.62487,-0.874465,-9.75,78.0,94.125,-0.171875,-7.85938,7.57812,-0.00976562,0.0117188,0.0,4,0,41.438646249186974,-91.75656415818008,11062.627937825668,-3.112931471846943,1.6406703106735503,0.7770515582127274,188.524,9026.08902586808,11243.505992254835,150,True,8.757685544688268,False,161.5134719076956,174.178760673561,False,24.294070033246218,True,False
9,1970-07-23 10:31:29.874238926,2025-09-12,2025-09-26 20:29:47.423,AH,C,3756364066,JASSM,3,124,76,2,2,1,225,9,2,0,1,26,0,0,0,0,-154588.56970389312,-4778999.524385299,4211569.186979771,-2.71074,-1.01089,0.752226,34.375,-54.625,-60.375,0.0,0.0,0.0,0.0,0.0,0.0,2,0,41.56463935506772,-91.85272779412291,10002.625814725743,155.9461178939118,-0.0026314271966685,-0.0009578104350832,,9026.08902586808,11243.505992254835,150,9,2025-09-12,2025-09-26 20:29:47.733,AH,C,1124550962,HAWK11,1,1,73,2,1,1,225,2,1,0,0,12,1,225,2,1,-146872.11364920562,-4788660.319307174,4201426.188932896,3.08522,1.62497,-0.870534,-9.25,77.75,94.375,-0.15625,-6.5,6.1875,-0.0078125,-0.00195312,0.0136719,4,0,41.44014382174569,-91.75675751871417,11079.987981005384,-3.130889515894888,1.4176336618231946,0.4128071330275515,189.233,9026.08902586808,11243.505992254835,150,True,8.62314943967146,False,161.26002133243873,173.89570592701705,False,24.8334052279439,True,False
9,1970-07-23 10:31:29.883334776,2025-09-12,2025-09-26 20:29:48.333,AH,C,3757676416,JASSM,3,124,76,2,2,1,225,9,2,0,1,26,0,0,0,0,-154550.79626639312,-4779059.805635299,4211502.618620396,-2.71074,-1.01089,0.752226,34.375,-54.625,-60.375,0.0,0.0,0.0,0.0,0.0,0.0,2,0,41.56383867152355,-91.8522520512081,10002.62770083124,155.94643353004568,-0.0017551865818655,-0.0009591167523046,,9026.08902586808,11243.505992254835,150,9,2025-09-12,2025-09-26 20:29:48.327,AH,C,1125306528,HAWK11,1,1,73,2,1,1,225,2,1,0,0,12,1,225,2,1,-146877.87536795562,-4788610.731416549,4201485.378386021,3.08647,1.61231,-0.874177,-9.125,78.0,94.125,0.234375,-7.39062,7.14062,-0.0175781,0.0078125,0.0214844,4,0,41.44083727954536,-91.75684457344246,11087.044086218451,-2.653057232313201,1.5992867227794147,-0.058484494166965,189.624,9026.08902586808,11243.505992254835,150,True,8.532926351872888,False,161.22456341960626,173.74036194852886,False,25.021294697416984,True,False
9,1970-07-23 10:31:29.893320674,2025-09-12,2025-09-26 20:29:49.332,AH,C,3758809810,JASSM,3,124,76,2,2,1,225,9,2,0,1,26,0,0,0,0,-154518.17321951812,-4779111.864229049,4211445.126432896,-2.71074,-1.01089,0.752226,34.375,-54.625,-60.375,0.0,0.0,0.0,0.0,0.0,0.0,2,0,41.56314717639514,-91.8518411863629,10002.624223859904,155.94670611819166,-0.000998437024897,-0.0009602388157996,,9026.08902586808,11243.505992254835,150,9,2025-09-12,2025-09-26 20:29:49.327,AH,C,1126499528,HAWK11,1,1,73,2,1,1,225,2,1,0,0,12,1,225,2,1,-146886.92224295562,-4788532.717744674,4201578.950651646,3.09107,1.6102,-0.878012,-8.875,77.875,94.0,0.125,-6.84375,6.54688,-0.0078125,-0.0078125,-0.00195312,4,0,41.4419313134684,-91.75698132358096,11099.133681821671,-2.5641456658485584,1.8156762267543785,0.1150527872452678,189.929,9026.08902586808,11243.505992254835,150,True,8.428014342677319,False,161.11388345665605,173.51736405351457,False,25.355169857912173,True,False
9,1970-07-23 10:31:29.904282020,2025-09-12,2025-09-26 20:29:50.428,AH,C,3760062508,JASSM,3,124,76,2,2,1,225,9,2,0,1,26,0,0,0,0,-154482.11657889312,-4779169.401338424,4211381.583464146,-2.71074,-1.01089,0.752226,34.375,-54.625,-60.375,0.0,0.0,0.0,0.0,0.0,0.0,2,0,41.562382905317946,-91.85138708822056,10002.623614124706,155.94700738512068,-0.0001620447036675,-0.0009614766860577,,9026.08902586808,11243.505992254835,150,9,2025-09-12,2025-09-26 20:29:50.328,AH,C,1127732292,HAWK11,1,1,73,2,1,1,225,2,1,0,0,12,1,225,2,1,-146896.17028983062,-4788451.954072799,4201675.546354771,3.07659,1.61288,-0.883285,-8.75,77.75,93.75,-0.03125,-6.75,6.53125,0.00585938,-0.00390625,0.0117188,4,0,41.443062076954,-91.75712149147304,11111.0514754549,-2.645897895759041,2.1237413099567064,-0.5985616459208281,190.76,9026.08902586808,11243.505992254835,150,True,8.316511451826216,False,161.06867675420577,173.27812160492616,False,25.63927299538753,True,False
9,1970-07-23 10:31:29.914258235,2025-09-12,2025-09-26 20:29:51.425,AH,C,3761255556,JASSM,3,124,76,2,2,1,225,9,2,0,1,26,0,0,0,0,-154447.77673514312,-4779224.198213424,4211321.063932896,-2.71074,-1.01089,0.752226,34.375,-54.625,-60.375,0.0,0.0,0.0,0.0,0.0,0.0,2,0,41.56165501231235,-91.85095462166448,10002.620983333902,155.947294296557,0.0006345329602149,-0.0009626599191572,,9026.08902586808,11243.505992254835,150,9,2025-09-12,2025-09-26 20:29:51.531,AH,C,1129124124,HAWK11,1,1,73,2,1,1,225,2,1,0,0,12,1,225,2,1,-146906.38318045562,-4788360.377900924,4201784.327604771,3.09481,1.60349,-0.881176,-8.5,78.25,93.25,-0.15625,-6.51562,6.26562,0.00976562,-0.00585938,0.0136719,4,0,41.44433923714309,-91.75727716373468,11122.933011363875,-2.310319214274114,1.9868808047930755,0.0415649366595868,191.42,9026.08902586808,11243.505992254835,150,True,8.199627383213016,False,160.9921144453293,173.00731369918958,False,25.979425928333463,True,False
9,1970-07-23 10:31:29.924237681,2025-09-12,2025-09-26 20:29:52.423,AH,C,3762448602,JASSM,3,124,76,2,2,1,225,9,2,0,1,26,0,0,0,0,-154413.43689139312,-4779278.995088424,4211260.546354771,-2.71064,-1.01089,0.752322,34.375,-54.625,-60.375,0.0,0.0,0.0,0.0,0.0,0.0,2,0,41.56092713073986,-91.85052216481432,10002.626643572306,155.94987479194742,-0.0035584593739675,0.004527591705744,,9026.08902586808,11243.505992254835,150,9,2025-09-12,2025-09-26 20:29:52.531,AH,C,1130078524,HAWK11,1,1,73,2,1,1,225,2,1,0,0,12,1,225,2,1,-146913.25232108062,-4788298.079072799,4201857.522917271,3.10526,1.59352,-0.882806,-8.375,78.5,92.75,-0.140625,-6.78125,6.42188,0.00585938,0.00195312,0.0117188,4,0,41.44520264550277,-91.75738213011168,11129.261258668315,-1.94330295799124,2.0651477987827804,0.2123011100162602,192.154,9026.08902586808,11243.505992254835,150,True,8.105363670171284,False,160.96494247225945,172.80628274826776,False,26.20145086133544,True,False
9,1970-07-23 10:31:29.934222810,2025-09-12,2025-09-26 20:29:53.422,AH,C,3763701300,JASSM,3,124,76,2,2,1,225,9,2,0,1,26,0,0,0,0,-154377.38025076812,-4779336.530244674,4211196.999479771,-2.71064,-1.01089,0.752322,34.375,-54.625,-60.375,0.0,0.0,0.0,0.0,0.0,0.0,2,0,41.560162839509246,-91.8500680985108,10002.625677037886,155.9501760246427,-0.0027220535333976,0.0045263807819684,,9026.08902586808,11243.505992254835,150,9,2025-09-12,2025-09-26 20:29:53.421,AH,C,1131430588,HAWK11,1,1,73,2,1,1,225,2,1,0,0,12,1,225,2,1,-146922.65271170562,-4788208.141572799,4201962.534636021,3.1183,1.58441,-0.881847,-8.0,79.0,92.375,0.0625,-6.75,6.45312,-0.0136719,0.0078125,0.00390625,4,0,41.4464447670173,-91.7575274979678,11136.940920026022,-1.613860966218281,1.999356536507522,0.5681433353731615,192.545,9026.08902586808,11243.505992254835,150,True,7.988473332253646,False,160.81356733413966,172.5249806786685,False,26.62525866924186,True,False
9,1970-07-23 10:31:29.944198061,2025-09-12,2025-09-26 20:29:54.419,AH,C,3764894348,JASSM,3,124,76,2,2,1,225,9,2,0,1,26,0,0,0,0,-154343.04040701812,-4779391.325166549,4211136.477995396,-2.71064,-1.01089,0.752322,34.375,-54.625,-60.375,0.0,0.0,0.0,0.0,0.0,0.0,2,0,41.55943493976414,-91.8496356623121,10002.626324682926,155.95046290345306,-0.0019254743775236,0.0045252282637626,,9026.08902586808,11243.505992254835,150,9,2025-09-12,2025-09-26 20:29:54.531,AH,C,1132742888,HAWK11,1,1,73,2,1,1,225,2,1,0,0,12,1,225,2,1,-146931.40271170562,-4788121.387666549,4202063.153776646,3.10602,1.57549,-0.879259,-7.875,79.375,92.125,0.0,-7.0,6.73438,-0.015625,0.0,0.00585938,4,0,41.44763842107663,-91.7576639279247,11142.867406834332,-1.2930639070085754,1.842590618049796,-0.518079277786878,192.777,9026.08902586808,11243.505992254835,150,True,7.876833601240582,False,160.7687660466255,172.2465803947053,False,26.941747428247968,True,False
9,1970-07-23 10:31:29.955318049,2025-09-12,2025-09-26 20:29:55.531,AH,C,3766206698,JASSM,3,124,76,2,2,1,225,9,2,0,1,26,0,0,0,0,-154305.26696951812,-4779451.596650924,4211069.903776646,-2.71064,-1.01089,0.752322,34.375,-54.625,-60.375,0.0,0.0,0.0,0.0,0.0,0.0,2,0,41.55863426152019,-91.84915999951308,10002.62327033589,155.9507784540873,-0.0010492512534115,0.004523961991133,,9026.08902586808,11243.505992254835,150,9,2025-09-12,2025-09-26 20:29:55.421,AH,C,1133737054,HAWK11,1,1,73,2,1,1,225,2,1,0,0,12,1,225,2,1,-146938.00232108062,-4788054.877900924,4202139.964323521,3.10861,1.56763,-0.870918,-7.75,79.5,92.25,0.09375,-6.75,6.42188,0.00976562,-0.0117188,0.00390625,4,0,41.44855133437535,-91.75776722717616,11146.69447086012,-1.0156713927110703,1.358928817888858,-0.7077180425754912,193.241,9026.08902586808,11243.505992254835,150,True,7.775743158083652,False,160.70540908158065,172.0115988124268,False,27.240269922251986,True,False
9,1970-07-23 10:31:29.966279401,2025-09-12,2025-09-26 20:29:56.627,AH,C,3767459396,JASSM,3,124,76,2,2,1,225,9,2,0,1,26,0,0,0,0,-154269.21032889312,-4779509.129854049,4211006.354948521,-2.71064,-1.01089,0.752322,34.375,-54.625,-60.375,0.0,0.0,0.0,0.0,0.0,0.0,2,0,41.557869963107485,-91.84870596606252,10002.626622516716,155.9510796513388,-0.0002128439408969,0.0045227498907198,,9026.08902586808,11243.505992254835,150,9,2025-09-12,2025-09-26 20:29:56.733,AH,C,1135128886,HAWK11,1,1,73,2,1,1,225,2,1,0,0,12,1,225,2,1,-146947.08044608062,-4787961.159150924,4202247.702604771,3.11015,1.56313,-0.869767,-7.625,80.0,92.0,-0.265625,-6.82812,6.54688,-0.0117188,-0.00195312,0.0,4,0,41.44983441707079,-91.75791014420896,11151.00390734838,-0.8505836956111092,1.2911555236020666,-0.8133137356299447,193.962,9026.08902586808,11243.505992254835,150,True,7.657394681982173,False,160.65841265360203,171.69624905515929,False,27.593536031668354,True,False
9,1970-07-23 10:31:29.976255251,2025-09-12,2025-09-26 20:29:57.625,AH,C,3768712082,JASSM,3,124,76,2,2,1,225,9,2,0,1,26,0,0,0,0,-154233.15368826812,-4779566.659150924,4210942.806120396,-2.71064,-1.01089,0.752322,34.375,-54.625,-60.375,0.0,0.0,0.0,0.0,0.0,0.0,2,0,41.5571056861085,-91.84825194481988,10002.624843736374,155.95138083594225,0.0006235417376048,0.0045215462403552,,9026.08902586808,11243.505992254835,150,9,2025-09-12,2025-09-26 20:29:57.733,AH,C,1136480950,HAWK11,1,1,73,2,1,1,225,2,1,0,0,12,1,225,2,1,-146955.90466483062,-4787870.842744674,4202351.263151646,3.08206,1.55191,-0.864302,-7.75,80.125,92.125,-0.078125,-6.6875,6.42188,-0.0410156,-0.0273438,0.0078125,4,0,41.45106910718932,-91.75804878269524,11154.593940739223,-0.4388299426106629,0.9738852807761544,-2.904584044964224,193.926,9026.08902586808,11243.505992254835,150,True,7.541838384301595,False,160.7119202351378,171.38166532330374,False,27.85550553308251,True,False
9,1970-07-23 10:31:29.987234027,2025-09-12,2025-09-26 20:29:58.723,AH,C,3769964794,JASSM,3,124,76,2,2,1,225,9,2,0,1,26,0,0,0,0,-154197.09607108062,-4779624.190400924,4210879.253386021,-2.71064,-1.0108,0.752322,34.375,-54.625,-60.375,0.0,0.0,0.0,0.0,0.0,0.0,2,0,41.55634136944334,-91.84779792182567,10002.623732575008,155.9480391742761,-0.0002147172167733,0.0007677771841479,,9026.08902586808,11243.505992254835,150,9,2025-09-12,2025-09-26 20:29:58.733,AH,C,1137713716,HAWK11,1,1,73,2,1,1,225,2,1,0,0,12,1,225,2,1,-146964.20544608062,-4787787.063447799,4202446.515104771,3.05837,1.55191,-0.859509,-8.125,80.625,91.875,-0.078125,-6.76562,6.42188,-0.0273438,-0.00585938,-0.00390625,4,0,41.452208925743314,-91.75817876920244,11156.176079627849,-0.4413438604682528,0.700377572046188,-4.261347935383518,194.317,9026.08902586808,11243.505992254835,150,True,7.43150918678862,False,160.8949125959118,171.07880840522813,False,27.965854554481474,True,False
9,1970-07-23 10:31:29.998337965,2025-09-12,2025-09-26 20:29:59.833,AH,C,3771277146,JASSM,3,124,76,2,2,1,225,9,2,0,1,26,0,0,0,0,-154159.32263358062,-4779684.459932174,4210812.675261021,-2.71064,-1.0108,0.752418,34.375,-54.625,-60.375,0.0,0.0,0.0,0.0,0.0,0.0,2,0,41.55554066851441,-91.8473223051443,10002.62627065216,155.95065002368815,-0.0043309909330177,0.0007663751414084,,9026.08902586808,11243.505992254835,150,9,2025-09-12,2025-09-26 20:29:59.921,AH,C,1139105548,HAWK11,1,1,73,2,1,1,225,2,1,0,0,12,1,225,2,1,-146974.22693045562,-4787693.116182174,4202552.534636021,3.02482,1.55536,-0.856728,-9.0,81.125,91.625,0.0625,-6.6875,6.39062,-0.00585938,-0.00195312,0.00195312,4,0,41.453481601483446,-91.75833306493384,11156.292070126072,-0.5723650623351467,0.543669924780508,-6.035643530821652,194.769,9026.08902586808,11243.505992254835,150,True,7.311763132203342,False,161.3071709959198,170.73718428912946,False,27.88539252421662,True,False
9,1970-07-23 10:31:30.008314752,2025-09-12,2025-09-26 20:30:00.831,AH,C,3772470192,JASSM,3,124,76,2,2,1,225,9,2,0,1,26,0,0,0,0,-154124.98278983062,-4779739.247041549,4210752.149870396,-2.71064,-1.0108,0.752418,34.375,-54.625,-60.375,0.0,0.0,0.0,0.0,0.0,0.0,2,0,41.55481277816803,-91.84688993358073,10002.62489999767,155.9509368335521,-0.0035344306304415,0.0007652100070256,,9026.08902586808,11243.505992254835,150,9,2025-09-12,2025-09-26 20:30:00.827,AH,C,1140059946,HAWK11,1,1,73,2,1,1,225,2,1,0,0,12,1,225,2,1,-146982.01989920562,-4787627.502900924,4202625.995573521,3.01331,1.56083,-0.856153,-9.75,81.75,91.25,0.03125,-6.79688,6.46875,0.00195312,0.0,0.0,4,0,41.454366362968734,-91.75845032162904,11155.171397612705,-0.7780039272825438,0.5143648645623315,-6.4600862017278295,194.805,9026.08902586808,11243.505992254835,150,True,7.217339521319323,False,161.65872156826916,170.48132296433607,False,27.773211594132615,True,False
9,1970-07-23 10:31:30.019295051,2025-09-12,2025-09-26 20:30:01.929,AH,C,3773782542,JASSM,3,124,76,2,2,1,225,9,2,0,1,26,0,0,0,0,-154087.20837576812,-4779799.514619674,4210685.569792271,-2.71064,-1.0108,0.752418,34.375,-54.625,-60.375,0.0,0.0,0.0,0.0,0.0,0.0,2,0,41.5540120719586,-91.846414328371,10002.62764972766,155.95125231730793,-0.0026581891467033,0.0007639234759558,,9026.08902586808,11243.505992254835,150,9,2025-09-12,2025-09-26 20:30:02.031,AH,C,1141531312,HAWK11,1,1,73,2,1,1,225,2,1,0,0,12,1,225,2,1,-146994.70349295562,-4787526.635713424,4202738.239714146,2.99721,1.57463,-0.85366,-10.75,82.0,91.375,-0.09375,-6.875,6.57812,-0.0078125,-0.0117188,0.00195312,4,0,41.45572174129119,-91.7586389974638,11152.018774317305,-1.3001232123463198,0.3836794185570425,-6.790079196580585,194.928,9026.08902586808,11243.505992254835,150,True,7.093082537933602,False,162.11316686921091,170.10794878831175,False,27.69195301251563,True,False
9,1970-07-23 10:31:30.029256411,2025-09-12,2025-09-26 20:30:02.925,AH,C,3775035242,JASSM,3,124,76,2,2,1,225,9,2,0,1,26,0,0,0,0,-154051.15173514312,-4779857.040010299,4210622.015104771,-2.71064,-1.0108,0.752418,34.375,-54.625,-60.375,0.0,0.0,0.0,0.0,0.0,0.0,2,0,41.553247769245424,-91.84596036262889,10002.62601558343,155.95155344227277,-0.0018217886436321,0.0007626924576513,,9026.08902586808,11243.505992254835,150,9,2025-09-12,2025-09-26 20:30:03.031,AH,C,1142883376,HAWK11,1,1,73,2,1,1,225,2,1,0,0,12,1,225,2,1,-147007.57458670562,-4787434.155244674,4202840.450651646,2.95742,1.5892,-0.856824,-12.0,82.5,91.0,-0.15625,-7.35938,6.98438,-0.0273438,0.0,0.00195312,4,0,41.456959473096205,-91.7588268438752,11147.710767329798,-1.8420804424304351,0.583264636933685,-8.44402474045857,195.074,9026.08902586808,11243.505992254835,150,True,6.977354631249143,False,162.69031951216866,169.75708146228638,False,27.449901118361215,True,False
9,1970-07-23 10:31:30.040236802,2025-09-12,2025-09-26 20:30:04.023,AH,C,3776287940,JASSM,3,124,76,2,2,1,225,9,2,0,1,26,0,0,0,0,-154015.09411795562,-4779914.565400924,4210558.458464146,-2.71064,-1.0108,0.752418,34.375,-54.625,-60.375,0.0,0.0,0.0,0.0,0.0,0.0,2,0,41.55248345167223,-91.84550639588802,10002.624507788025,155.95185456335025,-0.0009853726224408,0.0007614641303456,,9026.08902586808,11243.505992254835,150,9,2025-09-12,2025-09-26 20:30:04.031,AH,C,1143996842,HAWK11,1,1,73,2,1,1,225,2,1,0,0,12,1,225,2,1,-147019.74841483062,-4787356.676729049,4202926.116667271,2.94812,1.59467,-0.859029,-13.375,82.25,91.25,-0.15625,-7.21875,6.82812,0.00195312,-0.0117188,-0.0136719,4,0,41.457996408042206,-91.75900085169997,11144.291230187324,-2.041922053321516,0.7185072776300426,-8.742171057086276,195.649,9026.08902586808,11243.505992254835,150,True,6.872184423317742,False,163.3238058476324,169.44654867811593,False,27.140370330673896,True,False
9,1970-07-23 10:31:30.050198135,2025-09-12,2025-09-26 20:30:05.019,AH,C,3777480988,JASSM,3,124,76,2,2,1,225,9,2,0,1,26,0,0,0,0,-153980.75427420562,-4779969.348604049,4210497.929167271,-2.71064,-1.0108,0.752418,34.375,-54.625,-60.375,0.0,0.0,0.0,0.0,0.0,0.0,2,0,41.55175555110922,-91.84507406657563,10002.62201795754,155.95214132785628,-0.0001888096142742,0.0007602966791974,,9026.08902586808,11243.505992254835,150,9,2025-09-12,2025-09-26 20:30:04.922,AH,C,1145110308,HAWK11,1,1,73,2,1,1,225,2,1,0,0,12,1,225,2,1,-147032.77575858062,-4787280.747041549,4203010.017057896,2.90785,1.62468,-0.858166,-14.625,82.375,91.125,0.0,-7.125,6.71875,-0.03125,0.00585938,-0.0195312,4,0,41.45901205519953,-91.75918450187076,11140.914188711684,-3.166756294309865,0.7287031149191816,-9.761943411004587,196.137,9026.08902586808,11243.505992254835,150,True,6.770373538649891,False,163.9001175184402,169.13927392018974,False,26.86818197927004,True,False
9,1970-07-23 10:31:30.060335390,2025-09-12,2025-09-26 20:30:06.033,AH,C,3778733686,JASSM,3,124,76,2,2,1,225,9,2,0,1,26,0,0,0,0,-153944.69665701812,-4780026.872041549,4210434.372526646,-2.71064,-1.0108,0.752418,34.375,-54.625,-60.375,0.0,0.0,0.0,0.0,0.0,0.0,2,0,41.550991241491104,-91.8446201214678,10002.624413213556,155.95244242570192,0.0006475957534812,0.0007590725529235,,9026.08902586808,11243.505992254835,150,9,2025-09-12,2025-09-26 20:30:05.827,AH,C,1146144240,HAWK11,1,1,73,2,1,1,225,2,1,0,0,12,1,225,2,1,-147046.37732108062,-4787208.661104049,4203089.585417271,2.8858,1.62842,-0.862385,-16.125,82.25,91.25,-0.09375,-7.28125,6.98438,0.0,0.0,0.0,5,0,41.45997549015734,-91.75937361215315,11137.623244185312,-3.2906891430183043,0.9799091263828296,-10.864727317562783,196.59,9026.08902586808,11243.505992254835,150,False,6.668843074364617,False,164.58809348316882,168.8356763622187,False,26.49208801728158,True,False
9,1970-07-23 10:31:30.070337183,2025-09-12,2025-09-26 20:30:07.033,AH,C,3779926734,JASSM,3,124,76,2,2,1,225,9,2,0,1,26,0,0,0,0,-153910.35681326812,-4780081.655244674,4210373.841276646,-2.71064,-1.0108,0.752513,34.375,-54.625,-60.375,0.0,0.0,0.0,0.0,0.0,0.0,2,0,41.55026332425272,-91.84418781203942,10002.625954793852,155.95502309135952,-0.0035452361917384,0.0007578576508495,,9026.08902586808,11243.505992254835,150,9,2025-09-12,2025-09-26 20:30:06.733,AH,C,1147257706,HAWK11,1,1,73,2,1,1,225,2,1,0,0,12,1,225,2,1,-147062.21911795562,-4787131.918916549,4203174.397917271,2.86567,1.6543,-0.863152,-17.75,82.375,91.125,-0.078125,-7.20312,6.85938,-0.0175781,0.00585938,-0.0136719,4,0,41.461001612272256,-91.75959122590132,11134.45633210952,-4.249421240014986,1.0978497147976831,-10.90889121774376,197.873,9026.08902586808,11243.505992254835,150,False,6.566038904162124,False,165.33275936657992,168.5169085390097,False,26.06325197332445,True,False
9,1970-07-23 10:31:30.081275871,2025-09-12,2025-09-26 20:30:08.127,AH,C,3781179432,JASSM,3,124,76,2,2,1,225,9,2,0,1,26,0,0,0,0,-153874.29919608062,-4780139.176729049,4210310.282682896,-2.71064,-1.0108,0.752513,34.375,-54.625,-60.375,0.0,0.0,0.0,0.0,0.0,0.0,2,0,41.5494990094359,-91.8437338885624,10002.62800274415,155.95532416608026,-0.0027088294165794,0.0007566658522049,,9026.08902586808,11243.505992254835,150,9,2025-09-12,2025-09-26 20:30:08.235,AH,C,1149086970,HAWK11,1,1,73,2,1,1,225,2,1,0,0,12,1,225,2,1,-147091.88708670562,-4787005.936494674,4203313.517057896,2.86231,1.68575,-0.868808,-20.5,82.25,90.875,-0.140625,-7.35938,7.01562,0.0390625,0.0,-0.0136719,4,0,41.46268470264384,-91.7599922666597,11129.306020079885,-5.380304865522668,1.5354744045035784,-9.754463867050246,198.911,9026.08902586808,11243.505992254835,150,True,6.424303337271985,False,166.605489902023,168.03868408818838,False,25.271119640098902,True,False
9,1970-07-23 10:31:30.092637766,2025-09-12,2025-09-26 20:30:09.263,AH,C,3782432130,JASSM,3,124,76,2,2,1,225,9,2,0,1,26,0,0,0,0,-153838.24255545562,-4780196.696260299,4210246.722136021,-2.71064,-1.0108,0.752513,34.375,-54.625,-60.375,0.0,0.0,0.0,0.0,0.0,0.0,2,0,41.5487346910358,-91.84327998822394,10002.625538635037,155.95562522090535,-0.0018724247819893,0.0007554648422692,,9026.08902586808,11243.505992254835,150,9,2025-09-12,2025-09-26 20:30:09.531,AH,C,1150598102,HAWK11,1,1,73,2,1,1,225,2,1,0,0,12,1,225,2,1,-147119.14099295562,-4786902.588838424,4203428.159636021,2.88043,1.71096,-0.877149,-22.25,81.5,91.0,-0.3125,-7.59375,7.0625,0.0234375,0.00195312,-0.00195312,4,0,41.46406836028422,-91.76035614228692,11126.441414985378,-6.24627675892962,2.1211139523746545,-7.636707282395742,199.058,9026.08902586808,11243.505992254835,150,True,6.298506326308307,False,167.43003285811713,167.62282106766455,False,24.887990536351353,True,False
9,1970-07-23 10:31:30.102231968,2025-09-12,2025-09-26 20:30:10.223,AH,C,3783684830,JASSM,3,124,76,2,2,1,225,9,2,0,1,26,0,0,0,0,-153802.18493826812,-4780254.215791549,4210183.161589146,-2.71054,-1.0107,0.752513,34.375,-54.625,-60.375,0.0,0.0,0.0,0.0,0.0,0.0,2,0,41.54797037092965,-91.84282608688444,10002.627451409113,155.95228419286653,-0.0027106385147484,0.0024925754231898,,9026.08902586808,11243.505992254835,150,9,2025-09-12,2025-09-26 20:30:10.327,AH,C,1151512734,HAWK11,1,1,73,2,1,1,225,2,1,0,0,12,1,225,2,1,-147136.70349295562,-4786840.116182174,4203497.888151646,2.89002,1.71557,-0.880026,-23.25,81.125,91.25,-0.1875,-7.54688,7.04688,0.0175781,0.00976562,-0.0117188,4,0,41.464907455759175,-91.76058911692532,11125.728307194884,-6.392114246588299,2.307128749293251,-6.889957794375303,199.021,9026.08902586808,11243.505992254835,150,True,6.20278804145243,False,167.88244565621932,167.3262116711291,False,24.747802771401695,True,False
9,1970-07-23 10:31:30.112355653,2025-09-12,2025-09-26 20:30:11.235,AH,C,3784997178,JASSM,3,124,76,2,2,1,225,9,2,0,1,26,0,0,0,0,-153764.41052420562,-4780314.471650924,4210116.573698521,-2.71054,-1.0107,0.752513,34.375,-54.625,-60.375,0.0,0.0,0.0,0.0,0.0,0.0,2,0,41.54716966425838,-91.84235058648588,10002.626214950022,155.95259956458375,-0.0018344131919256,0.0024912720790745,,9026.08902586808,11243.505992254835,150,9,2025-09-12,2025-09-26 20:30:11.327,AH,C,1152785266,HAWK11,1,1,73,2,1,1,225,2,1,0,0,12,1,225,2,1,-147161.78552420562,-4786754.313447799,4203594.438932896,2.89817,1.71988,-0.884052,-24.25,80.5,91.5,-0.078125,-7.625,7.20312,0.00195312,0.00195312,0.0,4,0,41.46606500703831,-91.76092059540424,11126.529139103122,-6.517583977286793,2.5578090822473243,-6.237404094200576,199.168,9026.08902586808,11243.505992254835,150,True,6.086974601951658,False,168.33954765001837,166.94040482750148,False,24.694906757712566,True,False
9,1970-07-23 10:31:30.121837942,2025-09-12,2025-09-26 20:30:12.183,AH,C,3786070920,JASSM,3,124,76,2,2,1,225,9,2,0,1,26,0,0,0,0,-153733.50427420562,-4780363.772432174,4210062.091276646,-2.71054,-1.0107,0.752513,34.375,-54.625,-60.375,0.0,0.0,0.0,0.0,0.0,0.0,2,0,41.54651452631069,-91.8419615502904,10002.627062594149,155.9528575859177,-0.0011174900804241,0.0024901999063106,,9026.08902586808,11243.505992254835,150,9,2025-09-12,2025-09-26 20:30:12.125,AH,C,1153660132,HAWK11,1,1,73,2,1,1,225,2,1,0,0,12,1,225,2,1,-147179.93005545562,-4786695.200166549,4203661.356901646,2.89961,1.72266,-0.887408,-25.0,80.25,91.375,-0.125,-7.54688,7.03125,0.00585938,0.0,0.0,4,0,41.46686503259828,-91.76115930947611,11128.020130297888,-6.59169365543622,2.762745175876438,-6.034991913064371,199.205,9026.08902586808,11243.505992254835,150,True,6.0003372042961285,False,168.69830617347247,166.65337468123704,False,24.627124066403262,True,False
9,1970-07-23 10:31:30.130345370,2025-09-12,2025-09-26 20:30:13.034,AH,C,3787144662,JASSM,3,124,76,2,2,1,225,9,2,0,1,26,0,0,0,0,-153702.59802420562,-4780413.071260299,4210007.608854771,-2.71054,-1.0107,0.752513,34.375,-54.625,-60.375,0.0,0.0,0.0,0.0,0.0,0.0,2,0,41.545859398623634,-91.84157252270126,10002.626389252182,155.95311559820107,-0.0004005777567152,0.0024891319551629,,9026.08902586808,11243.505992254835,150,9,2025-09-12,2025-09-26 20:30:13.327,AH,C,1155091730,HAWK11,1,1,73,2,1,1,225,2,1,0,0,12,1,225,2,1,-147210.89880545562,-4786598.719697799,4203771.458464146,2.90498,1.72736,-0.895749,-26.0,79.375,91.625,-0.0625,-7.5625,7.1875,0.0078125,0.00195312,-0.00390625,4,0,41.46817648060927,-91.76156513266668,11132.483219286058,-6.69361771863805,3.260748322299381,-5.523130555445114,199.535,9026.08902586808,11243.505992254835,150,True,5.884955606031571,False,169.15189094921973,166.23337672839722,False,24.608917685938327,True,False
9,1970-07-23 10:31:30.140315490,2025-09-12,2025-09-26 20:30:14.031,AH,C,3788278058,JASSM,3,124,76,2,2,1,225,9,2,0,1,26,0,0,0,0,-153669.97400076812,-4780465.108369674,4209950.097136021,-2.71054,-1.0107,0.752513,34.375,-54.625,-60.375,0.0,0.0,0.0,0.0,0.0,0.0,2,0,41.54516786001766,-91.84116188210344,10002.622406815282,155.9533879411159,0.0003561780900682,0.0024880052616106,,9026.08902586808,11243.505992254835,150,9,2025-09-12,2025-09-26 20:30:14.327,AH,C,1156364262,HAWK11,1,1,73,2,1,1,225,2,1,0,0,12,1,225,2,1,-147238.91833670562,-4786514.696260299,4203868.425261021,2.92089,1.73225,-0.898529,-26.75,78.75,91.75,-0.015625,-7.59375,7.14062,0.0234375,0.0136719,0.0,4,0,41.46932569643672,-91.76193111984254,11138.807270041068,-6.844564980564482,3.4443642002513486,-4.400987889061175,199.681,9026.08902586808,11243.505992254835,150,True,5.776350708941409,False,169.4885413419385,165.8359481841118,False,24.674828597559817,True,False
9,1970-07-23 10:31:30.151441161,2025-09-12,2025-09-26 20:30:15.144,AH,C,3789411462,JASSM,3,124,76,2,2,1,225,9,2,0,1,26,0,0,0,0,-153637.35095389312,-4780517.145479049,4209892.585417271,-2.71054,-1.0107,0.752609,34.375,-54.625,-60.375,0.0,0.0,0.0,0.0,0.0,0.0,2,0,41.544476319674615,-91.8407512619486,10002.622147505492,155.95595594396147,-0.0038794286626071,0.0024868150637554,,9026.08902586808,11243.505992254835,150,9,2025-09-12,2025-09-26 20:30:15.125,AH,C,1157239128,HAWK11,1,1,73,2,1,1,225,2,1,0,0,12,1,225,2,1,-147258.84216483062,-4786456.934541549,4203935.585417271,2.93508,1.73158,-0.901981,-27.25,78.375,91.75,-0.21875,-7.51562,7.14062,0.0234375,-0.00390625,0.00585938,4,0,41.47011897496415,-91.76219063955726,11144.297451672874,-6.792670872567172,3.637471451996364,-3.6148179172635415,200.463,9026.08902586808,11243.505992254835,150,True,5.687740387154671,False,169.71821339534202,165.51952770235053,False,24.762254461802666,True,False
