Unnamed: 0_cm,Subject_cm,Timestamp,SampleDate_cm,SampleTime_cm,Configuration_cm,Scenario_cm,DisTime_cm,MarkingTxt_cm,Application_cm,EntId_cm,Site_cm,ExerciseId_cm,ForceId_cm,Category_cm,Country_cm,Domain_cm,Kind_cm,Extra_cm,Specific_cm,Subcategory_cm,AltCategory_cm,AltCountry_cm,AltDomain_cm,AltKind_cm,ECEF_X_cm,ECEF_Y_cm,ECEF_Z_cm,OriPhi_cm,OriPsi_cm,OriTheta_cm,LinVelX_cm,LinVelY_cm,LinVelZ_cm,LinAccX_cm,LinAccY_cm,LinAccZ_cm,AngVelX_cm,AngVelY_cm,AngVelZ_cm,DrAlg_cm,Appearance_cm,Latitude_cm,Longitude_cm,Altitude_cm,Heading_cm,Pitch_cm,Roll_cm,CalibratedAirspeed_cm,CM_Altitude_Lead_cm,CM_Altitude_Wing_cm,CM_Airspeed_cm,Unnamed: 0_ac,Subject_ac,SampleDate_ac,SampleTime_ac,Configuration_ac,Scenario_ac,DisTime_ac,MarkingTxt_ac,Application_ac,EntId_ac,Site_ac,ExerciseId_ac,ForceId_ac,Category_ac,Country_ac,Domain_ac,Kind_ac,Extra_ac,Specific_ac,Subcategory_ac,AltCategory_ac,AltCountry_ac,AltDomain_ac,AltKind_ac,ECEF_X_ac,ECEF_Y_ac,ECEF_Z_ac,OriPhi_ac,OriPsi_ac,OriTheta_ac,LinVelX_ac,LinVelY_ac,LinVelZ_ac,LinAccX_ac,LinAccY_ac,LinAccZ_ac,AngVelX_ac,AngVelY_ac,AngVelZ_ac,DrAlg_ac,Appearance_ac,Latitude_ac,Longitude_ac,Altitude_ac,Heading_ac,Pitch_ac,Roll_ac,CalibratedAirspeed_ac,CM_Altitude_Lead_ac,CM_Altitude_Wing_ac,CM_Airspeed_ac,Bank_Angle_Condition,distance_nm,Distance_Condition,angle_between_vel,angle_between_pos,Cone_Condition,angle_between_pos_nose,Nose_Cone_Condition,Intercept_Criteria
6745,8,1970-07-23 10:01:53.933114436,2025-09-10,2025-09-12 19:09:53.311,HA,C,1244345112,JASSM,3,101,76,2,2,1,225,9,2,0,1,26,0,0,0,0,-155620.13806326812,-4777352.237275924,4213386.253386021,-2.71083,-1.01118,0.751842,37.25,-59.375,-65.625,0.0,0.0,0.0,0.0,0.0,0.0,2,0,41.58650506633426,-91.8657249777426,10000.000708041918,155.93925426839093,-0.001570014361771,0.0048445853365273,,8802.566937047923,11004.7807189461,150,6744,8,2025-09-10,2025-09-12 19:09:53.281,HA,C,3992287680,HAWK11,1,1,73,2,1,1,225,2,1,0,0,12,1,225,2,1,-148262.31286795562,-4791857.616182174,4197720.067839146,2.5001,2.54919,-0.534305,-85.375,41.375,43.0,-0.15625,-7.53125,6.28125,-0.0273438,0.0,0.0136719,4,0,41.39585225741205,-91.77219281053657,11004.04222605138,-46.76168138962037,-0.4011247159766533,2.6655027370701125,0.0,8802.566937047923,11004.7807189461,150,True,12.184962638291315,False,147.7517535337729,176.13909586131953,False,36.04276408493724,False,False
6762,8,1970-07-23 10:01:53.944405331,2025-09-10,2025-09-12 19:09:54.440,HA,C,1245657462,JASSM,3,101,76,2,2,1,225,9,2,0,1,26,0,0,0,0,-155579.10290701812,-4777417.756807174,4213313.964323521,-2.71083,-1.01118,0.751842,37.25,-59.375,-65.625,0.0,0.0,0.0,0.0,0.0,0.0,2,0,41.585635293336544,-91.86520779356636,9999.998714620438,155.93959754651164,-0.0006180990452304,0.0048431997607885,,8802.566937047923,11004.7807189461,150,6765,8,2025-09-10,2025-09-12 19:09:54.534,HA,C,3994077178,HAWK11,1,1,73,2,1,1,225,2,1,0,0,12,1,225,2,1,-148387.86560233062,-4791796.498994674,4197784.622526646,2.46808,2.54449,-0.543988,-84.25,41.625,42.75,-0.015625,-7.32812,6.125,0.00390625,0.00390625,0.00585938,4,0,41.396628467017415,-91.77371520368992,11003.307884206337,-46.23228793043704,-0.117190899084903,0.6904234173932954,0.0,8802.566937047923,11004.7807189461,150,True,12.060848445335509,False,148.0947991268802,175.89398631764922,False,35.94283168836031,False,False
6776,8,1970-07-23 10:01:53.954063326,2025-09-10,2025-09-12 19:09:55.406,HA,C,1246850510,JASSM,3,101,76,2,2,1,225,9,2,0,1,26,0,0,0,0,-155541.79821951812,-4777477.319307174,4213248.245573521,-2.71083,-1.01118,0.751842,37.25,-59.375,-65.625,0.0,0.0,0.0,0.0,0.0,0.0,2,0,41.58484458315672,-91.86473763845645,9999.9970736349,155.93990960423548,0.0002472834151925,0.0048419377689797,,8802.566937047923,11004.7807189461,150,6774,8,2025-09-10,2025-09-12 19:09:55.333,HA,C,3995309944,HAWK11,1,1,73,2,1,1,225,2,1,0,0,12,1,225,2,1,-148474.34607108062,-4791754.120088424,4197829.185026646,2.47335,2.54718,-0.547439,-83.625,41.375,42.875,-0.28125,-7.48438,6.09375,0.0,0.0,0.0,5,0,41.39716543861026,-91.7747639503352,11002.32788056884,-46.20937742393734,0.1200372315865427,1.0725350417530797,0.0,8802.566937047923,11004.7807189461,150,True,11.962813701847823,False,148.26661496165994,175.7177935980485,False,35.95224724253026,False,False
6790,8,1970-07-23 10:01:53.965104565,2025-09-10,2025-09-12 19:09:56.510,HA,C,1248103208,JASSM,3,101,76,2,2,1,225,9,2,0,1,26,0,0,0,0,-155502.62829764312,-4777539.858369674,4213179.241667271,-2.71083,-1.01118,0.751842,37.25,-59.375,-65.625,0.0,0.0,0.0,0.0,0.0,0.0,2,0,41.5840143498684,-91.86424398854682,9999.99835099824,155.94023725100286,0.001155921621657,0.0048406181891045,,8802.566937047923,11004.7807189461,150,6792,8,2025-09-10,2025-09-12 19:09:56.628,HA,C,3996900610,HAWK11,1,1,73,2,1,1,225,2,1,0,0,12,1,225,2,1,-148584.81091483062,-4791699.163057174,4197886.599089146,2.47479,2.53538,-0.553767,-82.875,41.75,42.5,0.0,-7.28125,6.04688,-0.0214844,-0.00585938,0.015625,4,0,41.397859551239904,-91.77610388572566,11000.124397964535,-45.534886744739616,0.0384629913097145,0.8025476734386955,0.0,8802.566937047923,11004.7807189461,150,True,11.84905381694412,False,148.48808465865787,175.49358612937445,False,35.94986995255816,False,False
6803,8,1970-07-23 10:01:53.975993745,2025-09-10,2025-09-12 19:09:57.599,HA,C,1249296254,JASSM,3,101,76,2,2,1,225,9,2,0,1,26,0,0,0,0,-155465.32458670562,-4777599.416963424,4213113.522917271,-2.71083,-1.01118,0.751938,37.25,-59.375,-65.625,0.0,0.0,0.0,0.0,0.0,0.0,2,0,41.58322365865431,-91.86377387017546,9999.996981226795,155.94284188524233,-0.0029687309530171,0.0048393376041583,,8802.566937047923,11004.7807189461,150,6806,8,2025-09-10,2025-09-12 19:09:57.738,HA,C,3997974308,HAWK11,1,1,73,2,1,1,225,2,1,0,0,12,1,225,2,1,-148658.79333670562,-4791662.231416549,4197925.030729771,2.44507,2.5327,-0.561341,-82.5,39.875,43.875,0.140625,-7.35938,6.10938,-0.0253906,0.00390625,0.0117188,4,0,41.3983250186824,-91.77700135276152,10998.301901080133,-45.1610903764963,0.2945929163860867,-0.9804840877775384,0.0,8802.566937047923,11004.7807189461,150,True,11.757579939477846,False,148.52904611770865,175.33489611409223,False,36.097297228748396,False,False
6816,8,1970-07-23 10:01:53.985100564,2025-09-10,2025-09-12 19:09:58.510,HA,C,1250548954,JASSM,3,101,76,2,2,1,225,9,2,0,1,26,0,0,0,0,-155426.15466483062,-4777661.954072799,4213044.519011021,-2.71083,-1.01109,0.751938,37.25,-59.375,-65.625,0.0,0.0,0.0,0.0,0.0,0.0,2,0,41.58239343265383,-91.86328024571787,10000.003730749042,155.93952502422002,-0.0037346684842837,0.0010872618022842,,8802.566937047923,11004.7807189461,150,6819,8,2025-09-10,2025-09-12 19:09:58.738,HA,C,3999366140,HAWK11,1,1,73,2,1,1,225,2,1,0,0,12,1,225,2,1,-148754.21325858062,-4791613.937471236,4197974.421354771,2.48582,2.5374,-0.562012,-81.875,41.5,42.25,-0.046875,-7.29688,6.17188,0.0175781,0.00390625,0.0,4,0,41.39892808680398,-91.77815913834374,10993.947760666866,-45.31470456161684,0.4688807408484761,1.4966391633780467,0.0,8802.566937047923,11004.7807189461,150,True,11.651978285316897,False,148.65596707120574,175.13203220773258,False,36.146642977446206,False,False
6828,8,1970-07-23 10:01:53.997185520,2025-09-10,2025-09-12 19:09:59.718,HA,C,1251861304,JASSM,3,101,76,2,2,1,225,9,2,0,1,26,0,0,0,0,-155385.11950858062,-4777727.467744674,4212972.226042271,-2.71083,-1.01109,0.751938,37.25,-59.375,-65.625,0.0,0.0,0.0,0.0,0.0,0.0,2,0,41.58152365672204,-91.86276312944062,10000.0061321161,155.93986822956975,-0.0027827611456891,0.0010858556448459,,8802.566937047923,11004.7807189461,150,6829,8,2025-09-10,2025-09-12 19:09:59.832,HA,C,4000638672,HAWK11,1,1,73,2,1,1,225,2,1,0,0,12,1,225,2,1,-148841.44958670562,-4791569.701143111,4198019.868620396,2.49675,2.52704,-0.572367,-81.125,41.625,42.125,-0.171875,-7.42188,6.23438,-0.0136719,0.0,0.0214844,4,0,41.39948189965273,-91.77921767802854,10990.400800689811,-44.55338704258448,0.6171334954789768,1.8115095106795287,0.0,8802.566937047923,11004.7807189461,150,True,11.548180836958743,False,148.8977915192753,174.94018701246148,False,36.09528116555175,False,False
6840,8,1970-07-23 10:01:54.007104776,2025-09-10,2025-09-12 19:10:00.710,HA,C,1253114004,JASSM,3,101,76,2,2,1,225,9,2,0,1,26,0,0,0,0,-155345.94958670562,-4777790.000947799,4212903.214323521,-2.71083,-1.01109,0.751938,37.25,-59.375,-65.625,0.0,0.0,0.0,0.0,0.0,0.0,2,0,41.58069339686437,-91.86226953239752,9999.997052460143,155.94019581991952,-0.0018741070592478,0.00108450580723,,8802.566937047923,11004.7807189461,150,6841,8,2025-09-10,2025-09-12 19:10:00.738,HA,C,4001752138,HAWK11,1,1,73,2,1,1,225,2,1,0,0,12,1,225,2,1,-148916.14489920562,-4791531.469697799,4198058.686979771,2.41008,2.521,-0.576873,-80.75,41.5,41.875,0.015625,-7.34375,6.23438,-0.115234,0.00390625,0.0,4,0,41.399957553590205,-91.78012418918684,10986.28942751957,-44.16584069940426,0.638035438374849,-3.3380025726072247,0.0,8802.566937047923,11004.7807189461,150,True,11.453734097746866,False,148.8975726072583,174.77075091182826,False,36.26499960493961,False,False
6853,8,1970-07-23 10:01:54.017086093,2025-09-10,2025-09-12 19:10:01.708,HA,C,1254366702,JASSM,3,101,76,2,2,1,225,9,2,0,1,26,0,0,0,0,-155306.77966483062,-4777852.534150924,4212834.206511021,-2.71083,-1.01109,0.751938,37.25,-59.375,-65.625,0.0,0.0,0.0,0.0,0.0,0.0,2,0,41.57986316106331,-91.86177594799852,10000.001734898422,155.94052339650594,-0.0009654768523799,0.0010831666704781,,8802.566937047923,11004.7807189461,150,6851,8,2025-09-10,2025-09-12 19:10:01.538,HA,C,4002467936,HAWK11,1,1,73,2,1,1,225,2,1,0,0,12,1,225,2,1,-148964.34411795562,-4791506.783174361,4198083.704557896,2.36013,2.52417,-0.578694,-80.75,41.25,41.5,-0.078125,-7.4375,6.35938,-0.0351562,0.00195312,-0.0078125,4,0,41.400264368089,-91.7807091539938,10983.530535206966,-44.21971337065517,0.8148875717719407,-6.101519035213031,0.0,8802.566937047923,11004.7807189461,150,True,11.37360060441271,False,148.68894594909085,174.6508425492017,False,36.59336698960593,False,False
6865,8,1970-07-23 10:01:54.028459416,2025-09-10,2025-09-12 19:10:02.845,HA,C,1255619402,JASSM,3,101,76,2,2,1,225,9,2,0,1,26,0,0,0,0,-155267.60974295562,-4777915.065400924,4212765.194792271,-2.71083,-1.01109,0.751938,37.25,-59.375,-65.625,0.0,0.0,0.0,0.0,0.0,0.0,2,0,41.57903290838602,-91.8612823770034,9999.998377743208,155.94085095882545,-5.68333803164564e-05,0.0010818210271665,,8802.566937047923,11004.7807189461,150,6869,8,2025-09-10,2025-09-12 19:10:03.128,HA,C,4004535802,HAWK11,1,1,73,2,1,1,225,2,1,0,0,12,1,225,2,1,-149104.89880545562,-4791436.343721236,4198154.602995396,2.356,2.54392,-0.559328,-81.5,40.5,40.0,-0.0625,-7.5,6.42188,0.0839844,0.0175781,0.00195312,4,0,41.4011359650784,-91.78241443763592,10974.846361751604,-45.65993894460936,0.5532652709343827,-5.744866402448592,0.0,8802.566937047923,11004.7807189461,150,True,11.245463696818353,False,147.66956950748263,174.3418941244876,False,37.91820742918882,False,False
6881,8,1970-07-23 10:01:54.039202227,2025-09-10,2025-09-12 19:10:03.920,HA,C,1256812448,JASSM,3,101,76,2,2,1,225,9,2,0,1,26,0,0,0,0,-155230.30505545562,-4777974.618135299,4212699.472136021,-2.71083,-1.01109,0.751938,37.25,-59.375,-65.625,0.0,0.0,0.0,0.0,0.0,0.0,2,0,41.57824221324901,-91.86081232146884,10000.004089381577,155.94116290992875,0.0008085196637715,0.0010805489158057,,8802.566937047923,11004.7807189461,150,6878,8,2025-09-10,2025-09-12 19:10:03.832,HA,C,4005370900,HAWK11,1,1,73,2,1,1,225,2,1,0,0,12,1,225,2,1,-149162.26794608062,-4791408.125947799,4198182.915495396,2.40854,2.55216,-0.566327,-81.5,39.875,39.75,-0.21875,-7.8125,6.85938,0.0742188,0.0117188,-0.00195312,4,0,41.40148431788001,-91.78311028561306,10971.259827432674,-45.71469246404381,1.117336225769582,-2.483219762838991,0.0,8802.566937047923,11004.7807189461,150,True,11.164172052359765,False,147.390963450854,174.1977161119553,False,38.346515939262865,False,False
6895,8,1970-07-23 10:01:54.051965108,2025-09-10,2025-09-12 19:10:05.196,HA,C,1258005494,JASSM,3,101,76,2,2,1,225,9,2,0,1,26,0,0,0,0,-155193.00036795562,-4778034.168916549,4212633.745573521,-2.71083,-1.01109,0.752034,37.25,-59.375,-65.625,0.0,0.0,0.0,0.0,0.0,0.0,2,0,41.57745150144317,-91.86034227816104,10000.001272766249,155.9437692123598,-0.0033190768459915,0.0010792373595139,,8802.566937047923,11004.7807189461,150,6898,8,2025-09-10,2025-09-12 19:10:05.238,HA,C,4007120632,HAWK11,1,1,73,2,1,1,225,2,1,0,0,12,1,225,2,1,-149280.34216483062,-4791351.103486861,4198240.815886021,2.48093,2.54267,-0.573805,-80.875,39.25,39.625,0.03125,-7.45312,6.34375,0.0234375,0.00976562,0.0,4,0,41.40219249343943,-91.78454207604216,10965.673582349193,-45.08979423519224,1.1593401996464363,1.3832991076875596,0.0,8802.566937047923,11004.7807189461,150,True,11.05221424556716,False,147.36111644862277,173.92339093685206,False,38.657837657846095,False,False
6902,8,1970-07-23 10:01:54.057104407,2025-09-10,2025-09-12 19:10:05.710,HA,C,1259138888,JASSM,3,101,76,2,2,1,225,9,2,0,1,26,0,0,0,0,-155157.55993826812,-4778090.743135299,4212571.304167271,-2.71083,-1.01109,0.752034,37.25,-59.375,-65.625,0.0,0.0,0.0,0.0,0.0,0.0,2,0,41.57670030981764,-91.85989573556124,10000.002779440278,155.9440655501298,-0.0024969626671317,0.00107805831339,,8802.566937047923,11004.7807189461,150,6901,8,2025-09-10,2025-09-12 19:10:05.628,HA,C,4007637598,HAWK11,1,1,73,2,1,1,225,2,1,0,0,12,1,225,2,1,-149314.82068045562,-4791334.377900924,4198257.729948521,2.48342,2.54574,-0.583776,-80.5,39.25,39.5,-0.21875,-7.78125,6.54688,-0.0078125,0.0117188,0.0078125,4,0,41.40239977181099,-91.78496020286804,10963.875419968064,-44.842133735209735,1.6950521991013494,1.6285386814893157,0.0,8802.566937047923,11004.7807189461,150,True,10.985580685869309,False,147.43867403767135,173.82320114770494,False,38.67941823742882,False,False
6918,8,1970-07-23 10:01:54.067621856,2025-09-10,2025-09-12 19:10:06.762,HA,C,1260331934,JASSM,3,101,76,2,2,1,225,9,2,0,1,26,0,0,0,0,-155120.25525076812,-4778150.291963424,4212505.575651646,-2.71083,-1.01109,0.752034,37.25,-59.375,-65.625,0.0,0.0,0.0,0.0,0.0,0.0,2,0,41.575909592561736,-91.85942571537176,10000.000216726468,155.9443774635153,-0.0016315949563269,0.0010768131888202,,8802.566937047923,11004.7807189461,150,6919,8,2025-09-10,2025-09-12 19:10:06.832,HA,C,4009069196,HAWK11,1,1,73,2,1,1,225,2,1,0,0,12,1,225,2,1,-149411.68200858062,-4791287.622041549,4198305.835417271,2.45207,2.54449,-0.598444,-79.75,38.5,39.875,0.03125,-7.71875,6.73438,-0.0273438,0.0,0.00195312,4,0,41.40298466911776,-91.786134784947,10960.67528296447,-44.26403051813315,2.308621099684184,-0.1870864279503728,0.0,8802.566937047923,11004.7807189461,150,True,10.884512491393354,False,147.59730312966173,173.5863322117872,False,38.77010186155345,False,False
6935,8,1970-07-23 10:01:54.079190983,2025-09-10,2025-09-12 19:10:07.919,HA,C,1261524982,JASSM,3,101,76,2,2,1,225,9,2,0,1,26,0,0,0,0,-155082.95056326812,-4778209.840791549,4212439.845182896,-2.71083,-1.01109,0.752034,37.25,-59.375,-65.625,0.0,0.0,0.0,0.0,0.0,0.0,2,0,41.57511886012634,-91.85895570664728,9999.998169555329,155.94468936442138,-0.0007662151189991,0.0010755626865624,,8802.566937047923,11004.7807189461,150,6930,8,2025-09-10,2025-09-12 19:10:07.628,HA,C,4009944062,HAWK11,1,1,73,2,1,1,225,2,1,0,0,12,1,225,2,1,-149469.47888358062,-4791259.904268111,4198335.343229771,2.45168,2.54209,-0.596239,-79.5,36.25,41.625,-0.15625,-7.625,6.625,0.00195312,-0.00195312,-0.00195312,4,0,41.40333801456068,-91.78683559731512,10960.958397342412,-44.25657593305621,2.139547119005832,-0.2858625579139819,0.0,8802.566937047923,11004.7807189461,150,True,10.803246941055612,False,147.58890603156826,173.43039249254917,False,38.965623794308826,False,False
6945,8,1970-07-23 10:01:54.087574548,2025-09-10,2025-09-12 19:10:08.757,HA,C,1262718028,JASSM,3,101,76,2,2,1,225,9,2,0,1,26,0,0,0,0,-155045.64587576812,-4778269.387666549,4212374.116667271,-2.71083,-1.01099,0.752034,37.25,-59.375,-65.625,0.0,0.0,0.0,0.0,0.0,0.0,2,0,41.57432815046778,-91.85848571014654,10000.00035136186,155.94135267640416,-0.0015775954594436,-0.0026816627491055,,8802.566937047923,11004.7807189461,150,6939,8,2025-09-10,2025-09-12 19:10:08.276,HA,C,4010222428,HAWK11,1,1,73,2,1,1,225,2,1,0,0,12,1,225,2,1,-149488.53552420562,-4791250.582002486,4198344.745573521,2.44967,2.54382,-0.599307,-79.25,37.875,40.0,-0.078125,-7.70312,6.57812,0.00390625,0.0078125,-0.00195312,4,0,41.40345340120764,-91.78706673736936,10959.892313341014,-44.20869988504301,2.327573651035954,-0.3436546540993099,0.0,8802.566937047923,11004.7807189461,150,True,10.74196971915329,False,147.61527937304098,173.3571038044905,False,38.98903730655951,False,False
6957,8,1970-07-23 10:01:54.097963886,2025-09-10,2025-09-12 19:10:09.796,HA,C,1263911074,JASSM,3,101,76,2,2,1,225,9,2,0,1,26,0,0,0,0,-155008.34021170562,-4778328.934541549,4212308.384245396,-2.71074,-1.01099,0.752034,37.25,-59.375,-65.625,0.0,0.0,0.0,0.0,0.0,0.0,2,0,41.57353741266962,-91.85801571341224,9999.998718864555,155.94166455964856,-0.0007122109396468,0.0028085106396672,,8802.566937047923,11004.7807189461,150,6959,8,2025-09-10,2025-09-12 19:10:09.832,HA,C,4012568660,HAWK11,1,1,73,2,1,1,225,2,1,0,0,12,1,225,2,1,-149642.90857108062,-4791177.665010299,4198423.608854771,2.4373,2.54535,-0.610812,-78.375,36.625,40.0,0.015625,-7.53125,6.45312,0.00390625,-0.0117188,0.00195312,4,0,41.40439083989032,-91.78893820546652,10963.51493755974,-43.84764533018136,2.884897799343064,-0.9854473068014844,0.0,8802.566937047923,11004.7807189461,150,True,10.61187767335119,False,147.5085007107666,172.9814928298404,False,39.48347251348519,False,False
6967,8,1970-07-23 10:01:54.107091136,2025-09-10,2025-09-12 19:10:10.709,HA,C,1265104120,JASSM,3,101,76,2,2,1,225,9,2,0,1,26,0,0,0,0,-154971.03552420562,-4778388.479463424,4212242.651823521,-2.71074,-1.01099,0.752034,37.25,-59.375,-65.625,0.0,0.0,0.0,0.0,0.0,0.0,2,0,41.57274668430978,-91.85754574059774,9999.99714075246,155.94197642214826,0.0001531594284402,0.0028072080840652,,8802.566937047923,11004.7807189461,150,6973,8,2025-09-10,2025-09-12 19:10:10.940,HA,C,4013920724,HAWK11,1,1,73,2,1,1,225,2,1,0,0,12,1,225,2,1,-149731.83044608062,-4791136.024385299,4198468.976042271,2.43347,2.54516,-0.611867,-78.0,36.25,39.625,-0.140625,-7.3125,6.51562,0.0195312,-0.00195312,-0.00585938,4,0,41.40492825902356,-91.7900160968053,10966.368444301545,-43.803003045125706,2.926848099628287,-1.208975993624382,0.0,8802.566937047923,11004.7807189461,150,True,10.515465186297853,False,147.37415897507995,172.74550506143046,False,39.85460838249615,False,False
6980,8,1970-07-23 10:01:54.117104181,2025-09-10,2025-09-12 19:10:11.710,HA,C,1266297166,JASSM,3,101,76,2,2,1,225,9,2,0,1,26,0,0,0,0,-154933.73083670562,-4778448.024385299,4212176.919401646,-2.71074,-1.01099,0.75213,37.25,-59.375,-65.625,0.0,0.0,0.0,0.0,0.0,0.0,2,0,41.57195595392005,-91.85707577924602,10000.000330495712,155.94458153840125,-0.0039711790679585,0.0028058464206179,,8802.566937047923,11004.7807189461,150,6982,8,2025-09-10,2025-09-12 19:10:11.738,HA,C,4014914890,HAWK11,1,1,73,2,1,1,225,2,1,0,0,12,1,225,2,1,-149796.63318045562,-4791105.554658736,4198501.915495396,2.44449,2.54276,-0.608799,-77.75,36.375,39.25,-0.125,-6.92188,6.51562,0.015625,0.00976562,0.0,4,0,41.405319812253175,-91.7908016784528,10967.882032010442,-43.82788332716018,2.7202446178842723,-0.6570197479876894,0.0,8802.566937047923,11004.7807189461,150,True,10.431357942698726,False,147.36149685650724,172.56081603096098,False,40.048409346802764,False,False
6996,8,1970-07-23 10:01:54.128412571,2025-09-10,2025-09-12 19:10:12.841,HA,C,1267430560,JASSM,3,101,76,2,2,1,225,9,2,0,1,26,0,0,0,0,-154898.29040701812,-4778504.590791549,4212114.472136021,-2.71074,-1.01099,0.75213,37.25,-59.375,-65.625,0.0,0.0,0.0,0.0,0.0,0.0,2,0,41.57120475607367,-91.85662931537485,10000.001395925105,155.94487779190388,-0.0031490716149253,0.0028046486635723,,8802.566937047923,11004.7807189461,150,6995,8,2025-09-10,2025-09-12 19:10:12.832,HA,C,4015909056,HAWK11,1,1,73,2,1,1,225,2,1,0,0,12,1,225,2,1,-149861.40271170562,-4791074.925752486,4198534.567839146,2.46185,2.53203,-0.609182,-77.625,36.375,39.375,-0.1875,-6.67188,6.625,0.0136719,0.00195312,0.00585938,4,0,41.40571037524028,-91.7915869322208,10968.38174419038,-43.422602020556575,2.419604820336534,0.0036615643920828,0.0,8802.566937047923,11004.7807189461,150,True,10.349993325984475,False,147.45141288078557,172.3750926453543,False,40.14564948100442,False,False
7010,8,1970-07-23 10:01:54.139984131,2025-09-10,2025-09-12 19:10:13.998,HA,C,1268683260,JASSM,3,101,76,2,2,1,225,9,2,0,1,26,0,0,0,0,-154859.12048514312,-4778567.108369674,4212045.450651646,-2.71074,-1.01099,0.75213,37.25,-59.375,-65.625,0.0,0.0,0.0,0.0,0.0,0.0,2,0,41.57037449591225,-91.85613588150692,9999.998057659115,155.94520520748603,-0.0022404428506798,0.0028033205413789,,8802.566937047923,11004.7807189461,150,7008,8,2025-09-10,2025-09-12 19:10:13.832,HA,C,4017380420,HAWK11,1,1,73,2,1,1,225,2,1,0,0,12,1,225,2,1,-149956.79333670562,-4791029.381807174,4198582.302214146,2.45705,2.52512,-0.613976,-77.75,37.125,39.25,0.0,-6.53125,6.98438,0.0117188,-0.00585938,0.00390625,4,0,41.406285764120746,-91.79274361001828,10967.284196716722,-42.998509425001465,2.431430573800448,-0.4798547347387695,0.0,8802.566937047923,11004.7807189461,150,True,10.248304381458722,False,147.60720926706668,172.11021082516677,False,40.24755719531123,False,False
7019,8,1970-07-23 10:01:54.148095279,2025-09-10,2025-09-12 19:10:14.809,HA,C,1269935958,JASSM,3,101,76,2,2,1,225,9,2,0,1,26,0,0,0,0,-154819.94958670562,-4778629.627900924,4211976.427214146,-2.71074,-1.01099,0.75213,37.25,-59.375,-65.625,0.0,0.0,0.0,0.0,0.0,0.0,2,0,41.569544208894925,-91.85564244781987,10000.000437943085,155.94553261757764,-0.0013317876764414,0.0028019908737371,,8802.566937047923,11004.7807189461,150,7022,8,2025-09-10,2025-09-12 19:10:15.156,HA,C,4018334820,HAWK11,1,1,73,2,1,1,225,2,1,0,0,12,1,225,2,1,-150019.31286795562,-4790999.272432174,4198613.501432896,2.43759,2.52254,-0.608223,-78.125,37.375,39.375,-0.046875,-6.54688,6.85938,-0.0234375,-0.0078125,-0.00195312,4,0,41.40666383388576,-91.79350181116332,10965.743108725745,-43.11033909725506,2.098911209453445,-1.6843258607106946,0.0,8802.566937047923,11004.7807189461,150,True,10.16311978741627,False,147.60596958410676,171.91901668312772,False,40.43921882871802,False,False
7033,8,1970-07-23 10:01:54.159585411,2025-09-10,2025-09-12 19:10:15.958,HA,C,1271188658,JASSM,3,101,76,2,2,1,225,9,2,0,1,26,0,0,0,0,-154780.77966483062,-4778692.143525924,4211907.403776646,-2.71074,-1.01099,0.75213,37.25,-59.375,-65.625,0.0,0.0,0.0,0.0,0.0,0.0,2,0,41.56871394276467,-91.85514903998065,9999.9985693335,155.945860005148,-0.0004231575162615,0.0028006615855781,,8802.566937047923,11004.7807189461,150,7035,8,2025-09-10,2025-09-12 19:10:16.128,HA,C,4020124318,HAWK11,1,1,73,2,1,1,225,2,1,0,0,12,1,225,2,1,-150137.02575858062,-4790942.375947799,4198671.755339146,2.45744,2.51985,-0.610333,-78.75,37.875,39.375,-0.0625,-6.6875,7.125,0.0429688,0.0,-0.0078125,4,0,41.40737358506521,-91.7949294671192,10961.282778597457,-42.937184711441205,2.115884745677124,-0.6285528431077675,0.0,8802.566937047923,11004.7807189461,150,True,10.050772897878492,False,147.55223436794677,171.59031302345045,False,40.81781922302562,False,False
7047,8,1970-07-23 10:01:54.170809470,2025-09-10,2025-09-12 19:10:17.080,HA,C,1272501008,JASSM,3,101,76,2,2,1,225,9,2,0,1,26,0,0,0,0,-154739.74353201812,-4778757.635713424,4211835.093229771,-2.71074,-1.01099,0.75213,37.25,-59.375,-65.625,0.0,0.0,0.0,0.0,0.0,0.0,2,0,41.56784413828262,-91.8546321385289,10000.000651960898,155.94620297551634,0.0005287439263927,0.0027992770854401,,8802.566937047923,11004.7807189461,150,7044,8,2025-09-10,2025-09-12 19:10:16.832,HA,C,4020959418,HAWK11,1,1,73,2,1,1,225,2,1,0,0,12,1,225,2,1,-150192.54138358062,-4790915.565400924,4198698.925261021,2.46376,2.5211,-0.607169,-79.0,38.125,39.5,-0.171875,-6.78125,7.15625,0.0527344,0.00195312,0.0,4,0,41.40770612474779,-91.79560277907532,10958.58013250217,-43.096577665929445,2.011315670202196,-0.2307564025593814,0.0,8802.566937047923,11004.7807189461,150,True,9.96698158205605,False,147.5932257164881,171.40570593027164,False,40.96051959463849,False,False
7057,8,1970-07-23 10:01:54.179613586,2025-09-10,2025-09-12 19:10:17.961,HA,C,1273694056,JASSM,3,101,76,2,2,1,225,9,2,0,1,26,0,0,0,0,-154702.43786795562,-4778817.174775924,4211769.352995396,-2.71074,-1.01099,0.752226,37.25,-59.375,-65.625,0.0,0.0,0.0,0.0,0.0,0.0,2,0,41.56705337786835,-91.854162238812,10000.001943144356,155.94880944762937,-0.0035986777158321,0.0027979642198452,,8802.566937047923,11004.7807189461,150,7058,8,2025-09-10,2025-09-12 19:10:18.034,HA,C,4022391016,HAWK11,1,1,73,2,1,1,225,2,1,0,0,12,1,225,2,1,-150288.67028983062,-4790869.138643111,4198746.563932896,2.55072,2.51209,-0.616564,-79.25,38.375,40.375,-0.078125,-6.90625,7.35938,0.0429688,0.00390625,0.0175781,4,0,41.40828594187008,-91.79676868001518,10955.184613460782,-42.43107811435707,2.170863724445047,4.479518504732635,0.0,8802.566937047923,11004.7807189461,150,True,9.868313341803658,False,147.91176439885857,171.1210209486004,False,40.93320703908768,False,False
7070,8,1970-07-23 10:01:54.190102198,2025-09-10,2025-09-12 19:10:19.010,HA,C,1274946754,JASSM,3,101,76,2,2,1,225,9,2,0,1,26,0,0,0,0,-154663.26794608062,-4778879.686494674,4211700.325651646,-2.71074,-1.01099,0.752226,37.25,-59.375,-65.625,0.0,0.0,0.0,0.0,0.0,0.0,2,0,41.5662231020372,-91.85366887038876,9999.99775738091,155.94913679305,-0.0026900448409162,0.002796669010135,,8802.566937047923,11004.7807189461,150,7067,8,2025-09-10,2025-09-12 19:10:18.832,HA,C,4023345414,HAWK11,1,1,73,2,1,1,225,2,1,0,0,12,1,225,2,1,-150352.30310233062,-4790837.849580611,4198778.819792271,2.56414,2.49991,-0.622317,-79.0,38.75,41.125,-0.078125,-6.79688,7.29688,-0.0488281,0.0078125,0.0195312,4,0,41.40867792778965,-91.79754067193733,10953.136785724431,-41.7808456233143,2.079923988106788,4.867819492458779,0.0,8802.566937047923,11004.7807189461,150,True,9.782764339104075,False,148.38912574058807,170.91148193130735,False,40.668794572091265,False,False
7086,8,1970-07-23 10:01:54.200084639,2025-09-10,2025-09-12 19:10:20.008,HA,C,1276199452,JASSM,3,101,76,2,2,1,225,9,2,0,1,26,0,0,0,0,-154624.09704764312,-4778942.198213424,4211631.298307896,-2.71074,-1.01089,0.752226,37.25,-59.375,-65.625,0.0,0.0,0.0,0.0,0.0,0.0,2,0,41.56539282415741,-91.85317550290176,9999.998750577804,155.94582085272936,-0.0034560021755068,-0.0009565862624783,,8802.566937047923,11004.7807189461,150,7088,8,2025-09-10,2025-09-12 19:10:20.129,HA,C,4024896314,HAWK11,1,1,73,2,1,1,225,2,1,0,0,12,1,225,2,1,-150455.55310233062,-4790786.420869674,4198832.120573521,2.52119,2.4908,-0.636698,-79.0,39.125,42.25,-0.109375,-7.20312,7.5625,-0.0664062,0.00976562,-0.0136719,4,0,41.40932437038689,-91.79879356621028,10950.288130470626,-40.942565097673146,2.473321983114662,2.133237576193393,0.0,8802.566937047923,11004.7807189461,150,True,9.677112241153967,False,148.91103661875866,170.59724620888164,False,40.46785162675109,False,False
7100,8,1970-07-23 10:01:54.211122179,2025-09-10,2025-09-12 19:10:21.112,HA,C,1277511804,JASSM,3,101,76,2,2,1,225,9,2,0,1,26,0,0,0,0,-154583.06091483062,-4779007.686494674,4211558.981901646,-2.71074,-1.01089,0.752226,37.25,-59.375,-65.625,0.0,0.0,0.0,0.0,0.0,0.0,2,0,41.56452299416022,-91.85265865590256,10000.000522486278,155.94616376462784,-0.0025040859376828,-0.0009580008639552,,8802.566937047923,11004.7807189461,150,7105,8,2025-09-10,2025-09-12 19:10:21.240,HA,C,4026208612,HAWK11,1,1,73,2,1,1,225,2,1,0,0,12,1,225,2,1,-150543.06091483062,-4790742.628877486,4198878.237761021,2.44948,2.4884,-0.63363,-79.375,39.125,42.875,0.0625,-6.76562,7.25,-0.0078125,0.00195312,0.00390625,4,0,41.40987982249746,-91.79985553229156,10949.423867881727,-40.96308180847623,2.2675580650825684,-2.0577005582723364,0.0,8802.566937047923,11004.7807189461,150,True,9.576604266377153,False,149.0024757916134,170.31502117282272,False,40.663857894364064,False,False
7122,8,1970-07-23 10:01:54.222101625,2025-09-10,2025-09-12 19:10:22.210,HA,C,1278764502,JASSM,3,101,76,2,2,1,225,9,2,0,1,26,0,0,0,0,-154543.89001639312,-4779070.196260299,4211489.952604771,-2.71074,-1.01089,0.752226,37.25,-59.375,-65.625,0.0,0.0,0.0,0.0,0.0,0.0,2,0,41.56369271020471,-91.85216531503715,10000.003235770022,155.94649107543964,-0.0015954482165633,-0.0009593469699058,,8802.566937047923,11004.7807189461,150,7118,8,2025-09-10,2025-09-12 19:10:22.199,HA,C,4027083478,HAWK11,1,1,73,2,1,1,225,2,1,0,0,12,1,225,2,1,-150601.51208670562,-4790713.477510299,4198909.183073521,2.49416,2.49061,-0.629028,-79.75,39.625,43.0,-0.15625,-6.9375,7.32812,0.09375,0.0078125,-0.0136719,4,0,41.410251193199066,-91.800564849217,10949.401369828684,-41.20548462241088,2.1216391097060616,0.5675812467294357,0.0,8802.566937047923,11004.7807189461,150,True,9.49345439714829,False,149.0733747427712,170.10623800286194,False,40.79890547082041,False,False
7137,8,1970-07-23 10:01:54.232761418,2025-09-10,2025-09-12 19:10:23.276,HA,C,1279957550,JASSM,3,101,76,2,2,1,225,9,2,0,1,26,0,0,0,0,-154506.58435233062,-4779129.727510299,4211424.208464146,-2.71074,-1.01089,0.752226,37.25,-59.375,-65.625,0.0,0.0,0.0,0.0,0.0,0.0,2,0,41.56290195945881,-91.85169547850016,10000.001888074714,155.94680278713025,-0.0007300770211732,-0.000960629937903,,8802.566937047923,11004.7807189461,150,7135,8,2025-09-10,2025-09-12 19:10:23.238,HA,C,4028395776,HAWK11,1,1,73,2,1,1,225,2,1,0,0,12,1,225,2,1,-150690.11169608062,-4790668.920869674,4198956.479948521,2.54056,2.48467,-0.633534,-79.875,39.875,43.75,-0.15625,-6.875,7.20312,0.0195312,0.00585938,0.0175781,4,0,41.41081893610413,-91.80164017780992,10949.311115599532,-40.83058611757996,2.159593212035857,3.0395207738312124,0.0,8802.566937047923,11004.7807189461,150,True,9.397608261206168,False,149.36838637839085,169.8162411595591,False,40.7978279650995,False,False
7154,8,1970-07-23 10:01:54.244029646,2025-09-10,2025-09-12 19:10:24.402,HA,C,1281269900,JASSM,3,101,76,2,2,1,225,9,2,0,1,26,0,0,0,0,-154465.54821951812,-4779195.211885299,4211351.888151646,-2.71074,-1.01089,0.752226,37.25,-59.375,-65.625,0.0,0.0,0.0,0.0,0.0,0.0,2,0,41.56203211943976,-91.8511786727104,10000.002094142064,155.94714565480965,0.0002218419008898,-0.0009620468545,,8802.566937047923,11004.7807189461,150,7155,8,2025-09-10,2025-09-12 19:10:24.440,HA,C,4030026208,HAWK11,1,1,73,2,1,1,225,2,1,0,0,12,1,225,2,1,-150799.00036795562,-4790613.176729049,4199015.714323521,2.65187,2.46022,-0.650887,-79.125,40.5,44.875,-0.1875,-6.85938,7.14062,0.0429688,-0.00195312,0.00585938,4,0,41.41153000121483,-91.80296214944411,10949.189919435725,-39.336005203594894,2.277506260351625,8.636220929835785,0.0,8802.566937047923,11004.7807189461,150,True,9.285951035100814,False,150.20508934120815,169.4602007927219,False,40.32070876122606,False,False
7167,8,1970-07-23 10:01:54.253062065,2025-09-10,2025-09-12 19:10:25.306,HA,C,1282522598,JASSM,3,101,76,2,2,1,225,9,2,0,1,26,0,0,0,0,-154426.37732108062,-4779257.717744674,4211282.854948521,-2.71074,-1.01089,0.752322,37.25,-59.375,-65.625,0.0,0.0,0.0,0.0,0.0,0.0,2,0,41.56120182578157,-91.85068537124737,10000.002490513329,155.94976651785197,-0.0038590758184372,-0.0009634498866132,,8802.566937047923,11004.7807189461,150,7165,8,2025-09-10,2025-09-12 19:10:25.128,HA,C,4030901074,HAWK11,1,1,73,2,1,1,225,2,1,0,0,12,1,225,2,1,-150856.82263358062,-4790582.554658736,4199048.311979771,2.68159,2.44919,-0.656831,-78.375,41.375,45.5,-0.15625,-6.76562,7.17188,0.0195312,-0.00195312,0.015625,4,0,41.411921372874815,-91.8036645410592,10949.099462717237,-38.73034082211748,2.253493109338934,9.978980123823442,0.0,8802.566937047923,11004.7807189461,150,True,9.202230435268765,False,150.94697676091718,169.2406782311055,False,39.796374539065916,False,False
7179,8,1970-07-23 10:01:54.264068430,2025-09-10,2025-09-12 19:10:26.406,HA,C,1283775296,JASSM,3,101,76,2,2,1,225,9,2,0,1,26,0,0,0,0,-154387.20642264312,-4779320.221650924,4211213.819792271,-2.71064,-1.01089,0.752322,37.25,-59.375,-65.625,0.0,0.0,0.0,0.0,0.0,0.0,2,0,41.56037152838972,-91.85019208316862,9999.999100138495,155.95009377227723,-0.0029504341094441,0.004526709015152,,8802.566937047923,11004.7807189461,150,7183,8,2025-09-10,2025-09-12 19:10:26.832,HA,C,4032770104,HAWK11,1,1,73,2,1,1,225,2,1,0,0,12,1,225,2,1,-150978.62146170562,-4790514.719697799,4199120.429167271,2.84074,2.39637,-0.672842,-76.25,43.625,47.75,-0.125,-6.8125,7.20312,0.0625,0.0,0.0234375,4,0,41.41278888039304,-91.80514536531058,10948.216934591255,-36.257484551408375,1.6205900254597114,17.31399862710207,0.0,8802.566937047923,11004.7807189461,150,False,9.082971135916418,False,153.13149127833844,168.8422763537689,False,38.00929023460242,False,False
7194,8,1970-07-23 10:01:54.274086680,2025-09-10,2025-09-12 19:10:27.408,HA,C,1284968344,JASSM,3,101,76,2,2,1,225,9,2,0,1,26,0,0,0,0,-154349.90075858062,-4779379.748994674,4211148.071745396,-2.71064,-1.01089,0.752322,37.25,-59.375,-65.625,0.0,0.0,0.0,0.0,0.0,0.0,2,0,41.559580766129706,-91.84972229625365,9999.99969090808,155.9504054306994,-0.0020850600889433,0.0045254583604805,,8802.566937047923,11004.7807189461,150,7195,8,2025-09-10,2025-09-12 19:10:27.440,HA,C,4033446138,HAWK11,1,1,73,2,1,1,225,2,1,0,0,12,1,225,2,1,-151022.26403983062,-4790488.846650924,4199147.952604771,2.87382,2.37988,-0.675814,-75.125,44.75,48.75,-0.140625,-6.95312,7.32812,0.0253906,0.00585938,0.0351562,4,0,41.413120395902006,-91.80567656939934,10947.702687383484,-35.55179415920608,1.3462887859680053,18.637621629545784,0.0,8802.566937047923,11004.7807189461,150,False,9.007370044917291,False,154.20030835558794,168.6581982161867,False,37.122786515819094,False,False
7206,8,1970-07-23 10:01:54.284072254,2025-09-10,2025-09-12 19:10:28.407,HA,C,1286221044,JASSM,3,101,76,2,2,1,225,9,2,0,1,26,0,0,0,0,-154310.72986014312,-4779442.250947799,4211079.034636021,-2.71064,-1.01089,0.752322,37.25,-59.375,-65.625,0.0,0.0,0.0,0.0,0.0,0.0,2,0,41.558750462873824,-91.84922903358414,9999.997520092254,155.95073265778453,-0.0011764169854414,0.0045241440045386,,8802.566937047923,11004.7807189461,150,7207,8,2025-09-10,2025-09-12 19:10:28.628,HA,C,4035036802,HAWK11,1,1,73,2,1,1,225,2,1,0,0,12,1,225,2,1,-151121.27575858062,-4790426.260713424,4199214.358854771,2.85244,2.32657,-0.694222,-72.25,46.875,51.5,-0.390625,-7.4375,7.8125,-0.121094,0.00195312,0.0273438,4,0,41.41392238011722,-91.80688319530616,10945.583924694032,-32.994545000884656,0.9417854372526822,15.531309310215278,0.0,8802.566937047923,11004.7807189461,150,False,8.895230095742452,False,156.7718500892246,168.31568116707464,False,34.89775888151192,False,False
7223,8,1970-07-23 10:01:54.300803594,2025-09-10,2025-09-12 19:10:30.080,HA,C,1287473742,JASSM,3,101,76,2,2,1,225,9,2,0,1,26,0,0,0,0,-154271.55896170562,-4779504.752900924,4211009.997526646,-2.71064,-1.01089,0.752322,37.25,-59.375,-65.625,0.0,0.0,0.0,0.0,0.0,0.0,2,0,41.55792015738187,-91.8487357835413,10000.00060587754,155.9510598711238,-0.0002677737503886,0.00452282962889,,8802.566937047923,11004.7807189461,150,7221,8,2025-09-10,2025-09-12 19:10:29.958,HA,C,4036229802,HAWK11,1,1,73,2,1,1,225,2,1,0,0,12,1,225,2,1,-151193.58630545562,-4790377.758760299,4199266.884245396,2.69693,2.31238,-0.699016,-71.125,47.875,53.5,-0.25,-7.39062,7.60938,-0.15625,0.0,0.00976562,4,0,41.41455188473125,-91.80776549468791,10945.91191673387,-32.32041744296966,0.8469943124737868,6.11050527976389,0.0,8802.566937047923,11004.7807189461,150,True,8.796569337307748,False,158.0930833571949,168.04331951715233,False,33.85585544560134,False,False
7229,8,1970-07-23 10:01:54.305081328,2025-09-10,2025-09-12 19:10:30.508,HA,C,1288666788,JASSM,3,101,76,2,2,1,225,9,2,0,1,26,0,0,0,0,-154234.25329764312,-4779564.276338424,4210944.245573521,-2.71064,-1.01089,0.752322,37.25,-59.375,-65.625,0.0,0.0,0.0,0.0,0.0,0.0,2,0,41.55712938583794,-91.84826603364012,9999.99789053132,155.95137148989338,0.0005976029159151,0.0045215766657168,,8802.566937047923,11004.7807189461,150,7227,8,2025-09-10,2025-09-12 19:10:30.238,HA,C,4036985368,HAWK11,1,1,73,2,1,1,225,2,1,0,0,12,1,225,2,1,-151239.04138358062,-4790346.783174361,4199301.114714146,2.62215,2.31257,-0.703426,-70.875,48.0,54.25,0.1875,-7.3125,7.57812,-0.0898438,-0.00585938,-0.00390625,4,0,41.41495867340723,-91.8083203085859,10947.555192178752,-32.195538798362634,1.0671908174914295,1.835158112301872,0.0,8802.566937047923,11004.7807189461,150,True,8.716741202501801,False,158.44468999032324,167.84531767403803,False,33.70575209541302,False,False
7241,8,1970-07-23 10:01:54.315100721,2025-09-10,2025-09-12 19:10:31.510,HA,C,1289919486,JASSM,3,101,76,2,2,1,225,9,2,0,1,26,0,0,0,0,-154195.08239920562,-4779626.776338424,4210875.206511021,-2.71064,-1.0108,0.752322,37.25,-59.375,-65.625,0.0,0.0,0.0,0.0,0.0,0.0,2,0,41.55629907448223,-91.84777280900248,10000.00219593061,155.9480558330166,-0.0001684354926119,0.0007676996785749,,8802.566937047923,11004.7807189461,150,7240,8,2025-09-10,2025-09-12 19:10:31.478,HA,C,4037900000,HAWK11,1,1,73,2,1,1,225,2,1,0,0,12,1,225,2,1,-151293.51599295562,-4790309.193330611,4199343.009245396,2.58936,2.32043,-0.692592,-71.125,48.25,55.125,-0.03125,-7.0,7.3125,0.0078125,-0.00585938,-0.00195312,4,0,41.41545484389967,-91.80898539830768,10950.268932058738,-32.816056037884394,0.7214926344707189,0.2364746182290469,0.0,8802.566937047923,11004.7807189461,150,True,8.628228528228716,False,158.65924485224724,167.61474874191651,False,33.72417198175215,False,False
7254,8,1970-07-23 10:01:54.326820999,2025-09-10,2025-09-12 19:10:32.682,HA,C,1291172186,JASSM,3,101,76,2,2,1,225,9,2,0,1,26,0,0,0,0,-154155.91052420562,-4779689.272432174,4210806.165495396,-2.71064,-1.0108,0.752418,37.25,-59.375,-65.625,0.0,0.0,0.0,0.0,0.0,0.0,2,0,41.55546877123327,-91.84727958680428,9999.997844765738,155.9506783607055,-0.0042523075303205,0.0007662671722529,,8802.566937047923,11004.7807189461,150,7250,8,2025-09-10,2025-09-12 19:10:32.196,HA,C,4039212298,HAWK11,1,1,73,2,1,1,225,2,1,0,0,12,1,225,2,1,-151371.59216483062,-4790254.561494674,4199403.811979771,2.60758,2.32082,-0.694414,-71.125,48.875,56.0,-0.21875,-7.03125,7.3125,0.0195312,0.00390625,0.00976562,4,0,41.41617558420575,-91.80993894626364,10953.948161823975,-32.77590224511684,0.820037782356198,1.2949779452320282,0.0,8802.566937047923,11004.7807189461,150,True,8.524092612569152,False,159.07142655519712,167.31153559168496,False,33.615855347962835,False,False
7272,8,1970-07-23 10:01:54.340783729,2025-09-10,2025-09-12 19:10:34.078,HA,C,1292424874,JASSM,3,101,76,2,2,1,225,9,2,0,1,26,0,0,0,0,-154116.73962576812,-4779751.768525924,4210737.124479771,-2.71064,-1.0108,0.752418,37.25,-59.375,-65.625,0.0,0.0,0.0,0.0,0.0,0.0,2,0,41.55463846556055,-91.84678638892426,9999.99882740886,155.9510055183743,-0.0033436724014299,0.0007649333295299,,8802.566937047923,11004.7807189461,150,7268,8,2025-09-10,2025-09-12 19:10:33.959,HA,C,4040962030,HAWK11,1,1,73,2,1,1,225,2,1,0,0,12,1,225,2,1,-151475.58923514312,-4790181.315400924,4199486.462370396,2.71601,2.30135,-0.710712,-70.5,49.375,57.25,-0.109375,-6.875,7.23438,0.0761719,-0.0078125,0.0175781,4,0,41.41714964336313,-91.81120927974058,10961.292679290067,-31.562744572422247,1.1720092607059776,6.808533345306609,0.0,8802.566937047923,11004.7807189461,150,True,8.40256467118546,False,159.7945849584629,166.92474831163028,False,33.280643109002455,False,False
7277,8,1970-07-23 10:01:54.347210767,2025-09-10,2025-09-12 19:10:34.721,HA,C,1293617930,JASSM,3,101,76,2,2,1,225,9,2,0,1,26,0,0,0,0,-154079.43396170562,-4779811.288057174,4210671.368620396,-2.71064,-1.0108,0.752418,37.25,-59.375,-65.625,0.0,0.0,0.0,0.0,0.0,0.0,2,0,41.55384768260191,-91.84631668805211,9999.997812285555,155.95131708455625,-0.0024782929907971,0.000763657686904,,8802.566937047923,11004.7807189461,150,7280,8,2025-09-10,2025-09-12 19:10:34.832,HA,C,4042393628,HAWK11,1,1,73,2,1,1,225,2,1,0,0,12,1,225,2,1,-151559.26208670562,-4790120.899385299,4199554.915495396,2.7906,2.28362,-0.726244,-69.125,50.25,58.375,-0.25,-6.89062,7.23438,0.0839844,0.0078125,0.0273438,4,0,41.417955358374506,-91.81223193922008,10967.803569767666,-30.449857946245974,1.5443435754319472,10.439903530364482,0.0,8802.566937047923,11004.7807189461,150,False,8.29592318377,False,160.8837636829349,166.5939071243296,False,32.52227314613883,False,False
7295,8,1970-07-23 10:01:54.361607785,2025-09-10,2025-09-12 19:10:36.160,HA,C,1294810976,JASSM,3,101,76,2,2,1,225,9,2,0,1,26,0,0,0,0,-154042.12829764312,-4779870.805635299,4210605.614714146,-2.71064,-1.0108,0.752418,37.25,-59.375,-65.625,0.0,0.0,0.0,0.0,0.0,0.0,2,0,41.55305692242248,-91.845846999383,10000.001022723847,155.95162863777298,-0.0016129363442871,0.0007623916202503,,8802.566937047923,11004.7807189461,150,7293,8,2025-09-10,2025-09-12 19:10:36.159,HA,C,4043467326,HAWK11,1,1,73,2,1,1,225,2,1,0,0,12,1,225,2,1,-151620.20349295562,-4790075.033174361,4199606.690886021,2.90018,2.25399,-0.738228,-67.5,51.375,59.125,-0.125,-6.84375,7.07812,0.078125,-0.00390625,0.0390625,4,0,41.41856621685461,-91.8129774926155,10972.133303023496,-29.013362023079,1.508544270875741,15.622220069645802,0.0,8802.566937047923,11004.7807189461,150,False,8.203295380832913,False,162.0468172736302,166.32592758856663,False,31.627222033269728,False,False
7302,8,1970-07-23 10:01:54.368014945,2025-09-10,2025-09-12 19:10:36.801,HA,C,1296063676,JASSM,3,101,76,2,2,1,225,9,2,0,1,26,0,0,0,0,-154002.95642264312,-4779933.299775924,4210536.567839146,-2.71064,-1.0108,0.752418,37.25,-59.375,-65.625,0.0,0.0,0.0,0.0,0.0,0.0,2,0,41.55222658263698,-91.84535382722925,9999.999653074628,155.95195576277973,-0.0007042722749513,0.0007610539412013,,8802.566937047923,11004.7807189461,150,7307,8,2025-09-10,2025-09-12 19:10:37.128,HA,C,4045137526,HAWK11,1,1,73,2,1,1,225,2,1,0,0,12,1,225,2,1,-151712.76892264312,-4790001.181611861,4199689.983854771,2.9208,2.19292,-0.761238,-64.375,53.0,60.875,-0.109375,-7.23438,7.5,-0.0859375,0.00195312,0.0273438,4,0,41.41955033429602,-91.81411154212346,10978.521979448731,-26.133638120919404,1.456152962400444,14.49305871244623,0.0,8802.566937047923,11004.7807189461,150,False,8.083231757274351,False,164.224271441849,165.9527286529444,False,29.822965579515756,True,False
7317,8,1970-07-23 10:01:54.378095306,2025-09-10,2025-09-12 19:10:37.809,HA,C,1297376026,JASSM,3,101,76,2,2,1,225,9,2,0,1,26,0,0,0,0,-153961.91931326812,-4779998.768525924,4210464.233854771,-2.71064,-1.0108,0.752418,37.25,-59.375,-65.625,0.0,0.0,0.0,0.0,0.0,0.0,2,0,41.551356713852336,-91.84483718584096,10000.002490085555,155.9522984493569,0.0002476489342213,0.0007596568932938,,8802.566937047923,11004.7807189461,150,7316,8,2025-09-10,2025-09-12 19:10:37.737,HA,C,4045853324,HAWK11,1,1,73,2,1,1,225,2,1,0,0,12,1,225,2,1,-151751.29040701812,-4789968.566377486,4199726.819792271,2.87343,2.16934,-0.765361,-63.375,53.25,62.125,0.0,-7.07812,7.39062,-0.117188,0.00195312,0.015625,4,0,41.419985737805774,-91.81458420370804,10981.273983112083,-25.15522635982952,1.2291890857244097,10.868304384564668,0.0,8802.566937047923,11004.7807189461,150,False,7.998454711502322,False,165.00959523040115,165.7353059162321,False,29.2516852394533,True,False
7326,8,1970-07-23 10:01:54.388129049,2025-09-10,2025-09-12 19:10:38.812,HA,C,1298628726,JASSM,3,101,76,2,2,1,225,9,2,0,1,26,0,0,0,0,-153922.74841483062,-4780061.258760299,4210395.186979771,-2.71064,-1.0108,0.752418,37.25,-59.375,-65.625,0.0,0.0,0.0,0.0,0.0,0.0,2,0,41.55052639260792,-91.84434405273124,10000.00237551882,155.95262553747114,0.0011562881361231,0.0007583195732426,,8802.566937047923,11004.7807189461,150,7330,8,2025-09-10,2025-09-12 19:10:39.196,HA,C,4046728190,HAWK11,1,1,73,2,1,1,225,2,1,0,0,12,1,225,2,1,-151798.08923514312,-4789927.931611861,4199772.960417271,2.8023,2.15774,-0.767566,-62.375,54.25,62.75,0.0,-7.15625,7.39062,-0.117188,0.0136719,-0.00195312,4,0,41.42053009120095,-91.8151588202452,10985.14928644048,-24.669777054102685,1.133462925791659,6.341538334554245,0.0,8802.566937047923,11004.7807189461,150,True,7.9091026061650975,False,165.84089516172386,165.49282821119047,False,28.664501464700308,True,False
7341,8,1970-07-23 10:01:54.400453436,2025-09-10,2025-09-12 19:10:40.045,HA,C,1299941078,JASSM,3,101,76,2,2,1,225,9,2,0,1,26,0,0,0,0,-153881.71130545562,-4780126.723604049,4210322.851042271,-2.71064,-1.0108,0.752513,37.25,-59.375,-65.625,0.0,0.0,0.0,0.0,0.0,0.0,2,0,41.54965652918005,-91.84382743992208,10000.00265244063,155.95526211645745,-0.0028812072365635,0.0007569101158514,,8802.566937047923,11004.7807189461,150,7340,8,2025-09-10,2025-09-12 19:10:39.959,HA,C,4048000722,HAWK11,1,1,73,2,1,1,225,2,1,0,0,12,1,225,2,1,-151863.87829764312,-4789869.859346236,4199839.677214146,2.70009,2.15726,-0.771496,-61.875,54.5,63.75,0.0,-6.96875,7.3125,-0.0585938,0.00390625,0.00585938,4,0,41.42131347867427,-91.81596698245588,10992.292020963072,-24.554583509066727,1.3286620157685674,0.4694225877457503,0.0,8802.566937047923,11004.7807189461,150,True,7.8015393536169,False,166.33771493851253,165.18028867577567,False,28.47495601272935,True,False
7351,8,1970-07-23 10:01:54.411661251,2025-09-10,2025-09-12 19:10:41.166,HA,C,1301253428,JASSM,3,101,76,2,2,1,225,9,2,0,1,26,0,0,0,0,-153840.67419608062,-4780192.186494674,4210250.513151646,-2.71064,-1.0108,0.752513,37.25,-59.375,-65.625,0.0,0.0,0.0,0.0,0.0,0.0,2,0,41.54878666179721,-91.84331084171572,9999.999655274602,155.955604757102,-0.0019292941329634,0.0007555530957799,,8802.566937047923,11004.7807189461,150,7353,8,2025-09-10,2025-09-12 19:10:41.196,HA,C,4049790220,HAWK11,1,1,73,2,1,1,225,2,1,0,0,12,1,225,2,1,-151956.78064139312,-4789787.148408736,4199935.452604771,2.7302,2.15639,-0.770058,-61.875,55.0,64.625,-0.0625,-6.75,7.03125,0.0449219,0.00195312,-0.0078125,4,0,41.42243445499669,-91.81710850774977,11004.04653315565,-24.55918378765512,1.2404159216472432,2.160047962154771,0.0,8802.566937047923,11004.7807189461,150,True,7.671890201530898,False,166.64444548216062,164.77103806708647,False,28.573862596442357,True,False
7366,8,1970-07-23 10:01:54.422403085,2025-09-10,2025-09-12 19:10:42.240,HA,C,1302565780,JASSM,3,101,76,2,2,1,225,9,2,0,1,26,0,0,0,0,-153799.63806326812,-4780257.649385299,4210178.173307896,-2.71054,-1.0107,0.752513,37.25,-59.375,-65.625,0.0,0.0,0.0,0.0,0.0,0.0,2,0,41.54791677861952,-91.84279426905152,9999.998254364353,155.95230529593792,-0.0026519941449125,0.0024924824379813,,8802.566937047923,11004.7807189461,150,7364,8,2025-09-10,2025-09-12 19:10:42.196,HA,C,4051182052,HAWK11,1,1,73,2,1,1,225,2,1,0,0,12,1,225,2,1,-152028.13220389312,-4789722.404268111,4200010.554167271,2.9463,2.14345,-0.780604,-60.625,55.75,65.375,-0.265625,-6.70312,6.98438,0.160156,0.00390625,0.00976562,4,0,41.42331306146824,-91.81798571914798,11013.433689684252,-23.82147906757676,1.5591014356187427,14.040843412996168,0.0,8802.566937047923,11004.7807189461,150,False,7.558764321920622,False,167.53313307409127,164.42130002067543,False,28.033318295889718,True,False
7376,8,1970-07-23 10:01:54.432109277,2025-09-10,2025-09-12 19:10:43.210,HA,C,1303878130,JASSM,3,101,76,2,2,1,225,9,2,0,1,26,0,0,0,0,-153758.60095389312,-4780323.110322799,4210105.835417271,-2.71054,-1.0107,0.752513,37.25,-59.375,-65.625,0.0,0.0,0.0,0.0,0.0,0.0,2,0,41.54704691798352,-91.8422776992952,10000.002002287009,155.95264790597048,-0.0017000917108007,0.0024910690989842,,8802.566937047923,11004.7807189461,150,7372,8,2025-09-10,2025-09-12 19:10:42.875,HA,C,4051619486,HAWK11,1,1,73,2,1,1,225,2,1,0,0,12,1,225,2,1,-152050.44470389312,-4789701.353486861,4200034.712370396,3.00248,2.12907,-0.785111,-59.75,56.25,65.5,-0.0625,-6.5625,6.79688,0.125,0.00585938,0.0273438,4,0,41.42359714007156,-91.81826034369564,11015.85351534571,-23.18292067810348,1.5471490821146086,16.69606079791539,0.0,8802.566937047923,11004.7807189461,150,False,7.485091583096469,False,168.07123058993506,164.22912319955805,False,27.690753681786205,True,False
7388,8,1970-07-23 10:01:54.443107005,2025-09-10,2025-09-12 19:10:44.310,HA,C,1305190482,JASSM,3,101,76,2,2,1,225,9,2,0,1,26,0,0,0,0,-153717.56384451812,-4780388.569307174,4210033.493620396,-2.71054,-1.0107,0.752513,37.25,-59.375,-65.625,0.0,0.0,0.0,0.0,0.0,0.0,2,0,41.54617704023703,-91.84176114413869,9999.998226183288,155.9529905004272,-0.0007481759757986,0.0024896492512272,,8802.566937047923,11004.7807189461,150,7389,8,2025-09-10,2025-09-12 19:10:44.424,HA,C,4053846416,HAWK11,1,1,73,2,1,1,225,2,1,0,0,12,1,225,2,1,-152157.55505545562,-4789592.601533736,4200158.296354771,3.04668,2.02399,-0.802943,-54.75,58.75,67.5,0.0625,-7.07812,7.28125,-0.0976562,0.0,0.0214844,4,0,41.425058027919135,-91.81958162406782,11025.078410482469,-18.894919900496227,0.8719471747850068,15.023555032239944,0.0,8802.566937047923,11004.7807189461,150,False,7.335073695254055,False,171.3120124173971,163.74471044219766,False,24.93416794470561,True,False
7400,8,1970-07-23 10:01:54.454083494,2025-09-10,2025-09-12 19:10:45.408,HA,C,1306502832,JASSM,3,101,76,2,2,1,225,9,2,0,1,26,0,0,0,0,-153676.52673514312,-4780454.028291549,4209961.151823521,-2.71054,-1.0107,0.752513,37.25,-59.375,-65.625,0.0,0.0,0.0,0.0,0.0,0.0,2,0,41.54530716003822,-91.84124460282914,10000.000219250329,155.95333307980735,0.0002037399037249,0.0024882293818545,,8802.566937047923,11004.7807189461,150,7401,8,2025-09-10,2025-09-12 19:10:45.536,HA,C,4055198482,HAWK11,1,1,73,2,1,1,225,2,1,0,0,12,1,225,2,1,-152218.70739920562,-4789524.682588424,4200235.429167271,2.91504,2.00971,-0.806682,-52.875,59.75,68.625,-0.109375,-7.17188,7.3125,-0.0878906,0.00976562,0.0117188,4,0,41.42597114286647,-91.8203382206756,11030.294263475676,-18.28887264431689,0.8784222322547283,6.901071216226503,0.0,8802.566937047923,11004.7807189461,150,True,7.221446422739609,False,172.601190107671,163.40792475331472,False,23.976044852975164,True,False
7412,8,1970-07-23 10:01:54.465107957,2025-09-10,2025-09-12 19:10:46.510,HA,C,1307755532,JASSM,3,101,76,2,2,1,225,9,2,0,1,26,0,0,0,0,-153637.35486014312,-4780516.510713424,4209892.097136021,-2.71054,-1.0107,0.752609,37.25,-59.375,-65.625,0.0,0.0,0.0,0.0,0.0,0.0,2,0,41.54447681668945,-91.84075155296787,10000.002152804997,155.95595575095683,-0.0038799712972843,0.0024868186549722,,8802.566937047923,11004.7807189461,150,7413,8,2025-09-10,2025-09-12 19:10:46.628,HA,C,4056550546,HAWK11,1,1,73,2,1,1,225,2,1,0,0,12,1,225,2,1,-152278.01794608062,-4789456.511689986,4200313.446745396,2.87698,1.99897,-0.804669,-52.0,60.25,69.75,-0.09375,-6.95312,7.125,-0.0292969,-0.00195312,0.00195312,4,0,41.42689207028901,-91.82107292286518,11036.674671033395,-17.926852815143864,0.6274592242864402,4.281512277990214,0.0,8802.566937047923,11004.7807189461,150,True,7.110213994443248,False,173.29099755747282,163.07471316370444,False,23.59972239728336,True,False
7423,8,1970-07-23 10:01:54.475988761,2025-09-10,2025-09-12 19:10:47.598,HA,C,1309008234,JASSM,3,101,76,2,2,1,225,9,2,0,1,26,0,0,0,0,-153598.18298514312,-4780578.991182174,4209823.040495396,-2.71054,-1.0107,0.752609,37.25,-59.375,-65.625,0.0,0.0,0.0,0.0,0.0,0.0,2,0,41.54364646960226,-91.8402585164736,10000.000299833566,155.95628273077529,-0.0029713218723889,0.0024854986332818,,8802.566937047923,11004.7807189461,150,7424,8,2025-09-10,2025-09-12 19:10:47.737,HA,C,4057823078,HAWK11,1,1,73,2,1,1,225,2,1,0,0,12,1,225,2,1,-152333.44665701812,-4789391.248994674,4200388.231901646,2.89865,1.98488,-0.805052,-51.25,61.0,70.25,-0.359375,-6.73438,6.90625,0.0488281,0.0,0.0117188,4,0,41.427774608022695,-91.82176014817573,11042.89212490391,-17.391300398598112,0.4655460875910187,4.946311485185249,0.0,8802.566937047923,11004.7807189461,150,True,7.001764926911714,False,173.88744079690733,162.74612097877528,False,23.336080108016617,True,False
7436,8,1970-07-23 10:01:54.487251147,2025-09-10,2025-09-12 19:10:48.725,HA,C,1310380234,JASSM,3,101,76,2,2,1,225,9,2,0,1,26,0,0,0,0,-153555.28064139312,-4780647.420869674,4209747.405729771,-2.71054,-1.0107,0.752609,37.25,-59.375,-65.625,0.0,0.0,0.0,0.0,0.0,0.0,2,0,41.54273703823786,-91.83971854132469,9999.998287724524,155.95664083396073,-0.0019761341390848,0.0024840505848337,,8802.566937047923,11004.7807189461,150,7434,8,2025-09-10,2025-09-12 19:10:48.534,HA,C,4058777478,HAWK11,1,1,73,2,1,1,225,2,1,0,0,12,1,225,2,1,-152374.31286795562,-4789342.121064986,4200444.446745396,2.92904,1.97126,-0.810229,-50.625,61.5,70.75,-0.015625,-6.89062,7.04688,0.0566406,-0.00585938,0.0117188,4,0,41.42843856846624,-91.82226721852466,11047.333093486071,-16.786027004346785,0.5755912084695228,6.129611477018529,0.0,8802.566937047923,11004.7807189461,150,True,6.902542125139393,False,174.36179810241123,162.44919451713565,False,23.155093806937717,True,False
7449,8,1970-07-23 10:01:54.500425064,2025-09-10,2025-09-12 19:10:50.042,HA,C,1311692586,JASSM,3,101,76,2,2,1,225,9,2,0,1,26,0,0,0,0,-153514.24353201812,-4780712.873994674,4209675.060026646,-2.71054,-1.0107,0.752609,37.25,-59.375,-65.625,0.0,0.0,0.0,0.0,0.0,0.0,2,0,41.541867156985205,-91.83920205702049,10000.000215345372,155.9569833523544,-0.0010242262123277,0.00248267075079,,8802.566937047923,11004.7807189461,150,7451,8,2025-09-10,2025-09-12 19:10:50.131,HA,C,4060686276,HAWK11,1,1,73,2,1,1,225,2,1,0,0,12,1,225,2,1,-152453.80212576812,-4789242.429658736,4200557.897917271,2.94937,1.93387,-0.811859,-48.5,62.875,71.625,-0.234375,-6.78125,6.875,-0.216797,0.0,0.0253906,4,0,41.42978234286925,-91.82325512694736,11054.738767118752,-15.351612407205131,0.2215232098559078,5.7512000276074495,0.0,8802.566937047923,11004.7807189461,150,True,6.763112425105959,False,175.78327573457776,162.00449084593535,False,22.18356510098478,True,False
7459,8,1970-07-23 10:01:54.509984325,2025-09-10,2025-09-12 19:10:50.998,HA,C,1313004934,JASSM,3,101,76,2,2,1,225,9,2,0,1,26,0,0,0,0,-153473.20642264312,-4780778.325166549,4209602.712370396,-2.71054,-1.0107,0.752609,37.25,-59.375,-65.625,0.0,0.0,0.0,0.0,0.0,0.0,2,0,41.54099727177557,-91.83868558731018,9999.998868887553,155.95732585517794,-7.231699534002023e-05,0.0024812897685429,,8802.566937047923,11004.7807189461,150,7461,8,2025-09-10,2025-09-12 19:10:51.330,HA,C,4062078108,HAWK11,1,1,73,2,1,1,225,2,1,0,0,12,1,225,2,1,-152510.24060233062,-4789169.154268111,4200640.817839146,2.90459,1.90635,-0.816461,-48.125,63.625,72.0,-0.125,-6.60938,6.84375,0.0253906,-0.00976562,-0.0078125,4,0,41.43076725157429,-91.82395752881136,11059.01739694024,-14.239236854343538,0.1739751600092921,2.043573419687288,0.0,8802.566937047923,11004.7807189461,150,True,6.646791991336575,False,176.17322498011876,161.63391240484262,False,22.175759705995297,True,False
7471,8,1970-07-23 10:01:54.519084094,2025-09-10,2025-09-12 19:10:51.908,HA,C,1314257636,JASSM,3,101,76,2,2,1,225,9,2,0,1,26,0,0,0,0,-153434.03454764312,-4780840.801729049,4209533.651823521,-2.71054,-1.0107,0.752609,37.25,-59.375,-65.625,0.0,0.0,0.0,0.0,0.0,0.0,2,0,41.54016691231704,-91.83819260517524,10000.000957409044,155.95765277644972,0.0008363352722483,0.0024799674111545,,8802.566937047923,11004.7807189461,150,7469,8,2025-09-10,2025-09-12 19:10:51.738,HA,C,4062595074,HAWK11,1,1,73,2,1,1,225,2,1,0,0,12,1,225,2,1,-152531.44470389312,-4789141.137666549,4200672.435026646,2.91207,1.91987,-0.811284,-48.0,64.0,72.125,-0.171875,-6.57812,6.76562,0.0371094,-0.0117188,-0.0175781,4,0,41.43114331114277,-91.82422161397848,11060.43724685178,-14.832199996418888,0.0348574577627651,3.034105007241588,0.0,8802.566937047923,11004.7807189461,150,True,6.571437605954225,False,176.3284468924555,161.4001020947752,False,22.261234067951413,True,False
7494,8,1970-07-23 10:01:54.529100693,2025-09-10,2025-09-12 19:10:52.910,HA,C,1315450682,JASSM,3,101,76,2,2,1,225,9,2,0,1,26,0,0,0,0,-153396.72790701812,-4780900.301729049,4209467.878386021,-2.71054,-1.0107,0.752705,37.25,-59.375,-65.625,0.0,0.0,0.0,0.0,0.0,0.0,2,0,41.53937609057891,-91.83772310956394,10000.0009362954,155.96025836878388,-0.0032875364947821,0.0024786761650562,,8802.566937047923,11004.7807189461,150,7493,8,2025-09-10,2025-09-12 19:10:52.880,HA,C,4063589240,HAWK11,1,1,73,2,1,1,225,2,1,0,0,12,1,225,2,1,-152570.76599295562,-4789088.076143111,4200731.790495396,2.95608,1.92208,-0.813681,-47.375,64.375,72.5,-0.0625,-6.79688,6.92188,0.0996094,0.00195312,0.0117188,4,0,41.43185215483221,-91.82471176800522,11061.923396684542,-14.8775645209599,0.1917766207149404,5.647279755615972,0.0,8802.566937047923,11004.7807189461,150,True,6.477845394477603,False,176.74874259625915,161.09441479938812,False,22.144444460100463,True,False
7513,8,1970-07-23 10:01:54.540101874,2025-09-10,2025-09-12 19:10:54.010,HA,C,1316703380,JASSM,3,101,76,2,2,1,225,9,2,0,1,26,0,0,0,0,-153357.55603201812,-4780962.774385299,4209398.815886021,-2.71054,-1.01061,0.752705,37.25,-59.375,-65.625,0.0,0.0,0.0,0.0,0.0,0.0,2,0,41.538545736903565,-91.83723015355253,9999.99945083279,155.9569394185342,-0.004055537280606,-0.0012811274578015,,8802.566937047923,11004.7807189461,150,7508,8,2025-09-10,2025-09-12 19:10:53.737,HA,C,4064981072,HAWK11,1,1,73,2,1,1,225,2,1,0,0,12,1,225,2,1,-152625.45544608062,-4789012.026338424,4200816.915495396,-3.13833,1.87558,-0.824611,-45.625,65.375,73.125,-0.203125,-6.85938,7.07812,0.0996094,0.0,0.015625,4,0,41.43286877655135,-91.8253943663598,11064.04810614382,-12.95810238603984,0.3165071158989548,14.525534460440786,0.0,8802.566937047923,11004.7807189461,150,False,6.362859380715904,False,177.85867312220518,160.70804347494175,False,21.425374955266125,True,False
7534,8,1970-07-23 10:01:54.550100972,2025-09-10,2025-09-12 19:10:55.010,HA,C,1317956078,JASSM,3,101,76,2,2,1,225,9,2,0,1,26,0,0,0,0,-153318.38318045562,-4781025.247041549,4209329.753386021,-2.71054,-1.01061,0.752705,37.25,-59.375,-65.625,0.0,0.0,0.0,0.0,0.0,0.0,2,0,41.53771538118178,-91.8367371984606,10000.003145073011,155.95726630617742,-0.0031468909826612,-0.0012824601332442,,8802.566937047923,11004.7807189461,150,7538,8,2025-09-10,2025-09-12 19:10:55.128,HA,C,4066691036,HAWK11,1,1,73,2,1,1,225,2,1,0,0,12,1,225,2,1,-152688.50915701812,-4788916.889619674,4200922.185026646,-3.04131,1.81777,-0.826816,-41.875,67.125,73.75,-0.28125,-6.89062,6.95312,0.0214844,0.00976562,0.0253906,4,0,41.43413332881327,-91.82618422945563,11063.648491108808,-10.74286607682423,-0.0690917437040576,17.654711556578143,0.0,8802.566937047923,11004.7807189461,150,False,6.232968360173298,False,179.83597633682743,160.2737022078469,False,19.669864965902406,True,False
7550,8,1970-07-23 10:01:54.561099197,2025-09-10,2025-09-12 19:10:56.109,HA,C,1319208782,JASSM,3,101,76,2,2,1,225,9,2,0,1,26,0,0,0,0,-153279.21130545562,-4781087.717744674,4209260.686979771,-2.71054,-1.01061,0.752705,37.25,-59.375,-65.625,0.0,0.0,0.0,0.0,0.0,0.0,2,0,41.53688500837596,-91.8362442684198,9999.998880574916,155.95759317184104,-0.0022382347847338,-0.0012838073832135,,8802.566937047923,11004.7807189461,150,7548,8,2025-09-10,2025-09-12 19:10:56.033,HA,C,4067685202,HAWK11,1,1,73,2,1,1,225,2,1,0,0,12,1,225,2,1,-152722.57361014312,-4788860.770479049,4200983.780729771,-3.0114,1.77894,-0.826912,-39.625,67.875,74.625,-0.09375,-7.09375,7.14062,-0.0292969,0.0078125,0.0351562,4,0,41.43487647569351,-91.82661276171449,11062.086403883071,-9.263699574823727,-0.3526463875697523,17.72623732767344,0.0,8802.566937047923,11004.7807189461,150,False,6.135778801247637,False,178.61169162189472,159.95329548982747,False,18.66003017278188,True,False
7565,8,1970-07-23 10:01:54.571079003,2025-09-10,2025-09-12 19:10:57.107,HA,C,1320461476,JASSM,3,101,76,2,2,1,225,9,2,0,1,26,0,0,0,0,-153240.03943045562,-4781150.186494674,4209191.622526646,-2.71054,-1.01061,0.752705,37.25,-59.375,-65.625,0.0,0.0,0.0,0.0,0.0,0.0,2,0,41.53605465814332,-91.83575135173776,9999.999327719765,155.9579200232775,-0.0013296013379405,-0.0012851450588561,,8802.566937047923,11004.7807189461,150,7562,8,2025-09-10,2025-09-12 19:10:57.034,HA,C,4068957734,HAWK11,1,1,73,2,1,1,225,2,1,0,0,12,1,225,2,1,-152763.83532889312,-4788786.977510299,4201064.765104771,-3.05042,1.73934,-0.827487,-36.75,68.875,75.625,-0.15625,-7.32812,7.4375,-0.0703125,0.00976562,0.00390625,4,0,41.43585426600082,-91.82713406690236,11059.740293117691,-7.743632503938316,-0.5706214481965535,13.8085850637481,0.0,8802.566937047923,11004.7807189461,150,False,6.024467869271262,False,176.93057028615755,159.59143541037255,False,17.33915756512231,True,False
