Subject_cm,Timestamp,SampleDate_cm,SampleTime_cm,Configuration_cm,Scenario_cm,DisTime_cm,MarkingTxt_cm,Application_cm,EntId_cm,Site_cm,ExerciseId_cm,ForceId_cm,Category_cm,Country_cm,Domain_cm,Kind_cm,Extra_cm,Specific_cm,Subcategory_cm,AltCategory_cm,AltCountry_cm,AltDomain_cm,AltKind_cm,ECEF_X_cm,ECEF_Y_cm,ECEF_Z_cm,OriPhi_cm,OriPsi_cm,OriTheta_cm,LinVelX_cm,LinVelY_cm,LinVelZ_cm,LinAccX_cm,LinAccY_cm,LinAccZ_cm,AngVelX_cm,AngVelY_cm,AngVelZ_cm,DrAlg_cm,Appearance_cm,Latitude_cm,Longitude_cm,Altitude_cm,Heading_cm,Pitch_cm,Roll_cm,CalibratedAirspeed_cm,CM_Altitude_Lead_cm,CM_Altitude_Wing_cm,CM_Airspeed_cm,Subject_ac,SampleDate_ac,SampleTime_ac,Configuration_ac,Scenario_ac,DisTime_ac,MarkingTxt_ac,Application_ac,EntId_ac,Site_ac,ExerciseId_ac,ForceId_ac,Category_ac,Country_ac,Domain_ac,Kind_ac,Extra_ac,Specific_ac,Subcategory_ac,AltCategory_ac,AltCountry_ac,AltDomain_ac,AltKind_ac,ECEF_X_ac,ECEF_Y_ac,ECEF_Z_ac,OriPhi_ac,OriPsi_ac,OriTheta_ac,LinVelX_ac,LinVelY_ac,LinVelZ_ac,LinAccX_ac,LinAccY_ac,LinAccZ_ac,AngVelX_ac,AngVelY_ac,AngVelZ_ac,DrAlg_ac,Appearance_ac,Latitude_ac,Longitude_ac,Altitude_ac,Heading_ac,Pitch_ac,Roll_ac,CalibratedAirspeed_ac,CM_Altitude_Lead_ac,CM_Altitude_Wing_ac,CM_Airspeed_ac,Bank_Angle_Condition,distance_nm,Distance_Condition,angle_between_vel,angle_between_pos,Cone_Condition,angle_between_pos_nose,Nose_Cone_Condition,Intercept_Criteria
8,1970-07-23 09:59:40.827525229,2025-09-10,2025-09-26 15:28:02.752,HH,C,1717506844,JASSM,3,102,76,2,2,1,225,9,2,0,1,26,0,0,0,0,-163288.33728201812,-4785310.737275924,4204116.958464146,-2.36559,-0.397301,0.382249,71.625,-29.875,-31.125,0.0,0.0,0.0,0.0,0.0,0.0,2,0,41.475071710684894,-91.95433576794812,9999.9994424515,119.85317275073672,-0.004326041146724,0.0050463296509559,,9001.267247400965,11068.098492074974,150,8,2025-09-10,2025-09-26 15:28:02.749,HH,C,1675523814,AMBUSH51,1,1,48,2,1,1,225,2,1,0,0,9,1,225,2,1,-142229.51215960126,-4794012.396198385,4194553.341867102,2.28758,2.65957,-0.451325,-80.9251,44.6525,43.446,-0.180115,-7.19707,6.77317,-0.00975487,-0.00275783,-0.00690653,4,0,41.36274133524169,-91.69936170331,8988.447088552784,-54.03510278073567,-0.4002271762477971,-6.472060720186975,178.907,9001.267247400965,11068.098492074974,150,True,13.296945478272741,False,173.37902371125344,179.06853694150277,False,6.355225089126024,True,False
8,1970-07-23 09:59:40.831046845,2025-09-10,2025-09-26 15:28:03.104,HH,C,1718759542,JASSM,3,102,76,2,2,1,225,9,2,0,1,26,0,0,0,0,-163213.17126639312,-4785342.286104049,4204084.188932896,-2.36559,-0.397301,0.382249,71.625,-29.875,-31.125,0.0,0.0,0.0,0.0,0.0,0.0,2,0,41.474678091468014,-91.95342396310473,10000.002573782367,119.85377663147536,-0.0035375929318859,0.0050450122355682,,9001.267247400965,11068.098492074974,150,8,2025-09-10,2025-09-26 15:28:03.147,HH,C,1676001014,AMBUSH51,1,1,48,2,1,1,225,2,1,0,0,9,1,225,2,1,-142261.96348471282,-4793994.466399696,4194570.592158707,2.28575,2.66254,-0.448826,-81.2969,44.5249,43.2728,-0.144808,-7.01003,6.85693,-0.0057955,0.0130734,-0.00666727,4,0,41.36295872827783,-91.6997555585402,8984.085828942087,-54.245336070877535,-0.4016688983114822,-6.501258262490165,179.334,9001.267247400965,11068.098492074974,150,True,13.227826261388012,False,173.59441962997073,179.06715255397333,False,6.159780345823284,True,False
8,1970-07-23 09:59:40.841062260,2025-09-10,2025-09-26 15:28:04.106,HH,C,1719952588,JASSM,3,102,76,2,2,1,225,9,2,0,1,26,0,0,0,0,-163141.58484061187,-4785372.331025924,4204052.977995396,-2.36559,-0.397301,0.382249,71.625,-29.875,-31.125,0.0,0.0,0.0,0.0,0.0,0.0,2,0,41.47430320610265,-91.95255559150024,10000.001339064927,119.85435174236228,-0.0027866906455679,0.0050437533889035,,9001.267247400965,11068.098492074974,150,8,2025-09-10,2025-09-26 15:28:04.115,HH,C,1677154246,AMBUSH51,1,1,48,2,1,1,225,2,1,0,0,9,1,225,2,1,-142341.02114127716,-4793951.266920102,4194612.073571164,2.27802,2.67041,-0.441295,-82.2191,44.049,43.0275,-0.160024,-7.24052,6.9625,-0.00744749,-0.00100805,-0.000631461,4,0,41.363481802835786,-91.70071490661132,8973.469726867152,-54.83732662348376,-0.4428579620981883,-6.746204184479483,179.872,9001.267247400965,11068.098492074974,150,True,13.129747296194406,False,174.14065952189358,179.0673585500649,False,5.644101695378843,True,False
8,1970-07-23 09:59:40.860311393,2025-09-10,2025-09-26 15:28:06.031,HH,C,1721264940,JASSM,3,102,76,2,2,1,225,9,2,0,1,26,0,0,0,0,-163062.83923514312,-4785405.379854049,4204018.644011021,-2.36559,-0.397301,0.382249,71.625,-29.875,-31.125,0.0,0.0,0.0,0.0,0.0,0.0,2,0,41.47389081503045,-91.95160038810846,9999.998408075358,119.85498435584353,-0.0019606892907804,0.0050423626308651,,9001.267247400965,11068.098492074974,150,8,2025-09-10,2025-09-26 15:28:05.947,HH,C,1679341410,AMBUSH51,1,1,48,2,1,1,225,2,1,0,0,9,1,225,2,1,-142493.2229335025,-4793870.837326371,4194689.868920976,2.27107,2.68741,-0.430831,-83.9582,43.1705,42.2508,0.0262285,-7.29236,6.79815,0.011798,0.00698976,-0.00748494,4,0,41.36445858030481,-91.70256091756424,8955.308381458228,-55.89345760486708,-0.2784563376761212,-6.726153452681619,181.07,9001.267247400965,11068.098492074974,150,True,12.979014024646608,False,175.22588690789695,179.066733694514,False,4.6452162368162915,True,False
8,1970-07-23 09:59:40.863044865,2025-09-10,2025-09-26 15:28:06.304,HH,C,1722517638,JASSM,3,102,76,2,2,1,225,9,2,0,1,26,0,0,0,0,-162987.67321951812,-4785436.926729049,4203985.870573521,-2.36559,-0.397301,0.382249,71.625,-29.875,-31.125,0.0,0.0,0.0,0.0,0.0,0.0,2,0,41.47349715934537,-91.9506886171591,10000.000153293864,119.85558820000016,-0.0011722341109873,0.0050410320702084,,9001.267247400965,11068.098492074974,150,8,2025-09-10,2025-09-26 15:28:06.315,HH,C,1679778842,AMBUSH51,1,1,48,2,1,1,225,2,1,0,0,9,1,225,2,1,-142523.56396569993,-4793855.423250672,4194704.822780116,2.26842,2.6919,-0.428201,-84.3257,42.9144,42.0638,-0.105049,-7.34171,6.91306,-0.00470527,0.00930962,-0.0178172,4,0,41.36464586768568,-91.70292870215332,8952.012432588393,-56.16718573268863,-0.2279933762899479,-6.769359274384625,181.192,9001.267247400965,11068.098492074974,150,True,12.911819589054726,False,175.4854912009335,179.06313923344206,False,4.403253308342733,True,False
8,1970-07-23 09:59:40.873061781,2025-09-10,2025-09-26 15:28:07.306,HH,C,1723770338,JASSM,3,102,76,2,2,1,225,9,2,0,1,26,0,0,0,0,-162912.50720389312,-4785468.471650924,4203953.097136021,-2.36559,-0.397205,0.382249,71.625,-29.875,-31.125,0.0,0.0,0.0,0.0,0.0,0.0,2,0,41.473103508040666,-91.94977685803778,10000.001066756951,119.8525541499154,-0.0039534405663717,0.0029908492527381,,9001.267247400965,11068.098492074974,150,8,2025-09-10,2025-09-26 15:28:07.181,HH,C,1680812776,AMBUSH51,1,1,48,2,1,1,225,2,1,0,0,9,1,225,2,1,-142597.0106279783,-4793818.29919718,4194740.97406932,2.26445,2.69858,-0.423377,-85.1246,42.2689,41.8507,-0.112726,-7.4917,6.96458,-0.00066475,0.00747662,-0.00514635,4,0,41.36509778615711,-91.70381894195582,8944.39852973509,-56.61113948737668,-0.1888417478076093,-6.837590056665838,181.644,9001.267247400965,11068.098492074974,150,True,12.816332913403336,False,176.03740610405262,179.05903797490893,False,3.8681146670014033,True,False
8,1970-07-23 09:59:40.894059274,2025-09-10,2025-09-26 15:28:09.405,HH,C,1726216494,JASSM,3,102,76,2,2,1,225,9,2,0,1,26,0,0,0,0,-162765.72937186187,-4785530.067354049,4203889.095182896,-2.36559,-0.397205,0.382345,71.625,-29.875,-31.125,0.0,0.0,0.0,0.0,0.0,0.0,2,0,41.47233478128522,-91.94799648485451,9999.997681463452,119.85758062019276,-0.0063346047843581,0.0029878634909138,,9001.267247400965,11068.098492074974,150,8,2025-09-10,2025-09-26 15:28:09.581,HH,C,1683675972,AMBUSH51,1,1,48,2,1,1,225,2,1,0,0,9,1,225,2,1,-142804.03829654603,-4793718.992104227,4194838.947097447,2.25632,2.72261,-0.409476,-87.2937,40.4155,40.7747,-0.12853,-7.39988,6.98156,0.0104914,-0.00339865,-0.0126968,4,0,41.36631333444136,-91.7063264755079,8927.575182906476,-58.07324649044065,0.1074603468987363,-6.744937527933803,182.707,9001.267247400965,11068.098492074974,150,True,12.589936707700597,False,177.6780543744115,179.0461521921716,False,2.348733618693617,True,False
8,1970-07-23 09:59:40.904019971,2025-09-10,2025-09-26 15:28:10.401,HH,C,1727409128,JASSM,3,102,76,2,2,1,225,9,2,0,1,26,0,0,0,0,-162694.16736014312,-4785560.098604049,4203857.890104771,-2.36559,-0.397205,0.382345,71.625,-29.875,-31.125,0.0,0.0,0.0,0.0,0.0,0.0,2,0,41.47195997080169,-91.94712847331922,10000.00011493792,119.8581554660742,-0.005583953278309,0.0029865968324021,,9001.267247400965,11068.098492074974,150,8,2025-09-10,2025-09-26 15:28:10.290,HH,C,1684511072,AMBUSH51,1,1,48,2,1,1,225,2,1,0,0,9,1,225,2,1,-142865.20065130896,-4793690.830695333,4194867.118514534,2.26472,2.72862,-0.407136,-87.7987,39.9252,40.4604,-0.139437,-7.37751,6.82396,0.0285926,0.00392088,-0.0130464,4,0,41.36666021701421,-91.70706687796324,8923.832201945655,-58.394087922006825,0.2314064859490427,-6.128137367771821,183.037,9001.267247400965,11068.098492074974,150,True,12.505711970799558,False,178.09565043613728,179.04033826812127,False,1.9892698235427286,True,False
8,1970-07-23 09:59:40.917904445,2025-09-10,2025-09-26 15:28:11.790,HH,C,1725023448,JASSM,3,102,76,2,2,1,225,9,2,0,1,26,0,0,0,0,-162837.31628592435,-4785500.026338424,4203920.310026646,-2.36559,-0.397205,0.382249,71.625,-29.875,-31.125,0.0,0.0,0.0,0.0,0.0,0.0,2,0,41.472709704168125,-91.9488648081692,9999.998151405538,119.85315816945206,-0.0031647232282162,0.0029894648851583,,9001.267247400965,11068.098492074974,150,8,2025-09-10,2025-09-26 15:28:11.914,HH,C,1686459636,AMBUSH51,1,1,48,2,1,1,225,2,1,0,0,9,1,225,2,1,-143009.6462188919,-4793626.138288689,4194932.537496492,2.30283,2.73016,-0.409846,-88.851,39.1879,40.0031,-0.0688906,-7.3881,6.94595,0.0398028,0.00141793,0.00114537,4,0,41.36746111118772,-91.70881485289674,8917.059277665874,-58.34554268148175,0.4010772306368519,-3.908876270963861,183.966,9001.267247400965,11068.098492074974,150,True,12.503602053644933,False,178.8007204783635,179.04094146269168,False,1.4454864688374178,True,False
8,1970-07-23 09:59:40.917951375,2025-09-10,2025-09-26 15:28:11.795,HH,C,1728542524,JASSM,3,102,76,2,2,1,225,9,2,0,1,26,0,0,0,0,-162626.16003592435,-4785588.635713424,4203828.235807896,-2.36559,-0.397205,0.382345,71.625,-29.875,-31.125,0.0,0.0,0.0,0.0,0.0,0.0,2,0,41.47160379140714,-91.94630358861566,10000.001455214422,119.85870174699131,-0.0048705989461139,0.0029854094264147,,9001.267247400965,11068.098492074974,150,8,2025-09-10,2025-09-26 15:28:11.914,HH,C,1686459636,AMBUSH51,1,1,48,2,1,1,225,2,1,0,0,9,1,225,2,1,-143009.6462188919,-4793626.138288689,4194932.537496492,2.30283,2.73016,-0.409846,-88.851,39.1879,40.0031,-0.0688906,-7.3881,6.94595,0.0398028,0.00141793,0.00114537,4,0,41.36746111118772,-91.70881485289674,8917.059277665874,-58.34554268148175,0.4010772306368519,-3.908876270963861,183.966,9001.267247400965,11068.098492074974,150,True,12.370868123575049,False,178.8007204783635,179.03072937552093,False,1.4523970652464129,True,False
8,1970-07-23 09:59:40.923043689,2025-09-10,2025-09-26 15:28:12.304,HH,C,1729735570,JASSM,3,102,76,2,2,1,225,9,2,0,1,26,0,0,0,0,-162554.57312186187,-4785618.674775924,4203797.019011021,-2.36559,-0.397205,0.382345,71.625,-29.875,-31.125,0.0,0.0,0.0,0.0,0.0,0.0,2,0,41.471228847582445,-91.94543529561052,10000.002555531746,119.85927677094374,-0.004119691763273,0.0029841504693358,,9001.267247400965,11068.098492074974,150,8,2025-09-10,2025-09-26 15:28:12.347,HH,C,1686976602,AMBUSH51,1,1,48,2,1,1,225,2,1,0,0,9,1,225,2,1,-143048.87007088176,-4793609.157898968,4194949.918512191,2.31565,2.7347,-0.407707,-89.0652,38.9505,39.9102,-0.111534,-7.38256,6.82502,0.0406559,-0.00401035,-0.0207675,4,0,41.36767251011703,-91.70928930987633,8915.835384978556,-58.60234583165694,0.4798975700998165,-3.0732534590935017,184.174,9001.267247400965,11068.098492074974,150,True,12.3010518282497,False,178.97904652172372,179.02528983305984,False,1.3200086865212575,True,False
8,1970-07-23 09:59:40.933045493,2025-09-10,2025-09-26 15:28:13.304,HH,C,1730928616,JASSM,3,102,76,2,2,1,225,9,2,0,1,26,0,0,0,0,-162482.98620779935,-4785648.711885299,4203765.800261021,-2.36559,-0.397205,0.382345,71.625,-29.875,-31.125,0.0,0.0,0.0,0.0,0.0,0.0,2,0,41.470853895642406,-91.94456701340486,9999.998211541231,119.85985178347032,-0.0033687842816936,0.0029828898550191,,9001.267247400965,11068.098492074974,150,8,2025-09-10,2025-09-26 15:28:13.314,HH,C,1688129834,AMBUSH51,1,1,48,2,1,1,225,2,1,0,0,9,1,225,2,1,-143135.19409820123,-4793571.736239101,4194988.211034084,2.31439,2.74841,-0.398063,-89.4497,38.4371,39.978,-0.210538,-7.25203,6.91943,-0.0159467,0.00600148,-0.00850443,4,0,41.36813832730246,-91.71033352615008,8913.107215947573,-59.50594245524627,0.5915877019978899,-2.8459173873325807,183.77,9001.267247400965,11068.098492074974,150,True,12.201417409676754,False,179.2629969318023,179.01745458925376,False,1.0142014783472393,True,False
8,1970-07-23 09:59:40.947511324,2025-09-10,2025-09-26 15:28:14.751,HH,C,1732121662,JASSM,3,102,76,2,2,1,225,9,2,0,1,26,0,0,0,0,-162411.39929373687,-4785678.750947799,4203734.581511021,-2.36559,-0.397205,0.382345,71.625,-29.875,-31.125,0.0,0.0,0.0,0.0,0.0,0.0,2,0,41.47047892549025,-91.94369874041254,10000.002264068717,119.86042678562175,-0.0026178704435146,0.0029816194187255,,9001.267247400965,11068.098492074974,150,8,2025-09-10,2025-09-26 15:28:14.914,HH,C,1690038632,AMBUSH51,1,1,48,2,1,1,225,2,1,0,0,9,1,225,2,1,-143279.00204707758,-4793510.424976644,4195051.788584445,2.3246,2.74432,-0.400884,-90.0713,37.8586,39.9768,-0.171754,-7.10692,6.73517,0.00824019,-0.00017581,-0.0190426,4,0,41.36890674507035,-91.71207276122234,8910.643877146278,-59.23985027459266,0.5571401353127401,-2.349453744455884,184.54,9001.267247400965,11068.098492074974,150,True,12.065643670848361,False,179.5758772436871,179.0072827993638,False,0.7256579457921034,True,False
8,1970-07-23 09:59:40.958301164,2025-09-10,2025-09-26 15:28:15.830,HH,C,1733314708,JASSM,3,102,76,2,2,1,225,9,2,0,1,26,0,0,0,0,-162339.81237967435,-4785708.786104049,4203703.362761021,-2.36559,-0.397205,0.382345,71.625,-29.875,-31.125,0.0,0.0,0.0,0.0,0.0,0.0,2,0,41.47010397202708,-91.94283047901172,10000.000317164477,119.8610017758218,-0.0018669691709594,0.0029803685407266,,9001.267247400965,11068.098492074974,150,8,2025-09-10,2025-09-26 15:28:15.649,HH,C,1690913498,AMBUSH51,1,1,48,2,1,1,225,2,1,0,0,9,1,225,2,1,-143345.06942292102,-4793482.725962633,4195080.636377205,2.32181,2.75035,-0.394687,-90.2832,37.8453,39.679,-0.148529,-7.19631,6.71731,-0.00983809,0.00770756,-0.00164887,4,0,41.36925453839508,-91.71287163669398,8909.887498194828,-59.71625896373617,0.5277955225277845,-2.3797376064448,184.333,9001.267247400965,11068.098492074974,150,True,11.979104583288796,False,179.76996477483766,179.0002859100928,False,0.8522054312790341,True,False
8,1970-07-23 09:59:40.963020370,2025-09-10,2025-09-26 15:28:16.302,HH,C,1734448104,JASSM,3,102,76,2,2,1,225,9,2,0,1,26,0,0,0,0,-162271.80456717435,-4785737.321260299,4203673.702604771,-2.36559,-0.397205,0.382345,71.625,-29.875,-31.125,0.0,0.0,0.0,0.0,0.0,0.0,2,0,41.4697477339184,-91.94200563631644,10000.001006419592,119.86154800882152,-0.0011535974982753,0.0029791587915535,,9001.267247400965,11068.098492074974,150,8,2025-09-10,2025-09-26 15:28:16.380,HH,C,1691788364,AMBUSH51,1,1,48,2,1,1,225,2,1,0,0,9,1,225,2,1,-143410.75573842658,-4793455.52718793,4195109.688669637,2.31214,2.74863,-0.395149,-90.477,35.5134,41.7302,-0.152089,-7.1627,6.67422,-0.0133689,-0.00205459,0.00501527,4,0,41.3696008009427,-91.7136657912925,8910.780665266857,-59.63346904019839,0.4836206736493819,-2.970871808564708,184.406,9001.267247400965,11068.098492074974,150,True,11.895043681024976,False,178.22278120903977,178.99463770896418,False,0.878019169784899,True,False
8,1970-07-23 09:59:40.977548682,2025-09-10,2025-09-26 15:28:17.754,HH,C,1735641150,JASSM,3,102,76,2,2,1,225,9,2,0,1,26,0,0,0,0,-162200.21765311187,-4785767.354463424,4203642.481901646,-2.36559,-0.397109,0.382345,71.625,-29.875,-31.125,0.0,0.0,0.0,0.0,0.0,0.0,2,0,41.4693727660907,-91.94113739521896,9999.997033140087,119.85848536424687,-0.0039723445742746,0.0009285567660747,,9001.267247400965,11068.098492074974,150,8,2025-09-10,2025-09-26 15:28:17.780,HH,C,1693458562,AMBUSH51,1,1,48,2,1,1,225,2,1,0,0,9,1,225,2,1,-143537.43163238585,-4793402.828643279,4195164.316758172,2.32637,2.75629,-0.394985,-90.8741,37.0902,39.6239,-0.116956,-7.28798,6.75373,0.00931378,-0.00224808,-0.00907451,4,0,41.37026056266844,-91.71519742791617,8908.872871646468,-59.92931200869022,0.7628264852148262,-1.9902277276621936,184.687,9001.267247400965,11068.098492074974,150,True,11.770616452539953,False,179.57307399581182,178.98326344026933,False,0.8217714180364747,True,False
8,1970-07-23 09:59:40.983021007,2025-09-10,2025-09-26 15:28:18.302,HH,C,1736834198,JASSM,3,102,76,2,2,1,225,9,2,0,1,26,0,0,0,0,-162128.63025076812,-4785797.389619674,4203611.261198521,-2.36559,-0.397109,0.382345,71.625,-29.875,-31.125,0.0,0.0,0.0,0.0,0.0,0.0,2,0,41.4689977801504,-91.9402691574966,10000.00141579821,119.85906032623916,-0.0032214329353918,0.000927248971578,,9001.267247400965,11068.098492074974,150,8,2025-09-10,2025-09-26 15:28:18.280,HH,C,1694055062,AMBUSH51,1,1,48,2,1,1,225,2,1,0,0,9,1,225,2,1,-143582.72763508727,-4793384.391883842,4195183.785057833,2.32504,2.75673,-0.395509,-90.9502,36.9361,39.5312,-0.158229,-7.06048,6.70623,0.00335496,-0.0109158,-0.010119,4,0,41.37049361125626,-91.71574496334053,8909.053161928397,-59.92521008520976,0.8011110725720594,-2.056568658520956,184.76,9001.267247400965,11068.098492074974,150,True,11.697305028910554,False,179.49390523593928,178.9769922277246,False,0.8861251324552623,True,False
8,1970-07-23 09:59:40.992039676,2025-09-10,2025-09-26 15:28:19.203,HH,C,1737967644,JASSM,3,102,76,2,2,1,225,9,2,0,1,26,0,0,0,0,-162060.61950858062,-4785825.922822799,4203581.599089146,-2.36559,-0.397109,0.382345,71.625,-29.875,-31.125,0.0,0.0,0.0,0.0,0.0,0.0,2,0,41.46864152266088,-91.93944430860152,10000.00290233025,119.85960655144189,-0.0025080384800544,0.0009260058054021,,9001.267247400965,11068.098492074974,150,8,2025-09-10,2025-09-26 15:28:19.080,HH,C,1695009460,AMBUSH51,1,1,48,2,1,1,225,2,1,0,0,9,1,225,2,1,-143655.55953498904,-4793354.678516265,4195215.197430869,2.33845,2.75224,-0.395124,-91.1251,36.9791,39.39,-0.191016,-6.93553,6.66573,0.0124804,-0.00593906,0.00394585,4,0,41.37086947238191,-91.71662538384352,8909.413495985096,-59.772473848890456,0.6192219061968202,-1.385097854202706,184.846,9001.267247400965,11068.098492074974,150,True,11.60899689168165,False,179.4855191478303,178.96951777367235,False,1.000961220209027,True,False
8,1970-07-23 09:59:41.003039952,2025-09-10,2025-09-26 15:28:20.303,HH,C,1739220364,JASSM,3,102,76,2,2,1,225,9,2,0,1,26,0,0,0,0,-161985.45202811187,-4785857.456025924,4203548.813932896,-2.36559,-0.397109,0.382441,71.625,-29.875,-31.125,0.0,0.0,0.0,0.0,0.0,0.0,2,0,41.46824777297973,-91.9385326727798,9999.998362930046,119.86405777893197,-0.0056402259258089,0.0009243873499315,,9001.267247400965,11068.098492074974,150,8,2025-09-10,2025-09-26 15:28:20.380,HH,C,1696560358,AMBUSH51,1,1,48,2,1,1,225,2,1,0,0,9,1,225,2,1,-143773.84566491813,-4793306.434852248,4195265.678233737,2.36535,2.74895,-0.391022,-91.2025,37.3537,39.0387,-0.0628079,-6.70832,6.25898,0.0105746,-0.0114818,0.0108472,4,0,41.37147619145448,-91.71805528946923,8908.878210276078,-59.81453825081558,0.3310136457477682,0.0834814939502563,184.919,9001.267247400965,11068.098492074974,150,True,11.48787156895314,False,179.57886431014174,178.95790370603757,False,1.2211296880240325,True,False
8,1970-07-23 09:59:41.013038685,2025-09-10,2025-09-26 15:28:21.303,HH,C,1740413336,JASSM,3,102,76,2,2,1,225,9,2,0,1,26,0,0,0,0,-161913.86902029935,-4785887.487275924,4203517.593229771,-2.36559,-0.397109,0.382441,71.625,-29.875,-31.125,0.0,0.0,0.0,0.0,0.0,0.0,2,0,41.46787278968777,-91.9376645192077,10000.004307044625,119.86463267245917,-0.0048893603744789,0.0009231291058955,,9001.267247400965,11068.098492074974,150,8,2025-09-10,2025-09-26 15:28:21.380,HH,C,1697753358,AMBUSH51,1,1,48,2,1,1,225,2,1,0,0,9,1,225,2,1,-143865.08464572244,-4793268.792472175,4195304.627300481,2.38244,2.74443,-0.392686,-91.278,36.4668,40.1752,-0.121935,-6.83507,6.39341,0.0152518,0.00785737,0.00436197,4,0,41.37194679906142,-91.71915840712684,8907.437770120348,-59.57773428175401,0.2320878946367967,0.9648934929672852,185.567,9001.267247400965,11068.098492074974,150,True,11.38580395344934,False,179.1149319101553,178.9474759919718,False,0.7451746919977424,True,False
8,1970-07-23 09:59:41.023024441,2025-09-10,2025-09-26 15:28:22.302,HH,C,1741606382,JASSM,3,102,76,2,2,1,225,9,2,0,1,26,0,0,0,0,-161842.28210623687,-4785917.516572799,4203486.368620396,-2.36559,-0.397109,0.382441,71.625,-29.875,-31.125,0.0,0.0,0.0,0.0,0.0,0.0,2,0,41.46749778589695,-91.93679632971931,10000.000238628438,119.86520758549548,-0.0041384580009783,0.0009218758945457,,9001.267247400965,11068.098492074974,150,8,2025-09-10,2025-09-26 15:28:22.547,HH,C,1699145190,AMBUSH51,1,1,48,2,1,1,225,2,1,0,0,9,1,225,2,1,-143971.5218828642,-4793223.977786167,4195349.661904762,2.42135,2.73269,-0.39618,-91.1137,38.5573,39.016,-0.0678542,-6.97424,6.54327,0.0434626,-0.0135207,0.00381685,4,0,41.37249843041221,-91.72044562193518,8902.67228685162,-58.9943045717772,-0.0577115580638832,2.9367389654329803,186.08,9001.267247400965,11068.098492074974,150,True,11.274134471864539,False,179.5689873656934,178.93368949867113,False,1.4800626547182607,True,False
8,1970-07-23 09:59:41.032018389,2025-09-10,2025-09-26 15:28:23.201,HH,C,1742739776,JASSM,3,102,76,2,2,1,225,9,2,0,1,26,0,0,0,0,-161774.27527029935,-4785946.045869674,4203456.704557896,-2.36549,-0.397109,0.382441,71.625,-29.875,-31.125,0.0,0.0,0.0,0.0,0.0,0.0,2,0,41.46714151272162,-91.93597156713884,10000.001880988964,119.86575373737736,-0.0034250992934226,0.0064121426712158,,9001.267247400965,11068.098492074974,150,8,2025-09-10,2025-09-26 15:28:23.047,HH,C,1699741688,AMBUSH51,1,1,48,2,1,1,225,2,1,0,0,9,1,225,2,1,-144017.06376200312,-4793204.656641109,4195369.260964364,2.43861,2.73222,-0.396465,-91.0289,38.8448,39.2588,-0.174553,-7.171,6.73699,0.0294768,0.000924824,0.000895696,4,0,41.3727375518137,-91.72099644875806,8900.9915631662,-58.96545201908719,-0.0628700648618779,3.9152908978597063,186.202,9001.267247400965,11068.098492074974,150,True,11.202759352088577,False,179.5138449197362,178.9260868393098,False,1.4671507657935805,True,False
8,1970-07-23 09:59:41.043039807,2025-09-10,2025-09-26 15:28:24.303,HH,C,1744052126,JASSM,3,102,76,2,2,1,225,9,2,0,1,26,0,0,0,0,-161695.52819998687,-4785979.077119674,4203422.356901646,-2.36549,-0.397109,0.382441,71.625,-29.875,-31.125,0.0,0.0,0.0,0.0,0.0,0.0,2,0,41.46672899624246,-91.93501656359145,10000.00152689082,119.86638612907493,-0.0025990965238846,0.0064107723379839,,9001.267247400965,11068.098492074974,150,8,2025-09-10,2025-09-26 15:28:24.314,HH,C,1701252820,AMBUSH51,1,1,48,2,1,1,225,2,1,0,0,9,1,225,2,1,-144132.29131433862,-4793154.320130205,4195419.641723477,2.45216,2.73127,-0.395096,-90.7026,39.7282,40.0464,-0.137737,-7.25341,6.78702,-0.00922224,0.00144705,0.00197969,4,0,41.37335653218288,-91.72239066000512,8894.89241611667,-58.98524488532094,-0.1527070968242012,4.670862338268129,186.276,9001.267247400965,11068.098492074974,150,True,11.080393904730869,False,179.0463557142043,178.91213085993226,False,1.5733363420810165,True,False
8,1970-07-23 09:59:41.054018911,2025-09-10,2025-09-26 15:28:25.401,HH,C,1745304826,JASSM,3,102,76,2,2,1,225,9,2,0,1,26,0,0,0,0,-161620.36120779935,-4786010.606416549,4203389.567839146,-2.36549,-0.397109,0.382441,71.625,-29.875,-31.125,0.0,0.0,0.0,0.0,0.0,0.0,2,0,41.46633520816634,-91.93410498876692,9999.998210306803,119.86698975797786,-0.0018106371619137,0.0064094482684671,,9001.267247400965,11068.098492074974,150,8,2025-09-10,2025-09-26 15:28:25.514,HH,C,1702684418,AMBUSH51,1,1,48,2,1,1,225,2,1,0,0,9,1,225,2,1,-144240.29898817564,-4793106.33533336,4195467.711082166,2.46292,2.72203,-0.404825,-90.4003,40.3885,40.8527,-0.292811,-7.35524,6.85089,0.00103718,-0.00158229,-0.00601396,4,0,41.373947193287,-91.72369782642971,8889.04290153274,-58.24802684348941,-0.0902345861489927,5.079512583667935,186.679,9001.267247400965,11068.098492074974,150,True,10.964513341318334,False,178.55683865381644,178.89963117047532,False,1.7812168591847852,True,False
8,1970-07-23 09:59:41.064024234,2025-09-10,2025-09-26 15:28:26.402,HH,C,1746557946,JASSM,3,102,76,2,2,1,225,9,2,0,1,26,0,0,0,0,-161545.16931326812,-4786042.145479049,4203356.769011021,-2.36549,-0.397013,0.382441,71.625,-29.875,-31.125,0.0,0.0,0.0,0.0,0.0,0.0,2,0,41.46594129382468,-91.93319312325436,9999.999574520254,119.8639562303508,-0.0045915643392919,0.0043583347755498,,9001.267247400965,11068.098492074974,150,8,2025-09-10,2025-09-26 15:28:26.417,HH,C,1703758118,AMBUSH51,1,1,48,2,1,1,225,2,1,0,0,9,1,225,2,1,-144321.3830663496,-4793069.862251672,4195504.78945861,2.4658,2.72506,-0.40782,-90.1605,39.5318,42.5038,-0.219235,-7.55507,6.88105,0.00329254,-0.000169568,-0.00537106,4,0,41.374399978218406,-91.72467932688484,8885.700532556006,-58.2440440465962,0.1447330120214016,5.3130703340652685,186.874,9001.267247400965,11068.098492074974,150,True,10.865432179990208,False,178.22349153908985,178.8906355528087,False,1.4382895380738614,True,False
8,1970-07-23 09:59:41.086039842,2025-09-10,2025-09-26 15:28:28.603,HH,C,1749182228,JASSM,3,102,76,2,2,1,225,9,2,0,1,26,0,0,0,0,-161387.70251639312,-4786108.192354049,4203288.077604771,-2.36549,-0.397013,0.382441,71.625,-29.875,-31.125,0.0,0.0,0.0,0.0,0.0,0.0,2,0,41.465116320517694,-91.93128353198156,10000.00091081236,119.86522070331284,-0.0029398318708018,0.0043554634228487,,9001.267247400965,11068.098492074974,150,8,2025-09-10,2025-09-26 15:28:28.714,HH,C,1706502014,AMBUSH51,1,1,48,2,1,1,225,2,1,0,0,9,1,225,2,1,-144527.77279015482,-4792975.750555772,4195602.367418809,2.43467,2.7264,-0.427663,-89.4364,40.798,43.5453,-0.344364,-7.67126,7.17722,-0.017039,0.00666935,-2.18462e-05,4,0,41.37558163320783,-91.72717813930277,8881.018023415298,-57.50572065076219,1.0130190472260847,3.56806721996542,187.155,9001.267247400965,11068.098492074974,150,True,10.633655050650498,False,177.32552601852993,178.87496961056596,False,2.385915834107057,True,False
8,1970-07-23 09:59:41.097041637,2025-09-10,2025-09-26 15:28:29.704,HH,C,1750494578,JASSM,3,102,76,2,2,1,225,9,2,0,1,26,0,0,0,0,-161308.95642264312,-4786141.219697799,4203253.724089146,-2.36549,-0.397013,0.382441,71.625,-29.875,-31.125,0.0,0.0,0.0,0.0,0.0,0.0,2,0,41.46470374852908,-91.93032860111929,9999.99968172013,119.86585302157738,-0.0021138293221385,0.0043540212748766,,9001.267247400965,11068.098492074974,150,8,2025-09-10,2025-09-26 15:28:29.514,HH,C,1707456414,AMBUSH51,1,1,48,2,1,1,225,2,1,0,0,9,1,225,2,1,-144599.31894930545,-4792943.150634194,4195637.259498835,2.42007,2.72577,-0.433663,-89.284,40.6655,44.0752,-0.285927,-7.57825,7.17345,-0.00598483,0.00927425,0.00427666,4,0,41.37599830298763,-91.72804437925832,8881.77427125437,-57.24341020855091,1.237782152535717,2.721790144523698,187.192,9001.267247400965,11068.098492074974,150,True,10.537904234062067,False,177.1099021303392,178.8702775062128,False,2.5085997834887475,True,False
8,1970-07-23 09:59:41.103501045,2025-09-10,2025-09-26 15:28:30.350,HH,C,1747869876,JASSM,3,102,76,2,2,1,225,9,2,0,1,26,0,0,0,0,-161466.44861014312,-4786075.165010299,4203322.429167271,-2.36549,-0.397013,0.382441,71.625,-29.875,-31.125,0.0,0.0,0.0,0.0,0.0,0.0,2,0,41.46552887137764,-91.93223847494984,10000.002250257765,119.8645883718593,-0.0037658278009458,0.0043568941137735,,9001.267247400965,11068.098492074974,150,8,2025-09-10,2025-09-26 15:28:30.280,HH,C,1708371046,AMBUSH51,1,1,48,2,1,1,225,2,1,0,0,9,1,225,2,1,-144667.66535163272,-4792912.147494323,4195671.030068377,2.41365,2.72593,-0.441106,-89.0925,40.3032,44.6221,-0.181306,-7.65113,7.03509,-0.00632813,0.0138079,0.0185828,4,0,41.376398471058,-91.72887183861368,8883.79380718831,-56.95315857294099,1.550671586299498,2.364725790950295,187.241,9001.267247400965,11068.098492074974,150,True,10.592685758729887,False,176.90261258457002,178.88239248697533,False,2.6034592276789033,True,False
8,1970-07-23 09:59:41.108017350,2025-09-10,2025-09-26 15:28:30.801,HH,C,1751807226,JASSM,3,102,76,2,2,1,225,9,2,0,1,26,0,0,0,0,-161230.19226248687,-4786174.252900924,4203219.362761021,-2.36549,-0.397013,0.382536,71.625,-29.875,-31.125,0.0,0.0,0.0,0.0,0.0,0.0,2,0,41.46429108462394,-91.92937346397356,9999.998736103802,119.87033314785072,-0.0052081541066542,0.0043523696687012,,9001.267247400965,11068.098492074974,150,8,2025-09-10,2025-09-26 15:28:30.714,HH,C,1708888012,AMBUSH51,1,1,48,2,1,1,225,2,1,0,0,9,1,225,2,1,-144706.83952857263,-4792894.351336079,4195690.65064949,2.41259,2.72819,-0.440879,-88.9907,40.2133,44.9006,-0.318306,-7.63844,7.11076,-0.00146786,0.00376484,0.00153444,4,0,41.376629772782415,-91.72934612823111,8885.461905032793,-57.04694950885428,1.6234879443781016,2.3566345738889307,187.155,9001.267247400965,11068.098492074974,150,True,10.41873262706115,False,176.77092195127148,178.868207557348,False,2.696838565637928,True,False
8,1970-07-23 09:59:41.119039688,2025-09-10,2025-09-26 15:28:31.903,HH,C,1753119280,JASSM,3,102,76,2,2,1,225,9,2,0,1,26,0,0,0,0,-161151.46374686187,-4786207.270479049,4203185.015104771,-2.36549,-0.397013,0.382536,71.625,-29.875,-31.125,0.0,0.0,0.0,0.0,0.0,0.0,2,0,41.46387859087255,-91.92841877144824,9999.996402193468,119.87096529804646,-0.0043823373768975,0.0043509846500908,,9001.267247400965,11068.098492074974,150,8,2025-09-10,2025-09-26 15:28:31.914,HH,C,1710319610,AMBUSH51,1,1,48,2,1,1,225,2,1,0,0,9,1,225,2,1,-144812.99681800604,-4792846.070298021,4195744.661498561,2.40024,2.7274,-0.443936,-88.774,40.1287,45.5574,-0.232243,-7.52087,7.19505,-0.0113944,0.00983185,-0.000367225,4,0,41.37726257578898,-91.73063143240265,8891.676036709356,-56.89640411114381,1.721934315896411,1.634347173294917,187.033,9001.267247400965,11068.098492074974,150,True,10.300181105220444,False,176.43977595935772,178.86885877328888,False,2.9777900023768322,True,False
8,1970-07-23 09:59:41.130041441,2025-09-10,2025-09-26 15:28:33.004,HH,C,1754372438,JASSM,3,102,76,2,2,1,225,9,2,0,1,26,0,0,0,0,-161076.26941092435,-4786238.805635299,4203152.210417271,-2.36549,-0.397013,0.382536,71.625,-29.875,-31.125,0.0,0.0,0.0,0.0,0.0,0.0,2,0,41.46348461552929,-91.92750694715116,9999.99998985408,119.87156905819256,-0.0035935964903039,0.0043496692752037,,9001.267247400965,11068.098492074974,150,8,2025-09-10,2025-09-26 15:28:33.180,HH,C,1711830742,AMBUSH51,1,1,48,2,1,1,225,2,1,0,0,9,1,225,2,1,-144925.12721713615,-4792795.356282382,4195802.769651615,2.39414,2.73101,-0.447016,-88.4658,39.6526,46.3197,-0.213045,-7.59864,7.03626,-0.021556,0.00327382,-0.00059609,4,0,41.377936428892006,-91.7319889800644,8901.242109971825,-56.90831085724091,1.979761276441743,1.373303452869363,186.801,9001.267247400965,11068.098492074974,150,True,10.179805134269756,False,176.06785172042538,178.87286061942567,False,3.263940631349528,True,False
8,1970-07-23 09:59:41.141035306,2025-09-10,2025-09-26 15:28:34.103,HH,C,1755684330,JASSM,3,102,76,2,2,1,225,9,2,0,1,26,0,0,0,0,-160997.55066092435,-4786271.817354049,4203117.866667271,-2.36549,-0.397013,0.382536,71.625,-29.875,-31.125,0.0,0.0,0.0,0.0,0.0,0.0,2,0,41.46307216551392,-91.92655239741153,10000.001058821766,119.87220110373508,-0.0027678865834798,0.0043482911330778,,9001.267247400965,11068.098492074974,150,8,2025-09-10,2025-09-26 15:28:33.982,HH,C,1712785142,AMBUSH51,1,1,48,2,1,1,225,2,1,0,0,9,1,225,2,1,-144996.14342084204,-4792763.691103798,4195839.818649349,2.38708,2.72919,-0.450352,-88.437,39.3694,46.6575,-0.22569,-7.59667,7.15946,-0.000843681,0.00692526,0.0208111,4,0,41.37836216505743,-91.73284861356184,8908.958014356727,-56.70802683829184,2.051983522390908,0.9309196946399168,186.679,9001.267247400965,11068.098492074974,150,True,10.084053134494745,False,175.92749232842863,178.87446309275052,False,3.3663281280801143,True,False
8,1970-07-23 09:59:41.151041025,2025-09-10,2025-09-26 15:28:35.104,HH,C,1756937030,JASSM,3,102,76,2,2,1,225,9,2,0,1,26,0,0,0,0,-160922.38366873687,-4786303.338838424,4203085.071745396,-2.36549,-0.397013,0.382536,71.625,-29.875,-31.125,0.0,0.0,0.0,0.0,0.0,0.0,2,0,41.46267831713188,-91.92564092816204,10000.002650029825,119.87280461913826,-0.0019794322529104,0.0043469745729567,,9001.267247400965,11068.098492074974,150,8,2025-09-10,2025-09-26 15:28:35.114,HH,C,1714137206,AMBUSH51,1,1,48,2,1,1,225,2,1,0,0,9,1,225,2,1,-145096.1186703422,-4792719.261813185,4195892.648267661,2.3837,2.73001,-0.456269,-88.184,39.0699,46.9212,-0.272035,-7.5128,6.9664,0.0105788,0.00939493,-0.00228345,4,0,41.3789651579571,-91.73405875340228,8921.650819855919,-56.50285994794503,2.3257900850091247,0.7653383432260416,186.202,9001.267247400965,11068.098492074974,150,True,9.971562404076368,False,175.75448666685173,178.88095962465155,False,3.5208950900805,True,False
8,1970-07-23 09:59:41.162043233,2025-09-10,2025-09-26 15:28:36.204,HH,C,1758249380,JASSM,3,102,76,2,2,1,225,9,2,0,1,26,0,0,0,0,-160843.63757498687,-4786336.360322799,4203050.712370396,-2.36549,-0.396918,0.382536,71.625,-29.875,-31.125,0.0,0.0,0.0,0.0,0.0,0.0,2,0,41.4622656935097,-91.9246860711931,10000.000019428462,119.86979978250083,-0.0047230636819733,0.0022953037637476,,9001.267247400965,11068.098492074974,150,8,2025-09-10,2025-09-26 15:28:36.113,HH,C,1715330206,AMBUSH51,1,1,48,2,1,1,225,2,1,0,0,9,1,225,2,1,-145184.12891758783,-4792680.478519088,4195939.545098502,2.38409,2.73167,-0.458476,-87.9509,38.7526,47.1674,-0.267378,-7.3332,6.968,-0.00152196,0.0121018,-0.00332791,4,0,41.37949665160382,-91.7351239624923,8934.485158720188,-56.47636136519387,2.476722962481413,0.8306386464046871,186.043,9001.267247400965,11068.098492074974,150,True,9.86461165322434,False,175.58966100570325,178.88721209128784,False,3.667477833781359,True,False
8,1970-07-23 09:59:41.173022744,2025-09-10,2025-09-26 15:28:37.302,HH,C,1759561730,JASSM,3,102,76,2,2,1,225,9,2,0,1,26,0,0,0,0,-160764.89099295562,-4786369.379854049,4203016.354948521,-2.36549,-0.396918,0.382536,71.625,-29.875,-31.125,0.0,0.0,0.0,0.0,0.0,0.0,2,0,41.46185308683396,-91.92373122127586,10000.00114545188,119.87043201160954,-0.0038970690669516,0.0022938830070516,,9001.267247400965,11068.098492074974,150,8,2025-09-10,2025-09-26 15:28:37.179,HH,C,1716602738,AMBUSH51,1,1,48,2,1,1,225,2,1,0,0,9,1,225,2,1,-145277.42902733394,-4792639.267325687,4195989.977339987,2.37837,2.7358,-0.460253,-87.5926,38.4209,47.4775,-0.145553,-7.2582,6.64883,0.00474688,0.00301998,-0.00417263,4,0,41.38006549483568,-91.7362532486259,8949.413393043716,-56.55817600090659,2.6989514564917827,0.6047194872481209,185.359,9001.267247400965,11068.098492074974,150,True,9.754044339814511,False,175.35690450333257,178.89563846683643,False,3.8890500468101066,True,False
8,1970-07-23 09:59:41.184017305,2025-09-10,2025-09-26 15:28:38.401,HH,C,1760814452,JASSM,3,102,76,2,2,1,225,9,2,0,1,26,0,0,0,0,-160689.72253592435,-4786400.899385299,4202983.556120396,-2.36549,-0.396918,0.382536,71.625,-29.875,-31.125,0.0,0.0,0.0,0.0,0.0,0.0,2,0,41.46145920159573,-91.9228197694369,10000.001608653489,119.87103550098088,-0.0031085966003822,0.0022925100393419,,9001.267247400965,11068.098492074974,150,8,2025-09-10,2025-09-26 15:28:38.213,HH,C,1717835504,AMBUSH51,1,1,48,2,1,1,225,2,1,0,0,9,1,225,2,1,-145367.59800856176,-4792599.283153582,4196038.781844569,2.37785,2.72282,-0.451362,-87.3352,38.9975,46.9582,-0.271818,-6.44888,5.85398,0.00240205,-0.0172492,-0.00544804,4,0,41.38061660159618,-91.73734470989164,8963.603506014631,-56.434669794537335,1.869133382845876,0.2520645370232935,185.151,9001.267247400965,11068.098492074974,150,True,9.647732132817229,False,175.51329489324496,178.9035351222746,False,3.8357122943127653,True,False
8,1970-07-23 09:59:41.195019796,2025-09-10,2025-09-26 15:28:39.501,HH,C,1762126780,JASSM,3,102,76,2,2,1,225,9,2,0,1,26,0,0,0,0,-160610.97741873687,-4786433.916963424,4202949.196745396,-2.36549,-0.396918,0.382536,71.625,-29.875,-31.125,0.0,0.0,0.0,0.0,0.0,0.0,2,0,41.461046577537736,-91.92186496147944,10000.002322313045,119.87166769219547,-0.0022826128478847,0.0022910807950508,,9001.267247400965,11068.098492074974,150,8,2025-09-10,2025-09-26 15:28:39.480,HH,C,1719346634,AMBUSH51,1,1,48,2,1,1,225,2,1,0,0,9,1,225,2,1,-145478.5863219212,-4792549.476196992,4196097.849763435,2.377,2.72518,-0.452811,-87.0796,39.2411,46.4737,-0.101521,-6.88355,6.39547,-0.00276615,-0.01727,0.0100337,4,0,41.38129166452334,-91.73868841872158,8977.444899737822,-56.465318666225805,2.0145685155433024,0.2618056990743177,184.834,9001.267247400965,11068.098492074974,150,True,9.525628700257059,False,175.64924408028483,178.91022189701334,False,3.7798632197601267,True,False
8,1970-07-23 09:59:41.206017185,2025-09-10,2025-09-26 15:28:40.601,HH,C,1763439132,JASSM,3,102,76,2,2,1,225,9,2,0,1,26,0,0,0,0,-160532.23083670562,-4786466.934541549,4202914.835417271,-2.36549,-0.396918,0.382632,71.625,-29.875,-31.125,0.0,0.0,0.0,0.0,0.0,0.0,2,0,41.46063393264526,-91.92091014811186,10000.003025806884,119.87614769956686,-0.0053769838222234,0.0022894174228852,,9001.267247400965,11068.098492074974,150,8,2025-09-10,2025-09-26 15:28:40.746,HH,C,1720857766,AMBUSH51,1,1,48,2,1,1,225,2,1,0,0,9,1,225,2,1,-145588.18307936523,-4792499.782411536,4196156.182996469,2.37318,2.72213,-0.452258,-86.9925,39.3726,46.3217,-0.199811,-7.06237,6.63333,-0.00566026,0.00198593,-0.00328422,4,0,41.38196132782472,-91.74001549137198,8989.876683591227,-56.37526366784461,1.883883474965228,-0.0302547756497453,184.601,9001.267247400965,11068.098492074974,150,True,9.404335053370904,False,175.68264865386027,178.9152470995294,False,3.798181212347181,True,False
8,1970-07-23 09:59:41.215037658,2025-09-10,2025-09-26 15:28:41.503,HH,C,1764572526,JASSM,3,102,76,2,2,1,225,9,2,0,1,26,0,0,0,0,-160464.22351248687,-4786495.448213424,4202885.159636021,-2.36549,-0.396918,0.382632,71.625,-29.875,-31.125,0.0,0.0,0.0,0.0,0.0,0.0,2,0,41.46027755928146,-91.92008555991744,10000.00332487205,119.8766936619702,-0.0046636315809916,0.0022882289315834,,9001.267247400965,11068.098492074974,150,8,2025-09-10,2025-09-26 15:28:41.514,HH,C,1721772398,AMBUSH51,1,1,48,2,1,1,225,2,1,0,0,9,1,225,2,1,-145654.76253195532,-4792469.648299937,4196191.535969101,2.37049,2.72312,-0.451421,-86.9266,39.5456,46.0572,-0.208389,-7.14468,6.65255,-0.00967997,0.00288683,0.00219399,4,0,41.38236724381148,-91.74082167371851,8997.385226666895,-56.44587479268062,1.885564815059363,-0.1620594966953003,184.32,9001.267247400965,11068.098492074974,150,True,9.317995662946231,False,175.76561474990737,178.91645153639908,False,3.7679392858636422,True,False
8,1970-07-23 09:59:41.225042300,2025-09-10,2025-09-26 15:28:42.504,HH,C,1765706106,JASSM,3,102,76,2,2,1,225,9,2,0,1,26,0,0,0,0,-160396.20300467435,-4786523.965791549,4202855.476042271,-2.36549,-0.396918,0.382632,71.625,-29.875,-31.125,0.0,0.0,0.0,0.0,0.0,0.0,2,0,41.459921106661966,-91.91926082155294,9999.998413758629,119.8772397199424,-0.0039501393201264,0.0022870362682817,,9001.267247400965,11068.098492074974,150,8,2025-09-10,2025-09-26 15:28:42.713,HH,C,1723203998,AMBUSH51,1,1,48,2,1,1,225,2,1,0,0,9,1,225,2,1,-145759.518937015,-4792422.289192226,4196247.135840651,2.3569,2.7264,-0.448123,-86.8967,39.316,46.035,-0.227848,-7.05153,6.61924,-0.0135956,-0.00342986,-0.00706882,4,0,41.38300541390031,-91.74209012408502,9009.285543692287,-56.69976391283515,1.8684676263143276,-0.8673859515521672,184.149,9001.267247400965,11068.098492074974,150,True,9.206676859215861,False,175.79037494723096,178.92079640703503,False,3.7451853654052716,True,False
8,1970-07-23 09:59:41.235038688,2025-09-10,2025-09-26 15:28:43.503,HH,C,1766899084,JASSM,3,102,76,2,2,1,225,9,2,0,1,26,0,0,0,0,-160324.61902029935,-4786553.977510299,4202824.237761021,-2.36549,-0.396918,0.382632,71.625,-29.875,-31.125,0.0,0.0,0.0,0.0,0.0,0.0,2,0,41.45954597537354,-91.91839288626645,9999.99796736238,119.87781437435984,-0.0031992691823847,0.0022857825717379,,9001.267247400965,11068.098492074974,150,8,2025-09-10,2025-09-26 15:28:43.613,HH,C,1724277696,AMBUSH51,1,1,48,2,1,1,225,2,1,0,0,9,1,225,2,1,-145837.7119568817,-4792387.125253022,4196288.3311234405,2.34611,2.72354,-0.44868,-86.9864,39.1893,45.8317,-0.233223,-6.99727,6.6675,-0.00693566,-0.0058163,0.000271518,4,0,41.383478578302416,-91.74303687736897,9017.968190838845,-56.57180282089016,1.789393187220153,-1.5529732542346388,183.954,9001.267247400965,11068.098492074974,150,True,9.11059762208199,False,175.9194913822487,178.9217782674883,False,3.629946143039485,True,False
8,1970-07-23 09:59:41.244036362,2025-09-10,2025-09-26 15:28:44.403,HH,C,1768032714,JASSM,3,102,76,2,2,1,225,9,2,0,1,26,0,0,0,0,-160256.59655936187,-4786582.495088424,4202794.554167271,-2.36549,-0.396918,0.382632,71.625,-29.875,-31.125,0.0,0.0,0.0,0.0,0.0,0.0,2,0,41.45918951096274,-91.91756814308586,9999.999562234008,119.87836042759776,-0.0024857618492054,0.0022845989116514,,9001.267247400965,11068.098492074974,150,8,2025-09-10,2025-09-26 15:28:44.479,HH,C,1725311628,AMBUSH51,1,1,48,2,1,1,225,2,1,0,0,9,1,225,2,1,-145912.51461261458,-4792353.805333457,4196327.414670216,2.3377,2.73126,-0.445664,-87.0855,38.9275,45.5652,-0.309161,-7.22208,6.74656,-0.00274743,-0.00785945,-0.000966436,4,0,41.38392712147547,-91.74394247643426,9026.35834964378,-56.979400699098825,1.9439600417559115,-1.856620646795082,183.831,9001.267247400965,11068.098492074974,150,True,9.019100223100551,False,176.0912640395768,178.922377703686,False,3.4563389049879563,True,False
8,1970-07-23 09:59:41.255038908,2025-09-10,2025-09-26 15:28:45.503,HH,C,1769285060,JASSM,3,102,76,2,2,1,225,9,2,0,1,26,0,0,0,0,-160181.45056326812,-4786613.998994674,4202761.759245396,-2.36549,-0.396918,0.382632,71.625,-29.875,-31.125,0.0,0.0,0.0,0.0,0.0,0.0,2,0,41.45879569163387,-91.91665704064629,9999.998784796577,119.87896365384826,-0.0016975247545286,0.0022832757283196,,9001.267247400965,11068.098492074974,150,8,2025-09-10,2025-09-26 15:28:45.713,HH,C,1726782994,AMBUSH51,1,1,48,2,1,1,225,2,1,0,0,9,1,225,2,1,-146020.42917880937,-4792306.106902271,4196383.36187222,2.32484,2.73383,-0.445529,-87.2648,38.5131,45.1588,-0.141789,-7.2394,6.64575,-0.00377524,0.00669015,0.00272454,4,0,41.38456904640422,-91.74524883086552,9038.434467976149,-57.08079887646556,2.0321531799412043,-2.53317831819421,183.587,9001.267247400965,11068.098492074974,150,True,8.901715289604306,False,176.35754929619128,178.9243259604696,False,3.178328826268417,True,False
8,1970-07-23 09:59:41.265038551,2025-09-10,2025-09-26 15:28:46.503,HH,C,1770478106,JASSM,3,102,76,2,2,1,225,9,2,0,1,26,0,0,0,0,-160109.86267264312,-4786644.010713424,4202730.519011021,-2.36549,-0.396822,0.382632,71.625,-29.875,-31.125,0.0,0.0,0.0,0.0,0.0,0.0,2,0,41.45842052823258,-91.91578908866416,10000.004567329126,119.87590149989006,-0.0045162464214383,0.0002312478762913,,9001.267247400965,11068.098492074974,150,8,2025-09-10,2025-09-26 15:28:46.479,HH,C,1727697626,AMBUSH51,1,1,48,2,1,1,225,2,1,0,0,9,1,225,2,1,-146086.79441013216,-4792277.36737294,4196418.03936183,2.32161,2.73627,-0.438258,-87.3584,35.8946,47.3326,-0.0437848,-7.13652,6.51714,-0.00615336,-0.00728104,-0.0178962,4,0,41.38496210710695,-91.74605200759969,9047.91497478268,-57.46317953805098,1.8231644315835147,-2.6711935899002333,183.343,9001.267247400965,11068.098492074974,150,True,8.813629796229897,False,175.2275812227277,178.92544239451848,False,3.9690429010542045,True,False
8,1970-07-23 09:59:41.275045193,2025-09-10,2025-09-26 15:28:47.504,HH,C,1771671152,JASSM,3,102,76,2,2,1,225,9,2,0,1,26,0,0,0,0,-160038.27429373687,-4786674.020479049,4202699.274870396,-2.36549,-0.396822,0.382632,71.625,-29.875,-31.125,0.0,0.0,0.0,0.0,0.0,0.0,2,0,41.458045343640265,-91.91492114162897,10000.000622982345,119.87647614506638,-0.0037653290761194,0.0002299423050155,,9001.267247400965,11068.098492074974,150,8,2025-09-10,2025-09-26 15:28:47.446,HH,C,1728850858,AMBUSH51,1,1,48,2,1,1,225,2,1,0,0,9,1,225,2,1,-146171.18390459157,-4792240.283019677,4196460.749800136,2.3152,2.73837,-0.440141,-87.5943,37.8678,44.7913,-0.211962,-7.32276,6.69661,0.00161558,-0.00266836,0.00631565,4,0,41.38545576574786,-91.74707353012067,9055.643443586454,-57.46629973209776,1.9772606779317627,-2.987558781522916,182.976,9001.267247400965,11068.098492074974,150,True,8.714023026673482,False,176.64133106301057,178.9233590174076,False,2.840485031658649,True,False
8,1970-07-23 09:59:41.294036056,2025-09-10,2025-09-26 15:28:49.403,HH,C,1773997594,JASSM,3,102,76,2,2,1,225,9,2,0,1,26,0,0,0,0,-159898.67761404935,-4786732.536104049,4202638.351042271,-2.3654,-0.396822,0.382632,71.625,-29.875,-31.125,0.0,0.0,0.0,0.0,0.0,0.0,2,0,41.45731375015176,-91.9132286829306,9999.999813529168,119.87759666568655,-0.0023010637406266,0.0057188956704131,,9001.267247400965,11068.098492074974,150,8,2025-09-10,2025-09-26 15:28:49.580,HH,C,1731395922,AMBUSH51,1,1,48,2,1,1,225,2,1,0,0,9,1,225,2,1,-146357.74051041834,-4792160.4919727165,4196554.815041251,2.30266,2.74881,-0.433294,-87.9153,37.2059,43.8023,-0.262753,-7.22568,6.66561,-0.00788858,-0.00192143,0.00268293,4,0,41.38653163558313,-91.74933102387942,9077.36937578048,-58.12964527335386,2.0789064591919795,-3.476416544987863,182.573,9001.267247400965,11068.098492074974,150,True,8.506054459229226,False,177.19337919571817,178.9240755662035,False,2.246654295703992,True,False
8,1970-07-23 09:59:41.299096873,2025-09-10,2025-09-26 15:28:49.909,HH,C,1772864200,JASSM,3,102,76,2,2,1,225,9,2,0,1,26,0,0,0,0,-159966.68640311187,-4786704.028291549,4202668.032682896,-2.3654,-0.396822,0.382632,71.625,-29.875,-31.125,0.0,0.0,0.0,0.0,0.0,0.0,2,0,41.45767017718183,-91.91405321121611,9999.999759461734,119.87705077495995,-0.0030144282900573,0.0057201277503362,,9001.267247400965,11068.098492074974,150,8,2025-09-10,2025-09-26 15:28:50.013,HH,C,1731912888,AMBUSH51,1,1,48,2,1,1,225,2,1,0,0,9,1,225,2,1,-146396.4481286073,-4792144.163469147,4196574.053354863,2.30034,2.74983,-0.430116,-88.0468,37.049,43.6282,-0.337743,-7.06195,6.79932,-0.0003485,-0.00205875,-0.0160528,4,0,41.386751624176256,-91.7497993449492,9081.833978085382,-58.29579605097274,1.987022902919791,-3.5906941428170787,182.487,9001.267247400965,11068.098492074974,150,True,8.523984851798902,False,177.3016400871906,178.93181960461163,False,2.1177679217962493,True,False
8,1970-07-23 09:59:41.305019909,2025-09-10,2025-09-26 15:28:50.501,HH,C,1775250292,JASSM,3,102,76,2,2,1,225,9,2,0,1,26,0,0,0,0,-159823.51062186187,-4786764.043916549,4202605.542448521,-2.3654,-0.396822,0.382728,71.625,-29.875,-31.125,0.0,0.0,0.0,0.0,0.0,0.0,2,0,41.45691978502679,-91.9123173804005,9999.996098636686,119.88204796099592,-0.0054328408789591,0.0057172868758843,,9001.267247400965,11068.098492074974,150,8,2025-09-10,2025-09-26 15:28:50.713,HH,C,1732747988,AMBUSH51,1,1,48,2,1,1,225,2,1,0,0,9,1,225,2,1,-146457.94310282922,-4792118.498818339,4196604.328248779,2.29063,2.7534,-0.425778,-88.2299,36.7945,43.2612,-0.320648,-7.10315,6.67475,-0.011074,-0.00444727,-0.00460748,4,0,41.387097520173846,-91.75054327395834,9088.9823980422,-58.60332104160874,1.9414571312878208,-4.0729660474653615,182.328,9001.267247400965,11068.098492074974,150,True,8.39460286200692,False,177.50498197060418,178.92392823504025,False,1.8743523718890027,True,False
8,1970-07-23 09:59:41.322707914,2025-09-10,2025-09-26 15:28:52.270,HH,C,1776443338,JASSM,3,102,76,2,2,1,225,9,2,0,1,26,0,0,0,0,-159751.92224295562,-4786794.051729049,4202574.298307896,-2.3654,-0.396822,0.382728,71.625,-29.875,-31.125,0.0,0.0,0.0,0.0,0.0,0.0,2,0,41.45654458577432,-91.91144947416016,10000.001746197737,119.88262256214132,-0.0046819295526978,0.0057160414150215,,9001.267247400965,11068.098492074974,150,8,2025-09-10,2025-09-26 15:28:52.413,HH,C,1734776086,AMBUSH51,1,1,48,2,1,1,225,2,1,0,0,9,1,225,2,1,-146608.28892827156,-4792056.492350094,4196677.173423029,2.28137,2.75998,-0.419796,-88.7482,36.1354,42.3466,-0.238456,-7.05258,6.67094,-0.00727896,-0.000533673,-0.0138183,4,0,41.38793084645525,-91.752361827582,9105.7476985334,-59.09027211304029,1.941719377381241,-4.465158825199333,182.377,9001.267247400965,11068.098492074974,150,True,8.253767909495599,False,177.9621909354015,178.92604877507534,False,1.2668689715516783,True,False
8,1970-07-23 09:59:41.325015804,2025-09-10,2025-09-26 15:28:52.501,HH,C,1777636386,JASSM,3,102,76,2,2,1,225,9,2,0,1,26,0,0,0,0,-159680.33435233062,-4786824.057588424,4202543.052214146,-2.3654,-0.396822,0.382728,71.625,-29.875,-31.125,0.0,0.0,0.0,0.0,0.0,0.0,2,0,41.45616937830977,-91.91058158454082,10000.0019895516,119.88319714800724,-0.0039310216605572,0.0057147920328545,,9001.267247400965,11068.098492074974,150,8,2025-09-10,2025-09-26 15:28:52.413,HH,C,1734776086,AMBUSH51,1,1,48,2,1,1,225,2,1,0,0,9,1,225,2,1,-146608.28892827156,-4792056.492350094,4196677.173423029,2.28137,2.75998,-0.419796,-88.7482,36.1354,42.3466,-0.238456,-7.05258,6.67094,-0.00727896,-0.000533673,-0.0138183,4,0,41.38793084645525,-91.752361827582,9105.7476985334,-59.09027211304029,1.941719377381241,-4.465158825199333,182.377,9001.267247400965,11068.098492074974,150,True,8.208749168008703,False,177.9621909354015,178.92008271114517,False,1.264374239791756,True,False
8,1970-07-23 09:59:41.334014328,2025-09-10,2025-09-26 15:28:53.401,HH,C,1778769780,JASSM,3,102,76,2,2,1,225,9,2,0,1,26,0,0,0,0,-159612.32556326812,-4786852.561494674,4202513.366667271,-2.3654,-0.396822,0.382728,71.625,-29.875,-31.125,0.0,0.0,0.0,0.0,0.0,0.0,2,0,41.45581292321889,-91.90975709582725,9999.997631334583,119.88374299636578,-0.0032176563188499,0.005713604496259,,9001.267247400965,11068.098492074974,150,8,2025-09-10,2025-09-26 15:28:53.279,HH,C,1735810018,AMBUSH51,1,1,48,2,1,1,225,2,1,0,0,9,1,225,2,1,-146684.6105758746,-4792025.80330057,4196713.100890933,2.2689,2.76856,-0.414252,-89.0196,35.7099,41.7391,-0.250094,-6.9527,6.62526,-0.0148024,0.00525246,-0.0131025,4,0,41.38834207726807,-91.75328472781122,9113.921965715985,-59.63390248284714,2.0350463624793127,-4.999728976720499,182.121,9001.267247400965,11068.098492074974,150,True,8.117704151840877,False,178.1867367286076,178.91806143604566,False,0.9038080030911121,True,False
8,1970-07-23 09:59:41.344035869,2025-09-10,2025-09-26 15:28:54.403,HH,C,1779903174,JASSM,3,102,76,2,2,1,225,9,2,0,1,26,0,0,0,0,-159544.31677420562,-4786881.065400924,4202483.681120396,-2.3654,-0.396822,0.382728,71.625,-29.875,-31.125,0.0,0.0,0.0,0.0,0.0,0.0,2,0,41.455456462196686,-91.90893261614144,9999.996520206829,119.88428883488844,-0.0025042909326189,0.0057124169338946,,9001.267247400965,11068.098492074974,150,8,2025-09-10,2025-09-26 15:28:54.579,HH,C,1737360916,AMBUSH51,1,1,48,2,1,1,225,2,1,0,0,9,1,225,2,1,-146801.21202996655,-4791979.700416165,4196766.858388276,2.25743,2.77367,-0.405832,-89.5605,34.9625,40.9649,-0.342862,-7.0603,6.78611,-0.0092368,-0.00533777,-0.00427458,4,0,41.38895803229461,-91.75469443604749,9125.890279661931,-60.16647722660447,1.8856389879038984,-5.557826784815069,182.377,9001.267247400965,11068.098492074974,150,True,8.001558376010014,False,178.27420809262284,178.9174377627833,False,0.6434983955109386,True,False
8,1970-07-23 09:59:41.354293706,2025-09-10,2025-09-26 15:28:55.429,HH,C,1781036568,JASSM,3,102,76,2,2,1,225,9,2,0,1,26,0,0,0,0,-159476.30798514312,-4786909.569307174,4202453.995573521,-2.3654,-0.396726,0.382728,71.625,-29.875,-31.125,0.0,0.0,0.0,0.0,0.0,0.0,2,0,41.45509999524339,-91.9081081454836,9999.998656180556,119.8811981258103,-0.0053605471306691,0.0036600136014451,,9001.267247400965,11068.098492074974,150,8,2025-09-10,2025-09-26 15:28:55.412,HH,C,1738355082,AMBUSH51,1,1,48,2,1,1,225,2,1,0,0,9,1,225,2,1,-146875.9720396867,-4791950.77843948,4196800.4526331285,2.24836,2.77863,-0.398752,-89.957,34.6304,40.1991,-0.218639,-7.14767,6.60485,-0.00178203,0.00616376,-0.0131275,4,0,41.38934326367381,-91.75559806224476,9133.243409237422,-60.63932505084098,1.7857553052621036,-5.981506581753475,182.17,9001.267247400965,11068.098492074974,150,True,7.9120413378874055,False,178.33578686449306,178.9146016952245,False,0.6931905191653502,True,False
8,1970-07-23 09:59:41.362016985,2025-09-10,2025-09-26 15:28:56.201,HH,C,1782110310,JASSM,3,102,76,2,2,1,225,9,2,0,1,26,0,0,0,0,-159411.87829764312,-4786936.571260299,4202425.872526646,-2.3654,-0.396726,0.382728,71.625,-29.875,-31.125,0.0,0.0,0.0,0.0,0.0,0.0,2,0,41.45476229539841,-91.90732707335492,9999.99957834882,119.8817152196514,-0.0046847308976765,0.0036588563939646,,9001.267247400965,11068.098492074974,150,8,2025-09-10,2025-09-26 15:28:56.279,HH,C,1739389014,AMBUSH51,1,1,48,2,1,1,225,2,1,0,0,9,1,225,2,1,-146953.98948718415,-4791920.971754456,4196834.950329054,2.24135,2.78402,-0.392145,-90.3382,34.0645,39.6788,-0.228809,-7.17576,6.85839,-0.0181875,-0.00912029,-0.0153704,4,0,41.389739255836005,-91.7565409343272,9140.62938095429,-61.109501560143634,1.722250671153099,-6.278630336960279,182.084,9001.267247400965,11068.098492074974,150,True,7.822923285469188,False,178.10103747736272,178.91185311826763,False,1.0949549566575112,True,False
8,1970-07-23 09:59:41.372016634,2025-09-10,2025-09-26 15:28:57.201,HH,C,1783243702,JASSM,3,102,76,2,2,1,225,9,2,0,1,26,0,0,0,0,-159343.86950858062,-4786965.073213424,4202396.185026646,-2.3654,-0.396726,0.382728,71.625,-29.875,-31.125,0.0,0.0,0.0,0.0,0.0,0.0,2,0,41.454405815352,-91.90650262105548,9999.99899547776,119.8822610287466,-0.0039713651941843,0.0036576218499298,,9001.267247400965,11068.098492074974,150,8,2025-09-10,2025-09-26 15:28:57.279,HH,C,1740582012,AMBUSH51,1,1,48,2,1,1,225,2,1,0,0,9,1,225,2,1,-147043.76642549882,-4791887.478561333,4196873.532649013,2.2299,2.79471,-0.382623,-90.8228,33.5885,38.6733,-0.208848,-7.09706,6.62035,-0.00620537,-0.00359215,-0.00825892,4,0,41.3901826004418,-91.75762564236994,9148.698211803172,-61.89711558172352,1.7439075067501293,-6.727138136799715,182.084,9001.267247400965,11068.098492074974,150,True,7.724608165299163,False,177.8208137120762,178.90868752868147,False,1.6446945039107626,True,False
8,1970-07-23 09:59:41.381016795,2025-09-10,2025-09-26 15:28:58.101,HH,C,1784377098,JASSM,3,102,76,2,2,1,225,9,2,0,1,26,0,0,0,0,-159275.86071951812,-4786993.575166549,4202366.497526646,-2.3654,-0.396726,0.382728,71.625,-29.875,-31.125,0.0,0.0,0.0,0.0,0.0,0.0,2,0,41.45404932937494,-91.90567817778384,10000.001659702066,119.88280682800522,-0.0032579994464317,0.003656387280126,,9001.267247400965,11068.098492074974,150,8,2025-09-10,2025-09-26 15:28:58.113,HH,C,1741576178,AMBUSH51,1,1,48,2,1,1,225,2,1,0,0,9,1,225,2,1,-147119.6595839227,-4791859.633848772,4196905.39976633,2.22025,2.79593,-0.379232,-91.3048,33.2578,37.8246,-0.13809,-6.96871,6.55281,0.000456691,-0.00120154,0.00172169,4,0,41.3905495318058,-91.75854244190992,9155.053154403691,-62.08193170523763,1.6548482772498383,-7.259330318357184,181.888,9001.267247400965,11068.098492074974,150,True,7.635123868388028,False,177.48767220935207,178.90436241145713,False,2.1615780609629613,True,False
8,1970-07-23 09:59:41.391014315,2025-09-10,2025-09-26 15:28:59.101,HH,C,1785510492,JASSM,3,102,76,2,2,1,225,9,2,0,1,26,0,0,0,0,-159207.85193045562,-4787022.075166549,4202336.808073521,-2.3654,-0.396726,0.382728,71.625,-29.875,-31.125,0.0,0.0,0.0,0.0,0.0,0.0,2,0,41.45369283592344,-91.90485374431692,9999.998528905911,119.88335261691314,-0.0025446333900072,0.0036551510558,,9001.267247400965,11068.098492074974,150,8,2025-09-10,2025-09-26 15:28:59.079,HH,C,1742729410,AMBUSH51,1,1,48,2,1,1,225,2,1,0,0,9,1,225,2,1,-147208.5962709029,-4791827.72366975,4196941.766356053,2.22549,2.80309,-0.37121,-91.7721,32.5387,37.174,-0.158774,-6.9936,6.59637,0.00621578,-0.00314274,-0.0280599,4,0,41.39096863406312,-91.75961655716746,9162.156542431503,-62.67830800976162,1.6068262999325085,-6.8259649343764135,182.047,9001.267247400965,11068.098492074974,150,True,7.53794677610767,False,176.94195551378235,178.89963040956366,False,2.769312834497631,True,False
8,1970-07-23 09:59:41.402316093,2025-09-10,2025-09-26 15:29:00.231,HH,C,1786584234,JASSM,3,102,76,2,2,1,225,9,2,0,1,26,0,0,0,0,-159143.42224295562,-4787049.075166549,4202308.681120396,-2.3654,-0.396726,0.382728,71.625,-29.875,-31.125,0.0,0.0,0.0,0.0,0.0,0.0,2,0,41.45335509918237,-91.90407270672546,9999.99830967538,119.88386967345636,-0.0018688101635087,0.0036539807007486,,9001.267247400965,11068.098492074974,150,8,2025-09-10,2025-09-26 15:29:00.279,HH,C,1744161008,AMBUSH51,1,1,48,2,1,1,225,2,1,0,0,9,1,225,2,1,-147318.15778891015,-4791789.039242828,4196985.340665628,2.21669,2.81218,-0.362092,-92.3368,32.0469,36.0115,-0.193397,-7.16969,6.54727,-0.00892471,-0.00607638,0.0013243,4,0,41.39147291422287,-91.76093955285376,9169.794964188735,-63.39286433061608,1.5915814914049835,-7.163418593972128,182.047,9001.267247400965,11068.098492074974,150,True,7.430772202743676,False,176.3494304208238,178.89347561017235,False,3.512187823046141,True,False
8,1970-07-23 09:59:41.409023373,2025-09-10,2025-09-26 15:29:00.902,HH,C,1787658094,JASSM,3,102,76,2,2,1,225,9,2,0,1,26,0,0,0,0,-159078.98571951812,-4787076.077119674,4202280.552214146,-2.3654,-0.396726,0.382824,71.625,-29.875,-31.125,0.0,0.0,0.0,0.0,0.0,0.0,2,0,41.45301733366741,-91.90329159473252,10000.001004488504,119.88823487599818,-0.0051130169272955,0.003652609039816,,9001.267247400965,11068.098492074974,150,8,2025-09-10,2025-09-26 15:29:00.712,HH,C,1744677974,AMBUSH51,1,1,48,2,1,1,225,2,1,0,0,9,1,225,2,1,-147358.84594996093,-4791774.950230936,4197001.052879889,2.2174,2.81266,-0.360124,-92.5839,31.8187,35.6208,-0.072134,-7.02343,6.64877,0.0122703,0.000533673,0.00172585,4,0,41.391655362523856,-91.7614307804663,9172.296171505172,-63.49216500185463,1.531966403332302,-7.115728893913427,182.011,9001.267247400965,11068.098492074974,150,True,7.3656429887051065,False,176.0963807149094,178.88661796387203,False,3.803444645672122,True,False
8,1970-07-23 09:59:41.418013824,2025-09-10,2025-09-26 15:29:01.801,HH,C,1788791368,JASSM,3,102,76,2,2,1,225,9,2,0,1,26,0,0,0,0,-159010.98376639312,-4787104.573213424,4202250.864714146,-2.3654,-0.396726,0.382824,71.625,-29.875,-31.125,0.0,0.0,0.0,0.0,0.0,0.0,2,0,41.45266085813073,-91.9024672706782,10000.002473429917,119.88878058138116,-0.0043997222591914,0.0036514199639221,,9001.267247400965,11068.098492074974,150,8,2025-09-10,2025-09-26 15:29:01.989,HH,C,1746189106,AMBUSH51,1,1,48,2,1,1,225,2,1,0,0,9,1,225,2,1,-147475.77173348892,-4791735.224888338,4197045.211360088,2.22912,2.81703,-0.35374,-93.1874,31.2239,34.5829,-0.119512,-7.07879,6.42251,0.019413,-0.000467093,-0.0141886,4,0,41.39216840887681,-91.76284215821316,9179.209469628946,-63.91912633265671,1.4469108513518971,-6.36770584040532,182.17,9001.267247400965,11068.098492074974,150,True,7.252518465445602,False,175.4247019990765,178.87629099425803,False,4.5715277793347,True,False
8,1970-07-23 09:59:41.428012760,2025-09-10,2025-09-26 15:29:02.801,HH,C,1789924764,JASSM,3,102,76,2,2,1,225,9,2,0,1,26,0,0,0,0,-158942.97497733062,-4787133.069307174,4202221.173307896,-2.3654,-0.396726,0.382824,71.625,-29.875,-31.125,0.0,0.0,0.0,0.0,0.0,0.0,2,0,41.4523043516681,-91.90164287392264,9999.998147014756,119.88932633103272,-0.0036863619826161,0.0036502397149503,,9001.267247400965,11068.098492074974,150,8,2025-09-10,2025-09-26 15:29:02.779,HH,C,1747143506,AMBUSH51,1,1,48,2,1,1,225,2,1,0,0,9,1,225,2,1,-147550.640790172,-4791710.454867966,4197072.504383318,2.2375,2.81948,-0.346328,-93.6296,30.9111,33.9327,-0.111017,-6.96855,6.54065,0.0101377,0.00195056,-0.00451177,4,0,41.3924863127958,-91.76374564716892,9183.14999519959,-64.31669671089095,1.247026226417041,-5.848958756927203,182.377,9001.267247400965,11068.098492074974,150,True,7.1650256395857985,False,175.00281064531316,178.86524867501808,False,5.057126424191201,True,False
