Subject_cm,Timestamp,SampleDate_cm,SampleTime_cm,Configuration_cm,Scenario_cm,DisTime_cm,MarkingTxt_cm,Application_cm,EntId_cm,Site_cm,ExerciseId_cm,ForceId_cm,Category_cm,Country_cm,Domain_cm,Kind_cm,Extra_cm,Specific_cm,Subcategory_cm,AltCategory_cm,AltCountry_cm,AltDomain_cm,AltKind_cm,ECEF_X_cm,ECEF_Y_cm,ECEF_Z_cm,OriPhi_cm,OriPsi_cm,OriTheta_cm,LinVelX_cm,LinVelY_cm,LinVelZ_cm,LinAccX_cm,LinAccY_cm,LinAccZ_cm,AngVelX_cm,AngVelY_cm,AngVelZ_cm,DrAlg_cm,Appearance_cm,Latitude_cm,Longitude_cm,Altitude_cm,Heading_cm,Pitch_cm,Roll_cm,CalibratedAirspeed_cm,CM_Altitude_Lead_cm,CM_Altitude_Wing_cm,CM_Airspeed_cm,Subject_ac,SampleDate_ac,SampleTime_ac,Configuration_ac,Scenario_ac,DisTime_ac,MarkingTxt_ac,Application_ac,EntId_ac,Site_ac,ExerciseId_ac,ForceId_ac,Category_ac,Country_ac,Domain_ac,Kind_ac,Extra_ac,Specific_ac,Subcategory_ac,AltCategory_ac,AltCountry_ac,AltDomain_ac,AltKind_ac,ECEF_X_ac,ECEF_Y_ac,ECEF_Z_ac,OriPhi_ac,OriPsi_ac,OriTheta_ac,LinVelX_ac,LinVelY_ac,LinVelZ_ac,LinAccX_ac,LinAccY_ac,LinAccZ_ac,AngVelX_ac,AngVelY_ac,AngVelZ_ac,DrAlg_ac,Appearance_ac,Latitude_ac,Longitude_ac,Altitude_ac,Heading_ac,Pitch_ac,Roll_ac,CalibratedAirspeed_ac,CM_Altitude_Lead_ac,CM_Altitude_Wing_ac,CM_Airspeed_ac,Bank_Angle_Condition,distance_nm,Distance_Condition,angle_between_vel,angle_between_pos,Cone_Condition,angle_between_pos_nose,Nose_Cone_Condition,Intercept_Criteria
8,1970-07-23 09:59:47.311081958,2025-09-10,2025-09-26 15:38:51.108,HA,C,2491734350,JASSM,3,115,76,2,2,1,225,9,2,0,1,26,0,0,0,0,-173037.50280936187,-4769765.879854049,4221241.628386021,-2.51458,-0.703426,0.607361,59.75,-50.5,-54.25,0.0,0.0,0.0,0.0,0.0,0.0,2,0,41.68108966782379,-92.07766437665934,9999.998181300747,139.82799661477358,-0.0016897236071105,0.0009627254840515,,9225.216264497592,11151.327114366952,150,8,2025-09-10,2025-09-26 15:38:51.218,HA,C,1771947904,HAWK11,1,1,73,2,1,1,225,2,1,0,0,12,1,225,2,1,-139485.87732108062,-4795288.580049361,4194193.5063157086,2.44277,2.56923,-0.558657,-81.75,44.0,47.875,-0.078125,-7.32812,6.25,0.0195312,-0.0078125,0.00195312,4,0,41.35320391909243,-91.66615606909777,11151.327114366952,-46.5550137323335,1.2117433403079036,-0.0453537696099546,183.355,9225.216264497592,11151.327114366952,150,True,26.96436323680994,False,167.37017932827766,176.8040124920719,False,9.458853187513158,True,False
8,1970-07-23 09:59:47.321080864,2025-09-10,2025-09-26 15:38:52.108,HA,C,2492987048,JASSM,3,115,76,2,2,1,225,9,2,0,1,26,0,0,0,0,-172974.79284842435,-4769819.079072799,4221184.472136021,-2.51458,-0.703426,0.607361,59.75,-50.5,-54.25,0.0,0.0,0.0,0.0,0.0,0.0,2,0,41.68040096004613,-92.0768889324386,10000.00129619292,139.8285122692466,-0.0007898738237667,0.0009609896534093,,9225.216264497592,11151.327114366952,150,8,2025-09-10,2025-09-26 15:38:52.124,HA,C,1772942070,HAWK11,1,1,73,2,1,1,225,2,1,0,0,12,1,225,2,1,-139553.83239920562,-4795251.878877486,4194233.816862584,2.46961,2.56654,-0.556164,-81.375,44.25,47.625,-0.046875,-7.14062,6.01562,0.03125,0.0,-0.0078125,4,0,41.35368260446535,-91.66698008448274,11153.22601155566,-46.54721885573991,1.0192226273193414,1.4116167563923752,182.658,9225.216264497592,11151.327114366952,150,True,26.864378120319657,False,167.49511091633366,176.8132212495865,False,9.336844995224125,True,False
8,1970-07-23 09:59:47.331081760,2025-09-10,2025-09-26 15:38:53.108,HA,C,2494180094,JASSM,3,115,76,2,2,1,225,9,2,0,1,26,0,0,0,0,-172915.06921561187,-4769869.743135299,4221130.034636021,-2.51458,-0.703426,0.607456,59.75,-50.5,-54.25,0.0,0.0,0.0,0.0,0.0,0.0,2,0,41.67974503402623,-92.0761504319894,9999.998024683942,139.83222528629986,-0.0043798217297518,0.0009592080299276,,9225.216264497592,11151.327114366952,150,8,2025-09-10,2025-09-26 15:38:52.920,HA,C,1774015768,HAWK11,1,1,73,2,1,1,225,2,1,0,0,12,1,225,2,1,-139626.62536795562,-4795211.951143111,4194276.974089146,2.57047,2.55695,-0.559232,-80.75,44.75,47.625,-0.328125,-6.9375,6.17188,0.130859,-0.00390625,0.00195312,4,0,41.354198853275015,-91.66786299013566,11153.70351659865,-46.07705960410545,0.8569984601365656,6.90749668992067,182.292,9225.216264497592,11151.327114366952,150,True,26.76350453136705,False,167.85597714614866,176.8236843059784,False,8.9807005521472,True,False
8,1970-07-23 09:59:47.341084405,2025-09-10,2025-09-26 15:38:54.108,HA,C,2495313490,JASSM,3,115,76,2,2,1,225,9,2,0,1,26,0,0,0,0,-172858.33142264312,-4769917.875947799,4221078.319792271,-2.51458,-0.703426,0.607456,59.75,-50.5,-54.25,0.0,0.0,0.0,0.0,0.0,0.0,2,0,41.67912189348763,-92.07544886550518,10000.005708996809,139.83269180167136,-0.0035656590799753,0.0009576751660162,,9225.216264497592,11151.327114366952,150,8,2025-09-10,2025-09-26 15:38:54.218,HA,C,1775606432,HAWK11,1,1,73,2,1,1,225,2,1,0,0,12,1,225,2,1,-139733.42419608062,-4795151.100557174,4194341.860807896,2.70882,2.52685,-0.578311,-79.0,46.375,48.75,-0.15625,-6.95312,6.92188,0.0390625,0.0,0.0351562,4,0,41.35498034663557,-91.66915916772726,11152.2230998754,-44.26063211728246,0.7874235570998002,13.93125350846226,182.206,9225.216264497592,11151.327114366952,150,False,26.64091651173075,False,169.2863428795171,176.84041350340067,False,7.560804883581726,True,False
8,1970-07-23 09:59:47.351083235,2025-09-10,2025-09-26 15:38:55.108,HA,C,2496506534,JASSM,3,115,76,2,2,1,225,9,2,0,1,26,0,0,0,0,-172798.60778983062,-4769968.536104049,4221023.878386021,-2.51458,-0.703426,0.607456,59.75,-50.5,-54.25,0.0,0.0,0.0,0.0,0.0,0.0,2,0,41.67846595517316,-92.0747103959997,9999.993477143831,139.8331828499866,-0.0027086518959743,0.0009560601027202,,9225.216264497592,11151.327114366952,150,8,2025-09-10,2025-09-26 15:38:55.624,HA,C,1777197098,HAWK11,1,1,73,2,1,1,225,2,1,0,0,12,1,225,2,1,-139836.96130545562,-4795088.013643111,4194408.434050083,2.68217,2.4816,-0.600937,-77.25,48.125,50.75,0.0625,-6.98438,7.17188,-0.0625,0.0078125,0.0273438,4,0,41.35578707511187,-91.67041721446644,11148.66944409215,-41.76529537215232,0.4823532381850517,10.989976001397048,183.355,9225.216264497592,11151.327114366952,150,False,26.515830895434544,False,171.02288378426695,176.85208819233085,False,5.836095535000352,True,False
8,1970-07-23 09:59:47.361082839,2025-09-10,2025-09-26 15:38:56.108,HA,C,2497699660,JASSM,3,115,76,2,2,1,225,9,2,0,1,26,0,0,0,0,-172738.87976248687,-4770019.204072799,4220969.436979771,-2.51448,-0.703426,0.607456,59.75,-50.5,-54.25,0.0,0.0,0.0,0.0,0.0,0.0,2,0,41.67780996627074,-92.07397188538026,10000.00466773658,139.83367391930153,-0.0018515826072684,0.0064459196093844,,9225.216264497592,11151.327114366952,150,8,2025-09-10,2025-09-26 15:38:56.016,HA,C,1777714064,HAWK11,1,1,73,2,1,1,225,2,1,0,0,12,1,225,2,1,-139870.89880545562,-4795066.782197799,4194430.967253208,2.63883,2.47508,-0.606306,-76.875,48.5,51.375,-0.046875,-7.17188,7.40625,-0.128906,0.0078125,0.0195312,4,0,41.356059595721455,-91.67082977766708,11147.689030464931,-41.3346080456063,0.5417900413280873,8.298941343584314,183.648,9225.216264497592,11151.327114366952,150,True,26.440033384693717,False,171.45374382109816,176.85099083060322,False,5.406621592962426,True,False
8,1970-07-23 09:59:47.371082411,2025-09-10,2025-09-26 15:38:57.108,HA,C,2498952280,JASSM,3,115,76,2,2,1,225,9,2,0,1,26,0,0,0,0,-172676.17370779935,-4770072.391572799,4220912.276823521,-2.51448,-0.70333,0.607456,59.75,-50.5,-54.25,0.0,0.0,0.0,0.0,0.0,0.0,2,0,41.67712127616683,-92.07319657184796,9999.995482906555,139.83053812174168,-0.0035974300729211,0.0033099507482935,,9225.216264497592,11151.327114366952,150,8,2025-09-10,2025-09-26 15:38:57.123,HA,C,1778827530,HAWK11,1,1,73,2,1,1,225,2,1,0,0,12,1,225,2,1,-139942.71911795562,-4795020.942354049,4194479.845182896,2.54996,2.46722,-0.609757,-76.5,49.125,52.5,-0.046875,-7.125,7.23438,-0.0878906,0.00195312,-0.00585938,4,0,41.35664976638613,-91.6717031936057,11145.964824790704,-40.92087129134711,0.4782596660587243,2.953268169017826,184.662,9225.216264497592,11151.327114366952,150,True,26.333654193538205,False,172.0978892335831,176.85423717482868,False,4.773347928954989,True,False
8,1970-07-23 09:59:47.381081683,2025-09-10,2025-09-26 15:38:58.108,HA,C,2500145328,JASSM,3,115,76,2,2,1,225,9,2,0,1,26,0,0,0,0,-172616.44958670562,-4770123.051729049,4220857.835417271,-2.51448,-0.70333,0.607456,59.75,-50.5,-54.25,0.0,0.0,0.0,0.0,0.0,0.0,2,0,41.67646532325773,-92.07245814222372,9999.997483594065,139.83102912428348,-0.00274041995238,0.00330828439646,,9225.216264497592,11151.327114366952,150,8,2025-09-10,2025-09-26 15:38:58.124,HA,C,1780219362,HAWK11,1,1,73,2,1,1,225,2,1,0,0,12,1,225,2,1,-140032.16443045562,-4794963.128877486,4194542.020964146,2.48745,2.4675,-0.611387,-76.75,49.375,53.5,0.0,-6.98438,7.39062,-0.0332031,0.00585938,-0.00390625,4,0,41.3573978651404,-91.67279122422518,11144.86610180642,-40.87637325847847,0.5621776601491579,-0.6182946930078778,185.481,9225.216264497592,11151.327114366952,150,True,26.21634100758158,False,172.3600472576137,176.85909687943501,False,4.534998293298071,True,False
8,1970-07-23 09:59:47.390801621,2025-09-10,2025-09-26 15:38:59.080,HA,C,2501219068,JASSM,3,115,76,2,2,1,225,9,2,0,1,26,0,0,0,0,-172562.69909842435,-4770168.641572799,4220808.839323521,-2.51448,-0.70333,0.607456,59.75,-50.5,-54.25,0.0,0.0,0.0,0.0,0.0,0.0,2,0,41.67587499482691,-92.0717935848909,9999.995428026356,139.8314710016491,-0.0019691441655322,0.0033067967189008,,9225.216264497592,11151.327114366952,150,8,2025-09-10,2025-09-26 15:38:59.218,HA,C,1781491894,HAWK11,1,1,73,2,1,1,225,2,1,0,0,12,1,225,2,1,-140113.99841483062,-4794910.156221236,4194599.354948521,2.48064,2.45916,-0.609278,-77.375,49.75,54.125,-0.109375,-6.84375,7.01562,0.0117188,-0.00585938,0.0,4,0,41.358085797132375,-91.67378671855052,11144.647194605472,-40.635398975270206,0.2321395462472997,-1.2804299648509785,186.447,9225.216264497592,11151.327114366952,150,True,26.109620849881246,False,172.40464233028507,176.86334822362954,False,4.501993471223794,True,False
8,1970-07-23 09:59:47.402410718,2025-09-10,2025-09-26 15:39:00.241,HA,C,2502472048,JASSM,3,115,76,2,2,1,225,9,2,0,1,26,0,0,0,0,-172499.97400076812,-4770221.844697799,4220751.659636021,-2.51448,-0.70333,0.607456,59.75,-50.5,-54.25,0.0,0.0,0.0,0.0,0.0,0.0,2,0,41.6751860691958,-92.07101808259485,9999.994711616831,139.8319866420325,-0.0010690695535575,0.0033050439404598,,9225.216264497592,11151.327114366952,150,8,2025-09-10,2025-09-26 15:39:00.124,HA,C,1782605358,HAWK11,1,1,73,2,1,1,225,2,1,0,0,12,1,225,2,1,-140187.08630545562,-4794862.620088424,4194650.756315708,2.49636,2.45619,-0.610141,-77.75,50.25,54.5,-0.09375,-6.96875,7.17188,0.00195312,0.0078125,0.00195312,4,0,41.35870285288321,-91.674675914641,11144.326206988557,-40.494386452019896,0.1896400744678825,-0.4764416567812283,187.204,9225.216264497592,11151.327114366952,150,True,26.00156151519862,False,172.506439049353,176.86536551234872,False,4.397885279362551,True,False
8,1970-07-23 09:59:47.412339957,2025-09-10,2025-09-26 15:39:01.233,HA,C,2503784120,JASSM,3,115,76,2,2,1,225,9,2,0,1,26,0,0,0,0,-172434.29138358062,-4770277.555635299,4220691.784636021,-2.51448,-0.70333,0.607552,59.75,-50.5,-54.25,0.0,0.0,0.0,0.0,0.0,0.0,2,0,41.67446466407648,-92.070206033029,9999.99929005742,139.8357507596835,-0.004576105008196,0.0033030820454384,,9225.216264497592,11151.327114366952,150,8,2025-09-10,2025-09-26 15:39:01.326,HA,C,1783997190,HAWK11,1,1,73,2,1,1,225,2,1,0,0,12,1,225,2,1,-140277.43005545562,-4794804.404268111,4194713.891081333,2.48572,2.45408,-0.615797,-78.375,50.25,55.25,-0.109375,-7.03125,7.25,-0.0078125,0.0078125,0.0,4,0,41.35945963633908,-91.67577488101566,11144.402233550778,-40.2230216526951,0.3926823633812357,-1.1541706808664072,187.962,9225.216264497592,11151.327114366952,150,True,25.878420464839802,False,172.47697657960126,176.86967036895075,False,4.458218763908337,True,False
8,1970-07-23 09:59:47.422059100,2025-09-10,2025-09-26 15:39:02.205,HA,C,2505036820,JASSM,3,115,76,2,2,1,225,9,2,0,1,26,0,0,0,0,-172371.58093436187,-4770330.743135299,4220634.616667271,-2.51448,-0.70333,0.607552,59.75,-50.5,-54.25,0.0,0.0,0.0,0.0,0.0,0.0,2,0,41.67377589660414,-92.0694307470744,9999.997736575871,139.8362662420414,-0.003676247171575,0.0033013847151861,,9225.216264497592,11151.327114366952,150,8,2025-09-10,2025-09-26 15:39:02.326,HA,C,1785190190,HAWK11,1,1,73,2,1,1,225,2,1,0,0,12,1,225,2,1,-140355.59216483062,-4794754.198213424,4194768.593229771,2.46338,2.45168,-0.618578,-78.75,50.375,55.375,-0.015625,-6.84375,6.96875,-0.0761719,0.0,-0.0078125,4,0,41.360113959358856,-91.67672563110864,11145.042637247994,-40.03898383737987,0.4554536043594673,-2.5120669088821765,188.475,9225.216264497592,11151.327114366952,150,True,25.76685502514002,False,172.40843235736745,176.87281201360364,False,4.52898929036471,True,False
8,1970-07-23 09:59:47.434060887,2025-09-10,2025-09-26 15:39:03.406,HA,C,2506408820,JASSM,3,115,76,2,2,1,225,9,2,0,1,26,0,0,0,0,-172302.89831717435,-4770388.997041549,4220572.003386021,-2.51448,-0.70333,0.607552,59.75,-50.5,-54.25,0.0,0.0,0.0,0.0,0.0,0.0,2,0,41.67302151551649,-92.0685816459936,10000.002633426127,139.83683079555715,-0.0026906816340758,0.0032995173298284,,9225.216264497592,11151.327114366952,150,8,2025-09-10,2025-09-26 15:39:03.326,HA,C,1786383188,HAWK11,1,1,73,2,1,1,225,2,1,0,0,12,1,225,2,1,-140434.30700858062,-4794703.761689986,4194823.435026646,2.45044,2.45178,-0.617907,-79.25,50.5,55.5,0.09375,-6.71875,6.90625,0.0234375,-0.00585938,-0.00195312,4,0,41.36077049137675,-91.67768308019131,11145.464339066066,-40.06601188597568,0.4280988562969769,-3.250540904590816,188.915,9225.216264497592,11151.327114366952,150,True,25.649863844647214,False,172.29531472723343,176.87562427136749,False,4.643491803992043,True,False
8,1970-07-23 09:59:47.445061731,2025-09-10,2025-09-26 15:39:04.506,HA,C,2507721172,JASSM,3,115,76,2,2,1,225,9,2,0,1,26,0,0,0,0,-172237.20153983062,-4770444.711885299,4220512.112761021,-2.51448,-0.70333,0.607552,59.75,-50.5,-54.25,0.0,0.0,0.0,0.0,0.0,0.0,2,0,41.67229996758054,-92.06776947929762,9999.998428910952,139.8373707841557,-0.0017479963966043,0.003297757775501,,9225.216264497592,11151.327114366952,150,8,2025-09-10,2025-09-26 15:39:04.326,HA,C,1787576188,HAWK11,1,1,73,2,1,1,225,2,1,0,0,12,1,225,2,1,-140513.32653983062,-4794652.905244674,4194878.511198521,2.46338,2.45245,-0.61714,-79.75,50.75,55.5,-0.265625,-6.78125,6.84375,-0.0117188,0.00585938,-0.00585938,4,0,41.36143104143381,-91.67864433328428,11145.38859093508,-40.117949179708894,0.4122671393293731,-2.486944118360347,189.673,9225.216264497592,11151.327114366952,150,True,25.53514230810825,False,172.18542209744786,176.8787100355296,False,4.746090678183075,True,False
8,1970-07-23 09:59:47.456781513,2025-09-10,2025-09-26 15:39:05.678,HA,C,2509033522,JASSM,3,115,76,2,2,1,225,9,2,0,1,26,0,0,0,0,-172171.50476248687,-4770500.430635299,4220452.218229771,-2.51448,-0.703234,0.607552,59.75,-50.5,-54.25,0.0,0.0,0.0,0.0,0.0,0.0,2,0,41.6715783641995,-92.06695732904994,10000.000933698208,139.8342575405396,-0.0034525819137387,0.0001592944218943,,9225.216264497592,11151.327114366952,150,8,2025-09-10,2025-09-26 15:39:05.717,HA,C,1789246386,HAWK11,1,1,73,2,1,1,225,2,1,0,0,12,1,225,2,1,-140624.95739920562,-4794580.832002486,4194955.969206333,2.48294,2.44804,-0.623659,-80.0,51.0,55.375,-0.09375,-6.8125,6.57812,0.0175781,-0.0078125,0.0,4,0,41.36236319284679,-91.68000240824728,11143.975249159674,-39.731993117623,0.5929613892204322,-1.5096699450744309,190.418,9225.216264497592,11151.327114366952,150,True,25.39636797414161,False,172.1308994929402,176.88619513076515,False,4.79574101802419,True,False
8,1970-07-23 09:59:47.467082780,2025-09-10,2025-09-26 15:39:06.708,HA,C,2510345876,JASSM,3,115,76,2,2,1,225,9,2,0,1,26,0,0,0,0,-172105.80798514312,-4770556.145479049,4220392.323698521,-2.51448,-0.703234,0.607552,59.75,-50.5,-54.25,0.0,0.0,0.0,0.0,0.0,0.0,2,0,41.67085677834595,-92.06614519863308,9999.999535330153,139.83479748976464,-0.0025098764866377,0.0001574577575468,,9225.216264497592,11151.327114366952,150,8,2025-09-10,2025-09-26 15:39:06.826,HA,C,1790638218,HAWK11,1,1,73,2,1,1,225,2,1,0,0,12,1,225,2,1,-140717.45935233062,-4794521.159150924,4195019.576628208,2.53011,2.44402,-0.630274,-79.875,51.25,55.25,0.03125,-7.23438,6.42188,0.0292969,-0.00195312,0.00976562,4,0,41.363131402065065,-91.68112777737942,11141.68438823392,-39.358212551126336,0.7898498153484328,1.0622927845185448,190.333,9225.216264497592,11151.327114366952,150,True,25.27190182772568,False,172.2080051312442,176.89164402223466,False,4.713930560269208,True,False
8,1970-07-23 09:59:47.478338497,2025-09-10,2025-09-26 15:39:07.833,HA,C,2511598574,JASSM,3,115,76,2,2,1,225,9,2,0,1,26,0,0,0,0,-172043.09753592435,-4770609.325166549,4220335.151823521,-2.51448,-0.703234,0.607552,59.75,-50.5,-54.25,0.0,0.0,0.0,0.0,0.0,0.0,2,0,41.67016800350619,-92.06537000263909,9999.9973578869,139.8353128757869,-0.0016100354554055,0.0001557141548498,,9225.216264497592,11151.327114366952,150,8,2025-09-10,2025-09-26 15:39:07.825,HA,C,1791791450,HAWK11,1,1,73,2,1,1,225,2,1,0,0,12,1,225,2,1,-140794.79724295562,-4794470.796846236,4195073.011198521,2.52599,2.43078,-0.635931,-79.5,51.5,55.125,-0.125,-7.17188,6.32812,-0.0214844,-0.0136719,0.0117188,4,0,41.36377819163273,-91.6820688480273,11139.165999188754,-38.67364964632015,0.6952332848779138,0.3866037760753611,190.027,9225.216264497592,11151.327114366952,150,True,25.16095970184906,False,172.37250014026688,176.89499483925593,False,4.543943518144367,True,False
8,1970-07-23 09:59:47.487939452,2025-09-10,2025-09-26 15:39:08.793,HA,C,2512731968,JASSM,3,115,76,2,2,1,225,9,2,0,1,26,0,0,0,0,-171986.35925467435,-4770657.442354049,4220283.421354771,-2.51448,-0.703234,0.607552,59.75,-50.5,-54.25,0.0,0.0,0.0,0.0,0.0,0.0,2,0,41.66954478464428,-92.06466864504225,9999.997569634465,139.83577916461843,-0.0007958632204991,0.0001541149891702,,9225.216264497592,11151.327114366952,150,8,2025-09-10,2025-09-26 15:39:09.013,HA,C,1793262814,HAWK11,1,1,73,2,1,1,225,2,1,0,0,12,1,225,2,1,-140891.73474295562,-4794407.325166549,4195140.281706333,2.46051,2.4258,-0.641492,-79.25,51.25,55.0,-0.09375,-7.45312,6.4375,-0.0371094,0.00390625,0.00195312,4,0,41.364592929320416,-91.6832485606951,11135.803349360654,-38.30250648884687,0.8221306722678645,-3.5304177798532157,189.709,9225.216264497592,11151.327114366952,150,True,25.04047283374847,False,172.36344103747308,176.9012759414475,False,4.562689071181144,True,False
8,1970-07-23 09:59:47.496059691,2025-09-10,2025-09-26 15:39:09.605,HA,C,2513865362,JASSM,3,115,76,2,2,1,225,9,2,0,1,26,0,0,0,0,-171929.62097342435,-4770705.555635299,4220231.694792271,-2.51448,-0.703234,0.607648,59.75,-50.5,-54.25,0.0,0.0,0.0,0.0,0.0,0.0,2,0,41.66892161105041,-92.06396730266266,10000.000958869585,139.83946786235157,-0.004428328839937,0.0001524228200837,,9225.216264497592,11151.327114366952,150,8,2025-09-10,2025-09-26 15:39:09.718,HA,C,1794058146,HAWK11,1,1,73,2,1,1,225,2,1,0,0,12,1,225,2,1,-140944.21521170562,-4794372.502900924,4195177.327604771,2.43558,2.42992,-0.640341,-79.125,51.125,54.625,-0.171875,-7.46875,6.39062,-0.0273438,0.00195312,-0.00976562,4,0,41.36504097603096,-91.6838874127474,11134.214078349749,-38.49530886107596,0.8792728874775172,-4.820156084163013,189.074,9225.216264497592,11151.327114366952,150,True,24.95261341388004,False,172.2707160543808,176.90118922314906,False,4.649953593155898,True,False
8,1970-07-23 09:59:47.507059889,2025-09-10,2025-09-26 15:39:10.705,HA,C,2515177712,JASSM,3,115,76,2,2,1,225,9,2,0,1,26,0,0,0,0,-171863.92419608062,-4770761.266572799,4220171.796354771,-2.51448,-0.703234,0.607648,59.75,-50.5,-54.25,0.0,0.0,0.0,0.0,0.0,0.0,2,0,41.66820000083354,-92.0631552407148,10000.002324931624,139.84000773795483,-0.0034856214693656,0.0001506362151031,,9225.216264497592,11151.327114366952,150,8,2025-09-10,2025-09-26 15:39:10.513,HA,C,1795012546,HAWK11,1,1,73,2,1,1,225,2,1,0,0,12,1,225,2,1,-141007.19958670562,-4794331.485322799,4195220.785612583,2.42791,2.43462,-0.637081,-79.25,50.875,54.25,-0.234375,-7.54688,6.375,0.0136719,0.0,-0.00195312,4,0,41.365567319540965,-91.6846538700832,11132.04235027435,-38.78033025209667,0.8545246708544304,-5.103328812880937,188.842,9225.216264497592,11151.327114366952,150,True,24.849730107389192,False,172.05446421838084,176.90240285587774,False,4.865273045226374,True,False
8,1970-07-23 09:59:47.518738573,2025-09-10,2025-09-26 15:39:11.873,HA,C,2516430608,JASSM,3,115,76,2,2,1,225,9,2,0,1,26,0,0,0,0,-171801.20373709625,-4770814.454072799,4220114.608854771,-2.51439,-0.703234,0.607648,59.75,-50.5,-54.375,0.0,0.0,0.0,0.0,0.0,0.0,2,0,41.66751105591564,-92.06237998503072,10000.00422304226,139.8405231368362,-0.0025856061321586,0.0056403891877486,,9225.216264497592,11151.327114366952,150,8,2025-09-10,2025-09-26 15:39:11.825,HA,C,1796523678,HAWK11,1,1,73,2,1,1,225,2,1,0,0,12,1,225,2,1,-141106.74450858062,-4794267.529268111,4195288.847136021,2.51908,2.4374,-0.641683,-79.25,50.375,53.875,-0.265625,-7.375,6.34375,0.0429688,0.0078125,0.0078125,4,0,41.36638979680022,-91.68586495240034,11129.411771401064,-38.73037814940333,1.1443322755179022,0.2168030381178492,187.962,9225.216264497592,11151.327114366952,150,True,24.722810189099196,False,171.78268575750317,176.86984525943183,False,5.112322606524913,True,False
8,1970-07-23 09:59:47.529058892,2025-09-10,2025-09-26 15:39:12.905,HA,C,2517802414,JASSM,3,115,76,2,2,1,225,9,2,0,1,26,0,0,0,0,-171732.53015311187,-4770872.684541549,4220051.995573521,-2.51439,-0.703234,0.607648,59.75,-50.5,-54.375,0.0,0.0,0.0,0.0,0.0,0.0,2,0,41.66675676011645,-92.061531167058,10000.00391714495,139.84108743275374,-0.0016002022243945,0.0056385355717867,,9225.216264497592,11151.327114366952,150,8,2025-09-10,2025-09-26 15:39:12.826,HA,C,1797637144,HAWK11,1,1,73,2,1,1,225,2,1,0,0,12,1,225,2,1,-141180.33630545562,-4794219.862275924,4195339.586393833,2.54439,2.42436,-0.649545,-78.625,50.375,53.875,0.015625,-7.1875,6.1875,-0.015625,-0.00390625,0.0117188,4,0,41.367002976807456,-91.68676043942573,11127.440872360155,-37.98340152051261,1.163248963637132,1.232675694390765,187.363,9225.216264497592,11151.327114366952,150,True,24.609617519981068,False,172.00894985985718,176.87235083517913,False,4.888936139702629,True,False
8,1970-07-23 09:59:47.540361832,2025-09-10,2025-09-26 15:39:14.036,HA,C,2519055114,JASSM,3,115,76,2,2,1,225,9,2,0,1,26,0,0,0,0,-171669.81921561187,-4770925.860322799,4219994.815886021,-2.51439,-0.703234,0.607648,59.75,-50.5,-54.375,0.0,0.0,0.0,0.0,0.0,0.0,2,0,41.666067924608434,-92.06075606525874,10000.0058052182,139.8416027146895,-0.0007003362366786,0.0056368260349312,,9225.216264497592,11151.327114366952,150,8,2025-09-10,2025-09-26 15:39:13.873,HA,C,1798472242,HAWK11,1,1,73,2,1,1,225,2,1,0,0,12,1,225,2,1,-141234.81872733062,-4794184.198213424,4195377.506315708,2.53893,2.41449,-0.653572,-78.125,50.5,53.875,-0.03125,-7.14062,6.04688,0.0078125,-0.015625,0.00195312,4,0,41.3674615609921,-91.68742354057468,11125.835008379569,-37.48323855978633,1.0923906720521706,0.5864227414448818,186.606,9225.216264497592,11151.327114366952,150,True,24.515426217605405,False,172.22332665079003,176.8724630883601,False,4.671869071408979,True,False
8,1970-07-23 09:59:47.551078833,2025-09-10,2025-09-26 15:39:15.107,HA,C,2520367466,JASSM,3,115,76,2,2,1,225,9,2,0,1,26,0,0,0,0,-171604.1221941275,-4770981.563447799,4219934.913542271,-2.51439,-0.703138,0.607648,59.75,-50.5,-54.375,0.0,0.0,0.0,0.0,0.0,0.0,2,0,41.66534631184767,-92.05994407547148,10000.001891359398,139.8384919577067,-0.0024033330652688,0.0024998300489904,,9225.216264497592,11151.327114366952,150,8,2025-09-10,2025-09-26 15:39:15.124,HA,C,1800540106,HAWK11,1,1,73,2,1,1,225,2,1,0,0,12,1,225,2,1,-141368.79138358062,-4794092.409150924,4195467.504362583,2.73998,2.36837,-0.611483,-77.125,55.0,51.0,-0.0625,-5.75,5.46875,0.142578,0.00195312,0.00195312,4,0,41.36859159568499,-91.68905559143472,11104.789303408432,-37.08435981229655,-2.098887839911431,10.539801463481965,187.363,9225.216264497592,11151.327114366952,150,False,24.359587234767822,False,172.35997249570926,176.8831447863598,False,4.732100278428487,True,False
8,1970-07-23 09:59:47.563201916,2025-09-10,2025-09-26 15:39:16.320,HA,C,2521679816,JASSM,3,115,76,2,2,1,225,9,2,0,1,26,0,0,0,0,-171538.4249285025,-4771037.266572799,4219875.007292271,-2.51439,-0.703138,0.607648,59.75,-50.5,-54.375,0.0,0.0,0.0,0.0,0.0,0.0,2,0,41.66462466705098,-92.05913210088872,9999.995099793192,139.83903173731656,-0.0014606196641792,0.0024979809514432,,9225.216264497592,11151.327114366952,150,8,2025-09-10,2025-09-26 15:39:16.513,HA,C,1802130772,HAWK11,1,1,73,2,1,1,225,2,1,0,0,12,1,225,2,1,-141470.58044608062,-4794015.213838424,4195536.821745396,2.98129,2.31113,-0.623563,-75.0,58.5,52.125,-0.3125,-6.3125,6.4375,0.148438,0.0,0.0351562,4,0,41.369500824795225,-91.69029825011884,11072.496985474512,-34.4566001354368,-2.952730526588005,22.3512394577868,189.795,9225.216264497592,11151.327114366952,150,False,24.22534088326537,False,173.6287918285168,176.88538748967318,False,4.053049775743973,True,False
8,1970-07-23 09:59:47.572079967,2025-09-10,2025-09-26 15:39:17.207,HA,C,2522932872,JASSM,3,115,76,2,2,1,225,9,2,0,1,26,0,0,0,0,-171475.69592459625,-4771090.454072799,4219817.808073521,-2.51439,-0.703138,0.607744,59.75,-50.5,-54.375,0.0,0.0,0.0,0.0,0.0,0.0,2,0,41.663935617623416,-92.05835682850116,9999.997476786366,139.84277178428164,-0.0050096830512989,0.0024960564651602,,9225.216264497592,11151.327114366952,150,8,2025-09-10,2025-09-26 15:39:17.217,HA,C,1802965870,HAWK11,1,1,73,2,1,1,225,2,1,0,0,12,1,225,2,1,-141522.47888358062,-4793973.224580611,4195573.461393833,3.08953,2.27585,-0.634013,-73.125,60.625,53.125,-0.171875,-6.57812,6.79688,0.113281,0.00976562,0.0371094,4,0,41.36998880146776,-91.69093277732144,11052.376331325324,-32.74422141861083,-3.2777787340443933,27.27099438308617,190.773,9225.216264497592,11151.327114366952,150,False,24.13071669669901,False,174.39759443754204,176.88103458323806,False,4.037003315419075,True,False
8,1970-07-23 09:59:47.583568413,2025-09-10,2025-09-26 15:39:18.356,HA,C,2524244866,JASSM,3,115,76,2,2,1,225,9,2,0,1,26,0,0,0,0,-171410.0167253775,-4771146.141572799,4219757.917448521,-2.51439,-0.703138,0.607744,59.75,-50.5,-54.375,0.0,0.0,0.0,0.0,0.0,0.0,2,0,41.663214156016814,-92.05754511277264,9999.999151339853,139.84331137696276,-0.0040672256610702,0.0024942582803081,,9225.216264497592,11151.327114366952,150,8,2025-09-10,2025-09-26 15:39:18.217,HA,C,1804198636,HAWK11,1,1,73,2,1,1,225,2,1,0,0,12,1,225,2,1,-141597.04528983062,-4793907.928682174,4195629.452604771,-3.0834,2.21353,-0.646861,-69.625,64.25,55.125,-0.203125,-7.28125,7.45312,0.0625,0.0292969,0.0566406,4,0,41.37074205128899,-91.69184622105354,11018.509680361189,-29.87965996412871,-4.026093700293258,31.271716576410967,192.838,9225.216264497592,11151.327114366952,150,False,24.0133956246804,False,174.93432837642706,176.8726905018547,False,5.222709817874099,True,False
8,1970-07-23 09:59:47.594078362,2025-09-10,2025-09-26 15:39:19.407,HA,C,2525497566,JASSM,3,115,76,2,2,1,225,9,2,0,1,26,0,0,0,0,-171347.30554373687,-4771199.309541549,4219700.733854771,-2.51439,-0.703138,0.607744,59.75,-50.5,-54.375,0.0,0.0,0.0,0.0,0.0,0.0,2,0,41.66252531370364,-92.05677009638256,9999.999901711486,139.84382656639423,-0.0031673750089082,0.0024925548654756,,9225.216264497592,11151.327114366952,150,8,2025-09-10,2025-09-26 15:39:19.419,HA,C,1805510934,HAWK11,1,1,73,2,1,1,225,2,1,0,0,12,1,225,2,1,-141673.15271170562,-4793833.817354049,4195692.830534458,-3.009,2.17605,-0.645518,-65.625,68.0,58.625,-0.265625,-8.09375,8.15625,0.0234375,0.0253906,0.0390625,4,0,41.37159732255123,-91.69278120193825,10979.084598614534,-28.38629792608811,-4.878109992390807,34.12521293276197,195.49,9225.216264497592,11151.327114366952,150,False,23.893490098301324,False,174.29767004031967,176.85641630930408,False,7.3983759836861935,True,False
8,1970-07-23 09:59:47.604080947,2025-09-10,2025-09-26 15:39:20.408,HA,C,2526750652,JASSM,3,115,76,2,2,1,225,9,2,0,1,26,0,0,0,0,-171284.57483084625,-4771252.493135299,4219643.530729771,-2.51439,-0.703138,0.607744,59.75,-50.5,-54.375,0.0,0.0,0.0,0.0,0.0,0.0,2,0,41.661836245551086,-92.05599485554498,9999.99977258214,139.8443418980357,-0.0022672396077463,0.0024908467969161,,9225.216264497592,11151.327114366952,150,8,2025-09-10,2025-09-26 15:39:20.325,HA,C,1806664168,HAWK11,1,1,73,2,1,1,225,2,1,0,0,12,1,225,2,1,-141735.16247733062,-4793765.464814986,4195751.605925083,-2.96624,2.12773,-0.653572,-61.0,71.375,62.25,-0.40625,-8.85938,8.57812,0.0175781,0.0488281,0.0507812,4,0,41.37238974603474,-91.69354582729356,10942.833169363525,-26.19031131206754,-5.413496997225831,34.70358452866245,197.433,9225.216264497592,11151.327114366952,150,False,23.78153931009266,False,172.22526201943768,176.83254738789273,False,10.222102784765926,True,False
8,1970-07-23 09:59:47.615079657,2025-09-10,2025-09-26 15:39:21.507,HA,C,2528062614,JASSM,3,115,76,2,2,1,225,9,2,0,1,26,0,0,0,0,-171218.89685233062,-4771308.172822799,4219583.640104771,-2.51439,-0.703138,0.607744,59.75,-50.5,-54.375,0.0,0.0,0.0,0.0,0.0,0.0,2,0,41.66111481344477,-92.05518321054944,9999.998889099816,139.84488142139264,-0.0013248260431122,0.0024890681843389,,9225.216264497592,11151.327114366952,150,8,2025-09-10,2025-09-26 15:39:21.218,HA,C,1807777632,HAWK11,1,1,73,2,1,1,225,2,1,0,0,12,1,225,2,1,-141789.87341483062,-4793696.996064986,4195811.675261021,-2.89683,2.05045,-0.68521,-55.125,73.5,65.625,-0.546875,-9.89062,9.09375,0.0234375,0.046875,0.046875,4,0,41.37319288003695,-91.69422335326362,10908.576481287091,-22.269972551364724,-5.10833867595132,35.57263575234388,199.009,9225.216264497592,11151.327114366952,150,False,23.669264523027817,False,169.41557332182552,176.80001906353786,False,13.412709033802315,True,False
8,1970-07-23 09:59:47.626099885,2025-09-10,2025-09-26 15:39:22.609,HA,C,2529375406,JASSM,3,115,76,2,2,1,225,9,2,0,1,26,0,0,0,0,-171153.17736990875,-4771363.887666549,4219523.706511021,-2.51439,-0.703138,0.607744,59.75,-50.5,-54.375,0.0,0.0,0.0,0.0,0.0,0.0,2,0,41.66039288535489,-92.05437107079857,9999.99242802786,139.84542126595616,-0.0003817906400637,0.0024872663135105,,9225.216264497592,11151.327114366952,150,8,2025-09-10,2025-09-26 15:39:22.701,HA,C,1809487598,HAWK11,1,1,73,2,1,1,225,2,1,0,0,12,1,225,2,1,-141864.18005545562,-4793586.484346236,4195913.043425083,-2.81092,1.96043,-0.719916,-45.125,76.625,72.5,-0.359375,-11.1719,10.1094,0.015625,0.0566406,0.0566406,4,0,41.37452144076864,-91.69514976935876,10861.84806905876,-17.87940141326327,-4.5625580802421215,36.78953227572705,200.243,9225.216264497592,11151.327114366952,150,False,23.52633587999494,False,164.00676428296745,176.73487580841234,False,19.13304978165725,True,False
8,1970-07-23 09:59:47.637562269,2025-09-10,2025-09-26 15:39:23.756,HA,C,2530687316,JASSM,3,115,76,2,2,1,225,9,2,0,1,26,0,0,0,0,-171087.50183279935,-4771419.567354049,4219463.815886021,-2.51439,-0.703043,0.607744,59.75,-50.5,-54.375,0.0,0.0,0.0,0.0,0.0,0.0,2,0,41.659671441078125,-92.05355949132904,10000.003082657897,139.84230829510813,-0.0020867489422532,-0.0006521542789209,,9225.216264497592,11151.327114366952,150,8,2025-09-10,2025-09-26 15:39:23.701,HA,C,1810680596,HAWK11,1,1,73,2,1,1,225,2,1,0,0,12,1,225,2,1,-141905.45935233062,-4793508.203096236,4195988.811003208,-2.73729,1.87194,-0.752993,-37.0,77.125,77.625,-0.40625,-11.9062,10.75,0.0,0.0742188,0.0566406,4,0,41.375491291643314,-91.69567040686992,10836.523815863808,-13.736613200038722,-3.775405926970619,37.29989625577959,200.537,9225.216264497592,11151.327114366952,150,False,23.411615933853476,False,159.77260813471688,176.67189697937874,False,23.511135983275352,True,False
8,1970-07-23 09:59:47.648077397,2025-09-10,2025-09-26 15:39:24.807,HA,C,2531940016,JASSM,3,115,76,2,2,1,225,9,2,0,1,26,0,0,0,0,-171024.79040701812,-4771472.727510299,4219406.624479771,-2.51439,-0.703043,0.60784,59.75,-50.5,-54.375,0.0,0.0,0.0,0.0,0.0,0.0,2,0,41.6589825656978,-92.05278456032352,9999.994175690785,139.84604630542154,-0.0056331386198358,-0.0006541109968657,,9225.216264497592,11151.327114366952,150,8,2025-09-10,2025-09-26 15:39:24.903,HA,C,1812112194,HAWK11,1,1,73,2,1,1,225,2,1,0,0,12,1,225,2,1,-141942.71325858062,-4793414.383760299,4196086.022917271,-2.62435,1.74116,-0.798149,-25.375,76.625,83.0,-0.375,-12.3906,11.2812,0.00195312,0.0722656,0.0546875,4,0,41.3766990540251,-91.6961484827594,10819.182341114903,-7.976633047932242,-2.2940436494275787,38.21477869355471,200.512,9225.216264497592,11151.327114366952,150,False,23.29039382057492,False,153.82015470358465,176.58102892128952,False,29.59049232337961,True,False
8,1970-07-23 09:59:47.658076975,2025-09-10,2025-09-26 15:39:25.807,HA,C,2533192714,JASSM,3,115,76,2,2,1,225,9,2,0,1,26,0,0,0,0,-170962.0792253775,-4771525.891572799,4219349.436979771,-2.51439,-0.703043,0.60784,59.75,-50.5,-54.375,0.0,0.0,0.0,0.0,0.0,0.0,2,0,41.65829368787048,-92.05200964708328,10000.008537776164,139.84656138357457,-0.0047332859031286,-0.0006558241819862,,9225.216264497592,11151.327114366952,150,8,2025-09-10,2025-09-26 15:39:25.903,HA,C,1813305194,HAWK11,1,1,73,2,1,1,225,2,1,0,0,12,1,225,2,1,-141962.18786795562,-4793336.384736861,4196171.561979771,-2.5396,1.6289,-0.822118,-15.125,75.875,86.5,-0.296875,-12.1406,10.8125,-0.0722656,0.0742188,0.0527344,4,0,41.37773705209132,-91.69640864723236,10814.17007969797,-3.4192290407413406,-1.4058562163664403,38.26139667886567,199.058,9225.216264497592,11151.327114366952,150,False,23.18334394140929,False,148.61455436267926,176.48864616393524,False,34.89580179593559,False,False
8,1970-07-23 09:59:47.669076840,2025-09-10,2025-09-26 15:39:26.907,HA,C,2534505066,JASSM,3,115,76,2,2,1,225,9,2,0,1,26,0,0,0,0,-170896.38147147125,-4771581.582979049,4219289.519011021,-2.51439,-0.703043,0.60784,59.75,-50.5,-54.375,0.0,0.0,0.0,0.0,0.0,0.0,2,0,41.65757197751414,-92.05119784886176,10000.002789865714,139.84710097136306,-0.0037905642666653,-0.0006576327165045,,9225.216264497592,11151.327114366952,150,8,2025-09-10,2025-09-26 15:39:26.809,HA,C,1814378892,HAWK11,1,1,73,2,1,1,225,2,1,0,0,12,1,225,2,1,-141970.53552420562,-4793266.383760299,4196251.229948521,-2.55532,1.51941,-0.838225,-6.0,74.5,89.25,-0.15625,-12.1719,10.9219,-0.21875,0.0664062,0.0488281,4,0,41.37868980500709,-91.69653310247932,10815.301967107698,0.8345170802042627,-0.587756851493294,32.65437398955515,198.044,9225.216264497592,11151.327114366952,150,False,23.08169140996358,False,144.00836702171512,176.39262154848333,False,39.598788805402215,False,False
8,1970-07-23 09:59:47.680077301,2025-09-10,2025-09-26 15:39:28.007,HA,C,2535757766,JASSM,3,115,76,2,2,1,225,9,2,0,1,26,0,0,0,0,-170833.66980154935,-4771634.739229049,4219232.327604771,-2.51429,-0.703043,0.60784,59.75,-50.5,-54.375,0.0,0.0,0.0,0.0,0.0,0.0,2,0,41.65688310936315,-92.05042296693952,10000.000019229854,139.8476160143904,-0.0028907258257752,0.0048321408021593,,9225.216264497592,11151.327114366952,150,8,2025-09-10,2025-09-26 15:39:28.013,HA,C,1815929790,HAWK11,1,1,73,2,1,1,225,2,1,0,0,12,1,225,2,1,-141969.83044608062,-4793168.507783736,4196370.567839146,-2.70709,1.42056,-0.873698,3.5,70.75,92.875,-0.0625,-11.2188,10.2344,-0.117188,0.0546875,0.0136719,4,0,41.38007778419615,-91.69655930439572,10833.224340767652,4.432458381925215,1.6399041422504976,19.712617964309874,196.26,9225.216264497592,11151.327114366952,150,False,22.966814907604554,False,139.1185622937798,176.24304865561672,False,44.62979483620711,False,False
8,1970-07-23 09:59:47.691076289,2025-09-10,2025-09-26 15:39:29.107,HA,C,2537070116,JASSM,3,115,76,2,2,1,225,9,2,0,1,26,0,0,0,0,-170767.97204764312,-4771690.430635299,4219172.409636021,-2.51429,-0.703043,0.60784,59.75,-50.5,-54.375,0.0,0.0,0.0,0.0,0.0,0.0,2,0,41.6561613876234,-92.04961120414454,10000.005341032713,139.84815556364177,-0.0019480039571179,0.0048303322021025,,9225.216264497592,11151.327114366952,150,8,2025-09-10,2025-09-26 15:39:29.309,HA,C,1817401156,HAWK11,1,1,73,2,1,1,225,2,1,0,0,12,1,225,2,1,-141956.63903983062,-4793079.201143111,4196484.972136021,-2.80565,1.38183,-0.897666,10.125,67.75,94.75,-0.078125,-9.64062,9.17188,-0.0996094,0.0214844,0.0234375,4,0,41.38138368773163,-91.69643334695516,10860.63456971782,5.686205697909302,3.153941046393758,12.39943907392799,193.742,9225.216264497592,11151.327114366952,150,False,22.857810955809715,False,135.67162714182206,176.08750380324307,False,48.221814990337705,False,False
8,1970-07-23 09:59:47.701058432,2025-09-10,2025-09-26 15:39:30.105,HA,C,2538263162,JASSM,3,115,76,2,2,1,225,9,2,0,1,26,0,0,0,0,-170708.24670584625,-4771741.055635299,4219117.936979771,-2.51429,-0.703043,0.60784,59.75,-50.5,-54.375,0.0,0.0,0.0,0.0,0.0,0.0,2,0,41.65550528121001,-92.0488732538884,10000.002512928626,139.84864604572363,-0.001090991184657,0.0048286938856786,,9225.216264497592,11151.327114366952,150,8,2025-09-10,2025-09-26 15:39:30.201,HA,C,1818355554,HAWK11,1,1,73,2,1,1,225,2,1,0,0,12,1,225,2,1,-141947.68200858062,-4793025.272432174,4196560.804167271,-2.81974,1.34492,-0.908404,12.125,65.75,96.0,-0.171875,-8.89062,8.78125,-0.0390625,0.0195312,0.00195312,4,0,41.38221800727254,-91.69634544478268,10891.75492402786,6.904716222676237,3.9386208155457103,10.006628921657173,192.887,9225.216264497592,11151.327114366952,150,False,22.77327489497867,False,134.52697737225802,175.98374012181353,False,49.46025401413002,False,False
8,1970-07-23 09:59:47.710758915,2025-09-10,2025-09-26 15:39:31.075,HA,C,2539336904,JASSM,3,115,76,2,2,1,225,9,2,0,1,26,0,0,0,0,-170654.49499686187,-4771786.614229049,4219068.913542271,-2.51429,-0.703043,0.60784,59.75,-50.5,-54.375,0.0,0.0,0.0,0.0,0.0,0.0,2,0,41.65491481757046,-92.04820912631408,9999.998755451355,139.84908745579642,-0.0003197144654373,0.004827234268968,,9225.216264497592,11151.327114366952,150,8,2025-09-10,2025-09-26 15:39:30.903,HA,C,1819309954,HAWK11,1,1,73,2,1,1,225,2,1,0,0,12,1,225,2,1,-141935.02966483062,-4792971.865205611,4196635.784636021,-2.81831,1.33428,-0.91943,14.5,64.5,96.5,-0.015625,-8.03125,8.15625,-0.0078125,0.015625,0.0117188,4,0,41.383044123792025,-91.69621322065764,10922.046635880875,7.178479125507584,4.62004576785663,9.626591453482307,191.799,9225.216264497592,11151.327114366952,150,True,22.695668759311967,False,133.26488321789523,175.87739927974368,False,50.82360134916073,False,False
8,1970-07-23 09:59:47.719938277,2025-09-10,2025-09-26 15:39:31.993,HA,C,2540470298,JASSM,3,115,76,2,2,1,225,9,2,0,1,26,0,0,0,0,-170597.75476248687,-4771834.707979049,4219017.163542271,-2.51429,-0.703043,0.60784,59.75,-50.5,-54.375,0.0,0.0,0.0,0.0,0.0,0.0,2,0,41.65429150158682,-92.04750808634324,10000.002174954465,139.84955339399522,0.0004944593724935,0.0048256816867984,,9225.216264497592,11151.327114366952,150,8,2025-09-10,2025-09-26 15:39:32.203,HA,C,1820662020,HAWK11,1,1,73,2,1,1,225,2,1,0,0,12,1,225,2,1,-141915.72888358062,-4792898.201143111,4196743.020964146,-2.73681,1.29593,-0.930455,17.375,63.375,96.0,-0.25,-7.3125,7.48438,0.0429688,0.00976562,0.0195312,4,0,41.3842096689816,-91.69600874989904,10971.978097647028,8.380066544170342,5.467090167468194,12.646603048572468,189.795,9225.216264497592,11151.327114366952,150,False,22.603230060329366,False,131.7624707037778,175.72762331700838,False,52.475464067474164,False,False
8,1970-07-23 09:59:47.729074477,2025-09-10,2025-09-26 15:39:32.907,HA,C,2541603692,JASSM,3,115,76,2,2,1,225,9,2,0,1,26,0,0,0,0,-170541.015748815,-4771882.797822799,4218965.413542271,-2.51429,-0.702947,0.607936,59.75,-50.5,-54.375,0.0,0.0,0.0,0.0,0.0,0.0,2,0,41.65366820434848,-92.04680707620236,10000.000356195696,139.8495946925972,-0.0057859624355626,0.0016877795907729,,9225.216264497592,11151.327114366952,150,8,2025-09-10,2025-09-26 15:39:32.903,HA,C,1821656184,HAWK11,1,1,73,2,1,1,225,2,1,0,0,12,1,225,2,1,-141899.47302420562,-4792844.902314986,4196820.929167271,-2.67555,1.2639,-0.929209,19.625,62.625,95.5,-0.15625,-6.78125,7.03125,0.0429688,0.00585938,0.0136719,4,0,41.38505553671587,-91.69583343985218,11008.634947623392,9.475276053821302,5.611527297992157,14.791837368089556,188.573,9225.216264497592,11151.327114366952,150,False,22.52375349773686,False,130.5884925899644,175.61327880658285,False,53.76444321563875,False,False
8,1970-07-23 09:59:47.738078475,2025-09-10,2025-09-26 15:39:33.807,HA,C,2542677436,JASSM,3,115,76,2,2,1,225,9,2,0,1,26,0,0,0,0,-170487.26257498687,-4771928.360322799,4218916.382292271,-2.51429,-0.702947,0.607936,59.75,-50.5,-54.375,0.0,0.0,0.0,0.0,0.0,0.0,2,0,41.65307765301432,-92.04614296712953,10000.000799426422,139.85003607458663,-0.0050146184500736,0.0016862764505724,,9225.216264497592,11151.327114366952,150,8,2025-09-10,2025-09-26 15:39:33.809,HA,C,1822769650,HAWK11,1,1,73,2,1,1,225,2,1,0,0,12,1,225,2,1,-141878.83239920562,-4792785.277314986,4196907.456511021,-2.55801,1.23198,-0.917992,22.625,63.0,94.0,-0.234375,-6.15625,6.375,0.078125,-0.00390625,0.0253906,4,0,41.38599799083383,-91.69560799055238,11048.107257377918,10.697299426941475,5.225538015554674,20.18245967124551,187.412,9225.216264497592,11151.327114366952,150,False,22.444356846690386,False,129.14705807294678,175.48412183514725,False,55.34440916237531,False,False
8,1970-07-23 09:59:47.747055454,2025-09-10,2025-09-26 15:39:34.705,HA,C,2543810980,JASSM,3,115,76,2,2,1,225,9,2,0,1,26,0,0,0,0,-170430.515748815,-4771976.454072799,4218864.624479771,-2.51429,-0.702947,0.607936,59.75,-50.5,-54.375,0.0,0.0,0.0,0.0,0.0,0.0,2,0,41.65245427310561,-92.04544188795384,9999.999058002872,139.85050202217258,-0.0042003672035182,0.0016847299406111,,9225.216264497592,11151.327114366952,150,8,2025-09-10,2025-09-26 15:39:34.701,HA,C,1823803582,HAWK11,1,1,73,2,1,1,225,2,1,0,0,12,1,225,2,1,-141857.74646170562,-4792729.531221236,4196985.673307896,-2.50614,1.19842,-0.900447,25.375,63.75,92.25,-0.171875,-5.71875,5.96875,-0.0195312,-0.0078125,0.0292969,4,0,41.38686133955207,-91.69537584533496,11079.07031083869,12.09117089745858,4.535742302055957,21.755754724724788,186.214,9225.216264497592,11151.327114366952,150,False,22.366104779491916,False,127.83861126377431,175.36166636806198,False,56.78458533402063,False,False
8,1970-07-23 09:59:47.757059216,2025-09-10,2025-09-26 15:39:35.705,HA,C,2544944224,JASSM,3,115,76,2,2,1,225,9,2,0,1,26,0,0,0,0,-170373.78405936187,-4772024.536104049,4218812.878386021,-2.51429,-0.702947,0.607936,59.75,-50.5,-54.375,0.0,0.0,0.0,0.0,0.0,0.0,2,0,41.651831034467584,-92.04474100882292,9999.999708489544,139.85096783108756,-0.0033863170355668,0.0016831707629556,,9225.216264497592,11151.327114366952,150,8,2025-09-10,2025-09-26 15:39:35.607,HA,C,1824797748,HAWK11,1,1,73,2,1,1,225,2,1,0,0,12,1,225,2,1,-141835.04724295562,-4792674.596650924,4197061.065886021,-2.5258,1.1548,-0.875328,28.0,64.75,90.5,-0.03125,-5.45312,5.82812,-0.0625,-0.00390625,0.0371094,4,0,41.38770107443037,-91.69512413811402,11105.791391097351,14.001404498545336,3.573252998469228,18.82558204335844,185.603,9225.216264497592,11151.327114366952,150,False,22.289590621389042,False,126.59817763271309,175.23940206885968,False,58.154769943339275,False,False
8,1970-07-23 09:59:47.766359932,2025-09-10,2025-09-26 15:39:36.635,HA,C,2546077616,JASSM,3,115,76,2,2,1,225,9,2,0,1,26,0,0,0,0,-170317.04480154935,-4772072.622041549,4218761.124479771,-2.51429,-0.702947,0.607936,59.75,-50.5,-54.375,0.0,0.0,0.0,0.0,0.0,0.0,2,0,41.65120771722123,-92.04404005077808,9999.996455655906,139.8514336867293,-0.0025721654828927,0.0016816164632075,,9225.216264497592,11151.327114366952,150,8,2025-09-10,2025-09-26 15:39:36.553,HA,C,1825513548,HAWK11,1,1,73,2,1,1,225,2,1,0,0,12,1,225,2,1,-141817.75622733062,-4792634.954072799,4197114.585417271,-2.50442,1.13706,-0.856345,29.5,65.75,89.375,0.046875,-5.17188,5.54688,0.09375,-0.015625,0.03125,4,0,41.38830122961228,-91.69493161864946,11123.088499791524,14.947996872151636,2.7232946841382546,19.328494657417178,185.603,9225.216264497592,11151.327114366952,150,False,22.22150368169404,False,125.92349114567794,175.14743642295116,False,58.92539522527761,False,False
8,1970-07-23 09:59:47.775040214,2025-09-10,2025-09-26 15:39:37.504,HA,C,2547151688,JASSM,3,115,76,2,2,1,225,9,2,0,1,26,0,0,0,0,-170263.27527029935,-4772118.192354049,4218712.077604771,-2.51429,-0.702947,0.607936,59.75,-50.5,-54.375,0.0,0.0,0.0,0.0,0.0,0.0,2,0,41.65061700137309,-92.04337579276437,9999.996338137538,139.85187514630834,-0.0018006117211673,0.001680131563457,,9225.216264497592,11151.327114366952,150,8,2025-09-10,2025-09-26 15:39:37.403,HA,C,1826984912,HAWK11,1,1,73,2,1,1,225,2,1,0,0,12,1,225,2,1,-141778.26208670562,-4792551.614229049,4197220.444792271,-2.37316,1.1223,-0.822885,33.5,68.25,86.25,-0.21875,-4.76562,5.10938,-0.00585938,-0.0117188,0.0351562,4,0,41.38951855050348,-91.69448932910534,11144.797668636998,16.06338407234154,1.0655555501697154,26.255711886188177,184.956,9225.216264497592,11151.327114366952,150,False,22.137696259587514,False,124.05936238687528,174.9674037925002,False,60.97317432379645,False,False
8,1970-07-23 09:59:47.785036996,2025-09-10,2025-09-26 15:39:38.503,HA,C,2548285130,JASSM,3,115,76,2,2,1,225,9,2,0,1,26,0,0,0,0,-170206.53332694,-4772166.282197799,4218660.319792271,-2.51429,-0.702947,0.607936,59.75,-50.5,-54.375,0.0,0.0,0.0,0.0,0.0,0.0,2,0,41.649993626627456,-92.04267482716762,10000.002130970248,139.85234099582806,-0.0009864061896978,0.0016785649414795,,9225.216264497592,11151.327114366952,150,8,2025-09-10,2025-09-26 15:39:38.607,HA,C,1828297212,HAWK11,1,1,73,2,1,1,225,2,1,0,0,12,1,225,2,1,-141739.29528983062,-4792473.966768111,4197312.585417271,-2.38965,1.06094,-0.770921,37.0,70.625,83.625,-0.171875,-5.375,5.71875,-0.09375,-0.0078125,0.046875,4,0,41.39060929773705,-91.69405131207928,11150.800645203031,19.356784300883103,-0.9462286783902868,22.798752384234223,186.251,9225.216264497592,11151.327114366952,150,False,22.056787190938365,False,122.42776280571893,174.8000992457734,False,62.767750182488314,False,False
8,1970-07-23 09:59:47.794037469,2025-09-10,2025-09-26 15:39:39.403,HA,C,2549418332,JASSM,3,115,76,2,2,1,225,9,2,0,1,26,0,0,0,0,-170149.80359061187,-4772214.356416549,4218608.573698521,-2.51429,-0.702947,0.607936,59.75,-50.5,-54.375,0.0,0.0,0.0,0.0,0.0,0.0,2,0,41.6493704171302,-92.04197402813956,10000.000485001156,139.85280672893015,-0.000172403940816,0.0016770202186827,,9225.216264497592,11151.327114366952,150,8,2025-09-10,2025-09-26 15:39:39.513,HA,C,1829331144,HAWK11,1,1,73,2,1,1,225,2,1,0,0,12,1,225,2,1,-141705.67028983062,-4792410.809541549,4197384.183073521,-2.5674,1.04301,-0.747816,39.625,72.125,82.125,0.1875,-5.70312,5.96875,-0.318359,-0.0078125,0.0195312,4,0,41.39147422811334,-91.6936719710609,11148.286090044532,20.521438956364424,-1.921319608671655,11.878046497804634,187.29,9225.216264497592,11151.327114366952,150,False,21.983744987428498,False,121.21395842035496,174.66163229827407,False,64.11434591392079,False,False
8,1970-07-23 09:59:47.804361042,2025-09-10,2025-09-26 15:39:40.436,HA,C,2550551540,JASSM,3,115,76,2,2,1,225,9,2,0,1,26,0,0,0,0,-170093.0733660025,-4772262.430635299,4218556.823698521,-2.51429,-0.702947,0.607936,59.75,-50.5,-54.375,0.0,0.0,0.0,0.0,0.0,0.0,2,0,41.64874717712885,-92.0412732367647,9999.99450212119,139.8532724512282,0.0006416212168506,0.0016754619459897,,9225.216264497592,11151.327114366952,150,8,2025-09-10,2025-09-26 15:39:40.703,HA,C,1830882042,HAWK11,1,1,73,2,1,1,225,2,1,0,0,12,1,225,2,1,-141652.68786795562,-4792315.077119674,4197489.679167271,-2.79856,1.03256,-0.733818,41.0,74.125,81.5,0.0,-6.20312,6.39062,0.00585938,0.00195312,-0.00390625,4,0,41.39276516656185,-91.69307289247033,11137.764693245528,21.224679762677912,-2.507459036735992,-1.797201044187317,189.16,9225.216264497592,11151.327114366952,150,True,21.89991334318954,False,120.74420000149034,174.45683273216093,False,64.78234406785432,False,False
8,1970-07-23 09:59:47.813037303,2025-09-10,2025-09-26 15:39:41.303,HA,C,2551684934,JASSM,3,115,76,2,2,1,225,9,2,0,1,26,0,0,0,0,-170036.33386404935,-4772310.516572799,4218505.065886021,-2.51429,-0.702851,0.608032,59.75,-50.5,-54.375,0.0,0.0,0.0,0.0,0.0,0.0,2,0,41.64812381218659,-92.0405723426498,10000.00360986349,139.85330998174965,-0.0056375028134881,-0.0014648466370781,,9225.216264497592,11151.327114366952,150,8,2025-09-10,2025-09-26 15:39:41.404,HA,C,1831796674,HAWK11,1,1,73,2,1,1,225,2,1,0,0,12,1,225,2,1,-141620.86560233062,-4792257.709932174,4197551.858854771,-2.79645,1.05423,-0.73842,41.375,75.0,81.75,-0.109375,-6.54688,6.73438,-0.00195312,0.0,-0.0117188,4,0,41.39353175705116,-91.69271301617792,11129.20766426073,20.270602012959493,-2.5904312006182684,-0.8003324353653688,190.149,9225.216264497592,11151.327114366952,150,True,21.83068824644427,False,120.70662769100693,174.32897549884868,False,64.94609666296766,False,False
8,1970-07-23 09:59:47.822378359,2025-09-10,2025-09-26 15:39:42.237,HA,C,2552759058,JASSM,3,115,76,2,2,1,225,9,2,0,1,26,0,0,0,0,-169982.5616472525,-4772356.082979049,4218456.015104771,-2.51429,-0.702851,0.608032,59.75,-50.5,-54.375,0.0,0.0,0.0,0.0,0.0,0.0,2,0,41.64753307363413,-92.03990811746137,10000.004976142473,139.85375139287734,-0.0048659321434586,-0.0014663214960949,,9225.216264497592,11151.327114366952,150,8,2025-09-10,2025-09-26 15:39:42.309,HA,C,1832949906,HAWK11,1,1,73,2,1,1,225,2,1,0,0,12,1,225,2,1,-141581.16833670562,-4792185.145479049,4197629.765104771,-2.76452,1.04598,-0.739475,41.75,75.75,82.25,-0.078125,-6.76562,6.95312,0.0449219,0.0,0.0292969,4,0,41.39449629478584,-91.69226442284274,11116.812638011652,20.57635086605686,-2.4092316672688074,0.6974122533425681,191.054,9225.216264497592,11151.327114366952,150,True,21.758670220579766,False,120.68532724197392,174.17141862025494,False,65.12450156045405,False,False
8,1970-07-23 09:59:47.831035781,2025-09-10,2025-09-26 15:39:43.103,HA,C,2553832800,JASSM,3,115,76,2,2,1,225,9,2,0,1,26,0,0,0,0,-169928.80822928375,-4772401.633760299,4218406.979948521,-2.51419,-0.702851,0.608032,59.75,-50.5,-54.375,0.0,0.0,0.0,0.0,0.0,0.0,2,0,41.646942525641215,-92.03924413648554,10000.007560287702,139.85419263657946,-0.0040946218496961,0.004037328903792,,9225.216264497592,11151.327114366952,150,8,2025-09-10,2025-09-26 15:39:43.309,HA,C,1834142904,HAWK11,1,1,73,2,1,1,225,2,1,0,0,12,1,225,2,1,-141538.92028983062,-4792108.930635299,4197711.800261021,-2.70316,1.02853,-0.741296,42.5,76.25,82.625,-0.125,-7.03125,7.1875,0.0136719,0.0,-0.00195312,4,0,41.39551086682932,-91.6917866324433,11104.216128159238,21.22712886775198,-2.043315041778597,3.5133753853060594,192.496,9225.216264497592,11151.327114366952,150,True,21.6856861643185,False,120.45306135407661,174.0047103319571,False,65.52343194539274,False,False
8,1970-07-23 09:59:47.840357194,2025-09-10,2025-09-26 15:39:44.035,HA,C,2554906542,JASSM,3,115,76,2,2,1,225,9,2,0,1,26,0,0,0,0,-169875.05505545562,-4772447.180635299,4218357.940886021,-2.51419,-0.702851,0.608032,59.75,-50.5,-54.375,0.0,0.0,0.0,0.0,0.0,0.0,2,0,41.64635197077744,-92.03858017223108,9999.995869872932,139.85463386403595,-0.0033233114162414,0.0040358422677067,,9225.216264497592,11151.327114366952,150,8,2025-09-10,2025-09-26 15:39:43.701,HA,C,1834620104,HAWK11,1,1,73,2,1,1,225,2,1,0,0,12,1,225,2,1,-141521.67028983062,-4792078.012666549,4197745.065886021,-2.71093,1.02873,-0.741296,43.0,76.5,82.75,-0.0625,-6.9375,7.125,-0.00585938,0.0,0.0,4,0,41.39592237525127,-91.69159147396996,11099.070930279298,21.219720754188163,-2.045861000403788,3.076127110221579,192.801,9225.216264497592,11151.327114366952,150,True,21.628882362756052,False,120.2749254261278,173.9288807565311,False,65.77710932800565,False,False
8,1970-07-23 09:59:47.851074122,2025-09-10,2025-09-26 15:39:45.107,HA,C,2556218512,JASSM,3,115,76,2,2,1,225,9,2,0,1,26,0,0,0,0,-169809.37549002594,-4772502.836885299,4218298.026823521,-2.51419,-0.702851,0.608032,59.75,-50.5,-54.375,0.0,0.0,0.0,0.0,0.0,0.0,2,0,41.64563039662709,-92.03776890692995,10000.00779544055,139.8551729712178,-0.0023808779046456,0.004034035908354,,9225.216264497592,11151.327114366952,150,8,2025-09-10,2025-09-26 15:39:44.809,HA,C,1835892636,HAWK11,1,1,73,2,1,1,225,2,1,0,0,12,1,225,2,1,-141475.46521170562,-4791996.680635299,4197832.907682896,-2.69262,1.01051,-0.746378,44.0,76.5,83.5,-0.015625,-7.1875,7.4375,0.0175781,0.0136719,0.00976562,4,0,41.39700727884314,-91.6910681954162,11086.20658598208,21.82376912236413,-1.4874673240372216,3.4000271915106004,194.121,9225.216264497592,11151.327114366952,150,True,21.544532341418645,False,119.92611217683638,173.74549364376833,False,66.31193856292974,False,False
8,1970-07-23 09:59:47.862074451,2025-09-10,2025-09-26 15:39:46.207,HA,C,2557531204,JASSM,3,115,76,2,2,1,225,9,2,0,1,26,0,0,0,0,-169743.65979178375,-4772558.518525924,4218238.073698521,-2.51419,-0.702851,0.608032,59.75,-50.5,-54.375,0.0,0.0,0.0,0.0,0.0,0.0,2,0,41.64490840990323,-92.03695721566966,9999.999280857248,139.85571235379024,-0.0014379193991184,0.004032220937591,,9225.216264497592,11151.327114366952,150,8,2025-09-10,2025-09-26 15:39:46.309,HA,C,1837642368,HAWK11,1,1,73,2,1,1,225,2,1,0,0,12,1,225,2,1,-141410.95349295562,-4791884.890596236,4197954.767057896,-2.84237,0.995458,-0.744844,44.5,76.75,84.625,0.09375,-6.84375,6.96875,-0.0878906,0.00390625,0.00195312,4,0,41.39850621407587,-91.69033693895504,11070.89936764365,22.44308674537556,-1.323256584947497,-5.780501876794387,196.064,9225.216264497592,11151.327114366952,150,True,21.449995195080152,False,119.87528330689612,173.495565254597,False,66.61552606634405,False,False
8,1970-07-23 09:59:47.873073657,2025-09-10,2025-09-26 15:39:47.307,HA,C,2558843214,JASSM,3,115,76,2,2,1,225,9,2,0,1,26,0,0,0,0,-169677.97815115875,-4772614.172822799,4218178.151823521,-2.51419,-0.702851,0.608032,59.75,-50.5,-54.375,0.0,0.0,0.0,0.0,0.0,0.0,2,0,41.644186783692696,-92.03614596253658,10000.000531460342,139.85625143755274,-0.0004954431628578,0.0040304021860485,,9225.216264497592,11151.327114366952,150,8,2025-09-10,2025-09-26 15:39:47.557,HA,C,1838954666,HAWK11,1,1,73,2,1,1,225,2,1,0,0,12,1,225,2,1,-141362.54138358062,-4791800.701143111,4198047.300261021,-2.90603,1.01876,-0.761621,43.75,77.125,85.625,-0.140625,-7.3125,7.39062,-0.0839844,0.00195312,-0.015625,4,0,41.39964016890998,-91.6897882577927,11061.044641890929,21.17615148005096,-0.8056190793743164,-8.491304525636908,197.885,9225.216264497592,11151.327114366952,150,True,21.36497884114029,False,120.36544979694914,173.3010112600799,False,66.32176887784023,False,False
8,1970-07-23 09:59:47.884095478,2025-09-10,2025-09-26 15:39:48.409,HA,C,2560155564,JASSM,3,115,76,2,2,1,225,9,2,0,1,26,0,0,0,0,-169612.2795427603,-4772669.838838424,4218118.214323521,-2.51419,-0.702851,0.608128,59.75,-50.5,-54.375,0.0,0.0,0.0,0.0,0.0,0.0,2,0,41.64346498015602,-92.0353345190728,10000.000614631606,139.86001604817957,-0.0040013899180771,0.0040284918599666,,9225.216264497592,11151.327114366952,150,8,2025-09-10,2025-09-26 15:39:48.403,HA,C,1840147666,HAWK11,1,1,73,2,1,1,225,2,1,0,0,12,1,225,2,1,-141319.37146170562,-4791723.676729049,4198132.458464146,-2.93604,1.02873,-0.77351,42.5,77.5,86.625,-0.03125,-7.34375,7.39062,0.0214844,0.00390625,-0.00976562,4,0,41.40068079497548,-91.68929966020346,11053.203283670153,20.54190228894829,-0.3245952315183502,-9.807667580230213,198.899,9225.216264497592,11151.327114366952,150,True,21.282066005672867,False,121.06708063256566,173.1207898969755,False,65.80207918463822,False,False
8,1970-07-23 09:59:47.895074405,2025-09-10,2025-09-26 15:39:49.507,HA,C,2561408264,JASSM,3,115,76,2,2,1,225,9,2,0,1,26,0,0,0,0,-169549.56701834625,-4772722.973604049,4218060.999479771,-2.51419,-0.702851,0.608128,59.75,-50.5,-54.375,0.0,0.0,0.0,0.0,0.0,0.0,2,0,41.64277597438402,-92.03455997411965,9999.99969472137,139.86053072474036,-0.0031015265058202,0.0040268118216092,,9225.216264497592,11151.327114366952,150,8,2025-09-10,2025-09-26 15:39:49.701,HA,C,1841698564,HAWK11,1,1,73,2,1,1,225,2,1,0,0,12,1,225,2,1,-141264.71130545562,-4791622.441377486,4198245.466276646,-2.93566,1.05097,-0.786836,41.0,77.625,87.875,0.015625,-7.25,7.07812,0.0117188,0.0078125,0.0,4,0,41.40205545581761,-91.68868229983914,11045.407391372271,19.42210089311553,0.0623901292642609,-8.886636732726789,199.987,9225.216264497592,11151.327114366952,150,True,21.19246977635959,False,121.87114730057206,172.88982591527048,False,65.23171465232103,False,False
8,1970-07-23 09:59:47.905934859,2025-09-10,2025-09-26 15:39:50.593,HA,C,2562660966,JASSM,3,115,76,2,2,1,225,9,2,0,1,26,0,0,0,0,-169486.85437186187,-4772776.106416549,4218003.784636021,-2.51419,-0.702755,0.608128,59.75,-50.5,-54.375,0.0,0.0,0.0,0.0,0.0,0.0,2,0,41.64208697500836,-92.0337854450364,9999.999138925272,139.8573966290007,-0.004847281014756,0.0008879120483382,,9225.216264497592,11151.327114366952,150,8,2025-09-10,2025-09-26 15:39:50.607,HA,C,1842812030,HAWK11,1,1,73,2,1,1,225,2,1,0,0,12,1,225,2,1,-141227.53943045562,-4791550.495088424,4198326.194792271,-2.91955,1.05845,-0.794794,39.875,78.125,88.25,0.0,-7.125,7.0,0.0878906,0.00195312,0.0136719,4,0,41.40303491562885,-91.6882635380256,11040.898555325834,18.98026777183402,0.3846873741169925,-7.660871912773404,200.427,9225.216264497592,11151.327114366952,150,True,21.11278402943987,False,122.45436812190917,172.72041838543555,False,64.81777584544866,False,False
8,1970-07-23 09:59:47.917176021,2025-09-10,2025-09-26 15:39:51.717,HA,C,2563973314,JASSM,3,115,76,2,2,1,225,9,2,0,1,26,0,0,0,0,-169421.15564139312,-4772831.768525924,4217943.843229771,-2.51419,-0.702755,0.608128,59.75,-50.5,-54.375,0.0,0.0,0.0,0.0,0.0,0.0,2,0,41.6413651516446,-92.0329740544582,9999.997600024668,139.85793577434495,-0.0039045706793777,0.0008860927130909,,9225.216264497592,11151.327114366952,150,8,2025-09-10,2025-09-26 15:39:51.809,HA,C,1844283394,HAWK11,1,1,73,2,1,1,225,2,1,0,0,12,1,225,2,1,-141178.94958670562,-4791454.289033736,4198434.669401646,-2.87391,1.07254,-0.803039,39.0,78.0,89.125,-0.328125,-7.28125,6.96875,-0.0234375,0.0,-0.00585938,4,0,41.40434798844885,-91.6877168876924,11036.10001090825,18.28936287201639,0.6361797495532343,-4.473593388940988,200.952,9225.216264497592,11151.327114366952,150,True,21.021413819418065,False,122.91200571617604,172.4981676169722,False,64.58453266142092,False,False
8,1970-07-23 09:59:47.927072969,2025-09-10,2025-09-26 15:39:52.707,HA,C,2565226014,JASSM,3,115,76,2,2,1,225,9,2,0,1,26,0,0,0,0,-169358.44299490875,-4772884.901338424,4217886.624479771,-2.51419,-0.702755,0.608128,59.75,-50.5,-54.375,0.0,0.0,0.0,0.0,0.0,0.0,2,0,41.6406761151431,-92.03219955916244,9999.999095044945,139.85845039669806,-0.0030046956016643,0.000884346241936,,9225.216264497592,11151.327114366952,150,8,2025-09-10,2025-09-26 15:39:52.701,HA,C,1845317326,HAWK11,1,1,73,2,1,1,225,2,1,0,0,12,1,225,2,1,-141145.63513358062,-4791386.336885299,4198511.241667271,-2.98426,1.07273,-0.803422,38.125,78.625,89.25,-0.015625,-6.90625,6.6875,-0.0839844,-0.00195312,0.00976562,4,0,41.40527495251039,-91.68734277790234,11032.692321906508,18.27498456828466,0.6552350096072639,-10.78846340401616,201.429,9225.216264497592,11151.327114366952,150,False,20.942804808839877,False,123.37035420090298,172.33591337789116,False,64.28758348460228,False,False
8,1970-07-23 09:59:47.938094008,2025-09-10,2025-09-26 15:39:53.809,HA,C,2566538364,JASSM,3,115,76,2,2,1,225,9,2,0,1,26,0,0,0,0,-169292.74402029935,-4772940.561494674,4217826.683073521,-2.51419,-0.702755,0.608128,59.75,-50.5,-54.375,0.0,0.0,0.0,0.0,0.0,0.0,2,0,41.63995429213165,-92.03138820188332,10000.00381879386,139.85898950492646,-0.0020619929867445,0.0008825355965637,,9225.216264497592,11151.327114366952,150,8,2025-09-10,2025-09-26 15:39:53.607,HA,C,1846231958,HAWK11,1,1,73,2,1,1,225,2,1,0,0,12,1,225,2,1,-141116.42614920562,-4791325.719697799,4198579.757292271,-3.05099,1.09171,-0.812722,36.875,78.875,89.5,-0.28125,-7.15625,6.875,-0.0507812,0.00976562,-0.03125,4,0,41.40610317647251,-91.6870151278918,11030.147494534524,17.389290656549946,0.9088265843653444,-13.83743394414863,202.174,9225.216264497592,11151.327114366952,150,False,20.864266260672743,False,123.96606134777593,172.18732414952444,False,63.84059298735324,False,False
