Unnamed: 0_cm,Subject_cm,Timestamp,SampleDate_cm,SampleTime_cm,Configuration_cm,Scenario_cm,DisTime_cm,MarkingTxt_cm,Application_cm,EntId_cm,Site_cm,ExerciseId_cm,ForceId_cm,Category_cm,Country_cm,Domain_cm,Kind_cm,Extra_cm,Specific_cm,Subcategory_cm,AltCategory_cm,AltCountry_cm,AltDomain_cm,AltKind_cm,ECEF_X_cm,ECEF_Y_cm,ECEF_Z_cm,OriPhi_cm,OriPsi_cm,OriTheta_cm,LinVelX_cm,LinVelY_cm,LinVelZ_cm,LinAccX_cm,LinAccY_cm,LinAccZ_cm,AngVelX_cm,AngVelY_cm,AngVelZ_cm,DrAlg_cm,Appearance_cm,Latitude_cm,Longitude_cm,Altitude_cm,Heading_cm,Pitch_cm,Roll_cm,CalibratedAirspeed_cm,CM_Altitude_Lead_cm,CM_Altitude_Wing_cm,CM_Airspeed_cm,Unnamed: 0_ac,Subject_ac,SampleDate_ac,SampleTime_ac,Configuration_ac,Scenario_ac,DisTime_ac,MarkingTxt_ac,Application_ac,EntId_ac,Site_ac,ExerciseId_ac,ForceId_ac,Category_ac,Country_ac,Domain_ac,Kind_ac,Extra_ac,Specific_ac,Subcategory_ac,AltCategory_ac,AltCountry_ac,AltDomain_ac,AltKind_ac,ECEF_X_ac,ECEF_Y_ac,ECEF_Z_ac,OriPhi_ac,OriPsi_ac,OriTheta_ac,LinVelX_ac,LinVelY_ac,LinVelZ_ac,LinAccX_ac,LinAccY_ac,LinAccZ_ac,AngVelX_ac,AngVelY_ac,AngVelZ_ac,DrAlg_ac,Appearance_ac,Latitude_ac,Longitude_ac,Altitude_ac,Heading_ac,Pitch_ac,Roll_ac,CalibratedAirspeed_ac,CM_Altitude_Lead_ac,CM_Altitude_Wing_ac,CM_Airspeed_ac,Bank_Angle_Condition,distance_nm,Distance_Condition,angle_between_vel,angle_between_pos,Cone_Condition,angle_between_pos_nose,Nose_Cone_Condition,Intercept_Criteria
14011,8,1970-07-23 10:02:00.858120494,2025-09-10,2025-09-12 19:21:25.812,AA,C,2070470140,JASSM,3,116,76,2,2,1,225,9,2,0,1,26,0,0,0,0,-163292.72497733062,-4785308.895479049,4204118.872526646,-2.36559,-0.397301,0.382249,72.25,-30.25,-31.375,0.0,0.0,0.0,0.0,0.0,0.0,2,0,41.47509469649996,-91.95438899350609,10000.00152228615,119.85313749974772,-0.0043720701457362,0.0050464144599024,,9258.460327898714,10912.736076441255,150,14012,8,2025-09-10,2025-09-12 19:21:25.821,AA,C,524028752,HAWK11,1,1,73,2,1,1,225,2,1,0,0,12,1,225,2,1,-137753.10193045562,-4795631.427705611,4193751.185026646,2.32226,2.65983,-0.503721,-89.625,37.875,41.625,-0.09375,-7.0625,7.32812,0.0195312,-0.00195312,0.00390625,4,0,41.34847587873743,-91.6453519787284,10913.298146145056,-51.98234328290318,1.7824322975560187,-4.467237779327958,0.0,9258.460327898714,10912.736076441255,150,True,15.83419922937989,False,178.65629986190822,178.6251397876668,False,2.6710144497711794,True,False
14025,8,1970-07-23 10:02:00.868122450,2025-09-10,2025-09-12 19:21:26.812,AA,C,2071663188,JASSM,3,116,76,2,2,1,225,9,2,0,1,26,0,0,0,0,-163220.45251639312,-4785339.229463424,4204087.362761021,-2.36559,-0.397301,0.382249,72.25,-30.25,-31.375,0.0,0.0,0.0,0.0,0.0,0.0,2,0,41.47471622095605,-91.95351228838368,9999.999638927568,119.8537181345863,-0.0036139690502921,0.00504513951659,,9258.460327898714,10912.736076441255,150,14026,8,2025-09-10,2025-09-12 19:21:26.821,AA,C,525261516,HAWK11,1,1,73,2,1,1,225,2,1,0,0,12,1,225,2,1,-137846.68396170562,-4795591.872041549,4193793.8656907086,2.34258,2.66577,-0.502091,-90.25,37.625,41.625,-0.015625,-6.90625,7.09375,0.00390625,-0.00390625,-0.00390625,4,0,41.34898331813525,-91.64648270028434,10915.04394875354,-52.2661978204288,1.9164328595992872,-3.147548366191161,0.0,9258.460327898714,10912.736076441255,150,True,15.729589307381158,False,178.7669056276773,178.6122561472484,False,2.515667371218461,True,False
14040,8,1970-07-23 10:02:00.879559348,2025-09-10,2025-09-12 19:21:27.955,AA,C,2072915874,JASSM,3,116,76,2,2,1,225,9,2,0,1,26,0,0,0,0,-163144.56726248687,-4785371.079072799,4204054.276823521,-2.36559,-0.397301,0.382249,72.25,-30.25,-31.375,0.0,0.0,0.0,0.0,0.0,0.0,2,0,41.47431881603771,-91.95259176934752,9999.997553241596,119.8543277823441,-0.0028179703885492,0.0050437983346907,,9258.460327898714,10912.736076441255,150,14039,8,2025-09-10,2025-09-12 19:21:27.916,AA,C,526534048,HAWK11,1,1,73,2,1,1,225,2,1,0,0,12,1,225,2,1,-137942.64099295562,-4795551.363252486,4193837.323698521,2.35102,2.66443,-0.504488,-90.75,37.5,41.5,-0.015625,-6.79688,7.0,0.0078125,-0.00195312,0.015625,4,0,41.34950125626812,-91.64764211881092,10916.302573834071,-52.124315770144406,1.972881701247412,-2.696277174125877,0.0,9258.460327898714,10912.736076441255,150,True,15.621275504410562,False,178.8907083953431,178.59928653180384,False,2.3482373165245143,True,False
14052,8,1970-07-23 10:02:00.889170708,2025-09-10,2025-09-12 19:21:28.917,AA,C,2074108928,JASSM,3,116,76,2,2,1,225,9,2,0,1,26,0,0,0,0,-163072.29480154935,-4785401.413057174,4204022.767057896,-2.36559,-0.397301,0.382249,72.25,-30.25,-31.375,0.0,0.0,0.0,0.0,0.0,0.0,2,0,41.473940326745286,-91.95171508513428,10000.003187474467,119.85490839440511,-0.0020598691906717,0.0050425233317189,,9258.460327898714,10912.736076441255,150,14051,8,2025-09-10,2025-09-12 19:21:28.916,AA,C,527766814,HAWK11,1,1,73,2,1,1,225,2,1,0,0,12,1,225,2,1,-138037.33044608062,-4795511.733369674,4193879.811979771,2.34881,2.66596,-0.50631,-91.25,37.5,41.5,-0.015625,-6.76562,7.07812,0.0,0.00390625,0.0,4,0,41.350007624871445,-91.64878612133263,10917.539775491125,-52.11096979821235,2.102746791029781,-2.779440025440886,0.0,9258.460327898714,10912.736076441255,150,True,15.516172369992095,False,178.95471474599097,178.58733966204963,False,2.2481400560126255,True,False
14064,8,1970-07-23 10:02:00.898392025,2025-09-10,2025-09-12 19:21:29.839,AA,C,2075242326,JASSM,3,116,76,2,2,1,225,9,2,0,1,26,0,0,0,0,-163003.63562186187,-4785430.227510299,4203992.829557896,-2.36559,-0.397301,0.382249,72.25,-30.25,-31.375,0.0,0.0,0.0,0.0,0.0,0.0,2,0,41.47358075091442,-91.95088224164556,9999.997948152324,119.85545996751436,-0.0013396687150456,0.0050413089907006,,9258.460327898714,10912.736076441255,150,14066,8,2025-09-10,2025-09-12 19:21:29.915,AA,C,528920046,HAWK11,1,1,73,2,1,1,225,2,1,0,0,12,1,225,2,1,-138125.46325858062,-4795475.076143111,4193918.851042271,2.35131,2.66826,-0.504488,-91.875,37.5,41.375,-0.1875,-6.84375,7.07812,0.0,-0.00195312,-0.00390625,4,0,41.35047413581573,-91.649850846201,10918.160317129656,-52.26733092095458,2.105114081681016,-2.578384524492363,0.0,9258.460327898714,10912.736076441255,150,True,15.417613170098535,False,179.06514887666486,178.57696748544222,False,2.063141938687104,True,False
14077,8,1970-07-23 10:02:00.909977580,2025-09-10,2025-09-12 19:21:30.997,AA,C,2076495026,JASSM,3,116,76,2,2,1,225,9,2,0,1,26,0,0,0,0,-162927.74987967435,-4785462.075166549,4203959.741667271,-2.36559,-0.397205,0.382249,72.25,-30.25,-31.375,0.0,0.0,0.0,0.0,0.0,0.0,2,0,41.47318332343456,-91.94996174969395,9999.99833079514,119.8524317019004,-0.0041133212670463,0.0029911164849209,,9258.460327898714,10912.736076441255,150,14076,8,2025-09-10,2025-09-12 19:21:30.956,AA,C,529755146,HAWK11,1,1,73,2,1,1,225,2,1,0,0,12,1,225,2,1,-138189.92810233062,-4795448.283174361,4193947.4301438336,2.35897,2.66788,-0.504392,-92.125,37.5,41.375,-0.125,-6.875,7.0625,0.015625,0.0,0.00585938,4,0,41.35081540232297,-91.65062964309598,10918.71879336124,-52.25742599986803,2.0887091625404763,-2.149077521492567,0.0,9258.460327898714,10912.736076441255,150,True,15.329396847805052,False,179.07770872623456,178.5676732483199,False,2.02040010104902,True,False
14089,8,1970-07-23 10:02:00.918762299,2025-09-10,2025-09-12 19:21:31.876,AA,C,2077688070,JASSM,3,116,76,2,2,1,225,9,2,0,1,26,0,0,0,0,-162855.47741873687,-4785492.405244674,4203928.229948521,-2.36559,-0.397205,0.382249,72.25,-30.25,-31.375,0.0,0.0,0.0,0.0,0.0,0.0,2,0,41.47280482412215,-91.94908509767028,10000.001125795718,119.8530122796569,-0.0033552260626639,0.0029898014256386,,9258.460327898714,10912.736076441255,150,14091,8,2025-09-10,2025-09-12 19:21:32.024,AA,C,531465110,HAWK11,1,1,73,2,1,1,225,2,1,0,0,12,1,225,2,1,-138322.86364920562,-4795393.380830611,4194005.729948521,2.35485,2.66472,-0.506501,-92.75,37.5,41.125,0.0,-6.89062,7.07812,0.0253906,0.0,-0.00390625,4,0,41.351512768532665,-91.65223553703107,10919.362742335948,-52.05981565053718,2.071511029200475,-2.465651573548382,0.0,9258.460327898714,10912.736076441255,150,True,15.200576682032217,False,179.16761558436224,178.55481175860749,False,1.7869006793028717,True,False
14100,8,1970-07-23 10:02:00.928106828,2025-09-10,2025-09-12 19:21:32.810,AA,C,2078881118,JASSM,3,116,76,2,2,1,225,9,2,0,1,26,0,0,0,0,-162783.20495779935,-4785522.735322799,4203896.716276646,-2.36559,-0.397205,0.382249,72.25,-30.25,-31.375,0.0,0.0,0.0,0.0,0.0,0.0,2,0,41.47242630493378,-91.94820845584596,10000.003344179884,119.85359284630266,-0.0025971242526358,0.0029884749147094,,9258.460327898714,10912.736076441255,150,14097,8,2025-09-10,2025-09-12 19:21:32.618,AA,C,532180910,HAWK11,1,1,73,2,1,1,225,2,1,0,0,12,1,225,2,1,-138378.77771170562,-4795370.349580611,4194030.071745396,2.36099,2.66759,-0.505351,-93.125,37.5,41.125,-0.0625,-6.96875,7.10938,0.00390625,0.00195312,0.0,4,0,41.35180450325878,-91.6529109817006,10919.39853632082,-52.21104789740056,2.121269991198067,-2.039672283154025,0.0,9258.460327898714,10912.736076441255,150,True,15.120131922471991,False,179.1465540532395,178.54700056957893,False,1.7244008130479116,True,False
14112,8,1970-07-23 10:02:00.938093757,2025-09-10,2025-09-12 19:21:33.809,AA,C,2080014512,JASSM,3,116,76,2,2,1,225,9,2,0,1,26,0,0,0,0,-162714.54626639312,-4785551.545869674,4203866.776823521,-2.36559,-0.397205,0.382345,72.25,-30.25,-31.375,0.0,0.0,0.0,0.0,0.0,0.0,2,0,41.47206671361897,-91.9473756585429,9999.998240122572,119.85799176660144,-0.005797721667703,0.0029869629614127,,9258.460327898714,10912.736076441255,150,14115,8,2025-09-10,2025-09-12 19:21:33.916,AA,C,533771574,HAWK11,1,1,73,2,1,1,225,2,1,0,0,12,1,225,2,1,-138503.33630545562,-4795319.588838424,4194084.098112584,2.36712,2.66337,-0.508802,-93.625,37.5,41.125,-0.046875,-6.9375,7.125,0.00390625,0.00585938,-0.00195312,4,0,41.3524497916035,-91.6544154893172,10920.396895703523,-51.92244814124605,2.1249411514815035,-1.7945739132037712,0.0,9258.460327898714,10912.736076441255,150,True,14.999078958291678,False,179.10147934090267,178.53602339144985,False,1.6477340996065934,True,False
14124,8,1970-07-23 10:02:00.948086262,2025-09-10,2025-09-12 19:21:34.808,AA,C,2081267212,JASSM,3,116,76,2,2,1,225,9,2,0,1,26,0,0,0,0,-162638.66003592435,-4785583.389619674,4203833.686979771,-2.36559,-0.397205,0.382345,72.25,-30.25,-31.375,0.0,0.0,0.0,0.0,0.0,0.0,2,0,41.47166926817175,-91.94645520517751,10000.000143094538,119.85860133902402,-0.005001720955739,0.0029856355403306,,9258.460327898714,10912.736076441255,150,14125,8,2025-09-10,2025-09-12 19:21:34.915,AA,C,534885040,HAWK11,1,1,73,2,1,1,225,2,1,0,0,12,1,225,2,1,-138590.86364920562,-4795284.335908736,4194122.358854771,2.35562,2.65944,-0.512733,-93.875,35.625,43.125,-0.125,-6.90625,7.0625,-0.015625,0.0,0.00390625,4,0,41.35290275000954,-91.65547258098972,10922.7730927387,-51.62590543075635,2.159002966416959,-2.5525949139556507,0.0,9258.460327898714,10912.736076441255,150,True,14.896669032485354,False,177.71959264608984,178.52615589924508,False,2.9274610967881256,True,False
14138,8,1970-07-23 10:02:00.958110277,2025-09-10,2025-09-12 19:21:35.811,AA,C,2082460276,JASSM,3,116,76,2,2,1,225,9,2,0,1,26,0,0,0,0,-162566.38659842435,-4785613.717744674,4203802.169401646,-2.36559,-0.397205,0.382345,72.25,-30.25,-31.375,0.0,0.0,0.0,0.0,0.0,0.0,2,0,41.47129071435763,-91.94557858306644,9999.999995574017,119.85918187963102,-0.0042436046120717,0.0029843513255793,,9258.460327898714,10912.736076441255,150,14139,8,2025-09-10,2025-09-12 19:21:35.915,AA,C,536157572,HAWK11,1,1,73,2,1,1,225,2,1,0,0,12,1,225,2,1,-138691.76599295562,-4795243.519502486,4194164.991667271,2.25045,2.66222,-0.509857,-95.0,37.125,40.625,-0.109375,-6.89062,7.01562,0.015625,0.00585938,-0.0078125,4,0,41.35341600050204,-91.65669128502724,10921.888239508397,-51.840628735122536,2.1324590451048047,-8.508493194913017,0.0,9258.460327898714,10912.736076441255,150,True,14.788416895294501,False,178.71977228187717,178.51803704627926,False,1.3271346845584957,True,False
14150,8,1970-07-23 10:02:00.969559821,2025-09-10,2025-09-12 19:21:36.955,AA,C,2083772608,JASSM,3,116,76,2,2,1,225,9,2,0,1,26,0,0,0,0,-162486.88757498687,-4785647.075166549,4203767.501432896,-2.36559,-0.397205,0.382345,72.25,-30.25,-31.375,0.0,0.0,0.0,0.0,0.0,0.0,2,0,41.47087432722196,-91.94461433297336,9999.998548614018,119.85982044659768,-0.0034097060029647,0.0029829561290025,,9258.460327898714,10912.736076441255,150,14152,8,2025-09-10,2025-09-12 19:21:37.024,AA,C,537430104,HAWK11,1,1,73,2,1,1,225,2,1,0,0,12,1,225,2,1,-138793.01599295562,-4795203.977510299,4194207.251432896,2.28717,2.67843,-0.497873,-96.0,36.625,40.0,-0.171875,-6.95312,7.0,0.107422,0.00195312,-0.0117188,4,0,41.35391908378703,-91.65791371845222,10923.363767686296,-52.90525135851106,2.181222370992414,-5.996260116296041,0.0,9258.460327898714,10912.736076441255,150,True,14.67576967960421,False,178.2034076533167,178.51115225893122,False,1.263437867037154,True,False
14162,8,1970-07-23 10:02:00.979077722,2025-09-10,2025-09-12 19:21:37.907,AA,C,2084965656,JASSM,3,116,76,2,2,1,225,9,2,0,1,26,0,0,0,0,-162414.61511404935,-4785677.401338424,4203735.983854771,-2.36559,-0.397205,0.382345,72.25,-30.25,-31.375,0.0,0.0,0.0,0.0,0.0,0.0,2,0,41.47049577076325,-91.94373774475204,10000.001385023008,119.8604009556124,-0.0026516033524373,0.0029816771185815,,9258.460327898714,10912.736076441255,150,14160,8,2025-09-10,2025-09-12 19:21:37.835,AA,C,537867536,HAWK11,1,1,73,2,1,1,225,2,1,0,0,12,1,225,2,1,-138828.63318045562,-4795190.034150924,4194222.137175084,2.33146,2.68197,-0.497969,-96.125,36.625,39.875,-0.09375,-7.0,7.1875,0.111328,0.00585938,-0.015625,4,0,41.354096385602766,-91.65834375560212,10923.845023985516,-53.03246515586279,2.307393693979748,-3.366272176631456,0.0,9258.460327898714,10912.736076441255,150,True,14.608296100711478,False,178.15399198221584,178.5056337447862,False,1.237323601972464,True,False
14176,8,1970-07-23 10:02:00.990799232,2025-09-10,2025-09-12 19:21:39.079,AA,C,2086218354,JASSM,3,116,76,2,2,1,225,9,2,0,1,26,0,0,0,0,-162338.72888358062,-4785709.241182174,4203702.890104771,-2.36559,-0.397205,0.382345,72.25,-30.25,-31.375,0.0,0.0,0.0,0.0,0.0,0.0,2,0,41.47009829302491,-91.94281733741444,10000.001183065337,119.86101047857105,-0.0018556019233085,0.0029803463133151,,9258.460327898714,10912.736076441255,150,14179,8,2025-09-10,2025-09-12 19:21:39.212,AA,C,540014934,HAWK11,1,1,73,2,1,1,225,2,1,0,0,12,1,225,2,1,-139001.35388358062,-4795123.610322799,4194293.399870396,2.49799,2.66433,-0.515993,-96.0,36.75,40.875,-0.15625,-6.90625,7.0,0.0332031,0.0,0.0136719,4,0,41.354942835669256,-91.66042878231517,10927.124564167156,-51.68258051416568,2.4657063686213903,5.741121191663104,0.0,9258.460327898714,10912.736076441255,150,True,14.454006572899672,False,178.34896010338014,178.49977891396222,False,1.5194920544913921,True,False
14186,8,1970-07-23 10:02:01.000079390,2025-09-10,2025-09-12 19:21:40.007,AA,C,2087471052,JASSM,3,116,76,2,2,1,225,9,2,0,1,26,0,0,0,0,-162262.84265311187,-4785741.081025924,4203669.794401646,-2.36559,-0.397205,0.382345,72.25,-30.25,-31.375,0.0,0.0,0.0,0.0,0.0,0.0,2,0,41.46970079472392,-91.94189694132086,10000.000780613582,119.86161998928092,-0.0010595938813314,0.0029790040538351,,9258.460327898714,10912.736076441255,150,14185,8,2025-09-10,2025-09-12 19:21:39.916,AA,C,540889800,HAWK11,1,1,73,2,1,1,225,2,1,0,0,12,1,225,2,1,-139071.49255545562,-4795095.677705611,4194323.153776646,2.44066,2.65647,-0.519924,-95.75,37.0,41.5,-0.046875,-6.9375,7.0625,-0.140625,-0.00390625,0.00585938,4,0,41.35529776164967,-91.66127582031008,10927.86871824444,-51.24207664037172,2.367964686115608,2.2519117611490342,0.0,9258.460327898714,10912.736076441255,150,True,14.362700179132643,False,178.51298842089673,178.49211728566542,False,1.7087223219079577,True,False
14204,8,1970-07-23 10:02:01.011559700,2025-09-10,2025-09-12 19:21:41.155,AA,C,2088723752,JASSM,3,116,76,2,2,1,225,9,2,0,1,26,0,0,0,0,-162186.95642264312,-4785772.918916549,4203636.698698521,-2.36559,-0.397109,0.382345,72.25,-30.125,-31.375,0.0,0.0,0.0,0.0,0.0,0.0,2,0,41.4693033006646,-91.94097655726306,9999.999622446092,119.8585918742376,-0.0038332408015035,0.000928313261137,,9258.460327898714,10912.736076441255,150,14205,8,2025-09-10,2025-09-12 19:21:41.214,AA,C,542321398,HAWK11,1,1,73,2,1,1,225,2,1,0,0,12,1,225,2,1,-139187.73083670562,-4795049.644502486,4194372.607878208,2.37153,2.64966,-0.52443,-96.0,37.5,41.5,0.046875,-6.92188,6.98438,0.00585938,0.00585938,-0.0078125,4,0,41.35588539021912,-91.66267951625,10930.058011119154,-50.8188716738179,2.332424854880751,-1.8855864994604343,0.0,9258.460327898714,10912.736076441255,150,True,14.242737543874506,False,178.7929580336208,178.5063233977635,False,1.5636000099095215,True,False
14216,8,1970-07-23 10:02:01.021101270,2025-09-10,2025-09-12 19:21:42.110,AA,C,2089976450,JASSM,3,116,76,2,2,1,225,9,2,0,1,26,0,0,0,0,-162111.07019217435,-4785804.756807174,4203603.602995396,-2.36559,-0.397109,0.382345,72.25,-30.125,-31.375,0.0,0.0,0.0,0.0,0.0,0.0,2,0,41.46890579921378,-91.940056184449,10000.002507248411,119.85920136001091,-0.0030372390423803,0.0009269301940942,,9258.460327898714,10912.736076441255,150,14218,8,2025-09-10,2025-09-12 19:21:42.117,AA,C,543514398,HAWK11,1,1,73,2,1,1,225,2,1,0,0,12,1,225,2,1,-139284.22302420562,-4795011.498018111,4194413.819792271,2.37384,2.65705,-0.516185,-96.375,37.5,41.625,0.0,-7.09375,7.10938,0.00585938,0.00390625,0.00585938,4,0,41.356373857941854,-91.66384475374082,10932.391254736936,-51.4095398662444,2.231302160963118,-1.5667832084141875,0.0,9258.460327898714,10912.736076441255,150,True,14.13503495031839,False,178.72348098394994,178.49699648165245,False,1.593179477852384,True,False
14231,8,1970-07-23 10:02:01.032078844,2025-09-10,2025-09-12 19:21:43.207,AA,C,2091229148,JASSM,3,116,76,2,2,1,225,9,2,0,1,26,0,0,0,0,-162035.18347342435,-4785836.592744674,4203570.505339146,-2.36559,-0.397109,0.382441,72.25,-30.125,-31.375,0.0,0.0,0.0,0.0,0.0,0.0,2,0,41.46850828893241,-91.93913581783076,10000.000352223518,119.8636583722122,-0.0061618829848505,0.0009252655862899,,9258.460327898714,10912.736076441255,150,14233,8,2025-09-10,2025-09-12 19:21:43.322,AA,C,544945996,HAWK11,1,1,73,2,1,1,225,2,1,0,0,12,1,225,2,1,-139400.37341483062,-4794965.929658736,4194463.589323521,2.43452,2.64698,-0.524334,-96.625,37.375,42.0,-0.234375,-7.0625,7.03125,0.0429688,-0.00195312,0.0117188,4,0,41.35696083780004,-91.66524728465448,10936.419301080445,-50.7255364692304,2.241100966792156,1.6505891269121848,0.0,9258.460327898714,10912.736076441255,150,True,14.015135529638163,False,178.60220415319824,178.48659095063033,False,1.7775534402149702,True,False
14245,8,1970-07-23 10:02:01.043252151,2025-09-10,2025-09-12 19:21:44.325,AA,C,2092422202,JASSM,3,116,76,2,2,1,225,9,2,0,1,26,0,0,0,0,-161962.91052420562,-4785866.913057174,4203538.981901646,-2.36559,-0.397109,0.382441,72.25,-30.125,-31.375,0.0,0.0,0.0,0.0,0.0,0.0,2,0,41.4681296860572,-91.93825928988724,9999.998941104774,119.86423881424768,-0.005403775518672,0.0009239865494576,,9258.460327898714,10912.736076441255,150,14243,8,2025-09-10,2025-09-12 19:21:44.211,AA,C,545900394,HAWK11,1,1,73,2,1,1,225,2,1,0,0,12,1,225,2,1,-139477.75232108062,-4794935.520479049,4194496.960417271,2.4652,2.6441,-0.525964,-96.5,37.625,42.375,-0.09375,-7.10938,6.90625,0.0273438,-0.0117188,0.00976562,4,0,41.357353630385546,-91.66618167655724,10939.446315353149,-50.5576264836592,2.2155095725643976,3.33247959161797,0.0,9258.460327898714,10912.736076441255,150,True,13.921561851514678,False,178.6982327373777,178.47751136610324,False,1.9013609696187328,True,False
14256,8,1970-07-23 10:02:01.053098316,2025-09-10,2025-09-12 19:21:45.309,AA,C,2093734546,JASSM,3,116,76,2,2,1,225,9,2,0,1,26,0,0,0,0,-161883.41101248687,-4785900.264619674,4203504.308073521,-2.36559,-0.397109,0.382441,72.25,-30.125,-31.375,0.0,0.0,0.0,0.0,0.0,0.0,2,0,41.46771323282835,-91.9372951300032,10000.004009091668,119.864877281644,-0.0045698719471193,0.0009225915187658,,9258.460327898714,10912.736076441255,150,14255,8,2025-09-10,2025-09-12 19:21:45.117,AA,C,547093394,HAWK11,1,1,73,2,1,1,225,2,1,0,0,12,1,225,2,1,-139574.43786795562,-4794897.055635299,4194539.330534458,2.46098,2.63317,-0.533634,-96.25,38.0,42.875,-0.078125,-7.17188,6.92188,-0.0429688,-0.00390625,0.0195312,4,0,41.35785174451891,-91.6673493847026,10943.53981309376,-49.86222081912751,2.1822021856680904,2.80120524723113,0.0,9258.460327898714,10912.736076441255,150,True,13.81121365936167,False,178.79193246344036,178.46524171404894,False,2.1023359482168567,True,False
14267,8,1970-07-23 10:02:01.063098872,2025-09-10,2025-09-12 19:21:46.309,AA,C,2094927594,JASSM,3,116,76,2,2,1,225,9,2,0,1,26,0,0,0,0,-161811.13806326812,-4785930.581025924,4203472.784636021,-2.36549,-0.397109,0.382441,72.25,-30.125,-31.375,0.0,0.0,0.0,0.0,0.0,0.0,2,0,41.46733463914134,-91.93641862505616,10000.000701191442,119.86545769930028,-0.0038117769881506,0.0064128041003057,,9258.460327898714,10912.736076441255,150,14273,8,2025-09-10,2025-09-12 19:21:46.618,AA,C,548763592,HAWK11,1,1,73,2,1,1,225,2,1,0,0,12,1,225,2,1,-139709.34216483062,-4794843.031221236,4194599.167448521,2.36262,2.6233,-0.53651,-96.25,38.125,43.0,-0.125,-7.3125,6.60938,-0.0449219,0.00585938,-0.0175781,4,0,41.3585536990139,-91.66897882766848,10949.946124063625,-49.38981300380093,1.983165822489276,-3.105819907268863,0.0,9258.460327898714,10912.736076441255,150,True,13.681326268222506,False,178.81198179405905,178.44913447262152,False,2.157902655507977,True,False
14283,8,1970-07-23 10:02:01.073122474,2025-09-10,2025-09-12 19:21:47.312,AA,C,2096120640,JASSM,3,116,76,2,2,1,225,9,2,0,1,26,0,0,0,0,-161738.86511404935,-4785960.899385299,4203441.259245396,-2.36549,-0.397109,0.382441,72.25,-30.125,-31.375,0.0,0.0,0.0,0.0,0.0,0.0,2,0,41.46695601394656,-91.93554212951751,10000.001616069236,119.866038106371,-0.003053669114291,0.0064115233445519,,9258.460327898714,10912.736076441255,150,14281,8,2025-09-10,2025-09-12 19:21:47.211,AA,C,549479392,HAWK11,1,1,73,2,1,1,225,2,1,0,0,12,1,225,2,1,-139767.20153983062,-4794820.033174361,4194624.694792271,2.34277,2.6278,-0.533921,-96.375,37.875,42.75,0.25,-7.21875,6.64062,-0.0136719,0.00585938,-0.00976562,4,0,41.35885280836071,-91.66967763309364,10952.827132783326,-49.65498067914029,2.020232088528795,-4.120363383831321,0.0,9258.460327898714,10912.736076441255,150,True,13.599742062819532,False,178.75777230748653,178.43930320340746,False,2.073837697759652,True,False
14295,8,1970-07-23 10:02:01.084379692,2025-09-10,2025-09-12 19:21:48.437,AA,C,2097492642,JASSM,3,116,76,2,2,1,225,9,2,0,1,26,0,0,0,0,-161655.75134451812,-4785995.762666549,4203405.005339146,-2.36549,-0.397109,0.382441,72.25,-30.125,-31.375,0.0,0.0,0.0,0.0,0.0,0.0,2,0,41.46652060550433,-91.93453417485972,10000.000889857602,119.86670555904216,-0.0021818560609872,0.0064100657871983,,9258.460327898714,10912.736076441255,150,14298,8,2025-09-10,2025-09-12 19:21:48.523,AA,C,551189356,HAWK11,1,1,73,2,1,1,225,2,1,0,0,12,1,225,2,1,-139904.37146170562,-4794765.998994674,4194684.770964146,2.39435,2.62915,-0.532291,-96.125,37.25,42.125,-0.171875,-7.54688,6.14062,0.0507812,-0.00390625,0.00195312,4,0,41.35955601036693,-91.67133417840807,10959.908941531678,-49.76769418958611,1.9959089362292632,-1.1295943872212812,0.0,9258.460327898714,10912.736076441255,150,True,13.461935769356831,False,178.60037895443384,178.42364128428224,False,1.9680357255403667,True,False
14312,8,1970-07-23 10:02:01.095118115,2025-09-10,2025-09-12 19:21:49.511,AA,C,2098804994,JASSM,3,116,76,2,2,1,225,9,2,0,1,26,0,0,0,0,-161576.25085623687,-4786029.108369674,4203370.325651646,-2.36549,-0.397109,0.382441,72.25,-30.125,-31.375,0.0,0.0,0.0,0.0,0.0,0.0,2,0,41.46610411651836,-91.93357005334175,9999.995893974878,119.86734398066464,-0.0013479440055393,0.0064086702623756,,9258.460327898714,10912.736076441255,150,14306,8,2025-09-10,2025-09-12 19:21:49.359,AA,C,551626788,HAWK11,1,1,73,2,1,1,225,2,1,0,0,12,1,225,2,1,-139940.25622733062,-4794751.999971236,4194700.351042271,2.4189,2.63461,-0.538619,-95.875,37.125,42.0,-0.203125,-8.3125,6.98438,0.0859375,0.0292969,-0.0078125,4,0,41.35973823588935,-91.6717675021613,10961.804804258678,-49.72731915338361,2.44605926229572,0.4380525413321086,0.0,9258.460327898714,10912.736076441255,150,True,13.389646167079357,False,178.58878391309014,178.4152462151268,False,1.9752264805458652,True,False
14325,8,1970-07-23 10:02:01.107087736,2025-09-10,2025-09-12 19:21:50.708,AA,C,2100176998,JASSM,3,116,76,2,2,1,225,9,2,0,1,26,0,0,0,0,-161493.13708670562,-4786063.971650924,4203334.069792271,-2.36549,-0.397013,0.382441,72.25,-30.125,-31.375,0.0,0.0,0.0,0.0,0.0,0.0,2,0,41.46566867756048,-91.9325621250712,10000.000413294203,119.86437406034692,-0.0040457662494591,0.0043573677798643,,9258.460327898714,10912.736076441255,150,14328,8,2025-09-10,2025-09-12 19:21:51.158,AA,C,553416288,HAWK11,1,1,73,2,1,1,225,2,1,0,0,12,1,225,2,1,-140082.45544608062,-4794697.109346236,4194765.277800083,2.66318,2.6325,-0.564601,-93.75,36.25,44.125,-0.203125,-7.51562,6.82812,0.210938,0.00976562,0.03125,4,0,41.36047838837851,-91.67348443770004,10977.672485509696,-48.65729627440261,3.4879128037491407,14.427029627706062,0.0,9258.460327898714,10912.736076441255,150,False,13.248395124764489,False,177.6856929556325,178.39401098113964,False,3.4229923459586473,True,False
14337,8,1970-07-23 10:02:01.118079725,2025-09-10,2025-09-12 19:21:51.807,AA,C,2101489348,JASSM,3,116,76,2,2,1,225,9,2,0,1,26,0,0,0,0,-161413.63659842435,-4786097.315400924,4203299.390104771,-2.36549,-0.397013,0.382441,72.25,-30.125,-31.375,0.0,0.0,0.0,0.0,0.0,0.0,2,0,41.465252183617416,-91.93159802958075,9999.99969451665,119.86501245404057,-0.0032118604649059,0.0043559290370397,,9258.460327898714,10912.736076441255,150,14340,8,2025-09-10,2025-09-12 19:21:51.915,AA,C,555205786,HAWK11,1,1,73,2,1,1,225,2,1,0,0,12,1,225,2,1,-140220.84411795562,-4794640.126924361,4194832.875456333,2.90105,2.57191,-0.598157,-90.0,39.25,46.625,-0.203125,-7.17188,7.17188,0.0917969,0.00195312,0.0585938,4,0,41.36124965128703,-91.67515664299589,10993.921674675155,-45.20211363282501,3.0373260813572687,26.34538732021492,0.0,9258.460327898714,10912.736076441255,150,False,13.11029497101494,False,176.339952941792,178.3619838736826,False,5.282052601944971,True,False
14359,8,1970-07-23 10:02:01.129098361,2025-09-10,2025-09-12 19:21:52.909,AA,C,2102801700,JASSM,3,116,76,2,2,1,225,9,2,0,1,26,0,0,0,0,-161334.13659842435,-4786130.659150924,4203264.708464146,-2.36549,-0.397013,0.382441,72.25,-30.125,-31.375,0.0,0.0,0.0,0.0,0.0,0.0,2,0,41.464835668294405,-91.93063395226804,9999.999210305285,119.86565083042557,-0.0023779518062028,0.0043544765727134,,9258.460327898714,10912.736076441255,150,14358,8,2025-09-10,2025-09-12 19:21:52.821,AA,C,556080650,HAWK11,1,1,73,2,1,1,225,2,1,0,0,12,1,225,2,1,-140286.08435233062,-4794610.328096236,4194867.488737583,2.98743,2.53509,-0.598924,-88.0,41.375,48.125,-0.25,-6.84375,6.84375,0.0859375,0.00195312,0.0488281,4,0,41.361649234936536,-91.675946005057,11000.313873394263,-43.82991078544394,1.9618969846016447,30.16615444109744,0.0,9258.460327898714,10912.736076441255,150,False,13.017720259679063,False,174.94430782993186,178.33578073113085,False,6.716915776724347,True,False
14387,8,1970-07-23 10:02:01.140102538,2025-09-10,2025-09-12 19:21:54.010,AA,C,2104114050,JASSM,3,116,76,2,2,1,225,9,2,0,1,26,0,0,0,0,-161254.63611014312,-4786164.002900924,4203230.026823521,-2.36549,-0.397013,0.382536,72.25,-30.125,-31.375,0.0,0.0,0.0,0.0,0.0,0.0,2,0,41.46441914495959,-91.92966988145596,10000.003122865488,119.870136873796,-0.0054645504926592,0.0043527910073244,,9258.460327898714,10912.736076441255,150,14388,8,2025-09-10,2025-09-12 19:21:54.024,AA,C,557671316,HAWK11,1,1,73,2,1,1,225,2,1,0,0,12,1,225,2,1,-140401.70153983062,-4794550.269502486,4194934.200651646,3.10641,2.47316,-0.617619,-83.25,46.375,51.375,-0.28125,-7.39062,7.46875,0.0332031,0.0253906,0.0507812,4,0,41.36243672767932,-91.67734745107346,11005.450275439418,-40.8763462407116,1.012746721574335,35.03176506232198,0.0,9258.460327898714,10912.736076441255,150,False,12.88987433785212,False,171.25128928594543,178.2785877716751,False,10.403068784525338,True,False
14411,8,1970-07-23 10:02:01.151096852,2025-09-10,2025-09-12 19:21:55.109,AA,C,2105426402,JASSM,3,116,76,2,2,1,225,9,2,0,1,26,0,0,0,0,-161175.13562186187,-4786197.344697799,4203195.343229771,-2.36549,-0.397013,0.382536,72.25,-30.125,-31.375,0.0,0.0,0.0,0.0,0.0,0.0,2,0,41.46400261197556,-91.92870582376992,10000.002430518189,119.87077522673331,-0.0046306376167393,0.0043513951087132,,9258.460327898714,10912.736076441255,150,14410,8,2025-09-10,2025-09-12 19:21:55.035,AA,C,558466648,HAWK11,1,1,73,2,1,1,225,2,1,0,0,12,1,225,2,1,-140456.83044608062,-4794517.947236861,4194969.287565708,-3.13881,2.44143,-0.619441,-80.75,49.0,53.5,-0.09375,-7.70312,7.73438,0.0449219,0.0214844,0.0585938,4,0,41.362856255998594,-91.67801699303264,11005.93841833764,-39.624234021323296,0.215507569917311,36.166243729754406,0.0,9258.460327898714,10912.736076441255,150,False,12.801481859946275,False,169.08239506141186,178.23807794085985,False,12.588998291282374,True,False
14427,8,1970-07-23 10:02:01.161135280,2025-09-10,2025-09-12 19:21:56.113,AA,C,2106679102,JASSM,3,116,76,2,2,1,225,9,2,0,1,26,0,0,0,0,-161099.24890311187,-4786229.168916549,4203162.235807896,-2.36549,-0.397013,0.382536,72.25,-30.125,-31.375,0.0,0.0,0.0,0.0,0.0,0.0,2,0,41.46360501448779,-91.92778560054715,10000.00012930803,119.87138454966473,-0.0038346360643583,0.0043500702744127,,9258.460327898714,10912.736076441255,150,14424,8,2025-09-10,2025-09-12 19:21:56.023,AA,C,560057314,HAWK11,1,1,73,2,1,1,225,2,1,0,0,12,1,225,2,1,-140561.83239920562,-4794447.334932174,4195044.712370396,-3.06192,2.37268,-0.649545,-74.375,54.25,58.25,-0.15625,-8.26562,8.34375,0.0214844,0.0429688,0.0546875,4,0,41.36376715885267,-91.67929543588292,11003.239738252772,-36.03679065486903,-0.1803638943316394,38.23752279562451,0.0,9258.460327898714,10912.736076441255,150,False,12.677300154658944,False,164.09626027014374,178.14280424887323,False,17.646775269588648,True,False
14445,8,1970-07-23 10:02:01.173118919,2025-09-10,2025-09-12 19:21:57.311,AA,C,2108051104,JASSM,3,116,76,2,2,1,225,9,2,0,1,26,0,0,0,0,-161016.13464529935,-4786264.024385299,4203125.974089146,-2.36549,-0.397013,0.382536,72.25,-30.125,-31.375,0.0,0.0,0.0,0.0,0.0,0.0,2,0,41.463169531771534,-91.92677774698694,10000.000516161352,119.8720518912388,-0.0029628177314573,0.0043486113705051,,9258.460327898714,10912.736076441255,150,14441,8,2025-09-10,2025-09-12 19:21:57.158,AA,C,561250312,HAWK11,1,1,73,2,1,1,225,2,1,0,0,12,1,225,2,1,-140634.59216483062,-4794389.977510299,4195105.460417271,3.1088,2.31113,-0.666706,-69.5,57.625,62.0,-0.125,-8.64062,8.5625,-0.169922,0.03125,0.0664062,4,0,41.36450574583199,-91.68018428938616,10999.026858377174,-33.157119463176684,-0.8536370464763852,29.610680850390644,0.0,9258.460327898714,10912.736076441255,150,False,12.56893872869116,False,160.42872715040914,178.04880380969664,False,21.40914315007543,True,False
14458,8,1970-07-23 10:02:01.187221912,2025-09-10,2025-09-12 19:21:58.722,AA,C,2109363454,JASSM,3,116,76,2,2,1,225,9,2,0,1,26,0,0,0,0,-160936.63415701812,-4786297.362275924,4203091.288542271,-2.36549,-0.397013,0.382536,72.25,-30.125,-31.375,0.0,0.0,0.0,0.0,0.0,0.0,2,0,41.46275298455184,-91.92581372788902,9999.999294084597,119.8726902028078,-0.00212891072171,0.0043472235309256,,9258.460327898714,10912.736076441255,150,14461,8,2025-09-10,2025-09-12 19:21:58.822,AA,C,563397710,HAWK11,1,1,73,2,1,1,225,2,1,0,0,12,1,225,2,1,-140754.29919608062,-4794282.216768111,4195223.814909458,2.97142,2.26972,-0.708507,-63.0,59.875,68.625,-0.203125,-8.51562,8.5,-0.0253906,0.0214844,0.0273438,4,0,41.36592484622184,-91.68165140371072,10999.05867852338,-30.35810774879883,0.2696870413114526,20.218285580490267,0.0,9258.460327898714,10912.736076441255,150,False,12.420783549419637,False,155.65526138442613,177.84744701933397,False,26.424451663489727,True,False
14469,8,1970-07-23 10:02:01.194097035,2025-09-10,2025-09-12 19:21:59.409,AA,C,2110616168,JASSM,3,116,76,2,2,1,225,9,2,0,1,26,0,0,0,0,-160860.74646170562,-4786329.186494674,4203058.177214146,-2.36549,-0.396918,0.382536,72.25,-30.125,-31.375,0.0,0.0,0.0,0.0,0.0,0.0,2,0,41.46235533769389,-91.92489352832308,10000.001133028134,119.8696624194585,-0.0049025235573414,0.002295612630731,,9258.460327898714,10912.736076441255,150,14465,8,2025-09-10,2025-09-12 19:21:59.117,AA,C,563835142,HAWK11,1,1,73,2,1,1,225,2,1,0,0,12,1,225,2,1,-140776.77185233062,-4794260.469697799,4195248.621550083,2.97161,2.25677,-0.715602,-61.875,60.125,69.625,-0.3125,-8.29688,8.29688,-0.00390625,0.0175781,0.0390625,4,0,41.36621774997474,-91.68192736479072,11000.944141994623,-29.66920410787808,0.3446448073034174,19.74844663725257,0.0,9258.460327898714,10912.736076441255,150,False,12.353931095418739,False,154.89337385569567,177.79517091355027,False,27.243944643528923,True,False
14485,8,1970-07-23 10:02:01.207555900,2025-09-10,2025-09-12 19:22:00.755,AA,C,2111988158,JASSM,3,116,76,2,2,1,225,9,2,0,1,26,0,0,0,0,-160777.63269217435,-4786364.038057174,4203021.913542271,-2.36549,-0.396918,0.382536,72.25,-30.125,-31.375,0.0,0.0,0.0,0.0,0.0,0.0,2,0,41.46191983953938,-91.92388572087047,10000.001635554288,119.87032971406136,-0.0040307149208538,0.0022941041755395,,9258.460327898714,10912.736076441255,150,14484,8,2025-09-10,2025-09-12 19:22:00.711,AA,C,565704174,HAWK11,1,1,73,2,1,1,225,2,1,0,0,12,1,225,2,1,-140869.59607108062,-4794162.537080611,4195361.619596958,3.03709,2.18372,-0.747528,-56.625,62.0,73.625,-0.078125,-7.71875,7.79688,0.0332031,0.0136719,0.0175781,4,0,41.36754691952206,-91.6830701028476,11011.63070974668,-26.06126625584198,0.4918326467874836,20.729465134851104,0.0,9258.460327898714,10912.736076441255,150,False,12.21914618912199,False,151.4036417561427,177.57385755508727,False,30.96739375926023,False,False
14493,8,1970-07-23 10:02:01.217115933,2025-09-10,2025-09-12 19:22:01.711,AA,C,2113300508,JASSM,3,116,76,2,2,1,225,9,2,0,1,26,0,0,0,0,-160698.13220389312,-4786397.372041549,4202987.226042271,-2.36549,-0.396918,0.382536,72.25,-30.125,-31.375,0.0,0.0,0.0,0.0,0.0,0.0,2,0,41.46150327808524,-91.92292174035708,9999.999883589197,119.87096798435437,-0.0031968138649722,0.0022926714598301,,9258.460327898714,10912.736076441255,150,14494,8,2025-09-10,2025-09-12 19:22:01.712,AA,C,566817640,HAWK11,1,1,73,2,1,1,225,2,1,0,0,12,1,225,2,1,-140920.10778983062,-4794103.581025924,4195430.347136021,3.01792,2.1492,-0.756732,-53.5,63.0,75.375,-0.078125,-7.42188,7.375,-0.0507812,0.0,0.03125,4,0,41.36835276113157,-91.68369394853504,11019.205500054171,-24.5327355194173,0.3323916457336922,18.290779485428505,0.0,9258.460327898714,10912.736076441255,150,False,12.121995442690597,False,149.50031684582063,177.42604826113867,False,33.02226116171394,False,False
14507,8,1970-07-23 10:02:01.228099971,2025-09-10,2025-09-12 19:22:02.809,AA,C,2114612860,JASSM,3,116,76,2,2,1,225,9,2,0,1,26,0,0,0,0,-160618.63171561187,-4786430.707979049,4202952.536589146,-2.36549,-0.396918,0.382536,72.25,-30.125,-31.375,0.0,0.0,0.0,0.0,0.0,0.0,2,0,41.46108668371883,-91.92195777139784,10000.003125410736,119.871606241725,-0.0023628998853677,0.0022912174926289,,9258.460327898714,10912.736076441255,150,14506,8,2025-09-10,2025-09-12 19:22:02.617,AA,C,568010638,HAWK11,1,1,73,2,1,1,225,2,1,0,0,12,1,225,2,1,-140971.57653983062,-4794038.818330611,4195505.799284458,3.00008,2.09887,-0.769195,-50.625,64.375,76.625,0.109375,-7.09375,7.09375,-0.0429688,0.0,0.0273438,4,0,41.36923836851206,-91.68433127611527,11027.145585336772,-22.339954661252147,0.1230471649610935,15.28462293801011,0.0,9258.460327898714,10912.736076441255,150,False,12.022195698308215,False,147.77281112114005,177.25715735005298,False,34.91762673725945,False,False
14520,8,1970-07-23 10:02:01.239237611,2025-09-10,2025-09-12 19:22:03.923,AA,C,2115925212,JASSM,3,116,76,2,2,1,225,9,2,0,1,26,0,0,0,0,-160539.13073904935,-4786464.041963424,4202917.845182896,-2.36549,-0.396918,0.382632,72.25,-30.125,-31.375,0.0,0.0,0.0,0.0,0.0,0.0,2,0,41.460670079801126,-91.92099380972242,10000.001722098848,119.87609230673992,-0.0054493544325459,0.0022895298028935,,9258.460327898714,10912.736076441255,150,14521,8,2025-09-10,2025-09-12 19:22:03.923,AA,C,569322938,HAWK11,1,1,73,2,1,1,225,2,1,0,0,12,1,225,2,1,-141025.41443045562,-4793966.217744674,4195590.107878208,2.97439,2.07624,-0.770154,-48.125,65.875,77.625,-0.15625,-6.625,6.6875,-0.0351562,0.00195312,0.0234375,4,0,41.37022996810407,-91.68499966439263,11035.178244923462,-21.46165057587498,-0.1881479583757529,12.909878331565611,0.0,9258.460327898714,10912.736076441255,150,False,11.91836576442764,False,146.2581245345723,177.06164631785714,False,36.62534565332991,False,False
14536,8,1970-07-23 10:02:01.250779769,2025-09-10,2025-09-12 19:22:05.077,AA,C,2117297214,JASSM,3,116,76,2,2,1,225,9,2,0,1,26,0,0,0,0,-160456.01648123687,-4786498.889619674,4202881.577604771,-2.36549,-0.396918,0.382632,72.25,-30.125,-31.375,0.0,0.0,0.0,0.0,0.0,0.0,2,0,41.46023454437102,-91.91998605018148,10000.002866427889,119.87675954741496,-0.0045775411791558,0.0022880787535157,,9258.460327898714,10912.736076441255,150,14537,8,2025-09-10,2025-09-12 19:22:05.117,AA,C,570873836,HAWK11,1,1,73,2,1,1,225,2,1,0,0,12,1,225,2,1,-141085.68396170562,-4793878.769502486,4195690.648893833,3.04025,2.03511,-0.781371,-45.375,67.5,78.5,-0.0625,-6.5625,6.65625,0.0214844,0.0,0.0214844,4,0,41.37141833738309,-91.6857500938779,11042.343102198698,-19.66146210215196,-0.2106046832427184,15.02715952185292,0.0,9258.460327898714,10912.736076441255,150,False,11.803789453464592,False,144.6451445475205,176.81998553263674,False,38.47673853004701,False,False
14548,8,1970-07-23 10:02:01.261141624,2025-09-10,2025-09-12 19:22:06.114,AA,C,2118549914,JASSM,3,116,76,2,2,1,225,9,2,0,1,26,0,0,0,0,-160380.12927420562,-4786530.706025924,4202848.462370396,-2.36549,-0.396918,0.382632,72.25,-30.125,-31.375,0.0,0.0,0.0,0.0,0.0,0.0,2,0,41.45983687080808,-91.91906593079068,10000.002668546278,119.87736875624542,-0.0037815343228803,0.0022867522921992,,9258.460327898714,10912.736076441255,150,14547,8,2025-09-10,2025-09-12 19:22:06.023,AA,C,572066834,HAWK11,1,1,73,2,1,1,225,2,1,0,0,12,1,225,2,1,-141129.21325858062,-4793809.720674361,4195768.600065708,3.02568,2.00376,-0.781755,-43.0,69.125,78.875,-0.140625,-6.375,6.48438,-0.158203,-0.00585938,0.0253906,4,0,41.37234768043152,-91.68629417426165,11044.600926887257,-18.4576184623656,-0.6291624456345938,12.918135489210838,0.0,9258.460327898714,10912.736076441255,150,False,11.709227557555273,False,143.29506579875402,176.62173030905416,False,40.01839206366911,False,False
14560,8,1970-07-23 10:02:01.272781223,2025-09-10,2025-09-12 19:22:07.278,AA,C,2119921916,JASSM,3,116,76,2,2,1,225,9,2,0,1,26,0,0,0,0,-160297.01501639312,-4786565.549775924,4202812.192839146,-2.36549,-0.396918,0.382632,72.25,-30.125,-31.375,0.0,0.0,0.0,0.0,0.0,0.0,2,0,41.459401328516165,-91.918058198612,9999.99924898206,119.87803596777856,-0.0029097269861411,0.0022853093338584,,9258.460327898714,10912.736076441255,150,14566,8,2025-09-10,2025-09-12 19:22:07.523,AA,C,573816566,HAWK11,1,1,73,2,1,1,225,2,1,0,0,12,1,225,2,1,-141190.08239920562,-4793705.781221236,4195884.322721958,2.89462,1.9635,-0.788083,-41.0,70.75,79.375,0.046875,-6.79688,6.8125,-0.0976562,-0.00976562,-0.0195312,4,0,41.37373651023744,-91.68705761174132,11044.166893450412,-16.795925052541836,-0.8085783824749252,3.7575314791583847,0.0,9258.460327898714,10912.736076441255,150,True,11.589194355896051,False,142.10433691395727,176.320808440543,False,41.50604939564386,False,False
14577,8,1970-07-23 10:02:01.283096195,2025-09-10,2025-09-12 19:22:08.309,AA,C,2121234268,JASSM,3,116,76,2,2,1,225,9,2,0,1,26,0,0,0,0,-160217.51403983062,-4786598.879854049,4202777.497526646,-2.36549,-0.396918,0.382632,72.25,-30.125,-31.375,0.0,0.0,0.0,0.0,0.0,0.0,2,0,41.4589846887173,-91.9170942884147,9999.99771210421,119.87867415973142,-0.0020758080827785,0.0022839085701239,,9258.460327898714,10912.736076441255,150,14575,8,2025-09-10,2025-09-12 19:22:08.211,AA,C,574611898,HAWK11,1,1,73,2,1,1,225,2,1,0,0,12,1,225,2,1,-141217.55310233062,-4793658.005830611,4195937.476042271,2.8418,1.96829,-0.783481,-40.875,71.25,79.75,0.078125,-6.875,6.8125,-0.0527344,0.0,0.0,4,0,41.37437471009453,-91.68740247240969,11043.852626279408,-17.06232469110211,-0.9986349537147794,0.9293467718817348,0.0,9258.460327898714,10912.736076441255,150,True,11.508479793079017,False,141.93762247477332,176.17067689645646,False,41.82372239051034,False,False
14589,8,1970-07-23 10:02:01.293084003,2025-09-10,2025-09-12 19:22:09.308,AA,C,2122367662,JASSM,3,116,76,2,2,1,225,9,2,0,1,26,0,0,0,0,-160148.85388358062,-4786627.663057174,4202747.534636021,-2.36549,-0.396822,0.382632,72.25,-30.125,-31.375,0.0,0.0,0.0,0.0,0.0,0.0,2,0,41.45862487644194,-91.91626182853828,9999.998055831917,119.87558850930552,-0.0049252422656626,0.0002319616379117,,9258.460327898714,10912.736076441255,150,14585,8,2025-09-10,2025-09-12 19:22:09.118,AA,C,575725364,HAWK11,1,1,73,2,1,1,225,2,1,0,0,12,1,225,2,1,-141254.78161795562,-4793592.090791549,4196010.690886021,2.85761,1.96637,-0.793643,-40.625,71.75,80.0,-0.140625,-7.14062,7.0625,0.0742188,0.0117188,0.0136719,4,0,41.37525453085591,-91.68787025264491,11043.114891911504,-16.80842293520841,-0.4681341595572267,1.7546068331915017,0.0,9258.460327898714,10912.736076441255,150,True,11.423324426654581,False,141.73169935242433,175.9686469539803,False,42.23243062731208,False,False
14601,8,1970-07-23 10:02:01.302095823,2025-09-10,2025-09-12 19:22:10.209,AA,C,2123441404,JASSM,3,116,76,2,2,1,225,9,2,0,1,26,0,0,0,0,-160083.80896170562,-4786654.932588424,4202719.147917271,-2.36549,-0.396822,0.382632,72.25,-30.125,-31.375,0.0,0.0,0.0,0.0,0.0,0.0,2,0,41.45828398287768,-91.91547320877105,10000.002806084416,119.87611063625356,-0.0042429580939596,0.0002307707729691,,9258.460327898714,10912.736076441255,150,14602,8,2025-09-10,2025-09-12 19:22:10.322,AA,C,577156962,HAWK11,1,1,73,2,1,1,225,2,1,0,0,12,1,225,2,1,-141302.20153983062,-4793506.198213424,4196106.271940708,2.95473,1.9633,-0.801505,-39.5,72.25,80.375,-0.1875,-6.73438,6.64062,0.0566406,-0.00195312,0.015625,4,0,41.37640238639405,-91.68846678780938,11042.465151421016,-16.553117238078638,-0.076283711794226,7.19227209877179,0.0,9258.460327898714,10912.736076441255,150,True,11.328386147995568,False,141.1016702729385,175.7047155551974,False,43.128244901023535,False,False
14614,8,1970-07-23 10:02:01.313094006,2025-09-10,2025-09-12 19:22:11.309,AA,C,2124753756,JASSM,3,116,76,2,2,1,225,9,2,0,1,26,0,0,0,0,-160004.30700858062,-4786688.258760299,4202684.450651646,-2.36549,-0.396822,0.382632,72.25,-30.125,-31.375,0.0,0.0,0.0,0.0,0.0,0.0,2,0,41.457867331621735,-91.91450932154754,9999.999247112082,119.8767487989438,-0.0034090376687829,0.0002293296750219,,9258.460327898714,10912.736076441255,150,14613,8,2025-09-10,2025-09-12 19:22:11.211,AA,C,578270428,HAWK11,1,1,73,2,1,1,225,2,1,0,0,12,1,225,2,1,-141338.73669608062,-4793438.054658736,4196181.745573521,2.97669,1.93627,-0.807162,-38.375,72.75,81.125,-0.25,-7.0625,6.96875,-0.0976562,0.00195312,0.0078125,4,0,41.377310828326905,-91.68892710123112,11041.104950861472,-15.43125377986227,-0.0861852448029493,7.332751901985951,0.0,9258.460327898714,10912.736076441255,150,True,11.236345382558332,False,140.42423515977381,175.4841068822117,False,44.02963906512739,False,False
14629,8,1970-07-23 10:02:01.323587659,2025-09-10,2025-09-12 19:22:12.358,AA,C,2126006454,JASSM,3,116,76,2,2,1,225,9,2,0,1,26,0,0,0,0,-159928.41931326812,-4786720.069307174,4202651.331511021,-2.3654,-0.396822,0.382632,72.25,-30.125,-31.375,0.0,0.0,0.0,0.0,0.0,0.0,2,0,41.45746962273582,-91.91358926557672,10000.000190708712,119.87735793727109,-0.002613032605527,0.0057194333895509,,9258.460327898714,10912.736076441255,150,14627,8,2025-09-10,2025-09-12 19:22:12.238,AA,C,575963964,HAWK11,1,1,73,2,1,1,225,2,1,0,0,12,1,225,2,1,-141262.62927420562,-4793577.523408736,4196026.910612583,2.87775,1.96877,-0.79882,-40.375,71.5,80.125,-0.109375,-7.04688,7.14062,0.0878906,0.00195312,0.0,4,0,41.37544930351011,-91.68796909762874,11043.009794658066,-16.80776703964754,-0.1561364344124564,3.006333951909088,0.0,9258.460327898714,10912.736076441255,150,True,11.275995641772752,False,141.62399855564323,175.87495170587928,False,42.43638084234691,False,False
14641,8,1970-07-23 10:02:01.334356841,2025-09-10,2025-09-12 19:22:13.435,AA,C,2127259152,JASSM,3,116,76,2,2,1,225,9,2,0,1,26,0,0,0,0,-159852.53210623687,-4786751.879854049,4202618.210417271,-2.3654,-0.396822,0.382632,72.25,-30.125,-31.375,0.0,0.0,0.0,0.0,0.0,0.0,2,0,41.45707189319357,-91.9126692266853,10000.000974972178,119.87796705948588,-0.0018170246703544,0.0057180512930307,,9258.460327898714,10912.736076441255,150,14642,8,2025-09-10,2025-09-12 19:22:13.523,AA,C,580775726,HAWK11,1,1,73,2,1,1,225,2,1,0,0,12,1,225,2,1,-141416.76208670562,-4793285.095674361,4196352.063932896,2.85742,1.91805,-0.821063,-36.75,73.125,82.0,0.140625,-7.17188,6.75,-0.0175781,0.00195312,0.0175781,4,0,41.379356778847885,-91.68991281909749,11039.749053134585,-14.519628550618336,0.4777173730437951,-0.2563603494032518,0.0,9258.460327898714,10912.736076441255,150,True,11.048857583365262,False,139.51405152261887,174.97576674627598,False,45.45545933789528,False,False
14656,8,1970-07-23 10:02:01.345575263,2025-09-10,2025-09-12 19:22:14.557,AA,C,2128452200,JASSM,3,116,76,2,2,1,225,9,2,0,1,26,0,0,0,0,-159780.25818045562,-4786782.174775924,4202586.665495396,-2.3654,-0.396822,0.382728,72.25,-30.125,-31.375,0.0,0.0,0.0,0.0,0.0,0.0,2,0,41.45669309444971,-91.91179300522896,10000.001169046607,119.88239512639706,-0.0049791519980363,0.0057165322704592,,9258.460327898714,10912.736076441255,150,14655,8,2025-09-10,2025-09-12 19:22:14.524,AA,C,582207324,HAWK11,1,1,73,2,1,1,225,2,1,0,0,12,1,225,2,1,-141461.09021170562,-4793196.885713424,4196451.017057896,2.8301,1.91565,-0.826336,-36.875,72.75,82.375,-0.203125,-7.53125,6.67188,-0.015625,0.0,-0.0117188,4,0,41.38054171592879,-91.6904733188342,11040.520251023654,-14.347120906076045,0.7437436510689877,-1.9207062927178045,0.0,9258.460327898714,10912.736076441255,150,True,10.950896641326274,False,139.5595081468572,174.67662492030846,False,45.71648021230372,False,False
14668,8,1970-07-23 10:02:01.355118144,2025-09-10,2025-09-12 19:22:15.511,AA,C,2129764550,JASSM,3,116,76,2,2,1,225,9,2,0,1,26,0,0,0,0,-159700.75720389312,-4786815.497041549,4202551.966276646,-2.3654,-0.396822,0.382728,72.25,-30.125,-31.375,0.0,0.0,0.0,0.0,0.0,0.0,2,0,41.45627642213741,-91.9108291783474,10000.000790611246,119.8830332290936,-0.0041452447767397,0.0057151506803405,,9258.460327898714,10912.736076441255,150,14669,8,2025-09-10,2025-09-12 19:22:15.524,AA,C,583161722,HAWK11,1,1,73,2,1,1,225,2,1,0,0,12,1,225,2,1,-141490.26013358062,-4793139.136689986,4196515.977995396,2.82617,1.91853,-0.826912,-36.875,72.625,82.0,-0.25,-7.54688,6.29688,0.00585938,0.00390625,-0.00195312,4,0,41.38131864505292,-91.69084205946533,11041.428818896042,-14.4456068666861,0.8069932435547732,-2.0259591616989105,0.0,9258.460327898714,10912.736076441255,150,True,10.866690644221539,False,139.61932818687285,174.46701108942742,False,45.86627882500482,False,False
14681,8,1970-07-23 10:02:01.365113184,2025-09-10,2025-09-12 19:22:16.511,AA,C,2131017248,JASSM,3,116,76,2,2,1,225,9,2,0,1,26,0,0,0,0,-159624.86999686187,-4786847.303682174,4202518.843229771,-2.3654,-0.396822,0.382728,72.25,-30.125,-31.375,0.0,0.0,0.0,0.0,0.0,0.0,2,0,41.45587868052662,-91.909909174738,9999.999861971388,119.88364231362333,-0.0033492426239515,0.0057138301117198,,9258.460327898714,10912.736076441255,150,14682,8,2025-09-10,2025-09-12 19:22:16.617,AA,C,584633088,HAWK11,1,1,73,2,1,1,225,2,1,0,0,12,1,225,2,1,-141535.72693045562,-4793050.131807174,4196616.493620396,2.86701,1.91585,-0.833143,-36.875,72.25,81.375,-0.328125,-7.60938,6.20312,0.0136719,0.00195312,0.0,4,0,41.38251865464945,-91.69141647293333,11043.732361749866,-14.24780759732724,1.1229043542907755,0.2040856927999906,0.0,9258.460327898714,10912.736076441255,150,True,10.766058720992412,False,139.73535885948533,174.15334222586154,False,46.06470907291078,False,False
14694,8,1970-07-23 10:02:01.377976205,2025-09-10,2025-09-12 19:22:17.797,AA,C,2132210294,JASSM,3,116,76,2,2,1,225,9,2,0,1,26,0,0,0,0,-159552.59607108062,-4786877.596650924,4202487.296354771,-2.3654,-0.396822,0.382728,72.25,-30.125,-31.375,0.0,0.0,0.0,0.0,0.0,0.0,2,0,41.45549985913895,-91.90903298617832,10000.002565437744,119.88422238611648,-0.0025911355014009,0.0057125630399266,,9258.460327898714,10912.736076441255,150,14692,8,2025-09-10,2025-09-12 19:22:17.711,AA,C,586024920,HAWK11,1,1,73,2,1,1,225,2,1,0,0,12,1,225,2,1,-141578.56091483062,-4792966.034150924,4196711.460417271,2.82904,1.90827,-0.837745,-36.625,71.5,81.0,-0.15625,-7.57812,6.10938,0.0,-0.00195312,0.00976562,4,0,41.38365247450028,-91.6919577305081,11045.89414402706,-13.89623099370999,1.2986720631873288,-2.2854778697524027,0.0,9258.460327898714,10912.736076441255,150,True,10.670986956460652,False,139.73677327055137,173.85100900380826,False,46.370229286477944,False,False
14707,8,1970-07-23 10:02:01.385135422,2025-09-10,2025-09-12 19:22:18.513,AA,C,2133403342,JASSM,3,116,76,2,2,1,225,9,2,0,1,26,0,0,0,0,-159480.32165701812,-4786907.887666549,4202455.747526646,-2.3654,-0.396726,0.382728,72.25,-30.125,-31.375,0.0,0.0,0.0,0.0,0.0,0.0,2,0,41.45512102960648,-91.90815680275512,9999.999853984258,119.88116591308136,-0.0054026459445573,0.0036600835020143,,9258.460327898714,10912.736076441255,150,14709,8,2025-09-10,2025-09-12 19:22:18.619,AA,C,587098618,HAWK11,1,1,73,2,1,1,225,2,1,0,0,12,1,225,2,1,-141611.37732108062,-4792902.119111861,4196783.806120396,2.7975,1.91364,-0.839759,-36.625,71.0,80.375,-0.046875,-7.5625,6.20312,-0.0761719,0.00195312,-0.015625,4,0,41.38451528849888,-91.69237223525496,11047.931106571355,-14.063173599462976,1.4663744227085955,-3.867850593109472,0.0,9258.460327898714,10912.736076441255,150,True,10.587944350608826,False,139.86711644584392,173.6107416937152,False,46.481019443471844,False,False
14721,8,1970-07-23 10:02:01.396136149,2025-09-10,2025-09-12 19:22:19.613,AA,C,2134715686,JASSM,3,116,76,2,2,1,225,9,2,0,1,26,0,0,0,0,-159400.82165701812,-4786941.206025924,4202421.044401646,-2.3654,-0.396726,0.382728,72.25,-30.125,-31.375,0.0,0.0,0.0,0.0,0.0,0.0,2,0,41.45470432343569,-91.90719303564956,9999.998211593178,119.88180395639982,-0.0045687455489331,0.0036586410662226,,9258.460327898714,10912.736076441255,150,14720,8,2025-09-10,2025-09-12 19:22:19.523,AA,C,588172318,HAWK11,1,1,73,2,1,1,225,2,1,0,0,12,1,225,2,1,-141644.70349295562,-4792838.496064986,4196855.731901646,2.73614,1.92083,-0.83717,-37.25,70.5,79.75,-0.21875,-7.59375,6.0625,0.0,0.00195312,-0.015625,4,0,41.385373439334685,-91.69279273646411,11049.818107375726,-14.369209410131443,1.40062384031758,-7.084662052268504,0.0,9258.460327898714,10912.736076441255,150,True,10.50044485664283,False,140.29930420539196,173.36565933269804,False,46.29492616354214,False,False
14735,8,1970-07-23 10:02:01.406794340,2025-09-10,2025-09-12 19:22:20.679,AA,C,2135908740,JASSM,3,116,76,2,2,1,225,9,2,0,1,26,0,0,0,0,-159328.54724295562,-4786971.495088424,4202389.495573521,-2.3654,-0.396726,0.382728,72.25,-30.125,-31.375,0.0,0.0,0.0,0.0,0.0,0.0,2,0,41.45432549146737,-91.90631687441486,9999.998401234048,119.88238399737322,-0.0038106406441611,0.0036573362162745,,9258.460327898714,10912.736076441255,150,14737,8,2025-09-10,2025-09-12 19:22:20.755,AA,C,589246016,HAWK11,1,1,73,2,1,1,225,2,1,0,0,12,1,225,2,1,-141678.30700858062,-4792775.512666549,4196927.022917271,2.75647,1.93608,-0.834773,-37.875,70.125,79.0,-0.203125,-7.54688,6.21875,0.0429688,-0.00195312,-0.0195312,4,0,41.38622344967833,-91.6932163354513,11051.92756988315,-14.970163751224948,1.4357759655351736,-5.286857803409206,0.0,9258.460327898714,10912.736076441255,150,True,10.417716063565203,False,140.74047963587168,173.1221578741073,False,46.09645821180057,False,False
14749,8,1970-07-23 10:02:01.417583921,2025-09-10,2025-09-12 19:22:21.758,AA,C,2137101786,JASSM,3,116,76,2,2,1,225,9,2,0,1,26,0,0,0,0,-159256.27282889312,-4787001.784150924,4202357.946745396,-2.3654,-0.396726,0.382728,72.25,-30.125,-31.375,0.0,0.0,0.0,0.0,0.0,0.0,2,0,41.45394665280119,-91.90544072337586,10000.002258043229,119.8829640272378,-0.0030525356894774,0.0036560313372308,,9258.460327898714,10912.736076441255,150,14754,8,2025-09-10,2025-09-12 19:22:22.161,AA,C,590439014,HAWK11,1,1,73,2,1,1,225,2,1,0,0,12,1,225,2,1,-141716.25427420562,-4792705.658174361,4197005.790495396,2.77794,1.94154,-0.831609,-38.25,69.75,78.375,-0.125,-7.42188,6.03125,0.0722656,-0.00585938,0.00585938,4,0,41.3871640382439,-91.69369425531848,11053.670050972953,-15.224709467675911,1.3245114518044625,-3.8306806421013775,0.0,9258.460327898714,10912.736076441255,150,True,10.330820337619185,False,141.04764802885416,172.85243730290452,False,46.05895118650358,False,False
14762,8,1970-07-23 10:02:01.427135893,2025-09-10,2025-09-12 19:22:22.713,AA,C,2138414136,JASSM,3,116,76,2,2,1,225,9,2,0,1,26,0,0,0,0,-159176.77185233062,-4787035.100557174,4202323.239714146,-2.3654,-0.396726,0.382728,72.25,-30.125,-31.375,0.0,0.0,0.0,0.0,0.0,0.0,2,0,41.45352990926671,-91.9044769801384,9999.999756335936,119.88360203989085,-0.0022186208044698,0.0036545802786084,,9258.460327898714,10912.736076441255,150,14757,8,2025-09-10,2025-09-12 19:22:22.321,AA,C,591512714,HAWK11,1,1,73,2,1,1,225,2,1,0,0,12,1,225,2,1,-141750.38318045562,-4792643.879854049,4197075.419401646,2.86346,1.9402,-0.837074,-38.25,69.25,77.75,-0.203125,-7.54688,6.15625,0.117188,-0.00195312,0.0,4,0,41.38799556323222,-91.69412372729836,11055.188391507096,-15.084113621666194,1.6097784433610782,1.015956677721694,0.0,9258.460327898714,10912.736076441255,150,True,10.244177310371956,False,141.1896643330033,172.60360526816902,False,46.166281633304855,False,False
14775,8,1970-07-23 10:02:01.437134310,2025-09-10,2025-09-12 19:22:23.713,AA,C,2139607184,JASSM,3,116,76,2,2,1,225,9,2,0,1,26,0,0,0,0,-159104.49743826812,-4787065.387666549,4202291.688932896,-2.3654,-0.396726,0.382728,72.25,-30.125,-31.375,0.0,0.0,0.0,0.0,0.0,0.0,2,0,41.4531510549916,-91.90360085128688,10000.002272055845,119.8841820459126,-0.0014605154803206,0.0036532737097092,,9258.460327898714,10912.736076441255,150,14774,8,2025-09-10,2025-09-12 19:22:23.711,AA,C,593103378,HAWK11,1,1,73,2,1,1,225,2,1,0,0,12,1,225,2,1,-141800.99450858062,-4792551.502900924,4197179.136198521,2.9091,1.92649,-0.837554,-37.25,69.0,77.0,-0.34375,-7.26562,5.98438,0.015625,0.0,0.00585938,4,0,41.38923631635033,-91.69476090079586,11056.571760473344,-14.572682583183,1.4865878785911362,3.0611465415267265,0.0,9258.460327898714,10912.736076441255,150,True,10.144288056853759,False,140.8357265005609,172.24669072011605,False,46.87485094976362,False,False
14796,8,1970-07-23 10:02:01.448787813,2025-09-10,2025-09-12 19:22:24.878,AA,C,2140859862,JASSM,3,116,76,2,2,1,225,9,2,0,1,26,0,0,0,0,-159028.61071951812,-4787097.186494674,4202258.560026646,-2.3654,-0.396726,0.382824,72.25,-30.125,-31.375,0.0,0.0,0.0,0.0,0.0,0.0,2,0,41.45275326226272,-91.90268094494245,10000.001223242372,119.88863912864758,-0.0045846175010669,0.0036517287393935,,9258.460327898714,10912.736076441255,150,14797,8,2025-09-10,2025-09-12 19:22:25.023,AA,C,594654278,HAWK11,1,1,73,2,1,1,225,2,1,0,0,12,1,225,2,1,-141848.58044608062,-4792462.563447799,4197278.528776646,2.93297,1.91057,-0.838321,-36.25,69.25,76.5,-0.125,-7.0,6.51562,0.0,-0.00976562,-0.00976562,4,0,41.39042795859413,-91.69536074500742,11056.82297616293,-13.97448991067374,1.361417579270399,3.766187877111202,0.0,9258.460327898714,10912.736076441255,150,True,10.04521232581812,False,140.38632947632578,171.89277234363107,False,47.67319645144548,False,False
14816,8,1970-07-23 10:02:01.459296365,2025-09-10,2025-09-12 19:22:25.929,AA,C,2142112580,JASSM,3,116,76,2,2,1,225,9,2,0,1,26,0,0,0,0,-158952.72204764312,-4787128.985322799,4202225.429167271,-2.3654,-0.396726,0.382824,72.25,-30.125,-31.375,0.0,0.0,0.0,0.0,0.0,0.0,2,0,41.452355449362265,-91.90176102648714,9999.999815906363,119.88924811441522,-0.0037886025614713,0.003650411103108,,9258.460327898714,10912.736076441255,150,14813,8,2025-09-10,2025-09-12 19:22:25.913,AA,C,595688210,HAWK11,1,1,73,2,1,1,225,2,1,0,0,12,1,225,2,1,-141879.89489920562,-4792402.651338424,4197345.030729771,2.86874,1.90185,-0.839087,-35.875,69.25,76.75,0.0,-7.0625,6.875,-0.078125,0.0,0.00976562,4,0,41.39122776132668,-91.69575598069189,11055.964260816238,-13.640964437342898,1.3150975247588137,-0.2781409811107916,0.0,9258.460327898714,10912.736076441255,150,True,9.963723465471517,False,140.16680554875387,171.6373441983701,False,48.15074103782498,False,False
14831,8,1970-07-23 10:02:01.469135109,2025-09-10,2025-09-12 19:22:26.913,AA,C,2143365280,JASSM,3,116,76,2,2,1,225,9,2,0,1,26,0,0,0,0,-158876.83435233062,-4787160.784150924,4202192.298307896,-2.3654,-0.396726,0.382824,72.25,-30.125,-31.375,0.0,0.0,0.0,0.0,0.0,0.0,2,0,41.451957628885246,-91.90084113094746,10000.002531316748,119.88985708020758,-0.0029925950572934,0.0036490889066459,,9258.460327898714,10912.736076441255,150,14827,8,2025-09-10,2025-09-12 19:22:26.711,AA,C,596722142,HAWK11,1,1,73,2,1,1,225,2,1,0,0,12,1,225,2,1,-141911.48669608062,-4792342.766572799,4197411.669401646,2.81524,1.89447,-0.838225,-36.25,69.25,77.0,-0.203125,-6.95312,6.90625,-0.107422,0.00195312,-0.0117188,4,0,41.39202827419913,-91.69615452935672,11055.494240126747,-13.381277080695211,1.1941020215893432,-3.652114624661187,0.0,9258.460327898714,10912.736076441255,150,True,9.882284256594513,False,140.31770947871055,171.37770234040784,False,48.26225770989946,False,False
14852,8,1970-07-23 10:02:01.480434339,2025-09-10,2025-09-12 19:22:28.043,AA,C,2144617978,JASSM,3,116,76,2,2,1,225,9,2,0,1,26,0,0,0,0,-158800.94665701812,-4787192.581025924,4202159.165495396,-2.3654,-0.396726,0.382824,72.25,-30.125,-31.375,0.0,0.0,0.0,0.0,0.0,0.0,2,0,41.45155979948026,-91.8999212474228,10000.000247620834,119.89046603324056,-0.0021965872316939,0.0036477650493683,,9258.460327898714,10912.736076441255,150,14849,8,2025-09-10,2025-09-12 19:22:27.957,AA,C,597716308,HAWK11,1,1,73,2,1,1,225,2,1,0,0,12,1,225,2,1,-141942.22302420562,-4792285.011689986,4197475.806120396,2.70057,1.91326,-0.831609,-37.125,69.5,76.875,-0.171875,-6.96875,6.89062,-0.0839844,0.0,-0.0195312,4,0,41.39279937692865,-91.69654211536243,11054.778831242207,-14.17919050535685,1.0219568940318535,-9.439181631496009,0.0,9258.460327898714,10912.736076441255,150,True,9.802148025702946,False,140.73816584469893,171.12224905585205,False,48.095209479339466,False,False
14890,8,1970-07-23 10:02:01.500137085,2025-09-10,2025-09-12 19:22:30.013,AA,C,2147063724,JASSM,3,116,76,2,2,1,225,9,2,0,1,26,0,0,0,0,-158652.78454764312,-4787254.659150924,4202094.476042271,-2.3654,-0.39663,0.382824,72.25,-30.125,-31.375,0.0,0.0,0.0,0.0,0.0,0.0,2,0,41.4507830619273,-91.89812531233171,10000.000316012543,119.88801864051786,-0.0042120878069507,0.0015934032509499,,9258.460327898714,10912.736076441255,150,14891,8,2025-09-10,2025-09-12 19:22:30.023,AA,C,600698804,HAWK11,1,1,73,2,1,1,225,2,1,0,0,12,1,225,2,1,-142040.35778983062,-4792111.731416549,4197668.048307896,2.65436,1.96225,-0.824898,-41.125,69.375,77.125,0.125,-7.14062,7.20312,-0.0429688,0.0117188,-0.00585938,4,0,41.39511059124465,-91.69777572208343,11052.687796006669,-16.108227602575734,1.2064934118776227,-10.05583036410529,0.0,9258.460327898714,10912.736076441255,150,False,9.609283852690897,False,142.6501889839255,170.38798687416983,False,46.924132433111176,False,False
