Unnamed: 0_cm,Subject_cm,Timestamp,SampleDate_cm,SampleTime_cm,Configuration_cm,Scenario_cm,DisTime_cm,MarkingTxt_cm,Application_cm,EntId_cm,Site_cm,ExerciseId_cm,ForceId_cm,Category_cm,Country_cm,Domain_cm,Kind_cm,Extra_cm,Specific_cm,Subcategory_cm,AltCategory_cm,AltCountry_cm,AltDomain_cm,AltKind_cm,ECEF_X_cm,ECEF_Y_cm,ECEF_Z_cm,OriPhi_cm,OriPsi_cm,OriTheta_cm,LinVelX_cm,LinVelY_cm,LinVelZ_cm,LinAccX_cm,LinAccY_cm,LinAccZ_cm,AngVelX_cm,AngVelY_cm,AngVelZ_cm,DrAlg_cm,Appearance_cm,Latitude_cm,Longitude_cm,Altitude_cm,Heading_cm,Pitch_cm,Roll_cm,CalibratedAirspeed_cm,CM_Altitude_Lead_cm,CM_Altitude_Wing_cm,CM_Airspeed_cm,Unnamed: 0_ac,Subject_ac,SampleDate_ac,SampleTime_ac,Configuration_ac,Scenario_ac,DisTime_ac,MarkingTxt_ac,Application_ac,EntId_ac,Site_ac,ExerciseId_ac,ForceId_ac,Category_ac,Country_ac,Domain_ac,Kind_ac,Extra_ac,Specific_ac,Subcategory_ac,AltCategory_ac,AltCountry_ac,AltDomain_ac,AltKind_ac,ECEF_X_ac,ECEF_Y_ac,ECEF_Z_ac,OriPhi_ac,OriPsi_ac,OriTheta_ac,LinVelX_ac,LinVelY_ac,LinVelZ_ac,LinAccX_ac,LinAccY_ac,LinAccZ_ac,AngVelX_ac,AngVelY_ac,AngVelZ_ac,DrAlg_ac,Appearance_ac,Latitude_ac,Longitude_ac,Altitude_ac,Heading_ac,Pitch_ac,Roll_ac,CalibratedAirspeed_ac,CM_Altitude_Lead_ac,CM_Altitude_Wing_ac,CM_Airspeed_ac,Bank_Angle_Condition,distance_nm,Distance_Condition,angle_between_vel,angle_between_pos,Cone_Condition,angle_between_pos_nose,Nose_Cone_Condition,Intercept_Criteria
6739,8,1970-07-23 10:01:53.928844125,2025-09-10,2025-09-12 19:09:52.884,HA,C,1243629284,JASSM,3,103,76,2,2,1,225,9,2,0,1,26,0,0,0,0,-172889.54284842435,-4769891.399385299,4221106.765104771,-2.51458,-0.703426,0.607456,60.375,-51.125,-55.0,0.0,0.0,0.0,0.0,0.0,0.0,2,0,41.67946465556436,-92.0758347945794,9999.9975385751,139.83243517403594,-0.0040135080440314,0.0009585008462406,,8802.566937047923,11004.7807189461,150,6731,8,2025-09-10,2025-09-12 19:09:52.538,HA,C,3992009314,HAWK11,1,1,73,2,1,1,225,2,1,0,0,12,1,225,2,1,-148241.79138358062,-4791867.613252486,4197709.792448521,2.50681,2.55561,-0.531141,-85.75,39.375,44.5,-0.140625,-7.48438,6.23438,-0.0292969,0.0,0.0,4,0,41.39572720334494,-91.77194397738572,11004.7807189461,-47.12144583916279,-0.3394662873605305,3.2392388836352173,0.0,8802.566937047923,11004.7807189461,150,True,21.800885525043558,False,163.49236954039355,178.69802988214565,False,17.79889057006577,True,False
6753,8,1970-07-23 10:01:53.939167498,2025-09-10,2025-09-12 19:09:53.916,HA,C,1244881984,JASSM,3,103,76,2,2,1,225,9,2,0,1,26,0,0,0,0,-172826.08386404935,-4769945.231416549,4221048.925261021,-2.51458,-0.703426,0.607456,60.375,-51.125,-55.0,0.0,0.0,0.0,0.0,0.0,0.0,2,0,41.67876771850649,-92.07505012897607,10000.004671060986,139.8329569439431,-0.0031029177101781,0.0009568009189773,,8802.566937047923,11004.7807189461,150,6759,8,2025-09-10,2025-09-12 19:09:54.238,HA,C,3994037412,HAWK11,1,1,73,2,1,1,225,2,1,0,0,12,1,225,2,1,-148386.54724295562,-4791797.585908736,4197783.604948521,2.46808,2.53903,-0.540537,-84.625,41.375,43.125,-0.078125,-7.32812,6.17188,0.0117188,0.0,0.00585938,4,0,41.39661537533454,-91.77369905302726,11003.673553189354,-46.14941133406409,-0.4399653835589962,0.5284259861448926,0.0,8802.566937047923,11004.7807189461,150,True,21.655634333666516,False,164.01846158938997,178.6207767836928,False,17.334059155113305,True,False
6770,8,1970-07-23 10:01:53.949065478,2025-09-10,2025-09-12 19:09:54.906,HA,C,1246194332,JASSM,3,103,76,2,2,1,225,9,2,0,1,26,0,0,0,0,-172759.60339529935,-4770001.622041549,4220988.327604771,-2.51458,-0.703426,0.607456,60.375,-51.125,-55.0,0.0,0.0,0.0,0.0,0.0,0.0,2,0,41.67803759321962,-92.07422812306866,9999.998290327829,139.83350353592076,-0.0021489728626105,0.0009550195431546,,8802.566937047923,11004.7807189461,150,6771,8,2025-09-10,2025-09-12 19:09:54.960,HA,C,3994713444,HAWK11,1,1,73,2,1,1,225,2,1,0,0,12,1,225,2,1,-148433.38513358062,-4791774.379854049,4197808.030729771,2.47086,2.54545,-0.544276,-84.0,41.625,42.75,-0.25,-7.4375,6.1875,0.0136719,-0.00390625,-0.00390625,4,0,41.39690967173105,-91.774267146536,11003.148826964523,-46.25858548477205,-0.0741801194662025,0.8782786933601661,0.0,8802.566937047923,11004.7807189461,150,True,21.568834820952585,False,164.16161944178685,178.59368478462534,False,17.213990794769092,True,False
6784,8,1970-07-23 10:01:53.959183570,2025-09-10,2025-09-12 19:09:55.918,HA,C,1247447032,JASSM,3,103,76,2,2,1,225,9,2,0,1,26,0,0,0,0,-172696.14441092435,-4770055.454072799,4220930.483854771,-2.51448,-0.70333,0.607456,60.375,-51.125,-55.0,0.0,0.0,0.0,0.0,0.0,0.0,2,0,41.67734061876465,-92.0734434921346,10000.007721130294,139.83037393611198,-0.003884002192715,0.0033105114156189,,8802.566937047923,11004.7807189461,150,6781,8,2025-09-10,2025-09-12 19:09:55.832,HA,C,3995866676,HAWK11,1,1,73,2,1,1,225,2,1,0,0,12,1,225,2,1,-148513.84607108062,-4791734.623994674,4197849.759245396,2.47709,2.54066,-0.549069,-83.5,41.625,42.75,-0.15625,-7.26562,5.92188,0.00195312,-0.0136719,0.015625,4,0,41.39741301429672,-91.77524302334892,11002.016910096523,-45.903774030581,-0.008979299175683,1.092441291731017,0.0,8802.566937047923,11004.7807189461,150,True,21.463440353505604,False,164.3229139663172,178.54929873320128,False,17.097496519311413,True,False
6797,8,1970-07-23 10:01:53.970064781,2025-09-10,2025-09-12 19:09:57.006,HA,C,1248759384,JASSM,3,103,76,2,2,1,225,9,2,0,1,26,0,0,0,0,-172629.66394217435,-4770111.844697799,4220869.882292271,-2.51448,-0.70333,0.607456,60.375,-51.125,-55.0,0.0,0.0,0.0,0.0,0.0,0.0,2,0,41.67661045554959,-92.07262152254512,10000.004154106664,139.83092048867735,-0.0029300371596831,0.0033086522432912,,8802.566937047923,11004.7807189461,150,6798,8,2025-09-10,2025-09-12 19:09:57.128,HA,C,3997497108,HAWK11,1,1,73,2,1,1,225,2,1,0,0,12,1,225,2,1,-148626.81677420562,-4791678.165986861,4197908.267057896,2.456,2.53193,-0.555493,-82.75,41.625,42.625,-0.125,-7.46875,6.29688,-0.0136719,-0.00390625,0.00195312,4,0,41.39812297071687,-91.77661345978449,10998.688772184456,-45.34232521457318,0.0101130667700535,-0.3780933072782048,0.0,8802.566937047923,11004.7807189461,150,True,21.334757869123052,False,164.52313679136176,178.4879648425018,False,16.958393595562857,True,False
6814,8,1970-07-23 10:01:53.982766620,2025-09-10,2025-09-12 19:09:58.276,HA,C,1250071734,JASSM,3,103,76,2,2,1,225,9,2,0,1,26,0,0,0,0,-172563.18298514312,-4770168.231416549,4220809.280729771,-2.51448,-0.70333,0.607456,60.375,-51.125,-55.0,0.0,0.0,0.0,0.0,0.0,0.0,2,0,41.67588030982758,-92.07179956737392,9999.9967773472,139.8314670238003,-0.001976087930094,0.003306810547607,,8802.566937047923,11004.7807189461,150,6812,8,2025-09-10,2025-09-12 19:09:58.034,HA,C,3998252674,HAWK11,1,1,73,2,1,1,225,2,1,0,0,12,1,225,2,1,-148678.60193045562,-4791652.180635299,4197935.140104771,2.45849,2.53423,-0.560095,-82.375,41.625,42.25,-0.0625,-7.375,6.28125,0.0351562,0.00976562,-0.00195312,4,0,41.39844939224296,-91.77724170954647,10997.023277741093,-45.26402733621339,0.2860658333878919,-0.1651879332237995,0.0,8802.566937047923,11004.7807189461,150,True,21.244794673408418,False,164.51259018904133,178.45748299161534,False,16.996933800211036,True,False
6825,8,1970-07-23 10:01:53.992786864,2025-09-10,2025-09-12 19:09:59.278,HA,C,1251324434,JASSM,3,103,76,2,2,1,225,9,2,0,1,26,0,0,0,0,-172499.72400076812,-4770222.059541549,4220751.433073521,-2.51448,-0.70333,0.607456,60.375,-51.125,-55.0,0.0,0.0,0.0,0.0,0.0,0.0,2,0,41.67518331563536,-92.07101499053836,10000.004477029332,139.83198869796246,-0.0010654756790582,0.0033050326561628,,8802.566937047923,11004.7807189461,150,6824,8,2025-09-10,2025-09-12 19:09:59.238,HA,C,3999922872,HAWK11,1,1,73,2,1,1,225,2,1,0,0,12,1,225,2,1,-148792.94763358062,-4791594.423799361,4197994.546354771,2.49406,2.53414,-0.565464,-81.625,41.75,42.125,-0.140625,-7.45312,6.28125,0.00585938,0.0,0.0195312,4,0,41.39917286191793,-91.77862909775952,10992.56905548189,-45.067852311723904,0.5235458171969113,1.8714598631536143,0.0,8802.566937047923,11004.7807189461,150,True,21.117636271417595,False,164.75096804397197,178.394875124025,False,16.819633005235097,True,False
6837,8,1970-07-23 10:01:54.003594417,2025-09-10,2025-09-12 19:10:00.359,HA,C,1252636786,JASSM,3,103,76,2,2,1,225,9,2,0,1,26,0,0,0,0,-172433.24304373687,-4770278.446260299,4220690.827604771,-2.51448,-0.70333,0.607552,60.375,-51.125,-55.0,0.0,0.0,0.0,0.0,0.0,0.0,2,0,41.67445313198567,-92.07019307168082,9999.99991442245,139.83575937765406,-0.004561047958753,0.003303042488292,,8802.566937047923,11004.7807189461,150,6835,8,2025-09-10,2025-09-12 19:10:00.240,HA,C,4001195404,HAWK11,1,1,73,2,1,1,225,2,1,0,0,12,1,225,2,1,-148878.77575858062,-4791550.624971236,4198039.313932896,2.46952,2.52091,-0.572942,-80.875,41.75,42.0,-0.0625,-7.25,6.20312,-0.111328,0.0,0.0078125,4,0,41.39971974011573,-91.7796706605751,10988.518606115076,-44.30236986174232,0.4586740483387834,0.0633885740566084,0.0,8802.566937047923,11004.7807189461,150,True,21.00582692055796,False,164.9560255805983,178.34650872596873,False,16.66214754798497,True,False
6852,8,1970-07-23 10:01:54.015643366,2025-09-10,2025-09-12 19:10:01.564,HA,C,1253949138,JASSM,3,103,76,2,2,1,225,9,2,0,1,26,0,0,0,0,-172366.76208670562,-4770334.829072799,4220630.226042271,-2.51448,-0.70333,0.607552,60.375,-51.125,-55.0,0.0,0.0,0.0,0.0,0.0,0.0,2,0,41.673722991980725,-92.0693711730946,10000.000106098298,139.83630585208536,-0.0036071169340639,0.0033012684711009,,8802.566937047923,11004.7807189461,150,6851,8,2025-09-10,2025-09-12 19:10:01.538,HA,C,4002467936,HAWK11,1,1,73,2,1,1,225,2,1,0,0,12,1,225,2,1,-148964.34411795562,-4791506.783174361,4198083.704557896,2.36013,2.52417,-0.578694,-80.75,41.25,41.5,-0.078125,-7.4375,6.35938,-0.0351562,0.00195312,-0.0078125,4,0,41.400264368089,-91.7807091539938,10983.530535206966,-44.21971337065517,0.8148875717719407,-6.101519035213031,0.0,8802.566937047923,11004.7807189461,150,True,20.89422549940435,False,164.672206675853,178.2977224293876,False,16.996035429089847,True,False
6864,8,1970-07-23 10:01:54.027965884,2025-09-10,2025-09-12 19:10:02.796,HA,C,1255261486,JASSM,3,103,76,2,2,1,225,9,2,0,1,26,0,0,0,0,-172300.28112967435,-4770391.215791549,4220569.616667271,-2.51448,-0.70333,0.607552,60.375,-51.125,-55.0,0.0,0.0,0.0,0.0,0.0,0.0,2,0,41.67299277013252,-92.0685492913926,9999.998621604287,139.83685230743998,-0.0026531269895941,0.0032994464499086,,8802.566937047923,11004.7807189461,150,6869,8,2025-09-10,2025-09-12 19:10:03.128,HA,C,4004535802,HAWK11,1,1,73,2,1,1,225,2,1,0,0,12,1,225,2,1,-149104.89880545562,-4791436.343721236,4198154.602995396,2.356,2.54392,-0.559328,-81.5,40.5,40.0,-0.0625,-7.5,6.42188,0.0839844,0.0175781,0.00195312,4,0,41.4011359650784,-91.78241443763592,10974.846361751604,-45.65993894460936,0.5532652709343827,-5.744866402448592,0.0,8802.566937047923,11004.7807189461,150,True,20.748739797743273,False,163.64898945989555,178.21724105784753,False,18.096515789642854,True,False
6874,8,1970-07-23 10:01:54.035260956,2025-09-10,2025-09-12 19:10:03.526,HA,C,1256514186,JASSM,3,103,76,2,2,1,225,9,2,0,1,26,0,0,0,0,-172236.82214529935,-4770445.036104049,4220511.765104771,-2.51448,-0.70333,0.607552,60.375,-51.125,-55.0,0.0,0.0,0.0,0.0,0.0,0.0,2,0,41.672295773862494,-92.06776478807213,10000.000559705572,139.83737390320823,-0.0017425314479783,0.0032977309334005,,8802.566937047923,11004.7807189461,150,6876,8,2025-09-10,2025-09-12 19:10:03.545,HA,C,4005132300,HAWK11,1,1,73,2,1,1,225,2,1,0,0,12,1,225,2,1,-149145.13708670562,-4791416.545869674,4198174.593229771,2.39378,2.55139,-0.564984,-81.5,40.0,39.75,-0.0625,-7.78125,6.60938,0.078125,0.0117188,0.00195312,4,0,41.40138122538005,-91.7829025016153,10972.60201528111,-45.73485699074373,1.034214458515442,-3.3531355712456663,0.0,8802.566937047923,11004.7807189461,150,True,20.669133794218766,False,163.41024759069705,178.19025793600534,False,18.36513473934586,True,False
6888,8,1970-07-23 10:01:54.046109436,2025-09-10,2025-09-12 19:10:04.610,HA,C,1257826536,JASSM,3,103,76,2,2,1,225,9,2,0,1,26,0,0,0,0,-172170.34118826812,-4770501.415010299,4220451.159636021,-2.51448,-0.703234,0.607552,60.375,-51.125,-55.0,0.0,0.0,0.0,0.0,0.0,0.0,2,0,41.67156561331871,-92.0669429460622,9999.99979837073,139.8342671032111,-0.0034359082691073,0.0001592801833624,,8802.566937047923,11004.7807189461,150,6892,8,2025-09-10,2025-09-12 19:10:04.942,HA,C,4006762732,HAWK11,1,1,73,2,1,1,225,2,1,0,0,12,1,225,2,1,-149256.83239920562,-4791362.530244674,4198229.343229771,2.47316,2.54363,-0.571983,-81.0,39.25,39.625,0.0,-7.4375,6.39062,0.03125,0.0,0.0078125,4,0,41.4020514329304,-91.7842569624428,10967.08588368936,-45.19140636545056,1.107472316305707,0.9660635865906522,0.0,8802.566937047923,11004.7807189461,150,True,20.54291363002824,False,163.3052962484749,178.12162203178679,False,18.54475430092782,True,False
6903,8,1970-07-23 10:01:54.057105895,2025-09-10,2025-09-12 19:10:05.710,HA,C,1259138888,JASSM,3,103,76,2,2,1,225,9,2,0,1,26,0,0,0,0,-172103.85974295562,-4770557.797822799,4220390.550261021,-2.51448,-0.703234,0.607552,60.375,-51.125,-55.0,0.0,0.0,0.0,0.0,0.0,0.0,2,0,41.6708353972957,-92.0661211150795,10000.005839378917,139.83481350172565,-0.0024819340068414,0.0001574147447969,,8802.566937047923,11004.7807189461,150,6901,8,2025-09-10,2025-09-12 19:10:05.628,HA,C,4007637598,HAWK11,1,1,73,2,1,1,225,2,1,0,0,12,1,225,2,1,-149314.82068045562,-4791334.377900924,4198257.729948521,2.48342,2.54574,-0.583776,-80.5,39.25,39.5,-0.21875,-7.78125,6.54688,-0.0078125,0.0117188,0.0078125,4,0,41.40239977181099,-91.78496020286804,10963.875419968064,-44.842133735209735,1.6950521991013494,1.6285386814893157,0.0,8802.566937047923,11004.7807189461,150,True,20.449911760269952,False,163.42346084075544,178.08316487570397,False,18.464278257166143,True,False
6921,8,1970-07-23 10:01:54.068783586,2025-09-10,2025-09-12 19:10:06.878,HA,C,1260451238,JASSM,3,103,76,2,2,1,225,9,2,0,1,26,0,0,0,0,-172037.37878592435,-4770614.176729049,4220329.936979771,-2.51448,-0.703234,0.607552,60.375,-51.125,-55.0,0.0,0.0,0.0,0.0,0.0,0.0,2,0,41.670105172296,-92.0652993102187,9999.999635774271,139.8353598750185,-0.001527960960843,0.0001555430239158,,8802.566937047923,11004.7807189461,150,6919,8,2025-09-10,2025-09-12 19:10:06.832,HA,C,4009069196,HAWK11,1,1,73,2,1,1,225,2,1,0,0,12,1,225,2,1,-149411.68200858062,-4791287.622041549,4198305.835417271,2.45207,2.54449,-0.598444,-79.75,38.5,39.875,0.03125,-7.71875,6.73438,-0.0273438,0.0,0.00195312,4,0,41.40298466911776,-91.786134784947,10960.67528296447,-44.26403051813315,2.308621099684184,-0.1870864279503728,0.0,8802.566937047923,11004.7807189461,150,True,20.332729558052886,False,163.58381809412734,178.02195557281954,False,18.37391062982477,True,False
6937,8,1970-07-23 10:01:54.081165404,2025-09-10,2025-09-12 19:10:08.116,HA,C,1261703938,JASSM,3,103,76,2,2,1,225,9,2,0,1,26,0,0,0,0,-171973.91931326812,-4770667.993135299,4220272.081511021,-2.51448,-0.703234,0.607648,60.375,-51.125,-55.0,0.0,0.0,0.0,0.0,0.0,0.0,2,0,41.669408150697286,-92.0645148728485,10000.005335270002,139.8391038220225,-0.0050639602088511,0.0001536101277698,,8802.566937047923,11004.7807189461,150,6938,8,2025-09-10,2025-09-12 19:10:08.239,HA,C,4010739394,HAWK11,1,1,73,2,1,1,225,2,1,0,0,12,1,225,2,1,-149522.38122733062,-4791234.457979049,4198361.811979771,2.44219,2.54842,-0.601225,-79.125,37.875,39.75,0.015625,-7.78125,6.78125,-0.0117188,0.0136719,-0.00195312,4,0,41.40365823772458,-91.78747709625088,10959.86122877161,-44.307559448711686,2.550887693985942,-0.6273056955841425,0.0,8802.566937047923,11004.7807189461,150,True,20.20934987106307,False,163.5499574129803,177.9525134038806,False,18.48106651742516,True,False
6949,8,1970-07-23 10:01:54.090084601,2025-09-10,2025-09-12 19:10:09.008,HA,C,1263075940,JASSM,3,103,76,2,2,1,225,9,2,0,1,26,0,0,0,0,-171904.41589529935,-4770726.930635299,4220208.714323521,-2.51448,-0.703234,0.607648,60.375,-51.125,-55.0,0.0,0.0,0.0,0.0,0.0,0.0,2,0,41.66864475421581,-92.0636557461932,10000.003494438151,139.8396749924528,-0.0040666469245496,0.0001517336646898,,8802.566937047923,11004.7807189461,150,6951,8,2025-09-10,2025-09-12 19:10:09.332,HA,C,4011972160,HAWK11,1,1,73,2,1,1,225,2,1,0,0,12,1,225,2,1,-149603.89685233062,-4791195.917939986,4198403.632292271,2.43347,2.549,-0.609757,-78.625,37.0,40.0,-0.140625,-7.71875,6.75,0.00390625,0.0078125,0.00585938,4,0,41.4041546599516,-91.78846532535836,10962.067919455343,-44.01806553246454,2.946427358598404,-1.0943266770354951,0.0,8802.566937047923,11004.7807189461,150,True,20.09893803432095,False,163.52224975699576,177.8986810820738,False,18.569254309265737,True,False
6961,8,1970-07-23 10:01:54.101086117,2025-09-10,2025-09-12 19:10:10.108,HA,C,1264388294,JASSM,3,103,76,2,2,1,225,9,2,0,1,26,0,0,0,0,-171837.93444998687,-4770783.305635299,4220148.097136021,-2.51448,-0.703234,0.607648,60.375,-51.125,-55.0,0.0,0.0,0.0,0.0,0.0,0.0,2,0,41.66791450851139,-92.0628339928833,9999.996559207491,139.84022130805087,-0.0031126692627233,0.0001499160686226,,8802.566937047923,11004.7807189461,150,6963,8,2025-09-10,2025-09-12 19:10:10.238,HA,C,4013085626,HAWK11,1,1,73,2,1,1,225,2,1,0,0,12,1,225,2,1,-149677.43786795562,-4791161.559541549,4198441.157682896,2.42868,2.5442,-0.610812,-78.25,36.375,39.875,0.0,-7.375,6.46875,-0.00585938,0.00195312,0.0,4,0,41.40459868857709,-91.78935673601096,10964.63278459677,-43.80610427339511,2.851023550241322,-1.515465431657811,0.0,8802.566937047923,11004.7807189461,150,True,19.996280907514958,False,163.39230023951606,177.84883596684847,False,18.751620572319585,True,False
6976,8,1970-07-23 10:01:54.115213644,2025-09-10,2025-09-12 19:10:11.521,HA,C,1265700644,JASSM,3,103,76,2,2,1,225,9,2,0,1,26,0,0,0,0,-171771.453248815,-4770839.680635299,4220087.483854771,-2.51439,-0.703234,0.607648,60.375,-51.125,-55.0,0.0,0.0,0.0,0.0,0.0,0.0,2,0,41.667184283046375,-92.06201226107326,10000.003965202171,139.84076760150106,-0.0021587129190589,0.005639585760863,,8802.566937047923,11004.7807189461,150,6982,8,2025-09-10,2025-09-12 19:10:11.738,HA,C,4014914890,HAWK11,1,1,73,2,1,1,225,2,1,0,0,12,1,225,2,1,-149796.63318045562,-4791105.554658736,4198501.915495396,2.44449,2.54276,-0.608799,-77.75,36.375,39.25,-0.125,-6.92188,6.51562,0.015625,0.00976562,0.0,4,0,41.405319812253175,-91.7908016784528,10967.882032010442,-43.82788332716018,2.7202446178842723,-0.6570197479876894,0.0,8802.566937047923,11004.7807189461,150,True,19.86530582159605,False,163.33853010790892,177.77106694401783,False,18.88055550896443,True,False
6991,8,1970-07-23 10:01:54.123100969,2025-09-10,2025-09-12 19:10:12.310,HA,C,1266953342,JASSM,3,103,76,2,2,1,225,9,2,0,1,26,0,0,0,0,-171707.99353201812,-4770893.489229049,4220029.620573521,-2.51439,-0.703234,0.607648,60.375,-51.125,-55.0,0.0,0.0,0.0,0.0,0.0,0.0,2,0,41.66648723290366,-92.06122789506104,9999.995612124512,139.84128904656362,-0.0012481081400249,0.0056378597438746,,8802.566937047923,11004.7807189461,150,6989,8,2025-09-10,2025-09-12 19:10:12.128,HA,C,4015392090,HAWK11,1,1,73,2,1,1,225,2,1,0,0,12,1,225,2,1,-149827.23083670562,-4791091.184541549,4198517.296354771,2.45121,2.53864,-0.607744,-77.625,36.625,39.0,-0.03125,-6.78125,6.48438,0.015625,-0.00390625,0.015625,4,0,41.40550342823336,-91.7911726005144,10968.26547538314,-43.71603984314317,2.5511981858735204,-0.4022429481285923,0.0,8802.566937047923,11004.7807189461,150,True,19.791909648671528,False,163.37440754803117,177.7463364738039,False,18.866721290594427,True,False
7004,8,1970-07-23 10:01:54.134406195,2025-09-10,2025-09-12 19:10:13.440,HA,C,1268325346,JASSM,3,103,76,2,2,1,225,9,2,0,1,26,0,0,0,0,-171638.49011404935,-4770952.422822799,4219966.249479771,-2.51439,-0.703138,0.607648,60.375,-51.125,-55.0,0.0,0.0,0.0,0.0,0.0,0.0,2,0,41.66572380856051,-92.06036884775315,9999.99993632442,139.83820957707275,-0.0028964816651511,0.0025007895048848,,8802.566937047923,11004.7807189461,150,7006,8,2025-09-10,2025-09-12 19:10:13.442,HA,C,4016903222,HAWK11,1,1,73,2,1,1,225,2,1,0,0,12,1,225,2,1,-149926.16247733062,-4791044.054658736,4198566.991667271,2.45322,2.52647,-0.613976,-77.75,36.875,39.25,-0.140625,-6.6875,6.96875,-0.00390625,0.0,0.00195312,4,0,41.406100833007145,-91.7923721692289,10967.792355684076,-43.04731964647056,2.4704555578402303,-0.6574567120145478,0.0,8802.566937047923,11004.7807189461,150,True,19.67097951087905,False,163.5075899318874,177.6792335753353,False,18.80084688438076,True,False
7018,8,1970-07-23 10:01:54.145084614,2025-09-10,2025-09-12 19:10:14.508,HA,C,1269637698,JASSM,3,103,76,2,2,1,225,9,2,0,1,26,0,0,0,0,-171572.00866873687,-4771008.793916549,4219905.632292271,-2.51439,-0.703138,0.607648,60.375,-51.125,-55.0,0.0,0.0,0.0,0.0,0.0,0.0,2,0,41.66499356234062,-92.05954717041143,10000.00663191673,139.8387558108385,-0.001942522295637,0.0024989250895639,,8802.566937047923,11004.7807189461,150,7014,8,2025-09-10,2025-09-12 19:10:14.238,HA,C,4017857620,HAWK11,1,1,73,2,1,1,225,2,1,0,0,12,1,225,2,1,-149988.50036795562,-4791014.147432174,4198598.157682896,2.45494,2.52369,-0.611291,-77.875,37.125,39.375,-0.078125,-6.64062,6.96875,-0.0449219,-0.0078125,-0.00585938,4,0,41.4064775123091,-91.79312812030176,10966.660969077191,-43.042400687883486,2.269592967795766,-0.649799499440919,0.0,8802.566937047923,11004.7807189461,150,True,19.575292897368247,False,163.59388771372733,177.6342635711214,False,18.758904274580757,True,False
7029,8,1970-07-23 10:01:54.156407951,2025-09-10,2025-09-12 19:10:15.640,HA,C,1270890396,JASSM,3,103,76,2,2,1,225,9,2,0,1,26,0,0,0,0,-171508.54895194,-4771062.598604049,4219847.765104771,-2.51439,-0.703138,0.607744,60.375,-51.125,-55.0,0.0,0.0,0.0,0.0,0.0,0.0,2,0,41.66429649220266,-92.05876285925936,9999.996799307226,139.84250187013285,-0.0054811032758939,0.002496954838776,,8802.566937047923,11004.7807189461,150,7031,8,2025-09-10,2025-09-12 19:10:15.740,HA,C,4019647118,HAWK11,1,1,73,2,1,1,225,2,1,0,0,12,1,225,2,1,-150106.03357108062,-4790957.380830611,4198656.403776646,2.44066,2.52004,-0.611004,-78.625,37.625,39.375,-0.078125,-6.6875,7.0625,0.046875,0.00390625,-0.00585938,4,0,41.40718647613276,-91.79455357254945,10962.486529911806,-42.91998484604893,2.151229584291724,-1.583011063201795,0.0,8802.566937047923,11004.7807189461,150,True,19.448120977020423,False,163.50060658397115,177.55485120030974,False,18.92885230153148,True,False
7043,8,1970-07-23 10:01:54.167081381,2025-09-10,2025-09-12 19:10:16.708,HA,C,1272262398,JASSM,3,103,76,2,2,1,225,9,2,0,1,26,0,0,0,0,-171439.04528983062,-4771121.528291549,4219784.390104771,-2.51439,-0.703138,0.607744,60.375,-51.125,-55.0,0.0,0.0,0.0,0.0,0.0,0.0,2,0,41.663533046290986,-92.05790386894564,10000.001203958984,139.8430728926855,-0.004483784928508,0.0024950667434495,,8802.566937047923,11004.7807189461,150,7044,8,2025-09-10,2025-09-12 19:10:16.832,HA,C,4020959418,HAWK11,1,1,73,2,1,1,225,2,1,0,0,12,1,225,2,1,-150192.54138358062,-4790915.565400924,4198698.925261021,2.46376,2.5211,-0.607169,-79.0,38.125,39.5,-0.171875,-6.78125,7.15625,0.0527344,0.00195312,0.0,4,0,41.40770612474779,-91.79560277907532,10958.58013250217,-43.096577665929445,2.011315670202196,-0.2307564025593814,0.0,8802.566937047923,11004.7807189461,150,True,19.33506739325758,False,163.57972006380464,177.49302122200575,False,18.90920334708593,True,False
7055,8,1970-07-23 10:01:54.178103643,2025-09-10,2025-09-12 19:10:17.810,HA,C,1273515098,JASSM,3,103,76,2,2,1,225,9,2,0,1,26,0,0,0,0,-171375.58532889312,-4771175.332979049,4219726.522917271,-2.51439,-0.703138,0.607744,60.375,-51.125,-55.0,0.0,0.0,0.0,0.0,0.0,0.0,2,0,41.66283596481461,-92.05711959031208,10000.002421803843,139.84359424239287,-0.0035731768006707,0.0024933326628751,,8802.566937047923,11004.7807189461,150,7058,8,2025-09-10,2025-09-12 19:10:18.034,HA,C,4022391016,HAWK11,1,1,73,2,1,1,225,2,1,0,0,12,1,225,2,1,-150288.67028983062,-4790869.138643111,4198746.563932896,2.55072,2.51209,-0.616564,-79.25,38.375,40.375,-0.078125,-6.90625,7.35938,0.0429688,0.00390625,0.0175781,4,0,41.40828594187008,-91.79676868001518,10955.184613460782,-42.43107811435707,2.170863724445047,4.479518504732635,0.0,8802.566937047923,11004.7807189461,150,True,19.22118080073329,False,163.89647010687108,177.4252089773287,False,18.66462656195158,True,False
7071,8,1970-07-23 10:01:54.190459920,2025-09-10,2025-09-12 19:10:19.045,HA,C,1274827448,JASSM,3,103,76,2,2,1,225,9,2,0,1,26,0,0,0,0,-171309.10363944,-4771231.696260299,4219665.897917271,-2.51439,-0.703138,0.607744,60.375,-51.125,-55.0,0.0,0.0,0.0,0.0,0.0,0.0,2,0,41.662105689236185,-92.05629798683508,9999.995855783927,139.8441403961379,-0.0026192126534467,0.0024915178338051,,8802.566937047923,11004.7807189461,150,7074,8,2025-09-10,2025-09-12 19:10:19.238,HA,C,4023782848,HAWK11,1,1,73,2,1,1,225,2,1,0,0,12,1,225,2,1,-150380.76794608062,-4790823.556611861,4198793.427214146,2.5442,2.49416,-0.626727,-78.875,39.0,41.375,0.109375,-6.92188,7.4375,-0.0722656,0.0078125,0.0195312,4,0,41.40885624097441,-91.79788612104208,10951.879831738535,-41.41464778009049,2.1156095426115336,3.5460147532852213,0.0,8802.566937047923,11004.7807189461,150,True,19.106496634735503,False,164.5841402595531,177.3603530435569,False,18.044061508732685,True,False
7092,8,1970-07-23 10:01:54.202362186,2025-09-10,2025-09-12 19:10:20.236,HA,C,1276080148,JASSM,3,103,76,2,2,1,225,9,2,0,1,26,0,0,0,0,-171245.6436785025,-4771285.497041549,4219608.030729771,-2.51439,-0.703138,0.607744,60.375,-51.125,-55.0,0.0,0.0,0.0,0.0,0.0,0.0,2,0,41.66140861998205,-92.05551374452216,9999.998325667975,139.84466170704852,-0.0017086229576696,0.002489797788186,,8802.566937047923,11004.7807189461,150,7088,8,2025-09-10,2025-09-12 19:10:20.129,HA,C,4024896314,HAWK11,1,1,73,2,1,1,225,2,1,0,0,12,1,225,2,1,-150455.55310233062,-4790786.420869674,4198832.120573521,2.52119,2.4908,-0.636698,-79.0,39.125,42.25,-0.109375,-7.20312,7.5625,-0.0664062,0.00976562,-0.0136719,4,0,41.40932437038689,-91.79879356621028,10950.288130470626,-40.942565097673146,2.473321983114662,2.133237576193393,0.0,8802.566937047923,11004.7807189461,150,True,19.00500992691226,False,164.88805472603764,177.30643569612715,False,17.79830370742408,True,False
7102,8,1970-07-23 10:01:54.211204119,2025-09-10,2025-09-12 19:10:21.120,HA,C,1277392498,JASSM,3,103,76,2,2,1,225,9,2,0,1,26,0,0,0,0,-171179.16174490875,-4771341.860322799,4219547.405729771,-2.51439,-0.703138,0.607744,60.375,-51.125,-55.0,0.0,0.0,0.0,0.0,0.0,0.0,2,0,41.66067833279588,-92.05469217440348,10000.003073634944,139.84520782326936,-0.0007546572022605,0.0024879845976509,,8802.566937047923,11004.7807189461,150,7105,8,2025-09-10,2025-09-12 19:10:21.240,HA,C,4026208612,HAWK11,1,1,73,2,1,1,225,2,1,0,0,12,1,225,2,1,-150543.06091483062,-4790742.628877486,4198878.237761021,2.44948,2.4884,-0.63363,-79.375,39.125,42.875,0.0625,-6.76562,7.25,-0.0078125,0.00195312,0.00390625,4,0,41.40987982249746,-91.79985553229156,10949.423867881727,-40.96308180847623,2.2675580650825684,-2.0577005582723364,0.0,8802.566937047923,11004.7807189461,150,True,18.892582139824412,False,164.97188187518427,177.24433323262554,False,17.779469952166394,True,False
7115,8,1970-07-23 10:01:54.220102524,2025-09-10,2025-09-12 19:10:22.010,HA,C,1278585546,JASSM,3,103,76,2,2,1,225,9,2,0,1,26,0,0,0,0,-171118.7237566275,-4771393.098604049,4219492.288542271,-2.51439,-0.703138,0.607744,60.375,-51.125,-55.0,0.0,0.0,0.0,0.0,0.0,0.0,2,0,41.66001441264237,-92.0539453106425,10000.00208041972,139.84570427367134,0.0001125969109091,0.0024863237314777,,8802.566937047923,11004.7807189461,150,7118,8,2025-09-10,2025-09-12 19:10:22.199,HA,C,4027083478,HAWK11,1,1,73,2,1,1,225,2,1,0,0,12,1,225,2,1,-150601.51208670562,-4790713.477510299,4198909.183073521,2.49416,2.49061,-0.629028,-79.75,39.625,43.0,-0.15625,-6.9375,7.32812,0.09375,0.0078125,-0.0136719,4,0,41.410251193199066,-91.800564849217,10949.401369828684,-41.20548462241088,2.1216391097060616,0.5675812467294357,0.0,8802.566937047923,11004.7807189461,150,True,18.80371447621854,False,165.0481131912535,177.20041737784592,False,17.745549547644938,True,False
7130,8,1970-07-23 10:01:54.230124566,2025-09-10,2025-09-12 19:10:23.012,HA,C,1279778592,JASSM,3,103,76,2,2,1,225,9,2,0,1,26,0,0,0,0,-171058.28552420562,-4771444.332979049,4219437.171354771,-2.51439,-0.703043,0.607744,60.375,-51.125,-55.0,0.0,0.0,0.0,0.0,0.0,0.0,2,0,41.659350510963066,-92.05319846097524,9999.996290303368,139.84254827293685,-0.0016675246114884,-0.000652972939043,,8802.566937047923,11004.7807189461,150,7135,8,2025-09-10,2025-09-12 19:10:23.238,HA,C,4028395776,HAWK11,1,1,73,2,1,1,225,2,1,0,0,12,1,225,2,1,-150690.11169608062,-4790668.920869674,4198956.479948521,2.54056,2.48467,-0.633534,-79.875,39.875,43.75,-0.15625,-6.875,7.20312,0.0195312,0.00585938,0.0175781,4,0,41.41081893610413,-91.80164017780992,10949.311115599532,-40.83058611757996,2.159593212035857,3.0395207738312124,0.0,8802.566937047923,11004.7807189461,150,True,18.695563403669524,False,165.3369083800355,177.13762891110343,False,17.521692139071845,True,False
7149,8,1970-07-23 10:01:54.240159688,2025-09-10,2025-09-12 19:10:24.015,HA,C,1280971638,JASSM,3,103,76,2,2,1,225,9,2,0,1,26,0,0,0,0,-170997.84729178375,-4771495.567354049,4219382.054167271,-2.51439,-0.703043,0.60784,60.375,-51.125,-55.0,0.0,0.0,0.0,0.0,0.0,0.0,2,0,41.65868660435402,-92.05245162664872,9999.99529318013,139.84626760442197,-0.0052465326245765,-0.0006548434092862,,8802.566937047923,11004.7807189461,150,7153,8,2025-09-10,2025-09-12 19:10:24.128,HA,C,4029628542,HAWK11,1,1,73,2,1,1,225,2,1,0,0,12,1,225,2,1,-150772.10778983062,-4790627.221650924,4199000.852995396,2.62704,2.46405,-0.649545,-79.5,40.25,44.5,-0.265625,-6.90625,7.28125,0.0742188,0.0,0.00390625,4,0,41.41135117088876,-91.80263555087166,10949.398187843395,-39.52208316292433,2.320261231995765,7.338958119008173,0.0,8802.566937047923,11004.7807189461,150,True,18.591293427557968,False,165.83335641436324,177.07898432909062,False,17.085281163798918,True,False
7162,8,1970-07-23 10:01:54.250413169,2025-09-10,2025-09-12 19:10:25.041,HA,C,1282164684,JASSM,3,103,76,2,2,1,225,9,2,0,1,26,0,0,0,0,-170937.40905936187,-4771546.801729049,4219326.936979771,-2.51439,-0.703043,0.60784,60.375,-51.125,-55.0,0.0,0.0,0.0,0.0,0.0,0.0,2,0,41.65802269281578,-92.05170480766274,9999.999089043902,139.84676400579514,-0.0043792955088039,-0.0006564950572449,,8802.566937047923,11004.7807189461,150,7165,8,2025-09-10,2025-09-12 19:10:25.128,HA,C,4030901074,HAWK11,1,1,73,2,1,1,225,2,1,0,0,12,1,225,2,1,-150856.82263358062,-4790582.554658736,4199048.311979771,2.68159,2.44919,-0.656831,-78.375,41.375,45.5,-0.15625,-6.76562,7.17188,0.0195312,-0.00195312,0.015625,4,0,41.411921372874815,-91.8036645410592,10949.099462717237,-38.73034082211748,2.253493109338934,9.978980123823442,0.0,8802.566937047923,11004.7807189461,150,True,18.48431581931776,False,166.91305163894518,177.0201809425423,False,16.064127264408942,True,False
7177,8,1970-07-23 10:01:54.261258774,2025-09-10,2025-09-12 19:10:26.125,HA,C,1283298078,JASSM,3,103,76,2,2,1,225,9,2,0,1,26,0,0,0,0,-170879.99255545562,-4771595.473604049,4219274.573698521,-2.51429,-0.703043,0.60784,60.375,-51.125,-55.0,0.0,0.0,0.0,0.0,0.0,0.0,2,0,41.65739196386638,-92.05099534197468,10000.000945611682,139.8472355728803,-0.003555412822146,0.0048334035746823,,8802.566937047923,11004.7807189461,150,7174,8,2025-09-10,2025-09-12 19:10:25.832,HA,C,4031696406,HAWK11,1,1,73,2,1,1,225,2,1,0,0,12,1,225,2,1,-150908.67419608062,-4790554.308564986,4199078.155729771,2.74487,2.42513,-0.668145,-77.625,42.125,46.25,-0.109375,-6.92188,7.35938,0.09375,0.0,0.0351562,4,0,41.41228113608936,-91.80429470704068,10948.41595444603,-37.469224212160455,2.140861628235985,12.804873952855036,0.0,8802.566937047923,11004.7807189461,150,False,18.400786246958738,False,167.65873219596304,176.9821880591631,False,15.356527788484941,True,False
7192,8,1970-07-23 10:01:54.271607326,2025-09-10,2025-09-12 19:10:27.160,HA,C,1284491126,JASSM,3,103,76,2,2,1,225,9,2,0,1,26,0,0,0,0,-170819.55432303375,-4771646.704072799,4219219.452604771,-2.51429,-0.703043,0.60784,60.375,-51.125,-55.0,0.0,0.0,0.0,0.0,0.0,0.0,2,0,41.6567280398032,-92.05024855457891,9999.996000578927,139.84773194059989,-0.0026881740920393,0.0048317490345786,,8802.566937047923,11004.7807189461,150,7190,8,2025-09-10,2025-09-12 19:10:27.128,HA,C,4033207538,HAWK11,1,1,73,2,1,1,225,2,1,0,0,12,1,225,2,1,-151006.43005545562,-4790498.289033736,4199137.741667271,2.86691,2.38381,-0.679458,-75.375,44.125,48.375,-0.109375,-6.92188,7.3125,0.0390625,0.0136719,0.0390625,4,0,41.41299826990478,-91.80548382151105,10947.53661922577,-35.5801767771853,1.6172963448664444,18.38253078695687,0.0,8802.566937047923,11004.7807189461,150,False,18.28247945673614,False,169.77258245351027,176.92070120179517,False,13.304862800723711,True,False
7202,8,1970-07-23 10:01:54.281962796,2025-09-10,2025-09-12 19:10:28.196,HA,C,1285624520,JASSM,3,103,76,2,2,1,225,9,2,0,1,26,0,0,0,0,-170762.1378191275,-4771695.375947799,4219167.089323521,-2.51429,-0.703043,0.60784,60.375,-51.125,-55.0,0.0,0.0,0.0,0.0,0.0,0.0,2,0,41.65609730172361,-92.04953911730728,10000.00673628414,139.84820347677382,-0.001864291219817,0.0048301755212392,,8802.566937047923,11004.7807189461,150,7201,8,2025-09-10,2025-09-12 19:10:28.034,HA,C,4034241470,HAWK11,1,1,73,2,1,1,225,2,1,0,0,12,1,225,2,1,-151072.06482108062,-4790457.940400924,4199180.511198521,2.89692,2.34594,-0.693072,-73.375,45.75,50.0,-0.1875,-7.3125,7.57812,-0.0585938,0.00976562,0.0351562,4,0,41.41351468331482,-91.80628325677144,10946.217268495358,-33.74968037437525,1.3433214422715911,18.774370819344643,0.0,8802.566937047923,11004.7807189461,150,False,18.18689792935339,False,171.52034339737193,176.88035790099383,False,11.597706699388638,True,False
7211,8,1970-07-23 10:01:54.289081949,2025-09-10,2025-09-12 19:10:28.908,HA,C,1286817566,JASSM,3,103,76,2,2,1,225,9,2,0,1,26,0,0,0,0,-170701.699342565,-4771746.602510299,4219111.964323521,-2.51429,-0.703043,0.60784,60.375,-51.125,-55.0,0.0,0.0,0.0,0.0,0.0,0.0,2,0,41.65543336518691,-92.04879235857015,9999.993029005936,139.84869981278888,-0.0009970495026373,0.0048285197946258,,8802.566937047923,11004.7807189461,150,7209,8,2025-09-10,2025-09-12 19:10:28.679,HA,C,4034678902,HAWK11,1,1,73,2,1,1,225,2,1,0,0,12,1,225,2,1,-151099.95935233062,-4790440.207002486,4199199.524870396,2.87171,2.33951,-0.68799,-73.0,46.375,51.0,-0.078125,-7.39062,7.76562,-0.0898438,0.0214844,0.0429688,4,0,41.41374328586436,-91.80662323826678,10946.034183946174,-33.668251433007875,0.9454138103115188,17.096957092038576,0.0,8802.566937047923,11004.7807189461,150,False,18.114897450722847,False,172.1446934828459,176.8587503515326,False,10.996185479102916,True,False
7218,8,1970-07-23 10:01:54.299128734,2025-09-10,2025-09-12 19:10:29.912,HA,C,1288010612,JASSM,3,103,76,2,2,1,225,9,2,0,1,26,0,0,0,0,-170641.2608660025,-4771797.832979049,4219056.843229771,-2.51429,-0.703043,0.60784,60.375,-51.125,-55.0,0.0,0.0,0.0,0.0,0.0,0.0,2,0,41.65476942663711,-92.04804561349492,10000.002202017207,139.8491961332331,-0.0001298091057753,0.0048268668764457,,8802.566937047923,11004.7807189461,150,7219,8,2025-09-10,2025-09-12 19:10:29.940,HA,C,4036587700,HAWK11,1,1,73,2,1,1,225,2,1,0,0,12,1,225,2,1,-151214.91443045562,-4790363.281221236,4199282.894011021,2.65513,2.31181,-0.702276,-70.875,47.875,53.875,0.09375,-7.32812,7.75,-0.109375,0.0195312,0.00976562,4,0,41.41474207043516,-91.80802579851516,10946.709887107572,-32.20130549502093,0.9931742829455826,3.696213458871388,0.0,8802.566937047923,11004.7807189461,150,True,17.977365445645724,False,174.20046511748384,176.8029482783329,False,8.988957575341091,True,False
7236,8,1970-07-23 10:01:54.309060815,2025-09-10,2025-09-12 19:10:30.906,HA,C,1289203658,JASSM,3,103,76,2,2,1,225,9,2,0,1,26,0,0,0,0,-170580.82238944,-4771849.059541549,4219001.718229771,-2.51429,-0.703043,0.60784,60.375,-51.125,-55.0,0.0,0.0,0.0,0.0,0.0,0.0,2,0,41.65410548024351,-92.04729888543218,9999.998080810796,139.84969243587977,0.0007374328130826,0.0048252110930748,,8802.566937047923,11004.7807189461,150,7235,8,2025-09-10,2025-09-12 19:10:30.876,HA,C,4037223966,HAWK11,1,1,73,2,1,1,225,2,1,0,0,12,1,225,2,1,-151253.66833670562,-4790336.476533736,4199312.466276646,2.6069,2.31669,-0.695085,-71.0,48.125,54.75,-0.203125,-7.15625,7.51562,-0.0605469,-0.00585938,-0.0136719,4,0,41.41509386175738,-91.80849897106869,10947.981148258925,-32.60047019671579,0.7555467300416056,1.107374806648206,0.0,8802.566937047923,11004.7807189461,150,True,17.895878126937404,False,174.42526372631303,176.77943188110336,False,8.777034291392733,True,False
7248,8,1970-07-23 10:01:54.321704967,2025-09-10,2025-09-12 19:10:32.170,HA,C,1290337052,JASSM,3,103,76,2,2,1,225,9,2,0,1,26,0,0,0,0,-170523.40564139312,-4771897.723604049,4218949.351042271,-2.51429,-0.702947,0.607936,60.375,-51.125,-55.0,0.0,0.0,0.0,0.0,0.0,0.0,2,0,41.65347474415784,-92.04658950613812,9999.99912432294,139.84973929517363,-0.0055332700322118,0.0016872935087447,,8802.566937047923,11004.7807189461,150,7250,8,2025-09-10,2025-09-12 19:10:32.196,HA,C,4039212298,HAWK11,1,1,73,2,1,1,225,2,1,0,0,12,1,225,2,1,-151371.59216483062,-4790254.561494674,4199403.811979771,2.60758,2.32082,-0.694414,-71.125,48.875,56.0,-0.21875,-7.03125,7.3125,0.0195312,0.00390625,0.00976562,4,0,41.41617558420575,-91.80993894626364,10953.948161823975,-32.77590224511684,0.820037782356198,1.2949779452320282,0.0,8802.566937047923,11004.7807189461,150,True,17.755970415156217,False,174.88096299804604,176.7276900774232,False,8.357857396427823,True,False
7256,8,1970-07-23 10:01:54.329100827,2025-09-10,2025-09-12 19:10:32.910,HA,C,1291589752,JASSM,3,103,76,2,2,1,225,9,2,0,1,26,0,0,0,0,-170459.94519217435,-4771951.512666549,4218891.468229771,-2.51429,-0.702947,0.607936,60.375,-51.125,-55.0,0.0,0.0,0.0,0.0,0.0,0.0,2,0,41.65277757272507,-92.04580547238857,10000.00419615979,139.85026037929524,-0.0046226519213265,0.0016855374658229,,8802.566937047923,11004.7807189461,150,7260,8,2025-09-10,2025-09-12 19:10:33.196,HA,C,4039609964,HAWK11,1,1,73,2,1,1,225,2,1,0,0,12,1,225,2,1,-151395.67224295562,-4790237.702119674,4199422.876432896,2.62138,2.31756,-0.700358,-71.0,49.0,56.125,-0.09375,-7.04688,7.35938,0.0429688,-0.00585938,0.015625,4,0,41.41640003516198,-91.81023304533176,10955.736508324571,-32.47477987616127,1.0341747702436983,1.970983296284125,0.0,8802.566937047923,11004.7807189461,150,True,17.68281915353842,False,174.9963733221741,176.70921252438842,False,8.259285395893114,True,False
7273,8,1970-07-23 10:01:54.340810389,2025-09-10,2025-09-12 19:10:34.081,HA,C,1292842452,JASSM,3,103,76,2,2,1,225,9,2,0,1,26,0,0,0,0,-170396.484498815,-4772005.297822799,4218833.585417271,-2.51429,-0.702947,0.607936,60.375,-51.125,-55.0,0.0,0.0,0.0,0.0,0.0,0.0,2,0,41.65208041926076,-92.04502145429248,10000.004961350698,139.85078144585617,-0.0037120509822692,0.0016837971965386,,8802.566937047923,11004.7807189461,150,7268,8,2025-09-10,2025-09-12 19:10:33.959,HA,C,4040962030,HAWK11,1,1,73,2,1,1,225,2,1,0,0,12,1,225,2,1,-151475.58923514312,-4790181.315400924,4199486.462370396,2.71601,2.30135,-0.710712,-70.5,49.375,57.25,-0.109375,-6.875,7.23438,0.0761719,-0.0078125,0.0175781,4,0,41.41714964336313,-91.81120927974058,10961.292679290067,-31.562744572422247,1.1720092607059776,6.808533345306609,0.0,8802.566937047923,11004.7807189461,150,True,17.5661361892266,False,175.5010464856485,176.67126018380924,False,7.752710286738807,True,False
7285,8,1970-07-23 10:01:54.352430513,2025-09-10,2025-09-12 19:10:35.243,HA,C,1294154792,JASSM,3,103,76,2,2,1,225,9,2,0,1,26,0,0,0,0,-170330.00256522125,-4772061.641572799,4218772.944792271,-2.51429,-0.702947,0.607936,60.375,-51.125,-55.0,0.0,0.0,0.0,0.0,0.0,0.0,2,0,41.651350067596375,-92.04420012961413,10000.001867092456,139.8513272990843,-0.002758096677376,0.0016819720981728,,8802.566937047923,11004.7807189461,150,7283,8,2025-09-10,2025-09-12 19:10:35.198,HA,C,4042632228,HAWK11,1,1,73,2,1,1,225,2,1,0,0,12,1,225,2,1,-151573.07165701812,-4790110.690400924,4199566.489714146,2.81677,2.27835,-0.729312,-68.875,50.375,58.625,-0.21875,-7.0,7.25,0.117188,0.0136719,0.0273438,4,0,41.418091615801465,-91.81240081369609,10968.89441655852,-30.166316166314807,1.5817248353397633,11.746334199357566,0.0,8802.566937047923,11004.7807189461,150,False,17.4318456020324,False,176.6321646942477,176.62916893822495,False,6.573359588798055,True,False
7291,8,1970-07-23 10:01:54.361084145,2025-09-10,2025-09-12 19:10:36.108,HA,C,1295407500,JASSM,3,103,76,2,2,1,225,9,2,0,1,26,0,0,0,0,-170266.54138358062,-4772115.426729049,4218715.058073521,-2.51429,-0.702947,0.607936,60.375,-51.125,-55.0,0.0,0.0,0.0,0.0,0.0,0.0,2,0,41.65065287684673,-92.0434161402812,10000.004892577046,139.85184833187776,-0.0018474726929229,0.0016802182399548,,8802.566937047923,11004.7807189461,150,7292,8,2025-09-10,2025-09-12 19:10:36.128,HA,C,4043944526,HAWK11,1,1,73,2,1,1,225,2,1,0,0,12,1,225,2,1,-151647.49646170562,-4790053.864229049,4199630.694792271,2.9231,2.23846,-0.74446,-66.625,51.75,59.75,-0.125,-6.95312,7.20312,0.015625,0.015625,0.03125,4,0,41.41884903238623,-91.8133116349206,10974.301867501725,-28.26618881517499,1.5008576394121105,16.353866650513165,0.0,8802.566937047923,11004.7807189461,150,False,17.316545806655096,False,177.956837209455,176.59884584896167,False,5.064956682909634,True,False
7309,8,1970-07-23 10:01:54.372100219,2025-09-10,2025-09-12 19:10:37.210,HA,C,1296660200,JASSM,3,103,76,2,2,1,225,9,2,0,1,26,0,0,0,0,-170203.08044608062,-4772169.207979049,4218657.171354771,-2.51429,-0.702947,0.607936,60.375,-51.125,-55.0,0.0,0.0,0.0,0.0,0.0,0.0,2,0,41.64995570396097,-92.04263217245295,10000.003653835483,139.8523693432233,-0.0009368686200739,0.001678476744114,,8802.566937047923,11004.7807189461,150,7308,8,2025-09-10,2025-09-12 19:10:37.156,HA,C,4044700092,HAWK11,1,1,73,2,1,1,225,2,1,0,0,12,1,225,2,1,-151689.42810233062,-4790020.341768111,4199668.255339146,2.93278,2.21008,-0.755677,-65.125,52.625,60.375,-0.3125,-7.15625,7.4375,-0.0605469,0.0195312,0.0332031,4,0,41.41929408532125,-91.81382537926244,10976.657980118827,-26.91395136564791,1.5024227483993986,15.835780503891304,0.0,8802.566937047923,11004.7807189461,150,False,17.22690823459373,False,178.54058779485658,176.5790249427027,False,4.102600231518902,True,False
7322,8,1970-07-23 10:01:54.382093086,2025-09-10,2025-09-12 19:10:38.209,HA,C,1297912898,JASSM,3,103,76,2,2,1,225,9,2,0,1,26,0,0,0,0,-170139.61975272125,-4772222.985322799,4218599.284636021,-2.51429,-0.702947,0.607936,60.375,-51.125,-55.0,0.0,0.0,0.0,0.0,0.0,0.0,2,0,41.649258548938846,-92.041848226127,9999.998150534717,139.85289033312333,-2.628445803601809e-05,0.0016767476106617,,8802.566937047923,11004.7807189461,150,7320,8,2025-09-10,2025-09-12 19:10:38.034,HA,C,4046250990,HAWK11,1,1,73,2,1,1,225,2,1,0,0,12,1,225,2,1,-151772.73083670562,-4789950.100557174,4199747.741667271,2.84352,2.15956,-0.769483,-62.75,53.875,62.25,0.015625,-7.0625,7.39062,-0.0820312,0.00195312,0.0117188,4,0,41.42023276780538,-91.81484740051889,10982.948352589316,-24.68927293112636,1.2646699178407428,8.775636781092569,0.0,8802.566937047923,11004.7807189461,150,True,17.099909808520145,False,177.816261140555,176.55603440067762,False,2.724911288523253,True,False
7335,8,1970-07-23 10:01:54.395625270,2025-09-10,2025-09-12 19:10:39.562,HA,C,1299225250,JASSM,3,103,76,2,2,1,225,9,2,0,1,26,0,0,0,0,-170073.13708670562,-4772279.325166549,4218538.640104771,-2.51429,-0.702947,0.608032,60.375,-51.125,-55.0,0.0,0.0,0.0,0.0,0.0,0.0,2,0,41.64852817147867,-92.04102696601986,9999.999312267995,139.8566592720028,-0.0035183912178334,0.0016748517896764,,8802.566937047923,11004.7807189461,150,7338,8,2025-09-10,2025-09-12 19:10:39.924,HA,C,4048477922,HAWK11,1,1,73,2,1,1,225,2,1,0,0,12,1,225,2,1,-151889.09314139312,-4789847.579072799,4199865.561979771,2.69175,2.15649,-0.77025,-61.875,54.5,64.125,-0.109375,-7.0,7.20312,0.00195312,-0.00390625,0.0,4,0,41.4216159827171,-91.81627673891695,10995.656953384045,-24.557418975734343,1.251020515602018,-0.03907894635593,0.0,8802.566937047923,11004.7807189461,150,True,16.938015655831542,False,176.80594678263046,176.53537824562162,False,2.540874914937325,True,False
7345,8,1970-07-23 10:01:54.405195764,2025-09-10,2025-09-12 19:10:40.519,HA,C,1300477948,JASSM,3,103,76,2,2,1,225,9,2,0,1,26,0,0,0,0,-170009.67614920562,-4772333.106416549,4218480.749479771,-2.51429,-0.702851,0.608032,60.375,-51.125,-55.0,0.0,0.0,0.0,0.0,0.0,0.0,2,0,41.64783095577295,-92.04024304970947,10000.005661266525,139.85352881415324,-0.0052549971304346,-0.0014655756557595,,8802.566937047923,11004.7807189461,150,7347,8,2025-09-10,2025-09-12 19:10:40.628,HA,C,4049352788,HAWK11,1,1,73,2,1,1,225,2,1,0,0,12,1,225,2,1,-151934.46325858062,-4789807.090791549,4199912.382292271,2.71342,2.1562,-0.770538,-61.875,54.875,64.375,-0.015625,-6.8125,7.07812,0.0527344,0.0,0.00195312,4,0,41.42216431141609,-91.81683425463106,11001.265489160734,-24.53997635177653,1.261404642283087,1.1914460632643042,0.0,8802.566937047923,11004.7807189461,150,True,16.84223202196261,False,176.73511000415715,176.52162828340093,False,2.4382741806541786,True,False
7358,8,1970-07-23 10:01:54.415126552,2025-09-10,2025-09-12 19:10:41.512,HA,C,1301790298,JASSM,3,103,76,2,2,1,225,9,2,0,1,26,0,0,0,0,-169943.19323904935,-4772389.442354049,4218420.101042271,-2.51419,-0.702851,0.608032,60.375,-51.125,-55.0,0.0,0.0,0.0,0.0,0.0,0.0,2,0,41.64710056379332,-92.03942182460334,10000.000050087554,139.8540745557432,-0.0043010337931166,0.0040377255355942,,8802.566937047923,11004.7807189461,150,7354,8,2025-09-10,2025-09-12 19:10:41.424,HA,C,4050267420,HAWK11,1,1,73,2,1,1,225,2,1,0,0,12,1,225,2,1,-151981.17419608062,-4789765.146455611,4199960.936979771,2.77842,2.15601,-0.774373,-61.5,55.125,64.75,-0.140625,-6.78125,7.0,0.183594,0.00976562,0.0117188,4,0,41.42273275250035,-91.81740835446114,11007.16607336967,-24.437876585013942,1.456642209713108,4.91073327496176,0.0,8802.566937047923,11004.7807189461,150,True,16.74244408669882,False,176.46422914493442,176.50754533666748,False,2.3899395661570697,True,False
7370,8,1970-07-23 10:01:54.426429281,2025-09-10,2025-09-12 19:10:42.642,HA,C,1303042998,JASSM,3,103,76,2,2,1,225,9,2,0,1,26,0,0,0,0,-169879.73230154935,-4772443.219697799,4218362.210417271,-2.51419,-0.702851,0.608032,60.375,-51.125,-55.0,0.0,0.0,0.0,0.0,0.0,0.0,2,0,41.64640336031454,-92.03863794457212,10000.00764906279,139.85459547249965,-0.0033904277408354,0.0040359742372225,,8802.566937047923,11004.7807189461,150,7371,8,2025-09-10,2025-09-12 19:10:42.832,HA,C,4052017152,HAWK11,1,1,73,2,1,1,225,2,1,0,0,12,1,225,2,1,-152069.83337576812,-4789682.680635299,4200055.983854771,3.03834,2.1097,-0.788562,-58.875,56.625,65.875,-0.1875,-6.73438,6.95312,0.0371094,0.00390625,0.0429688,4,0,41.423848139683685,-91.8184991277493,11017.626691814125,-22.38732923548825,1.4054780269736258,17.98532301005363,0.0,8802.566937047923,11004.7807189461,150,False,16.605090013671436,False,174.99686944632475,176.49603296823864,False,2.440879502651272,True,False
7380,8,1970-07-23 10:01:54.436130093,2025-09-10,2025-09-12 19:10:43.613,HA,C,1304355350,JASSM,3,103,76,2,2,1,225,9,2,0,1,26,0,0,0,0,-169813.2492693228,-4772499.551729049,4218301.558073521,-2.51419,-0.702851,0.608032,60.375,-51.125,-55.0,0.0,0.0,0.0,0.0,0.0,0.0,2,0,41.645672953788655,-92.03781675592556,9999.995275598669,139.85514117451143,-0.0024364620489755,0.0040341409063831,,8802.566937047923,11004.7807189461,150,7381,8,2025-09-10,2025-09-12 19:10:43.628,HA,C,4052892018,HAWK11,1,1,73,2,1,1,225,2,1,0,0,12,1,225,2,1,-152112.35681326812,-4789640.280244674,4200104.247526646,3.08436,2.05764,-0.798054,-56.875,57.75,66.375,-0.25,-7.0,7.21875,-0.0292969,0.0117188,0.0507812,4,0,41.42441811314327,-91.8190233868638,11021.456726025692,-20.248019364053032,1.0942009328781883,18.54284678555195,0.0,8802.566937047923,11004.7807189461,150,False,16.506556119072822,False,173.8871987496981,176.48813369836256,False,3.0607091672695392,True,False
7394,8,1970-07-23 10:01:54.448140605,2025-09-10,2025-09-12 19:10:44.814,HA,C,1305727352,JASSM,3,103,76,2,2,1,225,9,2,0,1,26,0,0,0,0,-169743.74426444,-4772558.448213424,4218238.151823521,-2.51419,-0.702851,0.608032,60.375,-51.125,-55.0,0.0,0.0,0.0,0.0,0.0,0.0,2,0,41.64490933755095,-92.03695825848872,10000.004690860758,139.85571166082426,-0.0014391309247998,0.0040322233096095,,8802.566937047923,11004.7807189461,150,7393,8,2025-09-10,2025-09-12 19:10:44.737,HA,C,4054283848,HAWK11,1,1,73,2,1,1,225,2,1,0,0,12,1,225,2,1,-152177.14782889312,-4789571.245088424,4200182.526823521,3.00603,2.01814,-0.804765,-54.0,59.0,67.875,0.046875,-7.0625,7.3125,-0.119141,0.00195312,0.0136719,4,0,41.42534492325808,-91.81982387642874,11026.695796585876,-18.64073910973243,0.8892985622071936,12.457172651979525,0.0,8802.566937047923,11004.7807189461,150,False,16.380848301299245,False,172.02772501694122,176.48877689118618,False,4.728565000182957,True,False
7406,8,1970-07-23 10:01:54.459080374,2025-09-10,2025-09-12 19:10:45.908,HA,C,1307039704,JASSM,3,103,76,2,2,1,225,9,2,0,1,26,0,0,0,0,-169677.26123221344,-4772614.780244674,4218177.499479771,-2.51419,-0.702851,0.608032,60.375,-51.125,-55.0,0.0,0.0,0.0,0.0,0.0,0.0,2,0,41.644178918835166,-92.03613710778156,10000.004180176364,139.85625732156117,-0.0004851649837767,0.0040303899085351,,8802.566937047923,11004.7807189461,150,7407,8,2025-09-10,2025-09-12 19:10:45.924,HA,C,4055635914,HAWK11,1,1,73,2,1,1,225,2,1,0,0,12,1,225,2,1,-152237.70251639312,-4789503.063447799,4200260.116667271,2.90066,2.00386,-0.808312,-52.5,59.875,69.0,-0.078125,-7.125,7.34375,-0.0351562,0.00390625,0.0,4,0,41.42626279678065,-91.82057343701544,11032.213478643378,-18.039416615812247,0.8883111952671762,5.83890735380679,0.0,8802.566937047923,11004.7807189461,150,True,16.25952211755075,False,170.9400583459259,176.49529449400524,False,5.776068722297473,True,False
7420,8,1970-07-23 10:01:54.471182624,2025-09-10,2025-09-12 19:10:47.118,HA,C,1308352054,JASSM,3,103,76,2,2,1,225,9,2,0,1,26,0,0,0,0,-169610.77807791656,-4772671.110322799,4218116.843229771,-2.51419,-0.702851,0.608128,60.375,-51.125,-55.0,0.0,0.0,0.0,0.0,0.0,0.0,2,0,41.643448479588805,-92.03531597499044,9999.996156871848,139.86002837059917,-0.0039798421133665,0.0040284486144123,,8802.566937047923,11004.7807189461,150,7417,8,2025-09-10,2025-09-12 19:10:47.034,HA,C,4056987980,HAWK11,1,1,73,2,1,1,225,2,1,0,0,12,1,225,2,1,-152297.41247733062,-4789433.844697799,4200339.427214146,2.87593,1.99561,-0.803518,-51.75,60.625,69.875,-0.125,-6.76562,6.9375,0.00585938,-0.00390625,0.00976562,4,0,41.42719860756692,-91.82131331722807,11038.857878451272,-17.823045495804145,0.5213742567675147,4.0837487920446325,0.0,8802.566937047923,11004.7807189461,150,True,16.137587516192472,False,170.28648363708683,176.50529141044447,False,6.418132726332333,True,False
7430,8,1970-07-23 10:01:54.480838049,2025-09-10,2025-09-12 19:10:48.083,HA,C,1309604754,JASSM,3,103,76,2,2,1,225,9,2,0,1,26,0,0,0,0,-169547.31677420562,-4772724.879854049,4218058.948698521,-2.51419,-0.702851,0.608128,60.375,-51.125,-55.0,0.0,0.0,0.0,0.0,0.0,0.0,2,0,41.6427512681684,-92.0345321824254,10000.00374556526,139.8605491918836,-0.003069250545437,0.0040267622339868,,8802.566937047923,11004.7807189461,150,7431,8,2025-09-10,2025-09-12 19:10:48.199,HA,C,4058260512,HAWK11,1,1,73,2,1,1,225,2,1,0,0,12,1,225,2,1,-152351.89392264312,-4789369.144502486,4200413.477995396,2.91389,1.97893,-0.807257,-51.0,61.25,70.5,-0.15625,-6.84375,7.01562,0.0234375,0.00195312,0.015625,4,0,41.42807302002687,-91.82198901424498,11044.792342437964,-17.127575771572072,0.5097582182653524,5.576281027748553,0.0,8802.566937047923,11004.7807189461,150,True,16.02292134628561,False,169.71418911181942,176.51652626278278,False,6.981985898297121,True,False
7448,8,1970-07-23 10:01:54.499157672,2025-09-10,2025-09-12 19:10:49.915,HA,C,1310917104,JASSM,3,103,76,2,2,1,225,9,2,0,1,26,0,0,0,0,-169480.83361990875,-4772781.207979049,4217998.292448521,-2.51419,-0.702755,0.608128,60.375,-51.125,-55.0,0.0,0.0,0.0,0.0,0.0,0.0,2,0,41.64202082894788,-92.0337110867154,10000.002272245289,139.85744603825256,-0.0047608914246043,0.0008877473421452,,8802.566937047923,11004.7807189461,150,7444,8,2025-09-10,2025-09-12 19:10:49.738,HA,C,4060248842,HAWK11,1,1,73,2,1,1,225,2,1,0,0,12,1,225,2,1,-152435.56384451812,-4789265.988252486,4200531.341276646,3.01188,1.94662,-0.811955,-49.0,62.375,71.5,-0.234375,-6.73438,6.82812,-0.0722656,0.00195312,0.015625,4,0,41.4294663970565,-91.82302819380104,11053.580621535686,-15.830549595178788,0.3736498662526272,9.860286417213857,0.0,8802.566937047923,11004.7807189461,150,True,15.870937378600916,False,168.41420123391123,176.54609333057476,False,8.274394530888157,True,False
7453,8,1970-07-23 10:01:54.502102828,2025-09-10,2025-09-12 19:10:50.210,HA,C,1312169804,JASSM,3,103,76,2,2,1,225,9,2,0,1,26,0,0,0,0,-169417.3721941275,-4772834.975557174,4217940.390104771,-2.51419,-0.702755,0.608128,60.375,-51.125,-55.0,0.0,0.0,0.0,0.0,0.0,0.0,2,0,41.6413235655683,-92.03292732811902,9999.998853377729,139.85796682240002,-0.0038502682128028,0.0008859769383021,,8802.566937047923,11004.7807189461,150,7451,8,2025-09-10,2025-09-12 19:10:50.131,HA,C,4060686276,HAWK11,1,1,73,2,1,1,225,2,1,0,0,12,1,225,2,1,-152453.80212576812,-4789242.429658736,4200557.897917271,2.94937,1.93387,-0.811859,-48.5,62.875,71.625,-0.234375,-6.78125,6.875,-0.216797,0.0,0.0253906,4,0,41.42978234286925,-91.82325512694736,11054.738767118752,-15.351612407205131,0.2215232098559078,5.7512000276074495,0.0,8802.566937047923,11004.7807189461,150,True,15.795173081012337,False,168.09247436257903,176.54506028342695,False,8.575983395076843,True,False
7465,8,1970-07-23 10:01:54.513611157,2025-09-10,2025-09-12 19:10:51.361,HA,C,1313422508,JASSM,3,103,76,2,2,1,225,9,2,0,1,26,0,0,0,0,-169353.91052420562,-4772888.741182174,4217882.491667271,-2.51419,-0.702755,0.608128,60.375,-51.125,-55.0,0.0,0.0,0.0,0.0,0.0,0.0,2,0,41.64062633475482,-92.03214358432378,10000.004427575735,139.85848758955532,-0.0029396729254502,0.0008842321950584,,8802.566937047923,11004.7807189461,150,7464,8,2025-09-10,2025-09-12 19:10:51.359,HA,C,4061640674,HAWK11,1,1,73,2,1,1,225,2,1,0,0,12,1,225,2,1,-152492.91150076812,-4789191.795869674,4200615.136198521,2.90191,1.90319,-0.814927,-48.25,63.5,71.875,-0.046875,-6.67188,6.875,0.00976562,0.0,0.00976562,4,0,41.43046249664186,-91.82374180387949,11057.572956634758,-14.1429791887708,0.0556494398180952,1.757864519284695,0.0,8802.566937047923,11004.7807189461,150,True,15.694918273272108,False,167.84584436882614,176.55674983372145,False,8.818679441533734,True,False
7477,8,1970-07-23 10:01:54.521087445,2025-09-10,2025-09-12 19:10:52.108,HA,C,1314496250,JASSM,3,103,76,2,2,1,225,9,2,0,1,26,0,0,0,0,-169299.51501639312,-4772934.825166549,4217832.858854771,-2.51419,-0.702755,0.608128,60.375,-51.125,-55.0,0.0,0.0,0.0,0.0,0.0,0.0,2,0,41.640028671450224,-92.03147182024092,9999.99921348608,139.85893394486928,-0.0021591390710501,0.0008827140403512,,8802.566937047923,11004.7807189461,150,7481,8,2025-09-10,2025-09-12 19:10:52.238,HA,C,4063032506,HAWK11,1,1,73,2,1,1,225,2,1,0,0,12,1,225,2,1,-152548.72107108062,-4789117.968721236,4200698.366667271,2.91619,1.92773,-0.808695,-47.75,64.25,72.25,-0.15625,-6.65625,6.76562,0.0214844,0.0,-0.0117188,4,0,41.43145290055711,-91.82443691384287,11061.125497232522,-15.1721111620077,-0.0197038917896583,3.5965949967298,0.0,8802.566937047923,11004.7807189461,150,True,15.581925175706631,False,167.43863464272908,176.58298954099695,False,9.236998906902656,True,False
7498,8,1970-07-23 10:01:54.532133453,2025-09-10,2025-09-12 19:10:53.213,HA,C,1315808596,JASSM,3,103,76,2,2,1,225,9,2,0,1,26,0,0,0,0,-169233.03186209625,-4772991.147432174,4217772.198698521,-2.51419,-0.702755,0.608128,60.375,-51.0,-55.0,0.0,0.0,0.0,0.0,0.0,0.0,2,0,41.63929821876751,-92.03065079614234,9999.996484029469,139.85947946923164,-0.0012051780963679,0.0008808755899969,,8802.566937047923,11004.7807189461,150,7496,8,2025-09-10,2025-09-12 19:10:53.127,HA,C,4064026672,HAWK11,1,1,73,2,1,1,225,2,1,0,0,12,1,225,2,1,-152588.44079764312,-4789063.885713424,4200758.829557896,3.02079,1.90588,-0.81857,-47.0,64.75,72.625,-0.265625,-6.85938,6.95312,0.152344,0.0117188,0.0234375,4,0,41.43217521942975,-91.82493222351766,11062.537541921203,-14.189262377583978,0.2868508477198455,8.68181915724779,0.0,8802.566937047923,11004.7807189461,150,True,15.476815174268697,False,166.91736964414986,176.5610199960591,False,9.739893137324792,True,False
7519,8,1970-07-23 10:01:54.543102256,2025-09-10,2025-09-12 19:10:54.310,HA,C,1317120946,JASSM,3,103,76,2,2,1,225,9,2,0,1,26,0,0,0,0,-169166.54846365875,-4773047.469697799,4217711.538542271,-2.51419,-0.702755,0.608128,60.375,-51.0,-55.0,0.0,0.0,0.0,0.0,0.0,0.0,2,0,41.63856776017954,-92.02982978765878,9999.999532870455,139.86002497536566,-0.0002512156294586,0.0008790388109101,,8802.566937047923,11004.7807189461,150,7522,8,2025-09-10,2025-09-12 19:10:54.424,HA,C,4065816170,HAWK11,1,1,73,2,1,1,225,2,1,0,0,12,1,225,2,1,-152656.96716483062,-4788965.849580611,4200868.226042271,-3.0902,1.85382,-0.824131,-43.875,66.125,73.5,-0.15625,-6.76562,6.82812,0.0351562,0.0,0.0195312,4,0,41.43348383879941,-91.82578858297008,11064.391774032792,-12.142984617093235,0.08735377496153,16.37069785143539,0.0,8802.566937047923,11004.7807189461,150,False,15.333814045623564,False,165.0809654475524,176.60595177887828,False,11.598888635104377,True,False
7541,8,1970-07-23 10:01:54.554084152,2025-09-10,2025-09-12 19:10:55.408,HA,C,1318433298,JASSM,3,103,76,2,2,1,225,9,2,0,1,26,0,0,0,0,-169100.06482108062,-4773103.790010299,4217650.874479771,-2.51419,-0.702755,0.608223,60.375,-51.0,-55.0,0.0,0.0,0.0,0.0,0.0,0.0,2,0,41.63783728108561,-92.0290087956196,9999.995058977553,139.86379411070067,-0.0037429533883358,0.0008771082907576,,8802.566937047923,11004.7807189461,150,7543,8,2025-09-10,2025-09-12 19:10:55.629,HA,C,4067247768,HAWK11,1,1,73,2,1,1,225,2,1,0,0,12,1,225,2,1,-152708.09607108062,-4788885.202119674,4200956.999479771,-3.02002,1.79543,-0.826049,-40.625,67.625,74.375,-0.21875,-6.98438,7.15625,0.0195312,0.00976562,0.0351562,4,0,41.43455311132866,-91.82643041111196,11062.868770912084,-9.90182320179154,-0.2836631123031831,17.93028864025421,0.0,8802.566937047923,11004.7807189461,150,False,15.208085487593136,False,163.16710074265183,176.64907733927774,False,13.538911152905381,True,False
7557,8,1970-07-23 10:01:54.565102539,2025-09-10,2025-09-12 19:10:56.510,HA,C,1319745648,JASSM,3,103,76,2,2,1,225,9,2,0,1,26,0,0,0,0,-169033.5813005728,-4773160.110322799,4217590.214323521,-2.51419,-0.702755,0.608223,60.375,-51.0,-55.0,0.0,0.0,0.0,0.0,0.0,0.0,2,0,41.637106822281936,-92.02818782358476,10000.004910296007,139.86433957705017,-0.0027889992142647,0.0008753330181953,,8802.566937047923,11004.7807189461,150,7559,8,2025-09-10,2025-09-12 19:10:56.737,HA,C,4068520300,HAWK11,1,1,73,2,1,1,225,2,1,0,0,12,1,225,2,1,-152749.91443045562,-4788812.651338424,4201036.575651646,-3.03306,1.75392,-0.826432,-37.75,68.625,75.375,-0.1875,-7.17188,7.29688,-0.0292969,0.00585938,0.03125,4,0,41.43551390201022,-91.8269578905189,11060.560280636088,-8.311445974895628,-0.543261735458351,15.422708792291596,0.0,8802.566937047923,11004.7807189461,150,False,15.0906501601368,False,161.48421019019563,176.69391462973047,False,15.263844673843458,True,False
7573,8,1970-07-23 10:01:54.580398099,2025-09-10,2025-09-12 19:10:58.039,HA,C,1321058000,JASSM,3,103,76,2,2,1,225,9,2,0,1,26,0,0,0,0,-168967.09753592435,-4773216.428682174,4217529.546354771,-2.5141,-0.702659,0.608223,60.375,-51.0,-55.0,0.0,0.0,0.0,0.0,0.0,0.0,2,0,41.63637631669936,-92.02736686799248,9999.99872411394,139.86123439001258,-0.0044822916173313,0.0032253705167361,,8802.566937047923,11004.7807189461,150,7572,8,2025-09-10,2025-09-12 19:10:58.034,HA,C,4070150732,HAWK11,1,1,73,2,1,1,225,2,1,0,0,12,1,225,2,1,-152800.03259451812,-4788717.204072799,4201141.868620396,-3.08014,1.71346,-0.830651,-34.75,69.125,77.25,-0.09375,-7.5,7.71875,-0.0332031,0.0136719,0.015625,4,0,41.43678290692584,-91.82759332154966,11058.459106762344,-6.726443631152213,-0.5301904050860424,11.002582748646583,0.0,8802.566937047923,11004.7807189461,150,False,14.955512707122553,False,159.68163028843423,176.76630371434956,False,17.15455119940912,True,False
