Unnamed: 0_cm,Subject_cm,Timestamp,SampleDate_cm,SampleTime_cm,Configuration_cm,Scenario_cm,DisTime_cm,MarkingTxt_cm,Application_cm,EntId_cm,Site_cm,ExerciseId_cm,ForceId_cm,Category_cm,Country_cm,Domain_cm,Kind_cm,Extra_cm,Specific_cm,Subcategory_cm,AltCategory_cm,AltCountry_cm,AltDomain_cm,AltKind_cm,ECEF_X_cm,ECEF_Y_cm,ECEF_Z_cm,OriPhi_cm,OriPsi_cm,OriTheta_cm,LinVelX_cm,LinVelY_cm,LinVelZ_cm,LinAccX_cm,LinAccY_cm,LinAccZ_cm,AngVelX_cm,AngVelY_cm,AngVelZ_cm,DrAlg_cm,Appearance_cm,Latitude_cm,Longitude_cm,Altitude_cm,Heading_cm,Pitch_cm,Roll_cm,CalibratedAirspeed_cm,CM_Altitude_Lead_cm,CM_Altitude_Wing_cm,CM_Airspeed_cm,Unnamed: 0_ac,Subject_ac,SampleDate_ac,SampleTime_ac,Configuration_ac,Scenario_ac,DisTime_ac,MarkingTxt_ac,Application_ac,EntId_ac,Site_ac,ExerciseId_ac,ForceId_ac,Category_ac,Country_ac,Domain_ac,Kind_ac,Extra_ac,Specific_ac,Subcategory_ac,AltCategory_ac,AltCountry_ac,AltDomain_ac,AltKind_ac,ECEF_X_ac,ECEF_Y_ac,ECEF_Z_ac,OriPhi_ac,OriPsi_ac,OriTheta_ac,LinVelX_ac,LinVelY_ac,LinVelZ_ac,LinAccX_ac,LinAccY_ac,LinAccZ_ac,AngVelX_ac,AngVelY_ac,AngVelZ_ac,DrAlg_ac,Appearance_ac,Latitude_ac,Longitude_ac,Altitude_ac,Heading_ac,Pitch_ac,Roll_ac,CalibratedAirspeed_ac,CM_Altitude_Lead_ac,CM_Altitude_Wing_ac,CM_Airspeed_ac,Bank_Angle_Condition,distance_nm,Distance_Condition,angle_between_vel,angle_between_pos,Cone_Condition,angle_between_pos_nose,Nose_Cone_Condition,Intercept_Criteria
14014,8,1970-07-23 10:02:00.859118886,2025-09-10,2025-09-12 19:21:25.911,AA,C,2070649098,JASSM,3,117,76,2,2,1,225,9,2,0,1,26,0,0,0,0,-173028.54724295562,-4769773.477510299,4221233.464323521,-2.51458,-0.703426,0.607361,60.375,-51.125,-55.0,0.0,0.0,0.0,0.0,0.0,0.0,2,0,41.68099130152352,-92.07755363485522,9999.99554584111,139.82807025622577,-0.0015612068835281,0.000962469451501,,9258.460327898714,10912.736076441255,150,14015,8,2025-09-10,2025-09-12 19:21:25.991,AA,C,1201809026,AMBUSH51,1,1,48,2,1,1,225,2,1,0,0,9,1,225,2,1,-136606.01555693752,-4793969.456482629,4194912.496153534,2.46935,2.71479,-0.435931,-95.8443,37.1942,40.1705,-0.267249,-7.43997,6.86883,-0.0361222,0.00730393,0.00790938,4,0,41.36639491362964,-91.6322237322876,9258.931949833644,-56.67941883295432,0.8700870018866418,5.258374235538769,0.0,9258.460327898714,10912.736076441255,150,True,27.468777136779817,False,158.5344461085665,173.26385471141344,False,14.73389442245749,True,False
14028,8,1970-07-23 10:02:00.871119239,2025-09-10,2025-09-12 19:21:27.111,AA,C,2072021100,JASSM,3,117,76,2,2,1,225,9,2,0,1,26,0,0,0,0,-172959.04528983062,-4769832.438447799,4221170.116667271,-2.51458,-0.703426,0.607361,60.375,-51.125,-55.0,0.0,0.0,0.0,0.0,0.0,0.0,2,0,41.68022799488242,-92.07669420749008,9999.997655558753,139.82864175623843,-0.0005638922457908,0.0009605422600104,,9258.460327898714,10912.736076441255,150,14031,8,2025-09-10,2025-09-12 19:21:27.225,AA,C,1203280392,AMBUSH51,1,1,48,2,1,1,225,2,1,0,0,9,1,225,2,1,-136724.3729592617,-4793923.005334739,4194962.347632627,2.3612,2.7039,-0.440401,-95.4846,37.4715,40.7108,0.102484,-7.33246,6.35311,-0.0952007,-0.00406652,0.00826308,4,0,41.366987750908685,-91.63365296894304,9260.997717856098,-56.0948846453552,0.666871811000599,-1.195139056626704,0.0,9258.460327898714,10912.736076441255,150,True,27.338528032249233,False,158.89021329701131,173.28772615929776,False,14.400936120963664,True,False
14041,8,1970-07-23 10:02:00.881122722,2025-09-10,2025-09-12 19:21:28.112,AA,C,2073273800,JASSM,3,117,76,2,2,1,225,9,2,0,1,26,0,0,0,0,-172895.58630545562,-4769886.270479049,4221112.276823521,-2.51458,-0.703426,0.607456,60.375,-51.125,-55.0,0.0,0.0,0.0,0.0,0.0,0.0,2,0,41.67953106378448,-92.07590952334144,9999.999000455202,139.8323854821504,-0.0041002555122629,0.0009586856238328,,9258.460327898714,10912.736076441255,150,14043,8,2025-09-10,2025-09-12 19:21:28.126,AA,C,1204354090,AMBUSH51,1,1,48,2,1,1,225,2,1,0,0,9,1,225,2,1,-136811.33507913467,-4793888.666538416,4194999.299385257,2.30915,2.70904,-0.435866,-95.7319,37.6691,40.3635,-0.0300846,-7.43013,6.35008,-0.0296495,-0.00556039,-0.0136643,4,0,41.36742675260799,-91.63470317637736,9262.708806120329,-56.46784299747953,0.663311460676776,-4.056769431124042,0.0,9258.460327898714,10912.736076441255,150,True,27.23211617052515,False,158.77254726162386,173.30248302979533,False,14.536305998253244,True,False
14056,8,1970-07-23 10:02:00.892105026,2025-09-10,2025-09-12 19:21:29.210,AA,C,2074586150,JASSM,3,117,76,2,2,1,225,9,2,0,1,26,0,0,0,0,-172829.10583670562,-4769942.668916549,4221051.679167271,-2.51458,-0.703426,0.607456,60.375,-51.125,-55.0,0.0,0.0,0.0,0.0,0.0,0.0,2,0,41.6788008980212,-92.07508749461122,10000.005687831215,139.83293209751636,-0.0031462734539747,0.0009568760866846,,9258.460327898714,10912.736076441255,150,14055,8,2025-09-10,2025-09-12 19:21:29.192,AA,C,1205626622,AMBUSH51,1,1,48,2,1,1,225,2,1,0,0,9,1,225,2,1,-136913.73436007535,-4793848.690360026,4195042.402253254,2.28964,2.71058,-0.429249,-96.0181,35.9557,41.2626,0.205774,-7.12435,6.09372,0.00772421,-0.00475312,0.0145402,4,0,41.367938188231314,-91.6359396739209,9264.972724906736,-56.78828715678161,0.4453094072137986,-5.140414540327435,0.0,9258.460327898714,10912.736076441255,150,True,27.114076841425916,False,158.4519581038958,173.3222512555791,False,14.870719090949173,True,False
14071,8,1970-07-23 10:02:00.905562124,2025-09-10,2025-09-12 19:21:30.556,AA,C,2075958152,JASSM,3,117,76,2,2,1,225,9,2,0,1,26,0,0,0,0,-172759.60339529935,-4770001.622041549,4220988.327604771,-2.51458,-0.703426,0.607456,60.375,-51.125,-55.0,0.0,0.0,0.0,0.0,0.0,0.0,2,0,41.67803759321962,-92.07422812306866,9999.998290327829,139.83350353592076,-0.0021489728626105,0.0009550195431546,,9258.460327898714,10912.736076441255,150,14072,8,2025-09-10,2025-09-12 19:21:30.591,AA,C,1207296820,AMBUSH51,1,1,48,2,1,1,225,2,1,0,0,9,1,225,2,1,-137048.7116666867,-4793796.180685013,4195097.793435257,2.31794,2.71687,-0.424928,-96.5954,37.1514,39.2755,-0.134678,-6.91586,6.34671,0.0143114,0.00267044,-0.0161714,4,0,41.36860159313809,-91.63756952555164,9265.333419829554,-57.19756203216641,0.4946750029124307,-3.3730449669466727,0.0,9258.460327898714,10912.736076441255,150,True,26.97439975590325,False,158.0326712450108,173.3533514158986,False,15.330483355135105,True,False
14084,8,1970-07-23 10:02:00.914101954,2025-09-10,2025-09-12 19:21:31.410,AA,C,2077210852,JASSM,3,117,76,2,2,1,225,9,2,0,1,26,0,0,0,0,-172696.14441092435,-4770055.454072799,4220930.483854771,-2.51448,-0.70333,0.607456,60.375,-51.125,-55.0,0.0,0.0,0.0,0.0,0.0,0.0,2,0,41.67734061876465,-92.0734434921346,10000.007721130294,139.83037393611198,-0.003884002192715,0.0033105114156189,,9258.460327898714,10912.736076441255,150,14083,8,2025-09-10,2025-09-12 19:21:31.392,AA,C,1208251220,AMBUSH51,1,1,48,2,1,1,225,2,1,0,0,9,1,225,2,1,-137126.03426463302,-4793766.300014783,4195128.98231713,2.31967,2.71639,-0.422766,-96.7914,37.2614,38.81,-0.149184,-7.00144,6.34129,-0.0153309,-0.008829,0.00374819,4,0,41.36897676736757,-91.63850314292456,9264.861525626373,-57.26582096054887,0.3886870535268023,-3.2858512709403143,0.0,9258.460327898714,10912.736076441255,150,True,26.874417451708954,False,157.85997079404305,173.36671083636423,False,15.52107973761686,True,False
14095,8,1970-07-23 10:02:00.923579295,2025-09-10,2025-09-12 19:21:32.357,AA,C,2078284594,JASSM,3,117,76,2,2,1,225,9,2,0,1,26,0,0,0,0,-172641.75134451812,-4770101.590791549,4220880.901823521,-2.51448,-0.70333,0.607456,60.375,-51.125,-55.0,0.0,0.0,0.0,0.0,0.0,0.0,2,0,41.67674322646384,-92.0727709711744,10000.004090383787,139.83082111632478,-0.0031034961686127,0.0033089984315389,,9258.460327898714,10912.736076441255,150,14092,8,2025-09-10,2025-09-12 19:21:32.191,AA,C,1209205618,AMBUSH51,1,1,48,2,1,1,225,2,1,0,0,9,1,225,2,1,-137203.56823586894,-4793736.45999376,4195159.859897554,2.31303,2.71712,-0.423273,-97.034,37.2528,38.4677,0.038752,-7.04955,6.35629,-0.00436197,-0.00135135,0.00142625,4,0,41.369349553750745,-91.6394392814834,9263.833587385809,-57.273932981129526,0.4369036583604477,-3.6489143418098178,0.0,9258.460327898714,10912.736076441255,150,True,26.78218792623071,False,157.68061337725996,173.38247551560363,False,15.719103032481318,True,False
14109,8,1970-07-23 10:02:00.934399461,2025-09-10,2025-09-12 19:21:33.439,AA,C,2079596946,JASSM,3,117,76,2,2,1,225,9,2,0,1,26,0,0,0,0,-172575.27038748687,-4770157.981416549,4220820.300261021,-2.51448,-0.70333,0.607456,60.375,-51.125,-55.0,0.0,0.0,0.0,0.0,0.0,0.0,2,0,41.67601305846872,-92.07194901092964,10000.005225158216,139.83136765624994,-0.0021495282947925,0.0033071426422966,,9258.460327898714,10912.736076441255,150,14107,8,2025-09-10,2025-09-12 19:21:33.359,AA,C,1210597450,AMBUSH51,1,1,48,2,1,1,225,2,1,0,0,9,1,225,2,1,-137316.25974282646,-4793693.370555348,4195204.292885297,2.29803,2.71895,-0.418582,-97.4584,37.1422,37.958,-0.112255,-6.79402,6.25608,-0.00388967,-0.00637182,-0.0084108,4,0,41.36988668003232,-91.64079983206842,9262.07245641724,-57.53010598495727,0.3105635797013433,-4.467026425706059,0.0,9258.460327898714,10912.736076441255,150,True,26.65906624971488,False,157.36844924050402,173.40868466984153,False,16.061032312607647,True,False
14122,8,1970-07-23 10:02:00.945556096,2025-09-10,2025-09-12 19:21:34.555,AA,C,2080909282,JASSM,3,117,76,2,2,1,225,9,2,0,1,26,0,0,0,0,-172508.79040701812,-4770214.368135299,4220759.698698521,-2.51448,-0.70333,0.607456,60.375,-51.125,-55.0,0.0,0.0,0.0,0.0,0.0,0.0,2,0,41.67528290765004,-92.07112708267402,10000.002679873092,139.83191416705023,-0.001195584448197,0.003305294096125,,9258.460327898714,10912.736076441255,150,14123,8,2025-09-10,2025-09-12 19:21:34.558,AA,C,1212029050,AMBUSH51,1,1,48,2,1,1,225,2,1,0,0,9,1,225,2,1,-137434.17847875645,-4793648.427880777,4195249.473245222,2.287,2.72086,-0.412514,-98.0169,37.1235,37.2279,-0.165699,-7.04495,6.53429,-0.00839,-0.00995045,-0.00237084,4,0,41.37043896623546,-91.64222346659004,9257.74823375571,-57.84400597209036,0.130394290915403,-5.056092350597127,0.0,9258.460327898714,10912.736076441255,150,True,26.53327509884401,False,156.97489511798676,173.43787163349594,False,16.490908117215977,True,False
14136,8,1970-07-23 10:02:00.956358904,2025-09-10,2025-09-12 19:21:35.635,AA,C,2082221650,JASSM,3,117,76,2,2,1,225,9,2,0,1,26,0,0,0,0,-172442.30847342435,-4770270.754854049,4220699.093229771,-2.51448,-0.70333,0.607552,60.375,-51.125,-55.0,0.0,0.0,0.0,0.0,0.0,0.0,2,0,41.67455272502566,-92.07030514956834,9999.997239815484,139.8356848572665,-0.0046911512768167,0.0033033034340632,,9258.460327898714,10912.736076441255,150,14137,8,2025-09-10,2025-09-12 19:21:35.758,AA,C,1213460648,AMBUSH51,1,1,48,2,1,1,225,2,1,0,0,9,1,225,2,1,-137551.58443775456,-4793604.119998222,4195293.312994062,2.28727,2.7253,-0.405631,-98.6637,37.0595,36.4529,-0.0555522,-7.23254,6.47481,0.00163431,0.00083952,-0.00653203,4,0,41.37097849345944,-91.64364078428972,9252.052305730507,-58.28689743769176,0.0098994462993959,-4.939625125827899,0.0,9258.460327898714,10912.736076441255,150,True,26.408220664476122,False,156.53086719507226,173.4680669163571,False,16.97279233040339,True,False
14148,8,1970-07-23 10:02:00.967077643,2025-09-10,2025-09-12 19:21:36.707,AA,C,2083533996,JASSM,3,117,76,2,2,1,225,9,2,0,1,26,0,0,0,0,-172375.82800467435,-4770327.141572799,4220638.487761021,-2.51448,-0.70333,0.607552,60.375,-51.125,-55.0,0.0,0.0,0.0,0.0,0.0,0.0,2,0,41.67382253611385,-92.06948325261232,9999.997729105124,139.8362313316873,-0.0037371842776358,0.0033014949760145,,9258.460327898714,10912.736076441255,150,14147,8,2025-09-10,2025-09-12 19:21:36.558,AA,C,1214415046,AMBUSH51,1,1,48,2,1,1,225,2,1,0,0,9,1,225,2,1,-137630.6765759343,-4793574.606299019,4195322.261087724,2.28752,2.7314,-0.402805,-99.0738,36.8504,36.0744,-0.0904374,-7.19114,6.69078,-0.00682539,0.00416223,-0.00391672,4,0,41.37133600011778,-91.64459547863684,9247.775662528911,-58.63074416576474,0.1176586242846892,-4.788399780720172,0.0,9258.460327898714,10912.736076441255,150,True,26.305715138930072,False,156.2402255409197,173.4844781805416,False,17.28133069540106,True,False
14161,8,1970-07-23 10:02:00.978366520,2025-09-10,2025-09-12 19:21:37.836,AA,C,2084786698,JASSM,3,117,76,2,2,1,225,9,2,0,1,26,0,0,0,0,-172312.36853201812,-4770380.961885299,4220580.636198521,-2.51448,-0.70333,0.607552,60.375,-51.125,-55.0,0.0,0.0,0.0,0.0,0.0,0.0,2,0,41.67312554642493,-92.06869872328436,9999.993333146322,139.83675295326614,-0.0028265861266992,0.0032997829080963,,9258.460327898714,10912.736076441255,150,14158,8,2025-09-10,2025-09-12 19:21:37.691,AA,C,1215767112,AMBUSH51,1,1,48,2,1,1,225,2,1,0,0,9,1,225,2,1,-137743.7365743612,-4793532.856061572,4195362.973136717,2.29587,2.73891,-0.399109,-99.515,36.4606,35.5777,-0.100008,-7.30222,6.37125,0.047707,0.0013992,-0.0141408,4,0,41.371839908752165,-91.6459600557418,9241.299777012218,-59.06326060384482,0.2434527667739163,-4.14308749554591,0.0,9258.460327898714,10912.736076441255,150,True,26.18643491648917,False,155.84901106190827,173.51556041282652,False,17.704085009422812,True,False
14171,8,1970-07-23 10:02:00.988079182,2025-09-10,2025-09-12 19:21:38.807,AA,C,2086039396,JASSM,3,117,76,2,2,1,225,9,2,0,1,26,0,0,0,0,-172248.90954764312,-4770434.782197799,4220522.784636021,-2.51448,-0.70333,0.607552,60.375,-51.125,-55.0,0.0,0.0,0.0,0.0,0.0,0.0,2,0,41.6724285511908,-92.0679142167395,9999.994264643092,139.83727455254143,-0.0019159906059175,0.003298067397558,,9258.460327898714,10912.736076441255,150,14174,8,2025-09-10,2025-09-12 19:21:38.925,AA,C,1217238478,AMBUSH51,1,1,48,2,1,1,225,2,1,0,0,9,1,225,2,1,-137866.05051295809,-4793488.408206452,4195406.3457887815,2.34947,2.74377,-0.399005,-99.7593,35.9078,35.5323,-0.0632467,-7.46111,6.63988,0.0426428,0.00206915,0.000448368,4,0,41.37237622885518,-91.64743610070968,9234.617733056044,-59.25215568478334,0.4201202902199067,-0.9650140479755908,0.0,9258.460327898714,10912.736076441255,150,True,26.062205744401595,False,155.6141566196413,173.55143753991743,False,17.968543162404814,True,False
14189,8,1970-07-23 10:02:01.000432476,2025-09-10,2025-09-12 19:21:40.043,AA,C,2087351748,JASSM,3,117,76,2,2,1,225,9,2,0,1,26,0,0,0,0,-172182.42859061187,-4770491.165010299,4220462.179167271,-2.51448,-0.70333,0.607552,60.375,-51.125,-55.0,0.0,0.0,0.0,0.0,0.0,0.0,2,0,41.67169836837522,-92.06709236966068,10000.002015541855,139.8378209709523,-0.0009620391780762,0.0032962763496825,,9258.460327898714,10912.736076441255,150,14191,8,2025-09-10,2025-09-12 19:21:40.091,AA,C,1218630308,AMBUSH51,1,1,48,2,1,1,225,2,1,0,0,9,1,225,2,1,-137983.025530031,-4793446.055041066,4195447.825873934,2.43901,2.74172,-0.40379,-99.4418,36.0718,35.6874,-0.18899,-7.51038,6.45358,0.0510713,0.0112571,0.0105393,4,0,41.37288820659,-91.6488476877244,9228.618141707124,-58.98391562635906,0.5414911670409657,4.122118629001699,0.0,9258.460327898714,10912.736076441255,150,True,25.938503643805163,False,155.79033366689956,173.5849250477867,False,17.826915876824188,True,False
14202,8,1970-07-23 10:02:01.010091245,2025-09-10,2025-09-12 19:21:41.009,AA,C,2088604448,JASSM,3,117,76,2,2,1,225,9,2,0,1,26,0,0,0,0,-172118.96911795562,-4770544.985322799,4220404.323698521,-2.51448,-0.703234,0.607552,60.375,-51.125,-55.0,0.0,0.0,0.0,0.0,0.0,0.0,2,0,41.67100133585118,-92.06630789191632,10000.00520338763,139.8346893228847,-0.0026987303203458,0.0001578264533535,,9258.460327898714,10912.736076441255,150,14200,8,2025-09-10,2025-09-12 19:21:40.825,AA,C,1219505174,AMBUSH51,1,1,48,2,1,1,225,2,1,0,0,9,1,225,2,1,-138055.6829397371,-4793419.313356416,4195474.169051327,2.4654,2.7354,-0.412139,-98.8912,36.4075,36.0587,-0.0989977,-7.75462,6.34919,0.0196231,-0.000928986,0.0176632,4,0,41.37321269652372,-91.64972463646684,9225.080732617544,-58.41245229718624,0.6523292792935134,5.496000874775078,0.0,9258.460327898714,10912.736076441255,150,True,25.842475252985505,False,156.14808502907928,173.60054876317238,False,17.48574576747771,True,False
14217,8,1970-07-23 10:02:01.021101523,2025-09-10,2025-09-12 19:21:42.110,AA,C,2089916798,JASSM,3,117,76,2,2,1,225,9,2,0,1,26,0,0,0,0,-172052.48816092435,-4770601.364229049,4220343.714323521,-2.51448,-0.703234,0.607552,60.375,-51.125,-55.0,0.0,0.0,0.0,0.0,0.0,0.0,2,0,41.67027113846707,-92.06548608283434,10000.00620224946,139.83523570076846,-0.0017447773689205,0.0001559716770102,,9258.460327898714,10912.736076441255,150,14219,8,2025-09-10,2025-09-12 19:21:42.126,AA,C,1221056074,AMBUSH51,1,1,48,2,1,1,225,2,1,0,0,9,1,225,2,1,-138183.8575559569,-4793371.642076351,4195521.659858603,2.43183,2.72319,-0.421724,-97.944,36.8683,36.7894,-0.0677696,-7.78939,6.50558,-0.0816373,0.00159478,0.0131317,4,0,41.37379494499754,-91.65127185075656,9219.836748288688,-57.57197961064461,0.6028855970468502,3.2986991407028325,0.0,9258.460327898714,10912.736076441255,150,True,25.711477714795368,False,156.76513908833851,173.6372036249177,False,16.90441131837709,True,False
14230,8,1970-07-23 10:02:01.031980540,2025-09-10,2025-09-12 19:21:43.198,AA,C,2091169496,JASSM,3,117,76,2,2,1,225,9,2,0,1,26,0,0,0,0,-171989.02868826812,-4770655.176729049,4220285.854948521,-2.51448,-0.703234,0.607552,60.375,-51.125,-55.0,0.0,0.0,0.0,0.0,0.0,0.0,2,0,41.66957411526012,-92.06470164312398,9999.992556121384,139.83575722638443,-0.0008341759578936,0.0001541957157238,,9258.460327898714,10912.736076441255,150,14232,8,2025-09-10,2025-09-12 19:21:43.291,AA,C,1222447904,AMBUSH51,1,1,48,2,1,1,225,2,1,0,0,9,1,225,2,1,-138298.56313434374,-4793328.2537607765,4195565.418057882,2.34619,2.72259,-0.416217,-97.6947,36.8061,37.2567,0.0312337,-7.69621,6.38628,-0.0635341,-0.00637598,-0.00529199,4,0,41.37432880680999,-91.65265675274438,9216.092881835017,-57.76915334416213,0.3549658656223053,-1.6235356225528266,0.0,9258.460327898714,10912.736076441255,150,True,25.59032818970844,False,156.96937556390452,173.6682830848138,False,16.726023939312938,True,False
14246,8,1970-07-23 10:02:01.043252888,2025-09-10,2025-09-12 19:21:44.325,AA,C,2092422202,JASSM,3,117,76,2,2,1,225,9,2,0,1,26,0,0,0,0,-171925.56872733062,-4770708.993135299,4220227.999479771,-2.51448,-0.703234,0.607648,60.375,-51.125,-55.0,0.0,0.0,0.0,0.0,0.0,0.0,2,0,41.66887708962314,-92.0639172127908,10000.002238619289,139.8395011633584,-0.0043701723057864,0.0001523052268481,,9258.460327898714,10912.736076441255,150,14244,8,2025-09-10,2025-09-12 19:21:44.258,AA,C,1223601138,AMBUSH51,1,1,48,2,1,1,225,2,1,0,0,9,1,225,2,1,-138392.95442250796,-4793292.885051883,4195601.372960409,2.30522,2.72532,-0.412816,-97.6458,35.6756,37.712,-0.138785,-7.53032,6.28542,-0.0217079,-0.00235419,-0.00186733,4,0,41.37476575125115,-91.65379629105148,9213.72782594816,-58.008098802278205,0.3149455754444365,-3.909552657560885,0.0,9258.460327898714,10912.736076441255,150,True,25.48114493784521,False,156.79492259927014,173.6919201053561,False,16.909328148109772,True,False
14257,8,1970-07-23 10:02:01.053099253,2025-09-10,2025-09-12 19:21:45.309,AA,C,2093734546,JASSM,3,117,76,2,2,1,225,9,2,0,1,26,0,0,0,0,-171859.08777029935,-4770765.368135299,4220167.386198521,-2.51448,-0.703234,0.607648,60.375,-51.125,-55.0,0.0,0.0,0.0,0.0,0.0,0.0,2,0,41.66814687197238,-92.06309545942828,10000.002021298456,139.84004748148948,-0.0034162174927828,0.0001505011660176,,9258.460327898714,10912.736076441255,150,14259,8,2025-09-10,2025-09-12 19:21:45.458,AA,C,1225032736,AMBUSH51,1,1,48,2,1,1,225,2,1,0,0,9,1,225,2,1,-138509.80853521018,-4793249.3168304255,4195645.43381813,2.31745,2.73151,-0.409047,-97.7672,36.0226,36.5008,-0.173237,-7.62129,6.41317,0.0104789,0.00768676,-0.00790314,4,0,41.37530232757822,-91.65520695814423,9210.36622958709,-58.39294010354724,0.3873505193135345,-3.069008870264881,0.0,9258.460327898714,10912.736076441255,150,True,25.356481140229718,False,156.45549230805372,173.72444366724713,False,17.295170886790928,True,False
14271,8,1970-07-23 10:02:01.064100307,2025-09-10,2025-09-12 19:21:46.410,AA,C,2095046896,JASSM,3,117,76,2,2,1,225,9,2,0,1,26,0,0,0,0,-171792.6065691275,-4770821.743135299,4220106.769011021,-2.51439,-0.703234,0.607648,60.375,-51.125,-55.0,0.0,0.0,0.0,0.0,0.0,0.0,2,0,41.66741662214617,-92.0622737217091,9999.999061907827,139.84059378136786,-0.0024622411184896,0.00564015393357,,9258.460327898714,10912.736076441255,150,14269,8,2025-09-10,2025-09-12 19:21:46.325,AA,C,1226066668,AMBUSH51,1,1,48,2,1,1,225,2,1,0,0,9,1,225,2,1,-138594.31715635705,-4793218.190261958,4195676.98137548,2.33691,2.7358,-0.407917,-97.635,35.6086,36.3352,-0.141501,-7.52154,6.31089,0.0123806,0.00506313,-0.0120727,4,0,41.375685954935385,-91.65622703214152,9208.1926837643,-58.60063260672906,0.4992190935073891,-1.858005780209948,0.0,9258.460327898714,10912.736076441255,150,True,25.250801817741518,False,156.3045807630447,173.74466041007568,False,17.463660009486677,True,False
14285,8,1970-07-23 10:02:01.074100503,2025-09-10,2025-09-12 19:21:47.410,AA,C,2096299596,JASSM,3,117,76,2,2,1,225,9,2,0,1,26,0,0,0,0,-171729.14685233062,-4770875.551729049,4220048.909636021,-2.51439,-0.703234,0.607648,60.375,-51.125,-55.0,0.0,0.0,0.0,0.0,0.0,0.0,2,0,41.66671960007635,-92.06148935005668,9999.997467298974,139.84111523256482,-0.0015516564460569,0.005638444862636,,9258.460327898714,10912.736076441255,150,14288,8,2025-09-10,2025-09-12 19:21:47.591,AA,C,1227577800,AMBUSH51,1,1,48,2,1,1,225,2,1,0,0,9,1,225,2,1,-138718.33642472443,-4793172.794446496,4195723.017881797,2.37669,2.73605,-0.408032,-97.3058,35.5059,36.0066,-0.141504,-7.42168,6.26342,0.0529168,0.00215446,-0.00181948,4,0,41.3762454790931,-91.65772394943612,9205.143850476008,-58.60644875597581,0.5143283627569964,0.4268174601270139,0.0,9258.460327898714,10912.736076441255,150,True,25.124990177447067,False,156.23778162075737,173.78226027090238,False,17.570579677010727,True,False
14297,8,1970-07-23 10:02:01.085098129,2025-09-10,2025-09-12 19:21:48.509,AA,C,2097611948,JASSM,3,117,76,2,2,1,225,9,2,0,1,26,0,0,0,0,-171662.6651628775,-4770931.922822799,4219988.292448521,-2.51439,-0.703234,0.607648,60.375,-51.125,-55.0,0.0,0.0,0.0,0.0,0.0,0.0,2,0,41.66598936204575,-92.06066764446456,9999.99623289625,139.84166149573443,-0.0005976957544647,0.0056366429805707,,9258.460327898714,10912.736076441255,150,14294,8,2025-09-10,2025-09-12 19:21:48.391,AA,C,1228532198,AMBUSH51,1,1,48,2,1,1,225,2,1,0,0,9,1,225,2,1,-138796.014031203,-4793144.282770162,4195751.972330244,2.41068,2.7374,-0.410197,-96.9512,35.5224,36.1171,-0.0673299,-7.62231,6.36494,0.0254009,0.00694399,0.00621786,4,0,41.3765971983116,-91.65866156160962,9203.306352074424,-58.571044768292296,0.6532247010611827,2.4056452068802403,0.0,9258.460327898714,10912.736076441255,150,True,25.023308470413337,False,156.36712661319325,173.80017172896237,False,17.45868820039877,True,False
14313,8,1970-07-23 10:02:01.095119388,2025-09-10,2025-09-12 19:21:49.511,AA,C,2098745342,JASSM,3,117,76,2,2,1,225,9,2,0,1,26,0,0,0,0,-171605.25036795562,-4770980.606416549,4219935.940886021,-2.51439,-0.703138,0.607648,60.375,-51.125,-55.0,0.0,0.0,0.0,0.0,0.0,0.0,2,0,41.66535869766346,-92.05995801931633,9999.997861360269,139.83848268813406,-0.0024195168080736,0.0024998575292734,,9258.460327898714,10912.736076441255,150,14314,8,2025-09-10,2025-09-12 19:21:49.724,AA,C,1230122864,AMBUSH51,1,1,48,2,1,1,225,2,1,0,0,9,1,225,2,1,-138924.1828472772,-4793096.806410044,4195800.431474717,2.44811,2.7237,-0.417382,-96.23,35.7342,36.6917,-0.185608,-7.32217,6.25872,0.00795307,-0.0021607,0.00600772,4,0,41.37718470919997,-91.66020880286436,9200.703894734675,-57.76962406812952,0.4496355595093131,4.242329340725002,0.0,9258.460327898714,10912.736076441255,150,True,24.899882894294617,False,156.80906044169856,173.84052535719604,False,17.05458953170033,True,False
14322,8,1970-07-23 10:02:01.105579631,2025-09-10,2025-09-12 19:21:50.557,AA,C,2099938388,JASSM,3,117,76,2,2,1,225,9,2,0,1,26,0,0,0,0,-171544.8116472525,-4771031.852510299,4219880.831511021,-2.51439,-0.703138,0.607648,60.375,-51.125,-55.0,0.0,0.0,0.0,0.0,0.0,0.0,2,0,41.66469481824623,-92.0592110352296,9999.99918696722,139.83897926415383,-0.0015522622111176,0.0024981588435754,,9258.460327898714,10912.736076441255,150,14324,8,2025-09-10,2025-09-12 19:21:50.592,AA,C,1231156796,AMBUSH51,1,1,48,2,1,1,225,2,1,0,0,9,1,225,2,1,-139007.49138580705,-4793065.354758596,4195832.42185341,2.45131,2.71578,-0.418857,-95.7555,36.4904,36.7501,-0.0617017,-7.21453,6.1377,-0.00816946,-0.00942822,0.0161215,4,0,41.37757342315799,-91.6612147156526,9198.62802125086,-57.412705929910544,0.2238545720719422,4.243531286606888,0.0,9258.460327898714,10912.736076441255,150,True,24.799624155161595,False,157.17677359600523,173.86136121536606,False,16.716659440579704,True,False
14335,8,1970-07-23 10:02:01.116409715,2025-09-10,2025-09-12 19:21:51.640,AA,C,2101131434,JASSM,3,117,76,2,2,1,225,9,2,0,1,26,0,0,0,0,-171484.37365897125,-4771083.098604049,4219825.722136021,-2.51439,-0.703138,0.607744,60.375,-51.125,-55.0,0.0,0.0,0.0,0.0,0.0,0.0,2,0,41.66403093374047,-92.05846407527358,10000.0053702496,139.84270049080217,-0.0051341989940142,0.0024962912568026,,9258.460327898714,10912.736076441255,150,14333,8,2025-09-10,2025-09-12 19:21:51.525,AA,C,1232270262,AMBUSH51,1,1,48,2,1,1,225,2,1,0,0,9,1,225,2,1,-139096.6824055705,-4793031.1069883015,4195867.136753419,2.42843,2.70649,-0.424149,-95.3486,36.6189,37.2889,-0.0949081,-7.57138,6.3332,-0.0545293,-0.00547925,0.00281192,4,0,41.377996140686655,-91.66229186963676,9196.004864325128,-56.85301457229636,0.108801978294811,2.7166515770823256,0.0,9258.460327898714,10912.736076441255,150,True,24.695654086775733,False,157.5069532329028,173.8841127095234,False,16.405529587637236,True,False
14352,8,1970-07-23 10:02:01.125097083,2025-09-10,2025-09-12 19:21:52.509,AA,C,2102324482,JASSM,3,117,76,2,2,1,225,9,2,0,1,26,0,0,0,0,-171423.93567069,-4771134.340791549,4219770.612761021,-2.51439,-0.703138,0.607744,60.375,-51.125,-55.0,0.0,0.0,0.0,0.0,0.0,0.0,2,0,41.66336706765752,-92.05771713234677,10000.006778651985,139.8431970266046,-0.0042669668740546,0.0024946503065226,,9258.460327898714,10912.736076441255,150,14350,8,2025-09-10,2025-09-12 19:21:52.358,AA,C,1233264426,AMBUSH51,1,1,48,2,1,1,225,2,1,0,0,9,1,225,2,1,-139176.07019420463,-4793000.363034537,4195898.36022259,2.38314,2.70161,-0.425952,-95.1962,36.9821,37.3531,0.038903,-7.18748,6.39159,-0.0707205,-0.00638847,0.00783032,4,0,41.37837612587838,-91.66325073294344,9193.736639412216,-56.59770649074727,0.0090220803394642,0.0066240751795395,0.0,9258.460327898714,10912.736076441255,150,True,24.597281794559375,False,157.67739121057915,173.90274096717184,False,16.25810616801301,True,False
14373,8,1970-07-23 10:02:01.135096717,2025-09-10,2025-09-12 19:21:53.509,AA,C,2103517528,JASSM,3,117,76,2,2,1,225,9,2,0,1,26,0,0,0,0,-171363.49792654935,-4771185.579072799,4219715.499479771,-2.51439,-0.703138,0.607744,60.375,-51.125,-55.0,0.0,0.0,0.0,0.0,0.0,0.0,2,0,41.66270319368244,-92.05697020937514,9999.99491413061,139.84369354265175,-0.0033997346117313,0.0024930047854448,,9258.460327898714,10912.736076441255,150,14374,8,2025-09-10,2025-09-12 19:21:53.525,AA,C,1234656258,AMBUSH51,1,1,48,2,1,1,225,2,1,0,0,9,1,225,2,1,-139288.29896999343,-4792956.922962688,4195942.418145129,2.29935,2.70185,-0.423314,-95.5195,36.7973,37.2716,0.0135054,-7.27184,6.40961,-0.0635258,0.00205459,-0.000935227,4,0,41.37891260451583,-91.6646062687385,9190.413536334643,-56.711676068007286,-0.0909636616109521,-4.7878453085687065,0.0,9258.460327898714,10912.736076441255,150,True,24.4796049781915,False,157.51148267528865,173.93473843294686,False,16.454680861302872,True,False
14397,8,1970-07-23 10:02:01.145096788,2025-09-10,2025-09-12 19:21:54.509,AA,C,2104710574,JASSM,3,117,76,2,2,1,225,9,2,0,1,26,0,0,0,0,-171303.0596941275,-4771236.821260299,4219660.386198521,-2.51439,-0.703138,0.607744,60.375,-51.125,-55.0,0.0,0.0,0.0,0.0,0.0,0.0,2,0,41.66203929152832,-92.0562232942085,9999.997367844842,139.8441900470207,-0.0025324808483587,0.0024913485482529,,9258.460327898714,10912.736076441255,150,14398,8,2025-09-10,2025-09-12 19:21:54.558,AA,C,1235889024,AMBUSH51,1,1,48,2,1,1,225,2,1,0,0,9,1,225,2,1,-139386.3871340827,-4792919.322506096,4195980.392997777,2.24567,2.70978,-0.416322,-96.2053,36.5149,36.6323,0.0266242,-7.40343,6.62386,-0.0294997,-0.00397706,-0.00942822,4,0,41.37937570510951,-91.66579090098584,9187.263816220522,-57.28928430069328,-0.0942183428070736,-7.677517111833345,0.0,9258.460327898714,10912.736076441255,150,True,24.37049862223327,False,157.03071416902742,173.96188834996042,False,16.96602947828004,True,False
14415,8,1970-07-23 10:02:01.155095810,2025-09-10,2025-09-12 19:21:55.509,AA,C,2105963272,JASSM,3,117,76,2,2,1,225,9,2,0,1,26,0,0,0,0,-171239.59997733062,-4771290.622041549,4219602.519011021,-2.51439,-0.703138,0.607744,60.375,-51.125,-55.0,0.0,0.0,0.0,0.0,0.0,0.0,2,0,41.661342221704174,-92.05543905643478,10000.000362496176,139.84471135423246,-0.0016218925126887,0.0024896267940045,,9258.460327898714,10912.736076441255,150,14417,8,2025-09-10,2025-09-12 19:21:55.625,AA,C,1237161556,AMBUSH51,1,1,48,2,1,1,225,2,1,0,0,9,1,225,2,1,-139489.5352887877,-4792880.7831730135,4196019.141451015,2.22549,2.71781,-0.407205,-97.149,35.6887,36.0111,-0.138406,-7.32818,6.6149,0.00618873,0.00118074,-0.00519004,4,0,41.37984872556688,-91.66703631446936,9183.85034444484,-57.95571122286953,-0.1791262325681837,-8.648239557987285,0.0,9258.460327898714,10912.736076441255,150,True,24.256446432610062,False,156.33256953391816,173.99210409268105,False,17.690504799698097,True,False
14433,8,1970-07-23 10:02:01.165116701,2025-09-10,2025-09-12 19:21:56.511,AA,C,2107156318,JASSM,3,117,76,2,2,1,225,9,2,0,1,26,0,0,0,0,-171179.16174490875,-4771341.860322799,4219547.405729771,-2.51439,-0.703138,0.607744,60.375,-51.125,-55.0,0.0,0.0,0.0,0.0,0.0,0.0,2,0,41.66067833279588,-92.05469217440348,10000.003073634944,139.84520782326936,-0.0007546572022605,0.0024879845976509,,9258.460327898714,10912.736076441255,150,14432,8,2025-09-10,2025-09-12 19:21:56.324,AA,C,1237996656,AMBUSH51,1,1,48,2,1,1,225,2,1,0,0,9,1,225,2,1,-139557.83451713587,-4792855.874618148,4196044.073451056,2.24569,2.72886,-0.399571,-97.6634,35.2987,35.3493,-0.0595655,-7.5107,6.67367,0.0545813,0.0106995,-0.0133751,4,0,41.38015340156083,-91.66786075906728,9181.522613502166,-58.6791143642434,-0.0889680407367469,-7.240147735046526,0.0,9258.460327898714,10912.736076441255,150,True,24.16555623245709,False,155.8581687020326,174.0091766078315,False,18.184170811287668,True,False
14447,8,1970-07-23 10:02:01.175097593,2025-09-10,2025-09-12 19:21:57.509,AA,C,2108289714,JASSM,3,117,76,2,2,1,225,9,2,0,1,26,0,0,0,0,-171121.74548514312,-4771390.536104049,4219495.046354771,-2.51439,-0.703138,0.607744,60.375,-51.125,-55.0,0.0,0.0,0.0,0.0,0.0,0.0,2,0,41.66004762543815,-92.05398265166863,10000.004825337264,139.84567945274244,6.922232701815906e-05,0.0024864185521652,,9258.460327898714,10912.736076441255,150,14446,8,2025-09-10,2025-09-12 19:21:57.324,AA,C,1239189654,AMBUSH51,1,1,48,2,1,1,225,2,1,0,0,9,1,225,2,1,-139655.55098505615,-4792820.86988088,4196079.07290672,2.34815,2.74296,-0.39354,-98.1052,34.7663,35.0753,-0.365911,-7.40814,6.70801,0.108737,-0.0033612,-0.0160299,4,0,41.38058100338835,-91.6690400948152,9178.297892417337,-59.45496649453087,0.1846490443759615,-1.058033707599221,0.0,9258.460327898714,10912.736076441255,150,True,24.060699503684322,False,155.4955464268377,174.04086774177875,False,18.575186434140956,True,False
14459,8,1970-07-23 10:02:01.187222790,2025-09-10,2025-09-12 19:21:58.722,AA,C,2109423108,JASSM,3,117,76,2,2,1,225,9,2,0,1,26,0,0,0,0,-171064.3292253775,-4771439.211885299,4219442.683073521,-2.51439,-0.703043,0.607744,60.375,-51.125,-55.0,0.0,0.0,0.0,0.0,0.0,0.0,2,0,41.65941688736808,-92.05327314278,10000.00238409261,139.84249863186886,-0.0017542364190124,-0.0006528105077441,,9258.460327898714,10912.736076441255,150,14456,8,2025-09-10,2025-09-12 19:21:58.557,AA,C,1240661020,AMBUSH51,1,1,48,2,1,1,225,2,1,0,0,9,1,225,2,1,-139777.0877134388,-4792777.675194363,4196122.506518161,2.43814,2.73732,-0.404283,-97.9799,34.7996,35.5442,-0.169913,-7.45352,6.94199,0.0534453,0.0030824,0.0178838,4,0,41.38111012470889,-91.67050681877367,9174.928253816694,-58.81270804799994,0.4178847920840818,3.976086653062697,0.0,9258.460327898714,10912.736076441255,150,True,23.942367254423942,False,155.6997964352429,174.08393711887348,False,18.4104253488327,True,False
14470,8,1970-07-23 10:02:01.194097610,2025-09-10,2025-09-12 19:21:59.409,AA,C,2110616168,JASSM,3,117,76,2,2,1,225,9,2,0,1,26,0,0,0,0,-171003.89026053375,-4771490.446260299,4219387.565886021,-2.51439,-0.703043,0.60784,60.375,-51.125,-55.0,0.0,0.0,0.0,0.0,0.0,0.0,2,0,41.65875298140906,-92.0525262981362,10000.00084343508,139.84621797084816,-0.0053332403396396,-0.0006546807358081,,9258.460327898714,10912.736076441255,150,14468,8,2025-09-10,2025-09-12 19:21:59.325,AA,C,1241575652,AMBUSH51,1,1,48,2,1,1,225,2,1,0,0,9,1,225,2,1,-139851.9824858401,-4792750.740900744,4196149.85848459,2.46047,2.73067,-0.408876,-97.6782,35.0303,36.1493,-0.388487,-7.20614,6.77811,-0.0049591,0.0101023,0.00531072,4,0,41.38144202086439,-91.67141078276312,9173.350750112726,-58.378676678726805,0.3630473151291607,5.107567280330367,0.0,9258.460327898714,10912.736076441255,150,True,23.84779269836727,False,156.0529934169009,174.10477819503836,False,18.075353101732954,True,False
14482,8,1970-07-23 10:02:01.205116726,2025-09-10,2025-09-12 19:22:00.511,AA,C,2111868854,JASSM,3,117,76,2,2,1,225,9,2,0,1,26,0,0,0,0,-170940.4307878775,-4771544.239229049,4219329.690886021,-2.51439,-0.703043,0.60784,60.375,-51.125,-55.0,0.0,0.0,0.0,0.0,0.0,0.0,2,0,41.65805588008713,-92.05174214638748,9999.992596356476,139.8467391873596,-0.0044226500331534,-0.0006564168430954,,9258.460327898714,10912.736076441255,150,14481,8,2025-09-10,2025-09-12 19:22:00.491,AA,C,1242967484,AMBUSH51,1,1,48,2,1,1,225,2,1,0,0,9,1,225,2,1,-139965.1829532902,-4792709.3202258125,4196191.855674035,2.38435,2.72166,-0.412286,-97.4107,35.4951,36.6532,-0.0416662,-7.40113,6.58032,-0.0569573,0.00361711,0.00755984,4,0,41.38195230957529,-91.6727773539202,9170.64720481752,-57.90356707198977,0.1757070784019184,0.5422118762544967,0.0,9258.460327898714,10912.736076441255,150,True,23.728318097884674,False,156.43430112654218,174.1416491579414,False,17.731632410735465,True,False
14496,8,1970-07-23 10:02:01.220029852,2025-09-10,2025-09-12 19:22:02.002,AA,C,2113002248,JASSM,3,117,76,2,2,1,225,9,2,0,1,26,0,0,0,0,-170883.01452811187,-4771592.911104049,4219277.327604771,-2.51429,-0.703043,0.60784,60.375,-51.125,-55.0,0.0,0.0,0.0,0.0,0.0,0.0,2,0,41.65742515131938,-92.05103268289848,9999.994246710245,139.8472107532914,-0.0035987687216063,0.0048334800845438,,9258.460327898714,10912.736076441255,150,14501,8,2025-09-10,2025-09-12 19:22:02.091,AA,C,1244876282,AMBUSH51,1,1,48,2,1,1,225,2,1,0,0,9,1,225,2,1,-140121.13667006278,-4792652.2559944615,4196250.11176364,2.29618,2.72489,-0.409349,-97.5884,35.3375,36.417,0.0559596,-7.26423,6.35887,-0.0374351,0.00732889,-0.00538562,4,0,41.38265798012574,-91.67466008354816,9167.798705544972,-58.14365758947941,0.1738754808226633,-4.43591505820954,0.0,9258.460327898714,10912.736076441255,150,True,23.589273515238094,False,156.26153299094344,174.19917444293654,False,17.96290802918282,True,False
14502,8,1970-07-23 10:02:01.223107866,2025-09-10,2025-09-12 19:22:02.310,AA,C,2114075990,JASSM,3,117,76,2,2,1,225,9,2,0,1,26,0,0,0,0,-170828.62097342435,-4771639.020479049,4219227.722136021,-2.51429,-0.703043,0.60784,60.375,-51.125,-55.0,0.0,0.0,0.0,0.0,0.0,0.0,2,0,41.65682763188596,-92.05036058227036,10000.001890717738,139.84765747948703,-0.002818267410022,0.0048319932240533,,9258.460327898714,10912.736076441255,150,14505,8,2025-09-10,2025-09-12 19:22:02.462,AA,C,1245313714,AMBUSH51,1,1,48,2,1,1,225,2,1,0,0,9,1,225,2,1,-140157.5758857936,-4792639.002719987,4196263.572719538,2.28513,2.72604,-0.407274,-97.7128,35.309,36.1205,-0.0152562,-7.44081,6.4047,-0.0265057,0.00345275,-0.000398434,4,0,41.38282136418215,-91.67509996891935,9167.005211465814,-58.27029811304769,0.1309840690272996,-5.043396200408961,0.0,9258.460327898714,10912.736076441255,150,True,23.521825156944583,False,156.12005866733946,174.2041621943865,False,18.111984010038626,True,False
14514,8,1970-07-23 10:02:01.233118260,2025-09-10,2025-09-12 19:22:03.311,AA,C,2115269036,JASSM,3,117,76,2,2,1,225,9,2,0,1,26,0,0,0,0,-170768.18152029935,-4771690.250947799,4219172.601042271,-2.51429,-0.703043,0.60784,60.375,-51.125,-55.0,0.0,0.0,0.0,0.0,0.0,0.0,2,0,41.65616370389462,-92.04961379327376,10000.00091268234,139.8481538427535,-0.0019510217415847,0.0048303471880229,,9258.460327898714,10912.736076441255,150,14513,8,2025-09-10,2025-09-12 19:22:03.257,AA,C,1246268114,AMBUSH51,1,1,48,2,1,1,225,2,1,0,0,9,1,225,2,1,-140235.85938866978,-4792610.764604757,4196292.19506181,2.28964,2.72849,-0.403904,-97.9862,35.0438,35.6687,0.0347004,-7.43636,6.25072,0.0255965,0.00168632,-0.00273078,4,0,41.38316896756607,-91.67604491403804,9165.237437643218,-58.49759755580096,0.0824349862701665,-4.72996009286931,0.0,9258.460327898714,10912.736076441255,150,True,23.42529297440496,False,155.81653721837262,174.22733941396547,False,18.440325204689245,True,False
14528,8,1970-07-23 10:02:01.243990093,2025-09-10,2025-09-12 19:22:04.399,AA,C,2116462082,JASSM,3,117,76,2,2,1,225,9,2,0,1,26,0,0,0,0,-170707.7432878775,-4771741.481416549,4219117.479948521,-2.51429,-0.703043,0.60784,60.375,-51.125,-55.0,0.0,0.0,0.0,0.0,0.0,0.0,2,0,41.65549977071365,-92.04886703425449,10000.004834714657,139.84865017960516,-0.001083782825753,0.0048286925954146,,9258.460327898714,10912.736076441255,150,14527,8,2025-09-10,2025-09-12 19:22:04.324,AA,C,1247540646,AMBUSH51,1,1,48,2,1,1,225,2,1,0,0,9,1,225,2,1,-140340.289301647,-4792573.087399451,4196330.234652874,2.31557,2.73265,-0.397702,-98.2143,34.7595,35.4214,-0.278945,-7.54936,6.45158,0.0139702,0.00164471,-0.00976943,4,0,41.38363174043212,-91.677305486043,9162.557478572686,-58.90368088740636,-0.0184696905887327,-3.1511449229114183,0.0,9258.460327898714,10912.736076441255,150,True,23.313819734919438,False,155.5894411102124,174.26292365056725,False,18.70260211794515,True,False
14538,8,1970-07-23 10:02:01.253117032,2025-09-10,2025-09-12 19:22:05.311,AA,C,2117595476,JASSM,3,117,76,2,2,1,225,9,2,0,1,26,0,0,0,0,-170650.32653983062,-4771790.149385299,4219065.112761021,-2.51429,-0.703043,0.60784,60.375,-51.125,-55.0,0.0,0.0,0.0,0.0,0.0,0.0,2,0,41.65486902111007,-92.04815762268848,10000.005885556997,139.8491216872868,-0.0002598969864122,0.0048271179010433,,9258.460327898714,10912.736076441255,150,14540,8,2025-09-10,2025-09-12 19:22:05.390,AA,C,1248813178,AMBUSH51,1,1,48,2,1,1,225,2,1,0,0,9,1,225,2,1,-140444.30400890345,-4792536.0447539445,4196367.341914948,2.32342,2.73237,-0.398873,-98.3433,34.5487,35.1168,-0.0640113,-7.33287,6.50502,0.00742876,0.0011953,0.00256225,4,0,41.38408450218062,-91.67856089450636,9159.393818248878,-58.84714784155,0.020400054934843,-2.7077015131289497,0.0,9258.460327898714,10912.736076441255,150,True,23.20552339834924,False,155.38799218344687,174.30011509094757,False,18.94226293035197,True,False
14550,8,1970-07-23 10:02:01.262377907,2025-09-10,2025-09-12 19:22:06.237,AA,C,2118728870,JASSM,3,117,76,2,2,1,225,9,2,0,1,26,0,0,0,0,-170592.91003592435,-4771838.813447799,4219012.745573521,-2.51429,-0.703043,0.60784,60.375,-51.125,-55.0,0.0,0.0,0.0,0.0,0.0,0.0,2,0,41.65423829035615,-92.0474482295672,10000.001714120885,139.8495931768518,0.0005639689188245,0.0048255555745607,,9258.460327898714,10912.736076441255,150,14549,8,2025-09-10,2025-09-12 19:22:06.190,AA,C,1249767576,AMBUSH51,1,1,48,2,1,1,225,2,1,0,0,9,1,225,2,1,-140523.03249470494,-4792508.257187709,4196395.17458303,2.32849,2.73122,-0.394465,-98.4767,34.5219,34.858,-0.177764,-7.11621,6.4042,-0.0030928,-0.00846282,-0.00998581,4,0,41.38442398765565,-91.67951103449867,9157.06849239794,-58.980144678178014,-0.2023276868929391,-2.4420965257065155,0.0,9258.460327898714,10912.736076441255,150,True,23.11176436663879,False,155.25780307697678,174.32587248536547,False,19.100736646086894,True,False
14561,8,1970-07-23 10:02:01.272781804,2025-09-10,2025-09-12 19:22:07.278,AA,C,2119921916,JASSM,3,117,76,2,2,1,225,9,2,0,1,26,0,0,0,0,-170532.47155936187,-4771890.040010299,4218957.620573521,-2.51429,-0.702947,0.607936,60.375,-51.125,-55.0,0.0,0.0,0.0,0.0,0.0,0.0,2,0,41.65357434002024,-92.0467015137736,10000.001427265575,139.84966485213042,-0.0056633593112496,0.0016875438000785,,9258.460327898714,10912.736076441255,150,14564,8,2025-09-10,2025-09-12 19:22:07.424,AA,C,1251238942,AMBUSH51,1,1,48,2,1,1,225,2,1,0,0,9,1,225,2,1,-140645.15298598097,-4792465.033040416,4196437.795435728,2.32743,2.72889,-0.391609,-98.6956,34.6122,34.4017,0.0808662,-7.00876,6.17879,0.00163847,-0.00261219,-0.000406756,4,0,41.38494756137281,-91.68098491626202,9151.973791125998,-59.00632566457399,-0.4046131257639168,-2.553962132145456,0.0,9258.460327898714,10912.736076441255,150,True,22.990936025036987,False,155.07339583704612,174.37254756382328,False,19.338037794055282,True,False
14572,8,1970-07-23 10:02:01.282099172,2025-09-10,2025-09-12 19:22:08.209,AA,C,2121055312,JASSM,3,117,76,2,2,1,225,9,2,0,1,26,0,0,0,0,-170475.054811315,-4771938.704072799,4218905.249479771,-2.51429,-0.702947,0.607936,60.375,-51.125,-55.0,0.0,0.0,0.0,0.0,0.0,0.0,2,0,41.6529435739236,-92.04599214613496,9999.997595765271,139.85013631293123,-0.00483947178408,0.0016859600849241,,9258.460327898714,10912.736076441255,150,14576,8,2025-09-10,2025-09-12 19:22:08.225,AA,C,1252193340,AMBUSH51,1,1,48,2,1,1,225,2,1,0,0,9,1,225,2,1,-140724.19405393026,-4792437.138345819,4196465.037587318,2.32783,2.72986,-0.388068,-98.8932,34.6322,34.1533,-0.158416,-7.26268,6.35503,-0.0148544,-0.00102261,-0.0277874,4,0,41.38528362204316,-91.68193885344851,9148.13675933282,-59.18504349401604,-0.5137205562950359,-2.508091969992064,0.0,9258.460327898714,10912.736076441255,150,True,22.897210162560434,False,154.94580605985033,174.3994276612703,False,19.49577161657495,True,False
14586,8,1970-07-23 10:02:01.292109024,2025-09-10,2025-09-12 19:22:09.210,AA,C,2122248356,JASSM,3,117,76,2,2,1,225,9,2,0,1,26,0,0,0,0,-170414.61609061187,-4771989.930635299,4218850.124479771,-2.51429,-0.702947,0.607936,60.375,-51.125,-55.0,0.0,0.0,0.0,0.0,0.0,0.0,2,0,41.65227961403129,-92.04524545731935,10000.006634028096,139.85063257185024,-0.003972228230966,0.0016842995020727,,9258.460327898714,10912.736076441255,150,14588,8,2025-09-10,2025-09-12 19:22:09.290,AA,C,1253465872,AMBUSH51,1,1,48,2,1,1,225,2,1,0,0,9,1,225,2,1,-140828.84319215477,-4792400.274802483,4196500.8096593125,2.31334,2.7333,-0.389033,-99.1196,34.4532,33.9397,-0.22519,-7.26782,6.76689,-0.0158219,0.00696271,-0.0071354,4,0,41.38572614162339,-91.68320184294028,9142.58922908556,-59.2783204940887,-0.3458970894563028,-3.2628898338148207,0.0,9258.460327898714,10912.736076441255,150,True,22.786551748489977,False,154.76404820716647,174.4388686282982,False,19.717559100489424,True,False
14598,8,1970-07-23 10:02:01.301115703,2025-09-10,2025-09-12 19:22:10.111,AA,C,2123381752,JASSM,3,117,76,2,2,1,225,9,2,0,1,26,0,0,0,0,-170357.199342565,-4772038.590791549,4218797.749479771,-2.51429,-0.702947,0.607936,60.375,-51.125,-55.0,0.0,0.0,0.0,0.0,0.0,0.0,2,0,41.65164883588847,-92.04453611976248,9999.993594561369,139.8511040006347,-0.0031483390928738,0.0016827128975215,,9258.460327898714,10912.736076441255,150,14597,8,2025-09-10,2025-09-12 19:22:10.091,AA,C,1254420272,AMBUSH51,1,1,48,2,1,1,225,2,1,0,0,9,1,225,2,1,-140908.24084547797,-4792372.57677271,4196527.68706324,2.31295,2.73597,-0.387014,-99.3678,34.3628,33.6707,-0.171088,-7.24392,6.45938,0.00321972,0.00554791,-0.00790314,4,0,41.38605848914685,-91.68415999419594,9138.479987926035,-59.46090155656684,-0.3294382574231606,-3.226526912505585,0.0,9258.460327898714,10912.736076441255,150,True,22.69285875146182,False,154.58464162086693,174.46696856958337,False,19.927202163353513,True,False
14610,8,1970-07-23 10:02:01.311113923,2025-09-10,2025-09-12 19:22:11.111,AA,C,2124574798,JASSM,3,117,76,2,2,1,225,9,2,0,1,26,0,0,0,0,-170296.76062186187,-4772089.813447799,4218742.624479771,-2.51429,-0.702947,0.607936,60.375,-51.125,-55.0,0.0,0.0,0.0,0.0,0.0,0.0,2,0,41.65098488973687,-92.0437894625226,10000.00240937704,139.85160022591143,-0.0022811139968657,0.0016810663586396,,9258.460327898714,10912.736076441255,150,14608,8,2025-09-10,2025-09-12 19:22:10.925,AA,C,1255414438,AMBUSH51,1,1,48,2,1,1,225,2,1,0,0,9,1,225,2,1,-140991.09430362252,-4792343.830316232,4196555.4145150855,2.31396,2.73741,-0.386514,-99.6331,34.365,33.3197,-0.205939,-7.30953,6.61106,0.00849195,-0.00591617,-0.00389799,4,0,41.38640219976048,-91.6851598048311,9133.889121045711,-59.53651401748533,-0.2955995694189859,-3.136745151639778,0.0,9258.460327898714,10912.736076441255,150,True,22.594779311185924,False,154.40014209842016,174.4967419216384,False,20.145769560746807,True,False
14623,8,1970-07-23 10:02:01.321136379,2025-09-10,2025-09-12 19:22:12.113,AA,C,2125767844,JASSM,3,117,76,2,2,1,225,9,2,0,1,26,0,0,0,0,-170236.32190115875,-4772141.036104049,4218687.491667271,-2.51429,-0.702947,0.607936,60.375,-51.125,-55.0,0.0,0.0,0.0,0.0,0.0,0.0,2,0,41.65032088612464,-92.0430428206171,9999.998982754572,139.85209643450798,-0.0014138486448737,0.0016793859191022,,9258.460327898714,10912.736076441255,150,14625,8,2025-09-10,2025-09-12 19:22:12.124,AA,C,1256846036,AMBUSH51,1,1,48,2,1,1,225,2,1,0,0,9,1,225,2,1,-141111.6481495531,-4792302.209176615,4196595.3019552585,2.31823,2.73651,-0.381461,-100.088,34.229,33.0945,-0.191755,-7.38043,6.60671,-0.00656116,0.00417887,-0.00657988,4,0,41.38689798491783,-91.68661450146298,9126.732482490796,-59.70534841578665,-0.5350928667113299,-2.910097517831104,0.0,9258.460327898714,10912.736076441255,150,True,22.475785666624184,False,154.17748786272193,174.54671217498597,False,20.419653182637106,True,False
14636,8,1970-07-23 10:02:01.331210224,2025-09-10,2025-09-12 19:22:13.121,AA,C,2126960890,JASSM,3,117,76,2,2,1,225,9,2,0,1,26,0,0,0,0,-170175.88318045562,-4772192.254854049,4218632.362761021,-2.51429,-0.702947,0.607936,60.375,-51.125,-55.0,0.0,0.0,0.0,0.0,0.0,0.0,2,0,41.64965692720048,-92.04229619571596,9999.999296321235,139.85259262531247,-0.0005466219219837,0.0016777364866346,,9258.460327898714,10912.736076441255,150,14638,8,2025-09-10,2025-09-12 19:22:13.125,AA,C,1258039034,AMBUSH51,1,1,48,2,1,1,225,2,1,0,0,9,1,225,2,1,-141210.86405404704,-4792268.078563989,4196627.816903077,2.37709,2.74571,-0.382546,-100.154,34.1178,33.0656,-0.107839,-7.68104,6.81309,0.0677618,0.00772213,-0.00721238,4,0,41.387303157903126,-91.68781169168052,9120.47586105983,-60.01231512307377,-0.1477204492731499,0.6607473739281782,0.0,9258.460327898714,10912.736076441255,150,True,22.368838406729946,False,154.11918874629606,174.58628257250035,False,20.517173130288622,True,False
14649,8,1970-07-23 10:02:01.341138412,2025-09-10,2025-09-12 19:22:14.113,AA,C,2128153938,JASSM,3,117,76,2,2,1,225,9,2,0,1,26,0,0,0,0,-170115.44421561187,-4772243.473604049,4218577.229948521,-2.51429,-0.702947,0.607936,60.375,-51.125,-55.0,0.0,0.0,0.0,0.0,0.0,0.0,2,0,41.64899293713428,-92.04154958322005,9999.995864504384,139.8530888013827,0.0003206263506929,0.0016760717952587,,9258.460327898714,10912.736076441255,150,14653,8,2025-09-10,2025-09-12 19:22:14.257,AA,C,1259391100,AMBUSH51,1,1,48,2,1,1,225,2,1,0,0,9,1,225,2,1,-141324.8658600854,-4792229.258169455,4196665.533275971,2.43839,2.74736,-0.39163,-99.8083,33.8499,33.7587,-0.142286,-7.89769,6.84835,0.0502349,0.0144008,0.0140971,4,0,41.38776874117774,-91.68918717571644,9115.04210170442,-59.71093491526516,0.2860406661607731,4.209169734691838,0.0,9258.460327898714,10912.736076441255,150,True,22.253672222142285,False,154.36158298307396,174.63413892455534,False,20.31314745554252,True,False
14663,8,1970-07-23 10:02:01.351137315,2025-09-10,2025-09-12 19:22:15.113,AA,C,2129346982,JASSM,3,117,76,2,2,1,225,9,2,0,1,26,0,0,0,0,-170055.00525076812,-4772294.692354049,4218522.097136021,-2.51429,-0.702947,0.608032,60.375,-51.125,-55.0,0.0,0.0,0.0,0.0,0.0,0.0,2,0,41.64832894214178,-92.04080298605656,9999.997225799812,139.85680811971852,-0.0032581923207289,0.0016743488429327,,9258.460327898714,10912.736076441255,150,14662,8,2025-09-10,2025-09-12 19:22:15.023,AA,C,1260305732,AMBUSH51,1,1,48,2,1,1,225,2,1,0,0,9,1,225,2,1,-141401.23133569083,-4792203.186994981,4196691.56198778,2.48661,2.74398,-0.400359,-99.291,33.7286,34.6471,-0.0542657,-8.00431,6.80454,0.0768769,0.00316354,0.00963211,4,0,41.388086164766165,-91.69010859512102,9112.89940169573,-59.23396664373282,0.51883963141998,6.900938187801129,0.0,9258.460327898714,10912.736076441255,150,True,22.159228203578305,False,154.75308489526216,174.6617826032877,False,19.94018355462569,True,False
14678,8,1970-07-23 10:02:01.362758100,2025-09-10,2025-09-12 19:22:16.275,AA,C,2130480378,JASSM,3,117,76,2,2,1,225,9,2,0,1,26,0,0,0,0,-169997.58923514312,-4772343.348604049,4218469.722136021,-2.51429,-0.702851,0.608032,60.375,-51.125,-55.0,0.0,0.0,0.0,0.0,0.0,0.0,2,0,41.647698159342326,-92.04009374562246,10000.001772832708,139.85362803412266,-0.0050815558095802,-0.0014659137915216,,9258.460327898714,10912.736076441255,150,14680,8,2025-09-10,2025-09-12 19:22:16.423,AA,C,1261975930,AMBUSH51,1,1,48,2,1,1,225,2,1,0,0,9,1,225,2,1,-141539.52243228065,-4792154.819934788,4196740.931379732,2.68406,2.73302,-0.413563,-97.8677,35.048,36.8446,-0.25072,-7.33403,6.90817,0.154163,0.00530032,0.0153413,4,0,41.38868292135498,-91.69177763447928,9111.033433089067,-58.29359841815293,0.6585211232930367,17.974806009384846,0.0,9258.460327898714,10912.736076441255,150,False,22.031790674031175,False,156.25266323589864,174.72093223959737,False,18.49443504491253,True,False
14689,8,1970-07-23 10:02:01.372449925,2025-09-10,2025-09-12 19:22:17.244,AA,C,2131733076,JASSM,3,117,76,2,2,1,225,9,2,0,1,26,0,0,0,0,-169934.12732108062,-4772397.125947799,4218411.831511021,-2.51419,-0.702851,0.608032,60.375,-51.125,-55.0,0.0,0.0,0.0,0.0,0.0,0.0,2,0,41.647000960725975,-92.03930983939398,10000.004757147217,139.8541489744211,-0.004170944369505,0.0040374742304128,,9258.460327898714,10912.736076441255,150,14688,8,2025-09-10,2025-09-12 19:22:17.124,AA,C,1262811030,AMBUSH51,1,1,48,2,1,1,225,2,1,0,0,9,1,225,2,1,-141607.57923229804,-4792129.34994075,4196766.93735498,2.79213,2.70811,-0.427239,-96.6781,36.6805,38.2412,-0.250468,-7.17729,6.80886,0.123869,0.0104394,0.0310997,4,0,41.388998055373776,-91.69259961387613,9109.726862521706,-56.81192043010862,0.3201409423705883,23.596952014734967,0.0,9258.460327898714,10912.736076441255,150,False,21.9380312492578,False,157.52006222505105,174.74068168941088,False,17.251693310100563,True,False
14703,8,1970-07-23 10:02:01.382388561,2025-09-10,2025-09-12 19:22:18.238,AA,C,2132926124,JASSM,3,117,76,2,2,1,225,9,2,0,1,26,0,0,0,0,-169873.68835623687,-4772448.340791549,4218356.694792271,-2.51419,-0.702851,0.608032,60.375,-51.125,-55.0,0.0,0.0,0.0,0.0,0.0,0.0,2,0,41.64633694803427,-92.03856328989316,10000.002410513694,139.854645082873,-0.0033036942778229,0.0040358001064737,,9258.460327898714,10912.736076441255,150,14705,8,2025-09-10,2025-09-12 19:22:18.323,AA,C,1264242628,AMBUSH51,1,1,48,2,1,1,225,2,1,0,0,9,1,225,2,1,-141722.71356357378,-4792082.23178282,4196813.761275518,2.92743,2.66904,-0.434042,-94.3254,40.8124,40.7162,-0.182025,-6.99153,6.56681,0.0867847,0.00690237,0.0387043,4,0,41.3895742337914,-91.69399163026448,9103.74525327674,-55.06256421100768,-0.7853465273856172,30.40788245644271,0.0,9258.460327898714,10912.736076441255,150,False,21.81770134806991,False,160.183352736876,174.77934034831506,False,14.660394108697178,True,False
14716,8,1970-07-23 10:02:01.392425053,2025-09-10,2025-09-12 19:22:19.242,AA,C,2134178822,JASSM,3,117,76,2,2,1,225,9,2,0,1,26,0,0,0,0,-169810.22729666656,-4772502.114229049,4218298.800261021,-2.51419,-0.702851,0.608032,60.375,-51.125,-55.0,0.0,0.0,0.0,0.0,0.0,0.0,2,0,41.64563973571091,-92.03777942857675,9999.997699365746,139.8551659793557,-0.0023930859876306,0.0040340467897608,,9258.460327898714,10912.736076441255,150,14718,8,2025-09-10,2025-09-12 19:22:19.357,AA,C,1265475394,AMBUSH51,1,1,48,2,1,1,225,2,1,0,0,9,1,225,2,1,-141818.99408087082,-4792037.193536036,4196856.808485684,3.00214,2.62966,-0.451041,-91.5742,45.1818,43.3237,-0.17719,-7.43071,7.053,0.0399589,0.0272776,0.0498999,4,0,41.390115842481,-91.69515770910368,9093.324468676454,-52.89804131937575,-1.431590098593612,33.68019059384657,0.0,9258.460327898714,10912.736076441255,150,False,21.703429185720513,False,163.0118267616435,174.80257222233777,False,11.924621607871135,True,False
14731,8,1970-07-23 10:02:01.402134801,2025-09-10,2025-09-12 19:22:20.213,AA,C,2135371868,JASSM,3,117,76,2,2,1,225,9,2,0,1,26,0,0,0,0,-169749.7882097525,-4772553.325166549,4218243.663542271,-2.51419,-0.702851,0.608032,60.375,-51.125,-55.0,0.0,0.0,0.0,0.0,0.0,0.0,2,0,41.644975736293645,-92.03703291070482,9999.995597103574,139.85566205348346,-0.0015258536529873,0.0040323875598805,,9258.460327898714,10912.736076441255,150,14729,8,2025-09-10,2025-09-12 19:22:20.157,AA,C,1266429792,AMBUSH51,1,1,48,2,1,1,225,2,1,0,0,9,1,225,2,1,-141891.16182638466,-4791999.406588343,4196892.2298694,3.05682,2.58505,-0.474298,-88.8977,48.5145,45.7476,-0.0554537,-7.73555,7.24038,0.0390122,0.0231102,0.0556965,4,0,41.39056706515328,-91.69603319010136,9082.451504475312,-50.29775307126116,-1.9287515771135395,35.59590641705717,0.0,9258.460327898714,10912.736076441255,150,False,21.60479842273459,False,165.44062158668189,174.81238582794137,False,9.595969076368318,True,False
14743,8,1970-07-23 10:02:01.413209455,2025-09-10,2025-09-12 19:22:21.320,AA,C,2136624562,JASSM,3,117,76,2,2,1,225,9,2,0,1,26,0,0,0,0,-169686.3272722525,-4772607.098604049,4218185.769011021,-2.51419,-0.702851,0.608032,60.375,-51.125,-55.0,0.0,0.0,0.0,0.0,0.0,0.0,2,0,41.64427851334312,-92.03624908384822,10000.001213614429,139.85618291309666,-0.0006152458317831,0.0040306333292878,,9258.460327898714,10912.736076441255,150,14746,8,2025-09-10,2025-09-12 19:22:21.325,AA,C,1267821624,AMBUSH51,1,1,48,2,1,1,225,2,1,0,0,9,1,225,2,1,-141992.98592214458,-4791939.356312782,4196947.78073089,3.12022,2.53417,-0.498381,-84.802,53.3926,49.7814,-0.235309,-7.94428,7.57761,0.0321899,0.0245583,0.0568283,4,0,41.39128139673458,-91.69727084440063,9062.637432735104,-47.43218728403016,-2.513602573586092,37.75388719727456,0.0,9258.460327898714,10912.736076441255,150,False,21.480935056165883,False,169.12104709648446,174.82214747062113,False,6.217033801834565,True,False
14760,8,1970-07-23 10:02:01.424023347,2025-09-10,2025-09-12 19:22:22.402,AA,C,2137817612,JASSM,3,117,76,2,2,1,225,9,2,0,1,26,0,0,0,0,-169625.8879411978,-4772658.307588424,4218130.628386021,-2.51419,-0.702851,0.608032,60.375,-51.125,-55.0,0.0,0.0,0.0,0.0,0.0,0.0,2,0,41.64361448928456,-92.0355025953052,9999.99561409838,139.85667895443035,0.0002519988368696,0.0040289658602663,,9258.460327898714,10912.736076441255,150,14758,8,2025-09-10,2025-09-12 19:22:22.324,AA,C,1269014622,AMBUSH51,1,1,48,2,1,1,225,2,1,0,0,9,1,225,2,1,-142075.66124242236,-4791883.065544846,4196999.170107907,-3.10322,2.47633,-0.523584,-80.4717,57.8291,53.3718,-0.173977,-8.31999,7.89468,0.0347199,0.027417,0.0580559,4,0,41.39194863282391,-91.6982784386148,9041.656879197586,-44.26359815303853,-3.1595985410337915,39.39967108891422,0.0,9258.460327898714,10912.736076441255,150,False,21.36895280541084,False,172.43079079004937,174.81840055245542,False,3.924312484636587,True,False
14769,8,1970-07-23 10:02:01.432124344,2025-09-10,2025-09-12 19:22:23.212,AA,C,2139010660,JASSM,3,117,76,2,2,1,225,9,2,0,1,26,0,0,0,0,-169565.44861014312,-4772709.516572799,4218075.487761021,-2.51419,-0.702851,0.608128,60.375,-51.125,-55.0,0.0,0.0,0.0,0.0,0.0,0.0,2,0,41.64295046030122,-92.0347561220898,9999.994807654892,139.8604003872428,-0.0033294109598414,0.0040272361532929,,9258.460327898714,10912.736076441255,150,14770,8,2025-09-10,2025-09-12 19:22:23.224,AA,C,1270088322,AMBUSH51,1,1,48,2,1,1,225,2,1,0,0,9,1,225,2,1,-142145.41198797486,-4791829.15614818,4197048.09690662,-3.04774,2.42016,-0.553836,-75.8802,61.9325,56.6298,-0.400167,-8.70598,8.23513,0.0149335,0.0452248,0.0489137,4,0,41.39258734969216,-91.69913080852962,9020.255995898968,-41.00658723709266,-3.396692950264363,40.7401619213783,0.0,9258.460327898714,10912.736076441255,150,False,21.26310413665443,False,175.14860994223338,174.80460198057756,False,4.280744004975961,True,False
14786,8,1970-07-23 10:02:01.443113346,2025-09-10,2025-09-12 19:22:24.311,AA,C,2140263360,JASSM,3,117,76,2,2,1,225,9,2,0,1,26,0,0,0,0,-169501.9873064322,-4772763.286104049,4218017.589323521,-2.51419,-0.702755,0.608128,60.375,-51.125,-55.0,0.0,0.0,0.0,0.0,0.0,0.0,2,0,41.64225321873263,-92.03397234159505,9999.997655011812,139.85727244060976,-0.0050644085951315,0.0008883190362118,,9258.460327898714,10912.736076441255,150,14787,8,2025-09-10,2025-09-12 19:22:24.324,AA,C,1271400620,AMBUSH51,1,1,48,2,1,1,225,2,1,0,0,9,1,225,2,1,-142226.14912579948,-4791757.734765835,4197113.161085769,-2.99532,2.3402,-0.596758,-69.5957,66.175,61.3322,-0.344968,-9.57566,9.08947,0.00300542,0.0499291,0.0530271,4,0,41.39343724809663,-91.70012065634454,8991.58815822295,-36.43755048768728,-3.50593357884055,40.974111531865695,0.0,9258.460327898714,10912.736076441255,150,False,21.14135651697152,False,176.45532686094512,174.77726018618102,False,7.360506703604832,True,False
14799,8,1970-07-23 10:02:01.453134726,2025-09-10,2025-09-12 19:22:25.313,AA,C,2141516058,JASSM,3,117,76,2,2,1,225,9,2,0,1,26,0,0,0,0,-169438.52600272125,-4772817.051729049,4217959.690886021,-2.51419,-0.702755,0.608128,60.375,-51.125,-55.0,0.0,0.0,0.0,0.0,0.0,0.0,2,0,41.64155599507929,-92.0331885796612,9999.996215363675,139.85779322935824,-0.0041538155111185,0.0008865717762509,,9258.460327898714,10912.736076441255,150,14804,8,2025-09-10,2025-09-12 19:22:25.423,AA,C,1272712918,AMBUSH51,1,1,48,2,1,1,225,2,1,0,0,9,1,225,2,1,-142298.0368641088,-4791682.863976268,4197182.899115487,-2.94889,2.2561,-0.647945,-61.8834,69.9464,66.512,-0.301368,-10.4785,9.66902,-0.00922224,0.0595081,0.0584117,4,0,41.39434077919225,-91.7010060344845,8963.935442602917,-31.56444634339466,-3.012983574602853,40.54639578705664,0.0,9258.460327898714,10912.736076441255,150,False,21.02066120139792,False,173.22990387637697,174.73450601329498,False,11.839130492484145,True,False
14824,8,1970-07-23 10:02:01.465974839,2025-09-10,2025-09-12 19:22:26.597,AA,C,2142768756,JASSM,3,117,76,2,2,1,225,9,2,0,1,26,0,0,0,0,-169375.0646990103,-4772870.819307174,4217901.792448521,-2.51419,-0.702755,0.608128,60.375,-51.125,-55.0,0.0,0.0,0.0,0.0,0.0,0.0,2,0,41.64085875432574,-92.03240483379308,10000.004845665642,139.85831400027675,-0.0032432129935957,0.000884817435226,,9258.460327898714,10912.736076441255,150,14830,8,2025-09-10,2025-09-12 19:22:26.724,AA,C,1274263818,AMBUSH51,1,1,48,2,1,1,225,2,1,0,0,9,1,225,2,1,-142371.90168674308,-4791588.894288247,4197273.825763092,-2.88841,2.14758,-0.709124,-51.4969,72.6376,72.8738,-0.413467,-11.2718,10.0808,-0.00563737,0.0656625,0.0578457,4,0,41.395500627864806,-91.70192183937668,8935.41821258244,-25.650265779017666,-2.131941662949406,39.8393135747505,0.0,9258.460327898714,10912.736076441255,150,False,20.88816669580436,False,167.6735508459735,174.66417957519158,False,17.656853854898976,True,False
14839,8,1970-07-23 10:02:01.474837878,2025-09-10,2025-09-12 19:22:27.483,AA,C,2144021454,JASSM,3,117,76,2,2,1,225,9,2,0,1,26,0,0,0,0,-169311.60327322906,-4772924.582979049,4217843.890104771,-2.51419,-0.702755,0.608128,60.375,-51.125,-55.0,0.0,0.0,0.0,0.0,0.0,0.0,2,0,41.640161505242176,-92.03162110501984,10000.000662581886,139.858834752681,-0.0023326082427784,0.0008830610788117,,9258.460327898714,10912.736076441255,150,14838,8,2025-09-10,2025-09-12 19:22:27.423,AA,C,1275098916,AMBUSH51,1,1,48,2,1,1,225,2,1,0,0,9,1,225,2,1,-142405.2002988339,-4791537.800456507,4197325.382092631,-2.84761,2.08462,-0.743938,-45.1789,73.7102,76.0568,-0.501127,-11.6354,10.4711,-0.0284324,0.0675933,0.0599596,4,0,41.39614677382068,-91.70233780044572,8924.008642525545,-22.37381435194654,-1.411006083281151,39.67867296244888,0.0,9258.460327898714,10912.736076441255,150,False,20.793318813509913,False,164.2684449476446,174.6104363344143,False,21.120118245311158,True,False
