Subject_cm,Timestamp,SampleDate_cm,SampleTime_cm,Configuration_cm,Scenario_cm,DisTime_cm,MarkingTxt_cm,Application_cm,EntId_cm,Site_cm,ExerciseId_cm,ForceId_cm,Category_cm,Country_cm,Domain_cm,Kind_cm,Extra_cm,Specific_cm,Subcategory_cm,AltCategory_cm,AltCountry_cm,AltDomain_cm,AltKind_cm,ECEF_X_cm,ECEF_Y_cm,ECEF_Z_cm,OriPhi_cm,OriPsi_cm,OriTheta_cm,LinVelX_cm,LinVelY_cm,LinVelZ_cm,LinAccX_cm,LinAccY_cm,LinAccZ_cm,AngVelX_cm,AngVelY_cm,AngVelZ_cm,DrAlg_cm,Appearance_cm,Latitude_cm,Longitude_cm,Altitude_cm,Heading_cm,Pitch_cm,Roll_cm,CalibratedAirspeed_cm,CM_Altitude_Lead_cm,CM_Altitude_Wing_cm,CM_Airspeed_cm,Subject_ac,SampleDate_ac,SampleTime_ac,Configuration_ac,Scenario_ac,DisTime_ac,MarkingTxt_ac,Application_ac,EntId_ac,Site_ac,ExerciseId_ac,ForceId_ac,Category_ac,Country_ac,Domain_ac,Kind_ac,Extra_ac,Specific_ac,Subcategory_ac,AltCategory_ac,AltCountry_ac,AltDomain_ac,AltKind_ac,ECEF_X_ac,ECEF_Y_ac,ECEF_Z_ac,OriPhi_ac,OriPsi_ac,OriTheta_ac,LinVelX_ac,LinVelY_ac,LinVelZ_ac,LinAccX_ac,LinAccY_ac,LinAccZ_ac,AngVelX_ac,AngVelY_ac,AngVelZ_ac,DrAlg_ac,Appearance_ac,Latitude_ac,Longitude_ac,Altitude_ac,Heading_ac,Pitch_ac,Roll_ac,CalibratedAirspeed_ac,CM_Altitude_Lead_ac,CM_Altitude_Wing_ac,CM_Airspeed_ac,Bank_Angle_Condition,distance_nm,Distance_Condition,angle_between_vel,angle_between_pos,Cone_Condition,angle_between_pos_nose,Nose_Cone_Condition,Intercept_Criteria
8,1970-07-23 09:59:40.823048157,2025-09-10,2025-09-26 15:28:02.304,HH,C,1717805104,JASSM,3,103,76,2,2,1,225,9,2,0,1,26,0,0,0,0,-173019.58581717435,-4769781.082979049,4221225.296354771,-2.51458,-0.703426,0.607361,59.75,-50.5,-54.25,0.0,0.0,0.0,0.0,0.0,0.0,2,0,41.6808928634094,-92.07744281969693,10000.003103542378,139.8281439463147,-0.0014325998631124,0.0009622092170482,,9001.267247400965,11068.098492074974,150,8,2025-09-10,2025-09-26 15:28:02.502,HH,C,998089382,HAWK11,1,1,73,2,1,1,225,2,1,0,0,12,1,225,2,1,-142451.70349295562,-4793436.694307174,4196163.644011021,2.31871,2.84927,-0.423091,-83.375,30.625,38.625,-0.109375,-6.46875,6.42188,-0.00390625,0.00195312,-0.00390625,4,0,41.37700078219653,-91.70221918588616,11079.573923142869,-62.18519845429585,5.380867278376492,-0.4407165575715047,172.405,9001.267247400965,11068.098492074974,150,True,24.802913174219245,False,159.26460727316461,177.28479633488865,False,18.09742388723087,True,False
8,1970-07-23 09:59:40.834061669,2025-09-10,2025-09-26 15:28:03.406,HH,C,1719117456,JASSM,3,103,76,2,2,1,225,9,2,0,1,26,0,0,0,0,-172953.88952811187,-4769836.813447799,4221165.417448521,-2.51458,-0.703426,0.607361,59.75,-50.5,-54.25,0.0,0.0,0.0,0.0,0.0,0.0,2,0,41.68017136431581,-92.07663045414,10000.000988266744,139.82868415045104,-0.0004899042744641,0.0009603950455861,,9001.267247400965,11068.098492074974,150,8,2025-09-10,2025-09-26 15:28:03.394,HH,C,999083548,HAWK11,1,1,73,2,1,1,225,2,1,0,0,12,1,225,2,1,-142521.31091483062,-4793410.735322799,4196195.589323521,2.31286,2.84371,-0.420598,-83.125,31.125,38.125,-0.09375,-6.375,6.34375,0.0,-0.0078125,0.0,4,0,41.37735855244104,-91.70305968395948,11090.065499810957,-62.08966097672248,5.072189117933412,-0.8975232854844043,171.929,9001.267247400965,11068.098492074974,150,True,24.70522624114857,False,159.36683939476188,177.30871604658077,False,18.007066002871838,True,False
8,1970-07-23 09:59:40.845063644,2025-09-10,2025-09-26 15:28:04.506,HH,C,1720429806,JASSM,3,103,76,2,2,1,225,9,2,0,1,26,0,0,0,0,-172888.19323904935,-4769892.543916549,4221105.538542271,-2.51458,-0.703426,0.607456,59.75,-50.5,-54.25,0.0,0.0,0.0,0.0,0.0,0.0,2,0,41.679449859389614,-92.07581810673084,10000.004536382816,139.8324462708327,-0.0039941619378124,0.0009584812689275,,9001.267247400965,11068.098492074974,150,8,2025-09-10,2025-09-26 15:28:05.502,HH,C,1001668378,HAWK11,1,1,73,2,1,1,225,2,1,0,0,12,1,225,2,1,-142702.17224295562,-4793342.252900924,4196277.901823521,2.32571,2.82981,-0.418393,-82.75,31.75,37.5,-0.015625,-6.4375,6.5,0.0,-0.00390625,0.00195312,4,0,41.378289593659616,-91.70524396092144,11113.300468054926,-61.67995022602198,4.459860552536783,-0.4517430668171295,171.489,9001.267247400965,11068.098492074974,150,True,24.541460606064238,False,159.5033929820748,177.3817363239794,False,17.930780969830742,True,False
8,1970-07-23 09:59:40.858341361,2025-09-10,2025-09-26 15:28:05.834,HH,C,1721742158,JASSM,3,103,76,2,2,1,225,9,2,0,1,26,0,0,0,0,-172822.49694998687,-4769948.274385299,4221045.655729771,-2.51458,-0.703426,0.607456,59.75,-50.5,-54.25,0.0,0.0,0.0,0.0,0.0,0.0,2,0,41.678728322376,-92.07500577746916,10000.005225980149,139.83298643563222,-0.0030514459482514,0.0009567031060671,,9001.267247400965,11068.098492074974,150,8,2025-09-10,2025-09-26 15:28:06.002,HH,C,1002185344,HAWK11,1,1,73,2,1,1,225,2,1,0,0,12,1,225,2,1,-142737.54138358062,-4793328.758760299,4196293.921354771,2.32628,2.82741,-0.417435,-82.75,32.125,37.125,-0.1875,-6.46875,6.46875,0.0078125,-0.0136719,0.0,4,0,41.37847174448144,-91.7056711598126,11117.428562184488,-61.6330266933277,4.331564290683098,-0.4709057730197539,171.623,9001.267247400965,11068.098492074974,150,True,24.464077505313504,False,159.51164095203688,177.39109129456375,False,17.92400318310106,True,False
8,1970-07-23 09:59:40.867063685,2025-09-10,2025-09-26 15:28:06.706,HH,C,1723054510,JASSM,3,103,76,2,2,1,225,9,2,0,1,26,0,0,0,0,-172756.80066092435,-4770004.000947799,4220985.772917271,-2.51458,-0.703426,0.607456,59.75,-50.5,-54.25,0.0,0.0,0.0,0.0,0.0,0.0,2,0,41.678006802890216,-92.07419346805182,10000.002013457992,139.83352657956604,-0.002108748508769,0.0009549390082728,,9001.267247400965,11068.098492074974,150,8,2025-09-10,2025-09-26 15:28:06.891,HH,C,1003259042,HAWK11,1,1,73,2,1,1,225,2,1,0,0,12,1,225,2,1,-142813.26013358062,-4793299.396455611,4196328.017057896,2.33434,2.81457,-0.414079,-82.75,32.5,37.0,0.03125,-6.60938,6.67188,0.00390625,0.00195312,0.0078125,4,0,41.3788631628956,-91.7065858892225,11124.671061399167,-61.304493769956245,3.713800396058693,-0.2837090369206561,171.526,9001.267247400965,11068.098492074974,150,True,24.362670628475808,False,159.6050911570658,177.41835930817155,False,17.853419645949526,True,False
8,1970-07-23 09:59:40.879062702,2025-09-10,2025-09-26 15:28:07.906,HH,C,1724426718,JASSM,3,103,76,2,2,1,225,9,2,0,1,26,0,0,0,0,-172688.10827811187,-4770062.270479049,4220923.155729771,-2.51448,-0.70333,0.607456,59.75,-50.5,-54.25,0.0,0.0,0.0,0.0,0.0,0.0,2,0,41.67725233996931,-92.07334413181844,10000.001067866107,139.83044000422453,-0.0037686740995313,0.0033102755229898,,9001.267247400965,11068.098492074974,150,8,2025-09-10,2025-09-26 15:28:08.001,HH,C,1004611108,HAWK11,1,1,73,2,1,1,225,2,1,0,0,12,1,225,2,1,-142906.37146170562,-4793262.500947799,4196370.005339146,2.34718,2.80709,-0.413024,-82.625,33.0,36.875,-0.265625,-6.51562,6.34375,0.0,-0.00195312,-0.00390625,4,0,41.37934957995211,-91.70771102674436,11131.773777884717,-61.07509821320886,3.391016381425381,0.2944384963645722,171.354,9001.267247400965,11068.098492074974,150,True,24.248122022192668,False,159.7794264436732,177.4529123750921,False,17.708393468951122,True,False
8,1970-07-23 09:59:40.890022719,2025-09-10,2025-09-26 15:28:09.002,HH,C,1725739144,JASSM,3,103,76,2,2,1,225,9,2,0,1,26,0,0,0,0,-172622.40808279935,-4770117.997041549,4220863.269011021,-2.51448,-0.70333,0.607456,59.75,-50.5,-54.25,0.0,0.0,0.0,0.0,0.0,0.0,2,0,41.67653078314338,-92.07253181266157,10000.000572865698,139.8309801390298,-0.0028259345382798,0.0033084616334662,,9001.267247400965,11068.098492074974,150,8,2025-09-10,2025-09-26 15:28:08.892,HH,C,1005684806,HAWK11,1,1,73,2,1,1,225,2,1,0,0,12,1,225,2,1,-142981.04333670562,-4793232.788057174,4196403.405729771,2.34968,2.81006,-0.418873,-82.625,33.25,37.0,-0.296875,-7.09375,7.10938,0.00390625,0.00390625,0.0078125,4,0,41.379738556767656,-91.70861340158416,11136.577670743183,-60.94351568770609,3.736966073561689,0.5142698656199107,171.745,9001.267247400965,11068.098492074974,150,True,24.147205540825734,False,159.91437024961058,177.4799957201199,False,17.59997579362536,True,False
8,1970-07-23 09:59:40.901026499,2025-09-10,2025-09-26 15:28:10.102,HH,C,1727051214,JASSM,3,103,76,2,2,1,225,9,2,0,1,26,0,0,0,0,-172556.72595389312,-4770173.711885299,4220803.394011021,-2.51448,-0.70333,0.607456,59.75,-50.5,-54.25,0.0,0.0,0.0,0.0,0.0,0.0,2,0,41.67580936542407,-92.07171973345244,10000.004208161874,139.8315201066205,-0.0018834124753213,0.0033066146057104,,9001.267247400965,11068.098492074974,150,8,2025-09-10,2025-09-26 15:28:10.002,HH,C,1006877806,HAWK11,1,1,73,2,1,1,225,2,1,0,0,12,1,225,2,1,-143063.73083670562,-4793200.121064986,4196440.591276646,2.34498,2.79549,-0.416763,-82.5,33.375,36.875,-0.078125,-6.34375,6.1875,-0.0078125,-0.0195312,0.00390625,4,0,41.38016922896305,-91.70961256966612,11142.914391466957,-60.49723538692632,3.1070076447411394,-0.0670309005606448,171.098,9001.267247400965,11068.098492074974,150,True,24.041532926806514,False,159.95180892356152,177.51084510862293,False,17.591904550512368,True,False
8,1970-07-23 09:59:40.917932022,2025-09-10,2025-09-26 15:28:11.793,HH,C,1728423218,JASSM,3,103,76,2,2,1,225,9,2,0,1,26,0,0,0,0,-172488.04284842435,-4770231.965791549,4220740.784636021,-2.51448,-0.70333,0.607456,59.75,-50.5,-54.25,0.0,0.0,0.0,0.0,0.0,0.0,2,0,41.67505502787744,-92.07087057306232,10000.000896705023,139.8320847220233,-0.0008978647178225,0.0033047122066044,,9001.267247400965,11068.098492074974,150,8,2025-09-10,2025-09-26 15:28:11.306,HH,C,1008587770,HAWK11,1,1,73,2,1,1,225,2,1,0,0,12,1,225,2,1,-143182.63513358062,-4793151.475557174,4196493.936979771,2.34411,2.78782,-0.416188,-82.375,34.25,36.625,-0.21875,-6.54688,6.53125,-0.00390625,-0.00390625,-0.00976562,4,0,41.38079759427206,-91.71104998743128,11147.649086075096,-60.23962744552786,2.798535647853848,-0.2809392232108785,171.354,9001.267247400965,11068.098492074974,150,True,23.911288138939277,False,160.2043852497342,177.55735929166724,False,17.376992209614684,True,False
8,1970-07-23 09:59:40.923043935,2025-09-10,2025-09-26 15:28:12.304,HH,C,1729735570,JASSM,3,103,76,2,2,1,225,9,2,0,1,26,0,0,0,0,-172422.34655936187,-4770287.688447799,4220680.894011021,-2.51448,-0.70333,0.607552,59.75,-50.5,-54.25,0.0,0.0,0.0,0.0,0.0,0.0,2,0,41.6743334495511,-92.0700583577118,9999.999907596415,139.83584894853723,-0.0044046871216012,0.0033027454190613,,9001.267247400965,11068.098492074974,150,8,2025-09-10,2025-09-26 15:28:12.300,HH,C,1009741002,HAWK11,1,1,73,2,1,1,225,2,1,0,0,12,1,225,2,1,-143262.80310233062,-4793118.192354049,4196529.507292271,2.33913,2.77967,-0.415134,-82.5,34.75,36.25,-0.03125,-6.46875,6.4375,-0.00195312,0.0,0.00585938,4,0,41.38122145008395,-91.7120193155186,11148.792704522735,-59.982619424403445,2.4531423468696154,-0.7433354276704663,171.623,9001.267247400965,11068.098492074974,150,True,23.806823047726024,False,160.19486084614263,177.58729963386781,False,17.41049223055663,True,False
8,1970-07-23 09:59:40.934041096,2025-09-10,2025-09-26 15:28:13.404,HH,C,1731047920,JASSM,3,103,76,2,2,1,225,9,2,0,1,26,0,0,0,0,-172356.64978201812,-4770343.407197799,4220621.007292271,-2.51448,-0.70333,0.607552,59.75,-50.5,-54.25,0.0,0.0,0.0,0.0,0.0,0.0,2,0,41.67361191511537,-92.06924615634,10000.00349355205,139.83638897413468,-0.00346200350085,0.0033009887624181,,9001.267247400965,11068.098492074974,150,8,2025-09-10,2025-09-26 15:28:13.596,HH,C,1011331668,HAWK11,1,1,73,2,1,1,225,2,1,0,0,12,1,225,2,1,-143372.27771170562,-4793071.493135299,4196578.030729771,2.34344,2.77545,-0.417339,-82.75,35.625,36.0,-0.234375,-6.96875,6.82812,-0.0078125,0.00976562,-0.00976562,4,0,41.38180732711834,-91.7133434627794,11147.18007880393,-59.737851814783234,2.3865053897967514,-0.5834953434321396,172.014,9001.267247400965,11068.098492074974,150,True,23.684469748359685,False,160.31082362364216,177.63023810942002,False,17.330945554866094,True,False
8,1970-07-23 09:59:40.945055962,2025-09-10,2025-09-26 15:28:14.505,HH,C,1732300710,JASSM,3,103,76,2,2,1,225,9,2,0,1,26,0,0,0,0,-172293.93493826812,-4770396.598604049,4220563.831511021,-2.51448,-0.70333,0.607552,59.75,-50.5,-54.25,0.0,0.0,0.0,0.0,0.0,0.0,2,0,41.67292306614205,-92.06847083644624,10000.000465021109,139.83690447040675,-0.0025620620627184,0.0032992741267143,,9001.267247400965,11068.098492074974,150,8,2025-09-10,2025-09-26 15:28:15.002,HH,C,1012723500,HAWK11,1,1,73,2,1,1,225,2,1,0,0,12,1,225,2,1,-143469.87732108062,-4793030.131807174,4196621.384245396,2.33136,2.77104,-0.421557,-82.875,35.375,36.5,-0.1875,-6.90625,6.84375,-0.0195312,-0.0078125,0.0,4,0,41.382328652067486,-91.7145238991544,11146.622441312684,-59.40423202776451,2.394651223569931,-1.3646018250836949,172.234,9001.267247400965,11068.098492074974,150,True,23.57188505701644,False,160.3821957406495,177.66855753337475,False,17.30267298584621,True,False
8,1970-07-23 09:59:40.956038848,2025-09-10,2025-09-26 15:28:15.603,HH,C,1733672624,JASSM,3,103,76,2,2,1,225,9,2,0,1,26,0,0,0,0,-172225.25671561187,-4770454.844697799,4220501.222136021,-2.51448,-0.70333,0.607552,59.75,-50.5,-54.25,0.0,0.0,0.0,0.0,0.0,0.0,2,0,41.67216874987533,-92.06762181387668,10000.002135926305,139.83746896224562,-0.0015765784455455,0.0032974211308287,,9001.267247400965,11068.098492074974,150,8,2025-09-10,2025-09-26 15:28:15.595,HH,C,1013439298,HAWK11,1,1,73,2,1,1,225,2,1,0,0,12,1,225,2,1,-143519.56286795562,-4793008.839814986,4196643.610807896,2.32916,2.76692,-0.421941,-83.0,35.5,36.5,-0.21875,-6.76562,6.75,-0.00390625,0.00585938,0.00390625,4,0,41.38259649999839,-91.71512492176608,11146.0996825313,-59.236600845324126,2.258289469743926,-1.5808168882774305,172.491,9001.267247400965,11068.098492074974,150,True,23.482912629374358,False,160.38483626373358,177.684725081278,False,17.3156571737688,True,False
8,1970-07-23 09:59:40.967040861,2025-09-10,2025-09-26 15:28:16.704,HH,C,1734925582,JASSM,3,103,76,2,2,1,225,9,2,0,1,26,0,0,0,0,-172162.53308279935,-4770508.040010299,4220444.038542271,-2.51448,-0.703234,0.607552,59.75,-50.5,-54.25,0.0,0.0,0.0,0.0,0.0,0.0,2,0,41.671479815794726,-92.0668464215044,10000.001669210846,139.83433127846334,-0.0033238382642096,0.0001590389251798,,9001.267247400965,11068.098492074974,150,8,2025-09-10,2025-09-26 15:28:16.690,HH,C,1014990198,HAWK11,1,1,73,2,1,1,225,2,1,0,0,12,1,225,2,1,-143627.04919608062,-4792962.709932174,4196691.302214146,2.32552,2.76251,-0.421749,-83.25,36.0,36.25,-0.09375,-6.6875,6.60938,0.0,-0.0117188,0.00976562,4,0,41.38317369199194,-91.71642517455096,11143.95661137466,-59.08186227621881,2.0888579982759743,-1.8871039891175263,172.931,9001.267247400965,11068.098492074974,150,True,23.36424329686927,False,160.37458429726038,177.72791361888503,False,17.365220522512864,True,False
8,1970-07-23 09:59:40.981531432,2025-09-10,2025-09-26 15:28:18.153,HH,C,1736297324,JASSM,3,103,76,2,2,1,225,9,2,0,1,26,0,0,0,0,-172093.86316092435,-4770566.274385299,4220381.433073521,-2.51448,-0.703234,0.607552,59.75,-50.5,-54.25,0.0,0.0,0.0,0.0,0.0,0.0,2,0,41.67072558187782,-92.06599754149948,9999.995735139762,139.83489565957078,-0.0023384771777972,0.0001571242709072,,9001.267247400965,11068.098492074974,150,8,2025-09-10,2025-09-26 15:28:18.111,HH,C,1016700162,HAWK11,1,1,73,2,1,1,225,2,1,0,0,12,1,225,2,1,-143746.85388358062,-4792911.410127486,4196743.614714146,2.3328,2.76375,-0.426543,-83.625,35.875,36.25,-0.09375,-6.96875,6.82812,0.0332031,0.0,0.00585938,4,0,41.383810618622185,-91.7178744270531,11140.033095070014,-58.93499006075022,2.330644423448695,-1.4345242534689648,173.493,9001.267247400965,11068.098492074974,150,True,23.23334137300396,False,160.22017191988905,177.77735862207248,False,17.57033420732273,True,False
8,1970-07-23 09:59:40.989041445,2025-09-10,2025-09-26 15:28:18.904,HH,C,1737609676,JASSM,3,103,76,2,2,1,225,9,2,0,1,26,0,0,0,0,-172028.16638358062,-4770621.989229049,4220321.538542271,-2.51448,-0.703234,0.607552,59.75,-50.5,-54.25,0.0,0.0,0.0,0.0,0.0,0.0,2,0,41.67000398913539,-92.06518543251916,10000.001029977657,139.8354355854789,-0.0013957716104396,0.0001552875669166,,9001.267247400965,11068.098492074974,150,8,2025-09-10,2025-09-26 15:28:19.095,HH,C,1017813628,HAWK11,1,1,73,2,1,1,225,2,1,0,0,12,1,225,2,1,-143824.45349295562,-4792878.170869674,4196777.960417271,2.51065,2.75963,-0.433829,-83.5,36.375,36.5,-0.296875,-7.07812,6.9375,0.378906,0.0195312,0.0078125,4,0,41.3842263450692,-91.71881315295518,11138.470964373391,-58.48854002076329,2.475899629816851,8.675543973583899,174.581,9001.267247400965,11068.098492074974,150,True,23.130202365908616,False,160.5135908297363,177.80749911775806,False,17.30580078447609,True,False
8,1970-07-23 09:59:41.000780780,2025-09-10,2025-09-26 15:28:20.078,HH,C,1738862522,JASSM,3,103,76,2,2,1,225,9,2,0,1,26,0,0,0,0,-171965.44861014312,-4770675.172822799,4220264.358854771,-2.51448,-0.703234,0.607648,59.75,-50.5,-54.25,0.0,0.0,0.0,0.0,0.0,0.0,2,0,41.66931513342419,-92.06441016744787,9999.99712125824,139.8391734334378,-0.0049424297975394,0.0001533941912957,,9001.267247400965,11068.098492074974,150,8,2025-09-10,2025-09-26 15:28:20.300,HH,C,1019284992,HAWK11,1,1,73,2,1,1,225,2,1,0,0,12,1,225,2,1,-143926.87146170562,-4792832.083955611,4196826.075651646,2.89951,2.73576,-0.484354,-81.125,38.625,39.75,-0.515625,-7.71875,7.6875,0.201172,0.0332031,0.0644531,4,0,41.3848070068884,-91.7200529212838,11137.001640203463,-55.57949468522972,3.677299346022477,30.505719346783128,173.97,9001.267247400965,11068.098492074974,150,False,23.013238061072606,False,163.19552045179947,177.84655860143798,False,14.66678317807124,True,False
8,1970-07-23 09:59:41.011043146,2025-09-10,2025-09-26 15:28:21.104,HH,C,1740234378,JASSM,3,103,76,2,2,1,225,9,2,0,1,26,0,0,0,0,-171896.77282889312,-4770733.411104049,4220201.745573521,-2.51448,-0.703234,0.607648,59.75,-50.5,-54.25,0.0,0.0,0.0,0.0,0.0,0.0,2,0,41.668560806617904,-92.06356127234994,10000.000955508513,139.83973780067242,-0.0039569765400227,0.0001515278161294,,9001.267247400965,11068.098492074974,150,8,2025-09-10,2025-09-26 15:28:21.108,HH,C,1012286066,HAWK11,1,1,73,2,1,1,225,2,1,0,0,12,1,225,2,1,-143438.59997733062,-4793043.305635299,4196607.528776646,2.33568,2.77488,-0.422036,-82.875,35.5,36.375,-0.140625,-7.09375,7.03125,-0.00195312,-0.00195312,0.00585938,4,0,41.38216232419199,-91.71414563649893,11146.683042966491,-59.52614492832362,2.555710961748129,-1.032723869742837,174.837,9001.267247400965,11068.098492074974,150,True,23.249724517943257,False,160.37567984124212,177.61836761331824,False,17.257571428736597,True,False
8,1970-07-23 09:59:41.022018898,2025-09-10,2025-09-26 15:28:22.201,HH,C,1741487508,JASSM,3,103,76,2,2,1,225,9,2,0,1,26,0,0,0,0,-171834.04040701812,-4770786.606416549,4220144.546354771,-2.51448,-0.703234,0.607648,59.75,-50.5,-54.25,0.0,0.0,0.0,0.0,0.0,0.0,2,0,41.6678717415676,-92.06278586114864,9999.992669184803,139.8402533066042,-0.0030567965705468,0.0001498132847377,,9001.267247400965,11068.098492074974,150,8,2025-09-10,2025-09-26 15:28:22.300,HH,C,1021710756,HAWK11,1,1,73,2,1,1,225,2,1,0,0,12,1,225,2,1,-144084.17810233062,-4792746.070283736,4196916.056120396,3.07707,2.57814,-0.580516,-72.5,46.375,47.875,-0.203125,-8.79688,8.64062,-0.0351562,0.0390625,0.046875,4,0,41.38589795592647,-91.72196262734556,11132.169760037412,-46.1129363662218,2.4993959642545427,36.5937231342042,175.656,9001.267247400965,11068.098492074974,150,False,22.794451821862026,False,171.42830244654425,177.8850023453022,False,6.463181366485095,True,False
8,1970-07-23 09:59:41.033023159,2025-09-10,2025-09-26 15:28:23.302,HH,C,1742799428,JASSM,3,103,76,2,2,1,225,9,2,0,1,26,0,0,0,0,-171768.36486990875,-4770842.297822799,4220084.667448521,-2.51439,-0.703234,0.607648,59.75,-50.5,-54.375,0.0,0.0,0.0,0.0,0.0,0.0,2,0,41.6671503663758,-92.06197408877672,9999.99891063207,139.84079297853813,-0.0021144019219432,0.005639505503884,,9001.267247400965,11068.098492074974,150,8,2025-09-10,2025-09-26 15:28:23.393,HH,C,1022903756,HAWK11,1,1,73,2,1,1,225,2,1,0,0,12,1,225,2,1,-144154.59021170562,-4792697.530244674,4196966.667448521,3.06978,2.53078,-0.59902,-68.0,50.125,51.625,-0.109375,-7.625,7.64062,-0.0410156,0.0292969,0.0527344,4,0,41.386515751561205,-91.722821059528,11127.730411617416,-43.69827436453807,1.8801585837819816,34.75906615215939,174.923,9001.267247400965,11068.098492074974,150,False,22.684760766872415,False,175.35908259232303,177.84657466034622,False,2.4884299361452933,True,False
8,1970-07-23 09:59:41.048700586,2025-09-10,2025-09-26 15:28:24.870,HH,C,1744111924,JASSM,3,103,76,2,2,1,225,9,2,0,1,26,0,0,0,0,-171702.66052420562,-4770898.012666549,4220024.761198521,-2.51439,-0.703234,0.607648,59.75,-50.5,-54.375,0.0,0.0,0.0,0.0,0.0,0.0,2,0,41.66642866760765,-92.0611619788842,10000.006038821895,139.84133286718898,-0.0011715929728169,0.0056377237218711,,9001.267247400965,11068.098492074974,150,8,2025-09-10,2025-09-26 15:28:25.004,HH,C,1024613720,HAWK11,1,1,73,2,1,1,225,2,1,0,0,12,1,225,2,1,-144247.62341483062,-4792621.820283736,4197043.636198521,3.08321,2.43702,-0.638328,-62.0,54.875,55.625,-0.046875,-7.76562,7.46875,-0.0175781,0.0273438,0.0527344,4,0,41.3874690334056,-91.72395946455302,11115.2955345752,-38.85381423415184,1.012568395945972,32.53268828794374,175.864,9001.267247400965,11068.098492074974,150,False,22.551694053525125,False,178.59036534607,177.84088535091973,False,2.701521415292287,True,False
8,1970-07-23 09:59:41.055021094,2025-09-10,2025-09-26 15:28:25.502,HH,C,1745424130,JASSM,3,103,76,2,2,1,225,9,2,0,1,26,0,0,0,0,-171636.97082694,-4770953.711885299,4219964.862761021,-2.51439,-0.703138,0.607648,59.75,-50.5,-54.375,0.0,0.0,0.0,0.0,0.0,0.0,2,0,41.665707105799775,-92.0603500695626,9999.998891272293,139.83822206050593,-0.0028746696517336,0.0025007376482781,,9001.267247400965,11068.098492074974,150,8,2025-09-10,2025-09-26 15:28:25.689,HH,C,1025766952,HAWK11,1,1,73,2,1,1,225,2,1,0,0,12,1,225,2,1,-144305.57849295562,-4792565.797822799,4197099.645964146,3.09672,2.3769,-0.664118,-57.5,58.125,58.375,-0.234375,-7.96875,7.82812,-0.0214844,0.0253906,0.0585938,4,0,41.38816999356338,-91.72467183806788,11103.246448296975,-35.761945957211175,0.6599331245880722,31.264044847673063,176.34,9001.267247400965,11068.098492074974,150,False,22.442673217154702,False,175.76414358169595,177.82482388008603,False,6.178119650591489,True,False
8,1970-07-23 09:59:41.071140424,2025-09-10,2025-09-26 15:28:27.114,HH,C,1746676828,JASSM,3,103,76,2,2,1,225,9,2,0,1,26,0,0,0,0,-171574.25988944,-4771006.883760299,4219907.683073521,-2.51439,-0.703138,0.607648,59.75,-50.5,-54.375,0.0,0.0,0.0,0.0,0.0,0.0,2,0,41.66501828555528,-92.0595749946263,9999.999075095451,139.83873731401596,-0.0019748222699053,0.0024989848306832,,9001.267247400965,11068.098492074974,150,8,2025-09-10,2025-09-26 15:28:27.095,HH,C,1027437150,HAWK11,1,1,73,2,1,1,225,2,1,0,0,12,1,225,2,1,-144381.60778983062,-4792481.378877486,4197185.114714146,3.12721,2.28985,-0.706015,-51.0,61.375,62.625,-0.234375,-8.21875,8.23438,-0.015625,0.0273438,0.0605469,4,0,41.389235489228525,-91.72561033244196,11086.580310245636,-31.21593182272788,0.6264002362032149,29.904146550637776,177.611,9001.267247400965,11068.098492074974,150,False,22.313192187523637,False,171.25156001939615,177.79098826293395,False,10.86492988997285,True,False
8,1970-07-23 09:59:41.076021510,2025-09-10,2025-09-26 15:28:27.602,HH,C,1747929528,JASSM,3,103,76,2,2,1,225,9,2,0,1,26,0,0,0,0,-171511.54968436187,-4771060.055635299,4219850.503386021,-2.51439,-0.703138,0.607648,59.75,-50.5,-54.375,0.0,0.0,0.0,0.0,0.0,0.0,2,0,41.66432945984434,-92.05879994499612,10000.004483638424,139.83925254371476,-0.0010749788921287,0.002497226865823,,9001.267247400965,11068.098492074974,150,8,2025-09-10,2025-09-26 15:28:27.798,HH,C,1028192716,HAWK11,1,1,73,2,1,1,225,2,1,0,0,12,1,225,2,1,-144412.63122733062,-4792441.459932174,4197225.644011021,-3.13833,2.24709,-0.718574,-48.125,62.875,64.75,-0.109375,-8.09375,8.4375,-0.0136719,0.0292969,0.0527344,4,0,41.38974097744298,-91.72599525998574,11078.584832623106,-29.25022524083357,0.325123571090655,29.329804866066496,178.125,9001.267247400965,11068.098492074974,150,False,22.2252801851294,False,169.17547658107162,177.76673428032458,False,12.988602580101306,True,False
8,1970-07-23 09:59:41.086042290,2025-09-10,2025-09-26 15:28:28.604,HH,C,1749182228,JASSM,3,103,76,2,2,1,225,9,2,0,1,26,0,0,0,0,-171448.83777029935,-4771113.227510299,4219793.319792271,-2.51439,-0.703138,0.607744,59.75,-50.5,-54.375,0.0,0.0,0.0,0.0,0.0,0.0,2,0,41.66364060293045,-92.0580248913908,10000.006382583217,139.84299244230328,-0.0046242930549341,0.0024953288146041,,9001.267247400965,11068.098492074974,150,8,2025-09-10,2025-09-26 15:28:28.810,HH,C,1029385716,HAWK11,1,1,73,2,1,1,225,2,1,0,0,12,1,225,2,1,-144458.16247733062,-4792376.508760299,4197292.335417271,-3.12156,2.17806,-0.739858,-43.5,65.125,67.875,-0.125,-7.8125,8.4375,-0.0332031,0.0195312,0.0410156,4,0,41.390569374402766,-91.7265624980974,11066.834123166169,-26.07356743400363,0.0271120488090359,27.664933457636465,179.713,9001.267247400965,11068.098492074974,150,False,22.11752736291808,False,165.95606521230582,177.72466870463785,False,16.269245897938006,True,False
8,1970-07-23 09:59:41.097042196,2025-09-10,2025-09-26 15:28:29.704,HH,C,1750434922,JASSM,3,103,76,2,2,1,225,9,2,0,1,26,0,0,0,0,-171386.12683279935,-4771166.395479049,4219736.136198521,-2.51439,-0.703138,0.607744,59.75,-50.5,-54.375,0.0,0.0,0.0,0.0,0.0,0.0,2,0,41.6629517638513,-92.05724986770208,10000.003959885567,139.8435076409126,-0.0037244438405576,0.0024936237130298,,9001.267247400965,11068.098492074974,150,8,2025-09-10,2025-09-26 15:28:29.689,HH,C,1030499180,HAWK11,1,1,73,2,1,1,225,2,1,0,0,12,1,225,2,1,-144496.32068045562,-4792313.727510299,4197357.079557896,-3.10871,2.12648,-0.76747,-39.125,67.0,70.5,-0.34375,-8.59375,9.1875,-0.03125,0.0507812,0.0488281,4,0,41.39137303915519,-91.72704089934012,11055.65626223774,-23.447845573139908,0.5273376489625653,26.39090085997661,181.216,9001.267247400965,11068.098492074974,150,False,22.013563723831062,False,163.0646640692988,177.6770704448431,False,19.218211988422038,True,False
8,1970-07-23 09:59:41.107017508,2025-09-10,2025-09-26 15:28:30.701,HH,C,1751628354,JASSM,3,103,76,2,2,1,225,9,2,0,1,26,0,0,0,0,-171326.38269217435,-4771217.047822799,4219681.655729771,-2.51439,-0.703138,0.607744,59.75,-50.5,-54.375,0.0,0.0,0.0,0.0,0.0,0.0,2,0,41.662295495310495,-92.05651152516646,10000.000972928034,139.84399844914992,-0.0028671557922493,0.0024919908783569,,9001.267247400965,11068.098492074974,150,8,2025-09-10,2025-09-26 15:28:30.689,HH,C,1031692180,HAWK11,1,1,73,2,1,1,225,2,1,0,0,12,1,225,2,1,-144532.53552420562,-4792245.768525924,4197429.413542271,3.08925,2.05994,-0.794123,-34.5,67.625,73.75,-0.03125,-8.45312,8.98438,-0.181641,0.0273438,0.0449219,4,0,41.39225908780386,-91.72749796466354,11048.065861912297,-20.35779904361304,0.8654749191820875,18.86107103051229,182.121,9001.267247400965,11068.098492074974,150,False,21.909150143269063,False,160.18135636136844,177.61860387463406,False,22.179151971655024,True,False
8,1970-07-23 09:59:41.117061625,2025-09-10,2025-09-26 15:28:31.706,HH,C,1752880672,JASSM,3,103,76,2,2,1,225,9,2,0,1,26,0,0,0,0,-171263.6905535025,-4771270.200166549,4219624.487761021,-2.51439,-0.703138,0.607744,59.75,-50.5,-54.375,0.0,0.0,0.0,0.0,0.0,0.0,2,0,41.66160684029228,-92.05573676591705,10000.006082454727,139.8445134583334,-0.0019675668239612,0.0024902785214523,,9001.267247400965,11068.098492074974,150,8,2025-09-10,2025-09-26 15:28:31.797,HH,C,1032964712,HAWK11,1,1,73,2,1,1,225,2,1,0,0,12,1,225,2,1,-144566.06677420562,-4792171.848604049,4197509.999479771,3.06796,2.02255,-0.814256,-30.75,68.0,76.75,-0.265625,-8.125,8.59375,-0.00585938,0.015625,-0.0117188,4,0,41.39323678136092,-91.72792513462028,11043.51884970871,-18.555987162997667,1.407412197868498,16.134099263933663,183.685,9001.267247400965,11068.098492074974,150,False,21.799069856275924,False,157.82208304767028,177.54683848103926,False,24.621132685241747,True,False
8,1970-07-23 09:59:41.134359415,2025-09-10,2025-09-26 15:28:33.435,HH,C,1754133370,JASSM,3,103,76,2,2,1,225,9,2,0,1,26,0,0,0,0,-171200.97937186187,-4771323.364229049,4219567.300261021,-2.51439,-0.703138,0.607744,59.75,-50.5,-54.375,0.0,0.0,0.0,0.0,0.0,0.0,2,0,41.6609179826835,-92.05496178975343,10000.000786171577,139.84502860472028,-0.001067714505852,0.0024885721985515,,9001.267247400965,11068.098492074974,150,8,2025-09-10,2025-09-26 15:28:33.689,HH,C,1035271176,HAWK11,1,1,73,2,1,1,225,2,1,0,0,12,1,225,2,1,-144619.22497733062,-4792038.581025924,4197661.727995396,3.06202,1.94959,-0.847716,-25.25,68.25,80.5,-0.109375,-7.76562,8.29688,0.0078125,0.00976562,0.0214844,4,0,41.395044232588894,-91.72860816481254,11048.774452812604,-15.268706708563752,2.311680024122699,12.811595445738527,184.736,9001.267247400965,11068.098492074974,150,False,21.644549473165853,False,154.51192720232575,177.4077943090192,False,28.07759334144173,True,False
8,1970-07-23 09:59:41.139040496,2025-09-10,2025-09-26 15:28:33.904,HH,C,1755445722,JASSM,3,103,76,2,2,1,225,9,2,0,1,26,0,0,0,0,-171135.28186209625,-4771379.059541549,4219507.390104771,-2.51439,-0.703138,0.607744,59.75,-50.5,-54.375,0.0,0.0,0.0,0.0,0.0,0.0,2,0,41.66019632263161,-92.05414992686345,10000.001070946071,139.84556826315867,-0.0001250161487429,0.0024867889201131,,9001.267247400965,11068.098492074974,150,8,2025-09-10,2025-09-26 15:28:34.096,HH,C,1035748376,HAWK11,1,1,73,2,1,1,225,2,1,0,0,12,1,225,2,1,-144629.35974295562,-4792010.712861861,4197694.489714146,3.07515,1.93838,-0.850113,-24.375,68.125,81.25,-0.265625,-7.4375,7.875,0.015625,0.0,0.00390625,4,0,41.39542934649094,-91.72873927778636,11052.044737230315,-14.822125886539355,2.318153708058804,13.099806213340631,184.944,9001.267247400965,11068.098492074974,150,False,21.567152929810323,False,153.97901722579041,177.37092993606038,False,28.64844415855111,True,False
8,1970-07-23 09:59:41.150039544,2025-09-10,2025-09-26 15:28:35.003,HH,C,1756758070,JASSM,3,103,76,2,2,1,225,9,2,0,1,26,0,0,0,0,-171069.58435233062,-4771434.754854049,4219447.476042271,-2.51439,-0.703043,0.607744,59.75,-50.5,-54.375,0.0,0.0,0.0,0.0,0.0,0.0,2,0,41.65947463049137,-92.05333808210143,9999.998500434573,139.84245546658565,-0.0018296560289963,-0.0006526525728977,,9001.267247400965,11068.098492074974,150,8,2025-09-10,2025-09-26 15:28:35.095,HH,C,1036941374,HAWK11,1,1,73,2,1,1,225,2,1,0,0,12,1,225,2,1,-144651.90661795562,-4791942.073213424,4197774.901823521,3.10602,1.9263,-0.857687,-21.875,68.75,82.0,-0.125,-7.10938,7.48438,0.00195312,0.015625,0.0214844,4,0,41.39637642629695,-91.72903336584244,11059.31603897458,-14.2617273993484,2.604512510711788,14.370884251457577,184.98,9001.267247400965,11068.098492074974,150,False,21.460004983608208,False,152.59125719369766,177.28738372619705,False,30.11939693084721,False,False
8,1970-07-23 09:59:41.160038790,2025-09-10,2025-09-26 15:28:36.003,HH,C,1757951118,JASSM,3,103,76,2,2,1,225,9,2,0,1,26,0,0,0,0,-171009.85925467435,-4771485.387666549,4219393.011198521,-2.51439,-0.703043,0.60784,59.75,-50.5,-54.375,0.0,0.0,0.0,0.0,0.0,0.0,2,0,41.6588185541595,-92.05260005576946,10000.00823121275,139.84616894464207,-0.0054188930054623,-0.0006545147520248,,9001.267247400965,11068.098492074974,150,8,2025-09-10,2025-09-26 15:28:36.001,HH,C,1037975306,HAWK11,1,1,73,2,1,1,225,2,1,0,0,12,1,225,2,1,-144669.48474295562,-4791880.980439986,4197846.284636021,-3.13574,1.8728,-0.864686,-19.375,69.375,82.625,-0.203125,-6.96875,7.39062,-0.0078125,0.00585938,0.0332031,4,0,41.39721855175733,-91.72926538384576,11065.200039190951,-12.2279114854482,2.465401818695547,14.508321283849924,185.432,9001.267247400965,11068.098492074974,150,False,21.36454369285118,False,151.22679415299308,177.20967215338032,False,31.561058852070435,False,False
8,1970-07-23 09:59:41.170040255,2025-09-10,2025-09-26 15:28:37.004,HH,C,1759144420,JASSM,3,103,76,2,2,1,225,9,2,0,1,26,0,0,0,0,-170950.121217565,-4771536.028291549,4219338.530729771,-2.51439,-0.703043,0.60784,59.75,-50.5,-54.375,0.0,0.0,0.0,0.0,0.0,0.0,2,0,41.65816232402786,-92.0518618858869,10000.006570824657,139.84665959837557,-0.0045616945883391,-0.0006561545315648,,9001.267247400965,11068.098492074974,150,8,2025-09-10,2025-09-26 15:28:36.893,HH,C,1039049006,HAWK11,1,1,73,2,1,1,225,2,1,0,0,12,1,225,2,1,-144685.45739920562,-4791818.092744674,4197920.011198521,-3.13488,1.83512,-0.865836,-17.125,69.875,83.5,-0.1875,-6.78125,7.25,-0.0664062,0.0,0.0117188,4,0,41.39808746314386,-91.72947887604349,11071.63902817492,-10.849836589230163,2.206473630194556,12.970409763357807,185.958,9001.267247400965,11068.098492074974,150,False,21.26849550754625,False,149.9808693983569,177.1266675275073,False,32.89005637994752,False,False
8,1970-07-23 09:59:41.181041421,2025-09-10,2025-09-26 15:28:38.104,HH,C,1760456516,JASSM,3,103,76,2,2,1,225,9,2,0,1,26,0,0,0,0,-170884.43640311187,-4771591.707979049,4219278.624479771,-2.51429,-0.703043,0.60784,59.75,-50.5,-54.375,0.0,0.0,0.0,0.0,0.0,0.0,2,0,41.657440758686256,-92.05105025117136,9999.999837136118,139.8471990760894,-0.0036191617623806,0.0048335117270431,,9001.267247400965,11068.098492074974,150,8,2025-09-10,2025-09-26 15:28:38.095,HH,C,1040440838,HAWK11,1,1,73,2,1,1,225,2,1,0,0,12,1,225,2,1,-144703.63903983062,-4791734.240205611,4198017.995573521,2.98666,1.80492,-0.862864,-15.125,70.875,84.125,0.203125,-6.51562,6.9375,-0.115234,-0.0117188,0.0175781,4,0,41.39924443848332,-91.72972632619503,11079.305741642896,-9.785719344575387,1.8085490950657337,2.429929248644464,186.715,9001.267247400965,11068.098492074974,150,True,21.15369135831215,False,148.88908039696736,177.0134620779387,False,34.09404191834553,False,False
8,1970-07-23 09:59:41.191017403,2025-09-10,2025-09-26 15:28:39.101,HH,C,1761709214,JASSM,3,103,76,2,2,1,225,9,2,0,1,26,0,0,0,0,-170821.72497733062,-4771644.864229049,4219221.433073521,-2.51429,-0.703043,0.60784,59.75,-50.5,-54.375,0.0,0.0,0.0,0.0,0.0,0.0,2,0,41.65675188947214,-92.05027537532244,9999.998070810076,139.8477141137491,-0.0027193246713437,0.0048318114415431,,9001.267247400965,11068.098492074974,150,8,2025-09-10,2025-09-26 15:28:39.095,HH,C,1041554302,HAWK11,1,1,73,2,1,1,225,2,1,0,0,12,1,225,2,1,-144717.34216483062,-4791667.701143111,4198095.186979771,2.96777,1.79907,-0.853756,-14.75,71.75,84.0,-0.09375,-5.79688,6.23438,-0.0527344,-0.0117188,-0.00976562,4,0,41.40015886487551,-91.72991403542136,11084.123342231782,-9.672108726569316,1.255053586463248,1.0972196237679346,187.155,9001.267247400965,11068.098492074974,150,True,21.053990787406466,False,148.69167391678886,176.92108453313105,False,34.38189746598119,False,False
8,1970-07-23 09:59:41.201016544,2025-09-10,2025-09-26 15:28:40.101,HH,C,1762902262,JASSM,3,103,76,2,2,1,225,9,2,0,1,26,0,0,0,0,-170761.99939139312,-4771695.493135299,4219166.960417271,-2.51429,-0.703043,0.60784,59.75,-50.5,-54.375,0.0,0.0,0.0,0.0,0.0,0.0,2,0,41.65609576409233,-92.04953740698105,10000.00057783092,139.84820461355642,-0.0018622919613766,0.004830160756539,,9001.267247400965,11068.098492074974,150,8,2025-09-10,2025-09-26 15:28:40.003,HH,C,1042747302,HAWK11,1,1,73,2,1,1,225,2,1,0,0,12,1,225,2,1,-144731.46325858062,-4791593.792939986,4198179.173307896,2.9208,1.80473,-0.84321,-14.375,73.125,83.75,-0.15625,-5.89062,6.34375,-0.0410156,-0.00976562,0.00390625,4,0,41.401162919993645,-91.73010940231538,11085.593596068222,-9.999595256653777,0.7048052766792946,-1.356883783908288,187.595,9001.267247400965,11068.098492074974,150,True,20.952744327900785,False,148.48738330648428,176.81905985298425,False,34.68421175002376,False,False
8,1970-07-23 09:59:41.211016546,2025-09-10,2025-09-26 15:28:41.101,HH,C,1764095308,JASSM,3,103,76,2,2,1,225,9,2,0,1,26,0,0,0,0,-170702.27429373687,-4771746.118135299,4219112.491667271,-2.51429,-0.703043,0.60784,59.75,-50.5,-54.375,0.0,0.0,0.0,0.0,0.0,0.0,2,0,41.655439683410414,-92.04879946115044,10000.006757254176,139.8486950920626,-0.0010053006251112,0.004828537667676,,9001.267247400965,11068.098492074974,150,8,2025-09-10,2025-09-26 15:28:41.189,HH,C,1044218666,HAWK11,1,1,73,2,1,1,225,2,1,0,0,12,1,225,2,1,-144748.98474295562,-4791501.763643111,4198281.101042271,2.92041,1.78795,-0.834006,-14.5,75.125,83.0,0.0,-5.9375,6.34375,0.00585938,-0.00585938,-0.00390625,4,0,41.40239527082557,-91.73035193918776,11081.67754810615,-9.468855255255775,0.0663587999917514,-2.0902672715535364,188.915,9001.267247400965,11068.098492074974,150,True,20.84013831681068,False,148.53322925453696,176.69485932285255,False,34.753542090875456,False,False
8,1970-07-23 09:59:41.221035293,2025-09-10,2025-09-26 15:28:42.103,HH,C,1765288354,JASSM,3,103,76,2,2,1,225,9,2,0,1,26,0,0,0,0,-170642.54895194,-4771796.739229049,4219058.019011021,-2.51429,-0.703043,0.60784,59.75,-50.5,-54.375,0.0,0.0,0.0,0.0,0.0,0.0,2,0,41.65478359505274,-92.04806152904536,9999.99950843546,139.8491855551084,-0.0001483063991234,0.0048269134199267,,9001.267247400965,11068.098492074974,150,8,2025-09-10,2025-09-26 15:28:42.095,HH,C,1045212832,HAWK11,1,1,73,2,1,1,225,2,1,0,0,12,1,225,2,1,-144760.77185233062,-4791439.365205611,4198349.001432896,2.91581,1.79763,-0.837362,-14.625,75.625,83.0,-0.234375,-6.5,6.76562,-0.0078125,0.00195312,-0.00390625,4,0,41.40322269169945,-91.73051528079284,11076.396775966094,-9.798497442438356,0.3257037907457883,-1.9435501050527184,190.211,9001.267247400965,11068.098492074974,150,True,20.747737973491184,False,148.57723200006862,176.6080425829715,False,34.79467736024285,False,False
8,1970-07-23 09:59:41.231038310,2025-09-10,2025-09-26 15:28:43.103,HH,C,1766481402,JASSM,3,103,76,2,2,1,225,9,2,0,1,26,0,0,0,0,-170582.8233660025,-4771847.364229049,4219003.542448521,-2.51429,-0.703043,0.60784,59.75,-50.5,-54.375,0.0,0.0,0.0,0.0,0.0,0.0,2,0,41.65412745231955,-92.04732360731477,9999.997970359846,139.8496760049207,0.000708728026129,0.0048252598149724,,9001.267247400965,11068.098492074974,150,8,2025-09-10,2025-09-26 15:28:42.829,HH,C,1045650264,HAWK11,1,1,73,2,1,1,225,2,1,0,0,12,1,225,2,1,-144766.20544608062,-4791410.976533736,4198379.769011021,2.91197,1.7985,-0.839759,-14.75,75.875,83.0,-0.234375,-6.82812,7.01562,0.0,0.00195312,0.0,4,0,41.40359828205678,-91.73059044345877,11073.7313898974,-9.80475942802886,0.4671956784277916,-2.1265633253293696,191.078,9001.267247400965,11068.098492074974,150,True,20.67779977809686,False,148.63006491092517,176.56372636569856,False,34.78524755720956,False,False
8,1970-07-23 09:59:41.241039735,2025-09-10,2025-09-26 15:28:44.103,HH,C,1767674446,JASSM,3,103,76,2,2,1,225,9,2,0,1,26,0,0,0,0,-170523.09802420562,-4771897.985322799,4218949.069792271,-2.51429,-0.702947,0.607936,59.75,-50.5,-54.375,0.0,0.0,0.0,0.0,0.0,0.0,2,0,41.65347135433685,-92.04658570516342,10000.000082644125,139.84974182139345,-0.0055288477825564,0.001687278546525,,9001.267247400965,11068.098492074974,150,8,2025-09-10,2025-09-26 15:28:43.892,HH,C,1047399996,HAWK11,1,1,73,2,1,1,225,2,1,0,0,12,1,225,2,1,-144788.04919608062,-4791299.199189986,4198502.036589146,2.9253,1.79016,-0.852126,-15.125,75.875,84.25,-0.234375,-7.20312,7.42188,0.0273438,0.00390625,0.0,4,0,41.40508463192996,-91.73089176802762,11065.717014070911,-9.360291711427514,1.1049730914735434,-1.714689802015747,192.251,9001.267247400965,11068.098492074974,150,True,20.55253175046912,False,148.74863469898057,176.41277978466914,False,34.82319520032218,False,False
8,1970-07-23 09:59:41.251036352,2025-09-10,2025-09-26 15:28:45.103,HH,C,1768867492,JASSM,3,103,76,2,2,1,225,9,2,0,1,26,0,0,0,0,-170463.37268240875,-4771948.606416549,4218894.593229771,-2.51429,-0.702947,0.607936,59.75,-50.5,-54.375,0.0,0.0,0.0,0.0,0.0,0.0,2,0,41.65281522527618,-92.04584781798836,9999.998357802882,139.85023223576667,-0.0046718331973961,0.0016856309283878,,9001.267247400965,11068.098492074974,150,8,2025-09-10,2025-09-26 15:28:45.189,HH,C,1048712296,HAWK11,1,1,73,2,1,1,225,2,1,0,0,12,1,225,2,1,-144804.60974295562,-4791215.912080611,4198594.183073521,2.93786,1.79284,-0.857016,-15.25,76.0,84.875,-0.0625,-7.125,7.28125,-0.015625,0.00390625,-0.00195312,4,0,41.40619912369112,-91.7311196969968,11062.038949522252,-9.407484276084634,1.4001578736073004,-0.8801128563894797,193.095,9001.267247400965,11068.098492074974,150,True,20.445822260284253,False,148.7701522729407,176.29606153585453,False,34.92048784491702,False,False
8,1970-07-23 09:59:41.261036200,2025-09-10,2025-09-26 15:28:46.103,HH,C,1770060540,JASSM,3,103,76,2,2,1,225,9,2,0,1,26,0,0,0,0,-170403.64709647125,-4771999.227510299,4218840.116667271,-2.51429,-0.702947,0.607936,59.75,-50.5,-54.375,0.0,0.0,0.0,0.0,0.0,0.0,2,0,41.65215909145583,-92.04510994286169,10000.001292272687,139.85072263579383,-0.0038148171435563,0.0016839849881772,,9001.267247400965,11068.098492074974,150,8,2025-09-10,2025-09-26 15:28:46.095,HH,C,1050064360,HAWK11,1,1,73,2,1,1,225,2,1,0,0,12,1,225,2,1,-144821.58044608062,-4791128.938447799,4198691.056120396,2.9649,1.7752,-0.863439,-15.125,76.125,85.5,-0.15625,-7.01562,7.28125,0.00976562,0.00585938,0.00390625,4,0,41.40736737687142,-91.73135386567358,11059.588637378944,-8.692430698370933,1.6440739597394276,-0.0781998335432129,193.791,9001.267247400965,11068.098492074974,150,True,20.33667571388216,False,148.66782788411,176.17235688760422,False,35.14840450301011,False,False
8,1970-07-23 09:59:41.271015730,2025-09-10,2025-09-26 15:28:47.101,HH,C,1771253586,JASSM,3,103,76,2,2,1,225,9,2,0,1,26,0,0,0,0,-170343.92126639312,-4772049.844697799,4218785.640104771,-2.51429,-0.702947,0.607936,59.75,-50.5,-54.375,0.0,0.0,0.0,0.0,0.0,0.0,2,0,41.65150297622431,-92.0443720814554,9999.999316191286,139.85121302036322,-0.0029578182736152,0.0016823548251733,,9001.267247400965,11068.098492074974,150,8,2025-09-10,2025-09-26 15:28:47.095,HH,C,1051257360,HAWK11,1,1,73,2,1,1,225,2,1,0,0,12,1,225,2,1,-144836.58825858062,-4791053.262666549,4198776.034636021,2.97324,1.77855,-0.871685,-15.0,76.125,86.125,-0.015625,-7.28125,7.45312,0.0,0.0117188,0.00195312,4,0,41.40838848260224,-91.7315605093968,11058.977498282376,-8.731994827789906,2.1320155502020905,0.5450451466124802,194.793,9001.267247400965,11068.098492074974,150,True,20.234845557183263,False,148.56935196724635,176.06196604716058,False,35.35933423371825,False,False
8,1970-07-23 09:59:41.280037163,2025-09-10,2025-09-26 15:28:48.003,HH,C,1772327328,JASSM,3,103,76,2,2,1,225,9,2,0,1,26,0,0,0,0,-170290.16833670562,-4772095.399385299,4218736.608854771,-2.51429,-0.702947,0.607936,59.75,-50.5,-54.375,0.0,0.0,0.0,0.0,0.0,0.0,2,0,41.65091245724381,-92.043708023133,9999.99454294294,139.85165434979675,-0.0021865126722174,0.0016808780956347,,9001.267247400965,11068.098492074974,150,8,2025-09-10,2025-09-26 15:28:47.891,HH,C,1052171992,HAWK11,1,1,73,2,1,1,225,2,1,0,0,12,1,225,2,1,-144847.64099295562,-4790994.988252486,4198842.081511021,2.98714,1.76791,-0.877149,-14.75,75.875,86.625,0.03125,-7.17188,7.34375,0.0195312,0.00976562,0.0117188,4,0,41.40917898862251,-91.7317136176766,11059.7952803109,-8.292355440407034,2.373510152920751,0.891055329349479,195.062,9001.267247400965,11068.098492074974,150,True,20.149834869230975,False,148.42344708242086,175.97373697820802,False,35.59563632795787,False,False
8,1970-07-23 09:59:41.290034240,2025-09-10,2025-09-26 15:28:49.003,HH,C,1773460722,JASSM,3,103,76,2,2,1,225,9,2,0,1,26,0,0,0,0,-170233.4288347525,-4772143.485322799,4218684.854948521,-2.51429,-0.702947,0.607936,59.75,-50.5,-54.375,0.0,0.0,0.0,0.0,0.0,0.0,2,0,41.65028913365044,-92.0430070820762,9999.997493872836,139.85212018571883,-0.0013723596183489,0.00167932546467,,9001.267247400965,11068.098492074974,150,8,2025-09-10,2025-09-26 15:28:49.001,HH,C,1053524056,HAWK11,1,1,73,2,1,1,225,2,1,0,0,12,1,225,2,1,-144864.31286795562,-4790908.303682174,4198941.063932896,3.01389,1.75507,-0.881464,-14.375,75.75,87.375,-0.09375,-7.07812,7.23438,-0.0214844,0.00390625,-0.00585938,4,0,41.41035981125288,-91.73194413284976,11062.633899576713,-7.788389729187051,2.541312903727478,1.8782686454830035,195.563,9001.267247400965,11068.098492074974,150,True,20.04307283213204,False,148.19702859397864,175.84491280190565,False,35.953001838508875,False,False
8,1970-07-23 09:59:41.301013707,2025-09-10,2025-09-26 15:28:50.101,HH,C,1774832724,JASSM,3,103,76,2,2,1,225,9,2,0,1,26,0,0,0,0,-170164.74450858062,-4772201.696260299,4218622.202604771,-2.51429,-0.702947,0.607936,59.75,-50.5,-54.375,0.0,0.0,0.0,0.0,0.0,0.0,2,0,41.649534548971786,-92.04215859586492,10000.004500831836,139.85268407049722,-0.0003867850313599,0.0016774251807359,,9001.267247400965,11068.098492074974,150,8,2025-09-10,2025-09-26 15:28:50.095,HH,C,1054796588,HAWK11,1,1,73,2,1,1,225,2,1,0,0,12,1,225,2,1,-144879.24255545562,-4790827.555635299,4199033.427214146,2.97391,1.74251,-0.874561,-14.125,76.125,87.5,-0.0625,-6.46875,6.53125,-0.0175781,-0.00585938,0.0117188,4,0,41.41146095042066,-91.7321516945936,11065.587951445505,-7.3955454249787165,2.0804022426302886,-0.9502496752771294,195.746,9001.267247400965,11068.098492074974,150,True,19.930319464557595,False,148.0598123653663,175.71987855545598,False,36.21469447420709,False,False
8,1970-07-23 09:59:41.312037481,2025-09-10,2025-09-26 15:28:51.203,HH,C,1776085424,JASSM,3,103,76,2,2,1,225,9,2,0,1,26,0,0,0,0,-170102.0323503775,-4772254.840791549,4218564.995573521,-2.51429,-0.702947,0.607936,59.75,-50.5,-54.375,0.0,0.0,0.0,0.0,0.0,0.0,2,0,41.64884558401165,-92.0413839057362,9999.999111893085,139.8531989047446,0.0005130817492528,0.0016756975462396,,9001.267247400965,11068.098492074974,150,8,2025-09-10,2025-09-26 15:28:51.095,HH,C,1056029354,HAWK11,1,1,73,2,1,1,225,2,1,0,0,12,1,225,2,1,-144893.80896170562,-4790747.552705611,4199124.411589146,2.96921,1.738,-0.871876,-14.125,76.625,87.625,-0.140625,-6.82812,6.96875,0.00390625,0.00585938,0.00195312,4,0,41.412548414194745,-91.73235465326005,11067.362889021128,-7.254491534627624,1.9047174285450303,-1.4123628312394676,196.773,9001.267247400965,11068.098492074974,150,True,19.82351121134964,False,148.04148274205303,175.59584297352677,False,36.35618749787295,False,False
8,1970-07-23 09:59:41.323040284,2025-09-10,2025-09-26 15:28:52.304,HH,C,1777397776,JASSM,3,103,76,2,2,1,225,9,2,0,1,26,0,0,0,0,-170036.33386404935,-4772310.516572799,4218505.065886021,-2.51429,-0.702851,0.608032,59.75,-50.5,-54.375,0.0,0.0,0.0,0.0,0.0,0.0,2,0,41.64812381218659,-92.0405723426498,10000.00360986349,139.85330998174965,-0.0056375028134881,-0.0014648466370781,,9001.267247400965,11068.098492074974,150,8,2025-09-10,2025-09-26 15:28:52.297,HH,C,1057421186,HAWK11,1,1,73,2,1,1,225,2,1,0,0,12,1,225,2,1,-144910.34607108062,-4790657.926729049,4199226.306120396,3.00037,1.73867,-0.869192,-14.125,77.0,88.0,-0.3125,-6.84375,6.84375,0.0253906,-0.00390625,0.0,4,0,41.41376641390378,-91.73258464461075,11069.303387785583,-7.301853674511185,1.757472796752421,0.4008386889543276,197.152,9001.267247400965,11068.098492074974,150,True,19.707800832336293,False,148.01125954059117,175.45647751061932,False,36.52581413074509,False,False
8,1970-07-23 09:59:41.333035156,2025-09-10,2025-09-26 15:28:53.303,HH,C,1778650474,JASSM,3,103,76,2,2,1,225,9,2,0,1,26,0,0,0,0,-169973.62170584625,-4772363.657197799,4218447.858854771,-2.51429,-0.702851,0.608032,59.75,-50.5,-54.375,0.0,0.0,0.0,0.0,0.0,0.0,2,0,41.64743485971314,-92.03979768798968,9999.999217012151,139.85382477833107,-0.004737654474172,-0.0014665669607101,,9001.267247400965,11068.098492074974,150,8,2025-09-10,2025-09-26 15:28:53.189,HH,C,1058415352,HAWK11,1,1,73,2,1,1,225,2,1,0,0,12,1,225,2,1,-144921.89489920562,-4790592.588838424,4199300.505339146,3.04064,1.72515,-0.868904,-13.75,77.375,88.375,-0.1875,-6.96875,7.04688,0.0351562,0.00585938,0.0175781,4,0,41.41465387690664,-91.73274625897774,11070.507284542702,-6.809204938917482,1.670710713241237,2.1311892008657365,197.567,9001.267247400965,11068.098492074974,150,True,19.611040199771487,False,147.80108178111178,175.35027992622824,False,36.84211272576851,False,False
8,1970-07-23 09:59:41.344036505,2025-09-10,2025-09-26 15:28:54.403,HH,C,1779962824,JASSM,3,103,76,2,2,1,225,9,2,0,1,26,0,0,0,0,-169907.92346365875,-4772419.329072799,4218387.925261021,-2.51419,-0.702851,0.608032,59.75,-50.5,-54.375,0.0,0.0,0.0,0.0,0.0,0.0,2,0,41.64671307353788,-92.03898616490709,9999.996718727043,139.85436406832096,-0.0037949412898271,0.0040367486017848,,9001.267247400965,11068.098492074974,150,8,2025-09-10,2025-09-26 15:28:54.501,HH,C,1060085550,HAWK11,1,1,73,2,1,1,225,2,1,0,0,12,1,225,2,1,-144940.20153983062,-4790483.692354049,4199424.302214146,3.11158,1.69955,-0.873027,-12.625,77.625,88.75,-0.21875,-7.0,7.04688,0.0371094,0.0,0.00195312,4,0,41.41613403789013,-91.73300437675726,11072.740500467531,-5.841790674274262,1.7852815186370532,5.103367116786019,198.325,9001.267247400965,11068.098492074974,150,True,19.48347857782368,False,147.2353832221733,175.17811300273695,False,37.580202920269954,False,False
8,1970-07-23 09:59:41.355036985,2025-09-10,2025-09-26 15:28:55.503,HH,C,1781215862,JASSM,3,103,76,2,2,1,225,9,2,0,1,26,0,0,0,0,-169845.19409354156,-4772472.485322799,4218330.702604771,-2.51419,-0.702851,0.608032,59.75,-50.5,-54.375,0.0,0.0,0.0,0.0,0.0,0.0,2,0,41.64602391540774,-92.03821133100044,10000.005608506854,139.85487896970832,-0.0028948411826317,0.0040350243187442,,9001.267247400965,11068.098492074974,150,8,2025-09-10,2025-09-26 15:28:55.391,HH,C,1061000182,HAWK11,1,1,73,2,1,1,225,2,1,0,0,12,1,225,2,1,-144949.70935233062,-4790423.920869674,4199492.337370396,-3.13536,1.68431,-0.875232,-11.875,77.75,89.125,-0.09375,-6.95312,7.0,0.0273438,0.00390625,0.0117188,4,0,41.416947144865,-91.73313960076833,11074.116776177718,-5.270458235780039,1.8482153663344825,6.528009858007808,198.704,9001.267247400965,11068.098492074974,150,True,19.390878862658045,False,146.85435674303395,175.07606434753998,False,38.0637885316074,False,False
8,1970-07-23 09:59:41.366035679,2025-09-10,2025-09-26 15:28:56.603,HH,C,1782587528,JASSM,3,103,76,2,2,1,225,9,2,0,1,26,0,0,0,0,-169776.52612479156,-4772530.668916549,4218268.058073521,-2.51419,-0.702851,0.608032,59.75,-50.5,-54.375,0.0,0.0,0.0,0.0,0.0,0.0,2,0,41.645269507255065,-92.03736316450647,9999.99906751776,139.85544259488037,-0.0019095284167389,0.0040331347532578,,9001.267247400965,11068.098492074974,150,8,2025-09-10,2025-09-26 15:28:56.690,HH,C,1062749914,HAWK11,1,1,73,2,1,1,225,2,1,0,0,12,1,225,2,1,-144965.73669608062,-4790309.017549361,4199623.378386021,-3.09711,1.64922,-0.874753,-9.875,78.125,90.125,-0.140625,-7.35938,7.32812,-0.0878906,0.00976562,0.0136719,4,0,41.41851234637801,-91.73337267154984,11077.153560323984,-3.989657415652767,1.7007385725064124,7.216295200059444,199.217,9001.267247400965,11068.098492074974,150,True,19.25825053728557,False,145.84658151373682,174.8863231835738,False,39.26238355240997,False,False
8,1970-07-23 09:59:41.377036092,2025-09-10,2025-09-26 15:28:57.703,HH,C,1783899878,JASSM,3,103,76,2,2,1,225,9,2,0,1,26,0,0,0,0,-169710.82751639312,-4772586.338838424,4218208.120573521,-2.51419,-0.702851,0.608032,59.75,-50.5,-54.375,0.0,0.0,0.0,0.0,0.0,0.0,2,0,41.644547689102126,-92.03655169220856,10000.000226259692,139.85598182811535,-0.0009668020642433,0.0040313104159904,,9001.267247400965,11068.098492074974,150,8,2025-09-10,2025-09-26 15:28:57.891,HH,C,1064141746,HAWK11,1,1,73,2,1,1,225,2,1,0,0,12,1,225,2,1,-144976.66247733062,-4790216.999971236,4199729.394011021,-3.14044,1.61777,-0.878108,-8.75,78.125,90.75,-0.09375,-7.10938,7.10938,-0.0117188,0.0,-0.00195312,4,0,41.41977339500704,-91.73353651209516,11081.787111845912,-2.825711649979809,1.8134973606975069,3.384496134513621,199.938,9001.267247400965,11068.098492074974,150,True,19.143433159050453,False,145.28392912302238,174.72670814111814,False,39.98576179678467,False,False
8,1970-07-23 09:59:41.388036634,2025-09-10,2025-09-26 15:28:58.803,HH,C,1785212230,JASSM,3,103,76,2,2,1,225,9,2,0,1,26,0,0,0,0,-169645.12878592435,-4772642.004854049,4218148.183073521,-2.51419,-0.702851,0.608032,59.75,-50.5,-54.375,0.0,0.0,0.0,0.0,0.0,0.0,2,0,41.64382588850087,-92.03574023822512,9999.997467030087,139.85652104151075,-2.4093555598782735e-05,0.0040295009974279,,9001.267247400965,11068.098492074974,150,8,2025-09-10,2025-09-26 15:28:58.891,HH,C,1065135912,HAWK11,1,1,73,2,1,1,225,2,1,0,0,12,1,225,2,1,-144983.44372733062,-4790152.162080611,4199804.731901646,-3.13718,1.61806,-0.879163,-8.125,77.875,91.375,-0.28125,-7.23438,7.21875,0.0,0.00195312,0.00195312,4,0,41.4206664221549,-91.733640999732,11086.371711747042,-2.832779411076829,1.8753281696913384,3.583771791516777,200.158,9001.267247400965,11068.098492074974,150,True,19.046178108694015,False,144.96120759033673,174.60665622592762,False,40.42992565978784,False,False
8,1970-07-23 09:59:41.399035598,2025-09-10,2025-09-26 15:28:59.903,HH,C,1786465042,JASSM,3,103,76,2,2,1,225,9,2,0,1,26,0,0,0,0,-169582.41076834625,-4772695.145479049,4218090.964323521,-2.51419,-0.702851,0.608128,59.75,-50.5,-54.375,0.0,0.0,0.0,0.0,0.0,0.0,2,0,41.64313682538551,-92.03496561626976,9999.99920661727,139.8602611808861,-0.0035728059962686,0.0040276946978867,,9001.267247400965,11068.098492074974,150,8,2025-09-10,2025-09-26 15:28:59.797,HH,C,1066408444,HAWK11,1,1,73,2,1,1,225,2,1,0,0,12,1,225,2,1,-144991.11169608062,-4790068.401338424,4199902.585417271,-3.1275,1.5985,-0.87945,-7.125,78.25,91.75,-0.15625,-7.17188,7.1875,-0.00195312,-0.00195312,0.0078125,4,0,41.42182383938693,-91.73376293171592,11093.367442905905,-2.1179802911318677,1.8566523685685008,3.298686608472712,200.158,9001.267247400965,11068.098492074974,150,True,18.939874340541408,False,144.47298818262752,174.45361871459696,False,41.07101999700172,False,False
8,1970-07-23 09:59:41.410013762,2025-09-10,2025-09-26 15:29:01.001,HH,C,1787777280,JASSM,3,103,76,2,2,1,225,9,2,0,1,26,0,0,0,0,-169516.71765311187,-4772750.805635299,4218031.030729771,-2.51419,-0.702851,0.608128,59.75,-50.5,-54.375,0.0,0.0,0.0,0.0,0.0,0.0,2,0,41.64241507350568,-92.03415426750762,10000.0021650393,139.8608003095114,-0.0026301767325493,0.0040259371343881,,9001.267247400965,11068.098492074974,150,8,2025-09-10,2025-09-26 15:29:01.002,HH,C,1067800276,HAWK11,1,1,73,2,1,1,225,2,1,0,0,12,1,225,2,1,-144999.05896170562,-4789976.688447799,4200010.692839146,-3.10554,1.58499,-0.883094,-6.375,77.875,92.5,-0.25,-7.10938,7.1875,0.0,0.0,-0.00195312,4,0,41.42309772376005,-91.73389108250382,11103.09586481671,-1.6173847489875512,2.0475894021354626,3.976142441241224,200.341,9001.267247400965,11068.098492074974,150,True,18.82607854766133,False,144.0880136377566,174.28341739872943,False,41.62753617016683,False,False
8,1970-07-23 09:59:41.421033463,2025-09-10,2025-09-26 15:29:02.103,HH,C,1789089632,JASSM,3,103,76,2,2,1,225,9,2,0,1,26,0,0,0,0,-169451.0188005728,-4772806.467744674,4217971.089323521,-2.51419,-0.702755,0.608128,59.75,-50.5,-54.375,0.0,0.0,0.0,0.0,0.0,0.0,2,0,41.64169325281259,-92.03334286723428,9999.998041183751,139.85769070997648,-0.0043330751051772,0.0008869183491764,,9001.267247400965,11068.098492074974,150,8,2025-09-10,2025-09-26 15:29:02.095,HH,C,1069112574,HAWK11,1,1,73,2,1,1,225,2,1,0,0,12,1,225,2,1,-145005.36364920562,-4789891.459932174,4200111.810026646,-3.08723,1.56341,-0.88875,-5.375,77.75,92.875,-0.0625,-7.20312,7.26562,0.0175781,0.0078125,0.0175781,4,0,41.42428614222912,-91.73399726194536,11113.48340299361,-0.8271025742300279,2.353013491003273,4.098455970363825,200.451,9001.267247400965,11068.098492074974,150,True,18.716725999745748,False,143.6014595499075,174.12024306657042,False,42.27763491650905,False,False
8,1970-07-23 09:59:41.432033449,2025-09-10,2025-09-26 15:29:03.203,HH,C,1790401982,JASSM,3,103,76,2,2,1,225,9,2,0,1,26,0,0,0,0,-169385.31994803375,-4772862.129854049,4217911.147917271,-2.51419,-0.702755,0.608128,59.75,-50.5,-54.375,0.0,0.0,0.0,0.0,0.0,0.0,2,0,41.6409714263012,-92.03253148507048,9999.99958086657,139.8582298455465,-0.0033903640197421,0.0008850998484459,,9001.267247400965,11068.098492074974,150,8,2025-09-10,2025-09-26 15:29:03.189,HH,C,1070464638,HAWK11,1,1,73,2,1,1,225,2,1,0,0,12,1,225,2,1,-145011.16638358062,-4789802.856416549,4200217.860807896,-3.05492,1.54846,-0.894982,-4.375,77.5,93.375,0.0,-7.29688,7.32812,0.00976562,0.00390625,0.00390625,4,0,41.425528026608426,-91.73409866741348,11126.25342364022,-0.2844271889178509,2.705060128919861,5.30675467744368,200.72,9001.267247400965,11068.098492074974,150,True,18.60545175999676,False,143.10963294522233,173.94753376532472,False,42.94258889305834,False,False
8,1970-07-23 09:59:41.443038192,2025-09-10,2025-09-26 15:29:04.303,HH,C,1791714320,JASSM,3,103,76,2,2,1,225,9,2,0,1,26,0,0,0,0,-169319.62158377594,-4772917.790010299,4217851.206511021,-2.51419,-0.702755,0.608128,59.75,-50.5,-54.375,0.0,0.0,0.0,0.0,0.0,0.0,2,0,41.6402496055403,-92.03172012770077,10000.002040707122,139.8587689569727,-0.0024476648799252,0.0008832849527675,,9001.267247400965,11068.098492074974,150,8,2025-09-10,2025-09-26 15:29:04.001,HH,C,1071379272,HAWK11,1,1,73,2,1,1,225,2,1,0,0,12,1,225,2,1,-145014.12341483062,-4789743.406221236,4200289.470182896,-3.03201,1.5335,-0.898242,-3.625,77.25,93.75,-0.3125,-7.28125,7.1875,0.0136719,0.00390625,0.00390625,4,0,41.42636451401282,-91.73415551801912,11135.74003786362,0.2511831025839695,2.892481251515369,5.976370899122172,200.598,9001.267247400965,11068.098492074974,150,True,18.51264325313233,False,142.73993985109846,173.82270212993362,False,43.43730757892133,False,False
8,1970-07-23 09:59:41.454294063,2025-09-10,2025-09-26 15:29:05.429,HH,C,1792967032,JASSM,3,103,76,2,2,1,225,9,2,0,1,26,0,0,0,0,-169256.90832694,-4772970.920869674,4217793.983854771,-2.51419,-0.702755,0.608128,59.75,-50.5,-54.375,0.0,0.0,0.0,0.0,0.0,0.0,2,0,41.63956054598617,-92.03094565263228,9999.998536428602,139.85928355457227,-0.0015477754398998,0.0008815328094918,,9001.267247400965,11068.098492074974,150,8,2025-09-10,2025-09-26 15:29:05.297,HH,C,1072930170,HAWK11,1,1,73,2,1,1,225,2,1,0,0,12,1,225,2,1,-145017.80700858062,-4789643.214814986,4200410.817839146,-2.98465,1.50119,-0.895174,-2.0,77.125,94.0,-0.375,-7.17188,7.15625,-0.00976562,0.00195312,0.0234375,4,0,41.4277789612452,-91.73423579591211,11153.083438858388,1.4108787199767676,2.738258693742581,7.300689262683221,200.525,9001.267247400965,11068.098492074974,150,True,18.397745068810462,False,141.96605138335573,173.6217512150268,False,44.412181320439664,False,False
8,1970-07-23 09:59:41.464053384,2025-09-10,2025-09-26 15:29:06.405,HH,C,1794220058,JASSM,3,103,76,2,2,1,225,9,2,0,1,26,0,0,0,0,-169194.17920096344,-4773024.061494674,4217736.749479771,-2.51419,-0.702755,0.608128,59.75,-50.5,-54.375,0.0,0.0,0.0,0.0,0.0,0.0,2,0,41.63887134732053,-92.03017099965774,9999.997198297073,139.8597982633898,-0.0006476899355893,0.0008798054418364,,9001.267247400965,11068.098492074974,150,8,2025-09-10,2025-09-26 15:29:06.501,HH,C,1074242468,HAWK11,1,1,73,2,1,1,225,2,1,0,0,12,1,225,2,1,-145018.89880545562,-4789557.435518111,4200515.227995396,-3.01159,1.47607,-0.892873,-0.625,77.0,94.5,0.0,-7.0625,7.07812,-0.0292969,-0.00195312,0.00390625,4,0,41.42899380972568,-91.73427988531748,11168.912887562628,2.3176365668951986,2.642835022126498,4.677718549807962,200.525,9001.267247400965,11068.098492074974,150,True,18.29248344116867,False,141.30411564087177,173.44196399886525,False,45.253911927005355,False,False
8,1970-07-23 09:59:41.475017091,2025-09-10,2025-09-26 15:29:07.501,HH,C,1795532080,JASSM,3,103,76,2,2,1,225,9,2,0,1,26,0,0,0,0,-169128.49646170562,-4773079.706025924,4217676.819792271,-2.51419,-0.702755,0.608223,59.75,-50.5,-54.375,0.0,0.0,0.0,0.0,0.0,0.0,2,0,41.63814967851363,-92.029359888934,10000.004749352584,139.86356083654647,-0.0041509255278785,0.0008778800179181,,9001.267247400965,11068.098492074974,150,8,2025-09-10,2025-09-26 15:29:07.095,HH,C,1075037800,HAWK11,1,1,73,2,1,1,225,2,1,0,0,12,1,225,2,1,-145019.17614920562,-4789505.770479049,4200578.468229771,-3.02367,1.46534,-0.893927,-0.125,76.875,94.625,-0.203125,-7.09375,7.125,-0.0390625,0.00585938,0.0078125,4,0,41.42972796998952,-91.73430189656342,11179.191281675488,2.699958347162076,2.724103894147184,3.5241251346942906,200.757,9001.267247400965,11068.098492074974,150,True,18.205401307504754,False,141.06315361326003,173.32301899077942,False,45.61379190594032,False,False
