Subject_cm,Timestamp,SampleDate_cm,SampleTime_cm,Configuration_cm,Scenario_cm,DisTime_cm,MarkingTxt_cm,Application_cm,EntId_cm,Site_cm,ExerciseId_cm,ForceId_cm,Category_cm,Country_cm,Domain_cm,Kind_cm,Extra_cm,Specific_cm,Subcategory_cm,AltCategory_cm,AltCountry_cm,AltDomain_cm,AltKind_cm,ECEF_X_cm,ECEF_Y_cm,ECEF_Z_cm,OriPhi_cm,OriPsi_cm,OriTheta_cm,LinVelX_cm,LinVelY_cm,LinVelZ_cm,LinAccX_cm,LinAccY_cm,LinAccZ_cm,AngVelX_cm,AngVelY_cm,AngVelZ_cm,DrAlg_cm,Appearance_cm,Latitude_cm,Longitude_cm,Altitude_cm,Heading_cm,Pitch_cm,Roll_cm,CalibratedAirspeed_cm,CM_Altitude_Lead_cm,CM_Altitude_Wing_cm,CM_Airspeed_cm,Subject_ac,SampleDate_ac,SampleTime_ac,Configuration_ac,Scenario_ac,DisTime_ac,MarkingTxt_ac,Application_ac,EntId_ac,Site_ac,ExerciseId_ac,ForceId_ac,Category_ac,Country_ac,Domain_ac,Kind_ac,Extra_ac,Specific_ac,Subcategory_ac,AltCategory_ac,AltCountry_ac,AltDomain_ac,AltKind_ac,ECEF_X_ac,ECEF_Y_ac,ECEF_Z_ac,OriPhi_ac,OriPsi_ac,OriTheta_ac,LinVelX_ac,LinVelY_ac,LinVelZ_ac,LinAccX_ac,LinAccY_ac,LinAccZ_ac,AngVelX_ac,AngVelY_ac,AngVelZ_ac,DrAlg_ac,Appearance_ac,Latitude_ac,Longitude_ac,Altitude_ac,Heading_ac,Pitch_ac,Roll_ac,CalibratedAirspeed_ac,CM_Altitude_Lead_ac,CM_Altitude_Wing_ac,CM_Airspeed_ac,Bank_Angle_Condition,distance_nm,Distance_Condition,angle_between_vel,angle_between_pos,Cone_Condition,angle_between_pos_nose,Nose_Cone_Condition,Intercept_Criteria
8,1970-07-23 09:59:59.891114264,2025-09-10,2025-09-26 15:59:49.111,AH,C,3992646462,JASSM,3,138,76,2,2,1,225,9,2,0,1,26,0,0,0,0,-163313.39245779935,-4785300.219697799,4204127.882292271,-2.36559,-0.397301,0.382249,71.625,-29.875,-31.125,0.0,0.0,0.0,0.0,0.0,0.0,2,0,41.47520292765776,-91.95463970393256,9999.997482292412,119.85297145542278,-0.0045888623494098,0.0050467798734203,,9023.624474727972,10930.733041558857,150,8,2025-09-10,2025-09-26 15:59:49.184,AH,C,3949936162,AMBUSH51,1,1,48,2,1,1,225,2,1,0,0,9,1,225,2,1,-143564.7966420902,-4792183.800450003,4196599.429420508,2.3017,2.77431,-0.39921,-74.465,29.909,31.3901,-0.0949279,-7.21985,6.37703,0.0693514,-0.00776582,-0.000259034,4,0,41.38719674972997,-91.71596036161756,9023.624474727972,-60.43368643558047,1.61531597914316,-3.0289176218166363,154.588,9023.624474727972,10930.733041558857,150,True,11.95864688073575,False,179.1414187828419,176.19569608298886,False,2.946837750868694,True,False
8,1970-07-23 09:59:59.901133214,2025-09-10,2025-09-26 15:59:50.113,AH,C,3993779856,JASSM,3,138,76,2,2,1,225,9,2,0,1,26,0,0,0,0,-163245.38513358062,-4785328.764619674,4204098.233854771,-2.36559,-0.397301,0.382249,71.625,-29.875,-31.125,0.0,0.0,0.0,0.0,0.0,0.0,2,0,41.47484679530307,-91.95381473381732,10000.001182252568,119.8535178278698,-0.0038755028584315,0.0050455851861855,,9023.624474727972,10930.733041558857,150,8,2025-09-10,2025-09-26 15:59:50.118,AH,C,3951049628,AMBUSH51,1,1,48,2,1,1,225,2,1,0,0,9,1,225,2,1,-143634.11896606133,-4792155.849492186,4196628.523009952,2.35741,2.77486,-0.399441,-74.3747,29.9116,31.107,-0.104097,-7.21741,6.53124,0.0418938,0.00212533,-0.000367225,4,0,41.38754709167357,-91.71679844942152,9023.073054994542,-60.44530597582519,1.6458971428568576,0.1745773122393907,154.099,9023.624474727972,10930.733041558857,150,True,11.872904624050863,False,179.06130356421986,176.17081724174648,False,2.914219450193018,True,False
8,1970-07-23 09:59:59.910133571,2025-09-10,2025-09-26 15:59:51.013,AH,C,3994853600,JASSM,3,138,76,2,2,1,225,9,2,0,1,26,0,0,0,0,-163180.95739920562,-4785355.805635299,4204070.144011021,-2.36559,-0.397301,0.382249,71.625,-29.875,-31.125,0.0,0.0,0.0,0.0,0.0,0.0,2,0,41.47450939793497,-91.95303319521511,9999.999895560724,119.85403543234528,-0.0031996893045837,0.0050444490726161,,9023.624474727972,10930.733041558857,150,8,2025-09-10,2025-09-26 15:59:51.018,AH,C,3952123328,AMBUSH51,1,1,48,2,1,1,225,2,1,0,0,9,1,225,2,1,-143701.39943996957,-4792128.886370777,4196656.459005024,2.39409,2.77158,-0.405242,-74.1413,29.818,31.2446,-0.240111,-7.32089,6.61755,0.0413882,-0.00415599,0.00561032,4,0,41.38788409974431,-91.71761180152107,9022.29373379072,-60.08849858020159,1.7591480627206957,2.21350323490844,153.757,9023.624474727972,10930.733041558857,150,True,11.790759892561036,False,179.15571407595138,176.14737889704543,False,3.0110263362562955,True,False
8,1970-07-23 09:59:59.919554062,2025-09-10,2025-09-26 15:59:51.955,AH,C,3995927476,JASSM,3,138,76,2,2,1,225,9,2,0,1,26,0,0,0,0,-163116.52136404935,-4785382.850557174,4204042.050261021,-2.36559,-0.397301,0.382249,71.625,-29.875,-31.125,0.0,0.0,0.0,0.0,0.0,0.0,2,0,41.47417194731405,-91.95225156385553,10000.001937036372,119.85455309479086,-0.0025237863118968,0.0050433089923448,,9023.624474727972,10930.733041558857,150,8,2025-09-10,2025-09-26 15:59:51.851,AH,C,3953117492,AMBUSH51,1,1,48,2,1,1,225,2,1,0,0,9,1,225,2,1,-143763.0103388467,-4792103.987289643,4196682.26242048,2.41882,2.76735,-0.410512,-73.7807,30.1436,31.3088,-0.119857,-7.21502,6.48374,0.0229521,0.00440774,-0.00392296,4,0,41.38819543729949,-91.71835669624896,9021.55137303806,-59.71786362894343,1.8158517983227491,3.54571926318735,153.708,9023.624474727972,10930.733041558857,150,True,11.712052573657617,False,179.4366075276292,176.1237588807104,False,3.332960776772334,True,False
8,1970-07-23 09:59:59.928132446,2025-09-10,2025-09-26 15:59:52.813,AH,C,3997060734,JASSM,3,138,76,2,2,1,225,9,2,0,1,26,0,0,0,0,-163048.52185233062,-4785411.389619674,4204012.401823521,-2.36559,-0.397301,0.382249,71.625,-29.875,-31.125,0.0,0.0,0.0,0.0,0.0,0.0,2,0,41.47381583108633,-91.95142671570363,10000.001295581817,119.855099375299,-0.0018105055442475,0.0050421073872328,,9023.624474727972,10930.733041558857,150,8,2025-09-10,2025-09-26 15:59:52.751,AH,C,3954191192,AMBUSH51,1,1,48,2,1,1,225,2,1,0,0,9,1,225,2,1,-143829.2367896476,-4792076.912585728,4196710.25785021,2.38701,2.76203,-0.416492,-73.3989,30.398,31.4323,-0.0967871,-7.21953,6.5822,-0.0663179,0.00156357,0.00172585,4,0,41.388533687528856,-91.71915751366473,9020.554559345326,-59.2787266868306,1.8622990807469024,1.614897099690475,153.464,9023.624474727972,10930.733041558857,150,True,11.62814367891823,False,179.70053419258136,176.09733469763287,False,3.650134332511641,True,False
8,1970-07-23 09:59:59.938133450,2025-09-10,2025-09-26 15:59:53.813,AH,C,3998253780,JASSM,3,138,76,2,2,1,225,9,2,0,1,26,0,0,0,0,-162976.93542654935,-4785441.432588424,4203981.188932896,-2.36559,-0.397301,0.382249,71.625,-29.875,-31.125,0.0,0.0,0.0,0.0,0.0,0.0,2,0,41.47344092905186,-91.95055836791047,9999.999293724044,119.8556744605867,-0.0010596028977571,0.0050408468462049,,9023.624474727972,10930.733041558857,150,8,2025-09-10,2025-09-26 15:59:53.684,AH,C,3955304658,AMBUSH51,1,1,48,2,1,1,225,2,1,0,0,9,1,225,2,1,-143897.86125241162,-4792048.555597251,4196739.554142582,2.34404,2.75726,-0.42149,-73.1805,30.3035,31.5302,-0.0148066,-7.28634,6.56446,-0.0421581,-0.00186941,0.000621058,4,0,41.38888791456883,-91.71998744524343,9019.40493385772,-58.90010410489481,1.8902697956787733,-0.945657591896149,153.61,9023.624474727972,10930.733041558857,150,True,11.540390176571474,False,179.7988023059724,176.06831755656867,False,3.73787373754741,True,False
8,1970-07-23 09:59:59.948025676,2025-09-10,2025-09-26 15:59:54.802,AH,C,3999327522,JASSM,3,138,76,2,2,1,225,9,2,0,1,26,0,0,0,0,-162912.50720389312,-4785468.471650924,4203953.097136021,-2.36559,-0.397205,0.382249,71.625,-29.875,-31.125,0.0,0.0,0.0,0.0,0.0,0.0,2,0,41.473103508040666,-91.94977685803778,10000.001066756951,119.8525541499154,-0.0039534405663717,0.0029908492527381,,9023.624474727972,10930.733041558857,150,8,2025-09-10,2025-09-26 15:59:54.984,AH,C,3956855556,AMBUSH51,1,1,48,2,1,1,225,2,1,0,0,9,1,225,2,1,-143992.28686360008,-4792009.641287683,4196779.748233113,2.31195,2.76603,-0.412971,-73.1714,30.0629,31.2154,-0.0396345,-7.30097,6.69584,0.0139389,0.0048405,-0.0110864,4,0,41.38937390342149,-91.72112938861024,9017.831264840965,-59.57117265386511,1.8691356687659948,-2.602604584797863,153.562,9023.624474727972,10930.733041558857,150,True,11.441054653441839,False,179.57232780243956,176.03569438501276,False,3.555896341066184,True,False
8,1970-07-23 09:59:59.956395399,2025-09-10,2025-09-26 15:59:55.639,AH,C,4000401716,JASSM,3,138,76,2,2,1,225,9,2,0,1,26,0,0,0,0,-162848.05212576812,-4785495.520479049,4203924.991667271,-2.36559,-0.397205,0.382249,71.625,-29.875,-31.125,0.0,0.0,0.0,0.0,0.0,0.0,2,0,41.47276593678233,-91.94899503113324,9999.997795165476,119.8530719275106,-0.0032773394622623,0.00298966632377,,9023.624474727972,10930.733041558857,150,8,2025-09-10,2025-09-26 15:59:55.652,AH,C,3957650888,AMBUSH51,1,1,48,2,1,1,225,2,1,0,0,9,1,225,2,1,-144041.11809387396,-4791989.619191328,4196800.399775133,2.33595,2.76939,-0.411713,-73.1891,30.0714,30.9267,0.0085545,-7.40564,6.77309,0.0606608,-0.00208372,-0.0105767,4,0,41.38962370858337,-91.72171990293668,9016.979346982076,-59.74732394145853,1.943238240441396,-1.156330107780737,153.219,9023.624474727972,10930.733041558857,150,True,11.370199241859652,False,179.42024624863814,176.01192604345133,False,3.4904872934088824,True,False
8,1970-07-23 09:59:59.966139042,2025-09-10,2025-09-26 15:59:56.613,AH,C,4001534658,JASSM,3,138,76,2,2,1,225,9,2,0,1,26,0,0,0,0,-162780.07165701812,-4785524.049775924,4203895.349089146,-2.36559,-0.397205,0.382249,71.625,-29.875,-31.125,0.0,0.0,0.0,0.0,0.0,0.0,2,0,41.472409890939126,-91.94817045033491,10000.000300554668,119.85361801581335,-0.0025642558745368,0.002988414279682,,9023.624474727972,10930.733041558857,150,8,2025-09-10,2025-09-26 15:59:56.584,AH,C,3958764354,AMBUSH51,1,1,48,2,1,1,225,2,1,0,0,9,1,225,2,1,-144110.2049312545,-4791961.577567738,4196829.500981109,2.39223,2.76744,-0.412307,-73.0717,29.6688,31.2206,-0.24384,-7.31289,6.73396,0.0412988,-0.0031573,0.00432036,4,0,41.389974641436815,-91.72255527272544,9016.226725999832,-59.65140108502603,1.895747949817601,2.026489253031708,152.828,9023.624474727972,10930.733041558857,150,True,11.284580630696855,False,179.43410325873634,175.9838794465713,False,3.4528569361269073,True,False
8,1970-07-23 09:59:59.976381743,2025-09-10,2025-09-26 15:59:57.638,AH,C,4002608400,JASSM,3,138,76,2,2,1,225,9,2,0,1,26,0,0,0,0,-162715.64489920562,-4785551.084932174,4203867.255339146,-2.36559,-0.397205,0.382345,71.625,-29.875,-31.125,0.0,0.0,0.0,0.0,0.0,0.0,2,0,41.47207246344556,-91.94738898433572,9999.997260015529,119.85798294152865,-0.0058092436090517,0.0029869786494801,,9023.624474727972,10930.733041558857,150,8,2025-09-10,2025-09-26 15:59:57.651,AH,C,3960036886,AMBUSH51,1,1,48,2,1,1,225,2,1,0,0,9,1,225,2,1,-144187.99244461133,-4791929.868338672,4196862.910240453,2.43535,2.75752,-0.419986,-72.7797,28.2714,32.9002,-0.168805,-7.26031,6.59741,0.042364,-0.00519004,0.0111239,4,0,41.39037491465972,-91.72349590727332,9016.443478279773,-58.97286537058396,1.841720095643104,4.28959669759775,152.633,9023.624474727972,10930.733041558857,150,True,11.195642215413477,False,178.35769594781905,175.95343959172092,False,3.798869887277073,True,False
8,1970-07-23 09:59:59.985155711,2025-09-10,2025-09-26 15:59:58.515,AH,C,4003801446,JASSM,3,138,76,2,2,1,225,9,2,0,1,26,0,0,0,0,-162644.05652029935,-4785581.125947799,4203836.038542271,-2.36559,-0.397205,0.382345,71.625,-29.875,-31.125,0.0,0.0,0.0,0.0,0.0,0.0,2,0,41.47169751650704,-91.9465206605108,9999.998539193848,119.8585579912342,-0.005058318943773,0.0029857167266399,,9023.624474727972,10930.733041558857,150,8,2025-09-10,2025-09-26 15:59:58.684,AH,C,3961269652,AMBUSH51,1,1,48,2,1,1,225,2,1,0,0,9,1,225,2,1,-144262.33986067565,-4791898.45356548,4196895.250752462,2.44927,2.74779,-0.42667,-72.0677,30.5485,31.9507,-0.240343,-7.16551,6.52012,-0.0152227,-0.00257266,0.0218993,4,0,41.390766828481546,-91.72439535212638,9014.815667801176,-58.34237052159354,1.7577450670204873,4.877840809764471,152.23,9023.624474727972,10930.733041558857,150,True,11.104099895075475,False,179.53458272678594,175.91867702976893,False,4.52859259739354,True,False
8,1970-07-23 09:59:59.995092580,2025-09-10,2025-09-26 15:59:59.509,AH,C,4004994494,JASSM,3,138,76,2,2,1,225,9,2,0,1,26,0,0,0,0,-162572.46960623687,-4785611.165010299,4203804.821745396,-2.36559,-0.397205,0.382345,71.625,-29.875,-31.125,0.0,0.0,0.0,0.0,0.0,0.0,2,0,41.471322574326926,-91.9456523650041,9999.99874008209,119.85913301791165,-0.0043074117730708,0.0029844577766966,,9023.624474727972,10930.733041558857,150,8,2025-09-10,2025-09-26 15:59:59.518,AH,C,3962263816,AMBUSH51,1,1,48,2,1,1,225,2,1,0,0,9,1,225,2,1,-144322.18447019882,-4791872.7026011655,4196921.891387623,2.41594,2.74301,-0.430358,-71.6315,31.146,32.08,-0.0271043,-6.94959,6.5739,-0.0635965,-0.000650186,0.0140825,4,0,41.39108915866476,-91.72511951898132,9013.68664664982,-58.0169310194896,1.7344982485283802,2.864712721272194,152.181,9023.624474727972,10930.733041558857,150,True,11.021474173188441,False,179.0738235707599,175.88507899532092,False,5.040970993909051,True,False
8,1970-07-23 10:00:00.005977029,2025-09-10,2025-09-26 16:00:00.597,AH,C,4006247192,JASSM,3,138,76,2,2,1,225,9,2,0,1,26,0,0,0,0,-162497.30359061187,-4785642.706025924,4203772.044401646,-2.36559,-0.397205,0.382345,71.625,-29.875,-31.125,0.0,0.0,0.0,0.0,0.0,0.0,2,0,41.47092887988386,-91.94474066841106,10000.003480110818,119.85973678225754,-0.0035189620474025,0.0029831364298553,,9023.624474727972,10930.733041558857,150,8,2025-09-10,2025-09-26 16:00:00.384,AH,C,3963297748,AMBUSH51,1,1,48,2,1,1,225,2,1,0,0,9,1,225,2,1,-144384.30727337298,-4791845.886702837,4196949.522533018,2.36197,2.73657,-0.435792,-71.4766,31.1775,32.1546,-0.0956957,-7.07942,6.58516,-0.0787349,-0.00592241,0.00108503,4,0,41.39142409834291,-91.72587129188577,9012.257800369694,-57.559941795899256,1.7233709222720015,-0.3690352454855407,152.718,9023.624474727972,10930.733041558857,150,True,10.935160562535609,False,178.9792336429629,175.84931538272536,False,5.171307258109989,True,False
8,1970-07-23 10:00:00.015092450,2025-09-10,2025-09-26 16:00:01.509,AH,C,4007440238,JASSM,3,138,76,2,2,1,225,9,2,0,1,26,0,0,0,0,-162425.71667654935,-4785672.743135299,4203740.825651646,-2.36559,-0.397205,0.382345,71.625,-29.875,-31.125,0.0,0.0,0.0,0.0,0.0,0.0,2,0,41.47055392268106,-91.94387239421046,10000.002014429649,119.86031178606346,-0.002768054526541,0.0029818757926875,,9023.624474727972,10930.733041558857,150,8,2025-09-10,2025-09-26 16:00:01.718,AH,C,3964888414,AMBUSH51,1,1,48,2,1,1,225,2,1,0,0,9,1,225,2,1,-144480.3140597354,-4791804.143184591,4196992.474604478,2.29529,2.73892,-0.427209,-71.6812,31.0222,31.8745,-0.0122179,-7.09108,6.58427,-0.034645,-0.00655907,-0.0146463,4,0,41.39194519590636,-91.7270332323311,9009.855965260704,-57.99201025408977,1.458090578910564,-4.145127653825929,152.535,9023.624474727972,10930.733041558857,150,True,10.82963049506999,False,179.21441668523204,175.80312603822316,False,4.9791575022233046,True,False
8,1970-07-23 10:00:00.026799357,2025-09-10,2025-09-26 16:00:02.679,AH,C,4008633286,JASSM,3,138,76,2,2,1,225,9,2,0,1,26,0,0,0,0,-162354.12976248687,-4785702.780244674,4203709.606901646,-2.36559,-0.397205,0.382345,71.625,-29.875,-31.125,0.0,0.0,0.0,0.0,0.0,0.0,2,0,41.47017895889999,-91.94300413001602,10000.004146623694,119.86088677896876,-0.0020171469566273,0.0029806151269791,,9023.624474727972,10930.733041558857,150,8,2025-09-10,2025-09-26 16:00:02.684,AH,C,3966041646,AMBUSH51,1,1,48,2,1,1,225,2,1,0,0,9,1,225,2,1,-144549.70116444788,-4791774.425715065,4197022.999867769,2.28764,2.74824,-0.417615,-71.9617,30.2038,31.8843,-0.0652751,-7.15786,6.46015,0.0296828,-0.00426626,-0.00492997,4,0,41.39231561986988,-91.72787285187616,9008.11315308694,-58.72552343882396,1.4075513443846517,-4.382511526770043,152.34,9023.624474727972,10930.733041558857,150,True,10.74108702582428,False,179.6131947690929,175.76584161536275,False,4.536342509010464,True,False
8,1970-07-23 10:00:00.036395186,2025-09-10,2025-09-26 16:00:03.639,AH,C,4009886060,JASSM,3,138,76,2,2,1,225,9,2,0,1,26,0,0,0,0,-162278.95886404935,-4785734.319307174,4203676.823698521,-2.36559,-0.397205,0.382345,71.625,-29.875,-31.125,0.0,0.0,0.0,0.0,0.0,0.0,2,0,41.46978521649815,-91.94209240787032,10000.002472867698,119.86149054654813,-0.0012286462563371,0.0029792918556709,,9023.624474727972,10930.733041558857,150,8,2025-09-10,2025-09-26 16:00:03.517,AH,C,3967035812,AMBUSH51,1,1,48,2,1,1,225,2,1,0,0,9,1,225,2,1,-144609.69957578482,-4791748.893228915,4197048.995849458,2.32279,2.75582,-0.412142,-72.1595,30.4145,31.2005,-0.115754,-7.22257,6.74975,0.0399297,0.00752863,-0.00925969,4,0,41.39263224846449,-91.72859881210836,9006.146794680666,-59.22910024529909,1.4639388010957923,-2.206101885093303,152.181,9023.624474727972,10930.733041558857,150,True,10.656305152902572,False,179.7627917665677,175.73061444685695,False,4.3744470367414,True,False
8,1970-07-23 10:00:00.046149430,2025-09-10,2025-09-26 16:00:04.614,AH,C,4011138892,JASSM,3,138,76,2,2,1,225,9,2,0,1,26,0,0,0,0,-162203.78454764312,-4785765.858369674,4203644.038542271,-2.36559,-0.397109,0.382345,71.625,-29.875,-31.125,0.0,0.0,0.0,0.0,0.0,0.0,2,0,41.469391454362366,-91.94118065588415,10000.000238188442,119.85845671617626,-0.0040097614180909,0.000928625891103,,9023.624474727972,10930.733041558857,150,8,2025-09-10,2025-09-26 16:00:04.784,AH,C,3968546944,AMBUSH51,1,1,48,2,1,1,225,2,1,0,0,9,1,225,2,1,-144700.70411813413,-4791710.627327054,4197088.135128299,2.37914,2.75467,-0.41603,-72.208,30.2548,31.2748,-0.0805067,-7.26274,6.61165,0.0388936,-0.00834422,0.00911613,4,0,41.39310778778702,-91.72969978318793,9003.672792143885,-59.03014246760853,1.5808212850226866,1.001433384576372,152.132,9023.624474727972,10930.733041558857,150,True,10.552197527662765,False,179.88370042045614,175.6878119102007,False,4.344744032443994,True,False
8,1970-07-23 10:00:00.057131682,2025-09-10,2025-09-26 16:00:05.713,AH,C,4012391382,JASSM,3,138,76,2,2,1,225,9,2,0,1,26,0,0,0,0,-162128.63025076812,-4785797.389619674,4203611.261198521,-2.36559,-0.397109,0.382345,71.625,-29.875,-31.125,0.0,0.0,0.0,0.0,0.0,0.0,2,0,41.4689977801504,-91.9402691574966,10000.00141579821,119.85906032623916,-0.0032214329353918,0.000927248971578,,9023.624474727972,10930.733041558857,150,8,2025-09-10,2025-09-26 16:00:05.650,AH,C,3969580876,AMBUSH51,1,1,48,2,1,1,225,2,1,0,0,9,1,225,2,1,-144763.13083003258,-4791684.270321613,4197115.194594214,2.41684,2.75616,-0.417624,-72.0401,30.3693,31.6167,-0.248996,-7.13421,6.91461,0.0470287,0.00735178,0.00251232,4,0,41.39343605356503,-91.73045506853028,9002.171955179487,-59.02217553760497,1.701591006697167,3.196413559522417,152.376,9023.624474727972,10930.733041558857,150,True,10.465942668188662,False,179.73962202522085,175.65108115250547,False,4.607251729535094,True,False
8,1970-07-23 10:00:00.067131593,2025-09-10,2025-09-26 16:00:06.713,AH,C,4013644074,JASSM,3,138,76,2,2,1,225,9,2,0,1,26,0,0,0,0,-162053.46423514312,-4785828.924775924,4203578.477995396,-2.36559,-0.397109,0.382345,71.625,-29.875,-31.125,0.0,0.0,0.0,0.0,0.0,0.0,2,0,41.468604038273085,-91.9393575284198,10000.002451366005,119.8596640181339,-0.002432982224699,0.0009258724953709,,9023.624474727972,10930.733041558857,150,8,2025-09-10,2025-09-26 16:00:06.884,AH,C,3971052240,AMBUSH51,1,1,48,2,1,1,225,2,1,0,0,9,1,225,2,1,-144852.34447056733,-4791646.166428213,4197154.010567184,2.44518,2.74814,-0.426682,-71.7019,30.8445,32.1201,-0.15076,-6.9969,6.79652,0.0204928,0.0051193,0.0187534,4,0,41.39390875071593,-91.73153461358513,8999.27171948795,-58.35949194490512,1.777078680525526,4.651835580622164,152.327,9023.624474727972,10930.733041558857,150,True,10.362791629148496,False,179.2190501216211,175.60519332789855,False,5.167007205407705,True,False
8,1970-07-23 10:00:00.077131836,2025-09-10,2025-09-26 16:00:07.713,AH,C,4014837128,JASSM,3,138,76,2,2,1,225,9,2,0,1,26,0,0,0,0,-161981.87683279935,-4785858.956025924,4203547.255339146,-2.36559,-0.397109,0.382441,71.625,-29.875,-31.125,0.0,0.0,0.0,0.0,0.0,0.0,2,0,41.46822904894438,-91.93848931279156,10000.000368701938,119.86408649212868,-0.0056027262291389,0.000924328212327,,9023.624474727972,10930.733041558857,150,8,2025-09-10,2025-09-26 16:00:07.717,AH,C,3972046406,AMBUSH51,1,1,48,2,1,1,225,2,1,0,0,9,1,225,2,1,-144912.25161075543,-4791620.283059565,4197180.41133152,2.44563,2.73933,-0.433718,-71.4817,31.3492,32.396,-0.166053,-6.85288,6.78263,-0.0168372,0.00214613,0.0092368,4,0,41.39423019301972,-91.73225964635476,8997.326272140222,-57.74982763683055,1.7441040448651255,4.485911294647474,152.731,9023.624474727972,10930.733041558857,150,True,10.280184929819498,False,178.81783045481396,175.56682609721713,False,5.61329006864304,True,False
8,1970-07-23 10:00:00.089715040,2025-09-10,2025-09-26 16:00:08.971,AH,C,4016089826,JASSM,3,138,76,2,2,1,225,9,2,0,1,26,0,0,0,0,-161906.71032889312,-4785890.489229049,4203514.470182896,-2.36559,-0.397109,0.382441,71.625,-29.875,-31.125,0.0,0.0,0.0,0.0,0.0,0.0,2,0,41.46783529146982,-91.9375777002037,10000.000065878485,119.86469016399155,-0.0048142713248274,0.0009230052561129,,9023.624474727972,10930.733041558857,150,8,2025-09-10,2025-09-26 16:00:08.950,AH,C,3973517772,AMBUSH51,1,1,48,2,1,1,225,2,1,0,0,9,1,225,2,1,-145000.15362082297,-4791581.539979281,4197220.11627526,2.37265,2.73385,-0.437772,-71.3743,31.6033,32.9476,-0.00872882,-6.90947,6.73227,-0.0525714,0.00581422,0.00608054,4,0,41.39471291376366,-91.73332377960992,8994.693898723166,-57.384565853464025,1.7126241202164494,0.1828516000742349,153.073,9023.624474727972,10930.733041558857,150,True,10.177410150216472,False,178.45733821343086,175.51468536980306,False,6.009706177859849,True,False
8,1970-07-23 10:00:00.099152515,2025-09-10,2025-09-26 16:00:09.915,AH,C,4017402176,JASSM,3,138,76,2,2,1,225,9,2,0,1,26,0,0,0,0,-161827.96472342435,-4785923.522432174,4203480.122526646,-2.36549,-0.397109,0.382441,71.625,-29.875,-31.125,0.0,0.0,0.0,0.0,0.0,0.0,2,0,41.46742277644676,-91.93662269302226,9999.997310721888,119.86532256679526,-0.0039882735850812,0.0064130904882808,,9023.624474727972,10930.733041558857,150,8,2025-09-10,2025-09-26 16:00:09.783,AH,C,3974511938,AMBUSH51,1,1,48,2,1,1,225,2,1,0,0,9,1,225,2,1,-145059.7374569554,-4791555.095861722,4197247.344008784,2.31881,2.73691,-0.436074,-71.5265,31.6909,32.8456,-0.0895917,-7.2042,6.64463,-0.0586488,-0.00157605,-0.0118188,4,0,41.3950433221633,-91.73404517084332,8993.145271024878,-57.566721131592416,1.754424098971849,-2.8331909416510745,153.268,9023.624474727972,10930.733041558857,150,True,10.09024214787922,False,178.51794150134845,175.46979920643386,False,6.004527582676976,True,False
8,1970-07-23 10:00:00.109171558,2025-09-10,2025-09-26 16:00:10.917,AH,C,4018595222,JASSM,3,138,76,2,2,1,225,9,2,0,1,26,0,0,0,0,-161756.37829764312,-4785953.551729049,4203448.897917271,-2.36549,-0.397109,0.382441,71.625,-29.875,-31.125,0.0,0.0,0.0,0.0,0.0,0.0,2,0,41.46704776466522,-91.93575452137894,9999.99760024772,119.86589746288548,-0.0032373748976759,0.0064118349786602,,9023.624474727972,10930.733041558857,150,8,2025-09-10,2025-09-26 16:00:11.084,AH,C,3976062836,AMBUSH51,1,1,48,2,1,1,225,2,1,0,0,9,1,225,2,1,-145153.8820598853,-4791514.031677421,4197289.669222306,2.23694,2.75021,-0.424158,-72.2849,31.0556,32.4082,-0.202368,-7.0369,6.92659,-0.0450376,-0.000254873,-0.0124326,4,0,41.39555639993599,-91.73518475000634,8990.962029641838,-58.540350159881086,1.7530441332446915,-7.2362186698159,153.562,9023.624474727972,10930.733041558857,150,True,9.985879905241928,False,179.22329275772475,175.4157222942882,False,5.347233284788026,True,False
8,1970-07-23 10:00:00.123148196,2025-09-10,2025-09-26 16:00:12.314,AH,C,4019788268,JASSM,3,138,76,2,2,1,225,9,2,0,1,26,0,0,0,0,-161684.78991873687,-4785983.581025924,4203417.671354771,-2.36549,-0.397109,0.382441,71.625,-29.875,-31.125,0.0,0.0,0.0,0.0,0.0,0.0,2,0,41.46667273352869,-91.93488633638565,9999.997082227022,119.86647236354142,-0.0024864546211595,0.0064105770743993,,9023.624474727972,10930.733041558857,150,8,2025-09-10,2025-09-26 16:00:12.317,AH,C,3977534200,AMBUSH51,1,1,48,2,1,1,225,2,1,0,0,9,1,225,2,1,-145243.1160942288,-4791476.184015776,4197328.5658052815,2.22021,2.76606,-0.40903,-73.2341,30.4865,31.2508,-0.114062,-7.08458,6.7812,0.0415235,0.000693878,-0.023389,4,0,41.39602806940118,-91.73626451648512,8988.893258852586,-59.74182456795316,1.7235015673544585,-7.86359022857479,153.953,9023.624474727972,10930.733041558857,150,True,9.885019184597098,False,179.64613646889575,175.36671976877713,False,4.424714850564203,True,False
8,1970-07-23 10:00:00.129155780,2025-09-10,2025-09-26 16:00:12.915,AH,C,4020981316,JASSM,3,138,76,2,2,1,225,9,2,0,1,26,0,0,0,0,-161613.20251639312,-4786013.610322799,4203386.444792271,-2.36549,-0.397109,0.382441,71.625,-29.875,-31.125,0.0,0.0,0.0,0.0,0.0,0.0,2,0,41.46629769561896,-91.93401817307576,10000.00024322394,119.86704724556434,-0.0017355417861702,0.0064093146135857,,9023.624474727972,10930.733041558857,150,8,2025-09-10,2025-09-26 16:00:12.783,AH,C,3978090934,AMBUSH51,1,1,48,2,1,1,225,2,1,0,0,9,1,225,2,1,-145277.86352453078,-4791461.802964741,4197343.264337649,2.23781,2.77224,-0.402833,-73.5508,29.9899,31.1638,-0.0786151,-7.10361,6.68002,0.0478318,-0.000358903,-0.0164065,4,0,41.39620658884665,-91.73668484896204,8987.995480157017,-60.22333497704577,1.7026878518870563,-6.729429885537167,154.001,9023.624474727972,10930.733041558857,150,True,9.818489839091102,False,179.39344847636627,175.33556630466234,False,4.076862058154705,True,False
8,1970-07-23 10:00:00.139150386,2025-09-10,2025-09-26 16:00:13.915,AH,C,4022174362,JASSM,3,138,76,2,2,1,225,9,2,0,1,26,0,0,0,0,-161541.61560233062,-4786043.637666549,4203355.218229771,-2.36549,-0.397013,0.382441,71.625,-29.875,-31.125,0.0,0.0,0.0,0.0,0.0,0.0,2,0,41.46592266266737,-91.93315002639886,10000.002243605895,119.86398476800008,-0.0045542808833946,0.0043582585082171,,9023.624474727972,10930.733041558857,150,8,2025-09-10,2025-09-26 16:00:14.050,AH,C,3979602066,AMBUSH51,1,1,48,2,1,1,225,2,1,0,0,9,1,225,2,1,-145371.0366141731,-4791424.226460687,4197381.50423559,2.31747,2.78608,-0.397216,-74.1295,29.345,30.6139,-0.226558,-7.25806,6.92777,0.0668651,0.00883317,-0.00874786,4,0,41.396671486752815,-91.73781159890908,8985.470827802337,-60.96763594755487,1.9952689285991092,-1.880679833541983,153.904,9023.624474727972,10930.733041558857,150,True,9.715904693512552,False,178.7099665877717,175.29205475211785,False,3.4399571754606137,True,False
8,1970-07-23 10:00:00.152771093,2025-09-10,2025-09-26 16:00:15.277,AH,C,4023367598,JASSM,3,138,76,2,2,1,225,9,2,0,1,26,0,0,0,0,-161470.01648123687,-4786073.668916549,4203323.985807896,-2.36549,-0.397013,0.382441,71.625,-29.875,-31.125,0.0,0.0,0.0,0.0,0.0,0.0,2,0,41.465547562812446,-91.93228174218292,10000.003698659966,119.864559721615,-0.0038032521617491,0.0043569585885888,,9023.624474727972,10930.733041558857,150,8,2025-09-10,2025-09-26 16:00:15.284,AH,C,3981073430,AMBUSH51,1,1,48,2,1,1,225,2,1,0,0,9,1,225,2,1,-145463.21508333925,-4791387.543887144,4197419.04373562,2.38424,2.78088,-0.402728,-74.1781,29.2106,30.7706,-0.176105,-7.22719,6.68498,0.0492113,-0.00429955,-0.00331127,4,0,41.39712650683072,-91.73892615815406,8983.557335602874,-60.550425210377405,2.0231453317754244,1.843345419270832,154.001,9023.624474727972,10930.733041558857,150,True,9.614065372096109,False,178.69609148142789,175.24949523623192,False,3.44909996846778,True,False
8,1970-07-23 10:00:00.159130742,2025-09-10,2025-09-26 16:00:15.913,AH,C,4024620108,JASSM,3,138,76,2,2,1,225,9,2,0,1,26,0,0,0,0,-161394.86120779935,-4786105.190400924,4203291.198698521,-2.36549,-0.397013,0.382441,71.625,-29.875,-31.125,0.0,0.0,0.0,0.0,0.0,0.0,2,0,41.46515381033227,-91.93137034373282,9999.99830050882,119.8651632196746,-0.0030149143897924,0.0043555806377528,,9023.624474727972,10930.733041558857,150,8,2025-09-10,2025-09-26 16:00:16.117,AH,C,3982067596,AMBUSH51,1,1,48,2,1,1,225,2,1,0,0,9,1,225,2,1,-145524.93331024123,-4791362.776761406,4197444.516690419,2.41936,2.77712,-0.405332,-73.9432,29.5817,30.9803,-0.166041,-7.12213,6.88083,0.0258129,0.010352,0.00754528,4,0,41.39743467133829,-91.73967249654838,8982.506025158506,-60.3052596363412,1.988347474952852,3.779545997491155,153.855,9023.624474727972,10930.733041558857,150,True,9.528734208557493,False,179.01852066979347,175.21063890816026,False,3.8137426023093606,True,False
8,1970-07-23 10:00:00.169151908,2025-09-10,2025-09-26 16:00:16.915,AH,C,4025813288,JASSM,3,138,76,2,2,1,225,9,2,0,1,26,0,0,0,0,-161323.26599295562,-4786135.217744674,4203259.966276646,-2.36549,-0.397013,0.382441,71.625,-29.875,-31.125,0.0,0.0,0.0,0.0,0.0,0.0,2,0,41.46477871947497,-91.93050212831494,9999.997857705866,119.865738118968,-0.0022639281394373,0.0043542821370676,,9023.624474727972,10930.733041558857,150,8,2025-09-10,2025-09-26 16:00:16.917,AH,C,3983021994,AMBUSH51,1,1,48,2,1,1,225,2,1,0,0,9,1,225,2,1,-145584.10065064687,-4791338.77499312,4197469.161248573,2.43911,2.77004,-0.411764,-73.6592,29.9383,31.3655,-0.116959,-7.00902,6.66124,0.0200933,-0.00934707,0.0107681,4,0,41.3977331462993,-91.74038808835876,8981.352132627557,-59.78176787752834,1.985681941551008,4.768433459759742,153.904,9023.624474727972,10930.733041558857,150,True,9.447136147787882,False,179.4155769661001,175.17188299726084,False,4.2440993363041075,True,False
8,1970-07-23 10:00:00.180149995,2025-09-10,2025-09-26 16:00:18.014,AH,C,4027065852,JASSM,3,138,76,2,2,1,225,9,2,0,1,26,0,0,0,0,-161248.10681326812,-4786166.741182174,4203227.177214146,-2.36549,-0.397013,0.382536,71.625,-29.875,-31.125,0.0,0.0,0.0,0.0,0.0,0.0,2,0,41.46438492882217,-91.92959070390096,10000.000435400892,119.87018930158914,-0.0053960585777599,0.0043526702884989,,9023.624474727972,10930.733041558857,150,8,2025-09-10,2025-09-26 16:00:18.183,AH,C,3984533126,AMBUSH51,1,1,48,2,1,1,225,2,1,0,0,9,1,225,2,1,-145676.69992289395,-4791300.453572117,4197508.667854102,2.44085,2.757,-0.422639,-73.1036,30.569,32.0281,-0.129593,-7.06567,6.69959,-0.00391672,0.00618873,0.0043911,4,0,41.39821109531588,-91.74150830691028,8979.719858467604,-58.85824109805881,1.9460526159842069,4.597000272005604,154.001,9023.624474727972,10930.733041558857,150,True,9.34226340291044,False,179.83807464779804,175.11883912338362,False,5.004374015590585,True,False
8,1970-07-23 10:00:00.189109829,2025-09-10,2025-09-26 16:00:18.910,AH,C,4028199536,JASSM,3,138,76,2,2,1,225,9,2,0,1,26,0,0,0,0,-161180.08142264312,-4786195.270479049,4203197.501432896,-2.36549,-0.397013,0.382536,71.625,-29.875,-31.125,0.0,0.0,0.0,0.0,0.0,0.0,2,0,41.4640285284861,-91.9287657983506,10000.003453628622,119.87073551458516,-0.0046825178023009,0.0043514848661636,,9023.624474727972,10930.733041558857,150,8,2025-09-10,2025-09-26 16:00:18.883,AH,C,3985368226,AMBUSH51,1,1,48,2,1,1,225,2,1,0,0,9,1,225,2,1,-145728.23717028502,-4791278.822926784,4197530.939252913,2.43359,2.75181,-0.422962,-72.9628,30.9243,32.3375,-0.401423,-7.17092,6.76082,-0.0484768,-0.00356926,0.00749118,4,0,41.39848081196663,-91.7421318951929,8978.685236221263,-58.65276534952538,1.769055897187281,4.065604466870879,154.001,9023.624474727972,10930.733041558857,150,True,9.26738861418158,False,179.54045888365778,175.07863991138913,False,5.3627051866924935,True,False
8,1970-07-23 10:00:00.199109964,2025-09-10,2025-09-26 16:00:19.910,AH,C,4029392460,JASSM,3,138,76,2,2,1,225,9,2,0,1,26,0,0,0,0,-161108.50134451812,-4786225.288057174,4203166.272917271,-2.36549,-0.397013,0.382536,71.625,-29.875,-31.125,0.0,0.0,0.0,0.0,0.0,0.0,2,0,41.46365349936888,-91.9278977978808,9999.999548316113,119.87131025880755,-0.0039316920655016,0.0043502383386093,,9023.624474727972,10930.733041558857,150,8,2025-09-10,2025-09-26 16:00:20.117,AH,C,3986839590,AMBUSH51,1,1,48,2,1,1,225,2,1,0,0,9,1,225,2,1,-145818.67736675462,-4791239.962155025,4197570.927180388,2.34075,2.74312,-0.429721,-72.7984,31.1876,32.6018,-0.07569,-6.96731,6.73375,-0.0682175,-0.00968413,0.00794891,4,0,41.39896559309437,-91.74322654045685,8976.618150771485,-58.05857415393148,1.7282005905439624,-1.4409724637763053,153.904,9023.624474727972,10930.733041558857,150,True,9.165639155486868,False,179.27181743123265,175.0194342115918,False,5.68987825508662,True,False
8,1970-07-23 10:00:00.216012619,2025-09-10,2025-09-26 16:00:21.601,AH,C,4030644992,JASSM,3,138,76,2,2,1,225,9,2,0,1,26,0,0,0,0,-161033.34460623687,-4786256.807588424,4203133.481901646,-2.36549,-0.397013,0.382536,71.625,-29.875,-31.125,0.0,0.0,0.0,0.0,0.0,0.0,2,0,41.46325969760852,-91.92698643574538,9999.999818821329,119.8719137102442,-0.0031433358905973,0.0043489069181673,,9023.624474727972,10930.733041558857,150,8,2025-09-10,2025-09-26 16:00:21.817,AH,C,3988867688,AMBUSH51,1,1,48,2,1,1,225,2,1,0,0,9,1,225,2,1,-145942.8085414319,-4791187.094880579,4197625.541198701,2.2824,2.7557,-0.411438,-73.1864,30.9377,31.9946,-0.0997445,-7.11852,6.53148,-0.0281224,-0.0114838,-0.0179503,4,0,41.39962632819512,-91.744728821143,8974.36015272187,-59.26367048853723,1.444815274065476,-4.523500410658508,153.953,9023.624474727972,10930.733041558857,150,True,9.040585079939834,False,179.73393885117048,174.94596630703526,False,5.312118161678171,True,False
8,1970-07-23 10:00:00.221172051,2025-09-10,2025-09-26 16:00:22.117,AH,C,4031897690,JASSM,3,138,76,2,2,1,225,9,2,0,1,26,0,0,0,0,-160958.17761404935,-4786288.329072799,4203100.686979771,-2.36549,-0.397013,0.382536,71.625,-29.875,-31.125,0.0,0.0,0.0,0.0,0.0,0.0,2,0,41.46286585267835,-91.92607496124349,9999.999521180036,119.87251723136946,-0.0023548815857137,0.0043475903730313,,9023.624474727972,10930.733041558857,150,8,2025-09-10,2025-09-26 16:00:22.250,AH,C,3989384654,AMBUSH51,1,1,48,2,1,1,225,2,1,0,0,9,1,225,2,1,-145974.0644104572,-4791173.839439451,4197639.058739508,2.27145,2.75753,-0.409515,-73.3275,30.6803,31.8872,-0.111556,-7.1203,6.6041,-0.00905579,0.000142521,-0.00452841,4,0,41.39979078034411,-91.74510707537596,8973.424073081698,-59.409912972489536,1.434646074846634,-5.112495182745728,153.953,9023.624474727972,10930.733041558857,150,True,8.973920308544532,False,179.94103801188567,174.90727061226093,False,5.145287810781636,True,False
8,1970-07-23 10:00:00.230131547,2025-09-10,2025-09-26 16:00:23.013,AH,C,4033090818,JASSM,3,138,76,2,2,1,225,9,2,0,1,26,0,0,0,0,-160886.58484061187,-4786318.350557174,4203069.452604771,-2.36549,-0.397013,0.382536,71.625,-29.875,-31.125,0.0,0.0,0.0,0.0,0.0,0.0,2,0,41.46249074294275,-91.9252068384118,10000.002588607756,119.8730920433608,-0.0016039260297711,0.0043463487683446,,9023.624474727972,10930.733041558857,150,8,2025-09-10,2025-09-26 16:00:22.983,AH,C,3990259520,AMBUSH51,1,1,48,2,1,1,225,2,1,0,0,9,1,225,2,1,-146027.89621014733,-4791151.52884579,4197661.877426249,2.28169,2.75818,-0.409783,-73.5511,30.3907,31.355,-0.15461,-7.35627,6.62645,0.0475634,-0.00915358,-0.00143457,4,0,41.40006780143207,-91.74575835591484,8972.08711270915,-59.42389870873094,1.4702512845752436,-4.511251418810107,154.099,9023.624474727972,10930.733041558857,150,True,8.895519240045038,False,179.60761849649035,174.86299835104242,False,4.806135779701472,True,False
8,1970-07-23 10:00:00.241991437,2025-09-10,2025-09-26 16:00:24.199,AH,C,4034284102,JASSM,3,138,76,2,2,1,225,9,2,0,1,26,0,0,0,0,-160814.98327811187,-4786348.375947799,4203038.210417271,-2.36549,-0.396918,0.382536,71.625,-29.875,-31.125,0.0,0.0,0.0,0.0,0.0,0.0,2,0,41.46211555243712,-91.92433861892452,10000.00115608509,119.87002983960826,-0.0044224993837378,0.0022947844919228,,9023.624474727972,10930.733041558857,150,8,2025-09-10,2025-09-26 16:00:24.283,AH,C,3991810420,AMBUSH51,1,1,48,2,1,1,225,2,1,0,0,9,1,225,2,1,-146124.2898869414,-4791112.306738721,4197701.902823041,2.36631,2.76591,-0.401397,-73.6696,29.9977,31.0133,-0.0517858,-7.17495,6.35516,0.0538739,0.00655491,0.00433284,4,0,41.400553870641446,-91.74692431722016,8969.678295821705,-60.05208470656442,1.4173842993702228,0.4958694060494766,153.562,9023.624474727972,10930.733041558857,150,True,8.790846266445051,False,179.2857876549932,174.8067187001504,False,4.524064067845917,True,False
8,1970-07-23 10:00:00.251737671,2025-09-10,2025-09-26 16:00:25.173,AH,C,4035536484,JASSM,3,138,76,2,2,1,225,9,2,0,1,26,0,0,0,0,-160739.83532889312,-4786379.885713424,4203005.421354771,-2.36549,-0.396918,0.382536,71.625,-29.875,-31.125,0.0,0.0,0.0,0.0,0.0,0.0,2,0,41.461721791948726,-91.92342740887048,9999.997885336936,119.87063317202995,-0.003634248576976,0.0022934225479572,,9023.624474727972,10930.733041558857,150,8,2025-09-10,2025-09-26 16:00:25.116,AH,C,3992804584,AMBUSH51,1,1,48,2,1,1,225,2,1,0,0,9,1,225,2,1,-146185.59639896758,-4791086.871953946,4197727.525034537,2.45708,2.75901,-0.409947,-73.4529,30.3953,31.1767,-0.19138,-7.26361,6.9469,0.142441,0.00554166,0.0298056,4,0,41.40086703788891,-91.74766605784043,8967.305778479416,-59.44931556596897,1.5090841184000587,5.555877484254157,153.513,9023.624474727972,10930.733041558857,150,True,8.705627275011118,False,179.53589512368106,174.7572157400749,False,4.893500964715223,True,False
8,1970-07-23 10:00:00.261130616,2025-09-10,2025-09-26 16:00:26.113,AH,C,4036789182,JASSM,3,138,76,2,2,1,225,9,2,0,1,26,0,0,0,0,-160664.66833670562,-4786411.405244674,4202972.624479771,-2.36549,-0.396918,0.382536,71.625,-29.875,-31.125,0.0,0.0,0.0,0.0,0.0,0.0,2,0,41.46132791717398,-91.9225159782234,10000.00403438221,119.87123664579812,-0.0028457938891488,0.0022920542009247,,9023.624474727972,10930.733041558857,150,8,2025-09-10,2025-09-26 16:00:25.984,AH,C,3993838516,AMBUSH51,1,1,48,2,1,1,225,2,1,0,0,9,1,225,2,1,-146249.03754515902,-4791060.146036502,4197754.647903863,2.59112,2.7486,-0.42426,-72.9242,31.0302,32.2567,-0.219167,-7.0447,7.19093,0.151535,0.00913693,0.0207862,4,0,41.40119762496472,-91.74843378073146,8965.176201790098,-58.48521008368785,1.709723455926615,13.021275222526798,153.806,9023.624474727972,10930.733041558857,150,False,8.618903293065083,False,179.5205423610496,174.7037742717392,False,5.773174241547902,True,False
8,1970-07-23 10:00:00.271642902,2025-09-10,2025-09-26 16:00:27.164,AH,C,4037982230,JASSM,3,138,76,2,2,1,225,9,2,0,1,26,0,0,0,0,-160593.08044608062,-4786441.420869674,4202941.386198521,-2.36549,-0.396918,0.382536,71.625,-29.875,-31.125,0.0,0.0,0.0,0.0,0.0,0.0,2,0,41.46095278805548,-91.92164795714862,9999.999372865075,119.87181137296574,-0.0020948814541455,0.0022907487078682,,9023.624474727972,10930.733041558857,150,8,2025-09-10,2025-09-26 16:00:26.983,AH,C,3995031516,AMBUSH51,1,1,48,2,1,1,225,2,1,0,0,9,1,225,2,1,-146321.11249013714,-4791028.164349048,4197786.866693869,2.73881,2.72111,-0.444981,-71.7871,33.0013,33.9176,-0.252294,-6.96002,7.23418,0.126715,0.00424753,0.0528357,4,0,41.40159230877462,-91.74930658440772,8961.826686455412,-56.63344816022863,1.563820340536999,20.87309663551814,154.197,9023.624474727972,10930.733041558857,150,False,8.528527587386046,False,177.6594642477782,174.64033938930254,False,7.694310584989144,True,False
8,1970-07-23 10:00:00.283185259,2025-09-10,2025-09-26 16:00:28.318,AH,C,4039294580,JASSM,3,138,76,2,2,1,225,9,2,0,1,26,0,0,0,0,-160514.33386404935,-4786474.438447799,4202907.024870396,-2.36549,-0.396918,0.382632,71.625,-29.875,-31.125,0.0,0.0,0.0,0.0,0.0,0.0,2,0,41.46054014135506,-91.92069314653224,10000.00106579752,119.87629137736108,-0.0051892523930103,0.0022890979353279,,9023.624474727972,10930.733041558857,150,8,2025-09-10,2025-09-26 16:00:28.383,AH,C,3996701714,AMBUSH51,1,1,48,2,1,1,225,2,1,0,0,9,1,225,2,1,-146420.05792028463,-4790978.875848412,4197836.104634193,2.91367,2.64757,-0.483894,-69.01,37.1056,37.3483,-0.254544,-7.13423,7.32104,0.0807843,0.00981313,0.0664781,4,0,41.40219995993531,-91.75050676421986,8954.85723172662,-52.35926981609149,0.6214725997344964,29.08490631615778,155.81,9023.624474727972,10930.733041558857,150,False,8.414976267448461,False,173.69822585662595,174.53499048572561,False,11.757080003036371,True,False
8,1970-07-23 10:00:00.293111240,2025-09-10,2025-09-26 16:00:29.311,AH,C,4040547278,JASSM,3,138,76,2,2,1,225,9,2,0,1,26,0,0,0,0,-160439.16687186187,-4786505.954072799,4202874.224089146,-2.36549,-0.396918,0.382632,71.625,-29.875,-31.125,0.0,0.0,0.0,0.0,0.0,0.0,2,0,41.46014624175435,-91.91978175054196,10000.001030576535,119.87689481412907,-0.0044007969360605,0.0022877791867671,,9023.624474727972,10930.733041558857,150,8,2025-09-10,2025-09-26 16:00:29.350,AH,C,3997854946,AMBUSH51,1,1,48,2,1,1,225,2,1,0,0,9,1,225,2,1,-146486.1632051386,-4790940.739666078,4197873.471108873,3.00112,2.59211,-0.514641,-66.2803,40.4162,40.1267,-0.149075,-7.13854,7.42831,0.0572861,0.0257401,0.0582182,4,0,41.40266708118627,-91.75131051742268,8947.098567305151,-49.10210341310946,0.0983987476012608,32.593942592132564,156.714,9023.624474727972,10930.733041558857,150,False,8.323409541524269,False,170.35726375115715,174.43046638597235,False,15.200186809718193,True,False
8,1970-07-23 10:00:00.307598777,2025-09-10,2025-09-26 16:00:30.759,AH,C,4041859630,JASSM,3,138,76,2,2,1,225,9,2,0,1,26,0,0,0,0,-160360.42028983062,-4786538.967744674,4202839.860807896,-2.36549,-0.396918,0.382632,71.625,-29.875,-31.125,0.0,0.0,0.0,0.0,0.0,0.0,2,0,41.45973358959673,-91.91882696515115,9999.997390862078,119.87752697403332,-0.0035748011467519,0.0022864088378906,,9023.624474727972,10930.733041558857,150,8,2025-09-10,2025-09-26 16:00:30.817,AH,C,3999604678,AMBUSH51,1,1,48,2,1,1,225,2,1,0,0,9,1,225,2,1,-146579.34799329002,-4790876.79716066,4197935.03392993,3.11844,2.49305,-0.574468,-60.7661,46.1843,44.842,-0.307563,-8.13194,8.35063,0.0280204,0.045589,0.0571924,4,0,41.40344614737059,-91.75244726519249,8930.406245619892,-43.17580659907768,-0.3117810598901374,36.36144185559191,158.584,9023.624474727972,10930.733041558857,150,False,8.208274630073308,False,164.36196224273675,174.24550497300356,False,21.378875507524253,True,False
8,1970-07-23 10:00:00.314109358,2025-09-10,2025-09-26 16:00:31.410,AH,C,4043112332,JASSM,3,138,76,2,2,1,225,9,2,0,1,26,0,0,0,0,-160285.25280936187,-4786570.481416549,4202807.060026646,-2.36549,-0.396918,0.382632,71.625,-29.875,-31.125,0.0,0.0,0.0,0.0,0.0,0.0,2,0,41.45933968688459,-91.91791558668928,10000.000638110225,119.87813038954324,-0.0027863481363092,0.0022851020822583,,9023.624474727972,10930.733041558857,150,8,2025-09-10,2025-09-26 16:00:31.283,AH,C,4000161410,AMBUSH51,1,1,48,2,1,1,225,2,1,0,0,9,1,225,2,1,-146607.56981181505,-4790854.511287247,4197956.509036318,-3.13529,2.46291,-0.593793,-58.6713,47.9709,46.6907,-0.27112,-8.29237,8.62502,0.0174739,0.0511504,0.0576564,4,0,41.4037185734236,-91.7527926125666,8924.3105357466,-41.3594707145776,-0.300468588351564,37.087476777635935,159.097,9023.624474727972,10930.733041558857,150,False,8.1403727250003,False,162.25293102461603,174.15118187622673,False,23.577559730101328,True,False
8,1970-07-23 10:00:00.326064287,2025-09-10,2025-09-26 16:00:32.606,AH,C,4044305378,JASSM,3,138,76,2,2,1,225,9,2,0,1,26,0,0,0,0,-160213.66491873687,-4786600.493135299,4202775.817839146,-2.36549,-0.396918,0.382632,71.625,-29.875,-31.125,0.0,0.0,0.0,0.0,0.0,0.0,2,0,41.4589645198415,-91.91704762020127,9999.996961158138,119.87870505799272,-0.0020354348358561,0.002283843609549,,9023.624474727972,10930.733041558857,150,8,2025-09-10,2025-09-26 16:00:32.683,AH,C,4001831608,AMBUSH51,1,1,48,2,1,1,225,2,1,0,0,9,1,225,2,1,-146684.44737161128,-4790783.464732345,4198025.811403488,-3.02254,2.34823,-0.663045,-50.864,52.9121,52.56,-0.266767,-9.14599,9.29398,0.0282389,0.0523925,0.0651091,4,0,41.40459511095493,-91.75373715298711,8905.72137931526,-34.733645412550324,-0.0766695932639258,39.65789639457381,160.613,9023.624474727972,10930.733041558857,150,False,8.035362277494848,False,155.33965308520192,173.8996194511402,False,30.722153566165524,False,False
8,1970-07-23 10:00:00.339643442,2025-09-10,2025-09-26 16:00:33.964,AH,C,4045438768,JASSM,3,138,76,2,2,1,225,9,2,0,1,26,0,0,0,0,-160145.65661795562,-4786629.004854049,4202746.140104771,-2.36549,-0.396822,0.382632,71.625,-29.875,-31.125,0.0,0.0,0.0,0.0,0.0,0.0,2,0,41.45860811734138,-91.91622306340471,10000.003347599011,119.87561417488854,-0.0048917030726451,0.0002319009687429,,9023.624474727972,10930.733041558857,150,8,2025-09-10,2025-09-26 16:00:34.084,AH,C,4003501806,AMBUSH51,1,1,48,2,1,1,225,2,1,0,0,9,1,225,2,1,-146748.9797537811,-4790706.027827898,4198103.563245332,-2.94171,2.20216,-0.734431,-41.1427,57.0301,58.6338,-0.259994,-9.68155,9.82388,-0.0568699,0.0576106,0.072697,4,0,41.40556895198263,-91.75453655242532,8888.8267213776,-27.144229424977357,0.2367655938880161,38.90691924775964,161.493,9023.624474727972,10930.733041558857,150,False,7.936380082491348,False,147.76353913174756,173.58767309106213,False,38.58264995873513,False,False
8,1970-07-23 10:00:00.343150543,2025-09-10,2025-09-26 16:00:34.315,AH,C,4046572360,JASSM,3,138,76,2,2,1,225,9,2,0,1,26,0,0,0,0,-160077.63611014312,-4786657.518525924,4202716.454557896,-2.36549,-0.396822,0.382632,71.625,-29.875,-31.125,0.0,0.0,0.0,0.0,0.0,0.0,2,0,41.45825164701673,-91.91539836890249,9999.99980753118,119.87616018581896,-0.0041782167224817,0.000230671061355,,9023.624474727972,10930.733041558857,150,8,2025-09-10,2025-09-26 16:00:34.483,AH,C,4003979006,AMBUSH51,1,1,48,2,1,1,225,2,1,0,0,9,1,225,2,1,-146764.8703196617,-4790683.113642542,4198127.251395011,-2.95808,2.16028,-0.751853,-38.4711,57.6917,60.4464,-0.275088,-9.7049,9.90043,-0.153636,0.0676412,0.0718481,4,0,41.40586229813567,-91.75473480962124,8885.064761113203,-25.11752926225248,0.3367262727665203,36.355829773815216,162.287,9023.624474727972,10930.733041558857,150,False,7.878663321700421,False,145.78368441652114,173.4620329194136,False,40.67377567924638,False,False
8,1970-07-23 10:00:00.353151590,2025-09-10,2025-09-26 16:00:35.315,AH,C,4047765192,JASSM,3,138,76,2,2,1,225,9,2,0,1,26,0,0,0,0,-160006.06091483062,-4786687.524385299,4202685.216276646,-2.36549,-0.396822,0.382632,71.625,-29.875,-31.125,0.0,0.0,0.0,0.0,0.0,0.0,2,0,41.45787651962255,-91.91453058556066,10000.001693862783,119.87673472069434,-0.0034274327697124,0.0002293582098943,,9023.624474727972,10930.733041558857,150,8,2025-09-10,2025-09-26 16:00:35.250,AH,C,4004893638,AMBUSH51,1,1,48,2,1,1,225,2,1,0,0,9,1,225,2,1,-146792.62366410272,-4790638.263465507,4198175.114455381,-3.12864,2.08873,-0.790726,-33.6517,58.2924,63.7112,0.0720936,-9.63468,9.97029,-0.344131,0.0588756,0.0520284,4,0,41.40644718973835,-91.75508284448829,8880.701545880867,-21.52049452015653,1.148395193114892,23.771161013096563,163.252,9023.624474727972,10930.733041558857,150,False,7.805650626377733,False,142.339804694023,173.23626924832342,False,44.31010324403001,False,False
8,1970-07-23 10:00:00.362155016,2025-09-10,2025-09-26 16:00:36.215,AH,C,4048838950,JASSM,3,138,76,2,2,1,225,9,2,0,1,26,0,0,0,0,-159941.63073904935,-4786714.532197799,4202657.097136021,-2.3654,-0.396822,0.382632,71.625,-29.875,-31.125,0.0,0.0,0.0,0.0,0.0,0.0,2,0,41.45753885510128,-91.91374943863433,10000.00149806504,119.87725189238532,-0.0027516073470049,0.0057196665190026,,9023.624474727972,10930.733041558857,150,8,2025-09-10,2025-09-26 16:00:36.151,AH,C,4005967338,AMBUSH51,1,1,48,2,1,1,225,2,1,0,0,9,1,225,2,1,-146821.0971748241,-4790586.25874568,4198234.117587233,2.88113,2.06945,-0.831516,-30.3552,57.3639,66.8503,0.181427,-9.12053,9.20745,-0.356752,0.0363636,-0.0145465,4,0,41.407149718221,-91.75544211092696,8882.971665225567,-19.917523746969323,3.0128456577231346,7.362535192483413,164.352,9023.624474727972,10930.733041558857,150,True,7.733997470865899,False,140.0085399943636,172.96621915317152,False,46.854534557541555,False,False
8,1970-07-23 10:00:00.371149252,2025-09-10,2025-09-26 16:00:37.114,AH,C,4049912694,JASSM,3,138,76,2,2,1,225,9,2,0,1,26,0,0,0,0,-159877.20153983062,-4786741.540010299,4202628.976042271,-2.3654,-0.396822,0.382632,71.625,-29.875,-31.125,0.0,0.0,0.0,0.0,0.0,0.0,2,0,41.4572011718884,-91.91296831148722,10000.000054356116,119.87776904751796,-0.0020757828131427,0.0057184867622454,,9023.624474727972,10930.733041558857,150,8,2025-09-10,2025-09-26 16:00:37.126,AH,C,4007120570,AMBUSH51,1,1,48,2,1,1,225,2,1,0,0,9,1,225,2,1,-146850.12477795477,-4790532.345981372,4198299.669206234,2.52403,2.12422,-0.848873,-30.3962,55.3917,68.623,0.296804,-8.66914,8.86077,-0.24047,0.0271861,-0.023674,4,0,41.40790770151351,-91.7558087047576,8894.804447847571,-21.44808397189095,4.757864977943174,-10.864075092239888,163.802,9023.624474727972,10930.733041558857,150,False,7.660936157634453,False,139.91979626922463,172.67151468602566,False,47.17413454958273,False,False
8,1970-07-23 10:00:00.381989905,2025-09-10,2025-09-26 16:00:38.198,AH,C,4051046088,JASSM,3,138,76,2,2,1,225,9,2,0,1,26,0,0,0,0,-159809.19275076812,-4786770.045869674,4202599.294401646,-2.3654,-0.396822,0.382728,71.625,-29.875,-31.125,0.0,0.0,0.0,0.0,0.0,0.0,2,0,41.45684474868414,-91.91214379586098,9999.99958119962,119.88216288374586,-0.0052826584845455,0.0057170413017769,,9023.624474727972,10930.733041558857,150,8,2025-09-10,2025-09-26 16:00:38.316,AH,C,4008552168,AMBUSH51,1,1,48,2,1,1,225,2,1,0,0,9,1,225,2,1,-146887.9468010504,-4790467.841614906,4198381.832901674,2.44894,2.20977,-0.832982,-32.8974,52.8313,69.137,-0.28225,-7.88831,8.1546,0.153855,0.0104748,-0.0481876,4,0,41.40883923467996,-91.75628427286642,8917.303232840213,-24.79498351475175,5.385308746691862,-11.808431313520922,162.886,9023.624474727972,10930.733041558857,150,False,7.577365851367597,False,141.49160998405438,172.31306440265033,False,45.891657950768504,False,False
8,1970-07-23 10:00:00.390129536,2025-09-10,2025-09-26 16:00:39.012,AH,C,4052120258,JASSM,3,138,76,2,2,1,225,9,2,0,1,26,0,0,0,0,-159744.73767264312,-4786797.063447799,4202571.161589146,-2.3654,-0.396822,0.382728,71.625,-29.875,-31.125,0.0,0.0,0.0,0.0,0.0,0.0,2,0,41.45650692247668,-91.91136237205954,10000.000550425955,119.8826802282348,-0.0046065644056521,0.0057159093807506,,9023.624474727972,10930.733041558857,150,8,2025-09-10,2025-09-26 16:00:39.084,AH,C,4009466800,AMBUSH51,1,1,48,2,1,1,225,2,1,0,0,9,1,225,2,1,-146913.64025332133,-4790427.31939741,4198434.416333726,2.59063,2.24263,-0.82669,-33.8811,52.0736,68.9336,-0.194516,-7.33457,7.58014,0.237757,0.0175675,-0.0119124,4,0,41.4094306077322,-91.75660613711534,8933.685698389207,-26.090202290415213,5.675914176731665,-2.4252255356886385,161.871,9023.624474727972,10930.733041558857,150,True,7.5103902706455345,False,142.16352797656126,172.06963270276336,False,45.448776114355724,False,False
8,1970-07-23 10:00:00.402412650,2025-09-10,2025-09-26 16:00:40.241,AH,C,4053312874,JASSM,3,138,76,2,2,1,225,9,2,0,1,26,0,0,0,0,-159673.17517264312,-4786827.057588424,4202539.927214146,-2.3654,-0.396822,0.382728,71.625,-29.875,-31.125,0.0,0.0,0.0,0.0,0.0,0.0,2,0,41.45613185813389,-91.9104947916924,9999.99989134716,119.88325460893154,-0.0038559284499948,0.0057146695578923,,9023.624474727972,10930.733041558857,150,8,2025-09-10,2025-09-26 16:00:40.150,AH,C,4010739332,AMBUSH51,1,1,48,2,1,1,225,2,1,0,0,9,1,225,2,1,-146948.99709055305,-4790371.248396494,4198507.0813495135,3.00225,2.21815,-0.848762,-32.3673,51.8817,69.3689,-0.424849,-6.71485,7.07914,0.369556,0.00890391,0.0321296,4,0,41.410248286481554,-91.75704917719438,8956.137204744002,-24.65198096243664,6.335301493972122,20.26670691912569,160.845,9023.624474727972,10930.733041558857,150,False,7.429035304230584,False,141.216658587686,171.73740020299863,False,46.7237023448875,False,False
8,1970-07-23 10:00:00.409129709,2025-09-10,2025-09-26 16:00:40.912,AH,C,4054386622,JASSM,3,138,76,2,2,1,225,9,2,0,1,26,0,0,0,0,-159608.74548514312,-4786854.063447799,4202511.804167271,-2.3654,-0.396822,0.382728,71.625,-29.875,-31.125,0.0,0.0,0.0,0.0,0.0,0.0,2,0,41.45579415129342,-91.90971369324907,10000.001508453808,119.88377173070477,-0.0031800996652068,0.0057135357281603,,9023.624474727972,10930.733041558857,150,8,2025-09-10,2025-09-26 16:00:41.049,AH,C,4011813032,AMBUSH51,1,1,48,2,1,1,225,2,1,0,0,9,1,225,2,1,-146976.68130346254,-4790322.194260611,4198568.945134916,-3.01267,2.14017,-0.858804,-28.8661,53.4107,69.6814,-0.342394,-6.51113,6.66787,0.133946,0.010843,0.0847291,4,0,41.410952701698434,-91.7573979707542,8971.832009551294,-21.755949931057916,5.5297086332923175,32.56775365740933,159.488,9023.624474727972,10930.733041558857,150,False,7.358810825088386,False,138.99848006672698,171.43791234315765,False,49.29015842986969,False,False
8,1970-07-23 10:00:00.419181276,2025-09-10,2025-09-26 16:00:41.918,AH,C,4055520008,JASSM,3,138,76,2,2,1,225,9,2,0,1,26,0,0,0,0,-159540.73767264312,-4786882.567354049,4202482.118620396,-2.3654,-0.396822,0.382728,71.625,-29.875,-31.125,0.0,0.0,0.0,0.0,0.0,0.0,2,0,41.455437689765226,-91.9088892257146,10000.00064826983,119.88431756097977,-0.0024667417673527,0.0057123436363639,,9023.624474727972,10930.733041558857,150,8,2025-09-10,2025-09-26 16:00:42.049,AH,C,4013006030,AMBUSH51,1,1,48,2,1,1,225,2,1,0,0,9,1,225,2,1,-147003.0386943463,-4790266.375308383,4198637.651414929,-2.87013,2.01713,-0.853484,-23.8985,56.1102,69.6408,-0.274553,-6.54707,6.65435,-0.0225672,0.00959674,0.0694659,4,0,41.411743796729816,-91.75773339703932,8985.64223730602,-17.599892225373363,3.4681628985644624,35.73340972498417,160.099,9023.624474727972,10930.733041558857,150,False,7.285263954436575,False,135.8691457936222,171.0898784749661,False,52.84414799585686,False,False
8,1970-07-23 10:00:00.429596303,2025-09-10,2025-09-26 16:00:42.959,AH,C,4056653402,JASSM,3,138,76,2,2,1,225,9,2,0,1,26,0,0,0,0,-159472.72888358062,-4786911.069307174,4202452.433073521,-2.3654,-0.396726,0.382728,71.625,-29.875,-31.125,0.0,0.0,0.0,0.0,0.0,0.0,2,0,41.45508123413021,-91.90806475631015,9999.99815526466,119.8812268508725,-0.0053230042677556,0.0036599477130571,,9023.624474727972,10930.733041558857,150,8,2025-09-10,2025-09-26 16:00:42.983,AH,C,4014119496,AMBUSH51,1,1,48,2,1,1,225,2,1,0,0,9,1,225,2,1,-147023.06224244196,-4790212.529450105,4198701.530061099,-2.90587,1.9322,-0.85692,-19.0601,58.6645,69.4969,-0.035261,-6.94423,6.99091,-0.150707,0.0177381,0.0534994,4,0,41.412491719969246,-91.75799241947152,8993.354380650917,-14.504902620329204,2.64637396660985,30.17715323692933,160.613,9023.624474727972,10930.733041558857,150,False,7.216130907379004,False,132.81822382726875,170.7427516481993,False,56.300056389354225,False,False
8,1970-07-23 10:00:00.437151212,2025-09-10,2025-09-26 16:00:43.715,AH,C,4057727146,JASSM,3,138,76,2,2,1,225,9,2,0,1,26,0,0,0,0,-159408.29919608062,-4786938.073213424,4202424.310026646,-2.3654,-0.396726,0.382728,71.625,-29.875,-31.125,0.0,0.0,0.0,0.0,0.0,0.0,2,0,41.45474352235925,-91.90728368385396,10000.004039246598,119.88174394473874,-0.0046471817328634,0.0036587807105556,,9023.624474727972,10930.733041558857,150,8,2025-09-10,2025-09-26 16:00:43.749,AH,C,4015034128,AMBUSH51,1,1,48,2,1,1,225,2,1,0,0,9,1,225,2,1,-147036.6788132838,-4790167.088262654,4198754.697861333,-3.01114,1.87857,-0.860102,-15.8915,59.6842,69.8822,0.0322652,-6.71437,6.87953,-0.213349,0.00341946,0.0378575,4,0,41.41311850409648,-91.75817180211708,8998.011623672415,-12.520032711617384,2.2842989712211383,21.90521439312492,161.212,9023.624474727972,10930.733041558857,150,False,7.155384655063652,False,130.80793784508302,170.4352197133039,False,58.63316518353153,False,False
8,1970-07-23 10:00:00.446149344,2025-09-10,2025-09-26 16:00:44.614,AH,C,4058800888,JASSM,3,138,76,2,2,1,225,9,2,0,1,26,0,0,0,0,-159343.86950858062,-4786965.073213424,4202396.185026646,-2.3654,-0.396726,0.382728,71.625,-29.875,-31.125,0.0,0.0,0.0,0.0,0.0,0.0,2,0,41.454405815352,-91.90650262105548,9999.99899547776,119.8822610287466,-0.0039713651941843,0.0036576218499298,,9023.624474727972,10930.733041558857,150,8,2025-09-10,2025-09-26 16:00:44.549,AH,C,4015988528,AMBUSH51,1,1,48,2,1,1,225,2,1,0,0,9,1,225,2,1,-147048.56507299794,-4790118.582674637,4198810.595989644,3.10526,1.83945,-0.858355,-13.7065,60.703,70.0555,0.101559,-6.60825,6.6639,-0.267405,0.00270373,0.0355272,4,0,41.41378226775519,-91.7583316351137,9000.930016356728,-11.12022365380254,1.8432953438400157,10.702013287748452,161.59,9023.624474727972,10930.733041558857,150,False,7.094915870507278,False,129.42419921432392,170.10294878067765,False,60.365233410909795,False,False
8,1970-07-23 10:00:00.456148505,2025-09-10,2025-09-26 16:00:45.614,AH,C,4060053588,JASSM,3,138,76,2,2,1,225,9,2,0,1,26,0,0,0,0,-159268.70153983062,-4786996.575166549,4202363.372526646,-2.3654,-0.396726,0.382728,71.625,-29.875,-31.125,0.0,0.0,0.0,0.0,0.0,0.0,2,0,41.45401180548576,-91.905591390587,10000.001594359765,119.88286428277996,-0.0031829062158055,0.0036562600228895,,9023.624474727972,10930.733041558857,150,8,2025-09-10,2025-09-26 16:00:45.449,AH,C,4017062226,AMBUSH51,1,1,48,2,1,1,225,2,1,0,0,9,1,225,2,1,-147060.60568952313,-4790063.611754559,4198873.824960058,2.87774,1.82703,-0.860484,-12.9392,61.3346,70.2136,0.122523,-6.54468,6.68143,-0.262302,-0.00373363,-0.00842537,4,0,41.41453395653933,-91.75849568791504,9003.872837354902,-10.640034378031958,1.8624042491538904,-2.8573115151995085,162.751,9023.624474727972,10930.733041558857,150,True,7.026090076569878,False,128.92227587992997,169.71543023570484,False,61.26419338503633,False,False
8,1970-07-23 10:00:00.467126916,2025-09-10,2025-09-26 16:00:46.712,AH,C,4061306284,JASSM,3,138,76,2,2,1,225,9,2,0,1,26,0,0,0,0,-159193.53454764312,-4787028.075166549,4202330.558073521,-2.3654,-0.396726,0.382728,71.625,-29.875,-31.125,0.0,0.0,0.0,0.0,0.0,0.0,2,0,41.453617786637416,-91.90468018359934,9999.999197637097,119.88346751655362,-0.0023944544098208,0.0036548920080367,,9023.624474727972,10930.733041558857,150,8,2025-09-10,2025-09-26 16:00:46.849,AH,C,4018732424,AMBUSH51,1,1,48,2,1,1,225,2,1,0,0,9,1,225,2,1,-147079.78680744366,-4789976.618161587,4198972.577884886,2.65359,1.87671,-0.833077,-14.6469,62.3754,69.7817,-0.00768968,-6.2264,6.27112,-0.0269968,-0.00969453,-0.0416962,4,0,41.4157146713317,-91.75875682569064,9005.705325314208,-12.836627024125333,0.7694503902214922,-13.618140436927536,163.766,9023.624474727972,10930.733041558857,150,False,6.945006335831822,False,129.93235884638568,169.1333704954622,False,60.857674149765785,False,False
8,1970-07-23 10:00:00.477547007,2025-09-10,2025-09-26 16:00:47.754,AH,C,4062499334,JASSM,3,138,76,2,2,1,225,9,2,0,1,26,0,0,0,0,-159121.94568045562,-4787058.075166549,4202299.306120396,-2.3654,-0.396726,0.382728,71.625,-29.875,-31.125,0.0,0.0,0.0,0.0,0.0,0.0,2,0,41.453242523477314,-91.90381236266218,10000.000298256917,119.8840420236755,-0.0016435379338301,0.0036535943847637,,9023.624474727972,10930.733041558857,150,8,2025-09-10,2025-09-26 16:00:47.816,AH,C,4019885656,AMBUSH51,1,1,48,2,1,1,225,2,1,0,0,9,1,225,2,1,-147095.06100440302,-4789915.922993576,4199039.61931802,2.63999,1.92389,-0.822206,-16.4698,62.0617,70.2428,-0.0998954,-6.90572,6.96225,0.0634384,0.00477809,-0.0339314,4,0,41.41652556462577,-91.75896163169952,9003.099150958391,-14.765506029273354,0.6531180575568081,-12.430518790332616,164.267,9023.624474727972,10930.733041558857,150,False,6.876353538223522,False,130.9951559893186,168.70722349521128,False,60.21274979700353,False,False
8,1970-07-23 10:00:00.487105984,2025-09-10,2025-09-26 16:00:48.710,AH,C,4063752036,JASSM,3,138,76,2,2,1,225,9,2,0,1,26,0,0,0,0,-159046.77771170562,-4787089.573213424,4202266.491667271,-2.3654,-0.396726,0.382824,71.625,-29.875,-31.125,0.0,0.0,0.0,0.0,0.0,0.0,2,0,41.45284850230823,-91.90290116630634,10000.000766145691,119.88849334145095,-0.0047751801211306,0.0036520515597952,,9023.624474727972,10930.733041558857,150,8,2025-09-10,2025-09-26 16:00:48.549,AH,C,4020760522,AMBUSH51,1,1,48,2,1,1,225,2,1,0,0,9,1,225,2,1,-147108.02962536013,-4789869.691140537,4199090.154903181,2.74128,1.93819,-0.824305,-17.9674,62.9301,69.4682,0.0166785,-7.11145,7.26866,0.230783,0.0110636,-0.00282857,4,0,41.41713940376295,-91.75913358127544,9000.066827386016,-15.265190933303169,0.9282093874525924,-6.033162221551739,164.853,9023.624474727972,10930.733041558857,150,True,6.811003287188017,False,131.89711771903006,168.3581199809956,False,59.68007460097302,False,False
