Unnamed: 0_cm,Subject_cm,Timestamp,SampleDate_cm,SampleTime_cm,Configuration_cm,Scenario_cm,DisTime_cm,MarkingTxt_cm,Application_cm,EntId_cm,Site_cm,ExerciseId_cm,ForceId_cm,Category_cm,Country_cm,Domain_cm,Kind_cm,Extra_cm,Specific_cm,Subcategory_cm,AltCategory_cm,AltCountry_cm,AltDomain_cm,AltKind_cm,ECEF_X_cm,ECEF_Y_cm,ECEF_Z_cm,OriPhi_cm,OriPsi_cm,OriTheta_cm,LinVelX_cm,LinVelY_cm,LinVelZ_cm,LinAccX_cm,LinAccY_cm,LinAccZ_cm,AngVelX_cm,AngVelY_cm,AngVelZ_cm,DrAlg_cm,Appearance_cm,Latitude_cm,Longitude_cm,Altitude_cm,Heading_cm,Pitch_cm,Roll_cm,CalibratedAirspeed_cm,CM_Altitude_Lead_cm,CM_Altitude_Wing_cm,CM_Airspeed_cm,Unnamed: 0_ac,Subject_ac,SampleDate_ac,SampleTime_ac,Configuration_ac,Scenario_ac,DisTime_ac,MarkingTxt_ac,Application_ac,EntId_ac,Site_ac,ExerciseId_ac,ForceId_ac,Category_ac,Country_ac,Domain_ac,Kind_ac,Extra_ac,Specific_ac,Subcategory_ac,AltCategory_ac,AltCountry_ac,AltDomain_ac,AltKind_ac,ECEF_X_ac,ECEF_Y_ac,ECEF_Z_ac,OriPhi_ac,OriPsi_ac,OriTheta_ac,LinVelX_ac,LinVelY_ac,LinVelZ_ac,LinAccX_ac,LinAccY_ac,LinAccZ_ac,AngVelX_ac,AngVelY_ac,AngVelZ_ac,DrAlg_ac,Appearance_ac,Latitude_ac,Longitude_ac,Altitude_ac,Heading_ac,Pitch_ac,Roll_ac,CalibratedAirspeed_ac,CM_Altitude_Lead_ac,CM_Altitude_Wing_ac,CM_Airspeed_ac,Bank_Angle_Condition,distance_nm,Distance_Condition,angle_between_vel,angle_between_pos,Cone_Condition,angle_between_pos_nose,Nose_Cone_Condition,Intercept_Criteria
14020,8,1970-07-23 10:02:00.863649727,2025-09-10,2025-09-12 19:21:26.364,AA,C,2071007010,JASSM,3,118,76,2,2,1,225,9,2,0,1,26,0,0,0,0,-180633.25915701807,-4777958.184541549,4211711.999479771,-2.36693,-0.400848,0.381002,82.0,-34.625,-35.625,0.0,0.0,0.0,0.0,0.0,0.0,2,0,41.56636351899524,-92.16506643623778,9999.99749186536,119.79822560833956,-0.0035874874708438,0.0045541911828652,,9258.460327898714,10912.736076441255,150,14022,8,2025-09-10,2025-09-12 19:21:26.458,AA,C,1202365760,AMBUSH51,1,1,48,2,1,1,225,2,1,0,0,9,1,225,2,1,-136651.1201989081,-4793951.876749931,4194931.343522387,2.44935,2.70862,-0.438107,-95.6628,37.3682,40.4586,-0.313911,-7.37356,6.5926,-0.0994722,0.0026434,0.00693982,4,0,41.36661909602214,-91.63276835325918,9259.692763454284,-56.36219267161037,0.7395510582661572,3.9673523256017,0.0,9258.460327898714,10912.736076441255,150,True,26.732540747625517,False,178.5212586306179,176.57190913805044,False,2.181147557052083,True,False
14034,8,1970-07-23 10:02:00.873144220,2025-09-10,2025-09-12 19:21:27.314,AA,C,2072319362,JASSM,3,118,76,2,2,1,225,9,2,0,1,26,0,0,0,0,-180542.96325858065,-4777996.465791549,4211672.708464146,-2.36693,-0.400848,0.381002,82.0,-34.625,-35.625,0.0,0.0,0.0,0.0,0.0,0.0,2,0,41.56589091083404,-92.1639678593586,9999.999638316463,119.79895449661656,-0.0026393583037997,0.0045525399533467,,9258.460327898714,10912.736076441255,150,14032,8,2025-09-10,2025-09-12 19:21:27.292,AA,C,1203359924,AMBUSH51,1,1,48,2,1,1,225,2,1,0,0,9,1,225,2,1,-136731.63052180706,-4793920.06269609,4194965.510325161,2.35538,2.70342,-0.437703,-95.5888,37.6661,40.6689,-0.244262,-7.22248,6.52535,-0.0869241,0.00628444,0.00484258,4,0,41.367025378141925,-91.63374064132,9261.122111750294,-56.1832407500769,0.5376132262124296,-1.5414226164479183,0.0,9258.460327898714,10912.736076441255,150,True,26.62595773193465,False,178.69436077838432,176.56016571159205,False,2.362342465245424,True,False
14047,8,1970-07-23 10:02:00.884140690,2025-09-10,2025-09-12 19:21:28.414,AA,C,2073631714,JASSM,3,118,76,2,2,1,225,9,2,0,1,26,0,0,0,0,-180452.66638358065,-4778034.745088424,4211633.417448521,-2.36693,-0.400848,0.381098,82.0,-34.625,-35.625,0.0,0.0,0.0,0.0,0.0,0.0,2,0,41.565418304012105,-92.16286928768056,10000.00263937828,119.80352539541556,-0.0056172818052337,0.0045506579621164,,9258.460327898714,10912.736076441255,150,14049,8,2025-09-10,2025-09-12 19:21:28.625,AA,C,1204950590,AMBUSH51,1,1,48,2,1,1,225,2,1,0,0,9,1,225,2,1,-136858.68232346338,-4793870.031728987,4195019.313845735,2.29157,2.71318,-0.429944,-95.9232,37.3355,40.4011,-0.151946,-7.22081,6.48614,-0.0401732,-0.00127853,-0.0031365,4,0,41.36766469858628,-91.6352749554759,9263.567319640735,-56.85812970425055,0.5670058586629177,-4.96850815939007,0.0,9258.460327898714,10912.736076441255,150,True,26.490554084272613,False,178.44149408376794,176.54603015407227,False,2.1107035584490244,True,False
14061,8,1970-07-23 10:02:00.895119122,2025-09-10,2025-09-12 19:21:29.511,AA,C,2074944064,JASSM,3,118,76,2,2,1,225,9,2,0,1,26,0,0,0,0,-180362.36950858065,-4778073.022432174,4211594.124479771,-2.36693,-0.400848,0.381098,82.0,-34.625,-35.625,0.0,0.0,0.0,0.0,0.0,0.0,2,0,41.564945685158285,-92.16177073289664,10000.00233406763,119.80425425552473,-0.0046691510859646,0.0045490829145642,,9258.460327898714,10912.736076441255,150,14059,8,2025-09-10,2025-09-12 19:21:29.425,AA,C,1205904988,AMBUSH51,1,1,48,2,1,1,225,2,1,0,0,9,1,225,2,1,-136935.54371996384,-4793839.928224136,4195051.370305563,2.29727,2.71355,-0.42785,-96.209,37.2097,39.9079,-0.0343751,-7.28875,6.13057,0.0254259,-3.64104e-05,0.00923472,4,0,41.36804715466988,-91.63620311454922,9264.385775255669,-56.9556622931001,0.4944224713321379,-4.63427269334796,0.0,9258.460327898714,10912.736076441255,150,True,26.38638310880759,False,178.24385919176612,176.53486548834303,False,1.8289954603934615,True,False
14074,8,1970-07-23 10:02:00.906125792,2025-09-10,2025-09-12 19:21:30.612,AA,C,2076196762,JASSM,3,118,76,2,2,1,225,9,2,0,1,26,0,0,0,0,-180276.17712576807,-4778109.557588424,4211556.616667271,-2.36693,-0.400848,0.381098,82.0,-34.625,-35.625,0.0,0.0,0.0,0.0,0.0,0.0,2,0,41.564494546927314,-92.1607221294627,9999.999807155353,119.80494996797292,-0.0037641223763184,0.0045475853803846,,9258.460327898714,10912.736076441255,150,14072,8,2025-09-10,2025-09-12 19:21:30.591,AA,C,1207296820,AMBUSH51,1,1,48,2,1,1,225,2,1,0,0,9,1,225,2,1,-137048.7116666867,-4793796.180685013,4195097.793435257,2.31794,2.71687,-0.424928,-96.5954,37.1514,39.2755,-0.134678,-6.91586,6.34671,0.0143114,0.00267044,-0.0161714,4,0,41.36860159313809,-91.63756952555164,9265.333419829554,-57.19756203216641,0.4946750029124307,-3.3730449669466727,0.0,9258.460327898714,10912.736076441255,150,True,26.262575013670762,False,177.98738001785526,176.5232243287597,False,1.4950537005799334,True,False
14087,8,1970-07-23 10:02:00.917140259,2025-09-10,2025-09-12 19:21:31.714,AA,C,2077509116,JASSM,3,118,76,2,2,1,225,9,2,0,1,26,0,0,0,0,-180185.88122733065,-4778147.832979049,4211517.321745396,-2.36693,-0.400848,0.381098,82.0,-34.625,-35.625,0.0,0.0,0.0,0.0,0.0,0.0,2,0,41.56402190576685,-92.15962361854808,10000.001761108677,119.80567878567392,-0.002815998815489,0.0045460040762893,,9258.460327898714,10912.736076441255,150,14088,8,2025-09-10,2025-09-12 19:21:31.825,AA,C,1208768186,AMBUSH51,1,1,48,2,1,1,225,2,1,0,0,9,1,225,2,1,-137167.3602750587,-4793750.386409049,4195145.486554125,2.31706,2.71621,-0.423386,-96.9137,37.1576,38.73,-0.147169,-6.99647,6.45008,-0.00737675,0.00453882,-0.00141793,4,0,41.36917583013554,-91.6390021112893,9264.392117602323,-57.23467708254104,0.4081574773911385,-3.4391547199805084,0.0,9258.460327898714,10912.736076441255,150,True,26.133004361600715,False,177.76117798684726,176.5116317487966,False,1.2496344190843522,True,False
14101,8,1970-07-23 10:02:00.928107511,2025-09-10,2025-09-12 19:21:32.810,AA,C,2078881118,JASSM,3,118,76,2,2,1,225,9,2,0,1,26,0,0,0,0,-180091.47986014312,-4778187.846650924,4211476.237761021,-2.36693,-0.400848,0.381098,82.0,-34.625,-35.625,0.0,0.0,0.0,0.0,0.0,0.0,2,0,41.56352775918226,-92.15847517983116,9999.999755064842,119.80644072118136,-0.0018247652553905,0.0045443464472799,,9258.460327898714,10912.736076441255,150,14102,8,2025-09-10,2025-09-12 19:21:32.991,AA,C,1210160018,AMBUSH51,1,1,48,2,1,1,225,2,1,0,0,9,1,225,2,1,-137281.265727807,-4793706.690146997,4195190.618039615,2.30254,2.71904,-0.42114,-97.329,37.1387,38.1937,0.00783616,-6.97185,6.3907,-0.0126615,-0.00506313,-0.00852524,4,0,41.36972108073294,-91.6403773596668,9262.734933624335,-57.43147013998391,0.4189575721358949,-4.206234668103583,0.0,9258.460327898714,10912.736076441255,150,True,26.003938515685697,False,177.484831123549,176.50039015965044,False,1.0111061860959858,True,False
14114,8,1970-07-23 10:02:00.939124713,2025-09-10,2025-09-12 19:21:33.912,AA,C,2080193468,JASSM,3,118,76,2,2,1,225,9,2,0,1,26,0,0,0,0,-180001.18298514312,-4778226.118135299,4211436.940886021,-2.36693,-0.400752,0.381098,82.0,-34.625,-35.625,0.0,0.0,0.0,0.0,0.0,0.0,2,0,41.56305510685132,-92.15737669173454,9999.999517947295,119.8035251882088,-0.0044430871415274,0.0024998122985492,,9258.460327898714,10912.736076441255,150,14111,8,2025-09-10,2025-09-12 19:21:33.758,AA,C,1211074650,AMBUSH51,1,1,48,2,1,1,225,2,1,0,0,9,1,225,2,1,-137355.92793736322,-4793678.227217171,4195219.64261957,2.2935,2.71763,-0.416626,-97.6249,37.1199,37.7653,-0.134173,-6.81115,6.3159,-0.0246686,-0.000481658,0.00160102,4,0,41.37007363769354,-91.64127875235611,9260.883739277477,-57.557904238411446,0.1820209528533692,-4.757567573675485,0.0,9258.460327898714,10912.736076441255,150,True,25.901645247622838,False,177.2622945116589,176.4910221927081,False,0.8721845574716185,True,False
14129,8,1970-07-23 10:02:00.950124322,2025-09-10,2025-09-12 19:21:35.012,AA,C,2081446180,JASSM,3,118,76,2,2,1,225,9,2,0,1,26,0,0,0,0,-179914.98962576812,-4778262.651338424,4211399.427214146,-2.36693,-0.400752,0.381098,82.0,-34.625,-35.625,0.0,0.0,0.0,0.0,0.0,0.0,2,0,41.5626039008207,-92.1563281386193,10000.001257057816,119.8042208413838,-0.0035380375024778,0.0024982371126348,,9258.460327898714,10912.736076441255,150,14127,8,2025-09-10,2025-09-12 19:21:34.958,AA,C,1212506248,AMBUSH51,1,1,48,2,1,1,225,2,1,0,0,9,1,225,2,1,-137472.78288841556,-4793633.787490137,4195264.018251937,2.28657,2.72184,-0.410127,-98.2285,37.1791,36.9016,-0.0697273,-7.0082,6.51438,-0.00180075,-0.00653827,-0.0155743,4,0,41.37061767371396,-91.64268951851372,9255.980377162125,-57.97628919983544,0.0680168625428905,-5.058290988284667,0.0,9258.460327898714,10912.736076441255,150,True,25.776333716886437,False,176.8197953383235,176.4818574905662,False,0.8354968039702239,True,False
14144,8,1970-07-23 10:02:00.962400864,2025-09-10,2025-09-12 19:21:36.240,AA,C,2082758518,JASSM,3,118,76,2,2,1,225,9,2,0,1,26,0,0,0,0,-179824.69372733062,-4778300.920869674,4211360.128386021,-2.36693,-0.400752,0.381098,82.0,-34.625,-35.625,0.0,0.0,0.0,0.0,0.0,0.0,2,0,41.5621312261854,-92.15522969438904,10000.003279054525,119.80494958771838,-0.0025899197508321,0.0024966018487936,,9258.460327898714,10912.736076441255,150,14140,8,2025-09-10,2025-09-12 19:21:36.158,AA,C,1213937848,AMBUSH51,1,1,48,2,1,1,225,2,1,0,0,9,1,225,2,1,-137591.75939719047,-4793589.074419213,4195308.095867733,2.28827,2.72806,-0.404873,-98.8641,36.8526,36.3778,-0.104974,-7.31621,6.59265,2.60074e-05,0.00512138,0.00134094,4,0,41.37116094304668,-91.64412573976006,9249.916980030752,-58.42173233650187,0.0800410375347045,-4.820260833812838,0.0,9258.460327898714,10912.736076441255,150,True,25.64744710120703,False,176.3879451822726,176.47341019775297,False,0.8223566471004194,True,False
14154,8,1970-07-23 10:02:00.971980746,2025-09-10,2025-09-12 19:21:37.198,AA,C,2084011218,JASSM,3,118,76,2,2,1,225,9,2,0,1,26,0,0,0,0,-179738.50232108062,-4778337.448213424,4211322.612761021,-2.36693,-0.400752,0.381194,82.0,-34.625,-35.625,0.0,0.0,0.0,0.0,0.0,0.0,2,0,41.56168002187318,-92.1541811971708,9999.997275415351,119.8094873527589,-0.0056108134891423,0.00249479082083,,9258.460327898714,10912.736076441255,150,14155,8,2025-09-10,2025-09-12 19:21:37.325,AA,C,1215329680,AMBUSH51,1,1,48,2,1,1,225,2,1,0,0,9,1,225,2,1,-137706.6021444959,-4793546.491573484,4195349.673253517,2.28669,2.73756,-0.400308,-99.3744,36.4691,35.8342,-0.226032,-7.2721,6.66276,-0.0112591,0.00502776,-0.0122994,4,0,41.37167534785864,-91.64551188602736,9243.391607229987,-58.96402561305917,0.2425261638925827,-4.699111920769108,0.0,9258.460327898714,10912.736076441255,150,True,25.523919312289294,False,175.96500774309533,176.46640420769478,False,0.9928693229148765,True,False
14164,8,1970-07-23 10:02:00.980381889,2025-09-10,2025-09-12 19:21:38.038,AA,C,2085084960,JASSM,3,118,76,2,2,1,225,9,2,0,1,26,0,0,0,0,-179664.62146170562,-4778368.758760299,4211290.456511021,-2.36693,-0.400752,0.381194,82.0,-34.625,-35.625,0.0,0.0,0.0,0.0,0.0,0.0,2,0,41.561293259922095,-92.1532824661832,9999.999479893844,119.8100835920473,-0.0048350561869206,0.0024935048560353,,9258.460327898714,10912.736076441255,150,14166,8,2025-09-10,2025-09-12 19:21:38.125,AA,C,1216284078,AMBUSH51,1,1,48,2,1,1,225,2,1,0,0,9,1,225,2,1,-137786.22377850968,-4793517.326396122,4195378.117861536,2.31682,2.74155,-0.399113,-99.638,36.1863,35.5952,-0.0649702,-7.44598,6.74953,0.0500706,0.00989843,-0.0013888,4,0,41.372027275876334,-91.64647280565158,9238.926368933802,-59.163181510028735,0.3415171171052468,-2.884472705826874,0.0,9258.460327898714,10912.736076441255,150,True,25.429547562446263,False,175.74039579431135,176.46080435474573,False,1.103034247387279,True,False
14177,8,1970-07-23 10:02:00.990800274,2025-09-10,2025-09-12 19:21:39.080,AA,C,2086218354,JASSM,3,118,76,2,2,1,225,9,2,0,1,26,0,0,0,0,-179586.63806326812,-4778401.807588424,4211256.513151646,-2.36693,-0.400752,0.381194,82.0,-34.625,-35.625,0.0,0.0,0.0,0.0,0.0,0.0,2,0,41.56088500584649,-92.15233384124696,10000.001807751194,119.81071292721262,-0.0040162178751413,0.0024921405115309,,9258.460327898714,10912.736076441255,150,14180,8,2025-09-10,2025-09-12 19:21:39.225,AA,C,1217596376,AMBUSH51,1,1,48,2,1,1,225,2,1,0,0,9,1,225,2,1,-137895.979941337,-4793477.972013649,4195417.303817507,2.36211,2.74415,-0.399538,-99.7782,33.6696,37.5242,-0.0632467,-7.46111,6.63988,0.0426428,0.00206915,0.000448368,4,0,41.37250717454771,-91.64779713204736,9234.814948519104,-59.24506206150711,0.456058314883752,-0.2319874198265827,0.0,9258.460327898714,10912.736076441255,150,True,25.314574926548293,False,175.46054220146965,176.45586891711852,False,1.1635108106099874,True,False
14190,8,1970-07-23 10:02:01.000454114,2025-09-10,2025-09-12 19:21:40.045,AA,C,2087351748,JASSM,3,118,76,2,2,1,225,9,2,0,1,26,0,0,0,0,-179508.65368826812,-4778434.854463424,4211222.569792271,-2.36693,-0.400752,0.381194,82.0,-34.625,-35.625,0.0,0.0,0.0,0.0,0.0,0.0,2,0,41.56047675578762,-92.15138521743758,10000.003532567993,119.81134225655232,-0.003197378386097,0.0024907904563964,,9258.460327898714,10912.736076441255,150,14191,8,2025-09-10,2025-09-12 19:21:40.091,AA,C,1218630308,AMBUSH51,1,1,48,2,1,1,225,2,1,0,0,9,1,225,2,1,-137983.025530031,-4793446.055041066,4195447.825873934,2.43901,2.74172,-0.40379,-99.4418,36.0718,35.6874,-0.18899,-7.51038,6.45358,0.0510713,0.0112571,0.0105393,4,0,41.37288820659,-91.6488476877244,9228.618141707124,-58.98391562635906,0.5414911670409657,4.122118629001699,0.0,9258.460327898714,10912.736076441255,150,True,25.213247946974594,False,175.7890700027018,176.4502806555161,False,1.0185134247011405,True,False
14199,8,1970-07-23 10:02:01.008105661,2025-09-10,2025-09-12 19:21:40.810,AA,C,2088425490,JASSM,3,118,76,2,2,1,225,9,2,0,1,26,0,0,0,0,-179434.77478201812,-4778466.161104049,4211190.409636021,-2.36693,-0.400752,0.381194,82.0,-34.625,-35.625,0.0,0.0,0.0,0.0,0.0,0.0,2,0,41.56008996846669,-92.1504865449362,9999.999778558737,119.81193844286416,-0.0024216355369175,0.0024894920616513,,9258.460327898714,10912.736076441255,150,14200,8,2025-09-10,2025-09-12 19:21:40.825,AA,C,1219505174,AMBUSH51,1,1,48,2,1,1,225,2,1,0,0,9,1,225,2,1,-138055.6829397371,-4793419.313356416,4195474.169051327,2.4654,2.7354,-0.412139,-98.8912,36.4075,36.0587,-0.0989977,-7.75462,6.34919,0.0196231,-0.000928986,0.0176632,4,0,41.37321269652372,-91.64972463646684,9225.080732617544,-58.41245229718624,0.6523292792935134,5.496000874775078,0.0,9258.460327898714,10912.736076441255,150,True,25.122984058897014,False,176.14520371545765,176.44408427542518,False,0.8327215931461073,True,False
14214,8,1970-07-23 10:02:01.018379759,2025-09-10,2025-09-12 19:21:41.837,AA,C,2089558884,JASSM,3,118,76,2,2,1,225,9,2,0,1,26,0,0,0,0,-179356.79040701812,-4778499.206025924,4211156.464323521,-2.36693,-0.400752,0.381194,82.0,-34.625,-35.625,0.0,0.0,0.0,0.0,0.0,0.0,2,0,41.55968170161223,-92.149537945258,10000.000792450668,119.81256774630812,-0.0016027957590464,0.0024881403124184,,9258.460327898714,10912.736076441255,150,14211,8,2025-09-10,2025-09-12 19:21:41.758,AA,C,1220618640,AMBUSH51,1,1,48,2,1,1,225,2,1,0,0,9,1,225,2,1,-138147.24524152646,-4793385.375084952,4195507.942000303,2.46141,2.72529,-0.418463,-98.2306,36.6317,36.7273,-0.174314,-7.40661,6.20414,-0.05713,0.00559784,0.0116149,4,0,41.37362691234548,-91.65082985540607,9221.288548202996,-57.780213966063634,0.5440756486902846,5.040521245687415,0.0,9258.460327898714,10912.736076441255,150,True,25.01857142110703,False,176.60820573745912,176.43698752746232,False,0.6557447300024393,True,False
14225,8,1970-07-23 10:02:01.028504114,2025-09-10,2025-09-12 19:21:42.850,AA,C,2090692278,JASSM,3,118,76,2,2,1,225,9,2,0,1,26,0,0,0,0,-179278.80700858062,-4778532.250947799,4211122.517057896,-2.36693,-0.400657,0.381194,82.0,-34.625,-35.625,0.0,0.0,0.0,0.0,0.0,0.0,2,0,41.55927341353251,-92.14858936921333,10000.001923595137,119.8095529753913,-0.0043503975220009,0.0004433123634708,,9258.460327898714,10912.736076441255,150,14228,8,2025-09-10,2025-09-12 19:21:43.025,AA,C,1222129772,AMBUSH51,1,1,48,2,1,1,225,2,1,0,0,9,1,225,2,1,-138271.62740036112,-4793338.601422276,4195554.922140218,2.36436,2.72181,-0.421497,-97.6775,36.6345,37.2598,-0.0608071,-7.72794,6.55474,-0.0790803,0.0023646,-0.000812472,4,0,41.37420101021036,-91.6523314863182,9216.884599046589,-57.52966577370259,0.5442468032509858,-0.5987360116602131,0.0,9258.460327898714,10912.736076441255,150,True,24.893950760188098,False,176.93103588236508,176.4284745617578,False,0.6647504110217654,True,False
14238,8,1970-07-23 10:02:01.038358636,2025-09-10,2025-09-12 19:21:43.835,AA,C,2091825672,JASSM,3,118,76,2,2,1,225,9,2,0,1,26,0,0,0,0,-179200.82263358062,-4778565.293916549,4211088.569792271,-2.36693,-0.400657,0.381194,82.0,-34.625,-35.625,0.0,0.0,0.0,0.0,0.0,0.0,2,0,41.55886512946961,-92.14764079429384,10000.002451726554,119.8101822523438,-0.0035315575393729,0.0004419068395012,,9258.460327898714,10912.736076441255,150,14236,8,2025-09-10,2025-09-12 19:21:43.724,AA,C,1222964872,AMBUSH51,1,1,48,2,1,1,225,2,1,0,0,9,1,225,2,1,-138340.2353843069,-4793312.58869342,4195581.312368053,2.32163,2.7236,-0.415373,-97.6409,36.5703,37.2626,-0.0335947,-7.52985,6.13869,-0.0430735,0.00401035,-0.00554166,4,0,41.374522152011416,-91.65315985619488,9214.96921607585,-57.841155147003775,0.3573295835926812,-3.007480439952792,0.0,9258.460327898714,10912.736076441255,150,True,24.80315286884792,False,176.92163634949688,176.4199914929769,False,0.6477499236613142,True,False
14251,8,1970-07-23 10:02:01.046781154,2025-09-10,2025-09-12 19:21:44.678,AA,C,2092959066,JASSM,3,118,76,2,2,1,225,9,2,0,1,26,0,0,0,0,-179122.83825858062,-4778598.336885299,4211054.620573521,-2.36693,-0.400657,0.381194,82.0,-34.625,-35.625,0.0,0.0,0.0,0.0,0.0,0.0,2,0,41.558456824400274,-92.14669223131489,10000.003007299598,119.81081151629756,-0.0027127109600194,0.0004404898694601,,9258.460327898714,10912.736076441255,150,14249,8,2025-09-10,2025-09-12 19:21:44.624,AA,C,1224038570,AMBUSH51,1,1,48,2,1,1,225,2,1,0,0,9,1,225,2,1,-138428.3595902188,-4793279.61941159,4195614.73246911,2.29999,2.72731,-0.410298,-97.7433,36.2678,36.8936,-0.10549,-7.49418,6.31824,-0.0102542,0.00332791,-0.00659028,4,0,41.37492878057973,-91.65422372347226,9212.56921049634,-58.18378322843704,0.2842491083416625,-4.164296227989679,0.0,9258.460327898714,10912.736076441255,150,True,24.70060363995591,False,176.67870809743548,176.41178482899394,False,0.5130837268869956,True,False
14263,8,1970-07-23 10:02:01.058780972,2025-09-10,2025-09-12 19:21:45.878,AA,C,2094032808,JASSM,3,118,76,2,2,1,225,9,2,0,1,26,0,0,0,0,-179048.95935233062,-4778629.637666549,4211022.458464146,-2.36684,-0.400657,0.381194,82.0,-34.625,-35.625,0.0,0.0,0.0,0.0,0.0,0.0,2,0,41.55807002207185,-92.1457936174094,10000.000680261128,119.81140764002136,-0.0019369804694908,0.0059306320106901,,9258.460327898714,10912.736076441255,150,14264,8,2025-09-10,2025-09-12 19:21:45.892,AA,C,1225549702,AMBUSH51,1,1,48,2,1,1,225,2,1,0,0,9,1,225,2,1,-138552.82010704617,-4793233.49422309,4195661.447470787,2.32854,2.73319,-0.408638,-97.7423,35.858,36.3558,-0.140916,-7.65746,6.31811,0.0308854,0.000159166,-0.00586,4,0,41.37549717429063,-91.65572612748954,9209.214764431788,-58.472979366819374,0.4325329777195447,-2.395812425607605,0.0,9258.460327898714,10912.736076441255,150,True,24.578678700823474,False,176.36896288632076,176.4042048637984,False,0.48956993827351325,True,False
14272,8,1970-07-23 10:02:01.064101001,2025-09-10,2025-09-12 19:21:46.410,AA,C,2095106560,JASSM,3,118,76,2,2,1,225,9,2,0,1,26,0,0,0,0,-178975.07849295562,-4778660.940400924,4210990.294401646,-2.36684,-0.400657,0.38129,82.0,-34.625,-35.625,0.0,0.0,0.0,0.0,0.0,0.0,2,0,41.5576831883267,-92.14489498995896,10000.002554242315,119.8158460707797,-0.0050870001087458,0.0059290804052279,,9258.460327898714,10912.736076441255,150,14269,8,2025-09-10,2025-09-12 19:21:46.325,AA,C,1226066668,AMBUSH51,1,1,48,2,1,1,225,2,1,0,0,9,1,225,2,1,-138594.31715635705,-4793218.190261958,4195676.98137548,2.33691,2.7358,-0.407917,-97.635,35.6086,36.3352,-0.141501,-7.52154,6.31089,0.0123806,0.00506313,-0.0120727,4,0,41.375685954935385,-91.65622703214152,9208.1926837643,-58.60063260672906,0.4992190935073891,-1.858005780209948,0.0,9258.460327898714,10912.736076441255,150,True,24.50715476968841,False,176.31142255616274,176.39711827321187,False,0.41484710041824235,True,False
14284,8,1970-07-23 10:02:01.073122728,2025-09-10,2025-09-12 19:21:47.312,AA,C,2096180302,JASSM,3,118,76,2,2,1,225,9,2,0,1,26,0,0,0,0,-178901.19861014312,-4778692.241182174,4210958.130339146,-2.36684,-0.400657,0.38129,82.0,-34.625,-35.625,0.0,0.0,0.0,0.0,0.0,0.0,2,0,41.55729635896686,-92.14399638579364,10000.003566276491,119.81644217901405,-0.0043112554037728,0.0059277955418707,,9258.460327898714,10912.736076441255,150,14280,8,2025-09-10,2025-09-12 19:21:47.158,AA,C,1227060834,AMBUSH51,1,1,48,2,1,1,225,2,1,0,0,9,1,225,2,1,-138675.61905893186,-4793188.487195406,4195707.078483985,2.34971,2.73577,-0.407395,-97.4711,35.5391,36.0497,-0.045589,-7.42805,6.29236,0.0439578,-0.0017425,-0.0113112,4,0,41.376051864416304,-91.657208326716,9206.153071096924,-58.62098076724145,0.4774233727970963,-1.1254244116930257,0.0,9258.460327898714,10912.736076441255,150,True,24.411587178964876,False,176.230768563042,176.39032888898996,False,0.5112771555480592,True,False
14296,8,1970-07-23 10:02:01.084380351,2025-09-10,2025-09-12 19:21:48.438,AA,C,2097492642,JASSM,3,118,76,2,2,1,225,9,2,0,1,26,0,0,0,0,-178810.90173514312,-4778730.495088424,4210918.815886021,-2.36684,-0.400657,0.38129,82.0,-34.625,-35.625,0.0,0.0,0.0,0.0,0.0,0.0,2,0,41.55682355432309,-92.14289811662788,9999.997558689587,119.81717073309568,-0.0033631277712893,0.0059262181425354,,9258.460327898714,10912.736076441255,150,14294,8,2025-09-10,2025-09-12 19:21:48.391,AA,C,1228532198,AMBUSH51,1,1,48,2,1,1,225,2,1,0,0,9,1,225,2,1,-138796.014031203,-4793144.282770162,4195751.972330244,2.41068,2.7374,-0.410197,-96.9512,35.5224,36.1171,-0.0673299,-7.62231,6.36494,0.0254009,0.00694399,0.00621786,4,0,41.3765971983116,-91.65866156160962,9203.306352074424,-58.571044768292296,0.6532247010611827,2.4056452068802403,0.0,9258.460327898714,10912.736076441255,150,True,24.28195493152001,False,176.37458044750534,176.38157618972056,False,0.45552768300834856,True,False
14311,8,1970-07-23 10:02:01.094134603,2025-09-10,2025-09-12 19:21:49.413,AA,C,2098685690,JASSM,3,118,76,2,2,1,225,9,2,0,1,26,0,0,0,0,-178728.81286795562,-4778765.272432174,4210883.077604771,-2.36684,-0.400657,0.38129,82.0,-34.625,-35.625,0.0,0.0,0.0,0.0,0.0,0.0,2,0,41.556393730954845,-92.14189969396116,10000.004252259145,119.81783304652753,-0.0025011910344763,0.0059247949303485,,9258.460327898714,10912.736076441255,150,14304,8,2025-09-10,2025-09-12 19:21:49.291,AA,C,1229605898,AMBUSH51,1,1,48,2,1,1,225,2,1,0,0,9,1,225,2,1,-138883.07721202326,-4793112.085340345,4195784.85989027,2.43686,2.72822,-0.416038,-96.4754,35.6767,36.4789,-0.199717,-7.407,6.58303,0.023932,0.000431723,0.0133917,4,0,41.37699577273367,-91.65971255844174,9201.601600589694,-57.99316513356672,0.5585430529792725,3.700714833683745,0.0,9258.460327898714,10912.736076441255,150,True,24.17756266330314,False,176.6633897693908,176.37306654654725,False,0.4737352673133688,True,False
14323,8,1970-07-23 10:02:01.105580617,2025-09-10,2025-09-12 19:21:50.558,AA,C,2099938388,JASSM,3,118,76,2,2,1,225,9,2,0,1,26,0,0,0,0,-178642.62048514312,-4778801.786104049,4210845.548307896,-2.36684,-0.400561,0.38129,82.0,-34.625,-35.625,0.0,0.0,0.0,0.0,0.0,0.0,2,0,41.55594239437287,-92.14085137664443,10000.001311919685,119.8148846663682,-0.0051625933333175,0.0038793875434907,,9258.460327898714,10912.736076441255,150,14324,8,2025-09-10,2025-09-12 19:21:50.592,AA,C,1231156796,AMBUSH51,1,1,48,2,1,1,225,2,1,0,0,9,1,225,2,1,-139007.49138580705,-4793065.354758596,4195832.42185341,2.45131,2.71578,-0.418857,-95.7555,36.4904,36.7501,-0.0617017,-7.21453,6.1377,-0.00816946,-0.00942822,0.0161215,4,0,41.37757342315799,-91.6612147156526,9198.62802125086,-57.412705929910544,0.2238545720719422,4.243531286606888,0.0,9258.460327898714,10912.736076441255,150,True,24.04767407223101,False,177.18084089493067,176.36275287925193,False,1.0123795162012694,True,False
14334,8,1970-07-23 10:02:01.116079066,2025-09-10,2025-09-12 19:21:51.607,AA,C,2101250736,JASSM,3,118,76,2,2,1,225,9,2,0,1,26,0,0,0,0,-178552.32263358062,-4778840.036104049,4210806.231901646,-2.36684,-0.400561,0.38129,82.0,-34.625,-35.625,0.0,0.0,0.0,0.0,0.0,0.0,2,0,41.555469569948336,-92.1397531433757,9999.997806516732,119.81561317724388,-0.0042144642778713,0.0038777624118404,,9258.460327898714,10912.736076441255,150,14333,8,2025-09-10,2025-09-12 19:21:51.525,AA,C,1232270262,AMBUSH51,1,1,48,2,1,1,225,2,1,0,0,9,1,225,2,1,-139096.6824055705,-4793031.1069883015,4195867.136753419,2.42843,2.70649,-0.424149,-95.3486,36.6189,37.2889,-0.0949081,-7.57138,6.3332,-0.0545293,-0.00547925,0.00281192,4,0,41.377996140686655,-91.66229186963676,9196.004864325128,-56.85301457229636,0.108801978294811,2.7166515770823256,0.0,9258.460327898714,10912.736076441255,150,True,23.936435871440786,False,177.5144404393303,176.35140333896555,False,1.237550533249351,True,False
14354,8,1970-07-23 10:02:01.126101697,2025-09-10,2025-09-12 19:21:52.610,AA,C,2102503438,JASSM,3,118,76,2,2,1,225,9,2,0,1,26,0,0,0,0,-178466.12927420562,-4778876.547822799,4210768.702604771,-2.36684,-0.400561,0.38129,82.0,-34.625,-35.625,0.0,0.0,0.0,0.0,0.0,0.0,2,0,41.55501822559403,-92.13870484510622,10000.000686619664,119.8163085574846,-0.0033094311083996,0.0038762091220498,,9258.460327898714,10912.736076441255,150,14355,8,2025-09-10,2025-09-12 19:21:52.724,AA,C,1233701860,AMBUSH51,1,1,48,2,1,1,225,2,1,0,0,9,1,225,2,1,-139211.93277035956,-4792986.491554227,4195912.483643161,2.35468,2.70114,-0.425803,-95.2185,36.8894,37.4616,-0.0795809,-7.37805,6.44913,-0.072231,0.0137995,-0.00402075,4,0,41.37854780307417,-91.6636838869975,9192.794884870196,-56.58611935635096,-0.0136575945806951,-1.6348484204824425,0.0,9258.460327898714,10912.736076441255,150,True,23.81166945484213,False,177.68865215278913,176.33890407950264,False,1.4294576332549969,True,False
14378,8,1970-07-23 10:02:01.136755522,2025-09-10,2025-09-12 19:21:53.675,AA,C,2103696492,JASSM,3,118,76,2,2,1,225,9,2,0,1,26,0,0,0,0,-178384.03943045562,-4778911.319307174,4210732.958464146,-2.36684,-0.400561,0.38129,82.0,-34.625,-35.625,0.0,0.0,0.0,0.0,0.0,0.0,2,0,41.55458836139628,-92.13770646893386,10000.000073761725,119.81697081653496,-0.0024474861724437,0.003874730591241,,9258.460327898714,10912.736076441255,150,14377,8,2025-09-10,2025-09-12 19:21:53.658,AA,C,1234815326,AMBUSH51,1,1,48,2,1,1,225,2,1,0,0,9,1,225,2,1,-139300.08748186062,-4792952.356824944,4195946.978797489,2.29092,2.70306,-0.422298,-95.5885,36.8813,37.1131,-0.116013,-7.43805,6.4877,-0.0625104,-0.00458875,-0.0178879,4,0,41.37896852053517,-91.6647486566596,9189.911388629986,-56.79755518135321,-0.0896757801419696,-5.242552880030585,0.0,9258.460327898714,10912.736076441255,150,True,23.70613142746371,False,177.46563121101744,176.3277870039209,False,1.297308978497379,True,False
14400,8,1970-07-23 10:02:01.147097734,2025-09-10,2025-09-12 19:21:54.709,AA,C,2104949182,JASSM,3,118,76,2,2,1,225,9,2,0,1,26,0,0,0,0,-178297.84704764312,-4778947.829072799,4210695.425261021,-2.36684,-0.400561,0.38129,82.0,-34.625,-35.625,0.0,0.0,0.0,0.0,0.0,0.0,2,0,41.55413698344238,-92.13665821170598,9999.999954361156,119.817666157439,-0.001542453626936,0.0038731596412362,,9258.460327898714,10912.736076441255,150,14401,8,2025-09-10,2025-09-12 19:21:54.758,AA,C,1236127624,AMBUSH51,1,1,48,2,1,1,225,2,1,0,0,9,1,225,2,1,-139405.6522067286,-4792912.052136719,4195987.717185233,2.23894,2.71178,-0.414846,-96.3756,36.3866,36.5119,-0.156538,-7.36607,6.89397,-0.0278623,0.00532112,-0.0107036,4,0,41.379465071032,-91.66602353170168,9186.636638520384,-57.42354805239998,-0.0828908594818047,-8.016524617868216,0.0,9258.460327898714,10912.736076441255,150,True,23.5875465436217,False,176.91060316444174,176.31648490938235,False,0.8828006430410394,True,False
14419,8,1970-07-23 10:02:01.157114786,2025-09-10,2025-09-12 19:21:55.711,AA,C,2106142230,JASSM,3,118,76,2,2,1,225,9,2,0,1,26,0,0,0,0,-178215.75818045562,-4778982.598604049,4210659.679167271,-2.36684,-0.400561,0.381386,82.125,-34.625,-35.625,0.0,0.0,0.0,0.0,0.0,0.0,2,0,41.55370709969037,-92.13565987521834,10000.00010667579,119.82217082221332,-0.0046061559229356,0.003871497595328,,9258.460327898714,10912.736076441255,150,14418,8,2025-09-10,2025-09-12 19:21:55.658,AA,C,1237201322,AMBUSH51,1,1,48,2,1,1,225,2,1,0,0,9,1,225,2,1,-139493.7491501096,-4792879.226616656,4196020.685995566,2.22602,2.71858,-0.406428,-97.1977,35.7711,35.8518,-0.0450001,-7.39398,6.49923,0.0167686,0.00567898,-0.0212855,4,0,41.37986768356716,-91.6670871869192,9183.671682358045,-58.01589010040514,-0.183055993424855,-8.600080469712884,0.0,9258.460327898714,10912.736076441255,150,True,23.482536418470797,False,176.3327148285714,176.34596331499907,False,0.6589537068718577,True,False
14434,8,1970-07-23 10:02:01.167096949,2025-09-10,2025-09-12 19:21:56.709,AA,C,2107394928,JASSM,3,118,76,2,2,1,225,9,2,0,1,26,0,0,0,0,-178129.56482108062,-4779019.104463424,4210622.145964146,-2.36684,-0.400561,0.381386,82.125,-34.625,-35.625,0.0,0.0,0.0,0.0,0.0,0.0,2,0,41.55325572653044,-92.13461163651854,10000.00051805272,119.82286613881492,-0.0037011283732341,0.0038700113657819,,9258.460327898714,10912.736076441255,150,14436,8,2025-09-10,2025-09-12 19:21:56.724,AA,C,1238473854,AMBUSH51,1,1,48,2,1,1,225,2,1,0,0,9,1,225,2,1,-139597.61106140935,-4792841.554827143,4196058.391008328,2.28038,2.73278,-0.396622,-97.9313,34.9448,35.2994,-0.150758,-7.37258,6.76519,0.118495,0.00482594,-0.0113132,4,0,41.38032836072215,-91.66834084312812,9180.18838416288,-58.94571033661767,-0.0655638871902323,-5.165277082717653,0.0,9258.460327898714,10912.736076441255,150,True,23.365760943912548,False,175.71585406882363,176.33806708801137,False,0.8372686669710075,True,False
14452,8,1970-07-23 10:02:01.178102244,2025-09-10,2025-09-12 19:21:57.810,AA,C,2108649984,JASSM,3,118,76,2,2,1,225,9,2,0,1,26,0,0,0,0,-178043.20837576812,-4779055.678682174,4210584.538542271,-2.36684,-0.400561,0.381386,82.125,-34.625,-35.625,0.0,0.0,0.0,0.0,0.0,0.0,2,0,41.552803472398985,-92.13356142939692,9999.997452620257,119.823562754888,-0.002794379951326,0.003868507143974,,9258.460327898714,10912.736076441255,150,14449,8,2025-09-10,2025-09-12 19:21:57.733,AA,C,1239666854,AMBUSH51,1,1,48,2,1,1,225,2,1,0,0,9,1,225,2,1,-139695.46420723666,-4792806.683236849,4196093.295732497,2.38671,2.7439,-0.394326,-98.1558,34.5823,35.2807,-0.129045,-7.46219,6.92306,0.0856883,0.00748702,-0.00175914,4,0,41.38075450241772,-91.66952177151023,9177.098152689552,-59.45929970580996,0.251985354440753,1.1716546828879244,0.0,9258.460327898714,10912.736076441255,150,True,23.25272820327801,False,175.54445623077973,176.33105460129366,False,0.905437629597473,True,False
14460,8,1970-07-23 10:02:01.187955952,2025-09-10,2025-09-12 19:21:58.795,AA,C,2109723726,JASSM,3,118,76,2,2,1,225,9,2,0,1,26,0,0,0,0,-177969.32849295562,-4779086.969697799,4210552.364714146,-2.36684,-0.400561,0.381386,82.125,-34.625,-35.625,0.0,0.0,0.0,0.0,0.0,0.0,2,0,41.55241654664221,-92.13266296476203,10000.001685793157,119.82415871324902,-0.0020186336835434,0.0038672164459353,,9258.460327898714,10912.736076441255,150,14464,8,2025-09-10,2025-09-12 19:21:58.924,AA,C,1241098452,AMBUSH51,1,1,48,2,1,1,225,2,1,0,0,9,1,225,2,1,-139812.33142644286,-4792765.071129711,4196135.298998564,2.45444,2.73336,-0.406745,-97.8525,34.937,35.7812,-0.115387,-7.26863,6.61913,0.030205,-0.00533985,0.0189241,4,0,41.38126535682395,-91.6709321771469,9174.18842411654,-58.56517848985805,0.3738305745059225,4.821820800837902,0.0,9258.460327898714,10912.736076441255,150,True,23.136031821371127,False,175.89873876093338,176.32538753292326,False,0.5808740207148136,True,False
14475,8,1970-07-23 10:02:01.198755754,2025-09-10,2025-09-12 19:21:59.875,AA,C,2111093372,JASSM,3,118,76,2,2,1,225,9,2,0,1,26,0,0,0,0,-177875.08825858062,-4779126.879854049,4210511.323698521,-2.36684,-0.400465,0.381386,82.125,-34.625,-35.625,0.0,0.0,0.0,0.0,0.0,0.0,2,0,41.55192300098677,-92.13151691220814,10000.001128301245,119.82127537445764,-0.0045955418876642,0.001821166174625,,9258.460327898714,10912.736076441255,150,14478,8,2025-09-10,2025-09-12 19:22:00.057,AA,C,1242450518,AMBUSH51,1,1,48,2,1,1,225,2,1,0,0,9,1,225,2,1,-139923.49983971837,-4792724.64758829,4196176.278069604,2.41075,2.72415,-0.410696,-97.426,35.5004,36.385,-0.174847,-7.27369,6.65081,-0.0812254,-0.00399994,0.0121143,4,0,41.38176319857459,-91.6722741210294,9171.58138436708,-58.06046823400327,0.200389739469474,2.111541560840893,0.0,9258.460327898714,10912.736076441255,150,True,23.009665039131953,False,176.38334653956383,176.3159162437108,False,0.3765642974247357,True,False
14488,8,1970-07-23 10:02:01.210098902,2025-09-10,2025-09-12 19:22:01.009,AA,C,2112465376,JASSM,3,118,76,2,2,1,225,9,2,0,1,26,0,0,0,0,-177780.68591483062,-4779166.858369674,4210470.210417271,-2.36684,-0.400465,0.381386,82.125,-34.625,-35.625,0.0,0.0,0.0,0.0,0.0,0.0,2,0,41.5514285853679,-92.13036890585732,10000.002485105058,119.8220368417634,-0.0036043152656218,0.0018194640543379,,9258.460327898714,10912.736076441255,150,14486,8,2025-09-10,2025-09-12 19:22:00.857,AA,C,1243404916,AMBUSH51,1,1,48,2,1,1,225,2,1,0,0,9,1,225,2,1,-140001.54400534884,-4792695.986841645,4196205.485343861,2.362,2.72038,-0.414148,-97.3858,35.635,36.6043,-0.0232306,-7.36937,6.67213,-0.0471182,0.00179243,0.00494869,4,0,41.38211733012,-91.67321632400896,9170.013183598165,-57.78153599300544,0.2064185365741868,-0.7673441757457564,0.0,9258.460327898714,10912.736076441255,150,True,22.903107187882142,False,176.50930116352586,176.30566363084662,False,0.3937324804602651,True,False
14499,8,1970-07-23 10:02:01.220124954,2025-09-10,2025-09-12 19:22:02.012,AA,C,2113718074,JASSM,3,118,76,2,2,1,225,9,2,0,1,26,0,0,0,0,-177694.49157889312,-4779203.358369674,4210432.669401646,-2.36684,-0.400465,0.381386,82.125,-34.625,-35.625,0.0,0.0,0.0,0.0,0.0,0.0,2,0,41.55097714635351,-92.12932073169516,9999.99781084335,119.82273208433962,-0.0026992728816692,0.0018179083065559,,9258.460327898714,10912.736076441255,150,14501,8,2025-09-10,2025-09-12 19:22:02.091,AA,C,1244876282,AMBUSH51,1,1,48,2,1,1,225,2,1,0,0,9,1,225,2,1,-140121.13667006278,-4792652.2559944615,4196250.11176364,2.29618,2.72489,-0.409349,-97.5884,35.3375,36.417,0.0559596,-7.26423,6.35887,-0.0374351,0.00732889,-0.00538562,4,0,41.38265798012574,-91.67466008354816,9167.798705544972,-58.14365758947941,0.1738754808226633,-4.43591505820954,0.0,9258.460327898714,10912.736076441255,150,True,22.776549730973485,False,176.30267686539463,176.29620021275423,False,0.30423040837548093,True,False
14512,8,1970-07-23 10:02:01.232099051,2025-09-10,2025-09-12 19:22:03.209,AA,C,2115090078,JASSM,3,118,76,2,2,1,225,9,2,0,1,26,0,0,0,0,-177600.08923514312,-4779243.334932174,4210391.554167271,-2.36684,-0.400465,0.381386,82.125,-34.625,-35.625,0.0,0.0,0.0,0.0,0.0,0.0,2,0,41.55048270722521,-92.12817275968212,10000.00211884289,119.8234935146306,-0.00170804591321,0.0018162044630549,,9258.460327898714,10912.736076441255,150,14513,8,2025-09-10,2025-09-12 19:22:03.257,AA,C,1246268114,AMBUSH51,1,1,48,2,1,1,225,2,1,0,0,9,1,225,2,1,-140235.85938866978,-4792610.764604757,4196292.19506181,2.28964,2.72849,-0.403904,-97.9862,35.0438,35.6687,0.0347004,-7.43636,6.25072,0.0255965,0.00168632,-0.00273078,4,0,41.38316896756607,-91.67604491403804,9165.237437643218,-58.49759755580096,0.0824349862701665,-4.72996009286931,0.0,9258.460327898714,10912.736076441255,150,True,22.648003918736233,False,175.86220913505892,176.28676879277347,False,0.6404571455806198,True,False
14524,8,1970-07-23 10:02:01.242095157,2025-09-10,2025-09-12 19:22:04.209,AA,C,2116342778,JASSM,3,118,76,2,2,1,225,9,2,0,1,26,0,0,0,0,-177513.89587576812,-4779279.832979049,4210354.011198521,-2.36684,-0.400465,0.381482,82.125,-34.625,-35.625,0.0,0.0,0.0,0.0,0.0,0.0,2,0,41.5500312463986,-92.12712462863789,9999.99944195956,119.8280313001274,-0.0047285127868126,0.0018144569732554,,9258.460327898714,10912.736076441255,150,14526,8,2025-09-10,2025-09-12 19:22:04.257,AA,C,1247461112,AMBUSH51,1,1,48,2,1,1,225,2,1,0,0,9,1,225,2,1,-140332.7802664827,-4792575.873050963,4196327.413540835,2.31345,2.73291,-0.398396,-98.1927,34.8577,35.287,-0.273894,-7.47315,6.39282,0.00459915,0.00497366,-0.00634477,4,0,41.38359743050372,-91.67721481723171,9162.75184949296,-58.88568996637378,0.0195113526674995,-3.2668461673838443,0.0,9258.460327898714,10912.736076441255,150,True,22.535452418741357,False,175.62353829615626,176.2784402673067,False,0.8562003071577635,True,False
14541,8,1970-07-23 10:02:01.254095687,2025-09-10,2025-09-12 19:22:05.409,AA,C,2117714780,JASSM,3,118,76,2,2,1,225,9,2,0,1,26,0,0,0,0,-177419.49255545562,-4779319.805635299,4210312.894011021,-2.36684,-0.400465,0.381482,82.125,-34.625,-35.625,0.0,0.0,0.0,0.0,0.0,0.0,2,0,41.54953679562874,-92.12597668013856,10000.001819906054,119.82879270069368,-0.0037372842352117,0.0018128322072822,,9258.460327898714,10912.736076441255,150,14540,8,2025-09-10,2025-09-12 19:22:05.390,AA,C,1248813178,AMBUSH51,1,1,48,2,1,1,225,2,1,0,0,9,1,225,2,1,-140444.30400890345,-4792536.0447539445,4196367.341914948,2.32342,2.73237,-0.398873,-98.3433,34.5487,35.1168,-0.0640113,-7.33287,6.50502,0.00742876,0.0011953,0.00256225,4,0,41.38408450218062,-91.67856089450636,9159.393818248878,-58.84714784155,0.020400054934843,-2.7077015131289497,0.0,9258.460327898714,10912.736076441255,150,True,22.409101188809505,False,175.43363582936638,176.27003842259813,False,0.9795032809653388,True,False
14553,8,1970-07-23 10:02:01.264802451,2025-09-10,2025-09-12 19:22:06.480,AA,C,2118967480,JASSM,3,118,76,2,2,1,225,9,2,0,1,26,0,0,0,0,-177333.29821951812,-4779356.301729049,4210275.349089146,-2.36684,-0.400465,0.381482,82.125,-34.625,-35.625,0.0,0.0,0.0,0.0,0.0,0.0,2,0,41.549085313423625,-92.12492856882828,10000.000962389544,119.82948787568236,-0.0028322410818889,0.001811333727009,,9258.460327898714,10912.736076441255,150,14554,8,2025-09-10,2025-09-12 19:22:06.557,AA,C,1250205010,AMBUSH51,1,1,48,2,1,1,225,2,1,0,0,9,1,225,2,1,-140559.74873750194,-4792495.235879627,4196408.072448149,2.32861,2.73079,-0.393058,-98.5258,34.6864,34.591,-0.0021362,-7.00792,6.16069,-0.00305327,0.00319267,-0.00329046,4,0,41.38458212296446,-91.67995417215302,9155.653913793729,-59.02001222606143,-0.275853332620161,-2.444659728279606,0.0,9258.460327898714,10912.736076441255,150,True,22.28571759154142,False,175.24619838787174,176.26335820227908,False,1.2533242106394056,True,False
14565,8,1970-07-23 10:02:01.275095233,2025-09-10,2025-09-12 19:22:07.509,AA,C,2120220178,JASSM,3,118,76,2,2,1,225,9,2,0,1,26,0,0,0,0,-177247.10486014312,-4779392.795869674,4210237.804167271,-2.36684,-0.400369,0.381482,82.125,-34.625,-35.625,0.0,0.0,0.0,0.0,0.0,0.0,2,0,41.54863383306422,-92.12388048466045,10000.00062795673,119.82653977706543,-0.0054936333656829,-0.0002350135740189,,9258.460327898714,10912.736076441255,150,14564,8,2025-09-10,2025-09-12 19:22:07.424,AA,C,1251238942,AMBUSH51,1,1,48,2,1,1,225,2,1,0,0,9,1,225,2,1,-140645.15298598097,-4792465.033040416,4196437.795435728,2.32743,2.72889,-0.391609,-98.6956,34.6122,34.4017,0.0808662,-7.00876,6.17879,0.00163847,-0.00261219,-0.000406756,4,0,41.38494756137281,-91.68098491626202,9151.973791125998,-59.00632566457399,-0.4046131257639168,-2.553962132145456,0.0,9258.460327898714,10912.736076441255,150,True,22.1804420116862,False,175.11645651446435,176.2562339273876,False,1.3764100267472332,True,False
14580,8,1970-07-23 10:02:01.286773846,2025-09-10,2025-09-12 19:22:08.677,AA,C,2121592182,JASSM,3,118,76,2,2,1,225,9,2,0,1,26,0,0,0,0,-177152.70153983062,-4779432.764619674,4210196.681120396,-2.36674,-0.400369,0.381482,82.125,-34.625,-35.625,0.0,0.0,0.0,0.0,0.0,0.0,2,0,41.548139333626544,-92.1227325873356,9999.998388877524,119.827301122765,-0.0045023977653868,0.0052547559150581,,9258.460327898714,10912.736076441255,150,14578,8,2025-09-10,2025-09-12 19:22:08.524,AA,C,1252551240,AMBUSH51,1,1,48,2,1,1,225,2,1,0,0,9,1,225,2,1,-140753.02760688815,-4792426.94169084,4196474.931056693,2.32353,2.73211,-0.38909,-98.9183,34.7269,33.9603,-0.034021,-7.22252,6.4235,-0.0232163,0.00905371,0.00116201,4,0,41.38540603781096,-91.68228685200911,9146.590647314715,-59.23026606398134,-0.3881798742946847,-2.705622591483997,0.0,9258.460327898714,10912.736076441255,150,True,22.05662531090324,False,174.93393881719464,176.24910732588256,False,1.6227741065092505,True,False
14594,8,1970-07-23 10:02:01.297096531,2025-09-10,2025-09-12 19:22:09.709,AA,C,2122904532,JASSM,3,118,76,2,2,1,225,9,2,0,1,26,0,0,0,0,-177062.40368826812,-4779470.995088424,4210157.347136021,-2.36674,-0.400369,0.381482,82.125,-34.625,-35.625,0.0,0.0,0.0,0.0,0.0,0.0,2,0,41.54766633366125,-92.12163462687656,10000.00335440671,119.82802934075096,-0.0035542721248903,0.0052531317545644,,9258.460327898714,10912.736076441255,150,14593,8,2025-09-10,2025-09-12 19:22:09.657,AA,C,1253903306,AMBUSH51,1,1,48,2,1,1,225,2,1,0,0,9,1,225,2,1,-140865.8735822772,-4792387.340071143,4196513.381653996,2.31358,2.73315,-0.387458,-99.2377,34.5219,33.7065,-0.158838,-7.15401,6.50582,0.00263715,0.00102053,-0.0120165,4,0,41.38588149258278,-91.68364872110511,9140.710749565247,-59.33586352994508,-0.4157705317472366,-3.252144276427124,0.0,9258.460327898714,10912.736076441255,150,True,21.93251908097046,False,174.70935291260378,176.24305267688914,False,1.812026728910628,True,False
14609,8,1970-07-23 10:02:01.309607419,2025-09-10,2025-09-12 19:22:10.960,AA,C,2124157232,JASSM,3,118,76,2,2,1,225,9,2,0,1,26,0,0,0,0,-176976.20935233062,-4779507.485322799,4210119.798307896,-2.36674,-0.400369,0.381482,82.125,-34.625,-35.625,0.0,0.0,0.0,0.0,0.0,0.0,2,0,41.54721482037563,-92.12058657858468,10000.001272310974,119.8287244483337,-0.0026492347595207,0.0052515820817562,,9258.460327898714,10912.736076441255,150,14608,8,2025-09-10,2025-09-12 19:22:10.925,AA,C,1255414438,AMBUSH51,1,1,48,2,1,1,225,2,1,0,0,9,1,225,2,1,-140991.09430362252,-4792343.830316232,4196555.4145150855,2.31396,2.73741,-0.386514,-99.6331,34.365,33.3197,-0.205939,-7.30953,6.61106,0.00849195,-0.00591617,-0.00389799,4,0,41.38640219976048,-91.6851598048311,9133.889121045711,-59.53651401748533,-0.2955995694189859,-3.136745151639778,0.0,9258.460327898714,10912.736076441255,150,True,21.803776012866503,False,174.4314147886547,176.23874220494406,False,2.082038473240423,True,False
14621,8,1970-07-23 10:02:01.319980188,2025-09-10,2025-09-12 19:22:11.998,AA,C,2125469582,JASSM,3,118,76,2,2,1,225,9,2,0,1,26,0,0,0,0,-176885.91052420562,-4779545.711885299,4210080.460417271,-2.36674,-0.400369,0.381482,82.125,-34.625,-35.625,0.0,0.0,0.0,0.0,0.0,0.0,2,0,41.5467417970503,-92.1194886394497,9999.99927566592,119.82945263886496,-0.0017011011105353,0.005249959115477,,9258.460327898714,10912.736076441255,150,14625,8,2025-09-10,2025-09-12 19:22:12.124,AA,C,1256846036,AMBUSH51,1,1,48,2,1,1,225,2,1,0,0,9,1,225,2,1,-141111.6481495531,-4792302.209176615,4196595.3019552585,2.31823,2.73651,-0.381461,-100.088,34.229,33.0945,-0.191755,-7.38043,6.60671,-0.00656116,0.00417887,-0.00657988,4,0,41.38689798491783,-91.68661450146298,9126.732482490796,-59.70534841578665,-0.5350928667113299,-2.910097517831104,0.0,9258.460327898714,10912.736076441255,150,True,21.67538959467977,False,174.2083344892192,176.23444499716658,False,2.286571297756966,True,False
14635,8,1970-07-23 10:02:01.329121107,2025-09-10,2025-09-12 19:22:12.912,AA,C,2126722282,JASSM,3,118,76,2,2,1,225,9,2,0,1,26,0,0,0,0,-176799.71618826812,-4779582.200166549,4210042.909636021,-2.36674,-0.400369,0.381578,82.125,-34.625,-35.625,0.0,0.0,0.0,0.0,0.0,0.0,2,0,41.54629026262881,-92.11844062188396,9999.998853011066,119.8339904388602,-0.0047214275156906,0.0052482227055944,,9258.460327898714,10912.736076441255,150,14632,8,2025-09-10,2025-09-12 19:22:12.724,AA,C,1257561834,AMBUSH51,1,1,48,2,1,1,225,2,1,0,0,9,1,225,2,1,-141171.4715269137,-4792281.60176391,4196614.906213272,2.35206,2.7423,-0.381934,-100.139,34.106,33.0482,-0.170682,-7.61607,6.714,0.0728343,0.00470318,-0.00301582,4,0,41.38714244965884,-91.68733636912977,9122.888251075836,-59.907056998806205,-0.3000778678712583,-0.8469081418137333,0.0,9258.460327898714,10912.736076441255,150,True,21.585760241410497,False,174.14575094856588,176.22782159722507,False,2.3272026415692917,True,False
14650,8,1970-07-23 10:02:01.341139276,2025-09-10,2025-09-12 19:22:14.113,AA,C,2128094284,JASSM,3,118,76,2,2,1,225,9,2,0,1,26,0,0,0,0,-176705.31286795562,-4779622.163057174,4210001.780729771,-2.36674,-0.400369,0.381578,82.125,-34.625,-35.625,0.0,0.0,0.0,0.0,0.0,0.0,2,0,41.54579570417461,-92.11729281006,9999.999198388754,119.83475169268615,-0.0037301908381314,0.0052465814625628,,9258.460327898714,10912.736076441255,150,14653,8,2025-09-10,2025-09-12 19:22:14.257,AA,C,1259391100,AMBUSH51,1,1,48,2,1,1,225,2,1,0,0,9,1,225,2,1,-141324.8658600854,-4792229.258169455,4196665.533275971,2.43839,2.74736,-0.39163,-99.8083,33.8499,33.7587,-0.142286,-7.89769,6.84835,0.0502349,0.0144008,0.0140971,4,0,41.38776874117774,-91.68918717571644,9115.04210170442,-59.71093491526516,0.2860406661607731,4.209169734691838,0.0,9258.460327898714,10912.736076441255,150,True,21.435380581324818,False,174.40697748634517,176.22523613576848,False,1.971527432325478,True,False
14665,8,1970-07-23 10:02:01.351154280,2025-09-10,2025-09-12 19:22:15.115,AA,C,2129168026,JASSM,3,118,76,2,2,1,225,9,2,0,1,26,0,0,0,0,-176631.43200858062,-4779653.436494674,4209969.593229771,-2.36674,-0.400369,0.381578,82.125,-34.625,-35.625,0.0,0.0,0.0,0.0,0.0,0.0,2,0,41.54540866383752,-92.1163945355746,9999.999996780944,119.83534744271614,-0.0029544475538877,0.0052453083196841,,9258.460327898714,10912.736076441255,150,14662,8,2025-09-10,2025-09-12 19:22:15.023,AA,C,1260305732,AMBUSH51,1,1,48,2,1,1,225,2,1,0,0,9,1,225,2,1,-141401.23133569083,-4792203.186994981,4196691.56198778,2.48661,2.74398,-0.400359,-99.291,33.7286,34.6471,-0.0542657,-8.00431,6.80454,0.0768769,0.00316354,0.00963211,4,0,41.388086164766165,-91.69010859512102,9112.89940169573,-59.23396664373282,0.51883963141998,6.900938187801129,0.0,9258.460327898714,10912.736076441255,150,True,21.343501370310978,False,174.79466786796016,176.2201741529331,False,1.4946988529565455,True,False
14674,8,1970-07-23 10:02:01.359115903,2025-09-10,2025-09-12 19:22:15.911,AA,C,2130301420,JASSM,3,118,76,2,2,1,225,9,2,0,1,26,0,0,0,0,-176553.44665701812,-4779686.446260299,4209935.616667271,-2.36674,-0.400273,0.381578,82.125,-34.625,-35.625,0.0,0.0,0.0,0.0,0.0,0.0,2,0,41.54500011424408,-92.11544636905424,10000.000453917346,119.83233329580104,-0.0057020233071425,0.0031986352014511,,9258.460327898714,10912.736076441255,150,14672,8,2025-09-10,2025-09-12 19:22:15.757,AA,C,1261180598,AMBUSH51,1,1,48,2,1,1,225,2,1,0,0,9,1,225,2,1,-141473.84466018123,-4792178.094842071,4196717.065312498,2.57975,2.74161,-0.408064,-98.6023,34.2663,35.5993,-0.302963,-7.59559,6.96917,0.173816,0.0107244,0.0146359,4,0,41.388394869189504,-91.69098485636354,9111.756954435152,-58.83610028324654,0.7473148142112631,12.188167516769168,0.0,9258.460327898714,10912.736076441255,150,False,21.251097131115994,False,175.44363216467002,176.21351119992883,False,0.8237702512541356,True,False
14687,8,1970-07-23 10:02:01.369114383,2025-09-10,2025-09-12 19:22:16.911,AA,C,2131434814,JASSM,3,118,76,2,2,1,225,9,2,0,1,26,0,0,0,0,-176475.46130545562,-4779719.456025924,4209901.638151646,-2.36674,-0.400273,0.381578,82.125,-34.625,-35.625,0.0,0.0,0.0,0.0,0.0,0.0,2,0,41.544591543648494,-92.11449821447115,10000.000939641195,119.83296211717548,-0.0048831772241379,0.0031972281493805,,9258.460327898714,10912.736076441255,150,14685,8,2025-09-10,2025-09-12 19:22:16.791,AA,C,1262413364,AMBUSH51,1,1,48,2,1,1,225,2,1,0,0,9,1,225,2,1,-141574.62693313527,-4792141.905548498,4196754.218597716,2.74118,2.7215,-0.420376,-97.2953,35.8042,37.5495,-0.215263,-7.29945,6.83322,0.135375,-0.00223976,0.0313722,4,0,41.38884328619262,-91.69220154133244,9110.633169865134,-57.58895589037336,0.5199113224116998,20.987828289505888,0.0,9258.460327898714,10912.736076441255,150,False,21.141274111313912,False,176.8867144305927,176.20486234221008,False,0.6838960325805767,True,False
14698,8,1970-07-23 10:02:01.379153666,2025-09-10,2025-09-12 19:22:17.915,AA,C,2132508556,JASSM,3,118,76,2,2,1,225,9,2,0,1,26,0,0,0,0,-176401.58044608062,-4779750.727510299,4209869.448698521,-2.36674,-0.400273,0.381578,82.125,-34.625,-35.625,0.0,0.0,0.0,0.0,0.0,0.0,2,0,41.54420447989531,-92.11359997418134,10000.004641804378,119.83355783042704,-0.0041074336714245,0.0031959039603247,,9258.460327898714,10912.736076441255,150,14696,8,2025-09-10,2025-09-12 19:22:17.825,AA,C,1263646128,AMBUSH51,1,1,48,2,1,1,225,2,1,0,0,9,1,225,2,1,-141675.066366191,-4792102.577917723,4196793.860779659,2.87789,2.68246,-0.434543,-95.3487,38.8993,39.6523,-0.203762,-6.85964,6.50559,0.112339,0.00988803,0.0383131,4,0,41.38932722299239,-91.69341525600686,9107.168634337157,-55.55385740420572,-0.2906726383880604,27.897405208591017,0.0,9258.460327898714,10912.736076441255,150,False,21.033203824701204,False,179.04322173574144,176.1911561130426,False,2.888205050672449,True,False
14711,8,1970-07-23 10:02:01.387136734,2025-09-10,2025-09-12 19:22:18.713,AA,C,2133582298,JASSM,3,118,76,2,2,1,225,9,2,0,1,26,0,0,0,0,-176327.70056326812,-4779781.997041549,4209837.257292271,-2.36674,-0.400273,0.381578,82.125,-34.625,-35.625,0.0,0.0,0.0,0.0,0.0,0.0,2,0,41.54381740737875,-92.11270175715828,10000.003229820924,119.83415352368893,-0.0033316973603722,0.0031945735735827,,9258.460327898714,10912.736076441255,150,14710,8,2025-09-10,2025-09-12 19:22:18.690,AA,C,1264680060,AMBUSH51,1,1,48,2,1,1,225,2,1,0,0,9,1,225,2,1,-141756.46990671783,-4792067.100071478,4196828.461096964,2.95964,2.65363,-0.443488,-93.3894,42.2148,41.5438,-0.23099,-7.26142,6.82554,0.0641125,0.0276064,0.0459739,4,0,41.38975755461947,-91.6944002271046,9100.860100162285,-54.10770933166401,-0.9256652415797032,31.86351843709091,0.0,9258.460327898714,10912.736076441255,150,False,20.93577114727369,False,178.61423510838645,176.17259331536215,False,5.125635324818495,True,False
14722,8,1970-07-23 10:02:01.397134200,2025-09-10,2025-09-12 19:22:19.713,AA,C,2134775344,JASSM,3,118,76,2,2,1,225,9,2,0,1,26,0,0,0,0,-176245.60974295562,-4779816.739229049,4209801.487761021,-2.36674,-0.400273,0.381578,82.125,-34.625,-35.625,0.0,0.0,0.0,0.0,0.0,0.0,2,0,41.54338732058349,-92.11170372689584,9999.99888452876,119.83481540726854,-0.0024697535525756,0.003193106002038,,9258.460327898714,10912.736076441255,150,14723,8,2025-09-10,2025-09-12 19:22:19.724,AA,C,1265912826,AMBUSH51,1,1,48,2,1,1,225,2,1,0,0,9,1,225,2,1,-141851.73410822154,-4792020.544985817,4196872.53113606,3.02676,2.60921,-0.461368,-90.4249,46.6676,44.3822,-0.306157,-7.66715,7.21251,0.0456014,0.0169787,0.0566681,4,0,41.39031526684602,-91.69555470842752,9088.854552494711,-51.71733299865894,-1.6831211552744616,34.54231966230856,0.0,9258.460327898714,10912.736076441255,150,False,20.82298662916538,False,175.5371872876312,176.14305677366815,False,8.279326536853691,True,False
14736,8,1970-07-23 10:02:01.406796672,2025-09-10,2025-09-12 19:22:20.679,AA,C,2135908740,JASSM,3,118,76,2,2,1,225,9,2,0,1,26,0,0,0,0,-176167.62341483062,-4779849.745088424,4209767.505339146,-2.36674,-0.400273,0.381578,82.125,-34.625,-35.625,0.0,0.0,0.0,0.0,0.0,0.0,2,0,41.54297871621744,-92.1107556094682,9999.998085458245,119.83544418394705,-0.0016508993774254,0.0031917000991214,,9258.460327898714,10912.736076441255,150,14734,8,2025-09-10,2025-09-12 19:22:20.557,AA,C,1266906992,AMBUSH51,1,1,48,2,1,1,225,2,1,0,0,9,1,225,2,1,-141926.67337214277,-4791979.558864514,4196910.75135498,3.07906,2.56917,-0.482144,-87.5711,50.219,47.0842,-0.366387,-7.90933,7.5839,0.0331199,0.0352047,0.0557027,4,0,41.3908039255489,-91.69646443602277,9076.385955567064,-49.39016178128801,-2.107033196326676,36.41934713829615,0.0,9258.460327898714,10912.736076441255,150,False,20.72447332067557,False,172.83958270516337,176.11052482277353,False,11.027997632060893,True,False
14750,8,1970-07-23 10:02:01.417585254,2025-09-10,2025-09-12 19:22:21.758,AA,C,2137101786,JASSM,3,118,76,2,2,1,225,9,2,0,1,26,0,0,0,0,-176085.53357108062,-4779884.487275924,4209731.735807896,-2.36674,-0.400273,0.381674,82.125,-34.625,-35.625,0.0,0.0,0.0,0.0,0.0,0.0,2,0,41.54254861225489,-92.1097576166876,10000.00307265718,119.8399488981946,-0.0047141889891195,0.0031900433648971,,9258.460327898714,10912.736076441255,150,14748,8,2025-09-10,2025-09-12 19:22:21.623,AA,C,1268179524,AMBUSH51,1,1,48,2,1,1,225,2,1,0,0,9,1,225,2,1,-142017.63570331573,-4791923.346941149,4196962.457941869,3.13798,2.51598,-0.506241,-83.4854,54.8749,50.7252,-0.150027,-8.15146,7.63241,0.031237,0.0244043,0.0613931,4,0,41.39147137978163,-91.69757098391916,9056.886771091273,-46.43705609425827,-2.7329705569049643,38.22424001206543,0.0,9258.460327898714,10912.736076441255,150,False,20.61073525858301,False,169.18686945211803,176.06102573794666,False,14.74041569523181,True,False
14763,8,1970-07-23 10:02:01.427136508,2025-09-10,2025-09-12 19:22:22.713,AA,C,2138354484,JASSM,3,118,76,2,2,1,225,9,2,0,1,26,0,0,0,0,-175999.33923514312,-4779920.963838424,4209694.175261021,-2.36674,-0.400273,0.381674,82.125,-34.625,-35.625,0.0,0.0,0.0,0.0,0.0,0.0,2,0,41.54209699294408,-92.1087097397085,10000.001176822909,119.84064382213002,-0.0038091559323546,0.0031885570942002,,9258.460327898714,10912.736076441255,150,14761,8,2025-09-10,2025-09-12 19:22:22.624,AA,C,1269372522,AMBUSH51,1,1,48,2,1,1,225,2,1,0,0,9,1,225,2,1,-142099.00537505318,-4791865.751776637,4197014.909954161,-3.08327,2.45918,-0.533687,-78.9661,59.3246,54.384,-0.16803,-8.46746,7.92167,0.0395219,0.0361826,0.0427697,4,0,41.3921537777283,-91.69856344904184,9034.90896346887,-43.235998073684,-3.206430897905172,39.98988297232741,0.0,9258.460327898714,10912.736076441255,150,False,20.498646845462474,False,165.48569626573587,176.00184447227525,False,18.50629524093024,True,False
14776,8,1970-07-23 10:02:01.437135445,2025-09-10,2025-09-12 19:22:23.713,AA,C,2139607184,JASSM,3,118,76,2,2,1,225,9,2,0,1,26,0,0,0,0,-175913.14441092435,-4779957.440400924,4209656.612761021,-2.36674,-0.400273,0.381674,82.125,-34.625,-35.625,0.0,0.0,0.0,0.0,0.0,0.0,2,0,41.5416453510006,-92.1076618714662,10000.000213829831,119.84133873406633,-0.0029041125165417,0.0031870616402595,,9258.460327898714,10912.736076441255,150,14773,8,2025-09-10,2025-09-12 19:22:23.557,AA,C,1270485988,AMBUSH51,1,1,48,2,1,1,225,2,1,0,0,9,1,225,2,1,-142170.9540961705,-4791807.807094881,4197067.4840565855,-3.02998,2.39576,-0.566654,-74.0326,63.3437,57.9458,-0.272356,-8.76821,8.35979,0.0144508,0.0399922,0.0589422,4,0,41.3928407346192,-91.69944351340789,9011.654956393675,-39.61283233720137,-3.472875207914489,40.93166723318432,0.0,9258.460327898714,10912.736076441255,150,False,20.390996754048885,False,161.81922232148654,175.93508994034704,False,22.243025021168584,True,False
14791,8,1970-07-23 10:02:01.447134336,2025-09-10,2025-09-12 19:22:24.713,AA,C,2140740578,JASSM,3,118,76,2,2,1,225,9,2,0,1,26,0,0,0,0,-175835.15857108062,-4779990.440400924,4209622.628386021,-2.36674,-0.400177,0.381674,82.125,-34.625,-35.625,0.0,0.0,0.0,0.0,0.0,0.0,2,0,41.54123673487093,-92.1067138133546,9999.99907021273,119.83832473693217,-0.0056516832448827,0.0011399046224977,,9258.460327898714,10912.736076441255,150,14793,8,2025-09-10,2025-09-12 19:22:24.724,AA,C,1271877820,AMBUSH51,1,1,48,2,1,1,225,2,1,0,0,9,1,225,2,1,-142253.58499451308,-4791730.537527716,4197138.188539002,-2.97706,2.30826,-0.616179,-66.7869,67.8297,63.1469,-0.160656,-9.92373,9.32642,0.00887478,0.0614993,0.0559004,4,0,41.39376316672541,-91.70045806826354,8980.976522487672,-34.56973541906755,-3.3592237682664936,40.86536514103889,0.0,9258.460327898714,10912.736076441255,150,False,20.276919380355405,False,156.8731953646325,175.84020351438224,False,27.286601099164375,True,False
14808,8,1970-07-23 10:02:01.457134098,2025-09-10,2025-09-12 19:22:25.713,AA,C,2141933604,JASSM,3,118,76,2,2,1,225,9,2,0,1,26,0,0,0,0,-175753.06970389312,-4780025.176729049,4209586.852995396,-2.36674,-0.400177,0.381674,82.125,-34.625,-35.625,0.0,0.0,0.0,0.0,0.0,0.0,2,0,41.54080659096672,-92.10571588841113,9999.996217554482,119.8389865170835,-0.004789753436809,0.0011384258736987,,9258.460327898714,10912.736076441255,150,14810,8,2025-09-10,2025-09-12 19:22:25.725,AA,C,1273070818,AMBUSH51,1,1,48,2,1,1,225,2,1,0,0,9,1,225,2,1,-142316.8174505817,-4791660.983105935,4197203.721497617,-2.93596,2.23181,-0.662161,-59.5183,70.765,68.0063,-0.215374,-10.6771,9.6308,-0.0106537,0.0514729,0.0570301,4,0,41.39460820882615,-91.70123816645338,8956.650577192962,-30.20263003696815,-2.836452089060638,40.36979997075423,0.0,9258.460327898714,10912.736076441255,150,False,20.171824045792473,False,152.3727161116614,175.74296673601597,False,31.881298428317283,False,False
14825,8,1970-07-23 10:02:01.466136074,2025-09-10,2025-09-12 19:22:26.613,AA,C,2143066998,JASSM,3,118,76,2,2,1,225,9,2,0,1,26,0,0,0,0,-175675.08386404935,-4780058.176729049,4209552.866667271,-2.36674,-0.400177,0.381674,82.125,-34.625,-35.625,0.0,0.0,0.0,0.0,0.0,0.0,2,0,41.54039794557853,-92.10476785480016,9999.999606319056,119.83961520627132,-0.0039709086022118,0.0011370268751671,,9258.460327898714,10912.736076441255,150,14830,8,2025-09-10,2025-09-12 19:22:26.724,AA,C,1274263818,AMBUSH51,1,1,48,2,1,1,225,2,1,0,0,9,1,225,2,1,-142371.90168674308,-4791588.894288247,4197273.825763092,-2.88841,2.14758,-0.709124,-51.4969,72.6376,72.8738,-0.413467,-11.2718,10.0808,-0.00563737,0.0656625,0.0578457,4,0,41.395500627864806,-91.70192183937668,8935.41821258244,-25.650265779017666,-2.131941662949406,39.8393135747505,0.0,9258.460327898714,10912.736076441255,150,False,20.072030059710205,False,147.75441694298289,175.63301304285997,False,36.5998035972748,False,False
14841,8,1970-07-23 10:02:01.476134217,2025-09-10,2025-09-12 19:22:27.613,AA,C,2144200412,JASSM,3,118,76,2,2,1,225,9,2,0,1,26,0,0,0,0,-175597.09655936187,-4780091.174775924,4209518.878386021,-2.36674,-0.400177,0.381674,82.125,-34.625,-35.625,0.0,0.0,0.0,0.0,0.0,0.0,2,0,41.5399892911589,-92.10381981645035,9999.998099024751,119.84024389352044,-0.0031520522922561,0.0011356330235422,,9258.460327898714,10912.736076441255,150,14843,8,2025-09-10,2025-09-12 19:22:27.624,AA,C,1275337516,AMBUSH51,1,1,48,2,1,1,225,2,1,0,0,9,1,225,2,1,-142414.02643333637,-4791523.007799225,4197340.667468609,-2.84512,2.06596,-0.754084,-43.3608,73.8488,76.975,-0.320172,-11.6933,10.5091,-0.0660682,0.0648428,0.0635258,4,0,41.396336412029854,-91.70244850036788,8921.42486344729,-21.42815950615181,-1.172618427803321,39.0717646946432,0.0,9258.460327898714,10912.736076441255,150,False,19.980136701601737,False,143.2909480453188,175.52250273411022,False,41.16189147881447,False,False
