Subject_cm,Timestamp,SampleDate_cm,SampleTime_cm,Configuration_cm,Scenario_cm,DisTime_cm,MarkingTxt_cm,Application_cm,EntId_cm,Site_cm,ExerciseId_cm,ForceId_cm,Category_cm,Country_cm,Domain_cm,Kind_cm,Extra_cm,Specific_cm,Subcategory_cm,AltCategory_cm,AltCountry_cm,AltDomain_cm,AltKind_cm,ECEF_X_cm,ECEF_Y_cm,ECEF_Z_cm,OriPhi_cm,OriPsi_cm,OriTheta_cm,LinVelX_cm,LinVelY_cm,LinVelZ_cm,LinAccX_cm,LinAccY_cm,LinAccZ_cm,AngVelX_cm,AngVelY_cm,AngVelZ_cm,DrAlg_cm,Appearance_cm,Latitude_cm,Longitude_cm,Altitude_cm,Heading_cm,Pitch_cm,Roll_cm,CalibratedAirspeed_cm,CM_Altitude_Lead_cm,CM_Altitude_Wing_cm,CM_Airspeed_cm,Subject_ac,SampleDate_ac,SampleTime_ac,Configuration_ac,Scenario_ac,DisTime_ac,MarkingTxt_ac,Application_ac,EntId_ac,Site_ac,ExerciseId_ac,ForceId_ac,Category_ac,Country_ac,Domain_ac,Kind_ac,Extra_ac,Specific_ac,Subcategory_ac,AltCategory_ac,AltCountry_ac,AltDomain_ac,AltKind_ac,ECEF_X_ac,ECEF_Y_ac,ECEF_Z_ac,OriPhi_ac,OriPsi_ac,OriTheta_ac,LinVelX_ac,LinVelY_ac,LinVelZ_ac,LinAccX_ac,LinAccY_ac,LinAccZ_ac,AngVelX_ac,AngVelY_ac,AngVelZ_ac,DrAlg_ac,Appearance_ac,Latitude_ac,Longitude_ac,Altitude_ac,Heading_ac,Pitch_ac,Roll_ac,CalibratedAirspeed_ac,CM_Altitude_Lead_ac,CM_Altitude_Wing_ac,CM_Airspeed_ac,Bank_Angle_Condition,distance_nm,Distance_Condition,angle_between_vel,angle_between_pos,Cone_Condition,angle_between_pos_nose,Nose_Cone_Condition,Intercept_Criteria
8,1970-07-23 09:59:53.779223101,2025-09-10,2025-09-26 15:49:37.922,AA,C,3263396806,JASSM,3,125,76,2,2,1,225,9,2,0,1,26,0,0,0,0,-155692.62634451812,-4777236.493135299,4213513.948698521,-2.71093,-1.01118,0.751842,36.625,-58.375,-64.375,0.0,0.0,0.0,0.0,0.0,0.0,2,0,41.588041515283,-91.8666386151684,10000.001541383152,155.93864783222494,-0.0032515725734163,-0.0006580975778329,,9133.40005056179,11009.472056291774,150,8,2025-09-10,2025-09-26 15:49:38.034,AA,C,3220815094,AMBUSH51,1,1,48,2,1,1,225,2,1,0,0,9,1,225,2,1,-141552.3568830449,-4793970.6754143,4194690.208219161,2.37473,2.62405,-0.517893,-73.9408,45.8775,50.1135,-0.0434277,-7.28455,6.62005,-0.0402834,0.00325925,-0.0172513,4,0,41.36403303731311,-91.69129045584214,9133.16760721928,-50.139874591277525,1.225767848040792,-2.4040360829409924,177.514,9133.40005056179,11009.472056291774,150,True,15.574587854410268,False,155.43130480926783,173.52274461600334,False,18.121910067777772,True,False
8,1970-07-23 09:59:53.789215371,2025-09-10,2025-09-26 15:49:38.921,AA,C,3264589940,JASSM,3,125,76,2,2,1,225,9,2,0,1,26,0,0,0,0,-155655.98571951812,-4777294.998994674,4213449.401823521,-2.71093,-1.01118,0.751842,36.625,-58.375,-64.375,0.0,0.0,0.0,0.0,0.0,0.0,2,0,41.587264878512144,-91.86617679350096,9999.998932332375,155.9389543733695,-0.0024015873097519,-0.0006593394058795,,9133.40005056179,11009.472056291774,150,8,2025-09-10,2025-09-26 15:49:38.767,AA,C,3221689960,AMBUSH51,1,1,48,2,1,1,225,2,1,0,0,9,1,225,2,1,-141606.78472688195,-4793936.766272925,4194726.739957699,2.34373,2.62754,-0.513842,-74.1501,45.8368,49.8199,-0.126172,-7.09341,6.65605,-0.0323709,0.00297629,-0.0103062,4,0,41.36447183869434,-91.69195235131892,9132.869477485703,-50.42431344592476,1.1680927412662694,-4.087880019528684,177.428,9133.40005056179,11009.472056291774,150,True,15.486224582215637,False,155.2467841033631,173.5470307859708,False,18.33404489790912,True,False
8,1970-07-23 09:59:53.799217386,2025-09-10,2025-09-26 15:49:39.921,AA,C,3265842554,JASSM,3,125,76,2,2,1,225,9,2,0,1,26,0,0,0,0,-155617.51696951812,-4777356.420869674,4213381.636198521,-2.71083,-1.01118,0.751842,36.625,-58.375,-64.375,0.0,0.0,0.0,0.0,0.0,0.0,2,0,41.586449520266704,-91.86569194308228,9999.997415908178,155.93927619513914,-0.0015092207352492,0.0048445005483765,,9133.40005056179,11009.472056291774,150,8,2025-09-10,2025-09-26 15:49:39.934,AA,C,3223081792,AMBUSH51,1,1,48,2,1,1,225,2,1,0,0,9,1,225,2,1,-141694.05620016326,-4793882.722533906,4194784.660499303,2.32139,2.63321,-0.509875,-74.5042,45.5991,49.0601,-0.0625696,-7.37387,6.46904,0.0168913,0.0101627,-0.0120435,4,0,41.3651690447128,-91.69301356031272,9131.7812914817,-50.78779899577048,1.1879116455954777,-5.2158450964489775,177.269,9133.40005056179,11009.472056291774,150,True,15.37291300113985,False,154.80242458746957,173.5990273374596,False,18.837070503203996,True,False
8,1970-07-23 09:59:53.811214075,2025-09-10,2025-09-26 15:49:41.121,AA,C,3267095616,JASSM,3,125,76,2,2,1,225,9,2,0,1,26,0,0,0,0,-155579.03552420562,-4777417.864229049,4213313.847136021,-2.71083,-1.01118,0.751842,36.625,-58.375,-64.375,0.0,0.0,0.0,0.0,0.0,0.0,2,0,41.58563387630207,-91.8652069443873,10000.001611177348,155.93959811014463,-0.0006165461754396,0.0048432020076089,,9133.40005056179,11009.472056291774,150,8,2025-09-10,2025-09-26 15:49:41.200,AA,C,3224592924,AMBUSH51,1,1,48,2,1,1,225,2,1,0,0,9,1,225,2,1,-141788.91959519745,-4793825.061857706,4194846.531729333,2.36301,2.64308,-0.498648,-74.8303,45.0084,48.6038,-0.213007,-7.36707,6.41059,0.062862,-0.00430579,-0.00263507,4,0,41.36591309509249,-91.69416672881944,9130.916712292004,-51.58670573219656,1.0408943484238826,-2.5740300318808957,176.634,9133.40005056179,11009.472056291774,150,True,15.255089655851263,False,154.3653707296724,173.6598646572011,False,19.3329647933492,True,False
8,1970-07-23 09:59:53.821195809,2025-09-10,2025-09-26 15:49:42.119,AA,C,3268407604,JASSM,3,125,76,2,2,1,225,9,2,0,1,26,0,0,0,0,-155538.74450858062,-4777482.196260299,4213242.866667271,-2.71083,-1.01118,0.751842,36.625,-58.375,-64.375,0.0,0.0,0.0,0.0,0.0,0.0,2,0,41.58477985414653,-91.86469915222035,10000.001825216548,155.93993514862612,0.000318124846535,0.004841833792249,,9133.40005056179,11009.472056291774,150,8,2025-09-10,2025-09-26 15:49:42.002,AA,C,3225547322,AMBUSH51,1,1,48,2,1,1,225,2,1,0,0,9,1,225,2,1,-141848.9865236071,-4793788.935244589,4194885.106997928,2.41433,2.64508,-0.500376,-74.8008,44.8414,48.4037,-0.0748276,-7.66325,6.49176,0.093324,0.0175384,-0.000562801,4,0,41.3663778746212,-91.69489678617254,9130.014538175405,-51.59578483459207,1.1827069409893525,0.4214424976563973,176.34,9133.40005056179,11009.472056291774,150,True,15.158808890266421,False,154.2645033066124,173.6902933813328,False,19.46507437454457,True,False
8,1970-07-23 09:59:53.832196931,2025-09-10,2025-09-26 15:49:43.219,AA,C,3269719952,JASSM,3,125,76,2,2,1,225,9,2,0,1,26,0,0,0,0,-155498.44177420562,-4777546.541963424,4213171.866667271,-2.71083,-1.01118,0.751842,36.625,-58.375,-64.375,0.0,0.0,0.0,0.0,0.0,0.0,2,0,41.58392561880583,-91.8641912277138,9999.99766885332,155.94027226926016,0.0012530329447805,0.0048404791370081,,9133.40005056179,11009.472056291774,150,8,2025-09-10,2025-09-26 15:49:43.235,AA,C,3227018688,AMBUSH51,1,1,48,2,1,1,225,2,1,0,0,9,1,225,2,1,-141940.52767259954,-4793733.661568377,4194944.264668332,2.48598,2.63785,-0.503617,-74.2057,44.9069,48.6032,-0.202755,-7.18887,6.28712,0.0362429,0.00805086,0.00682539,4,0,41.36708997049634,-91.69600948016311,9128.912513808316,-51.20216417944438,1.0787094787681566,4.334978922758708,175.534,9133.40005056179,11009.472056291774,150,True,15.04106321704096,False,154.57487564846357,173.7492754766755,False,19.21339713525727,True,False
8,1970-07-23 09:59:53.842215051,2025-09-10,2025-09-26 15:49:44.221,AA,C,3270972652,JASSM,3,125,76,2,2,1,225,9,2,0,1,26,0,0,0,0,-155459.97107108062,-4777607.963838424,4213104.093229771,-2.71083,-1.01118,0.751938,36.625,-58.375,-64.375,0.0,0.0,0.0,0.0,0.0,0.0,2,0,41.5831101995043,-91.8637064038572,9999.999748464918,155.94288666308404,-0.0028445552731411,0.0048391672514787,,9133.40005056179,11009.472056291774,150,8,2025-09-10,2025-09-26 15:49:44.334,AA,C,3228330986,AMBUSH51,1,1,48,2,1,1,225,2,1,0,0,9,1,225,2,1,-142022.87003782898,-4793683.388348127,4194997.78800655,2.50455,2.62837,-0.514589,-73.4759,45.2649,48.8722,-0.352598,-7.41768,6.51035,-0.0287028,0.000652266,0.00312193,4,0,41.3677358891193,-91.69701057859294,9127.237427078237,-50.43019430184533,1.2325953552106337,5.150156933434712,174.972,9133.40005056179,11009.472056291774,150,True,14.931811134540949,False,155.04434818794033,173.8011822284283,False,18.798926651315384,True,False
8,1970-07-23 09:59:53.853997366,2025-09-10,2025-09-26 15:49:45.399,AA,C,3272165698,JASSM,3,125,76,2,2,1,225,9,2,0,1,26,0,0,0,0,-155423.33239920562,-4777666.457979049,4213039.546354771,-2.71083,-1.01109,0.751938,36.625,-58.375,-64.375,0.0,0.0,0.0,0.0,0.0,0.0,2,0,41.58233361987031,-91.86324468043009,9999.997758673397,155.93954862876532,-0.0036692064675606,0.0010871676486172,,9133.40005056179,11009.472056291774,150,8,2025-09-10,2025-09-26 15:49:45.467,AA,C,3229683052,AMBUSH51,1,1,48,2,1,1,225,2,1,0,0,9,1,225,2,1,-142105.7797004823,-4793631.833430294,4195052.815068722,2.45975,2.61528,-0.518923,-72.8334,45.6274,49.0563,0.0111811,-7.21506,6.28912,-0.0445466,0.00754112,0.00519004,4,0,41.3683994761905,-91.69801892538092,9125.716115731928,-49.77759382444421,0.9877142683889945,2.225005977370343,174.678,9133.40005056179,11009.472056291774,150,True,14.82402435556102,False,155.45565590122288,173.8539498263109,False,18.444864424670445,True,False
8,1970-07-23 09:59:53.863215511,2025-09-10,2025-09-26 15:49:46.321,AA,C,3273418546,JASSM,3,125,76,2,2,1,225,9,2,0,1,26,0,0,0,0,-155384.85681326812,-4777727.885713424,4212971.761198521,-2.71083,-1.01109,0.751938,36.625,-58.375,-64.375,0.0,0.0,0.0,0.0,0.0,0.0,2,0,41.58151808343493,-91.86275981961262,9999.99820348077,155.9398704262535,-0.0027766627080951,0.0010858441328003,,9133.40005056179,11009.472056291774,150,8,2025-09-10,2025-09-26 15:49:46.300,AA,C,3230677218,AMBUSH51,1,1,48,2,1,1,225,2,1,0,0,9,1,225,2,1,-142166.5310370143,-4793593.777400181,4195093.314136416,2.43092,2.61466,-0.520856,-72.5852,45.829,48.8501,-0.0919292,-7.22734,6.38712,-0.017605,0.00392504,0.00166968,4,0,41.36888857613498,-91.69875789487988,9124.30430979244,-49.6820697134724,1.0515902083072983,0.557261826083389,174.678,9133.40005056179,11009.472056291774,150,True,14.728817263838451,False,155.54201309432815,173.88601388759022,False,18.397901489091243,True,False
8,1970-07-23 09:59:53.875606610,2025-09-10,2025-09-26 15:49:47.560,AA,C,3274790500,JASSM,3,125,76,2,2,1,225,9,2,0,1,26,0,0,0,0,-155342.72302420562,-4777795.151338424,4212897.530729771,-2.71083,-1.01109,0.751938,36.625,-58.375,-64.375,0.0,0.0,0.0,0.0,0.0,0.0,2,0,41.5806250171569,-91.86222887392591,9999.997339871554,155.94022280388316,-0.0017992688989156,0.0010843992356041,,9133.40005056179,11009.472056291774,150,8,2025-09-10,2025-09-26 15:49:47.667,AA,C,3232307648,AMBUSH51,1,1,48,2,1,1,225,2,1,0,0,9,1,225,2,1,-142265.84911079324,-4793530.819554863,4195160.246117755,2.39995,2.61536,-0.52216,-72.3715,45.7708,48.792,-0.139948,-7.24396,6.57298,-0.00193599,-0.00148659,0.00242077,4,0,41.36969745971485,-91.69996627127304,9121.743395509113,-49.659394494947456,1.1316278065006982,-1.1965763514768155,174.251,9133.40005056179,11009.472056291774,150,True,14.601415020562701,False,155.59117459634115,173.95029122037585,False,18.414442795860445,True,False
8,1970-07-23 09:59:53.885196034,2025-09-10,2025-09-26 15:49:48.519,AA,C,3276102752,JASSM,3,125,76,2,2,1,225,9,2,0,1,26,0,0,0,0,-155302.42321951812,-4777859.487275924,4212826.530729771,-2.71083,-1.01109,0.751938,36.625,-58.375,-64.375,0.0,0.0,0.0,0.0,0.0,0.0,2,0,41.579770828014176,-91.86172105343088,9999.99652961172,155.94055982798812,-0.0008644247316742,0.0010830193851608,,9133.40005056179,11009.472056291774,150,8,2025-09-10,2025-09-26 15:49:48.467,AA,C,3233262048,AMBUSH51,1,1,48,2,1,1,225,2,1,0,0,9,1,225,2,1,-142323.17239722333,-4793494.681220413,4195198.7660241965,2.39478,2.61573,-0.521954,-72.3995,45.652,48.7047,-0.154284,-7.25047,6.65703,0.00283689,0.00819442,0.0139077,4,0,41.37016238262672,-91.7006636515504,9120.518268254073,-49.681604811499405,1.135671234795545,-1.4829490080637104,174.422,9133.40005056179,11009.472056291774,150,True,14.50588648905219,False,155.51882445334599,173.97886944826402,False,18.515495298320666,True,False
8,1970-07-23 09:59:53.897994321,2025-09-10,2025-09-26 15:49:49.799,AA,C,3277355628,JASSM,3,125,76,2,2,1,225,9,2,0,1,26,0,0,0,0,-155263.94763358062,-4777920.911104049,4212758.741667271,-2.71083,-1.01109,0.751938,36.625,-58.375,-64.375,0.0,0.0,0.0,0.0,0.0,0.0,2,0,41.578955281811815,-91.8612362324728,9999.994826046068,155.94088158273587,2.812168184168886e-05,0.0010816935564582,,9133.40005056179,11009.472056291774,150,8,2025-09-10,2025-09-26 15:49:49.633,AA,C,3234653880,AMBUSH51,1,1,48,2,1,1,225,2,1,0,0,9,1,225,2,1,-142407.86307920734,-4793441.20459774,4195255.831834221,2.4223,2.6201,-0.521084,-72.3312,45.5291,48.7139,-0.0967919,-7.35489,6.66134,0.100854,-8.63447e-05,-0.00235627,4,0,41.37085081926607,-91.70169402498226,9118.842159929094,-49.87821623006588,1.2427885168997337,0.2143783970768479,174.287,9133.40005056179,11009.472056291774,150,True,14.393813517701187,False,155.5146699725221,174.03382110036537,False,18.573626267475078,True,False
8,1970-07-23 09:59:53.907195445,2025-09-10,2025-09-26 15:49:50.719,AA,C,3278668078,JASSM,3,125,76,2,2,1,225,9,2,0,1,26,0,0,0,0,-155223.64099295562,-4777985.254854049,4212687.729948521,-2.71083,-1.01109,0.752034,36.625,-58.375,-64.375,0.0,0.0,0.0,0.0,0.0,0.0,2,0,41.57810096383693,-91.86072835321023,9999.997995971218,155.94351299895106,-0.0040298574184773,0.0010802596407706,,9133.40005056179,11009.472056291774,150,8,2025-09-10,2025-09-26 15:49:50.634,AA,C,3235846878,AMBUSH51,1,1,48,2,1,1,225,2,1,0,0,9,1,225,2,1,-142480.6107899611,-4793395.326488908,4195305.016720145,2.52327,2.62139,-0.523802,-71.9583,45.0941,49.55,-0.229833,-7.41628,6.64342,0.0616387,-0.0057414,0.00463661,4,0,41.37144294938785,-91.70257909360878,9117.9097849668,-49.82382083734536,1.402894501531995,6.037957602920591,174.116,9133.40005056179,11009.472056291774,150,True,14.287476982003291,False,155.808599296979,174.07743914433595,False,18.30637471632522,True,False
8,1970-07-23 09:59:53.918214157,2025-09-10,2025-09-26 15:49:51.821,AA,C,3280039804,JASSM,3,125,76,2,2,1,225,9,2,0,1,26,0,0,0,0,-155181.51501639312,-4778052.504854049,4212613.507292271,-2.71083,-1.01109,0.752034,36.625,-58.375,-64.375,0.0,0.0,0.0,0.0,0.0,0.0,2,0,41.5772080319964,-91.86019756316176,9999.999708807318,155.943865249637,-0.003052625173423,0.0010788445568905,,9133.40005056179,11009.472056291774,150,8,2025-09-10,2025-09-26 15:49:51.934,AA,C,3237397776,AMBUSH51,1,1,48,2,1,1,225,2,1,0,0,9,1,225,2,1,-142573.7083664612,-4793335.486548601,4195369.187248134,2.5666,2.5996,-0.542196,-70.9261,46.2009,50.1446,-0.183258,-7.20173,6.84349,-0.00617416,0.0146027,0.0127114,4,0,41.372215703407775,-91.7037121686018,9116.608193684577,-48.320947252731486,1.4896288100013209,7.923931040494029,174.287,9133.40005056179,11009.472056291774,150,True,14.163696813079087,False,156.7209850840497,174.13791298768018,False,17.465140049814213,True,False
8,1970-07-23 09:59:53.929197660,2025-09-10,2025-09-26 15:49:52.919,AA,C,3281352156,JASSM,3,125,76,2,2,1,225,9,2,0,1,26,0,0,0,0,-155141.21130545562,-4778116.840791549,4212542.499479771,-2.71083,-1.01109,0.752034,36.625,-58.375,-64.375,0.0,0.0,0.0,0.0,0.0,0.0,2,0,41.57635378153755,-91.85968974940792,10000.00383579172,155.9442022466414,-0.002117718792424,0.0010775128908593,,9133.40005056179,11009.472056291774,150,8,2025-09-10,2025-09-26 15:49:52.833,AA,C,3238471476,AMBUSH51,1,1,48,2,1,1,225,2,1,0,0,9,1,225,2,1,-142637.59534321405,-4793293.582172118,4195414.578961741,2.52341,2.59319,-0.548409,-70.3555,46.6382,50.999,-0.125997,-7.2007,6.91398,-0.0574525,0.00148034,0.00754112,4,0,41.372760139096194,-91.70449004041149,9116.592121354171,-47.85082281396567,1.554715151164094,5.271310039451188,174.715,9133.40005056179,11009.472056291774,150,True,14.06225309104107,False,157.3402803163461,174.17183981235976,False,16.87583036705701,True,False
8,1970-07-23 09:59:53.940173291,2025-09-10,2025-09-26 15:49:54.017,AA,C,3282604856,JASSM,3,125,76,2,2,1,225,9,2,0,1,26,0,0,0,0,-155102.74060233062,-4778178.250947799,4212474.714323521,-2.71083,-1.01109,0.752034,36.625,-58.375,-64.375,0.0,0.0,0.0,0.0,0.0,0.0,2,0,41.57553833324521,-91.85920504336327,9999.998739150156,155.94452390353004,-0.0012252889224182,0.0010762227364959,,9133.40005056179,11009.472056291774,150,8,2025-09-10,2025-09-26 15:49:54.134,AA,C,3240022374,AMBUSH51,1,1,48,2,1,1,225,2,1,0,0,9,1,225,2,1,-142729.54597024937,-4793232.377368752,4195481.414566616,2.41554,2.58704,-0.547847,-70.3501,46.9191,51.7159,0.033921,-7.14494,6.88685,-0.0503223,0.00694815,-0.00192559,4,0,41.37355919248367,-91.70560994856474,9117.641224829802,-47.64414506285458,1.335731422575688,-1.087725110601807,175.79,9133.40005056179,11009.472056291774,150,True,13.942476862302911,False,157.6398730109003,174.23109234485383,False,16.630987510959752,True,False
8,1970-07-23 09:59:53.951195895,2025-09-10,2025-09-26 15:49:55.119,AA,C,3283917208,JASSM,3,125,76,2,2,1,225,9,2,0,1,26,0,0,0,0,-155062.43786795562,-4778242.584932174,4212403.702604771,-2.71083,-1.01109,0.752034,36.625,-58.375,-64.375,0.0,0.0,0.0,0.0,0.0,0.0,2,0,41.574684063325535,-91.8586972682226,10000.000525120136,155.94486086379789,-0.0002903725268718,0.0010748764753398,,9133.40005056179,11009.472056291774,150,8,2025-09-10,2025-09-26 15:49:54.966,AA,C,3241016540,AMBUSH51,1,1,48,2,1,1,225,2,1,0,0,9,1,225,2,1,-142788.5119146009,-4793193.342230375,4195524.215984429,2.37502,2.59741,-0.540159,-70.6772,46.9479,51.53,-0.225912,-7.02435,6.85843,-0.0280974,0.00100805,-0.0188013,4,0,41.374069931568,-91.7063280595586,9118.718039152587,-48.31736686718646,1.333491310804886,-3.1172172756654613,175.998,9133.40005056179,11009.472056291774,150,True,13.84412839544166,False,157.45820337731715,174.2607980664835,False,16.84603920236217,True,False
8,1970-07-23 09:59:53.963594247,2025-09-10,2025-09-26 15:49:56.359,AA,C,3285289634,JASSM,3,125,76,2,2,1,225,9,2,0,1,26,0,0,0,0,-155020.28943045562,-4778309.862275924,4212329.438932896,-2.71074,-1.01099,0.752034,36.625,-58.375,-64.375,0.0,0.0,0.0,0.0,0.0,0.0,2,0,41.57379068658475,-91.85816625445572,10000.00149837976,155.9415646632528,-0.0009893946717861,0.0028089251736266,,9133.40005056179,11009.472056291774,150,8,2025-09-10,2025-09-26 15:49:56.234,AA,C,3242527672,AMBUSH51,1,1,48,2,1,1,225,2,1,0,0,9,1,225,2,1,-142878.48925764972,-4793134.354853667,4195588.57198426,2.32566,2.60989,-0.533628,-71.5231,46.53,51.1339,-0.220694,-7.1041,7.23087,-0.0251846,0.00969037,-0.00234587,4,0,41.37483938456798,-91.70742365588116,9119.71599623326,-49.02765958793998,1.4551109266558926,-5.597021846818347,175.876,9133.40005056179,11009.472056291774,150,True,13.7213681383364,False,156.88070208765743,174.3192797280131,False,17.481810292337684,True,False
8,1970-07-23 09:59:53.973614861,2025-09-10,2025-09-26 15:49:57.361,AA,C,3286601562,JASSM,3,125,76,2,2,1,225,9,2,0,1,26,0,0,0,0,-154979.99939139312,-4778374.172822799,4212258.446745396,-2.71074,-1.01099,0.752034,36.625,-58.375,-64.375,0.0,0.0,0.0,0.0,0.0,0.0,2,0,41.57293668074631,-91.85765866785944,10000.000704635013,155.94190148681574,-5.4772800025904665e-05,0.0028075188670722,,9133.40005056179,11009.472056291774,150,8,2025-09-10,2025-09-26 15:49:57.433,AA,C,3243959270,AMBUSH51,1,1,48,2,1,1,225,2,1,0,0,9,1,225,2,1,-142965.75847845487,-4793078.621278606,4195649.60162007,2.32032,2.61698,-0.525624,-72.4755,45.8477,50.6536,-0.19313,-7.33,6.70528,0.0109096,-0.00344651,-0.0053773,4,0,41.37556749401127,-91.70848577504152,9121.316706290443,-49.59439801970006,1.3424275342400478,-5.711595792645889,176.389,9133.40005056179,11009.472056291774,150,True,13.604092482413362,False,156.1632555565438,174.37954230497402,False,18.256576754937882,True,False
8,1970-07-23 09:59:53.984175601,2025-09-10,2025-09-26 15:49:58.417,AA,C,3287913910,JASSM,3,125,76,2,2,1,225,9,2,0,1,26,0,0,0,0,-154939.69568045562,-4778438.502900924,4212187.431120396,-2.71074,-1.01099,0.75213,36.625,-58.375,-64.375,0.0,0.0,0.0,0.0,0.0,0.0,2,0,41.572082400816186,-91.8571509232884,10000.001274110677,155.94453167573516,-0.0041095594042302,0.0028060541931672,,9133.40005056179,11009.472056291774,150,8,2025-09-10,2025-09-26 15:49:58.233,AA,C,3244913668,AMBUSH51,1,1,48,2,1,1,225,2,1,0,0,9,1,225,2,1,-143023.95196074626,-4793041.841762336,4195689.754086737,2.33814,2.62311,-0.521378,-72.9602,45.5457,50.309,-0.138473,-7.23201,6.81876,0.0315886,0.00115785,-0.00761602,4,0,41.37604704910139,-91.70919390070614,9122.15680298579,-49.98402661374288,1.362030934655367,-4.52413472882521,176.426,9133.40005056179,11009.472056291774,150,True,13.507610867156933,False,155.78038847953647,174.4132324692336,False,18.673930906706982,True,False
8,1970-07-23 09:59:53.995094620,2025-09-10,2025-09-26 15:49:59.509,AA,C,3289226264,JASSM,3,125,76,2,2,1,225,9,2,0,1,26,0,0,0,0,-154899.39294608062,-4778502.831025924,4212116.413542271,-2.71074,-1.01099,0.75213,36.625,-58.375,-64.375,0.0,0.0,0.0,0.0,0.0,0.0,2,0,41.57122811683524,-91.85664320455186,9999.998442926624,155.94486857573224,-0.0031746390844736,0.0028046823528543,,9133.40005056179,11009.472056291774,150,8,2025-09-10,2025-09-26 15:49:59.500,AA,C,3246424800,AMBUSH51,1,1,48,2,1,1,225,2,1,0,0,9,1,225,2,1,-143116.4866867239,-4792984.474367095,4195752.528698254,2.40788,2.63079,-0.52055,-73.4558,45.0717,50.1234,-0.331462,-7.2188,6.89849,0.120095,0.0104061,-0.00430371,4,0,41.3767957071355,-91.71031952990212,9123.920553870565,-50.30183135580037,1.581294823040034,-0.317442698533851,176.426,9133.40005056179,11009.472056291774,150,True,13.387867271829851,False,155.3940802368038,174.4832328645231,False,19.127206386799422,True,False
8,1970-07-23 09:59:54.006092804,2025-09-10,2025-09-26 15:50:00.609,AA,C,3290478962,JASSM,3,125,76,2,2,1,225,9,2,0,1,26,0,0,0,0,-154860.92126639312,-4778564.235322799,4212048.624479771,-2.71074,-1.01099,0.75213,36.625,-58.375,-64.375,0.0,0.0,0.0,0.0,0.0,0.0,2,0,41.57041266383495,-91.85615856571692,10000.002263121503,155.9451901556094,-0.002282213667417,0.0028033810172818,,9133.40005056179,11009.472056291774,150,8,2025-09-10,2025-09-26 15:50:00.700,AA,C,3247856400,AMBUSH51,1,1,48,2,1,1,225,2,1,0,0,9,1,225,2,1,-143204.57914461708,-4792930.475360413,4195812.870293185,2.51705,2.62968,-0.517326,-73.3747,42.7262,52.5419,-0.30099,-7.12272,6.52382,0.0661244,-0.00265588,-0.00138464,4,0,41.377508681668495,-91.71139092614848,9128.37809972009,-50.3841242854071,1.407580356245446,5.903636908960518,176.133,9133.40005056179,11009.472056291774,150,True,13.273738903623258,False,155.43378741647655,174.55115940117207,False,19.119577871408648,True,False
8,1970-07-23 09:59:54.017114869,2025-09-10,2025-09-26 15:50:01.711,AA,C,3291791620,JASSM,3,125,76,2,2,1,225,9,2,0,1,26,0,0,0,0,-154820.60876639312,-4778628.575166549,4211977.589323521,-2.71074,-1.01099,0.75213,36.625,-58.375,-64.375,0.0,0.0,0.0,0.0,0.0,0.0,2,0,41.56955818881957,-91.85565075161333,10000.000015804617,155.94552710777168,-0.0013470858032249,0.0028020161731684,,9133.40005056179,11009.472056291774,150,8,2025-09-10,2025-09-26 15:50:01.833,AA,C,3249208464,AMBUSH51,1,1,48,2,1,1,225,2,1,0,0,9,1,225,2,1,-143287.22648298246,-4792877.710361758,4195869.419728539,2.56404,2.60843,-0.537043,-72.2629,46.0903,51.0977,-0.181135,-7.23907,6.61395,0.0226816,-0.00731017,0.0191175,4,0,41.37818966591583,-91.71239686991498,9127.254835569356,-48.84808086465855,1.5602465892391608,8.023049028668169,176.353,9133.40005056179,11009.472056291774,150,True,13.160189791092575,False,156.45234085517342,174.61158148765273,False,18.20189340772704,True,False
8,1970-07-23 09:59:54.028096997,2025-09-10,2025-09-26 15:50:02.809,AA,C,3293103664,JASSM,3,125,76,2,2,1,225,9,2,0,1,26,0,0,0,0,-154780.31384451812,-4778692.885713424,4211906.585417271,-2.71074,-1.01099,0.75213,36.625,-58.375,-64.375,0.0,0.0,0.0,0.0,0.0,0.0,2,0,41.56870409329142,-91.85514317279596,10000.000886472086,155.94586389812906,-0.0004123741661564,0.00280065535055,,9133.40005056179,11009.472056291774,150,8,2025-09-10,2025-09-26 15:50:02.633,AA,C,3250162864,AMBUSH51,1,1,48,2,1,1,225,2,1,0,0,9,1,225,2,1,-143344.90967739775,-4792840.396385855,4195910.351757508,2.52983,2.59949,-0.540173,-71.6213,46.6377,51.5973,-0.0109746,-7.15416,6.52295,-0.094768,-0.00219191,0.00553334,4,0,41.37867773012061,-91.71309914854696,9128.450861504643,-48.39869348514655,1.4077962373395687,5.812122612998619,176.267,9133.40005056179,11009.472056291774,150,True,13.063434840783083,False,157.01305213276103,174.6459968561489,False,17.678159635468525,True,False
8,1970-07-23 09:59:54.039073790,2025-09-10,2025-09-26 15:50:03.907,AA,C,3294475834,JASSM,3,125,76,2,2,1,225,9,2,0,1,26,0,0,0,0,-154738.17321951812,-4778760.141572799,4211832.325651646,-2.71074,-1.01099,0.75213,36.625,-58.375,-64.375,0.0,0.0,0.0,0.0,0.0,0.0,2,0,41.56781085222539,-91.85461235887048,9999.99901356644,155.94621609944195,0.0005651713360172,0.0027992233869167,,9133.40005056179,11009.472056291774,150,8,2025-09-10,2025-09-26 15:50:03.866,AA,C,3251634228,AMBUSH51,1,1,48,2,1,1,225,2,1,0,0,9,1,225,2,1,-143433.62138659428,-4792782.231804049,4195974.2591706,2.43736,2.59222,-0.546031,-71.1823,46.9418,51.9291,-0.11587,-7.22461,6.69402,-0.0569115,-0.00208788,-0.00660069,4,0,41.37943942030243,-91.71417949044282,9130.456595029817,-47.910203601103454,1.4304258683355249,0.3107955902682169,176.524,9133.40005056179,11009.472056291774,150,True,12.94151988134471,False,157.37387784019268,174.70989584447764,False,17.38281707150192,True,False
8,1970-07-23 09:59:54.051200336,2025-09-10,2025-09-26 15:50:05.120,AA,C,3295788020,JASSM,3,125,76,2,2,1,225,9,2,0,1,26,0,0,0,0,-154697.87536795562,-4778824.456025924,4211761.311979771,-2.71074,-1.01099,0.752226,36.625,-58.375,-64.375,0.0,0.0,0.0,0.0,0.0,0.0,2,0,41.56695666335377,-91.85410477080234,9999.99935705887,155.94884757740274,-0.0034928364797407,0.0027978115507581,,9133.40005056179,11009.472056291774,150,8,2025-09-10,2025-09-26 15:50:05.200,AA,C,3253224894,AMBUSH51,1,1,48,2,1,1,225,2,1,0,0,9,1,225,2,1,-143528.32092600086,-4792719.900513034,4196042.998818595,2.36348,2.59954,-0.539606,-71.3768,46.7075,51.8428,0.0722605,-7.1793,6.39331,-0.0498396,0.00683996,-0.00413102,4,0,41.3802574453541,-91.715332866558,9133.13886965006,-48.4234704107202,1.3872408106914331,-3.718217372147581,176.353,9133.40005056179,11009.472056291774,150,True,12.817625819752184,False,157.20475804248227,174.78151422884713,False,17.622509103239693,True,False
8,1970-07-23 09:59:54.061112976,2025-09-10,2025-09-26 15:50:06.111,AA,C,3297100370,JASSM,3,125,76,2,2,1,225,9,2,0,1,26,0,0,0,0,-154657.57165701812,-4778888.776338424,4211690.288542271,-2.71074,-1.01099,0.752226,36.625,-58.375,-64.375,0.0,0.0,0.0,0.0,0.0,0.0,2,0,41.566102372523446,-91.85359712365764,9999.997916756853,155.94918439590015,-0.0025579193518396,0.0027964859504574,,9133.40005056179,11009.472056291774,150,8,2025-09-10,2025-09-26 15:50:05.999,AA,C,3254179292,AMBUSH51,1,1,48,2,1,1,225,2,1,0,0,9,1,225,2,1,-143585.78288497415,-4792682.506388344,4196084.218833893,2.33775,2.60398,-0.53877,-71.7813,46.3977,51.566,-0.21132,-7.26769,6.76417,-0.00788649,0.00908076,-0.00905995,4,0,41.380747952057696,-91.71603257523506,9134.759799506255,-48.62030429045634,1.4948262928472955,-5.066594219108247,176.389,9133.40005056179,11009.472056291774,150,True,12.720809223489688,False,156.87273882097563,174.8173464696313,False,17.99033497119085,True,False
8,1970-07-23 09:59:54.072093828,2025-09-10,2025-09-26 15:50:07.209,AA,C,3298412720,JASSM,3,125,76,2,2,1,225,9,2,0,1,26,0,0,0,0,-154617.26794608062,-4778953.096650924,4211619.265104771,-2.71074,-1.01089,0.752226,36.625,-58.375,-64.375,0.0,0.0,0.0,0.0,0.0,0.0,2,0,41.56524807932479,-91.85308948988676,10000.002041443502,155.9458779200965,-0.0032975958345646,-0.0009568178545933,,9133.40005056179,11009.472056291774,150,8,2025-09-10,2025-09-26 15:50:07.267,AA,C,3255690424,AMBUSH51,1,1,48,2,1,1,225,2,1,0,0,9,1,225,2,1,-143677.78672560595,-4792623.445829223,4196149.337435803,2.35102,2.61267,-0.528759,-72.4242,46.1228,50.8341,-0.166291,-6.99146,6.33401,0.0723059,-0.00125356,-0.00612007,4,0,41.38152253460815,-91.71715262789988,9137.45207737154,-49.32139824555233,1.3456202057446622,-4.07024476049704,176.218,9133.40005056179,11009.472056291774,150,True,12.599943263720343,False,156.31656375164266,174.89098734419457,False,18.627156193140447,True,False
8,1970-07-23 09:59:54.083072513,2025-09-10,2025-09-26 15:50:08.307,AA,C,3299725072,JASSM,3,125,76,2,2,1,225,9,2,0,1,26,0,0,0,0,-154576.96423514312,-4779017.415010299,4211548.237761021,-2.71074,-1.01089,0.752226,36.625,-58.375,-64.375,0.0,0.0,0.0,0.0,0.0,0.0,2,0,41.56439376911134,-91.85258187024584,9999.9984364092,155.94621470901836,-0.0023626653705442,-0.0009582094323843,,9133.40005056179,11009.472056291774,150,8,2025-09-10,2025-09-26 15:50:08.136,AA,C,3256724356,AMBUSH51,1,1,48,2,1,1,225,2,1,0,0,9,1,225,2,1,-143740.65032632317,-4792583.440622812,4196193.179239371,2.41288,2.62061,-0.526114,-72.5986,45.8841,50.7221,-0.222095,-7.37103,6.78353,0.0534598,0.00252688,0.00258514,4,0,41.382045299568745,-91.7179178179732,9138.74177279803,-49.71723289728829,1.4921734477357214,-0.3070266474420527,176.059,9133.40005056179,11009.472056291774,150,True,12.50002482192291,False,156.14616332662098,174.93563556175803,False,18.84127965458929,True,False
8,1970-07-23 09:59:54.092062229,2025-09-10,2025-09-26 15:50:09.206,AA,C,3300798814,JASSM,3,125,76,2,2,1,225,9,2,0,1,26,0,0,0,0,-154543.98962576812,-4779070.038057174,4211490.126432896,-2.71074,-1.01089,0.752226,36.625,-58.375,-64.375,0.0,0.0,0.0,0.0,0.0,0.0,2,0,41.56369480555233,-91.85216656926634,10000.001355280574,155.94649024331858,-0.0015977441125687,-0.000959349876541,,9133.40005056179,11009.472056291774,150,8,2025-09-10,2025-09-26 15:50:09.430,AA,C,3258275254,AMBUSH51,1,1,48,2,1,1,225,2,1,0,0,9,1,225,2,1,-143835.15490138647,-4792523.475315536,4196258.947167186,2.45662,2.61484,-0.531851,-72.4923,45.8682,50.9544,-0.133753,-7.21853,6.72695,0.0445736,-0.00968413,-0.00153652,4,0,41.38282918242138,-91.71906810912516,9140.814875722372,-49.28626930281354,1.5513504778351808,2.04335631022235,176.059,9133.40005056179,11009.472056291774,150,True,12.38820481150235,False,156.25511882009494,175.0199170284017,False,18.815052695601942,True,False
8,1970-07-23 09:59:54.102061259,2025-09-10,2025-09-26 15:50:10.206,AA,C,3301932208,JASSM,3,125,76,2,2,1,225,9,2,0,1,26,0,0,0,0,-154509.18103201812,-4779125.584932174,4211428.782682896,-2.71074,-1.01089,0.752226,36.625,-58.375,-64.375,0.0,0.0,0.0,0.0,0.0,0.0,2,0,41.56295698038649,-91.8517281809044,10000.000374131598,155.94678109097262,-0.000790293463009,-0.0009605483859595,,9133.40005056179,11009.472056291774,150,8,2025-09-10,2025-09-26 15:50:10.263,AA,C,3259269420,AMBUSH51,1,1,48,2,1,1,225,2,1,0,0,9,1,225,2,1,-143895.6508788915,-4792484.885455518,4196301.30039222,2.54424,2.60873,-0.526339,-72.2288,46.5749,51.0263,-0.265058,-6.70109,6.47828,0.128451,-0.00764931,-0.00626779,4,0,41.38333388768672,-91.71980454176618,9142.193111903309,-49.26752527789909,1.1154694617748873,6.88745396960787,176.316,9133.40005056179,11009.472056291774,150,True,12.297496270920142,False,156.57888191818702,175.06659314506533,False,18.549275738420565,True,False
8,1970-07-23 09:59:54.111061747,2025-09-10,2025-09-26 15:50:11.106,AA,C,3303065602,JASSM,3,125,76,2,2,1,225,9,2,0,1,26,0,0,0,0,-154474.37341483062,-4779181.129854049,4211367.440886021,-2.71074,-1.01089,0.752226,36.625,-58.375,-64.375,0.0,0.0,0.0,0.0,0.0,0.0,2,0,41.562219178072965,-91.85128981496752,10000.003080506807,155.94707191950823,1.7131012238421386e-05,-0.000961745384582,,9133.40005056179,11009.472056291774,150,8,2025-09-10,2025-09-26 15:50:11.064,AA,C,3260223820,AMBUSH51,1,1,48,2,1,1,225,2,1,0,0,9,1,225,2,1,-143953.16480446688,-4792446.941716723,4196342.066756469,2.67526,2.60183,-0.527167,-71.5145,47.8401,51.3686,-0.352943,-6.53035,6.45134,0.141506,0.016548,0.0152913,4,0,41.3838245625164,-91.72050513428914,9141.502456711938,-48.97899264378235,0.9277733856981524,14.200882001316002,176.353,9133.40005056179,11009.472056291774,150,False,12.208309264209086,False,157.31156759545266,175.10900015534116,False,17.878389547396022,True,False
8,1970-07-23 09:59:54.122076722,2025-09-10,2025-09-26 15:50:12.207,AA,C,3304318300,JASSM,3,125,76,2,2,1,225,9,2,0,1,26,0,0,0,0,-154435.90173514312,-4779242.520479049,4211299.638151646,-2.71074,-1.01089,0.752322,36.625,-58.375,-64.375,0.0,0.0,0.0,0.0,0.0,0.0,2,0,41.56140369076725,-91.85080531605692,9999.999615995888,155.94968694392463,-0.0040799923791852,-0.0009631392788867,,9133.40005056179,11009.472056291774,150,8,2025-09-10,2025-09-26 15:50:12.231,AA,C,3261615652,AMBUSH51,1,1,48,2,1,1,225,2,1,0,0,9,1,225,2,1,-144035.35029855563,-4792389.556231022,4196401.942820252,2.85337,2.55558,-0.540588,-69.5966,50.5687,52.5107,-0.309349,-6.4555,6.13649,0.139334,-0.00548341,0.0496232,4,0,41.38455549213228,-91.72150741243904,9136.252242002913,-46.741674939422175,0.0412201930512637,23.07563582201008,176.817,9133.40005056179,11009.472056291774,150,False,12.094901232756772,False,159.1334406853979,175.17255328416124,False,16.166983649351728,True,False
8,1970-07-23 09:59:54.131062479,2025-09-10,2025-09-26 15:50:13.106,AA,C,3305451696,JASSM,3,125,76,2,2,1,225,9,2,0,1,26,0,0,0,0,-154401.09314139312,-4779298.063447799,4211238.294401646,-2.71064,-1.01089,0.752322,36.625,-58.375,-64.375,0.0,0.0,0.0,0.0,0.0,0.0,2,0,41.56066588342731,-91.85036696017526,10000.001940070504,155.94997775696342,-0.0032725631073184,0.0045271750456921,,9133.40005056179,11009.472056291774,150,8,2025-09-10,2025-09-26 15:50:13.196,AA,C,3262768884,AMBUSH51,1,1,48,2,1,1,225,2,1,0,0,9,1,225,2,1,-144101.94148582456,-4792338.780507201,4196452.926333924,2.96983,2.5155,-0.54304,-67.4709,53.7316,53.4996,-0.20635,-6.13911,5.95954,0.0746091,0.00104342,0.0384109,4,0,41.38518984319799,-91.7223210667598,9126.830025070984,-45.124790993737015,-1.086528506165709,28.549595808565773,177.624,9133.40005056179,11009.472056291774,150,False,11.995732165839899,False,161.03108052195626,175.2167029973837,False,14.40417315269472,True,False
8,1970-07-23 09:59:54.141985285,2025-09-10,2025-09-26 15:50:14.198,AA,C,3306585090,JASSM,3,125,76,2,2,1,225,9,2,0,1,26,0,0,0,0,-154366.28552420562,-4779353.604463424,4211176.948698521,-2.71064,-1.01089,0.752322,36.625,-58.375,-64.375,0.0,0.0,0.0,0.0,0.0,0.0,2,0,41.55992807263584,-91.84992862671604,9999.999448990313,155.9502685508874,-0.0024651359889872,0.0045260080674902,,9133.40005056179,11009.472056291774,150,8,2025-09-10,2025-09-26 15:50:14.263,AA,C,3264041416,AMBUSH51,1,1,48,2,1,1,225,2,1,0,0,9,1,225,2,1,-144172.88696684875,-4792278.503602836,4196510.443809881,3.07671,2.45805,-0.558764,-64.3209,57.9707,54.7175,-0.114134,-6.78457,6.39251,0.0757305,0.0135915,0.0586842,4,0,41.38592403923477,-91.72319016408282,9108.530692653072,-42.350958548374976,-2.0780529085157355,32.87329624177753,178.968,9133.40005056179,11009.472056291774,150,False,11.89011942830578,False,163.51142323104338,175.2569859419426,False,12.178324507048892,True,False
8,1970-07-23 09:59:54.151042879,2025-09-10,2025-09-26 15:50:15.104,AA,C,3307837788,JASSM,3,125,76,2,2,1,225,9,2,0,1,26,0,0,0,0,-154327.81384451812,-4779414.993135299,4211109.144011021,-2.71064,-1.01089,0.752322,36.625,-58.375,-64.375,0.0,0.0,0.0,0.0,0.0,0.0,2,0,41.559112577771735,-91.84944416278532,10000.001187391952,155.95058994320257,-0.0015726997148843,0.0045247121754162,,9133.40005056179,11009.472056291774,150,8,2025-09-10,2025-09-26 15:50:15.163,AA,C,3265115114,AMBUSH51,1,1,48,2,1,1,225,2,1,0,0,9,1,225,2,1,-144229.2659714651,-4792224.444049143,4196560.239153153,-3.12164,2.40562,-0.572953,-61.0186,61.6226,56.309,-0.201802,-6.85602,6.59567,0.0503431,0.0147795,0.0484414,4,0,41.386571715597626,-91.7238830480628,9087.705954673324,-39.81598774994564,-2.898334662965798,36.012802440635475,180.214,9133.40005056179,11009.472056291774,150,False,11.787773965640023,False,165.89538012961708,175.27399618160152,False,10.127682583625898,True,False
8,1970-07-23 09:59:54.161063487,2025-09-10,2025-09-26 15:50:16.106,AA,C,3309030836,JASSM,3,125,76,2,2,1,225,9,2,0,1,26,0,0,0,0,-154291.17321951812,-4779473.456025924,4211044.567839146,-2.71064,-1.01089,0.752322,36.625,-58.375,-64.375,0.0,0.0,0.0,0.0,0.0,0.0,2,0,41.55833592727549,-91.8489827697229,10000.000714706008,155.95089602553804,-0.0007227693192856,0.0045234903358151,,9133.40005056179,11009.472056291774,150,8,2025-09-10,2025-09-26 15:50:16.263,AA,C,3266427412,AMBUSH51,1,1,48,2,1,1,225,2,1,0,0,9,1,225,2,1,-144294.135290891,-4792153.864428848,4196623.159466466,-3.04356,2.33664,-0.592097,-56.4525,66.2136,58.4724,-0.221735,-7.53036,7.14832,0.0381779,0.030205,0.0562021,4,0,41.38740475005441,-91.72468330839216,9055.338817562992,-36.45620582227719,-3.81585371779687,38.11438868822393,182.145,9133.40005056179,11009.472056291774,150,False,11.675897055746782,False,168.77073337637114,175.2851436005125,False,8.055959909476638,True,False
8,1970-07-23 09:59:54.171060660,2025-09-10,2025-09-26 15:50:17.106,AA,C,3310224308,JASSM,3,125,76,2,2,1,225,9,2,0,1,26,0,0,0,0,-154254.51989920562,-4779531.938447799,4210979.968229771,-2.71064,-1.01089,0.752322,36.625,-58.375,-64.375,0.0,0.0,0.0,0.0,0.0,0.0,2,0,41.557559002894415,-91.84852122812968,10000.000750721429,155.95120220170665,0.0001274581776795,0.0045222667099911,,9133.40005056179,11009.472056291774,150,8,2025-09-10,2025-09-26 15:50:17.163,AA,C,3267501112,AMBUSH51,1,1,48,2,1,1,225,2,1,0,0,9,1,225,2,1,-144342.84368229398,-4792092.428243245,4196676.706756081,-2.97667,2.27196,-0.61643,-51.8444,69.7879,60.8551,-0.306407,-8.25668,7.79075,0.0375183,0.0388104,0.0529667,4,0,41.38812300373825,-91.7252872513248,9023.945010946758,-33.11921358958525,-4.2101150521714965,39.607320822413776,183.929,9133.40005056179,11009.472056291774,150,False,11.574264551949222,False,171.2182009332818,175.27474131010416,False,6.927696670939433,True,False
8,1970-07-23 09:59:54.181083192,2025-09-10,2025-09-26 15:50:18.108,AA,C,3311417016,JASSM,3,125,76,2,2,1,225,9,2,0,1,26,0,0,0,0,-154217.89099295562,-4779590.383760299,4210915.407682896,-2.71064,-1.0108,0.752322,36.625,-58.375,-64.375,0.0,0.0,0.0,0.0,0.0,0.0,2,0,41.55678255633698,-91.8480600042913,10000.00127921034,155.94786531948478,-0.0006975288604216,0.000768501192875,,9133.40005056179,11009.472056291774,150,8,2025-09-10,2025-09-26 15:50:18.030,AA,C,3268535044,AMBUSH51,1,1,48,2,1,1,225,2,1,0,0,9,1,225,2,1,-144385.6282988179,-4792030.356793048,4196730.607762005,-2.94934,2.20662,-0.643589,-46.8864,72.6719,63.7588,-0.279836,-8.99901,8.61234,-0.0459801,0.0551035,0.0552408,4,0,41.38884848482877,-91.72582067480964,8991.320993325156,-29.709978343986155,-4.311264929648209,38.71353555327724,185.665,9133.40005056179,11009.472056291774,150,False,11.473796833063249,False,173.32555956627817,175.24909496060744,False,6.88893625899723,True,False
8,1970-07-23 09:59:54.192505386,2025-09-10,2025-09-26 15:50:19.250,AA,C,3312609974,JASSM,3,125,76,2,2,1,225,9,2,0,1,26,0,0,0,0,-154181.25329764312,-4779648.838838424,4210850.833464146,-2.71064,-1.0108,0.752418,36.625,-58.375,-64.375,0.0,0.0,0.0,0.0,0.0,0.0,2,0,41.55600595917646,-91.84759868247173,9999.999916793531,155.95046668906244,-0.004840174294352,0.0007671294562847,,9133.40005056179,11009.472056291774,150,8,2025-09-10,2025-09-26 15:50:19.430,AA,C,3270205242,AMBUSH51,1,1,48,2,1,1,225,2,1,0,0,9,1,225,2,1,-144444.81767669495,-4791925.620469443,4196823.684251312,-2.83906,2.09687,-0.701237,-37.0825,76.4262,69.1535,-0.479565,-9.87659,9.50685,0.0508424,0.0589984,0.0497522,4,0,41.39008931587324,-91.72656544241796,8939.931395412135,-23.836474611851205,-3.453092506149663,40.713413236902205,188.683,9133.40005056179,11009.472056291774,150,False,11.341630938148016,False,173.90343382841976,175.1872169162289,False,9.893364232521932,True,False
8,1970-07-23 09:59:54.201582270,2025-09-10,2025-09-26 15:50:20.158,AA,C,3313803020,JASSM,3,125,76,2,2,1,225,9,2,0,1,26,0,0,0,0,-154144.61267264312,-4779707.297822799,4210786.253386021,-2.71064,-1.0108,0.752418,36.625,-58.375,-64.375,0.0,0.0,0.0,0.0,0.0,0.0,2,0,41.55522929785719,-91.84713733510524,9999.999754462904,155.95077272243694,-0.0039902411899899,0.0007658853057183,,9133.40005056179,11009.472056291774,150,8,2025-09-10,2025-09-26 15:50:20.164,AA,C,3271080108,AMBUSH51,1,1,48,2,1,1,225,2,1,0,0,9,1,225,2,1,-144469.43684916152,-4791869.596598038,4196874.650147673,-2.76498,2.02746,-0.7316,-30.9947,78.2057,71.8742,-0.362518,-10.4714,9.92635,0.0304901,0.0685441,0.0644579,4,0,41.39076226462213,-91.72687971729832,8914.482815446661,-20.399157174158905,-2.962231351284617,42.15242217629714,189.819,9133.40005056179,11009.472056291774,150,False,11.248639137624064,False,171.7857813299192,175.12562801683845,False,12.756288859633889,True,False
8,1970-07-23 09:59:54.211081821,2025-09-10,2025-09-26 15:50:21.108,AA,C,3314996068,JASSM,3,125,76,2,2,1,225,9,2,0,1,26,0,0,0,0,-154107.97302420562,-4779765.756807174,4210721.671354771,-2.71064,-1.0108,0.752418,36.625,-58.375,-64.375,0.0,0.0,0.0,0.0,0.0,0.0,2,0,41.554452621240735,-91.84667601047826,10000.000018090144,155.95107873603007,-0.0031402993536473,0.0007646277097873,,9133.40005056179,11009.472056291774,150,8,2025-09-10,2025-09-26 15:50:21.130,AA,C,3272233340,AMBUSH51,1,1,48,2,1,1,225,2,1,0,0,9,1,225,2,1,-144495.10327462188,-4791793.048212846,4196946.143896634,-2.65,1.90828,-0.770364,-21.79,79.6794,75.6103,-0.475198,-11.3806,10.7933,0.0202972,0.0770039,0.0673977,4,0,41.39169571531669,-91.72721390366574,8883.151837594965,-14.96082557094928,-2.4046533527679435,43.82237039127016,191.494,9133.40005056179,11009.472056291774,150,False,11.14152583787537,False,167.66502353843927,175.02781651040726,False,17.262615852179017,True,False
8,1970-07-23 09:59:54.224801146,2025-09-10,2025-09-26 15:50:22.480,AA,C,3316129462,JASSM,3,125,76,2,2,1,225,9,2,0,1,26,0,0,0,0,-154073.16443045562,-4779821.290010299,4210660.319792271,-2.71064,-1.0108,0.752418,36.625,-58.375,-64.375,0.0,0.0,0.0,0.0,0.0,0.0,2,0,41.55371480292662,-91.8462377522968,10000.000481142031,155.9513694444489,-0.0023328754498508,0.0007634505331168,,9133.40005056179,11009.472056291774,150,8,2025-09-10,2025-09-26 15:50:22.563,AA,C,3273943304,AMBUSH51,1,1,48,2,1,1,225,2,1,0,0,9,1,225,2,1,-144515.63510653094,-4791678.79924711,4197058.187853729,-2.50132,1.71822,-0.823598,-6.72675,79.6778,80.8189,-0.394899,-11.8461,11.4396,-0.0038647,0.0886947,0.0550328,4,0,41.39312813757895,-91.72750034424593,8846.664613633386,-6.8954692202084304,-0.9587933878474224,44.30056990457046,192.838,9133.40005056179,11009.472056291774,150,False,11.011812045089043,False,160.40143939387056,174.84478763110155,False,24.743884600309443,True,False
8,1970-07-23 09:59:54.230124468,2025-09-10,2025-09-26 15:50:23.012,AA,C,3317203570,JASSM,3,125,76,2,2,1,225,9,2,0,1,26,0,0,0,0,-154040.17712576812,-4779873.918916549,4210602.175261021,-2.71064,-1.0108,0.752418,36.625,-58.25,-64.5,0.0,0.0,0.0,0.0,0.0,0.0,2,0,41.5530155590437,-91.84582243375758,10000.001431286642,155.95164493247458,-0.0015676718196902,0.0007623235647902,,9133.40005056179,11009.472056291774,150,8,2025-09-10,2025-09-26 15:50:23.163,AA,C,3274659104,AMBUSH51,1,1,48,2,1,1,225,2,1,0,0,9,1,225,2,1,-144517.40043255375,-4791630.880384901,4197107.026011799,-2.43453,1.63315,-0.839659,0.0825884,79.3157,82.4345,-0.435319,-12.0153,11.4105,0.00541475,0.0763838,0.0570842,4,0,41.393742611855984,-91.72753869934974,8834.857587104667,-3.536172617061577,-0.3746507998008314,44.48519324307546,193.143,9133.40005056179,11009.472056291774,150,False,10.933027615872806,False,157.03976096936532,174.75403995546097,False,28.18784277711145,True,False
8,1970-07-23 09:59:54.240836299,2025-09-10,2025-09-26 15:50:24.083,AA,C,3318396248,JASSM,3,125,76,2,2,1,225,9,2,0,1,26,0,0,0,0,-154003.54821951812,-4779932.356416549,4210537.610807896,-2.71064,-1.0108,0.752418,36.625,-58.25,-64.5,0.0,0.0,0.0,0.0,0.0,0.0,2,0,41.55223912135452,-91.84536127752934,10000.001185427252,155.9519508209765,-0.0007179946896902,0.0007610719845538,,9133.40005056179,11009.472056291774,150,8,2025-09-10,2025-09-26 15:50:24.096,AA,C,3275772570,AMBUSH51,1,1,48,2,1,1,225,2,1,0,0,9,1,225,2,1,-144512.0417789506,-4791556.742788578,4197185.220955085,-2.31702,1.49112,-0.858339,11.0055,77.9655,84.3309,-0.233989,-12.1706,11.5552,0.084003,0.0774907,0.0571113,4,0,41.39471253862919,-91.72750139388602,8821.711440473005,1.8544909951943804,0.6083672819995052,45.11629747012191,193.767,9133.40005056179,11009.472056291774,150,False,10.832279920031192,False,151.6675230312718,174.57167135655914,False,33.71159271497677,False,False
8,1970-07-23 09:59:54.249105960,2025-09-10,2025-09-26 15:50:24.910,AA,C,3319469996,JASSM,3,125,76,2,2,1,225,9,2,0,1,26,0,0,0,0,-153970.57165701812,-4779984.963838424,4210479.485807896,-2.71064,-1.0108,0.752418,36.625,-58.25,-64.5,0.0,0.0,0.0,0.0,0.0,0.0,2,0,41.55154013178171,-91.84494611479666,10000.00063317556,155.95222619761998,4.693209166031184e-05,0.0007599564117827,,9133.40005056179,11009.472056291774,150,8,2025-09-10,2025-09-26 15:50:24.796,AA,C,3276607668,AMBUSH51,1,1,48,2,1,1,225,2,1,0,0,9,1,225,2,1,-144501.22234512313,-4791502.211154403,4197244.346230554,-2.1006,1.3862,-0.86316,19.5341,77.0127,84.7029,-0.74956,-11.5372,11.1174,0.146743,0.079072,0.0501538,4,0,41.395438064500354,-91.72739178354938,8815.026644272148,5.740172856254341,1.1835021950580829,53.016368541452735,193.877,9133.40005056179,11009.472056291774,150,False,10.751069787800605,False,147.46486309056394,174.41273016465823,False,38.05943130226397,False,False
8,1970-07-23 09:59:54.263240962,2025-09-10,2025-09-26 15:50:26.324,AA,C,3320544102,JASSM,3,125,76,2,2,1,225,9,2,0,1,26,0,0,0,0,-153937.58435233062,-4780037.590791549,4210421.339323521,-2.71064,-1.0108,0.752418,36.625,-58.25,-64.5,0.0,0.0,0.0,0.0,0.0,0.0,2,0,41.550840881468105,-91.8445308248494,10000.004134166338,155.95250165483742,0.0008121371526359,0.000758828273402,,9133.40005056179,11009.472056291774,150,8,2025-09-10,2025-09-26 15:50:26.463,AA,C,3278596000,AMBUSH51,1,1,48,2,1,1,225,2,1,0,0,9,1,225,2,1,-144451.03283149927,-4791375.463377664,4197381.138973394,-1.84076,1.10291,-0.791796,40.7357,75.0171,81.0559,-0.320322,-12.0456,11.4435,-0.105111,0.103176,0.0616428,4,0,41.39712462850228,-91.72683782473878,8796.273718225782,17.32696836584794,-0.3873841294019308,55.99085880884174,194.488,9133.40005056179,11009.472056291774,150,False,10.62971623401856,False,136.89739628017924,174.0054987180075,False,49.042571516800784,False,False
8,1970-07-23 09:59:54.272091117,2025-09-10,2025-09-26 15:50:27.209,AA,C,3321677134,JASSM,3,125,76,2,2,1,225,9,2,0,1,26,0,0,0,0,-153902.78747733062,-4780093.102510299,4210360.001432896,-2.71064,-1.0108,0.752513,36.625,-58.25,-64.5,0.0,0.0,0.0,0.0,0.0,0.0,2,0,41.5501032725215,-91.84409276405746,10000.00286930313,155.955086134399,-0.00337009000156,0.0007576032496554,,9133.40005056179,11009.472056291774,150,8,2025-09-10,2025-09-26 15:50:27.234,AA,C,3279510632,AMBUSH51,1,1,48,2,1,1,225,2,1,0,0,9,1,225,2,1,-144415.4094496157,-4791318.285924981,4197443.043361459,-1.93713,0.976548,-0.772609,50.9084,72.1824,79.2182,-0.258599,-12.9829,12.5272,-0.284011,0.10283,0.0570322,4,0,41.3978891058928,-91.72643281303615,8787.281922320368,22.512421804768504,0.4378873437909582,45.36475004428776,195.478,9133.40005056179,11009.472056291774,150,False,10.55090042394619,False,131.73966051957728,173.76933503902234,False,54.42777254135479,False,False
8,1970-07-23 09:59:54.277101717,2025-09-10,2025-09-26 15:50:27.710,AA,C,3322810522,JASSM,3,125,76,2,2,1,225,9,2,0,1,26,0,0,0,0,-153867.97888358062,-4780148.629854049,4210298.644011021,-2.71064,-1.0108,0.752513,36.625,-58.25,-64.5,0.0,0.0,0.0,0.0,0.0,0.0,2,0,41.54936543929985,-91.84365456688415,10000.000670290963,155.95537677745955,-0.002562662015354,0.0007564549281076,,9133.40005056179,11009.472056291774,150,8,2025-09-10,2025-09-26 15:50:27.829,AA,C,3280226432,AMBUSH51,1,1,48,2,1,1,225,2,1,0,0,9,1,225,2,1,-144382.90392840098,-4791276.263996796,4197490.508334413,-2.06901,0.885511,-0.77031,57.4289,68.3391,78.834,-0.21285,-13.3719,12.9134,-0.366107,0.096834,0.0368255,4,0,41.39846537688018,-91.72605958576904,8784.479414831882,25.946287995420317,1.9255114285111716,34.241294991092914,195.71,9133.40005056179,11009.472056291774,150,False,10.481285881712642,False,128.30613712365428,173.56798104888287,False,58.037300572777696,False,False
8,1970-07-23 09:59:54.288056362,2025-09-10,2025-09-26 15:50:28.805,AA,C,3323884284,JASSM,3,125,76,2,2,1,225,9,2,0,1,26,0,0,0,0,-153835.00134451812,-4780201.235322799,4210240.513151646,-2.71064,-1.0108,0.752513,36.625,-58.25,-64.5,0.0,0.0,0.0,0.0,0.0,0.0,2,0,41.54866641559237,-91.84323942998098,9999.997812728609,155.95565212142313,-0.0017977062446788,0.0007553661449726,,9133.40005056179,11009.472056291774,150,8,2025-09-10,2025-09-26 15:50:28.896,AA,C,3281498964,AMBUSH51,1,1,48,2,1,1,225,2,1,0,0,9,1,225,2,1,-144317.8548717294,-4791208.602861029,4197575.128677454,-2.35903,0.782714,-0.799472,64.1507,60.291,80.3251,-0.0606448,-12.2731,11.6218,-0.307692,0.0489325,-0.0025144,4,0,41.399450855921,-91.72530676112406,8796.811107550568,28.77425005009217,5.41699359193957,13.64060948454568,195.514,9133.40005056179,11009.472056291774,150,False,10.401844112269526,False,124.35954737450244,173.2198205975279,False,62.24971506394079,False,False
8,1970-07-23 09:59:54.298460332,2025-09-10,2025-09-26 15:50:29.846,AA,C,3325017656,JASSM,3,125,76,2,2,1,225,9,2,0,1,26,0,0,0,0,-153800.19372733062,-4780256.762666549,4210179.155729771,-2.71054,-1.0107,0.752513,36.625,-58.25,-64.5,0.0,0.0,0.0,0.0,0.0,0.0,2,0,41.547928578746834,-91.84280126390514,10000.003773944933,155.9523006566262,-0.0026649033277343,0.0024925103573601,,9133.40005056179,11009.472056291774,150,8,2025-09-10,2025-09-26 15:50:29.696,AA,C,3282453362,AMBUSH51,1,1,48,2,1,1,225,2,1,0,0,9,1,225,2,1,-144265.95541759813,-4791162.465223814,4197640.312860098,-2.57705,0.766909,-0.830466,65.192,55.6653,82.0639,-0.0318379,-10.8054,10.0443,-0.255151,0.0411718,-0.00347563,4,0,41.40017470788422,-91.72470328093772,8820.899829736996,28.372419368281648,7.256125189010313,0.4453678549702723,193.571,9133.40005056179,11009.472056291774,150,True,10.330295328575778,False,123.31961585477588,172.94173523122913,False,63.49951001630463,False,False
8,1970-07-23 09:59:54.304064826,2025-09-10,2025-09-26 15:50:30.406,AA,C,3326091398,JASSM,3,125,76,2,2,1,225,9,2,0,1,26,0,0,0,0,-153767.21716483062,-4780309.364229049,4210121.024870396,-2.71054,-1.0107,0.752513,36.625,-58.25,-64.5,0.0,0.0,0.0,0.0,0.0,0.0,2,0,41.547229574900186,-91.84238615858222,9999.999064902237,155.95257597185693,-0.0018999725710348,0.0024913733200667,,9133.40005056179,11009.472056291774,150,8,2025-09-10,2025-09-26 15:50:30.396,AA,C,3283288462,AMBUSH51,1,1,48,2,1,1,225,2,1,0,0,9,1,225,2,1,-144220.3323662422,-4791124.071467321,4197697.998396902,-2.69839,0.76515,-0.846922,64.4845,53.2644,83.3034,-0.086058,-9.45458,8.81292,-0.126403,0.0189885,-0.0188242,4,0,41.40080073617872,-91.72417199365697,8848.236918833907,27.926764014603556,8.092426530165007,-6.641275917818835,192.105,9133.40005056179,11009.472056291774,150,True,10.264876293904205,False,123.31015572303562,172.69377065310863,False,63.71215618345945,False,False
8,1970-07-23 09:59:54.315177067,2025-09-10,2025-09-26 15:50:31.517,AA,C,3327284444,JASSM,3,125,76,2,2,1,225,9,2,0,1,26,0,0,0,0,-153730.57751639312,-4780367.811494674,4210056.435026646,-2.71054,-1.0107,0.752513,36.625,-58.25,-64.5,0.0,0.0,0.0,0.0,0.0,0.0,2,0,41.54645289544149,-91.84192495220786,10000.000941825892,155.95288185877268,-0.001050046754519,0.0024900995089312,,9133.40005056179,11009.472056291774,150,8,2025-09-10,2025-09-26 15:50:31.530,AA,C,3284640528,AMBUSH51,1,1,48,2,1,1,225,2,1,0,0,9,1,225,2,1,-144148.5503950431,-4791064.0327891065,4197792.321904439,-2.84641,0.789631,-0.865279,61.8101,51.8753,84.1735,0.020407,-7.94092,7.42752,-0.0574983,0.00576429,-0.0231664,4,0,41.40180755946355,-91.72333593136555,8899.893179894669,26.579080214787545,8.507666210482189,-14.257723779965463,189.734,9133.40005056179,11009.472056291774,150,False,10.182263233248243,False,124.23642125583407,172.3096318937629,False,63.13990547183635,False,False
8,1970-07-23 09:59:54.324062153,2025-09-10,2025-09-26 15:50:32.406,AA,C,3328477762,JASSM,3,125,76,2,2,1,225,9,2,0,1,26,0,0,0,0,-153693.92810233062,-4780426.272432174,4209991.827604771,-2.71054,-1.0107,0.752513,36.625,-58.25,-64.5,0.0,0.0,0.0,0.0,0.0,0.0,2,0,41.54567601594484,-91.8414636346846,10000.00195251564,155.95318781470624,-0.0001999026671604,0.0024888284771582,,9133.40005056179,11009.472056291774,150,8,2025-09-10,2025-09-26 15:50:32.262,AA,C,3285515392,AMBUSH51,1,1,48,2,1,1,225,2,1,0,0,9,1,225,2,1,-144103.49692501427,-4791025.413940217,4197853.951558201,-2.87388,0.81455,-0.874917,59.9034,51.6642,84.451,-0.0618732,-7.44897,7.00435,0.00425794,0.00248527,-0.0318841,4,0,41.40246144020996,-91.72281150779624,8935.285644645746,25.494015504572246,8.513136276601134,-14.900865056042308,188.121,9133.40005056179,11009.472056291774,150,False,10.110720317865269,False,125.01958318153608,172.04633734308092,False,62.61271134361091,False,False
8,1970-07-23 09:59:54.336838967,2025-09-10,2025-09-26 15:50:33.683,AA,C,3329789832,JASSM,3,125,76,2,2,1,225,9,2,0,1,26,0,0,0,0,-153653.63220389312,-4780490.547822799,4209920.790495396,-2.71054,-1.0107,0.752609,36.625,-58.25,-64.5,0.0,0.0,0.0,0.0,0.0,0.0,2,0,41.5448218406205,-91.84095643132672,9999.999752492093,155.95581987487543,-0.0042575346186575,0.0024873610887564,,9133.40005056179,11009.472056291774,150,8,2025-09-10,2025-09-26 15:50:33.564,AA,C,3287066292,AMBUSH51,1,1,48,2,1,1,225,2,1,0,0,9,1,225,2,1,-144027.9142639764,-4790956.9937221,4197962.509954431,-2.8729,0.859437,-0.873519,56.8279,52.4531,84.0488,-0.0496489,-6.32734,6.06088,0.0532039,-0.00311153,-0.00844409,4,0,41.403614887628926,-91.72193300875836,8996.946108061968,24.081665421374694,7.635811742502628,-13.070382766912733,185.579,9133.40005056179,11009.472056291774,150,False,10.017471406645956,False,126.42017026334419,171.61015317062143,False,61.66857782413505,False,False
8,1970-07-23 09:59:54.346379429,2025-09-10,2025-09-26 15:50:34.637,AA,C,3330982890,JASSM,3,125,76,2,2,1,225,9,2,0,1,26,0,0,0,0,-153616.99060233062,-4780548.991182174,4209856.196745396,-2.71054,-1.0107,0.752609,36.625,-58.25,-64.5,0.0,0.0,0.0,0.0,0.0,0.0,2,0,41.54404515246858,-91.84049523729055,9999.997646599964,155.95612573915218,-0.0034075993177203,0.0024861351610545,,9133.40005056179,11009.472056291774,150,8,2025-09-10,2025-09-26 15:50:34.596,AA,C,3288299056,AMBUSH51,1,1,48,2,1,1,225,2,1,0,0,9,1,225,2,1,-143969.8457910604,-4790901.062479948,4198048.574340463,-2.86374,0.893027,-0.862093,54.9836,53.9677,82.7763,-0.242687,-5.40718,5.29647,0.0264891,-0.0125949,-0.0331033,4,0,41.40453903609771,-91.72125926836728,9041.82272765422,23.28036105276084,6.477785577820357,-11.175897335515783,183.966,9133.40005056179,11009.472056291774,150,False,9.936484998529714,False,127.3408843457708,171.25468577715412,False,61.149000616921164,False,False
8,1970-07-23 09:59:54.356081532,2025-09-10,2025-09-26 15:50:35.608,AA,C,3332235588,JASSM,3,125,76,2,2,1,225,9,2,0,1,26,0,0,0,0,-153578.51794608062,-4780610.356416549,4209788.372526646,-2.71054,-1.0107,0.752609,36.625,-58.25,-64.5,0.0,0.0,0.0,0.0,0.0,0.0,2,0,41.54322962409409,-91.84001100782126,9999.99804733757,155.95644687549307,-0.002515167516754,0.0024848379380707,,9133.40005056179,11009.472056291774,150,8,2025-09-10,2025-09-26 15:50:35.596,AA,C,3289492056,AMBUSH51,1,1,48,2,1,1,225,2,1,0,0,9,1,225,2,1,-143915.88628077426,-4790845.680328682,4198129.514609812,-2.88084,0.946189,-0.844546,53.6303,56.37,80.989,-0.191975,-4.84385,4.74476,0.0763381,-0.0293333,-0.00503608,4,0,41.40542458478236,-91.72063441123125,9077.241817488572,21.915464157863752,4.697171513623825,-9.993468256469416,182.414,9133.40005056179,11009.472056291774,150,True,9.854131529222137,False,128.15180729100373,170.9075226056694,False,60.74951792758779,False,False
8,1970-07-23 09:59:54.366150305,2025-09-10,2025-09-26 15:50:36.615,AA,C,3333488288,JASSM,3,125,76,2,2,1,225,9,2,0,1,26,0,0,0,0,-153540.04528983062,-4780671.721650924,4209720.548307896,-2.71054,-1.0107,0.752609,36.625,-58.25,-64.5,0.0,0.0,0.0,0.0,0.0,0.0,2,0,41.54241409356489,-91.83952679052028,10000.00351875704,155.9567679985853,-0.0016227355890962,0.002483540696077,,9133.40005056179,11009.472056291774,150,8,2025-09-10,2025-09-26 15:50:36.796,AA,C,3290923654,AMBUSH51,1,1,48,2,1,1,225,2,1,0,0,9,1,225,2,1,-143851.5286450468,-4790775.370682785,4198225.6617848165,-2.702,0.94687,-0.807313,53.0928,59.3475,78.6164,-0.134656,-4.62976,4.51202,0.110439,-0.0295476,-0.00699392,4,0,41.40650345469548,-91.71989064992682,9108.180983554252,22.791627459159734,2.752074944687548,0.3393478646544391,181.888,9133.40005056179,11009.472056291774,150,True,9.765400215724151,False,128.5940924308216,170.49027103836715,False,60.79655021029808,False,False
8,1970-07-23 09:59:54.377079841,2025-09-10,2025-09-26 15:50:37.707,AA,C,3334740984,JASSM,3,125,76,2,2,1,225,9,2,0,1,26,0,0,0,0,-153501.57263358062,-4780733.082979049,4209652.722136021,-2.71054,-1.0107,0.752609,36.625,-58.25,-64.5,0.0,0.0,0.0,0.0,0.0,0.0,2,0,41.54159857102644,-91.83904258688884,10000.000224041383,155.95708910743352,-0.0007303132578931,0.0024822465419496,,9133.40005056179,11009.472056291774,150,8,2025-09-10,2025-09-26 15:50:37.896,AA,C,3292235952,AMBUSH51,1,1,48,2,1,1,225,2,1,0,0,9,1,225,2,1,-143793.43032010406,-4790708.550242527,4198310.14026573,-2.73253,0.972316,-0.784452,53.2642,62.1419,76.2798,-0.0572908,-4.9005,4.75759,-0.0579144,-0.0278873,0.020601,4,0,41.40748167085718,-91.71922040740908,9122.852827230588,22.402089808685048,1.1394357877571877,-0.3817448103747674,181.387,9133.40005056179,11009.472056291774,150,True,9.680388514990323,False,128.6419945120448,170.0997053750169,False,61.19326248033147,False,False
8,1970-07-23 09:59:54.387038812,2025-09-10,2025-09-26 15:50:38.703,AA,C,3335993890,JASSM,3,125,76,2,2,1,225,9,2,0,1,26,0,0,0,0,-153463.09314139312,-4780794.456025924,4209584.882292271,-2.71054,-1.0107,0.752609,36.625,-58.25,-64.5,0.0,0.0,0.0,0.0,0.0,0.0,2,0,41.54078288564703,-91.83855830907906,10000.00047784207,155.95741026029464,0.0001622822762427,0.0024809459237281,,9133.40005056179,11009.472056291774,150,8,2025-09-10,2025-09-26 15:50:38.696,AA,C,3293190352,AMBUSH51,1,1,48,2,1,1,225,2,1,0,0,9,1,225,2,1,-143751.04145344303,-4790657.797230755,4198370.785126546,-2.78595,0.96932,-0.763759,53.2104,64.0471,75.0228,0.0669803,-5.17084,4.95229,-0.114494,-0.0177381,0.00735386,4,0,41.408200592126754,-91.71873209984308,9126.491375947531,22.99454828855983,0.1057704289500572,-3.556340342494277,181.925,9133.40005056179,11009.472056291774,150,True,9.604124004107295,False,128.78210738722967,169.7934819995825,False,61.384937520108615,False,False
8,1970-07-23 09:59:54.398777332,2025-09-10,2025-09-26 15:50:39.877,AA,C,3337246384,JASSM,3,125,76,2,2,1,225,9,2,0,1,26,0,0,0,0,-153424.62634451812,-4780855.805635299,4209517.065886021,-2.71054,-1.0107,0.752609,36.625,-58.25,-64.5,0.0,0.0,0.0,0.0,0.0,0.0,2,0,41.53996749335998,-91.83807420443424,10000.000270723624,155.95773129314227,0.001054559209561,0.0024796555246024,,9133.40005056179,11009.472056291774,150,8,2025-09-10,2025-09-26 15:50:40.029,AA,C,3294781016,AMBUSH51,1,1,48,2,1,1,225,2,1,0,0,9,1,225,2,1,-143680.2002092892,-4790569.877143381,4198470.559243762,-2.93937,0.999703,-0.744353,52.5134,67.1701,73.5796,-0.0975208,-5.4763,5.41966,-0.101701,-0.00741212,-0.00953433,4,0,41.409409868613736,-91.71791711659203,9121.533586373633,22.270298503161733,-1.4163257330303958,-11.146596771701317,183.11,9133.40005056179,11009.472056291774,150,False,9.512208067649894,False,129.3544623604752,169.3088445086868,False,61.32338755417453,False,False
