Unnamed: 0_cm,Subject_cm,Timestamp,SampleDate_cm,SampleTime_cm,Configuration_cm,Scenario_cm,DisTime_cm,MarkingTxt_cm,Application_cm,EntId_cm,Site_cm,ExerciseId_cm,ForceId_cm,Category_cm,Country_cm,Domain_cm,Kind_cm,Extra_cm,Specific_cm,Subcategory_cm,AltCategory_cm,AltCountry_cm,AltDomain_cm,AltKind_cm,ECEF_X_cm,ECEF_Y_cm,ECEF_Z_cm,OriPhi_cm,OriPsi_cm,OriTheta_cm,LinVelX_cm,LinVelY_cm,LinVelZ_cm,LinAccX_cm,LinAccY_cm,LinAccZ_cm,AngVelX_cm,AngVelY_cm,AngVelZ_cm,DrAlg_cm,Appearance_cm,Latitude_cm,Longitude_cm,Altitude_cm,Heading_cm,Pitch_cm,Roll_cm,CalibratedAirspeed_cm,CM_Altitude_Lead_cm,CM_Altitude_Wing_cm,CM_Airspeed_cm,Unnamed: 0_ac,Subject_ac,SampleDate_ac,SampleTime_ac,Configuration_ac,Scenario_ac,DisTime_ac,MarkingTxt_ac,Application_ac,EntId_ac,Site_ac,ExerciseId_ac,ForceId_ac,Category_ac,Country_ac,Domain_ac,Kind_ac,Extra_ac,Specific_ac,Subcategory_ac,AltCategory_ac,AltCountry_ac,AltDomain_ac,AltKind_ac,ECEF_X_ac,ECEF_Y_ac,ECEF_Z_ac,OriPhi_ac,OriPsi_ac,OriTheta_ac,LinVelX_ac,LinVelY_ac,LinVelZ_ac,LinAccX_ac,LinAccY_ac,LinAccZ_ac,AngVelX_ac,AngVelY_ac,AngVelZ_ac,DrAlg_ac,Appearance_ac,Latitude_ac,Longitude_ac,Altitude_ac,Heading_ac,Pitch_ac,Roll_ac,CalibratedAirspeed_ac,CM_Altitude_Lead_ac,CM_Altitude_Wing_ac,CM_Airspeed_ac,Bank_Angle_Condition,distance_nm,Distance_Condition,angle_between_vel,angle_between_pos,Cone_Condition,angle_between_pos_nose,Nose_Cone_Condition,Intercept_Criteria
6735,8,1970-07-23 10:01:53.926087327,2025-09-10,2025-09-12 19:09:52.608,HA,C,1243509980,JASSM,3,104,76,2,2,1,225,9,2,0,1,26,0,0,0,0,-180477.29236014312,-4778024.305635299,4211644.134245396,-2.36693,-0.400848,0.381098,82.0,-34.625,-35.625,0.0,0.0,0.0,0.0,0.0,0.0,2,0,41.56554720298098,-92.16316889107432,10000.004400983542,119.80332661583368,-0.0058758618570497,0.0045510935777867,,8802.566937047923,11004.7807189461,150,6731,8,2025-09-10,2025-09-12 19:09:52.538,HA,C,3992009314,HAWK11,1,1,73,2,1,1,225,2,1,0,0,12,1,225,2,1,-148241.79138358062,-4791867.613252486,4197709.792448521,2.50681,2.55561,-0.531141,-85.75,39.375,44.5,-0.140625,-7.48438,6.23438,-0.0292969,0.0,0.0,4,0,41.39572720334494,-91.77194397738572,11004.7807189461,-47.12144583916279,-0.3394662873605305,3.2392388836352173,0.0,8802.566937047923,11004.7807189461,150,True,20.304478216241368,False,176.1995875923172,179.64299131316534,False,3.8165017980576765,True,False
6751,8,1970-07-23 10:01:53.937089637,2025-09-10,2025-09-12 19:09:53.708,HA,C,1244762678,JASSM,3,104,76,2,2,1,225,9,2,0,1,26,0,0,0,0,-180391.09997733065,-4778060.842744674,4211606.626432896,-2.36693,-0.400848,0.381098,82.0,-34.625,-35.625,0.0,0.0,0.0,0.0,0.0,0.0,2,0,41.56509606589427,-92.162120267307,9999.999696505794,119.80402235004178,-0.0049708268771701,0.0045495863151981,,8802.566937047923,11004.7807189461,150,6744,8,2025-09-10,2025-09-12 19:09:53.281,HA,C,3992287680,HAWK11,1,1,73,2,1,1,225,2,1,0,0,12,1,225,2,1,-148262.31286795562,-4791857.616182174,4197720.067839146,2.5001,2.54919,-0.534305,-85.375,41.375,43.0,-0.15625,-7.53125,6.28125,-0.0273438,0.0,0.0136719,4,0,41.39585225741205,-91.77219281053657,11004.04222605138,-46.76168138962037,-0.4011247159766533,2.6655027370701125,0.0,8802.566937047923,11004.7807189461,150,True,20.23685480620551,False,176.25429985373245,179.64295692337407,False,3.6337070892209526,True,False
6769,8,1970-07-23 10:01:53.948792902,2025-09-10,2025-09-12 19:09:54.879,HA,C,1246075028,JASSM,3,104,76,2,2,1,225,9,2,0,1,26,0,0,0,0,-180300.80407889312,-4778099.120088424,4211567.333464146,-2.36693,-0.400848,0.381098,82.0,-34.625,-35.625,0.0,0.0,0.0,0.0,0.0,0.0,2,0,41.56462343963814,-92.16102173513306,10000.00339255488,119.80475119050982,-0.0040227035872758,0.0045480066970012,,8802.566937047923,11004.7807189461,150,6771,8,2025-09-10,2025-09-12 19:09:54.960,HA,C,3994713444,HAWK11,1,1,73,2,1,1,225,2,1,0,0,12,1,225,2,1,-148433.38513358062,-4791774.379854049,4197808.030729771,2.47086,2.54545,-0.544276,-84.0,41.625,42.75,-0.25,-7.4375,6.1875,0.0136719,-0.00390625,-0.00390625,4,0,41.39690967173105,-91.774267146536,11003.148826964523,-46.25858548477205,-0.0741801194662025,0.8782786933601661,0.0,8802.566937047923,11004.7807189461,150,True,20.067694338227707,False,175.82207552809936,179.64624263807113,False,4.0691139125481826,True,False
6780,8,1970-07-23 10:01:53.958066790,2025-09-10,2025-09-12 19:09:55.806,HA,C,1247327728,JASSM,3,104,76,2,2,1,225,9,2,0,1,26,0,0,0,0,-180214.61169608065,-4778135.655244674,4211529.823698521,-2.36693,-0.400848,0.381098,82.0,-34.625,-35.625,0.0,0.0,0.0,0.0,0.0,0.0,2,0,41.56417228140022,-92.15997314211914,10000.000347401909,119.80544689161576,-0.0031176682898952,0.0045464977214966,,8802.566937047923,11004.7807189461,150,6781,8,2025-09-10,2025-09-12 19:09:55.832,HA,C,3995866676,HAWK11,1,1,73,2,1,1,225,2,1,0,0,12,1,225,2,1,-148513.84607108062,-4791734.623994674,4197849.759245396,2.47709,2.54066,-0.549069,-83.5,41.625,42.75,-0.15625,-7.26562,5.92188,0.00195312,-0.0136719,0.015625,4,0,41.39741301429672,-91.77524302334892,11002.016910096523,-45.903774030581,-0.008979299175683,1.092441291731017,0.0,8802.566937047923,11004.7807189461,150,True,19.96044989443226,False,175.66042667367878,179.64744325230362,False,4.241759045904785,True,False
6796,8,1970-07-23 10:01:53.969093070,2025-09-10,2025-09-12 19:09:56.909,HA,C,1248640078,JASSM,3,104,76,2,2,1,225,9,2,0,1,26,0,0,0,0,-180124.31482108062,-4778173.928682174,4211490.528776646,-2.36693,-0.400848,0.381098,82.0,-34.625,-35.625,0.0,0.0,0.0,0.0,0.0,0.0,2,0,41.56369964493095,-92.1588746313092,10000.001330873078,119.80617570460588,-0.0021695435581641,0.0045449307096611,,8802.566937047923,11004.7807189461,150,6798,8,2025-09-10,2025-09-12 19:09:57.128,HA,C,3997497108,HAWK11,1,1,73,2,1,1,225,2,1,0,0,12,1,225,2,1,-148626.81677420562,-4791678.165986861,4197908.267057896,2.456,2.53193,-0.555493,-82.75,41.625,42.625,-0.125,-7.46875,6.29688,-0.0136719,-0.00390625,0.00195312,4,0,41.39812297071687,-91.77661345978449,10998.688772184456,-45.34232521457318,0.0101130667700535,-0.3780933072782048,0.0,8802.566937047923,11004.7807189461,150,True,19.82908444609324,False,175.4558025692935,179.64970022381456,False,4.458878081105477,True,False
6811,8,1970-07-23 10:01:53.980065628,2025-09-10,2025-09-12 19:09:58.006,HA,C,1249952430,JASSM,3,104,76,2,2,1,225,9,2,0,1,26,0,0,0,0,-180034.01794608062,-4778212.202119674,4211451.229948521,-2.36693,-0.400752,0.381098,82.0,-34.625,-35.625,0.0,0.0,0.0,0.0,0.0,0.0,2,0,41.56322697162549,-92.15777613650948,9999.999547753896,119.80326017851932,-0.0047878525342844,0.0025003973110114,,8802.566937047923,11004.7807189461,150,6812,8,2025-09-10,2025-09-12 19:09:58.034,HA,C,3998252674,HAWK11,1,1,73,2,1,1,225,2,1,0,0,12,1,225,2,1,-148678.60193045562,-4791652.180635299,4197935.140104771,2.45849,2.53423,-0.560095,-82.375,41.625,42.25,-0.0625,-7.375,6.28125,0.0351562,0.00976562,-0.00195312,4,0,41.39844939224296,-91.77724170954647,10997.023277741093,-45.26402733621339,0.2860658333878919,-0.1651879332237995,0.0,8802.566937047923,11004.7807189461,150,True,19.738083400327312,False,175.4503395010013,179.65009610138875,False,4.461052190686037,True,False
6822,8,1970-07-23 10:01:53.991062235,2025-09-10,2025-09-12 19:09:59.106,HA,C,1251264782,JASSM,3,104,76,2,2,1,225,9,2,0,1,26,0,0,0,0,-179943.72107108062,-4778250.473604049,4211411.933073521,-2.36693,-0.400752,0.381098,82.0,-34.625,-35.625,0.0,0.0,0.0,0.0,0.0,0.0,2,0,41.562754312591856,-92.15667765860124,10000.002960858745,119.80398895617044,-0.0038397275755999,0.0024987682742447,,8802.566937047923,11004.7807189461,150,6824,8,2025-09-10,2025-09-12 19:09:59.238,HA,C,3999922872,HAWK11,1,1,73,2,1,1,225,2,1,0,0,12,1,225,2,1,-148792.94763358062,-4791594.423799361,4197994.546354771,2.49406,2.53414,-0.565464,-81.625,41.75,42.125,-0.140625,-7.45312,6.28125,0.00585938,0.0,0.0195312,4,0,41.39917286191793,-91.77862909775952,10992.56905548189,-45.067852311723904,0.5235458171969113,1.8714598631536143,0.0,8802.566937047923,11004.7807189461,150,True,19.605653868781236,False,175.19705900276008,179.6518230665247,False,4.725207484487593,True,False
6836,8,1970-07-23 10:01:54.002406249,2025-09-10,2025-09-12 19:10:00.240,HA,C,1252577132,JASSM,3,104,76,2,2,1,225,9,2,0,1,26,0,0,0,0,-179853.42419608062,-4778288.743135299,4211372.632292271,-2.36693,-0.400752,0.381098,82.0,-34.625,-35.625,0.0,0.0,0.0,0.0,0.0,0.0,2,0,41.56228162837537,-92.15557919758346,9999.998816311212,119.80471771580903,-0.0028915958288406,0.0024971261519008,,8802.566937047923,11004.7807189461,150,6835,8,2025-09-10,2025-09-12 19:10:00.240,HA,C,4001195404,HAWK11,1,1,73,2,1,1,225,2,1,0,0,12,1,225,2,1,-148878.77575858062,-4791550.624971236,4198039.313932896,2.46952,2.52091,-0.572942,-80.875,41.75,42.0,-0.0625,-7.25,6.20312,-0.111328,0.0,0.0078125,4,0,41.39971974011573,-91.7796706605751,10988.518606115076,-44.30236986174232,0.4586740483387834,0.0633885740566084,0.0,8802.566937047923,11004.7807189461,150,True,19.491968700495036,False,174.98332535194788,179.6526808166189,False,4.9500453655423975,True,False
6848,8,1970-07-23 10:01:54.013083873,2025-09-10,2025-09-12 19:10:01.308,HA,C,1253832188,JASSM,3,104,76,2,2,1,225,9,2,0,1,26,0,0,0,0,-179767.06970389312,-4778325.340791549,4211335.048307896,-2.36693,-0.400752,0.381098,82.0,-34.625,-35.625,0.0,0.0,0.0,0.0,0.0,0.0,2,0,41.56182958405049,-92.1545287110675,9999.99971339671,119.80541464102122,-0.001984866045846,0.0024955661326986,,8802.566937047923,11004.7807189461,150,6847,8,2025-09-10,2025-09-12 19:10:01.238,HA,C,4002308870,HAWK11,1,1,73,2,1,1,225,2,1,0,0,12,1,225,2,1,-148954.42810233062,-4791511.901338424,4198078.472136021,2.36741,2.52129,-0.577256,-80.75,41.5,41.5,-0.109375,-7.45312,6.23438,-0.0585938,0.00390625,-0.0117188,4,0,41.400200435437895,-91.78058879420298,10984.009276269053,-44.16324694067839,0.6642464999412708,-5.773349900547325,0.0,8802.566937047923,11004.7807189461,150,True,19.387547883797463,False,175.178273883082,179.65332791269614,False,4.7599082125517835,True,False
6862,8,1970-07-23 10:01:54.025190865,2025-09-10,2025-09-12 19:10:02.519,HA,C,1255142182,JASSM,3,104,76,2,2,1,225,9,2,0,1,26,0,0,0,0,-179676.93493826812,-4778363.540010299,4211295.815886021,-2.36693,-0.400752,0.381194,82.0,-34.625,-35.625,0.0,0.0,0.0,0.0,0.0,0.0,2,0,41.561357722679006,-92.1534322540834,9999.998047267292,119.8099842195454,-0.00496435013488,0.002493720816244,,8802.566937047923,11004.7807189461,150,6858,8,2025-09-10,2025-09-12 19:10:02.278,HA,C,4002945136,HAWK11,1,1,73,2,1,1,225,2,1,0,0,12,1,225,2,1,-148996.73474295562,-4791490.426729049,4198100.315886021,2.34316,2.52896,-0.573229,-80.875,41.0,41.25,-0.03125,-7.48438,6.26562,-0.0273438,-0.00195312,-0.0195312,4,0,41.40046780691024,-91.78110217596378,10981.81553833332,-44.59562512276809,0.7151970123644686,-6.929168006353771,0.0,8802.566937047923,11004.7807189461,150,True,19.30288613901485,False,175.4744578372575,179.6528983270628,False,4.477149196348335,True,False
6875,8,1970-07-23 10:01:54.035262977,2025-09-10,2025-09-12 19:10:03.526,HA,C,1256454532,JASSM,3,104,76,2,2,1,225,9,2,0,1,26,0,0,0,0,-179586.63806326812,-4778401.807588424,4211256.513151646,-2.36693,-0.400752,0.381194,82.0,-34.625,-35.625,0.0,0.0,0.0,0.0,0.0,0.0,2,0,41.56088500584649,-92.15233384124696,10000.001807751194,119.81071292721262,-0.0040162178751413,0.0024921405115309,,8802.566937047923,11004.7807189461,150,6876,8,2025-09-10,2025-09-12 19:10:03.545,HA,C,4005132300,HAWK11,1,1,73,2,1,1,225,2,1,0,0,12,1,225,2,1,-149145.13708670562,-4791416.545869674,4198174.593229771,2.39378,2.55139,-0.564984,-81.5,40.0,39.75,-0.0625,-7.78125,6.60938,0.078125,0.0117188,0.00195312,4,0,41.40138122538005,-91.7829025016153,10972.60201528111,-45.73485699074373,1.034214458515442,-3.3531355712456663,0.0,8802.566937047923,11004.7807189461,150,True,19.14870469730486,False,176.48712862328804,179.65347835085853,False,3.461346674232902,True,False
6886,8,1970-07-23 10:01:54.045107312,2025-09-10,2025-09-12 19:10:04.510,HA,C,1257707232,JASSM,3,104,76,2,2,1,225,9,2,0,1,26,0,0,0,0,-179500.44665701812,-4778438.332979049,4211218.995573521,-2.36693,-0.400752,0.381194,82.0,-34.625,-35.625,0.0,0.0,0.0,0.0,0.0,0.0,2,0,41.560433773532274,-92.15128538519566,10000.001196466848,119.81140848626208,-0.0031111951353317,0.0024906330495653,,8802.566937047923,11004.7807189461,150,6892,8,2025-09-10,2025-09-12 19:10:04.942,HA,C,4006762732,HAWK11,1,1,73,2,1,1,225,2,1,0,0,12,1,225,2,1,-149256.83239920562,-4791362.530244674,4198229.343229771,2.47316,2.54363,-0.571983,-81.0,39.25,39.625,0.0,-7.4375,6.39062,0.03125,0.0,0.0078125,4,0,41.4020514329304,-91.7842569624428,10967.08588368936,-45.19140636545056,1.107472316305707,0.9660635865906522,0.0,8802.566937047923,11004.7807189461,150,True,19.021736693166442,False,176.64651046812043,179.65239451463302,False,3.3398955908017776,True,False
6905,8,1970-07-23 10:01:54.058363437,2025-09-10,2025-09-12 19:10:05.836,HA,C,1258840626,JASSM,3,104,76,2,2,1,225,9,2,0,1,26,0,0,0,0,-179422.46130545562,-4778471.377900924,4211185.050261021,-2.36693,-0.400752,0.381194,82.0,-34.625,-35.625,0.0,0.0,0.0,0.0,0.0,0.0,2,0,41.56002551351107,-92.15033676376925,9999.99851753632,119.81203780840926,-0.0022923479238731,0.0024892858685407,,8802.566937047923,11004.7807189461,150,6909,8,2025-09-10,2025-09-12 19:10:05.942,HA,C,4007995498,HAWK11,1,1,73,2,1,1,225,2,1,0,0,12,1,225,2,1,-149339.76208670562,-4791322.258760299,4198269.999479771,2.48026,2.54487,-0.588378,-80.25,39.125,39.625,-0.21875,-7.85938,6.8125,-0.015625,0.00976562,0.0078125,4,0,41.402550063034674,-91.78526268070244,10962.59988666454,-44.643269804032585,1.873173244411903,1.4261749238130084,0.0,8802.566937047923,11004.7807189461,150,True,18.9186357733202,False,176.44394302556697,179.65129193477642,False,3.558134872470006,True,False
6915,8,1970-07-23 10:01:54.066786174,2025-09-10,2025-09-12 19:10:06.678,HA,C,1260033672,JASSM,3,104,76,2,2,1,225,9,2,0,1,26,0,0,0,0,-179340.37243826812,-4778506.163057174,4211149.317839146,-2.36693,-0.400657,0.381194,82.0,-34.625,-35.625,0.0,0.0,0.0,0.0,0.0,0.0,2,0,41.5595957478219,-92.14933823903009,10000.001812759192,119.80905617760548,-0.004996846425776,0.0004444359546824,,8802.566937047923,11004.7807189461,150,6919,8,2025-09-10,2025-09-12 19:10:06.832,HA,C,4009069196,HAWK11,1,1,73,2,1,1,225,2,1,0,0,12,1,225,2,1,-149411.68200858062,-4791287.622041549,4198305.835417271,2.45207,2.54449,-0.598444,-79.75,38.5,39.875,0.03125,-7.71875,6.73438,-0.0273438,0.0,0.00195312,4,0,41.40298466911776,-91.786134784947,10960.67528296447,-44.26403051813315,2.308621099684184,-0.1870864279503728,0.0,8802.566937047923,11004.7807189461,150,True,18.82006922907536,False,176.40772502513946,179.64892382550232,False,3.6389693556457026,True,False
6928,8,1970-07-23 10:01:54.074406983,2025-09-10,2025-09-12 19:10:07.440,HA,C,1261167068,JASSM,3,104,76,2,2,1,225,9,2,0,1,26,0,0,0,0,-179262.38903983062,-4778539.206025924,4211115.370573521,-2.36693,-0.400657,0.381194,82.0,-34.625,-35.625,0.0,0.0,0.0,0.0,0.0,0.0,2,0,41.559187469740976,-92.14838966637664,9999.999053150705,119.8096854570641,-0.0041780139721533,0.0004430259184337,,8802.566937047923,11004.7807189461,150,6927,8,2025-09-10,2025-09-12 19:10:07.332,HA,C,4009625930,HAWK11,1,1,73,2,1,1,225,2,1,0,0,12,1,225,2,1,-149448.23864920562,-4791269.838838424,4198324.464323521,2.45111,2.5419,-0.597869,-79.5,38.25,39.875,-0.15625,-7.625,6.625,0.00195312,-0.00195312,-0.00195312,4,0,41.403209423168825,-91.78657814308744,10960.15945893403,-44.19025096252778,2.205901064027262,-0.3225403600072049,0.0,8802.566937047923,11004.7807189461,150,True,18.74704891182536,False,176.4031893040023,179.6469051453689,False,3.6592003458107127,True,False
6942,8,1970-07-23 10:01:54.085163132,2025-09-10,2025-09-12 19:10:08.516,HA,C,1262360112,JASSM,3,104,76,2,2,1,225,9,2,0,1,26,0,0,0,0,-179180.30017264312,-4778573.989229049,4211079.636198521,-2.36693,-0.400657,0.381194,82.0,-34.625,-35.625,0.0,0.0,0.0,0.0,0.0,0.0,2,0,41.55875768558159,-92.14739116831488,10000.002550047087,119.8103478513612,-0.0033160716800907,0.0004415385828977,,8802.566937047923,11004.7807189461,150,6939,8,2025-09-10,2025-09-12 19:10:08.276,HA,C,4010222428,HAWK11,1,1,73,2,1,1,225,2,1,0,0,12,1,225,2,1,-149488.53552420562,-4791250.582002486,4198344.745573521,2.44967,2.54382,-0.599307,-79.25,37.875,40.0,-0.078125,-7.70312,6.57812,0.00390625,0.0078125,-0.00195312,4,0,41.40345340120764,-91.78706673736936,10959.892313341014,-44.20869988504301,2.327573651035954,-0.3436546540993099,0.0,8802.566937047923,11004.7807189461,150,True,18.66911079380903,False,176.38338134698802,179.64455310353426,False,3.7045379178783815,True,False
6954,8,1970-07-23 10:01:54.094804027,2025-09-10,2025-09-12 19:10:09.480,HA,C,1263553160,JASSM,3,104,76,2,2,1,225,9,2,0,1,26,0,0,0,0,-179098.21228201812,-4778608.770479049,4211043.899870396,-2.36693,-0.400657,0.381194,82.0,-34.625,-35.625,0.0,0.0,0.0,0.0,0.0,0.0,2,0,41.5583278910012,-92.14639269605328,10000.001834917826,119.81101022291624,-0.0024541366300173,0.0004400450426505,,8802.566937047923,11004.7807189461,150,6952,8,2025-09-10,2025-09-12 19:10:09.356,HA,C,4011335894,HAWK11,1,1,73,2,1,1,225,2,1,0,0,12,1,225,2,1,-149561.55896170562,-4791215.795869674,4198381.808073521,2.43366,2.55312,-0.607361,-78.75,37.5,39.75,-0.09375,-7.90625,6.875,-0.00390625,0.0,0.0136719,4,0,41.40389695697743,-91.7879521052613,10960.354509392864,-44.25493270742036,2.963449681006961,-0.9606274492876856,0.0,8802.566937047923,11004.7807189461,150,True,18.56975984333097,False,176.4211749733394,179.64031541300193,False,3.6832216253765884,True,False
6965,8,1970-07-23 10:01:54.104393709,2025-09-10,2025-09-12 19:10:10.439,HA,C,1264746206,JASSM,3,104,76,2,2,1,225,9,2,0,1,26,0,0,0,0,-179016.12341483062,-4778643.549775924,4211008.163542271,-2.36684,-0.400657,0.38129,82.0,-34.625,-35.625,0.0,0.0,0.0,0.0,0.0,0.0,2,0,41.55789809958918,-92.14539422620568,10000.00097899324,119.81551488980035,-0.005517978491848,0.0059297994734713,,8802.566937047923,11004.7807189461,150,6963,8,2025-09-10,2025-09-12 19:10:10.238,HA,C,4013085626,HAWK11,1,1,73,2,1,1,225,2,1,0,0,12,1,225,2,1,-149677.43786795562,-4791161.559541549,4198441.157682896,2.42868,2.5442,-0.610812,-78.25,36.375,39.875,0.0,-7.375,6.46875,-0.00585938,0.00195312,0.0,4,0,41.40459868857709,-91.78935673601096,10964.63278459677,-43.80610427339511,2.851023550241322,-1.515465431657811,0.0,8802.566937047923,11004.7807189461,150,True,18.4424758929872,False,176.47315133117925,179.63188631908736,False,3.700294780435986,True,False
6977,8,1970-07-23 10:01:54.115272195,2025-09-10,2025-09-12 19:10:11.527,HA,C,1265879608,JASSM,3,104,76,2,2,1,225,9,2,0,1,26,0,0,0,0,-178938.13903983062,-4778676.590791549,4210974.212370396,-2.36684,-0.400657,0.38129,82.0,-34.625,-35.625,0.0,0.0,0.0,0.0,0.0,0.0,2,0,41.55748977441874,-92.14444569238296,10000.002625133444,119.81614412247713,-0.0046991315041395,0.0059284357075462,,8802.566937047923,11004.7807189461,150,6982,8,2025-09-10,2025-09-12 19:10:11.738,HA,C,4014914890,HAWK11,1,1,73,2,1,1,225,2,1,0,0,12,1,225,2,1,-149796.63318045562,-4791105.554658736,4198501.915495396,2.44449,2.54276,-0.608799,-77.75,36.375,39.25,-0.125,-6.92188,6.51562,0.015625,0.00976562,0.0,4,0,41.405319812253175,-91.7908016784528,10967.882032010442,-43.82788332716018,2.7202446178842723,-0.6570197479876894,0.0,8802.566937047923,11004.7807189461,150,True,18.315624159066463,False,176.58974449480039,179.6232267269994,False,3.5790268374004603,True,False
6993,8,1970-07-23 10:01:54.126360636,2025-09-10,2025-09-12 19:10:12.636,HA,C,1267072648,JASSM,3,104,76,2,2,1,225,9,2,0,1,26,0,0,0,0,-178856.05114920562,-4778711.368135299,4210938.474089146,-2.36684,-0.400657,0.38129,82.0,-34.625,-35.625,0.0,0.0,0.0,0.0,0.0,0.0,2,0,41.55705996431944,-92.1434472609022,10000.002060540504,119.81680645047678,-0.0038372023500581,0.0059270080141042,,8802.566937047923,11004.7807189461,150,6995,8,2025-09-10,2025-09-12 19:10:12.832,HA,C,4015909056,HAWK11,1,1,73,2,1,1,225,2,1,0,0,12,1,225,2,1,-149861.40271170562,-4791074.925752486,4198534.567839146,2.46185,2.53203,-0.609182,-77.625,36.375,39.375,-0.1875,-6.67188,6.625,0.0136719,0.00195312,0.00585938,4,0,41.40571037524028,-91.7915869322208,10968.38174419038,-43.422602020556575,2.419604820336534,0.0036615643920828,0.0,8802.566937047923,11004.7807189461,150,True,18.221755089322418,False,176.49192803577373,179.6184125574754,False,3.688523428518551,True,False
7005,8,1970-07-23 10:01:54.134407096,2025-09-10,2025-09-12 19:10:13.440,HA,C,1268325346,JASSM,3,104,76,2,2,1,225,9,2,0,1,26,0,0,0,0,-178769.85778983062,-4778747.883760299,4210900.946745396,-2.36684,-0.400657,0.38129,82.0,-34.625,-35.625,0.0,0.0,0.0,0.0,0.0,0.0,2,0,41.556608643617615,-92.1423989094869,10000.000357723457,119.81750188773395,-0.0029321631522452,0.0059255042713454,,8802.566937047923,11004.7807189461,150,7006,8,2025-09-10,2025-09-12 19:10:13.442,HA,C,4016903222,HAWK11,1,1,73,2,1,1,225,2,1,0,0,12,1,225,2,1,-149926.16247733062,-4791044.054658736,4198566.991667271,2.45322,2.52647,-0.613976,-77.75,36.875,39.25,-0.140625,-6.6875,6.96875,-0.00390625,0.0,0.00195312,4,0,41.406100833007145,-91.7923721692289,10967.792355684076,-43.04731964647056,2.4704555578402303,-0.6574567120145478,0.0,8802.566937047923,11004.7807189461,150,True,18.125307516477246,False,176.46079784392006,179.613880507805,False,3.7016098751367497,True,False
7017,8,1970-07-23 10:01:54.144849305,2025-09-10,2025-09-12 19:10:14.484,HA,C,1269458740,JASSM,3,104,76,2,2,1,225,9,2,0,1,26,0,0,0,0,-178691.87341483062,-4778780.920869674,4210866.993620396,-2.36684,-0.400657,0.38129,82.0,-34.625,-35.625,0.0,0.0,0.0,0.0,0.0,0.0,2,0,41.55620030379916,-92.1414504151204,10000.001680412384,119.8181310782013,-0.0021133221643026,0.0059241485539142,,8802.566937047923,11004.7807189461,150,7014,8,2025-09-10,2025-09-12 19:10:14.238,HA,C,4017857620,HAWK11,1,1,73,2,1,1,225,2,1,0,0,12,1,225,2,1,-149988.50036795562,-4791014.147432174,4198598.157682896,2.45494,2.52369,-0.611291,-77.875,37.125,39.375,-0.078125,-6.64062,6.96875,-0.0449219,-0.0078125,-0.00585938,4,0,41.4064775123091,-91.79312812030176,10966.660969077191,-43.042400687883486,2.269592967795766,-0.649799499440919,0.0,8802.566937047923,11004.7807189461,150,True,18.035574504995264,False,176.3820495457063,179.60962925087222,False,3.7821667182613035,True,False
7028,8,1970-07-23 10:01:54.153615721,2025-09-10,2025-09-12 19:10:15.361,HA,C,1270592134,JASSM,3,104,76,2,2,1,225,9,2,0,1,26,0,0,0,0,-178613.88903983062,-4778813.956025924,4210833.038542271,-2.36684,-0.400561,0.38129,82.0,-34.625,-35.625,0.0,0.0,0.0,0.0,0.0,0.0,2,0,41.55579195462677,-92.140501933568,9999.998239040917,119.81511646948287,-0.0048609152688798,0.003878874573776,,8802.566937047923,11004.7807189461,150,7026,8,2025-09-10,2025-09-12 19:10:15.332,HA,C,4019169920,HAWK11,1,1,73,2,1,1,225,2,1,0,0,12,1,225,2,1,-150074.06091483062,-4790972.796846236,4198640.513151646,2.42647,2.51985,-0.609757,-78.375,37.625,39.25,-0.09375,-6.67188,7.03125,0.00976562,-0.00195312,0.00585938,4,0,41.406993464255855,-91.79416581227328,10963.45692038727,-42.95724845366521,2.089447383414683,-2.403759577107913,0.0,8802.566937047923,11004.7807189461,150,True,17.93071031379378,False,176.4526946792046,179.60475512399978,False,3.697551466565616,True,False
7041,8,1970-07-23 10:01:54.165613957,2025-09-10,2025-09-12 19:10:16.561,HA,C,1271844834,JASSM,3,104,76,2,2,1,225,9,2,0,1,26,0,0,0,0,-178527.69568045562,-4778850.467744674,4210795.509245396,-2.36684,-0.400561,0.38129,82.0,-34.625,-35.625,0.0,0.0,0.0,0.0,0.0,0.0,2,0,41.555340617124,-92.13945362488028,9999.997385982411,119.81581186106598,-0.0039558821501923,0.0038773213136248,,8802.566937047923,11004.7807189461,150,7040,8,2025-09-10,2025-09-12 19:10:16.440,HA,C,4020521984,HAWK11,1,1,73,2,1,1,225,2,1,0,0,12,1,225,2,1,-150164.06286795562,-4790929.447236861,4198684.894011021,2.46233,2.52091,-0.607552,-79.0,38.0,39.375,-0.25,-6.65625,7.0625,-0.015625,-0.00976562,-0.0078125,4,0,41.40753414226771,-91.79525733316764,10960.079272183064,-43.0755815682574,2.022557486928332,-0.3187645764884059,0.0,8802.566937047923,11004.7807189461,150,True,17.817848919257067,False,176.4984035775438,179.59931989763598,False,3.6532231663691888,True,False
7053,8,1970-07-23 10:01:54.177560624,2025-09-10,2025-09-12 19:10:17.756,HA,C,1273037880,JASSM,3,104,76,2,2,1,225,9,2,0,1,26,0,0,0,0,-178445.60681326812,-4778885.241182174,4210759.767057896,-2.36684,-0.400561,0.38129,82.0,-34.625,-35.625,0.0,0.0,0.0,0.0,0.0,0.0,2,0,41.55491076073572,-92.1384552496046,10000.00234957134,119.81647412374224,-0.0030939449254377,0.0038758398998644,,8802.566937047923,11004.7807189461,150,7058,8,2025-09-10,2025-09-12 19:10:18.034,HA,C,4022391016,HAWK11,1,1,73,2,1,1,225,2,1,0,0,12,1,225,2,1,-150288.67028983062,-4790869.138643111,4198746.563932896,2.55072,2.51209,-0.616564,-79.25,38.375,40.375,-0.078125,-6.90625,7.35938,0.0429688,0.00390625,0.0175781,4,0,41.40828594187008,-91.79676868001518,10955.184613460782,-42.43107811435707,2.170863724445047,4.479518504732635,0.0,8802.566937047923,11004.7807189461,150,True,17.684915262897604,False,176.09142968571788,179.59164414003496,False,4.097536467487066,True,False
7062,8,1970-07-23 10:01:54.183103388,2025-09-10,2025-09-12 19:10:18.310,HA,C,1274171274,JASSM,3,104,76,2,2,1,225,9,2,0,1,26,0,0,0,0,-178367.62243826812,-4778918.274385299,4210725.810026646,-2.36684,-0.400561,0.38129,82.0,-34.625,-35.625,0.0,0.0,0.0,0.0,0.0,0.0,2,0,41.554502385265415,-92.1375068066298,10000.003376339237,119.81710325909282,-0.002275103424543,0.0038744287101868,,8802.566937047923,11004.7807189461,150,7064,8,2025-09-10,2025-09-12 19:10:18.447,HA,C,4022868216,HAWK11,1,1,73,2,1,1,225,2,1,0,0,12,1,225,2,1,-150320.08630545562,-4790853.806611861,4198762.378386021,2.56434,2.50652,-0.616948,-79.25,38.75,40.625,-0.25,-7.01562,7.42188,0.0234375,-0.00976562,0.015625,4,0,41.40847803519274,-91.79714977392294,10954.21774275838,-42.21345345591877,2.027559249118789,5.08331804580092,0.0,8802.566937047923,11004.7807189461,150,True,17.61529176700706,False,175.88431579348446,179.58843220217267,False,4.3026088404360445,True,False
7077,8,1970-07-23 10:01:54.193082914,2025-09-10,2025-09-12 19:10:19.308,HA,C,1275304668,JASSM,3,104,76,2,2,1,225,9,2,0,1,26,0,0,0,0,-178289.63903983062,-4778951.305635299,4210691.851042271,-2.36684,-0.400561,0.38129,82.0,-34.625,-35.625,0.0,0.0,0.0,0.0,0.0,0.0,2,0,41.55409400022399,-92.13655838815912,9999.999728442092,119.81773237311036,-0.0014562691680554,0.0038730113194208,,8802.566937047923,11004.7807189461,150,7074,8,2025-09-10,2025-09-12 19:10:19.238,HA,C,4023782848,HAWK11,1,1,73,2,1,1,225,2,1,0,0,12,1,225,2,1,-150380.76794608062,-4790823.556611861,4198793.427214146,2.5442,2.49416,-0.626727,-78.875,39.0,41.375,0.109375,-6.92188,7.4375,-0.0722656,0.0078125,0.0195312,4,0,41.40885624097441,-91.79788612104208,10951.879831738535,-41.41464778009049,2.1156095426115336,3.5460147532852213,0.0,8802.566937047923,11004.7807189461,150,True,17.52627673414794,False,175.39729923326942,179.58286850091204,False,4.811810165509382,True,False
7091,8,1970-07-23 10:01:54.202082760,2025-09-10,2025-09-12 19:10:20.208,HA,C,1276438062,JASSM,3,104,76,2,2,1,225,9,2,0,1,26,0,0,0,0,-178211.65368826812,-4778984.336885299,4210657.892057896,-2.36684,-0.400561,0.381386,82.125,-34.625,-35.625,0.0,0.0,0.0,0.0,0.0,0.0,2,0,41.55368560776573,-92.13560995824383,10000.000180121331,119.82220393322936,-0.0045630599441119,0.0038714285923247,,8802.566937047923,11004.7807189461,150,7088,8,2025-09-10,2025-09-12 19:10:20.129,HA,C,4024896314,HAWK11,1,1,73,2,1,1,225,2,1,0,0,12,1,225,2,1,-150455.55310233062,-4790786.420869674,4198832.120573521,2.52119,2.4908,-0.636698,-79.0,39.125,42.25,-0.109375,-7.20312,7.5625,-0.0664062,0.00976562,-0.0136719,4,0,41.40932437038689,-91.79879356621028,10950.288130470626,-40.942565097673146,2.473321983114662,2.133237576193393,0.0,8802.566937047923,11004.7807189461,150,True,17.427912982326408,False,175.0232676349924,179.58874021180702,False,5.179552460552452,True,False
7103,8,1970-07-23 10:01:54.212126089,2025-09-10,2025-09-12 19:10:21.212,HA,C,1277571456,JASSM,3,104,76,2,2,1,225,9,2,0,1,26,0,0,0,0,-178133.66931326812,-4779017.366182174,4210623.933073521,-2.36684,-0.400561,0.381386,82.125,-34.625,-35.625,0.0,0.0,0.0,0.0,0.0,0.0,2,0,41.55327721889004,-92.13466155283166,10000.000207587404,119.82283302851894,-0.0037442243552899,0.0038700803706719,,8802.566937047923,11004.7807189461,150,7105,8,2025-09-10,2025-09-12 19:10:21.240,HA,C,4026208612,HAWK11,1,1,73,2,1,1,225,2,1,0,0,12,1,225,2,1,-150543.06091483062,-4790742.628877486,4198878.237761021,2.44948,2.4884,-0.63363,-79.375,39.125,42.875,0.0625,-6.76562,7.25,-0.0078125,0.00195312,0.00390625,4,0,41.40987982249746,-91.79985553229156,10949.423867881727,-40.96308180847623,2.2675580650825684,-2.0577005582723364,0.0,8802.566937047923,11004.7807189461,150,True,17.320926274333075,False,174.89603250501452,179.5795687214927,False,5.33992288442154,True,False
7120,8,1970-07-23 10:01:54.222009652,2025-09-10,2025-09-12 19:10:22.200,HA,C,1278645200,JASSM,3,104,76,2,2,1,225,9,2,0,1,26,0,0,0,0,-178059.78845389312,-4779048.657197799,4210591.759245396,-2.36684,-0.400561,0.381386,82.125,-34.625,-35.625,0.0,0.0,0.0,0.0,0.0,0.0,2,0,41.55289030197782,-92.1337630633846,9999.99964986022,119.82342900891882,-0.0029684706687956,0.0038687942496305,,8802.566937047923,11004.7807189461,150,7118,8,2025-09-10,2025-09-12 19:10:22.199,HA,C,4027083478,HAWK11,1,1,73,2,1,1,225,2,1,0,0,12,1,225,2,1,-150601.51208670562,-4790713.477510299,4198909.183073521,2.49416,2.49061,-0.629028,-79.75,39.625,43.0,-0.15625,-6.9375,7.32812,0.09375,0.0078125,-0.0136719,4,0,41.410251193199066,-91.800564849217,10949.401369828684,-41.20548462241088,2.1216391097060616,0.5675812467294357,0.0,8802.566937047923,11004.7807189461,150,True,17.23574952379028,False,174.85194157462212,179.57240881558516,False,5.384499402893731,True,False
7131,8,1970-07-23 10:01:54.230125199,2025-09-10,2025-09-12 19:10:23.012,HA,C,1279778592,JASSM,3,104,76,2,2,1,225,9,2,0,1,26,0,0,0,0,-177981.80407889312,-4779081.684541549,4210557.798307896,-2.36684,-0.400561,0.381386,82.125,-34.625,-35.625,0.0,0.0,0.0,0.0,0.0,0.0,2,0,41.55248189631074,-92.1328146820934,9999.99896639837,119.82405807831962,-0.0021496347848013,0.0038674443338784,,8802.566937047923,11004.7807189461,150,7135,8,2025-09-10,2025-09-12 19:10:23.238,HA,C,4028395776,HAWK11,1,1,73,2,1,1,225,2,1,0,0,12,1,225,2,1,-150690.11169608062,-4790668.920869674,4198956.479948521,2.54056,2.48467,-0.633534,-79.875,39.875,43.75,-0.15625,-6.875,7.20312,0.0195312,0.00585938,0.0175781,4,0,41.41081893610413,-91.80164017780992,10949.311115599532,-40.83058611757996,2.159593212035857,3.0395207738312124,0.0,8802.566937047923,11004.7807189461,150,True,17.127877389781162,False,174.53246791706928,179.5612147490795,False,5.73142922926035,True,False
7151,8,1970-07-23 10:01:54.240438807,2025-09-10,2025-09-12 19:10:24.043,HA,C,1280852334,JASSM,3,104,76,2,2,1,225,9,2,0,1,26,0,0,0,0,-177907.92419608062,-4779112.973604049,4210525.622526646,-2.36684,-0.400465,0.381386,82.125,-34.625,-35.625,0.0,0.0,0.0,0.0,0.0,0.0,2,0,41.552094963194925,-92.1319162272352,9999.997348592007,119.82101050890194,-0.0049403163246008,0.0018217515941241,,8802.566937047923,11004.7807189461,150,7153,8,2025-09-10,2025-09-12 19:10:24.128,HA,C,4029628542,HAWK11,1,1,73,2,1,1,225,2,1,0,0,12,1,225,2,1,-150772.10778983062,-4790627.221650924,4199000.852995396,2.62704,2.46405,-0.649545,-79.5,40.25,44.5,-0.265625,-6.90625,7.28125,0.0742188,0.0,0.00390625,4,0,41.41135117088876,-91.80263555087166,10949.398187843395,-39.52208316292433,2.320261231995765,7.338958119008173,0.0,8802.566937047923,11004.7807189461,150,True,17.026761631380648,False,174.01575844912196,179.5495451549639,False,6.268867825014508,True,False
7160,8,1970-07-23 10:01:54.249088594,2025-09-10,2025-09-12 19:10:24.908,HA,C,1282045380,JASSM,3,104,76,2,2,1,225,9,2,0,1,26,0,0,0,0,-177825.83435233062,-4779147.739229049,4210489.872526646,-2.36684,-0.400465,0.381386,82.125,-34.625,-35.625,0.0,0.0,0.0,0.0,0.0,0.0,2,0,41.55166503533418,-92.13091794363632,10000.00184454577,119.82167266847168,-0.004078370400921,0.0018202709160147,,8802.566937047923,11004.7807189461,150,7165,8,2025-09-10,2025-09-12 19:10:25.128,HA,C,4030901074,HAWK11,1,1,73,2,1,1,225,2,1,0,0,12,1,225,2,1,-150856.82263358062,-4790582.554658736,4199048.311979771,2.68159,2.44919,-0.656831,-78.375,41.375,45.5,-0.15625,-6.76562,7.17188,0.0195312,-0.00195312,0.015625,4,0,41.411921372874815,-91.8036645410592,10949.099462717237,-38.73034082211748,2.253493109338934,9.978980123823442,0.0,8802.566937047923,11004.7807189461,150,True,16.91804361004344,False,172.96726929772404,179.53505088397472,False,7.325440327724045,True,False
7176,8,1970-07-23 10:01:54.259084281,2025-09-10,2025-09-12 19:10:25.908,HA,C,1283178776,JASSM,3,104,76,2,2,1,225,9,2,0,1,26,0,0,0,0,-177747.84997733062,-4779180.762666549,4210455.909636021,-2.36684,-0.400465,0.381386,82.125,-34.625,-35.625,0.0,0.0,0.0,0.0,0.0,0.0,2,0,41.55125661626356,-92.12996959990195,10000.00016154377,119.8223016978128,-0.0032595406060524,0.0018188769835486,,8802.566937047923,11004.7807189461,150,7174,8,2025-09-10,2025-09-12 19:10:25.832,HA,C,4031696406,HAWK11,1,1,73,2,1,1,225,2,1,0,0,12,1,225,2,1,-150908.67419608062,-4790554.308564986,4199078.155729771,2.74487,2.42513,-0.668145,-77.625,42.125,46.25,-0.109375,-6.92188,7.35938,0.09375,0.0,0.0351562,4,0,41.41228113608936,-91.80429470704068,10948.41595444603,-37.469224212160455,2.140861628235985,12.804873952855036,0.0,8802.566937047923,11004.7807189461,150,False,16.833721261328975,False,172.23244882128267,179.5243914698485,False,8.070158744155577,True,False
7187,8,1970-07-23 10:01:54.269063645,2025-09-10,2025-09-12 19:10:26.906,HA,C,1284371822,JASSM,3,104,76,2,2,1,225,9,2,0,1,26,0,0,0,0,-177665.76111014312,-4779215.526338424,4210420.155729771,-2.36684,-0.400465,0.381386,82.125,-34.625,-35.625,0.0,0.0,0.0,0.0,0.0,0.0,2,0,41.5508266565674,-92.12897135466062,10000.000698047312,119.82296382096656,-0.0023975953151967,0.001817378652827,,8802.566937047923,11004.7807189461,150,7186,8,2025-09-10,2025-09-12 19:10:26.880,HA,C,4032412206,HAWK11,1,1,73,2,1,1,225,2,1,0,0,12,1,225,2,1,-150956.16443045562,-4790527.719697799,4199106.729948521,2.80862,2.4073,-0.669103,-76.875,43.0,47.375,-0.171875,-6.90625,7.29688,0.0878906,0.00195312,0.0253906,4,0,41.41262328505703,-91.8048721453263,10948.71717826674,-36.782649365858646,1.7237727418459898,15.84775274640603,0.0,8802.566937047923,11004.7807189461,150,False,16.749397443195473,False,171.3279906904789,179.5123089222412,False,8.989761918975864,True,False
7203,8,1970-07-23 10:01:54.281963967,2025-09-10,2025-09-12 19:10:28.196,HA,C,1285564868,JASSM,3,104,76,2,2,1,225,9,2,0,1,26,0,0,0,0,-177583.67126639312,-4779250.286104049,4210384.403776646,-2.36684,-0.400465,0.381386,82.125,-34.625,-35.625,0.0,0.0,0.0,0.0,0.0,0.0,2,0,41.55039672484512,-92.12797311269476,10000.000552002604,119.82362593631812,-0.0015356617353886,0.0018159158038961,,8802.566937047923,11004.7807189461,150,7201,8,2025-09-10,2025-09-12 19:10:28.034,HA,C,4034241470,HAWK11,1,1,73,2,1,1,225,2,1,0,0,12,1,225,2,1,-151072.06482108062,-4790457.940400924,4199180.511198521,2.89692,2.34594,-0.693072,-73.375,45.75,50.0,-0.1875,-7.3125,7.57812,-0.0585938,0.00976562,0.0351562,4,0,41.41351468331482,-91.80628325677144,10946.217268495358,-33.74968037437525,1.3433214422715911,18.774370819344643,0.0,8802.566937047923,11004.7807189461,150,False,16.616242079147053,False,168.39839316634925,179.47858370136908,False,11.953704962090592,True,False
7212,8,1970-07-23 10:01:54.289083486,2025-09-10,2025-09-12 19:10:28.908,HA,C,1286757914,JASSM,3,104,76,2,2,1,225,9,2,0,1,26,0,0,0,0,-177501.58239920562,-4779285.045869674,4210348.647917271,-2.36684,-0.400465,0.381482,82.125,-34.625,-35.625,0.0,0.0,0.0,0.0,0.0,0.0,2,0,41.54996675790028,-92.12697489564816,9999.996735077131,119.82813061404904,-0.0045992245831686,0.0018142487369206,,8802.566937047923,11004.7807189461,150,7209,8,2025-09-10,2025-09-12 19:10:28.679,HA,C,4034678902,HAWK11,1,1,73,2,1,1,225,2,1,0,0,12,1,225,2,1,-151099.95935233062,-4790440.207002486,4199199.524870396,2.87171,2.33951,-0.68799,-73.0,46.375,51.0,-0.078125,-7.39062,7.76562,-0.0898438,0.0214844,0.0429688,4,0,41.41374328586436,-91.80662323826678,10946.034183946174,-33.668251433007875,0.9454138103115188,17.096957092038576,0.0,8802.566937047923,11004.7807189461,150,False,16.544560003848005,False,167.759259525767,179.46671555459955,False,12.611204804963192,True,False
7217,8,1970-07-23 10:01:54.298066498,2025-09-10,2025-09-12 19:10:29.806,HA,C,1287891308,JASSM,3,104,76,2,2,1,225,9,2,0,1,26,0,0,0,0,-177423.59704764312,-4779318.067354049,4210314.681120396,-2.36684,-0.400465,0.381482,82.125,-34.625,-35.625,0.0,0.0,0.0,0.0,0.0,0.0,2,0,41.5495582917501,-92.12602659073004,9999.999459198803,119.82875959661725,-0.003780380244975,0.0018129010787276,,8802.566937047923,11004.7807189461,150,7219,8,2025-09-10,2025-09-12 19:10:29.940,HA,C,4036587700,HAWK11,1,1,73,2,1,1,225,2,1,0,0,12,1,225,2,1,-151214.91443045562,-4790363.281221236,4199282.894011021,2.65513,2.31181,-0.702276,-70.875,47.875,53.875,0.09375,-7.32812,7.75,-0.109375,0.0195312,0.00976562,4,0,41.41474207043516,-91.80802579851516,10946.709887107572,-32.20130549502093,0.9931742829455826,3.696213458871388,0.0,8802.566937047923,11004.7807189461,150,True,16.4111603077794,False,165.6054181046887,179.41298754317205,False,14.845829121114368,True,False
7232,8,1970-07-23 10:01:54.308426970,2025-09-10,2025-09-12 19:10:30.842,HA,C,1289084354,JASSM,3,104,76,2,2,1,225,9,2,0,1,26,0,0,0,0,-177341.50720389312,-4779352.825166549,4210278.925261021,-2.36684,-0.400465,0.381482,82.125,-34.625,-35.625,0.0,0.0,0.0,0.0,0.0,0.0,2,0,41.54912831971216,-92.12502838865524,10000.000005177517,119.82942166900511,-0.0029184396511233,0.0018114828853708,,8802.566937047923,11004.7807189461,150,7231,8,2025-09-10,2025-09-12 19:10:30.832,HA,C,4037661400,HAWK11,1,1,73,2,1,1,225,2,1,0,0,12,1,225,2,1,-151279.28161795562,-4790318.976533736,4199332.102995396,2.59176,2.31909,-0.693647,-71.0,48.25,55.0,-0.1875,-7.10938,7.39062,-0.0175781,0.0,-0.0117188,4,0,41.41532570245364,-91.80881162222158,10949.552079321666,-32.733792781156446,0.7414179670418108,0.3256718709615975,0.0,8802.566937047923,11004.7807189461,150,True,16.311570953714543,False,165.20153489584524,179.37538754419532,False,15.302596086921433,True,False
7249,8,1970-07-23 10:01:54.321705879,2025-09-10,2025-09-12 19:10:32.170,HA,C,1290337052,JASSM,3,104,76,2,2,1,225,9,2,0,1,26,0,0,0,0,-177255.31384451812,-4779389.319307174,4210241.380339146,-2.36684,-0.400369,0.381482,82.125,-34.625,-35.625,0.0,0.0,0.0,0.0,0.0,0.0,2,0,41.54867684026591,-92.12398030309828,9999.999172957658,119.8264735718907,-0.0055798319320084,-0.0002348589306271,,8802.566937047923,11004.7807189461,150,7250,8,2025-09-10,2025-09-12 19:10:32.196,HA,C,4039212298,HAWK11,1,1,73,2,1,1,225,2,1,0,0,12,1,225,2,1,-151371.59216483062,-4790254.561494674,4199403.811979771,2.60758,2.32082,-0.694414,-71.125,48.875,56.0,-0.21875,-7.03125,7.3125,0.0195312,0.00390625,0.00976562,4,0,41.41617558420575,-91.80993894626364,10953.948161823975,-32.77590224511684,0.820037782356198,1.2949779452320282,0.0,8802.566937047923,11004.7807189461,150,True,16.18820647042675,False,164.7911649604607,179.31744622672048,False,15.78482077945831,True,False
7257,8,1970-07-23 10:01:54.331263900,2025-09-10,2025-09-12 19:10:33.126,HA,C,1291470446,JASSM,3,104,76,2,2,1,225,9,2,0,1,26,0,0,0,0,-177177.32849295562,-4779422.338838424,4210207.409636021,-2.36674,-0.400369,0.381482,82.125,-34.625,-35.625,0.0,0.0,0.0,0.0,0.0,0.0,2,0,41.54826833467092,-92.12303203674824,10000.002115252651,119.82710251292956,-0.004760980769943,0.0052552002889584,,8802.566937047923,11004.7807189461,150,7260,8,2025-09-10,2025-09-12 19:10:33.196,HA,C,4039609964,HAWK11,1,1,73,2,1,1,225,2,1,0,0,12,1,225,2,1,-151395.67224295562,-4790237.702119674,4199422.876432896,2.62138,2.31756,-0.700358,-71.0,49.0,56.125,-0.09375,-7.04688,7.35938,0.0429688,-0.00585938,0.015625,4,0,41.41640003516198,-91.81023304533176,10955.736508324571,-32.47477987616127,1.0341747702436983,1.970983296284125,0.0,8802.566937047923,11004.7807189461,150,True,16.121038180552215,False,164.67435779763312,179.29948333560182,False,15.921767376791173,True,False
7269,8,1970-07-23 10:01:54.339638315,2025-09-10,2025-09-12 19:10:33.963,HA,C,1292603842,JASSM,3,104,76,2,2,1,225,9,2,0,1,26,0,0,0,0,-177099.34314139312,-4779455.354463424,4210173.438932896,-2.36674,-0.400369,0.381482,82.125,-34.625,-35.625,0.0,0.0,0.0,0.0,0.0,0.0,2,0,41.54785984452737,-92.12208378406986,9999.99975120572,119.82773143981927,-0.0039421422641722,0.0052538069500263,,8802.566937047923,11004.7807189461,150,7268,8,2025-09-10,2025-09-12 19:10:33.959,HA,C,4040962030,HAWK11,1,1,73,2,1,1,225,2,1,0,0,12,1,225,2,1,-151475.58923514312,-4790181.315400924,4199486.462370396,2.71601,2.30135,-0.710712,-70.5,49.375,57.25,-0.109375,-6.875,7.23438,0.0761719,-0.0078125,0.0175781,4,0,41.41714964336313,-91.81120927974058,10961.292679290067,-31.562744572422247,1.1720092607059776,6.808533345306609,0.0,8802.566937047923,11004.7807189461,150,True,16.011729194249213,False,164.0311662944565,179.24320582376197,False,16.6340612289987,True,False
7278,8,1970-07-23 10:01:54.347703329,2025-09-10,2025-09-12 19:10:34.770,HA,C,1293737236,JASSM,3,104,76,2,2,1,225,9,2,0,1,26,0,0,0,0,-177021.35876639312,-4779488.372041549,4210139.466276646,-2.36674,-0.400369,0.381482,82.125,-34.625,-35.625,0.0,0.0,0.0,0.0,0.0,0.0,2,0,41.5474513215151,-92.12113555415394,10000.002296677229,119.8283603465338,-0.0031232982829211,0.0052523878417892,,8802.566937047923,11004.7807189461,150,7280,8,2025-09-10,2025-09-12 19:10:34.832,HA,C,4042393628,HAWK11,1,1,73,2,1,1,225,2,1,0,0,12,1,225,2,1,-151559.26208670562,-4790120.899385299,4199554.915495396,2.7906,2.28362,-0.726244,-69.125,50.25,58.375,-0.25,-6.89062,7.23438,0.0839844,0.0078125,0.0273438,4,0,41.417955358374506,-91.81223193922008,10967.803569767666,-30.449857946245974,1.5443435754319472,10.439903530364482,0.0,8802.566937047923,11004.7807189461,150,False,15.898976034081784,False,162.9391584536359,179.17865701951354,False,17.79688979364255,True,False
7289,8,1970-07-23 10:01:54.357101545,2025-09-10,2025-09-12 19:10:35.710,HA,C,1294930282,JASSM,3,104,76,2,2,1,225,9,2,0,1,26,0,0,0,0,-176939.26892264312,-4779523.123994674,4210103.704557896,-2.36674,-0.400369,0.381482,82.125,-34.625,-35.625,0.0,0.0,0.0,0.0,0.0,0.0,2,0,41.54702130235056,-92.1201374194953,9999.998944261126,119.82902234672324,-0.0022613569072314,0.0052509097721,,8802.566937047923,11004.7807189461,150,7287,8,2025-09-10,2025-09-12 19:10:35.426,HA,C,4042990128,HAWK11,1,1,73,2,1,1,225,2,1,0,0,12,1,225,2,1,-151593.21716483062,-4790095.582979049,4199583.485807896,2.85253,2.26866,-0.732092,-68.375,50.875,58.75,-0.203125,-6.9375,7.10938,0.111328,0.00195312,0.0253906,4,0,41.41829241764443,-91.81264725142744,10970.200813129277,-29.72906276328054,1.512004974150248,13.436880834559876,0.0,8802.566937047923,11004.7807189461,150,False,15.82119208585898,False,162.39014163487235,179.148400726457,False,18.375361496244334,True,False
7303,8,1970-07-23 10:01:54.368016338,2025-09-10,2025-09-12 19:10:36.801,HA,C,1296063676,JASSM,3,104,76,2,2,1,225,9,2,0,1,26,0,0,0,0,-176861.28357108062,-4779556.137666549,4210069.731901646,-2.36674,-0.400369,0.381482,82.125,-34.625,-35.625,0.0,0.0,0.0,0.0,0.0,0.0,2,0,41.54661278674464,-92.11918920412424,10000.000598003464,119.8296512333626,-0.0014425180369564,0.0052495147014726,,8802.566937047923,11004.7807189461,150,7307,8,2025-09-10,2025-09-12 19:10:37.128,HA,C,4045137526,HAWK11,1,1,73,2,1,1,225,2,1,0,0,12,1,225,2,1,-151712.76892264312,-4790001.181611861,4199689.983854771,2.9208,2.19292,-0.761238,-64.375,53.0,60.875,-0.109375,-7.23438,7.5,-0.0859375,0.00195312,0.0273438,4,0,41.41955033429602,-91.81411154212346,10978.521979448731,-26.133638120919404,1.456152962400444,14.49305871244623,0.0,8802.566937047923,11004.7807189461,150,False,15.677947171256685,False,159.6451146496359,179.03482406095682,False,21.237928698546874,True,False
7315,8,1970-07-23 10:01:54.377082414,2025-09-10,2025-09-12 19:10:37.708,HA,C,1297256722,JASSM,3,104,76,2,2,1,225,9,2,0,1,26,0,0,0,0,-176779.19372733062,-4779590.887666549,4210033.968229771,-2.36674,-0.400369,0.381578,82.125,-34.625,-35.625,0.0,0.0,0.0,0.0,0.0,0.0,2,0,41.54618274911826,-92.11819109612392,9999.997447297535,119.83415593041768,-0.004505940426931,0.0052478643586225,,8802.566937047923,11004.7807189461,150,7316,8,2025-09-10,2025-09-12 19:10:37.737,HA,C,4045853324,HAWK11,1,1,73,2,1,1,225,2,1,0,0,12,1,225,2,1,-151751.29040701812,-4789968.566377486,4199726.819792271,2.87343,2.16934,-0.765361,-63.375,53.25,62.125,0.0,-7.07812,7.39062,-0.117188,0.00195312,0.015625,4,0,41.419985737805774,-91.81458420370804,10981.273983112083,-25.15522635982952,1.2291890857244097,10.868304384564668,0.0,8802.566937047923,11004.7807189461,150,False,15.595071177288638,False,158.8025574994112,178.9895407490844,False,22.134445717146672,True,False
7327,8,1970-07-23 10:01:54.389997995,2025-09-10,2025-09-12 19:10:38.999,HA,C,1298509422,JASSM,3,104,76,2,2,1,225,9,2,0,1,26,0,0,0,0,-176692.99939139312,-4779627.375947799,4209996.417448521,-2.36674,-0.400369,0.381578,82.125,-34.625,-35.625,0.0,0.0,0.0,0.0,0.0,0.0,2,0,41.5457312028278,-92.11714309661365,10000.00349553814,119.83485098535866,-0.0036009025386032,0.0052463736207329,,8802.566937047923,11004.7807189461,150,7330,8,2025-09-10,2025-09-12 19:10:39.196,HA,C,4046728190,HAWK11,1,1,73,2,1,1,225,2,1,0,0,12,1,225,2,1,-151798.08923514312,-4789927.931611861,4199772.960417271,2.8023,2.15774,-0.767566,-62.375,54.25,62.75,0.0,-7.15625,7.39062,-0.117188,0.0136719,-0.00195312,4,0,41.42053009120095,-91.8151588202452,10985.14928644048,-24.669777054102685,1.133462925791659,6.341538334554245,0.0,8802.566937047923,11004.7807189461,150,True,15.50245171152242,False,158.00479325112084,178.93127143621356,False,22.98996168012705,True,False
7337,8,1970-07-23 10:01:54.399216732,2025-09-10,2025-09-12 19:10:39.921,HA,C,1299762120,JASSM,3,104,76,2,2,1,225,9,2,0,1,26,0,0,0,0,-176606.80505545562,-4779663.860322799,4209958.864714146,-2.36674,-0.400369,0.381578,82.125,-34.625,-35.625,0.0,0.0,0.0,0.0,0.0,0.0,2,0,41.54527965709498,-92.11609511341496,10000.000935268745,119.83554602327608,-0.0026958707480411,0.0052448909970444,,8802.566937047923,11004.7807189461,150,7338,8,2025-09-10,2025-09-12 19:10:39.924,HA,C,4048477922,HAWK11,1,1,73,2,1,1,225,2,1,0,0,12,1,225,2,1,-151889.09314139312,-4789847.579072799,4199865.561979771,2.69175,2.15649,-0.77025,-61.875,54.5,64.125,-0.109375,-7.0,7.20312,0.00195312,-0.00390625,0.0,4,0,41.4216159827171,-91.81627673891695,10995.656953384045,-24.557418975734343,1.251020515602018,-0.03907894635593,0.0,8802.566937047923,11004.7807189461,150,True,15.37279142816531,False,157.35699913086762,178.8133304209354,False,23.768589527381156,True,False
7349,8,1970-07-23 10:01:54.409560295,2025-09-10,2025-09-12 19:10:40.956,HA,C,1300955166,JASSM,3,104,76,2,2,1,225,9,2,0,1,26,0,0,0,0,-176524.71618826812,-4779698.606416549,4209923.099089146,-2.36674,-0.400273,0.381578,82.125,-34.625,-35.625,0.0,0.0,0.0,0.0,0.0,0.0,2,0,41.54484960244264,-92.11509705983708,9999.998733806053,119.83256496020026,-0.0054003577653475,0.0031981237780004,,8802.566937047923,11004.7807189461,150,7353,8,2025-09-10,2025-09-12 19:10:41.196,HA,C,4049790220,HAWK11,1,1,73,2,1,1,225,2,1,0,0,12,1,225,2,1,-151956.78064139312,-4789787.148408736,4199935.452604771,2.7302,2.15639,-0.770058,-61.875,55.0,64.625,-0.0625,-6.75,7.03125,0.0449219,0.00195312,-0.0078125,4,0,41.42243445499669,-91.81710850774977,11004.04653315565,-24.55918378765512,1.2404159216472432,2.160047962154771,0.0,8802.566937047923,11004.7807189461,150,True,15.264769697298044,False,157.13289373624355,178.72029193085854,False,24.089403718406018,True,False
7362,8,1970-07-23 10:01:54.420523420,2025-09-10,2025-09-12 19:10:42.052,HA,C,1302148214,JASSM,3,104,76,2,2,1,225,9,2,0,1,26,0,0,0,0,-176442.62536795562,-4779733.354463424,4209887.331511021,-2.36674,-0.400273,0.381578,82.125,-34.625,-35.625,0.0,0.0,0.0,0.0,0.0,0.0,2,0,41.54441951472144,-92.11409899524187,10000.001638799253,119.83322688006083,-0.0045384015910883,0.0031966383566706,,8802.566937047923,11004.7807189461,150,7364,8,2025-09-10,2025-09-12 19:10:42.196,HA,C,4051182052,HAWK11,1,1,73,2,1,1,225,2,1,0,0,12,1,225,2,1,-152028.13220389312,-4789722.404268111,4200010.554167271,2.9463,2.14345,-0.780604,-60.625,55.75,65.375,-0.265625,-6.70312,6.98438,0.160156,0.00390625,0.00976562,4,0,41.42331306146824,-91.81798571914798,11013.433689684252,-23.82147906757676,1.5591014356187427,14.040843412996168,0.0,8802.566937047923,11004.7807189461,150,False,15.153269458217325,False,156.25033988317028,178.6173281054191,False,25.077073301611385,True,False
7374,8,1970-07-23 10:01:54.430385111,2025-09-10,2025-09-12 19:10:43.038,HA,C,1303341264,JASSM,3,104,76,2,2,1,225,9,2,0,1,26,0,0,0,0,-176360.53454764312,-4779768.098604049,4209851.563932896,-2.36674,-0.400273,0.381578,82.125,-34.625,-35.625,0.0,0.0,0.0,0.0,0.0,0.0,2,0,41.54398944160423,-92.11310094559998,9999.99969913354,119.83388878437351,-0.0036764580633664,0.0031951724658186,,8802.566937047923,11004.7807189461,150,7372,8,2025-09-10,2025-09-12 19:10:42.875,HA,C,4051619486,HAWK11,1,1,73,2,1,1,225,2,1,0,0,12,1,225,2,1,-152050.44470389312,-4789701.353486861,4200034.712370396,3.00248,2.12907,-0.785111,-59.75,56.25,65.5,-0.0625,-6.5625,6.79688,0.125,0.00585938,0.0273438,4,0,41.42359714007156,-91.81826034369564,11015.85351534571,-23.18292067810348,1.5471490821146086,16.69606079791539,0.0,8802.566937047923,11004.7807189461,150,False,15.082651058974708,False,155.74285163118864,178.57951477503946,False,25.620247279062745,True,False
7384,8,1970-07-23 10:01:54.439597287,2025-09-10,2025-09-12 19:10:43.959,HA,C,1304534306,JASSM,3,104,76,2,2,1,225,9,2,0,1,26,0,0,0,0,-176278.44568045562,-4779802.842744674,4209815.794401646,-2.36674,-0.400273,0.381578,82.125,-34.625,-35.625,0.0,0.0,0.0,0.0,0.0,0.0,2,0,41.54355934620765,-92.11210293256516,9999.998427178472,119.8345506587806,-0.0028145228923025,0.0031936860468309,,8802.566937047923,11004.7807189461,150,7385,8,2025-09-10,2025-09-12 19:10:44.034,HA,C,4053369216,HAWK11,1,1,73,2,1,1,225,2,1,0,0,12,1,225,2,1,-152135.27771170562,-4789616.503877486,4200131.212370396,3.07966,2.03559,-0.802176,-55.75,58.125,67.0,-0.0625,-7.01562,7.20312,-0.0859375,0.0117188,0.0253906,4,0,41.42473723325339,-91.8193063255914,11023.31779988124,-19.342381163176643,0.9937019709677128,17.38382474726505,0.0,8802.566937047923,11004.7807189461,150,False,14.957079976839147,False,153.23195885746793,178.43705639739557,False,28.272199522851473,True,False
7395,8,1970-07-23 10:01:54.448141293,2025-09-10,2025-09-12 19:10:44.814,HA,C,1305727352,JASSM,3,104,76,2,2,1,225,9,2,0,1,26,0,0,0,0,-176196.35486014312,-4779837.584932174,4209780.024870396,-2.36674,-0.400273,0.381578,82.125,-34.625,-35.625,0.0,0.0,0.0,0.0,0.0,0.0,2,0,41.54312925419591,-92.11110491023858,9999.996926291597,119.83521253371958,-0.0019525790455037,0.0031922184527002,,8802.566937047923,11004.7807189461,150,7393,8,2025-09-10,2025-09-12 19:10:44.737,HA,C,4054283848,HAWK11,1,1,73,2,1,1,225,2,1,0,0,12,1,225,2,1,-152177.14782889312,-4789571.245088424,4200182.526823521,3.00603,2.01814,-0.804765,-54.0,59.0,67.875,0.046875,-7.0625,7.3125,-0.119141,0.00195312,0.0136719,4,0,41.42534492325808,-91.81982387642874,11026.695796585876,-18.64073910973243,0.8892985622071936,12.457172651979525,0.0,8802.566937047923,11004.7807189461,150,False,14.867662574131796,False,152.06917113351673,178.3539132772642,False,29.51894600814827,True,False
7404,8,1970-07-23 10:01:54.458386380,2025-09-10,2025-09-12 19:10:45.838,HA,C,1306920398,JASSM,3,104,76,2,2,1,225,9,2,0,1,26,0,0,0,0,-176114.26501639312,-4779872.327119674,4209744.255339146,-2.36674,-0.400273,0.381578,82.125,-34.625,-35.625,0.0,0.0,0.0,0.0,0.0,0.0,2,0,41.54269915327596,-92.11010691282856,10000.000254297143,119.83587438650518,-0.0010906426172038,0.0031907462816992,,8802.566937047923,11004.7807189461,150,7407,8,2025-09-10,2025-09-12 19:10:45.924,HA,C,4055635914,HAWK11,1,1,73,2,1,1,225,2,1,0,0,12,1,225,2,1,-152237.70251639312,-4789503.063447799,4200260.116667271,2.90066,2.00386,-0.808312,-52.5,59.875,69.0,-0.078125,-7.125,7.34375,-0.0351562,0.00390625,0.0,4,0,41.42626279678065,-91.82057343701544,11032.213478643378,-18.039416615812247,0.8883111952671762,5.83890735380679,0.0,8802.566937047923,11004.7807189461,150,True,14.760287787007096,False,150.9709326144865,178.22663814241702,False,30.747990112512948,False,False
7416,8,1970-07-23 10:01:54.468395843,2025-09-10,2025-09-12 19:10:46.839,HA,C,1308113446,JASSM,3,104,76,2,2,1,225,9,2,0,1,26,0,0,0,0,-176032.17517264312,-4779907.067354049,4209708.483854771,-2.36674,-0.400273,0.381674,82.125,-34.625,-35.625,0.0,0.0,0.0,0.0,0.0,0.0,2,0,41.54226904215589,-92.10910892950628,9999.999280441698,119.84037909088369,-0.0041539319335688,0.0031891254718435,,8802.566937047923,11004.7807189461,150,7417,8,2025-09-10,2025-09-12 19:10:47.034,HA,C,4056987980,HAWK11,1,1,73,2,1,1,225,2,1,0,0,12,1,225,2,1,-152297.41247733062,-4789433.844697799,4200339.427214146,2.87593,1.99561,-0.803518,-51.75,60.625,69.875,-0.125,-6.76562,6.9375,0.00585938,-0.00390625,0.00976562,4,0,41.42719860756692,-91.82131331722807,11038.857878451272,-17.823045495804145,0.5213742567675147,4.0837487920446325,0.0,8802.566937047923,11004.7807189461,150,True,14.65286761815515,False,150.31000815084064,178.0924099800111,False,31.546081106762266,False,False
7426,8,1970-07-23 10:01:54.478069466,2025-09-10,2025-09-12 19:10:47.806,HA,C,1309366144,JASSM,3,104,76,2,2,1,225,9,2,0,1,26,0,0,0,0,-175945.98034842435,-4779943.543916549,4209670.923307896,-2.36674,-0.400273,0.381674,82.125,-34.625,-35.625,0.0,0.0,0.0,0.0,0.0,0.0,2,0,41.54181741701931,-92.10806105570882,10000.00057589983,119.8410740088675,-0.0032488950911785,0.0031876414453158,,8802.566937047923,11004.7807189461,150,7425,8,2025-09-10,2025-09-12 19:10:47.756,HA,C,4057385646,HAWK11,1,1,73,2,1,1,225,2,1,0,0,12,1,225,2,1,-152314.23181326812,-4789414.062471236,4200362.118620396,2.87928,1.99111,-0.804573,-51.5,60.625,70.125,-0.046875,-6.75,6.9375,0.00195312,-0.0078125,0.0078125,4,0,41.4274662698569,-91.82152184143604,11040.793306848584,-17.634142238681687,0.519786900087419,4.091855753680592,0.0,8802.566937047923,11004.7807189461,150,True,14.582849949642563,False,150.13728462372566,178.04776310448253,False,31.765425271593674,False,False
7438,8,1970-07-23 10:01:54.489224307,2025-09-10,2025-09-12 19:10:48.922,HA,C,1310499538,JASSM,3,104,76,2,2,1,225,9,2,0,1,26,0,0,0,0,-175867.99450858062,-4779976.545869674,4209636.936979771,-2.36674,-0.400177,0.381674,82.125,-34.625,-35.625,0.0,0.0,0.0,0.0,0.0,0.0,2,0,41.54140877938823,-92.107112991711,9999.998174297496,119.83806001773982,-0.0059964529065049,0.001140485166158,,8802.566937047923,11004.7807189461,150,7439,8,2025-09-10,2025-09-12 19:10:48.926,HA,C,4059294444,HAWK11,1,1,73,2,1,1,225,2,1,0,0,12,1,225,2,1,-152395.84802420562,-4789315.758760299,4200474.632292271,2.97525,1.96196,-0.810996,-50.125,61.625,71.125,-0.25,-6.78125,6.95312,0.0996094,0.00390625,0.0136719,4,0,41.428795064067685,-91.82253461214282,11049.73107808942,-16.423570866150477,0.5035893614477293,8.394672720915606,0.0,8802.566937047923,11004.7807189461,150,True,14.45626049983799,False,149.128253340355,177.85218897486854,False,32.97265820938295,False,False
7450,8,1970-07-23 10:01:54.500425931,2025-09-10,2025-09-12 19:10:50.042,HA,C,1311692586,JASSM,3,104,76,2,2,1,225,9,2,0,1,26,0,0,0,0,-175785.90417654935,-4780011.284150924,4209601.163542271,-2.36674,-0.400177,0.381674,82.125,-34.625,-35.625,0.0,0.0,0.0,0.0,0.0,0.0,2,0,41.54097864078981,-92.1061150430829,10000.002335653446,119.83872181584876,-0.0051345120915857,0.0011390148692666,,8802.566937047923,11004.7807189461,150,7451,8,2025-09-10,2025-09-12 19:10:50.131,HA,C,4060686276,HAWK11,1,1,73,2,1,1,225,2,1,0,0,12,1,225,2,1,-152453.80212576812,-4789242.429658736,4200557.897917271,2.94937,1.93387,-0.811859,-48.5,62.875,71.625,-0.234375,-6.78125,6.875,-0.216797,0.0,0.0253906,4,0,41.42978234286925,-91.82325512694736,11054.738767118752,-15.351612407205131,0.2215232098559078,5.7512000276074495,0.0,8802.566937047923,11004.7807189461,150,True,14.348413491398965,False,148.07707606203812,177.6992938354294,False,34.173918744809654,False,False
7456,8,1970-07-23 10:01:54.508824872,2025-09-10,2025-09-12 19:10:50.882,HA,C,1312885632,JASSM,3,104,76,2,2,1,225,9,2,0,1,26,0,0,0,0,-175703.81384451812,-4780046.020479049,4209565.388151646,-2.36674,-0.400177,0.381674,82.125,-34.625,-35.625,0.0,0.0,0.0,0.0,0.0,0.0,2,0,41.54054849199152,-92.10511710854064,10000.002195203397,119.839383598987,-0.0042725710202338,0.0011375429067482,,8802.566937047923,11004.7807189461,150,7461,8,2025-09-10,2025-09-12 19:10:51.330,HA,C,4062078108,HAWK11,1,1,73,2,1,1,225,2,1,0,0,12,1,225,2,1,-152510.24060233062,-4789169.154268111,4200640.817839146,2.90459,1.90635,-0.816461,-48.125,63.625,72.0,-0.125,-6.60938,6.84375,0.0253906,-0.00976562,-0.0078125,4,0,41.43076725157429,-91.82395752881136,11059.01739694024,-14.239236854343538,0.1739751600092921,2.043573419687288,0.0,8802.566937047923,11004.7807189461,150,True,14.241461278345408,False,147.7194262829715,177.54282396912723,False,34.6879926129074,False,False
7470,8,1970-07-23 10:01:54.518067638,2025-09-10,2025-09-12 19:10:51.806,HA,C,1314019026,JASSM,3,104,76,2,2,1,225,9,2,0,1,26,0,0,0,0,-175625.82800467435,-4780079.018525924,4209531.399870396,-2.36674,-0.400177,0.381674,82.125,-34.625,-35.625,0.0,0.0,0.0,0.0,0.0,0.0,2,0,41.5401398401409,-92.10416908332807,9999.999243815177,119.84001227939645,-0.0034537259565244,0.0011361422587831,,8802.566937047923,11004.7807189461,150,7469,8,2025-09-10,2025-09-12 19:10:51.738,HA,C,4062595074,HAWK11,1,1,73,2,1,1,225,2,1,0,0,12,1,225,2,1,-152531.44470389312,-4789141.137666549,4200672.435026646,2.91207,1.91987,-0.811284,-48.0,64.0,72.125,-0.171875,-6.57812,6.76562,0.0371094,-0.0117188,-0.0175781,4,0,41.43114331114277,-91.82422161397848,11060.43724685178,-14.832199996418888,0.0348574577627651,3.034105007241588,0.0,8802.566937047923,11004.7807189461,150,True,14.171502406197405,False,147.58333147745864,177.47662813412407,False,34.88945883606535,False,False
7488,8,1970-07-23 10:01:54.528100069,2025-09-10,2025-09-12 19:10:52.810,HA,C,1315331376,JASSM,3,104,76,2,2,1,225,9,2,0,1,26,0,0,0,0,-175535.52868826812,-4780117.225557174,4209492.046354771,-2.36674,-0.400177,0.381674,82.125,-34.625,-35.625,0.0,0.0,0.0,0.0,0.0,0.0,2,0,41.53966667085545,-92.10307138630117,10000.001058604825,119.84074020792494,-0.0025055985766658,0.0011345340426719,,8802.566937047923,11004.7807189461,150,7489,8,2025-09-10,2025-09-12 19:10:52.832,HA,C,4063827838,HAWK11,1,1,73,2,1,1,225,2,1,0,0,12,1,225,2,1,-152580.27868826812,-4789075.330049361,4200746.431120396,2.97851,1.91872,-0.814544,-47.5,63.0,73.875,-0.0625,-6.79688,6.92188,0.0996094,0.00195312,0.0117188,4,0,41.43202499726952,-91.82483031424346,11063.116983434598,-14.737096976542816,0.2026022781842546,6.793408156501477,0.0,8802.566937047923,11004.7807189461,150,True,14.066132155859888,False,147.13624606378008,177.3294262214529,False,35.500405989643966,False,False
7515,8,1970-07-23 10:01:54.540376625,2025-09-10,2025-09-12 19:10:54.037,HA,C,1316584074,JASSM,3,104,76,2,2,1,225,9,2,0,1,26,0,0,0,0,-175449.33386404935,-4780153.696260299,4209454.477995396,-2.36674,-0.400177,0.381674,82.125,-34.625,-35.625,0.0,0.0,0.0,0.0,0.0,0.0,2,0,41.539214972822506,-92.10202359910026,10000.001092096383,119.84143503281932,-0.0016005542974217,0.0011329759411957,,8802.566937047923,11004.7807189461,150,7508,8,2025-09-10,2025-09-12 19:10:53.737,HA,C,4064981072,HAWK11,1,1,73,2,1,1,225,2,1,0,0,12,1,225,2,1,-152625.45544608062,-4789012.026338424,4200816.915495396,-3.13833,1.87558,-0.824611,-45.625,65.375,73.125,-0.203125,-6.85938,7.07812,0.0996094,0.0,0.015625,4,0,41.43286877655135,-91.8253943663598,11064.04810614382,-12.95810238603984,0.3165071158989548,14.525534460440786,0.0,8802.566937047923,11004.7807189461,150,False,13.966260078779516,False,146.07416887221964,177.18497423220978,False,36.69063731074831,False,False
