Subject_cm,Timestamp,SampleDate_cm,SampleTime_cm,Configuration_cm,Scenario_cm,DisTime_cm,MarkingTxt_cm,Application_cm,EntId_cm,Site_cm,ExerciseId_cm,ForceId_cm,Category_cm,Country_cm,Domain_cm,Kind_cm,Extra_cm,Specific_cm,Subcategory_cm,AltCategory_cm,AltCountry_cm,AltDomain_cm,AltKind_cm,ECEF_X_cm,ECEF_Y_cm,ECEF_Z_cm,OriPhi_cm,OriPsi_cm,OriTheta_cm,LinVelX_cm,LinVelY_cm,LinVelZ_cm,LinAccX_cm,LinAccY_cm,LinAccZ_cm,AngVelX_cm,AngVelY_cm,AngVelZ_cm,DrAlg_cm,Appearance_cm,Latitude_cm,Longitude_cm,Altitude_cm,Heading_cm,Pitch_cm,Roll_cm,CalibratedAirspeed_cm,CM_Altitude_Lead_cm,CM_Altitude_Wing_cm,CM_Airspeed_cm,Subject_ac,SampleDate_ac,SampleTime_ac,Configuration_ac,Scenario_ac,DisTime_ac,MarkingTxt_ac,Application_ac,EntId_ac,Site_ac,ExerciseId_ac,ForceId_ac,Category_ac,Country_ac,Domain_ac,Kind_ac,Extra_ac,Specific_ac,Subcategory_ac,AltCategory_ac,AltCountry_ac,AltDomain_ac,AltKind_ac,ECEF_X_ac,ECEF_Y_ac,ECEF_Z_ac,OriPhi_ac,OriPsi_ac,OriTheta_ac,LinVelX_ac,LinVelY_ac,LinVelZ_ac,LinAccX_ac,LinAccY_ac,LinAccZ_ac,AngVelX_ac,AngVelY_ac,AngVelZ_ac,DrAlg_ac,Appearance_ac,Latitude_ac,Longitude_ac,Altitude_ac,Heading_ac,Pitch_ac,Roll_ac,CalibratedAirspeed_ac,CM_Altitude_Lead_ac,CM_Altitude_Wing_ac,CM_Airspeed_ac,Bank_Angle_Condition,distance_nm,Distance_Condition,angle_between_vel,angle_between_pos,Cone_Condition,angle_between_pos_nose,Nose_Cone_Condition,Intercept_Criteria
8,1970-07-23 09:59:40.827524547,2025-09-10,2025-09-26 15:28:02.752,HH,C,1717506844,JASSM,3,101,76,2,2,1,225,9,2,0,1,26,0,0,0,0,-155732.92907889312,-4777172.139619674,4213584.940886021,-2.71093,-1.01118,0.751842,36.625,-58.375,-64.375,0.0,0.0,0.0,0.0,0.0,0.0,2,0,41.58889573325283,-91.86714660724296,9999.996336631166,155.93831063934394,-0.0041864755016879,-0.000656747529228,,9001.267247400965,11068.098492074974,150,8,2025-09-10,2025-09-26 15:28:03.002,HH,C,998606348,HAWK11,1,1,73,2,1,1,225,2,1,0,0,12,1,225,2,1,-142488.38903983062,-4793423.066377486,4196180.495573521,2.31574,2.84716,-0.422228,-83.25,30.875,38.375,-0.03125,-6.29688,6.3125,-0.00390625,0.00390625,0.00390625,4,0,41.377189126229474,-91.70266213779244,11085.267353038793,-62.145687848421616,5.267149298468668,-0.6568918277183728,172.149,9001.267247400965,11068.098492074974,150,True,14.691325880380582,False,143.38468265999916,173.72482761490997,False,30.443144330629693,False,False
8,1970-07-23 09:59:40.831046162,2025-09-10,2025-09-26 15:28:03.104,HH,C,1718699890,JASSM,3,101,76,2,2,1,225,9,2,0,1,26,0,0,0,0,-155696.29040701812,-4777230.643525924,4213520.401823521,-2.71093,-1.01118,0.751842,36.625,-58.375,-64.375,0.0,0.0,0.0,0.0,0.0,0.0,2,0,41.58811916250466,-91.86668479756264,10000.001047656897,155.93861717770133,-0.0033365560500271,-0.0006579798007181,,9001.267247400965,11068.098492074974,150,8,2025-09-10,2025-09-26 15:28:03.002,HH,C,998606348,HAWK11,1,1,73,2,1,1,225,2,1,0,0,12,1,225,2,1,-142488.38903983062,-4793423.066377486,4196180.495573521,2.31574,2.84716,-0.422228,-83.25,30.875,38.375,-0.03125,-6.29688,6.3125,-0.00390625,0.00390625,0.00390625,4,0,41.377189126229474,-91.70266213779244,11085.267353038793,-62.145687848421616,5.267149298468668,-0.6568918277183728,172.149,9001.267247400965,11068.098492074974,150,True,14.640672842693025,False,143.38468265999916,173.70288644909976,False,30.4216314921141,False,False
8,1970-07-23 09:59:40.841061631,2025-09-10,2025-09-26 15:28:04.106,HH,C,1719892936,JASSM,3,101,76,2,2,1,225,9,2,0,1,26,0,0,0,0,-155659.65173514312,-4777289.145479049,4213455.858854771,-2.71093,-1.01118,0.751842,36.625,-58.375,-64.375,0.0,0.0,0.0,0.0,0.0,0.0,2,0,41.587342575164485,-91.86622299971296,9999.9970609881,155.93892370350642,-0.0024866233552167,-0.0006592185759713,,9001.267247400965,11068.098492074974,150,8,2025-09-10,2025-09-26 15:28:03.394,HH,C,999083548,HAWK11,1,1,73,2,1,1,225,2,1,0,0,12,1,225,2,1,-142521.31091483062,-4793410.735322799,4196195.589323521,2.31286,2.84371,-0.420598,-83.125,31.125,38.125,-0.09375,-6.375,6.34375,0.0,-0.0078125,0.0,4,0,41.37735855244104,-91.70305968395948,11090.065499810957,-62.08966097672248,5.072189117933412,-0.8975232854844043,171.929,9001.267247400965,11068.098492074974,150,True,14.572263918893766,False,143.4214323323902,173.72103840640096,False,30.396902532994822,False,False
8,1970-07-23 09:59:40.852351474,2025-09-10,2025-09-26 15:28:05.235,HH,C,1721085982,JASSM,3,101,76,2,2,1,225,9,2,0,1,26,0,0,0,0,-155623.01306326812,-4777347.647432174,4213391.319792271,-2.71083,-1.01118,0.751842,36.625,-58.375,-64.375,0.0,0.0,0.0,0.0,0.0,0.0,2,0,41.58656601215773,-91.86576121293083,10000.006180075548,155.93923021726513,-0.0016367145540849,0.0048446858225608,,9001.267247400965,11068.098492074974,150,8,2025-09-10,2025-09-26 15:28:05.502,HH,C,1001668378,HAWK11,1,1,73,2,1,1,225,2,1,0,0,12,1,225,2,1,-142702.17224295562,-4793342.252900924,4196277.901823521,2.32571,2.82981,-0.418393,-82.75,31.75,37.5,-0.015625,-6.4375,6.5,0.0,-0.00390625,0.00195312,4,0,41.378289593659616,-91.70524396092144,11113.300468054926,-61.67995022602198,4.459860552536783,-0.4517430668171295,171.489,9001.267247400965,11068.098492074974,150,True,14.424147871955038,False,143.52827255120513,173.92243557433153,False,30.478493258972982,False,False
8,1970-07-23 09:59:40.860066264,2025-09-10,2025-09-26 15:28:06.006,HH,C,1722219378,JASSM,3,101,76,2,2,1,225,9,2,0,1,26,0,0,0,0,-155588.20642264312,-4777403.221650924,4213330.003386021,-2.71083,-1.01118,0.751842,36.625,-58.375,-64.375,0.0,0.0,0.0,0.0,0.0,0.0,2,0,41.58582826228609,-91.86532252793756,10000.003286910263,155.9395213927196,-0.000829289703955,0.0048435122541003,,9001.267247400965,11068.098492074974,150,8,2025-09-10,2025-09-26 15:28:06.002,HH,C,1002185344,HAWK11,1,1,73,2,1,1,225,2,1,0,0,12,1,225,2,1,-142737.54138358062,-4793328.758760299,4196293.921354771,2.32628,2.82741,-0.417435,-82.75,32.125,37.125,-0.1875,-6.46875,6.46875,0.0078125,-0.0136719,0.0,4,0,41.37847174448144,-91.7056711598126,11117.428562184488,-61.6330266933277,4.331564290683098,-0.4709057730197539,171.623,9001.267247400965,11068.098492074974,150,True,14.356965486792445,False,143.5212455625555,173.9460432878966,False,30.500375342566407,False,False
8,1970-07-23 09:59:40.870061371,2025-09-10,2025-09-26 15:28:07.006,HH,C,1723352806,JASSM,3,101,76,2,2,1,225,9,2,0,1,26,0,0,0,0,-155553.39880545562,-4777458.797822799,4213268.683073521,-2.71083,-1.01118,0.751842,36.625,-58.375,-64.375,0.0,0.0,0.0,0.0,0.0,0.0,2,0,41.585090472881234,-91.86488384047026,10000.000750620597,155.93981256557464,-2.1826466415513112e-05,0.0048423317845488,,9001.267247400965,11068.098492074974,150,8,2025-09-10,2025-09-26 15:28:06.891,HH,C,1003259042,HAWK11,1,1,73,2,1,1,225,2,1,0,0,12,1,225,2,1,-142813.26013358062,-4793299.396455611,4196328.017057896,2.33434,2.81457,-0.414079,-82.75,32.5,37.0,0.03125,-6.60938,6.67188,0.00390625,0.00195312,0.0078125,4,0,41.3788631628956,-91.7065858892225,11124.671061399167,-61.304493769956245,3.713800396058693,-0.2837090369206561,171.526,9001.267247400965,11068.098492074974,150,True,14.267994483211286,False,143.6056762942005,174.02060430280986,False,30.485935736518428,False,False
8,1970-07-23 09:59:40.880702641,2025-09-10,2025-09-26 15:28:08.070,HH,C,1724545818,JASSM,3,101,76,2,2,1,225,9,2,0,1,26,0,0,0,0,-155516.76111014312,-4777517.293916549,4213204.140104771,-2.71083,-1.01118,0.751842,36.625,-58.375,-64.375,0.0,0.0,0.0,0.0,0.0,0.0,2,0,41.5843139126891,-91.86442209976616,10000.000407720934,155.9401190351208,0.0008280706441187,0.0048410975745172,,9001.267247400965,11068.098492074974,150,8,2025-09-10,2025-09-26 15:28:08.001,HH,C,1004611108,HAWK11,1,1,73,2,1,1,225,2,1,0,0,12,1,225,2,1,-142906.37146170562,-4793262.500947799,4196370.005339146,2.34718,2.80709,-0.413024,-82.625,33.0,36.875,-0.265625,-6.51562,6.34375,0.0,-0.00195312,-0.00390625,4,0,41.37934957995211,-91.70771102674436,11131.773777884717,-61.07509821320886,3.391016381425381,0.2944384963645722,171.354,9001.267247400965,11068.098492074974,150,True,14.166880212165083,False,143.77017474073048,174.11665243747305,False,30.41186154715013,False,False
8,1970-07-23 09:59:40.890022088,2025-09-10,2025-09-26 15:28:09.002,HH,C,1725739144,JASSM,3,101,76,2,2,1,225,9,2,0,1,26,0,0,0,0,-155480.11364920562,-4777575.805635299,4213139.577604771,-2.71083,-1.01118,0.751938,36.625,-58.375,-64.375,0.0,0.0,0.0,0.0,0.0,0.0,2,0,41.58353712768223,-91.86396024704328,9999.999678270447,155.94271818516023,-0.0033118012491996,0.0048398238758689,,9001.267247400965,11068.098492074974,150,8,2025-09-10,2025-09-26 15:28:08.892,HH,C,1005684806,HAWK11,1,1,73,2,1,1,225,2,1,0,0,12,1,225,2,1,-142981.04333670562,-4793232.788057174,4196403.405729771,2.34968,2.81006,-0.418873,-82.625,33.25,37.0,-0.296875,-7.09375,7.10938,0.00390625,0.00390625,0.0078125,4,0,41.379738556767656,-91.70861340158416,11136.577670743183,-60.94351568770609,3.736966073561689,0.5142698656199107,171.745,9001.267247400965,11068.098492074974,150,True,14.075821490774361,False,143.90319463749262,174.19063776371783,False,30.352818921345726,False,False
8,1970-07-23 09:59:40.899023225,2025-09-10,2025-09-26 15:28:09.902,HH,C,1726872538,JASSM,3,101,76,2,2,1,225,9,2,0,1,26,0,0,0,0,-155445.30700858062,-4777631.375947799,4213078.257292271,-2.71083,-1.01109,0.751938,36.625,-58.375,-64.375,0.0,0.0,0.0,0.0,0.0,0.0,2,0,41.58279936757501,-91.86352160457356,9999.995739157772,155.93936483453476,-0.0041789388007374,0.0010879117833098,,9001.267247400965,11068.098492074974,150,8,2025-09-10,2025-09-26 15:28:10.002,HH,C,1006877806,HAWK11,1,1,73,2,1,1,225,2,1,0,0,12,1,225,2,1,-143063.73083670562,-4793200.121064986,4196440.591276646,2.34498,2.79549,-0.416763,-82.5,33.375,36.875,-0.078125,-6.34375,6.1875,-0.0078125,-0.0195312,0.00390625,4,0,41.38016922896305,-91.70961256966612,11142.914391466957,-60.49723538692632,3.1070076447411394,-0.0670309005606448,171.098,9001.267247400965,11068.098492074974,150,True,13.983013284078423,False,143.93734535046133,174.2768637469978,False,30.40393108573485,False,False
8,1970-07-23 09:59:40.910022875,2025-09-10,2025-09-26 15:28:11.002,HH,C,1728184610,JASSM,3,101,76,2,2,1,225,9,2,0,1,26,0,0,0,0,-155405.01208670562,-4777695.707979049,4213007.272917271,-2.71083,-1.01109,0.751938,36.625,-58.375,-64.375,0.0,0.0,0.0,0.0,0.0,0.0,2,0,41.58194531201893,-91.86301381002494,10000.005596437548,155.93970185589163,-0.003244229761686,0.0010865429964408,,9001.267247400965,11068.098492074974,150,8,2025-09-10,2025-09-26 15:28:10.799,HH,C,1007991272,HAWK11,1,1,73,2,1,1,225,2,1,0,0,12,1,225,2,1,-143140.85778983062,-4793168.802705611,4196475.165495396,2.34335,2.79022,-0.418969,-82.5,34.125,36.5,-0.1875,-6.57812,6.46875,-0.0136719,0.00390625,-0.00585938,4,0,41.38057522735011,-91.710544859799,11146.502245159576,-60.21383377658646,2.999312188583701,-0.2678991561294472,171.44,9001.267247400965,11068.098492074974,150,True,13.885409243266194,False,144.04988099266308,174.35353286694246,False,30.357195398397465,False,False
8,1970-07-23 09:59:40.921503677,2025-09-10,2025-09-26 15:28:12.150,HH,C,1729496960,JASSM,3,101,76,2,2,1,225,9,2,0,1,26,0,0,0,0,-155364.70935233062,-4777760.049775924,4212936.269011021,-2.71083,-1.01109,0.751938,36.625,-58.375,-64.375,0.0,0.0,0.0,0.0,0.0,0.0,2,0,41.58109106583523,-91.86250593146416,10000.001818650237,155.9400389273218,-0.0023093189803133,0.0010851639600695,,9001.267247400965,11068.098492074974,150,8,2025-09-10,2025-09-26 15:28:12.300,HH,C,1009741002,HAWK11,1,1,73,2,1,1,225,2,1,0,0,12,1,225,2,1,-143262.80310233062,-4793118.192354049,4196529.507292271,2.33913,2.77967,-0.415134,-82.5,34.75,36.25,-0.03125,-6.46875,6.4375,-0.00195312,0.0,0.00585938,4,0,41.38122145008395,-91.7120193155186,11148.792704522735,-59.982619424403445,2.4531423468696154,-0.7433354276704663,171.623,9001.267247400965,11068.098492074974,150,True,13.76331161117492,False,144.16318013652298,174.4898267000084,False,30.37337036647877,False,False
8,1970-07-23 09:59:40.933044694,2025-09-10,2025-09-26 15:28:13.304,HH,C,1730868964,JASSM,3,101,76,2,2,1,225,9,2,0,1,26,0,0,0,0,-155322.57458670562,-4777827.317354049,4212862.034636021,-2.71083,-1.01109,0.751938,36.625,-58.375,-64.375,0.0,0.0,0.0,0.0,0.0,0.0,2,0,41.5801979605528,-91.86197498031396,10000.00007070315,155.9403913056058,-0.0013318868142863,0.0010837121655119,,9001.267247400965,11068.098492074974,150,8,2025-09-10,2025-09-26 15:28:13.596,HH,C,1011331668,HAWK11,1,1,73,2,1,1,225,2,1,0,0,12,1,225,2,1,-143372.27771170562,-4793071.493135299,4196578.030729771,2.34344,2.77545,-0.417339,-82.75,35.625,36.0,-0.234375,-6.96875,6.82812,-0.0078125,0.00976562,-0.00976562,4,0,41.38180732711834,-91.7133434627794,11147.18007880393,-59.737851814783234,2.3865053897967514,-0.5834953434321396,172.014,9001.267247400965,11068.098492074974,150,True,13.645210878610845,False,144.27717395687728,174.6105481189656,False,30.371311586527806,False,False
8,1970-07-23 09:59:40.944039769,2025-09-10,2025-09-26 15:28:14.403,HH,C,1732181432,JASSM,3,101,76,2,2,1,225,9,2,0,1,26,0,0,0,0,-155282.26892264312,-4777891.663057174,4212791.022917271,-2.71083,-1.01109,0.751938,36.625,-58.375,-64.375,0.0,0.0,0.0,0.0,0.0,0.0,2,0,41.57934363417795,-91.86146709251754,10000.000013396866,155.94072837153317,-0.0003968957846048,0.0010823273814063,,9001.267247400965,11068.098492074974,150,8,2025-09-10,2025-09-26 15:28:14.002,HH,C,1011769100,HAWK11,1,1,73,2,1,1,225,2,1,0,0,12,1,225,2,1,-143403.49646170562,-4793058.298799361,4196591.790495396,2.33759,2.77727,-0.420598,-82.75,35.375,36.25,-0.109375,-7.10938,7.15625,-0.015625,0.0,0.0,4,0,41.3819731437948,-91.71372102885265,11146.855666816462,-59.67280020888682,2.586119648139164,-0.8732940849579113,172.32,9001.267247400965,11068.098492074974,150,True,13.572430813250687,False,144.29194240169667,174.62985309818987,False,30.38088811605576,False,False
8,1970-07-23 09:59:40.955055614,2025-09-10,2025-09-26 15:28:15.505,HH,C,1733493664,JASSM,3,101,76,2,2,1,225,9,2,0,1,26,0,0,0,0,-155241.96911795562,-4777955.997041549,4212720.022917271,-2.71083,-1.01109,0.751938,36.625,-58.375,-64.375,0.0,0.0,0.0,0.0,0.0,0.0,2,0,41.57848945313916,-91.86095929285896,10000.002759102734,155.94106537328074,0.0005379377133189,0.0010809517333986,,9001.267247400965,11068.098492074974,150,8,2025-09-10,2025-09-26 15:28:15.595,HH,C,1013439298,HAWK11,1,1,73,2,1,1,225,2,1,0,0,12,1,225,2,1,-143519.56286795562,-4793008.839814986,4196643.610807896,2.32916,2.76692,-0.421941,-83.0,35.5,36.5,-0.21875,-6.76562,6.75,-0.00390625,0.00585938,0.00390625,4,0,41.38259649999839,-91.71512492176608,11146.0996825313,-59.236600845324126,2.258289469743926,-1.5808168882774305,172.491,9001.267247400965,11068.098492074974,150,True,13.453238597017977,False,144.35152988761197,174.76294438162358,False,30.457404573704686,False,False
8,1970-07-23 09:59:40.966018850,2025-09-10,2025-09-26 15:28:16.601,HH,C,1734806254,JASSM,3,101,76,2,2,1,225,9,2,0,1,26,0,0,0,0,-155201.65857108062,-4778020.346650924,4212648.999479771,-2.71083,-1.01109,0.752034,36.625,-58.375,-64.375,0.0,0.0,0.0,0.0,0.0,0.0,2,0,41.5776350207623,-91.86045137182332,9999.997510488754,155.94369681418092,-0.0035199230327272,0.0010795256347446,,9001.267247400965,11068.098492074974,150,8,2025-09-10,2025-09-26 15:28:16.690,HH,C,1014990198,HAWK11,1,1,73,2,1,1,225,2,1,0,0,12,1,225,2,1,-143627.04919608062,-4792962.709932174,4196691.302214146,2.32552,2.76251,-0.421749,-83.25,36.0,36.25,-0.09375,-6.6875,6.60938,0.0,-0.0117188,0.00976562,4,0,41.38317369199194,-91.71642517455096,11143.95661137466,-59.08186227621881,2.0888579982759743,-1.8871039891175263,172.931,9001.267247400965,11068.098492074974,150,True,13.338781346006849,False,144.34107906428818,174.8867758339668,False,30.586785389927343,False,False
8,1970-07-23 09:59:40.977020492,2025-09-10,2025-09-26 15:28:17.702,HH,C,1736118368,JASSM,3,101,76,2,2,1,225,9,2,0,1,26,0,0,0,0,-155161.36364920562,-4778084.672822799,4212578.003386021,-2.71083,-1.01109,0.752034,36.625,-58.375,-64.375,0.0,0.0,0.0,0.0,0.0,0.0,2,0,41.576780906968544,-91.85994366046096,10000.001115581112,155.9440337460787,-0.0025851736974172,0.001078174692477,,9001.267247400965,11068.098492074974,150,8,2025-09-10,2025-09-26 15:28:18.111,HH,C,1016700162,HAWK11,1,1,73,2,1,1,225,2,1,0,0,12,1,225,2,1,-143746.85388358062,-4792911.410127486,4196743.614714146,2.3328,2.76375,-0.426543,-83.625,35.875,36.25,-0.09375,-6.96875,6.82812,0.0332031,0.0,0.00585938,4,0,41.383810618622185,-91.7178744270531,11140.033095070014,-58.93499006075022,2.330644423448695,-1.4345242534689648,173.493,9001.267247400965,11068.098492074974,150,True,13.218042263536397,False,144.18651326103324,175.03060188024253,False,30.888425412058854,False,False
8,1970-07-23 09:59:40.987043944,2025-09-10,2025-09-26 15:28:18.704,HH,C,1737371066,JASSM,3,101,76,2,2,1,225,9,2,0,1,26,0,0,0,0,-155122.89196951812,-4778146.082979049,4212510.220182896,-2.71083,-1.01109,0.752034,36.625,-58.375,-64.375,0.0,0.0,0.0,0.0,0.0,0.0,2,0,41.57596547314547,-91.85945893633144,9999.99753750261,155.94435541768198,-0.0016927525065754,0.0010768979758974,,9001.267247400965,11068.098492074974,150,8,2025-09-10,2025-09-26 15:28:19.095,HH,C,1017813628,HAWK11,1,1,73,2,1,1,225,2,1,0,0,12,1,225,2,1,-143824.45349295562,-4792878.170869674,4196777.960417271,2.51065,2.75963,-0.433829,-83.5,36.375,36.5,-0.296875,-7.07812,6.9375,0.378906,0.0195312,0.0078125,4,0,41.3842263450692,-91.71881315295518,11138.470964373391,-58.48854002076329,2.475899629816851,8.675543973583899,174.581,9001.267247400965,11068.098492074974,150,True,13.122569116583403,False,144.480337679635,175.118170219296,False,30.681125411533333,False,False
8,1970-07-23 09:59:40.998019911,2025-09-10,2025-09-26 15:28:19.801,HH,C,1738683530,JASSM,3,101,76,2,2,1,225,9,2,0,1,26,0,0,0,0,-155082.58532889312,-4778210.422822799,4212439.202604771,-2.71083,-1.01109,0.752034,36.625,-58.375,-64.375,0.0,0.0,0.0,0.0,0.0,0.0,2,0,41.57511113074602,-91.8589511054312,9999.997846485994,155.94469241779473,-0.0007577539509167,0.001075555217853,,9001.267247400965,11068.098492074974,150,8,2025-09-10,2025-09-26 15:28:19.690,HH,C,1018489660,HAWK11,1,1,73,2,1,1,225,2,1,0,0,12,1,225,2,1,-143872.28357108062,-4792857.272432174,4196800.083464146,2.72579,2.76701,-0.448018,-83.375,34.5,39.25,-0.515625,-7.39062,7.28125,0.367188,0.03125,-0.00195312,4,0,41.38449146255477,-91.71939190881442,11138.56747216189,-58.1852796540424,3.322168883639858,21.19808720482372,174.446,9001.267247400965,11068.098492074974,150,False,13.040266243989702,False,144.9258346570428,175.16293750754846,False,30.330214998857723,False,False
8,1970-07-23 09:59:41.009039057,2025-09-10,2025-09-26 15:28:20.903,HH,C,1739996006,JASSM,3,101,76,2,2,1,225,9,2,0,1,26,0,0,0,0,-155042.27868826812,-4778274.762666549,4212368.183073521,-2.71083,-1.01099,0.752034,36.625,-58.375,-64.375,0.0,0.0,0.0,0.0,0.0,0.0,2,0,41.57425677282738,-91.85844328791477,9999.999469227025,155.94138082740255,-0.0014994806692437,-0.0026817824038489,,9001.267247400965,11068.098492074974,150,8,2025-09-10,2025-09-26 15:28:21.095,HH,C,1020279158,HAWK11,1,1,73,2,1,1,225,2,1,0,0,12,1,225,2,1,-143993.40661795562,-4792798.793916549,4196860.630339146,3.04093,2.65359,-0.531524,-78.0,41.75,42.625,-0.265625,-8.28125,8.25,0.0449219,0.046875,0.0976562,4,0,41.38522640558809,-91.72085954258417,11134.959920812857,-50.72731191055256,2.816398736417666,36.59186793837098,174.837,9001.267247400965,11068.098492074974,150,False,12.914115900020086,False,150.21932266699596,175.30311677600392,False,25.128933411099506,True,False
8,1970-07-23 09:59:41.020019654,2025-09-10,2025-09-26 15:28:22.001,HH,C,1741308540,JASSM,3,101,76,2,2,1,225,9,2,0,1,26,0,0,0,0,-155001.97009451812,-4778339.104463424,4212297.159636021,-2.71074,-1.01099,0.752034,36.625,-58.375,-64.375,0.0,0.0,0.0,0.0,0.0,0.0,2,0,41.573402374960686,-91.857935459628,10000.002789639606,155.9417178144478,-0.0005644282356646,0.0028082831684877,,9001.267247400965,11068.098492074974,150,8,2025-09-10,2025-09-26 15:28:22.002,HH,C,1021313090,HAWK11,1,1,73,2,1,1,225,2,1,0,0,12,1,225,2,1,-144059.40466483062,-4792761.483369674,4196899.714323521,3.08292,2.58668,-0.57716,-74.0,44.75,46.375,-0.125,-8.82812,8.73438,-0.0273438,0.0605469,0.046875,4,0,41.38570038576308,-91.72166120263596,11132.814017164405,-46.54940875886186,2.61803872634566,37.17674110034622,175.693,9001.267247400965,11068.098492074974,150,False,12.816055293664638,False,153.86749579315656,175.3623251370632,False,21.54325126320542,True,False
8,1970-07-23 09:59:41.031021738,2025-09-10,2025-09-26 15:28:23.102,HH,C,1742620470,JASSM,3,101,76,2,2,1,225,9,2,0,1,26,0,0,0,0,-154961.67907889312,-4778403.413057174,4212226.167448521,-2.71074,-1.01099,0.75213,36.625,-58.375,-64.375,0.0,0.0,0.0,0.0,0.0,0.0,2,0,41.57254837989213,-91.85742786817296,9999.999655647376,155.94434790479875,-0.0046195228047375,0.0028068041142963,,9001.267247400965,11068.098492074974,150,8,2025-09-10,2025-09-26 15:28:23.095,HH,C,1022625390,HAWK11,1,1,73,2,1,1,225,2,1,0,0,12,1,225,2,1,-144138.18005545562,-4792709.874971236,4196953.989714146,3.07141,2.53759,-0.603046,-68.75,49.25,50.625,-0.25,-7.96875,7.8125,-0.0332031,0.0214844,0.0507812,4,0,41.38635967456376,-91.72262062221516,11129.390010877303,-43.80312199229618,2.2616380242310306,35.069208016283326,174.972,9001.267247400965,11068.098492074974,150,False,12.704885364880276,False,158.56192177358776,175.42665202016192,False,16.901193472739195,True,False
8,1970-07-23 09:59:41.042020456,2025-09-10,2025-09-26 15:28:24.202,HH,C,1743873312,JASSM,3,101,76,2,2,1,225,9,2,0,1,26,0,0,0,0,-154923.20349295562,-4778464.825166549,4212158.370573521,-2.71074,-1.01099,0.75213,36.625,-58.375,-64.375,0.0,0.0,0.0,0.0,0.0,0.0,2,0,41.57173283191455,-91.85694315977987,9999.997113081668,155.94466953921977,-0.003726992479657,0.0028054967065606,,9001.267247400965,11068.098492074974,150,8,2025-09-10,2025-09-26 15:28:24.391,HH,C,1024096754,HAWK11,1,1,73,2,1,1,225,2,1,0,0,12,1,225,2,1,-144220.76794608062,-4792645.022432174,4197020.130339146,3.07544,2.46463,-0.624714,-63.875,53.75,54.5,-0.15625,-7.625,7.53125,-0.0175781,0.0273438,0.0664062,4,0,41.38717714857477,-91.72363035858216,11119.40579806906,-40.34462800567219,1.1403390156819493,32.99376853141682,175.436,9001.267247400965,11068.098492074974,150,False,12.586823567213479,False,162.88812315102786,175.48229603909465,False,12.61081207727684,True,False
8,1970-07-23 09:59:41.053020487,2025-09-10,2025-09-26 15:28:25.302,HH,C,1745185520,JASSM,3,101,76,2,2,1,225,9,2,0,1,26,0,0,0,0,-154882.90466483062,-4778529.147432174,4212087.360807896,-2.71074,-1.01099,0.75213,36.625,-58.375,-64.375,0.0,0.0,0.0,0.0,0.0,0.0,2,0,41.57087863377937,-91.85643549558012,9999.999503051631,155.94500640070248,-0.00279216634019,0.0028041267271028,,9001.267247400965,11068.098492074974,150,8,2025-09-10,2025-09-26 15:28:25.297,HH,C,1025289752,HAWK11,1,1,73,2,1,1,225,2,1,0,0,12,1,225,2,1,-144281.99060233062,-4792589.051729049,4197076.321745396,3.09529,2.40298,-0.650216,-59.375,56.875,57.375,-0.109375,-7.67188,7.67188,-0.015625,0.0253906,0.0546875,4,0,41.387878444042414,-91.72438173521851,11108.11793605508,-37.18790932502306,0.6678185383789152,32.07791084055731,176.12,9001.267247400965,11068.098492074974,150,False,12.477885882021637,False,166.3597908439052,175.5068650245828,False,9.150404860506697,True,False
8,1970-07-23 09:59:41.063026502,2025-09-10,2025-09-26 15:28:26.302,HH,C,1746438220,JASSM,3,101,76,2,2,1,225,9,2,0,1,26,0,0,0,0,-154844.43298514312,-4778590.549775924,4212019.571745396,-2.71074,-1.01099,0.75213,36.625,-58.375,-64.375,0.0,0.0,0.0,0.0,0.0,0.0,2,0,41.57006319151094,-91.85595086272735,10000.000704894732,155.9453279743898,-0.0018997517446174,0.0028028296169351,,9001.267247400965,11068.098492074974,150,8,2025-09-10,2025-09-26 15:28:26.392,HH,C,1026482752,HAWK11,1,1,73,2,1,1,225,2,1,0,0,12,1,225,2,1,-144339.29138358062,-4792529.764619674,4197135.790495396,3.10909,2.34124,-0.680896,-54.75,59.75,60.25,-0.203125,-8.34375,8.26562,-0.00585938,0.0292969,0.0429688,4,0,41.38862228867748,-91.72508747746149,11095.494346986565,-33.89824027960531,0.5892024996411486,30.71988512340104,177.318,9001.267247400965,11068.098492074974,150,False,12.37021117790811,False,169.76971345712323,175.51909947153484,False,5.752694806243198,True,False
8,1970-07-23 09:59:41.074019153,2025-09-10,2025-09-26 15:28:27.401,HH,C,1747691160,JASSM,3,101,76,2,2,1,225,9,2,0,1,26,0,0,0,0,-154805.95446951812,-4778651.963838424,4211951.767057896,-2.71074,-1.01099,0.75213,36.625,-58.375,-64.375,0.0,0.0,0.0,0.0,0.0,0.0,2,0,41.56924757326333,-91.85546615563972,10000.001169074108,155.94564959215356,-0.0010071519413856,0.0028015206810585,,9001.267247400965,11068.098492074974,150,8,2025-09-10,2025-09-26 15:28:27.391,HH,C,1027675750,HAWK11,1,1,73,2,1,1,225,2,1,0,0,12,1,225,2,1,-144391.69177420562,-4792468.136689986,4197198.272917271,3.13354,2.27959,-0.705823,-50.0,62.125,63.375,0.015625,-8.125,8.32812,-0.0136719,0.0234375,0.046875,4,0,41.38940127650834,-91.7257355461753,11083.291010291983,-30.83632389734362,0.3898383087877781,29.888755292367367,177.746,9001.267247400965,11068.098492074974,150,False,12.261898981122217,False,173.1579464300396,175.51628959650213,False,2.428429314139231,True,False
8,1970-07-23 09:59:41.085541130,2025-09-10,2025-09-26 15:28:28.554,HH,C,1749062922,JASSM,3,101,76,2,2,1,225,9,2,0,1,26,0,0,0,0,-154763.82653983062,-4778719.200166549,4211877.530729771,-2.71074,-1.01099,0.75213,36.625,-58.375,-64.375,0.0,0.0,0.0,0.0,0.0,0.0,2,0,41.56835460568997,-91.85493549244744,9999.99970725817,155.94600169723498,-2.9903515409748865e-05,0.0028000905050958,,9001.267247400965,11068.098492074974,150,8,2025-09-10,2025-09-26 15:28:28.810,HH,C,1029385716,HAWK11,1,1,73,2,1,1,225,2,1,0,0,12,1,225,2,1,-144458.16247733062,-4792376.508760299,4197292.335417271,-3.12156,2.17806,-0.739858,-43.5,65.125,67.875,-0.125,-7.8125,8.4375,-0.0332031,0.0195312,0.0410156,4,0,41.390569374402766,-91.7265624980974,11066.834123166169,-26.07356743400363,0.0271120488090359,27.664933457636465,179.713,9001.267247400965,11068.098492074974,150,False,12.124167379992233,False,177.5426516731228,175.49304878107174,False,2.543569708259088,True,False
8,1970-07-23 09:59:41.096018529,2025-09-10,2025-09-26 15:28:29.601,HH,C,1750375270,JASSM,3,101,76,2,2,1,225,9,2,0,1,26,0,0,0,0,-154723.52282889312,-4778783.522432174,4211806.509245396,-2.71074,-1.01099,0.75213,36.625,-58.375,-64.375,0.0,0.0,0.0,0.0,0.0,0.0,2,0,41.56750032023015,-91.85442782265952,9999.998203881045,155.9463385399428,0.0009050121967653,0.0027987286221117,,9001.267247400965,11068.098492074974,150,8,2025-09-10,2025-09-26 15:28:29.689,HH,C,1030499180,HAWK11,1,1,73,2,1,1,225,2,1,0,0,12,1,225,2,1,-144496.32068045562,-4792313.727510299,4197357.079557896,-3.10871,2.12648,-0.76747,-39.125,67.0,70.5,-0.34375,-8.59375,9.1875,-0.03125,0.0507812,0.0488281,4,0,41.39137303915519,-91.72704089934012,11055.65626223774,-23.447845573139908,0.5273376489625653,26.39090085997661,181.216,9001.267247400965,11068.098492074974,150,False,12.015645070367972,False,178.44488404375835,175.45384099609714,False,5.42293597625761,True,False
8,1970-07-23 09:59:41.107016754,2025-09-10,2025-09-26 15:28:30.701,HH,C,1751628354,JASSM,3,101,76,2,2,1,225,9,2,0,1,26,0,0,0,0,-154685.03943045562,-4778844.940400924,4211738.692839146,-2.71074,-1.01099,0.752226,36.625,-58.375,-64.375,0.0,0.0,0.0,0.0,0.0,0.0,2,0,41.566684593925245,-91.85394309388772,9999.99829375001,155.948954848938,-0.0031950885241005,0.0027973913561348,,9001.267247400965,11068.098492074974,150,8,2025-09-10,2025-09-26 15:28:30.689,HH,C,1031692180,HAWK11,1,1,73,2,1,1,225,2,1,0,0,12,1,225,2,1,-144532.53552420562,-4792245.768525924,4197429.413542271,3.08925,2.05994,-0.794123,-34.5,67.625,73.75,-0.03125,-8.45312,8.98438,-0.181641,0.0273438,0.0449219,4,0,41.39225908780386,-91.72749796466354,11048.065861912297,-20.35779904361304,0.8654749191820875,18.86107103051229,182.121,9001.267247400965,11068.098492074974,150,False,11.905762433358866,False,176.1588844158926,175.39916593978106,False,8.372715253081664,True,False
8,1970-07-23 09:59:41.118036524,2025-09-10,2025-09-26 15:28:31.803,HH,C,1752999974,JASSM,3,101,76,2,2,1,225,9,2,0,1,26,0,0,0,0,-154642.91638358062,-4778912.165010299,4211664.462370396,-2.71074,-1.01099,0.752226,36.625,-58.375,-64.375,0.0,0.0,0.0,0.0,0.0,0.0,2,0,41.56579172737071,-91.85341253566116,9999.998674736731,155.94930686666922,-0.0022179578536669,0.0027960013908009,,9001.267247400965,11068.098492074974,150,8,2025-09-10,2025-09-26 15:28:31.797,HH,C,1032964712,HAWK11,1,1,73,2,1,1,225,2,1,0,0,12,1,225,2,1,-144566.06677420562,-4792171.848604049,4197509.999479771,3.06796,2.02255,-0.814256,-30.75,68.0,76.75,-0.265625,-8.125,8.59375,-0.00585938,0.015625,-0.0117188,4,0,41.39323678136092,-91.72792513462028,11043.51884970871,-18.555987162997667,1.407412197868498,16.134099263933663,183.685,9001.267247400965,11068.098492074974,150,False,11.786655570531888,False,173.80842257659228,175.32269847181664,False,10.861416239379578,True,False
8,1970-07-23 09:59:41.129020621,2025-09-10,2025-09-26 15:28:32.902,HH,C,1754252674,JASSM,3,101,76,2,2,1,225,9,2,0,1,26,0,0,0,0,-154604.44470389312,-4778973.561494674,4211596.665495396,-2.71074,-1.01089,0.752226,36.625,-58.375,-64.375,0.0,0.0,0.0,0.0,0.0,0.0,2,0,41.56497625400597,-91.8529279811048,10000.000125769737,155.9459850764738,-0.0030001207836586,-0.0009572659354413,,9001.267247400965,11068.098492074974,150,8,2025-09-10,2025-09-26 15:28:32.910,HH,C,1028868750,HAWK11,1,1,73,2,1,1,225,2,1,0,0,12,1,225,2,1,-144439.20739920562,-4792404.165986861,4197263.675261021,-3.12376,2.2051,-0.731613,-45.375,64.375,66.5,-0.046875,-7.90625,8.45312,-0.0371094,0.0214844,0.0605469,4,0,41.39021478437645,-91.72632612754128,11071.3010327281,-27.311012269567,0.1279527640653231,28.576591938916376,183.844,9001.267247400965,11068.098492074974,150,False,11.926908155867325,False,176.32073352285173,175.41179771835772,False,1.4981733722117194,True,False
8,1970-07-23 09:59:41.140061074,2025-09-10,2025-09-26 15:28:34.006,HH,C,1755565024,JASSM,3,101,76,2,2,1,225,9,2,0,1,26,0,0,0,0,-154564.14099295562,-4779037.879854049,4211525.638151646,-2.71074,-1.01089,0.752226,36.625,-58.375,-64.375,0.0,0.0,0.0,0.0,0.0,0.0,2,0,41.56412194303894,-91.85242036571869,9999.998291440035,155.94632186076362,-0.0020651902752009,-0.000958657519879,,9001.267247400965,11068.098492074974,150,8,2025-09-10,2025-09-26 15:28:34.096,HH,C,1035748376,HAWK11,1,1,73,2,1,1,225,2,1,0,0,12,1,225,2,1,-144629.35974295562,-4792010.712861861,4197694.489714146,3.07515,1.93838,-0.850113,-24.375,68.125,81.25,-0.265625,-7.4375,7.875,0.015625,0.0,0.00390625,4,0,41.39542934649094,-91.72873927778636,11052.044737230315,-14.822125886539355,2.318153708058804,13.099806213340631,184.944,9001.267247400965,11068.098492074974,150,False,11.544477442838948,False,169.87059824151572,175.1245439740532,False,15.002167415601651,True,False
8,1970-07-23 09:59:41.151040432,2025-09-10,2025-09-26 15:28:35.104,HH,C,1756877376,JASSM,3,101,76,2,2,1,225,9,2,0,1,26,0,0,0,0,-154523.83728201812,-4779102.196260299,4211454.610807896,-2.71074,-1.01089,0.752226,36.625,-58.375,-64.375,0.0,0.0,0.0,0.0,0.0,0.0,2,0,41.5632676413592,-91.85191276446125,9999.997230227262,155.9466586299939,-0.0011302705014456,-0.0009600448913643,,9001.267247400965,11068.098492074974,150,8,2025-09-10,2025-09-26 15:28:35.095,HH,C,1036941374,HAWK11,1,1,73,2,1,1,225,2,1,0,0,12,1,225,2,1,-144651.90661795562,-4791942.073213424,4197774.901823521,3.10602,1.9263,-0.857687,-21.875,68.75,82.0,-0.125,-7.10938,7.48438,0.00195312,0.015625,0.0214844,4,0,41.39637642629695,-91.72903336584244,11059.31603897458,-14.2617273993484,2.604512510711788,14.370884251457577,184.98,9001.267247400965,11068.098492074974,150,False,11.432460146783683,False,168.50293296581393,175.0208395596158,False,16.475786813103472,True,False
8,1970-07-23 09:59:41.163512545,2025-09-10,2025-09-26 15:28:36.351,HH,C,1758130076,JASSM,3,101,76,2,2,1,225,9,2,0,1,26,0,0,0,0,-154485.36462576812,-4779163.588838424,4211386.811979771,-2.71074,-1.01089,0.752226,36.625,-58.375,-64.375,0.0,0.0,0.0,0.0,0.0,0.0,2,0,41.562452171664056,-91.85142823743546,10000.00046337418,155.9469800852678,-0.0002378456878583,-0.0009613607490665,,9001.267247400965,11068.098492074974,150,8,2025-09-10,2025-09-26 15:28:36.297,HH,C,1038372972,HAWK11,1,1,73,2,1,1,225,2,1,0,0,12,1,225,2,1,-144675.72497733062,-4791858.165986861,4197873.237761021,-3.12558,1.85449,-0.865836,-18.625,69.5,83.0,-0.21875,-6.90625,7.32812,-0.0078125,0.00195312,0.0292969,4,0,41.39753509055112,-91.72934815795192,11068.01660210974,-11.550925147772343,2.3675937680455816,14.320414744470137,185.506,9001.267247400965,11068.098492074974,150,False,11.31146144711438,False,166.73107955207868,174.8891792459394,False,18.37968787991189,True,False
8,1970-07-23 09:59:41.175538065,2025-09-10,2025-09-26 15:28:37.553,HH,C,1759383112,JASSM,3,101,76,2,2,1,225,9,2,0,1,26,0,0,0,0,-154446.88318045562,-4779224.997041549,4211318.991667271,-2.71074,-1.01089,0.752226,36.625,-58.375,-64.375,0.0,0.0,0.0,0.0,0.0,0.0,2,0,41.56163646359615,-91.85094361128792,9999.999644754444,155.94730160112093,0.000654828901688,-0.0009626968500095,,9001.267247400965,11068.098492074974,150,8,2025-09-10,2025-09-26 15:28:37.502,HH,C,1039605738,HAWK11,1,1,73,2,1,1,225,2,1,0,0,12,1,225,2,1,-144692.76794608062,-4791784.119111861,4197959.550261021,3.10813,1.82477,-0.862864,-15.875,70.5,83.75,-0.078125,-6.82812,7.21875,-0.185547,0.00976562,0.0136719,4,0,41.398555151115225,-91.7295784637782,11074.392461167916,-10.509976531088617,1.9581334733748048,10.2298386347263,186.19,9001.267247400965,11068.098492074974,150,False,11.19961868090491,False,165.2577707664636,174.75872815520717,False,19.981651947262744,True,False
8,1970-07-23 09:59:41.183064246,2025-09-10,2025-09-26 15:28:38.306,HH,C,1760695260,JASSM,3,101,76,2,2,1,225,9,2,0,1,26,0,0,0,0,-154406.58532889312,-4779289.299775924,4211247.972136021,-2.71064,-1.01089,0.752322,36.625,-58.375,-64.375,0.0,0.0,0.0,0.0,0.0,0.0,2,0,41.5607822880907,-91.8504361243921,9999.998697488136,155.9499318724816,-0.0033999535218616,0.0045273542468148,,9001.267247400965,11068.098492074974,150,8,2025-09-10,2025-09-26 15:28:38.391,HH,C,1040838504,HAWK11,1,1,73,2,1,1,225,2,1,0,0,12,1,225,2,1,-144708.44568045562,-4791710.716768111,4198045.374479771,2.98244,1.79591,-0.862481,-14.875,71.125,84.125,0.109375,-6.20312,6.6875,-0.0078125,-0.00976562,0.00976562,4,0,41.39956832552671,-91.72979223453056,11081.199791434949,-9.460303248725552,1.7225684250477795,1.8060283343489676,186.801,9001.267247400965,11068.098492074974,150,True,11.086043539919592,False,164.7167404770663,174.62207818413597,False,20.657503562004717,True,False
8,1970-07-23 09:59:41.194020961,2025-09-10,2025-09-26 15:28:39.402,HH,C,1762067128,JASSM,3,101,76,2,2,1,225,9,2,0,1,26,0,0,0,0,-154364.45349295562,-4779356.528291549,4211173.720182896,-2.71064,-1.01089,0.752322,36.625,-58.375,-64.375,0.0,0.0,0.0,0.0,0.0,0.0,2,0,41.55988923815396,-91.84990555595613,10000.001389618512,155.9502838560967,-0.0024226374739405,0.0045259462991269,,9001.267247400965,11068.098492074974,150,8,2025-09-10,2025-09-26 15:28:39.095,HH,C,1041554302,HAWK11,1,1,73,2,1,1,225,2,1,0,0,12,1,225,2,1,-144717.34216483062,-4791667.701143111,4198095.186979771,2.96777,1.79907,-0.853756,-14.75,71.75,84.0,-0.09375,-5.79688,6.23438,-0.0527344,-0.0117188,-0.00976562,4,0,41.40015886487551,-91.72991403542136,11084.123342231782,-9.672108726569316,1.255053586463248,1.0972196237679346,187.155,9001.267247400965,11068.098492074974,150,True,10.994117237676098,False,164.66451212228284,174.52772881740117,False,20.8000446332876,True,False
8,1970-07-23 09:59:41.205018495,2025-09-10,2025-09-26 15:28:40.501,HH,C,1763319874,JASSM,3,101,76,2,2,1,225,9,2,0,1,26,0,0,0,0,-154325.97986014312,-4779417.918916549,4211105.913542271,-2.71064,-1.01089,0.752322,36.625,-58.375,-64.375,0.0,0.0,0.0,0.0,0.0,0.0,2,0,41.55907371875671,-91.84942106846052,10000.00375614958,155.95060526379774,-0.0015301715213417,0.0045246569488256,,9001.267247400965,11068.098492074974,150,8,2025-09-10,2025-09-26 15:28:40.595,HH,C,1043383568,HAWK11,1,1,73,2,1,1,225,2,1,0,0,12,1,225,2,1,-144738.78747733062,-4791554.278291549,4198223.210417271,2.91543,1.79581,-0.839471,-14.375,74.0,83.25,-0.1875,-5.64062,6.0,-0.00390625,-0.015625,0.00390625,4,0,41.40169392919225,-91.730211162071,11084.487126484291,-9.706814110765173,0.4295415182822619,-2.042488529570736,187.913,9001.267247400965,11068.098492074974,150,True,10.854080792936385,False,164.49083961138354,174.32428755966671,False,21.147748779814666,True,False
8,1970-07-23 09:59:41.216037101,2025-09-10,2025-09-26 15:28:41.603,HH,C,1764632178,JASSM,3,101,76,2,2,1,225,9,2,0,1,26,0,0,0,0,-154285.67712576812,-4779482.225557174,4211034.880339146,-2.71064,-1.01089,0.752322,36.625,-58.375,-64.375,0.0,0.0,0.0,0.0,0.0,0.0,2,0,41.55821942171568,-91.84891356167864,9999.998942128374,155.95094193687615,-0.0005952726003866,0.0045233038987539,,9001.267247400965,11068.098492074974,150,8,2025-09-10,2025-09-26 15:28:41.501,HH,C,1044337966,HAWK11,1,1,73,2,1,1,225,2,1,0,0,12,1,225,2,1,-144750.30700858062,-4791494.911104049,4198288.491667271,2.92127,1.78776,-0.834006,-14.625,75.125,83.0,0.09375,-6.10938,6.45312,0.0117188,0.0,0.0,4,0,41.402485686011445,-91.73037020932252,11080.955973786526,-9.46161315916551,0.0650954864982987,-2.0489576801594684,189.587,9001.267247400965,11068.098492074974,150,True,10.753461618229702,False,164.58950696193992,174.2035253368063,False,21.149543617425145,True,False
8,1970-07-23 09:59:41.227035293,2025-09-10,2025-09-26 15:28:42.703,HH,C,1765944528,JASSM,3,101,76,2,2,1,225,9,2,0,1,26,0,0,0,0,-154245.37341483062,-4779546.534150924,4210963.845182896,-2.71064,-1.01089,0.752322,36.625,-58.375,-64.375,0.0,0.0,0.0,0.0,0.0,0.0,2,0,41.557365097688624,-91.84840605581373,10000.000157223263,155.9512786036618,0.0003396527381543,0.004521949302528,,9001.267247400965,11068.098492074974,150,8,2025-09-10,2025-09-26 15:28:42.797,HH,C,1046087698,HAWK11,1,1,73,2,1,1,225,2,1,0,0,12,1,225,2,1,-144771.57263358062,-4791383.525361861,4198409.610807896,2.91197,1.79524,-0.842922,-14.875,76.0,83.25,-0.140625,-7.03125,7.39062,-0.00390625,0.00195312,-0.00195312,4,0,41.403962058106025,-91.73066447521944,11071.359188529528,-9.648133677072028,0.6218633887987719,-2.264321319457704,190.956,9001.267247400965,11068.098492074974,150,True,10.614235145877657,False,164.66290529888764,173.99971441888545,False,21.269784905060696,True,False
8,1970-07-23 09:59:41.237040136,2025-09-10,2025-09-26 15:28:43.704,HH,C,1767197228,JASSM,3,101,76,2,2,1,225,9,2,0,1,26,0,0,0,0,-154206.90173514312,-4779607.916963424,4210896.040495396,-2.71064,-1.0108,0.752322,36.625,-58.375,-64.375,0.0,0.0,0.0,0.0,0.0,0.0,2,0,41.55654963100855,-91.84792163242687,10000.003454581944,155.94795710991062,-0.0004426262199165,0.0007681220372906,,9001.267247400965,11068.098492074974,150,8,2025-09-10,2025-09-26 15:28:43.892,HH,C,1047399996,HAWK11,1,1,73,2,1,1,225,2,1,0,0,12,1,225,2,1,-144788.04919608062,-4791299.199189986,4198502.036589146,2.9253,1.79016,-0.852126,-15.125,75.875,84.25,-0.234375,-7.20312,7.42188,0.0273438,0.00390625,0.0,4,0,41.40508463192996,-91.73089176802762,11065.717014070911,-9.360291711427514,1.1049730914735434,-1.714689802015747,192.251,9001.267247400965,11068.098492074974,150,True,10.497562455543052,False,164.74395992062594,173.83519963864907,False,21.37222805820321,True,False
8,1970-07-23 09:59:41.249496740,2025-09-10,2025-09-26 15:28:44.949,HH,C,1768509580,JASSM,3,101,76,2,2,1,225,9,2,0,1,26,0,0,0,0,-154166.59704764312,-4779672.223604049,4210825.001432896,-2.71064,-1.0108,0.752418,36.625,-58.375,-64.375,0.0,0.0,0.0,0.0,0.0,0.0,2,0,41.55569528789132,-91.84741414174704,10000.002175510568,155.9505891041557,-0.0045001945431787,0.000766629257946,,9001.267247400965,11068.098492074974,150,8,2025-09-10,2025-09-26 15:28:44.893,HH,C,1048433928,HAWK11,1,1,73,2,1,1,225,2,1,0,0,12,1,225,2,1,-144801.13122733062,-4791233.290010299,4198575.091276646,2.94208,1.79457,-0.853277,-15.25,75.0,85.625,-0.1875,-7.15625,7.375,0.0078125,-0.00585938,-0.0078125,4,0,41.40596749703076,-91.73107186226524,11063.0961702627,-9.511445613751688,1.2016942114499856,-0.5661611705396293,192.985,9001.267247400965,11068.098492074974,150,True,10.391940464492386,False,164.74795690883516,173.69474461499445,False,21.53727667523934,True,False
8,1970-07-23 09:59:41.259035559,2025-09-10,2025-09-26 15:28:45.903,HH,C,1769762278,JASSM,3,101,76,2,2,1,225,9,2,0,1,26,0,0,0,0,-154128.12536795562,-4779733.604463424,4210757.190886021,-2.71064,-1.0108,0.752418,36.625,-58.375,-64.375,0.0,0.0,0.0,0.0,0.0,0.0,2,0,41.55487978898984,-91.84692974405034,9999.998310882313,155.95091042580088,-0.0036077650978661,0.0007653131325935,,9001.267247400965,11068.098492074974,150,8,2025-09-10,2025-09-26 15:28:45.827,HH,C,1049189494,HAWK11,1,1,73,2,1,1,225,2,1,0,0,12,1,225,2,1,-144810.39685233062,-4791184.926729049,4198628.649870396,2.94524,1.7869,-0.861234,-15.125,75.875,85.25,-0.109375,-7.04688,7.25,0.00390625,0.0078125,0.00976562,4,0,41.40661506786064,-91.73120002807406,11061.0473602285,-9.144118377064054,1.5969266835327725,-0.7081781485158983,193.644,9001.267247400965,11068.098492074974,150,True,10.302280788135112,False,164.68755576053707,173.58130330305872,False,21.696600157967605,True,False
8,1970-07-23 09:59:41.270026373,2025-09-10,2025-09-26 15:28:47.002,HH,C,1771074630,JASSM,3,101,76,2,2,1,225,9,2,0,1,26,0,0,0,0,-154087.82068045562,-4779797.907197799,4210686.151823521,-2.71064,-1.0108,0.752418,36.625,-58.375,-64.375,0.0,0.0,0.0,0.0,0.0,0.0,2,0,41.5540254645533,-91.84642228100128,9999.998323852997,155.95124704212148,-0.0026728444463852,0.0007639465154132,,9001.267247400965,11068.098492074974,150,8,2025-09-10,2025-09-26 15:28:47.095,HH,C,1051257360,HAWK11,1,1,73,2,1,1,225,2,1,0,0,12,1,225,2,1,-144836.58825858062,-4791053.262666549,4198776.034636021,2.97324,1.77855,-0.871685,-15.0,76.125,86.125,-0.015625,-7.28125,7.45312,0.0,0.0117188,0.00195312,4,0,41.40838848260224,-91.7315605093968,11058.977498282376,-8.731994827789906,2.1320155502020905,0.5450451466124802,194.793,9001.267247400965,11068.098492074974,150,True,10.146622662440413,False,164.56565092369743,173.3222611452377,False,22.084949808328965,True,False
8,1970-07-23 09:59:41.280036550,2025-09-10,2025-09-26 15:28:48.003,HH,C,1772267676,JASSM,3,101,76,2,2,1,225,9,2,0,1,26,0,0,0,0,-154051.18103201812,-4779856.364229049,4210621.569792271,-2.71064,-1.0108,0.752418,36.625,-58.25,-64.375,0.0,0.0,0.0,0.0,0.0,0.0,2,0,41.55324879655859,-91.84596097424722,10000.0009235936,155.9515530365766,-0.0018229133033845,0.0007626931263872,,9001.267247400965,11068.098492074974,150,8,2025-09-10,2025-09-26 15:28:47.891,HH,C,1052171992,HAWK11,1,1,73,2,1,1,225,2,1,0,0,12,1,225,2,1,-144847.64099295562,-4790994.988252486,4198842.081511021,2.98714,1.76791,-0.877149,-14.75,75.875,86.625,0.03125,-7.17188,7.34375,0.0195312,0.00976562,0.0117188,4,0,41.40917898862251,-91.7317136176766,11059.7952803109,-8.292355440407034,2.373510152920751,0.891055329349479,195.062,9001.267247400965,11068.098492074974,150,True,10.05168247467356,False,164.40056015007372,173.195419767641,False,22.379010981915986,True,False
8,1970-07-23 09:59:41.290033846,2025-09-10,2025-09-26 15:28:49.003,HH,C,1773460722,JASSM,3,101,76,2,2,1,225,9,2,0,1,26,0,0,0,0,-154014.54040701812,-4779914.819307174,4210556.985807896,-2.71064,-1.0108,0.752418,36.625,-58.25,-64.5,0.0,0.0,0.0,0.0,0.0,0.0,2,0,41.55247212529535,-91.84549966759698,9999.999002117404,155.95185902626466,-0.0009729775102511,0.0007614466614626,,9001.267247400965,11068.098492074974,150,8,2025-09-10,2025-09-26 15:28:49.001,HH,C,1053524056,HAWK11,1,1,73,2,1,1,225,2,1,0,0,12,1,225,2,1,-144864.31286795562,-4790908.303682174,4198941.063932896,3.01389,1.75507,-0.881464,-14.375,75.75,87.375,-0.09375,-7.07812,7.23438,-0.0214844,0.00390625,-0.00585938,4,0,41.41035981125288,-91.73194413284976,11062.633899576713,-7.788389729187051,2.541312903727478,1.8782686454830035,195.563,9001.267247400965,11068.098492074974,150,True,9.93491316903752,False,164.19521614330634,172.9732864533545,False,22.810455222861883,True,False
8,1970-07-23 09:59:41.300015398,2025-09-10,2025-09-26 15:28:50.001,HH,C,1774713422,JASSM,3,101,76,2,2,1,225,9,2,0,1,26,0,0,0,0,-153976.06775076812,-4779976.196260299,4210489.173307896,-2.71064,-1.0108,0.752418,36.625,-58.25,-64.5,0.0,0.0,0.0,0.0,0.0,0.0,2,0,41.55165662821173,-91.84501530783874,10000.001265338276,155.95218030227224,-8.055389986494149e-05,0.000760141635946,,9001.267247400965,11068.098492074974,150,8,2025-09-10,2025-09-26 15:28:50.095,HH,C,1054796588,HAWK11,1,1,73,2,1,1,225,2,1,0,0,12,1,225,2,1,-144879.24255545562,-4790827.555635299,4199033.427214146,2.97391,1.74251,-0.874561,-14.125,76.125,87.5,-0.0625,-6.46875,6.53125,-0.0175781,-0.00585938,0.0117188,4,0,41.41146095042066,-91.7321516945936,11065.587951445505,-7.3955454249787165,2.0804022426302886,-0.9502496752771294,195.746,9001.267247400965,11068.098492074974,150,True,9.82035660274715,False,164.0597323368568,172.78387334703783,False,23.132395106511744,True,False
8,1970-07-23 09:59:41.311018856,2025-09-10,2025-09-26 15:28:51.101,HH,C,1775966120,JASSM,3,101,76,2,2,1,225,9,2,0,1,26,0,0,0,0,-153937.59607108062,-4780037.571260299,4210421.358854771,-2.71064,-1.0108,0.752418,36.625,-58.25,-64.5,0.0,0.0,0.0,0.0,0.0,0.0,2,0,41.55084112728317,-91.84453097270188,9999.999633103746,155.9525015567692,0.0008118675839924,0.0007588273969111,,9001.267247400965,11068.098492074974,150,8,2025-09-10,2025-09-26 15:28:51.095,HH,C,1056029354,HAWK11,1,1,73,2,1,1,225,2,1,0,0,12,1,225,2,1,-144893.80896170562,-4790747.552705611,4199124.411589146,2.96921,1.738,-0.871876,-14.125,76.625,87.625,-0.140625,-6.82812,6.96875,0.00390625,0.00585938,0.00195312,4,0,41.412548414194745,-91.73235465326005,11067.362889021128,-7.254491534627624,1.9047174285450303,-1.4123628312394676,196.773,9001.267247400965,11068.098492074974,150,True,9.706718143528406,False,164.04314588526887,172.59159675952648,False,23.336910730545,True,False
8,1970-07-23 09:59:41.321015781,2025-09-10,2025-09-26 15:28:52.101,HH,C,1777159168,JASSM,3,101,76,2,2,1,225,9,2,0,1,26,0,0,0,0,-153900.95544608062,-4780096.024385299,4210356.772917271,-2.71064,-1.0108,0.752513,36.625,-58.25,-64.5,0.0,0.0,0.0,0.0,0.0,0.0,2,0,41.5500644484564,-91.8440697010377,10000.0029260472,155.95510143151472,-0.0033276022853054,0.0007575464055963,,9001.267247400965,11068.098492074974,150,8,2025-09-10,2025-09-26 15:28:52.297,HH,C,1057421186,HAWK11,1,1,73,2,1,1,225,2,1,0,0,12,1,225,2,1,-144910.34607108062,-4790657.926729049,4199226.306120396,3.00037,1.73867,-0.869192,-14.125,77.0,88.0,-0.3125,-6.84375,6.84375,0.0253906,-0.00390625,0.0,4,0,41.41376641390378,-91.73258464461075,11069.303387785583,-7.301853674511185,1.757472796752421,0.4008386889543276,197.152,9001.267247400965,11068.098492074974,150,True,9.588402625077864,False,164.01309623312434,172.3785632862494,False,23.57978672586721,True,False
8,1970-07-23 09:59:41.332036813,2025-09-10,2025-09-26 15:28:53.203,HH,C,1778471516,JASSM,3,101,76,2,2,1,225,9,2,0,1,26,0,0,0,0,-153860.65075858062,-4780160.319307174,4210285.726042271,-2.71064,-1.0108,0.752513,36.625,-58.25,-64.5,0.0,0.0,0.0,0.0,0.0,0.0,2,0,41.549210104677485,-91.84356231631553,9999.998132760751,155.9554379639586,-0.002392676230012,0.0007562125956699,,9001.267247400965,11068.098492074974,150,8,2025-09-10,2025-09-26 15:28:53.189,HH,C,1058415352,HAWK11,1,1,73,2,1,1,225,2,1,0,0,12,1,225,2,1,-144921.89489920562,-4790592.588838424,4199300.505339146,3.04064,1.72515,-0.868904,-13.75,77.375,88.375,-0.1875,-6.96875,7.04688,0.0351562,0.00585938,0.0175781,4,0,41.41465387690664,-91.73274625897774,11070.507284542702,-6.809204938917482,1.670710713241237,2.1311892008657365,197.567,9001.267247400965,11068.098492074974,150,True,9.483663451033442,False,163.8031479395722,172.20311713295803,False,23.964399331272677,True,False
8,1970-07-23 09:59:41.342036422,2025-09-10,2025-09-26 15:28:54.203,HH,C,1779664574,JASSM,3,101,76,2,2,1,225,9,2,0,1,26,0,0,0,0,-153824.01013358062,-4780218.770479049,4210221.138151646,-2.71064,-1.0108,0.752513,36.625,-58.25,-64.5,0.0,0.0,0.0,0.0,0.0,0.0,2,0,41.54843342024252,-91.84310106859134,10000.002040979063,155.9557438902402,-0.0015427375059654,0.0007549978164936,,9001.267247400965,11068.098492074974,150,8,2025-09-10,2025-09-26 15:28:54.189,HH,C,1059727650,HAWK11,1,1,73,2,1,1,225,2,1,0,0,12,1,225,2,1,-144936.54919608062,-4790507.630830611,4199397.071745396,3.09414,1.70617,-0.872068,-13.0,77.75,88.625,-0.171875,-6.9375,7.01562,0.0371094,0.0078125,0.015625,4,0,41.41580847931101,-91.73295207902456,11072.240288190576,-6.090405864280024,1.7599711967711218,4.386245929470872,198.093,9001.267247400965,11068.098492074974,150,True,9.3693995789162,False,163.42208318050706,171.98674409024997,False,24.55934966589694,True,False
8,1970-07-23 09:59:41.354275961,2025-09-10,2025-09-26 15:28:55.427,HH,C,1780917606,JASSM,3,101,76,2,2,1,225,9,2,0,1,26,0,0,0,0,-153785.52771170562,-4780280.157197799,4210153.300261021,-2.71054,-1.0107,0.752513,36.625,-58.25,-64.5,0.0,0.0,0.0,0.0,0.0,0.0,2,0,41.547617685088646,-91.84261664843228,9999.997361165477,155.95242310180782,-0.0023246906600815,0.0024919972705384,,9001.267247400965,11068.098492074974,150,8,2025-09-10,2025-09-26 15:28:55.391,HH,C,1061000182,HAWK11,1,1,73,2,1,1,225,2,1,0,0,12,1,225,2,1,-144949.70935233062,-4790423.920869674,4199492.337370396,-3.13536,1.68431,-0.875232,-11.875,77.75,89.125,-0.09375,-6.95312,7.0,0.0273438,0.00390625,0.0117188,4,0,41.416947144865,-91.73313960076833,11074.116776177718,-5.270458235780039,1.8482153663344825,6.528009858007808,198.704,9001.267247400965,11068.098492074974,150,True,9.253982326471212,False,162.85592889110038,171.76156623112524,False,25.355268142315424,True,False
8,1970-07-23 09:59:41.363014562,2025-09-10,2025-09-26 15:28:56.301,HH,C,1782229614,JASSM,3,101,76,2,2,1,225,9,2,0,1,26,0,0,0,0,-153745.23278983062,-4780344.434541549,4210082.270964146,-2.71054,-1.0107,0.752513,36.625,-58.25,-64.5,0.0,0.0,0.0,0.0,0.0,0.0,2,0,41.54676355592032,-91.8421094256652,10000.004386188712,155.9527595106005,-0.0013900041882558,0.002490609642265,,9001.267247400965,11068.098492074974,150,8,2025-09-10,2025-09-26 15:28:56.391,HH,C,1062312480,HAWK11,1,1,73,2,1,1,225,2,1,0,0,12,1,225,2,1,-144962.04333670562,-4790337.257783736,4199591.095182896,-3.08531,1.66111,-0.870247,-10.5,78.125,89.875,-0.3125,-7.15625,7.125,0.0175781,-0.00195312,0.0117188,4,0,41.4181270986949,-91.7333183243785,11076.257453156935,-4.448252588099673,1.4807013120568868,8.400941764988259,199.339,9001.267247400965,11068.098492074974,150,True,9.134336170823948,False,162.1568123856654,171.51796142776288,False,26.300057843016496,True,False
8,1970-07-23 09:59:41.374014459,2025-09-10,2025-09-26 15:28:57.401,HH,C,1783482314,JASSM,3,101,76,2,2,1,225,9,2,0,1,26,0,0,0,0,-153706.76013358062,-4780405.801729049,4210014.448698521,-2.71054,-1.0107,0.752513,36.625,-58.25,-64.5,0.0,0.0,0.0,0.0,0.0,0.0,2,0,41.54594803623442,-91.84162515487948,9999.99692788352,155.95308069149314,-0.0004975740080261,0.0024892778520865,,9001.267247400965,11068.098492074974,150,8,2025-09-10,2025-09-26 15:28:57.501,HH,C,1063664546,HAWK11,1,1,73,2,1,1,225,2,1,0,0,12,1,225,2,1,-144972.99841483062,-4790248.799775924,4199692.579557896,-3.13766,1.62487,-0.878012,-9.0,78.25,90.375,-0.265625,-7.3125,7.29688,-0.0351562,0.0,0.0,4,0,41.41933638129435,-91.7334812256786,11079.808493646982,-3.085270709321968,1.8232943522104157,3.848349089376796,199.889,9001.267247400965,11068.098492074974,150,True,9.01626404414208,False,161.4180769671624,171.2603563669235,False,27.298502940326642,True,False
8,1970-07-23 09:59:41.384014107,2025-09-10,2025-09-26 15:28:58.401,HH,C,1784675472,JASSM,3,101,76,2,2,1,225,9,2,0,1,26,0,0,0,0,-153670.11657889312,-4780464.252900924,4209949.851042271,-2.71054,-1.0107,0.752513,36.625,-58.25,-64.5,0.0,0.0,0.0,0.0,0.0,0.0,2,0,41.54517127837588,-91.84116391844638,9999.998673056196,155.95338659059232,0.0003524353704384,0.002488006374042,,9001.267247400965,11068.098492074974,150,8,2025-09-10,2025-09-26 15:28:58.595,HH,C,1064698478,HAWK11,1,1,73,2,1,1,225,2,1,0,0,12,1,225,2,1,-144980.45349295562,-4790180.311494674,4199771.966276646,-3.13785,1.61749,-0.8783,-8.375,78.0,91.125,-0.109375,-7.20312,7.28125,0.0117188,0.00390625,-0.0136719,4,0,41.42027833330761,-91.73359508450744,11084.252156553386,-2.814607475873564,1.8243640295020185,3.520514625093871,200.121,9001.267247400965,11068.098492074974,150,True,8.915563469979498,False,161.08528240634334,171.0423022614258,False,27.85732819326388,True,False
8,1970-07-23 09:59:41.394293254,2025-09-10,2025-09-26 15:28:59.429,HH,C,1785868668,JASSM,3,101,76,2,2,1,225,9,2,0,1,26,0,0,0,0,-153633.47107108062,-4780522.706025924,4209885.249479771,-2.71054,-1.0107,0.752609,36.625,-58.25,-64.5,0.0,0.0,0.0,0.0,0.0,0.0,2,0,41.54439448097495,-91.84070266891752,10000.001158278954,155.9559881709023,-0.0037898727406274,0.0024866842249692,,9001.267247400965,11068.098492074974,150,8,2025-09-10,2025-09-26 15:28:59.501,HH,C,1066010776,HAWK11,1,1,73,2,1,1,225,2,1,0,0,12,1,225,2,1,-144988.71325858062,-4790093.971650924,4199872.653776646,-3.13479,1.61106,-0.878779,-7.375,78.0,91.875,-0.078125,-7.09375,7.20312,-0.00195312,0.0117188,0.0175781,4,0,41.42147011693877,-91.73372502006714,11091.098292643928,-2.5784983917511552,1.8400006338702288,3.420565258341759,200.085,9001.267247400965,11068.098492074974,150,True,8.802033848261114,False,160.57607165545934,170.76982589155733,False,28.643232273030147,True,False
8,1970-07-23 09:59:41.405015305,2025-09-10,2025-09-26 15:29:00.501,HH,C,1787180940,JASSM,3,101,76,2,2,1,225,9,2,0,1,26,0,0,0,0,-153593.16931326812,-4780586.989229049,4209814.200651646,-2.71054,-1.0107,0.752609,36.625,-58.25,-64.5,0.0,0.0,0.0,0.0,0.0,0.0,2,0,41.543540177689366,-91.84019541243124,10000.000518309382,155.9563245807349,-0.0028550091813859,0.0024853241434297,,9001.267247400965,11068.098492074974,150,8,2025-09-10,2025-09-26 15:29:00.595,HH,C,1067323076,HAWK11,1,1,73,2,1,1,225,2,1,0,0,12,1,225,2,1,-144996.39294608062,-4790008.437471236,4199973.171354771,-3.10852,1.5847,-0.882039,-6.625,78.0,92.25,-0.21875,-7.25,7.29688,0.0136719,0.00390625,0.00390625,4,0,41.42265606257542,-91.73384773657864,11099.5226464341,-1.6088970924176105,1.9864057952782277,3.793400196651498,200.378,9001.267247400965,11068.098492074974,150,True,8.684160631728089,False,160.20467320059998,170.4839577671236,False,29.30216155303277,True,False
8,1970-07-23 09:59:41.415015437,2025-09-10,2025-09-26 15:29:01.501,HH,C,1788433516,JASSM,3,101,76,2,2,1,225,9,2,0,1,26,0,0,0,0,-153554.69958670562,-4780648.346650924,4209746.382292271,-2.71054,-1.0107,0.752609,36.625,-58.25,-64.5,0.0,0.0,0.0,0.0,0.0,0.0,2,0,41.54272473348976,-91.83971122857685,9999.997864131625,155.9566456836179,-0.0019626670044107,0.0024840357186387,,9001.267247400965,11068.098492074974,150,8,2025-09-10,2025-09-26 15:29:01.689,HH,C,1068675140,HAWK11,1,1,73,2,1,1,225,2,1,0,0,12,1,225,2,1,-145003.32849295562,-4789919.508760299,4200078.438932896,-3.09644,1.57339,-0.88712,-5.625,77.875,92.75,-0.1875,-7.17188,7.10938,-0.00390625,0.0,0.0117188,4,0,41.42389439554952,-91.733962792473,11109.864326787065,-1.1897411587664113,2.266797879473605,3.999666904237692,200.415,9001.267247400965,11068.098492074974,150,True,8.566595210944245,False,159.708776344639,170.17937234460777,False,30.105225705761143,False,False
8,1970-07-23 09:59:41.426037351,2025-09-10,2025-09-26 15:29:02.603,HH,C,1789686346,JASSM,3,101,76,2,2,1,225,9,2,0,1,26,0,0,0,0,-153516.22302420562,-4780709.717744674,4209678.550261021,-2.71054,-1.0107,0.752609,36.625,-58.25,-64.5,0.0,0.0,0.0,0.0,0.0,0.0,2,0,41.54190911479949,-91.83922696978895,10000.00354984696,155.95696683101676,-0.0010701407559937,0.002482736596317,,9001.267247400965,11068.098492074974,150,8,2025-09-10,2025-09-26 15:29:02.501,HH,C,1069589774,HAWK11,1,1,73,2,1,1,225,2,1,0,0,12,1,225,2,1,-145007.58630545562,-4789859.830049361,4200149.604948521,-3.07276,1.55287,-0.891626,-5.125,77.5,93.125,-0.28125,-7.21875,7.26562,0.0234375,0.00195312,0.00976562,4,0,41.4247290185852,-91.73403526824784,11117.914736236777,-0.4444067264718475,2.513211638777312,4.474582561053078,200.635,9001.267247400965,11068.098492074974,150,True,8.470429300408139,False,159.44774569664335,169.94729881079752,False,30.601306520050514,False,False
8,1970-07-23 09:59:41.436029489,2025-09-10,2025-09-26 15:29:03.602,HH,C,1790938854,JASSM,3,101,76,2,2,1,225,9,2,0,1,26,0,0,0,0,-153477.75622733062,-4780771.069307174,4209610.733854771,-2.71054,-1.0107,0.752609,36.625,-58.25,-64.5,0.0,0.0,0.0,0.0,0.0,0.0,2,0,41.54109371383726,-91.83874284759489,10000.001135185332,155.95728788265254,-0.0001778531296034,0.002481441989978,,9001.267247400965,11068.098492074974,150,8,2025-09-10,2025-09-26 15:29:03.947,HH,C,1070902072,HAWK11,1,1,73,2,1,1,225,2,1,0,0,12,1,225,2,1,-145012.54333670562,-4789774.894502486,4200251.464323521,-3.04351,1.54136,-0.897091,-4.0,77.375,93.5,-0.078125,-7.17188,7.17188,0.0175781,0.00390625,0.0175781,4,0,41.42592094217796,-91.734125240785,11130.545836030988,-0.029812267325157,2.825467002117216,5.655335422451262,200.598,9001.267247400965,11068.098492074974,150,True,8.356239780496514,False,158.899196424529,169.63146340876335,False,31.466750462315513,False,False
8,1970-07-23 09:59:41.447012543,2025-09-10,2025-09-26 15:29:04.701,HH,C,1792251588,JASSM,3,101,76,2,2,1,225,9,2,0,1,26,0,0,0,0,-153437.43982108062,-4780835.370088424,4209539.653776646,-2.71054,-1.0107,0.752609,36.625,-58.25,-64.5,0.0,0.0,0.0,0.0,0.0,0.0,2,0,41.540239088869576,-91.8382354605706,9999.995994269277,155.95762435709264,0.0007573519369821,0.0024800789859417,,9001.267247400965,11068.098492074974,150,8,2025-09-10,2025-09-26 15:29:04.707,HH,C,1071856470,HAWK11,1,1,73,2,1,1,225,2,1,0,0,12,1,225,2,1,-145015.41638358062,-4789712.816377486,4200326.436979771,-3.0183,1.52401,-0.896132,-3.125,77.25,93.75,-0.28125,-7.1875,7.1875,0.015625,0.00976562,0.00390625,4,0,41.42679577893936,-91.73418203922554,11140.867639628212,0.5918823474533575,2.7750663084260725,6.353708459025398,200.561,9001.267247400965,11068.098492074974,150,True,8.256300993041311,False,158.47418292095225,169.37009369594824,False,32.15378364763557,False,False
8,1970-07-23 09:59:41.458034044,2025-09-10,2025-09-26 15:29:05.803,HH,C,1793563554,JASSM,3,101,76,2,2,1,225,9,2,0,1,26,0,0,0,0,-153397.14587576812,-4780899.633760299,4209468.616667271,-2.71054,-1.0107,0.752705,36.625,-58.25,-64.5,0.0,0.0,0.0,0.0,0.0,0.0,2,0,41.53938496802924,-91.83772837006278,10000.000592118531,155.9602548803636,-0.0032972479563673,0.0024786966151962,,9001.267247400965,11068.098492074974,150,8,2025-09-10,2025-09-26 15:29:05.892,HH,C,1073725502,HAWK11,1,1,73,2,1,1,225,2,1,0,0,12,1,225,2,1,-145018.65857108062,-4789590.873994674,4200474.474089146,-3.00133,1.48384,-0.89642,-1.125,77.0,94.25,-0.171875,-7.10938,7.125,-0.0546875,0.0078125,0.0234375,4,0,41.42851984853823,-91.7342649136689,11162.640421874465,2.0299245300082425,2.8327480428122622,5.598764889210535,200.635,9001.267247400965,11068.098492074974,150,True,8.114076781752031,False,157.50858595033824,168.9030392924993,False,33.5873476564598,False,False
8,1970-07-23 09:59:41.469054463,2025-09-10,2025-09-26 15:29:06.905,HH,C,1794816254,JASSM,3,101,76,2,2,1,225,9,2,0,1,26,0,0,0,0,-153358.67321951812,-4780960.993135299,4209400.786589146,-2.71054,-1.01061,0.752705,36.625,-58.25,-64.5,0.0,0.0,0.0,0.0,0.0,0.0,2,0,41.53856942282576,-91.83724421237008,10000.002838796816,155.95693009579327,-0.0040814555794138,-0.0012810874297254,,9001.267247400965,11068.098492074974,150,8,2025-09-10,2025-09-26 15:29:07.095,HH,C,1075037800,HAWK11,1,1,73,2,1,1,225,2,1,0,0,12,1,225,2,1,-145019.17614920562,-4789505.770479049,4200578.468229771,-3.02367,1.46534,-0.893927,-0.125,76.875,94.625,-0.203125,-7.09375,7.125,-0.0390625,0.00585938,0.0078125,4,0,41.42972796998952,-91.73430189656342,11179.191281675488,2.699958347162076,2.724103894147184,3.5241251346942906,200.757,9001.267247400965,11068.098492074974,150,True,8.001326336369214,False,157.02215802571965,168.5399780617867,False,34.43733799441313,False,False
