Subject_cm,Timestamp,SampleDate_cm,SampleTime_cm,Configuration_cm,Scenario_cm,DisTime_cm,MarkingTxt_cm,Application_cm,EntId_cm,Site_cm,ExerciseId_cm,ForceId_cm,Category_cm,Country_cm,Domain_cm,Kind_cm,Extra_cm,Specific_cm,Subcategory_cm,AltCategory_cm,AltCountry_cm,AltDomain_cm,AltKind_cm,ECEF_X_cm,ECEF_Y_cm,ECEF_Z_cm,OriPhi_cm,OriPsi_cm,OriTheta_cm,LinVelX_cm,LinVelY_cm,LinVelZ_cm,LinAccX_cm,LinAccY_cm,LinAccZ_cm,AngVelX_cm,AngVelY_cm,AngVelZ_cm,DrAlg_cm,Appearance_cm,Latitude_cm,Longitude_cm,Altitude_cm,Heading_cm,Pitch_cm,Roll_cm,CalibratedAirspeed_cm,CM_Altitude_Lead_cm,CM_Altitude_Wing_cm,CM_Airspeed_cm,Subject_ac,SampleDate_ac,SampleTime_ac,Configuration_ac,Scenario_ac,DisTime_ac,MarkingTxt_ac,Application_ac,EntId_ac,Site_ac,ExerciseId_ac,ForceId_ac,Category_ac,Country_ac,Domain_ac,Kind_ac,Extra_ac,Specific_ac,Subcategory_ac,AltCategory_ac,AltCountry_ac,AltDomain_ac,AltKind_ac,ECEF_X_ac,ECEF_Y_ac,ECEF_Z_ac,OriPhi_ac,OriPsi_ac,OriTheta_ac,LinVelX_ac,LinVelY_ac,LinVelZ_ac,LinAccX_ac,LinAccY_ac,LinAccZ_ac,AngVelX_ac,AngVelY_ac,AngVelZ_ac,DrAlg_ac,Appearance_ac,Latitude_ac,Longitude_ac,Altitude_ac,Heading_ac,Pitch_ac,Roll_ac,CalibratedAirspeed_ac,CM_Altitude_Lead_ac,CM_Altitude_Wing_ac,CM_Airspeed_ac,Bank_Angle_Condition,distance_nm,Distance_Condition,angle_between_vel,angle_between_pos,Cone_Condition,angle_between_pos_nose,Nose_Cone_Condition,Intercept_Criteria
8,1970-07-23 09:59:40.823048998,2025-09-10,2025-09-26 15:28:02.304,HH,C,1717805104,JASSM,3,105,76,2,2,1,225,9,2,0,1,26,0,0,0,0,-188336.3363054556,-4786076.821260299,4202209.827604771,-2.30155,-0.153302,0.128183,93.5,-14.375,-12.0,0.0,0.0,0.0,0.0,0.0,0.0,2,0,41.452168103777936,-92.25347668031624,10000.004697699012,99.81568712491044,-0.0049192042190741,0.0023913997759815,,9001.267247400965,11068.098492074974,150,8,2025-09-10,2025-09-26 15:28:02.315,HH,C,1675006848,AMBUSH51,1,1,48,2,1,1,225,2,1,0,0,9,1,225,2,1,-142193.7240392653,-4794032.343178793,4194534.148115179,2.28877,2.65772,-0.453809,-80.5018,44.6697,43.7662,-0.101289,-7.13952,6.6563,0.00314898,-0.000252792,-0.00519212,4,0,41.3624994092357,-91.69892729182484,8993.31704015414,-53.86836644960466,-0.3599898676494803,-6.4512270310784,178.699,9001.267247400965,11068.098492074974,150,True,25.512118020579564,False,153.43456697213244,177.67838457551082,False,24.36921386709873,True,False
8,1970-07-23 09:59:40.835043065,2025-09-10,2025-09-26 15:28:03.504,HH,C,1719117456,JASSM,3,105,76,2,2,1,225,9,2,0,1,26,0,0,0,0,-188233.51013358065,-4786092.719697799,4202196.415495396,-2.30155,-0.153302,0.128183,93.5,-14.375,-12.125,0.0,0.0,0.0,0.0,0.0,0.0,2,0,41.45200707173592,-92.25224014102976,9999.999864366917,99.8165057059546,-0.0039785207237841,0.0023907316276607,,9001.267247400965,11068.098492074974,150,8,2025-09-10,2025-09-26 15:28:03.450,HH,C,1676358914,AMBUSH51,1,1,48,2,1,1,225,2,1,0,0,9,1,225,2,1,-142285.58702342922,-4793981.412834835,4194583.101874099,2.28511,2.66486,-0.445843,-81.581,44.4462,43.1836,-0.0981211,-7.21348,6.82736,0.000346419,0.00450137,-0.0142032,4,0,41.36311666618946,-91.7000422748866,8980.804499722723,-54.44931277271897,-0.4463260069742326,-6.478851490050988,179.457,9001.267247400965,11068.098492074974,150,True,25.398970280892026,False,154.11273886190472,177.79397915486496,False,23.80090306341997,True,False
8,1970-07-23 09:59:40.845064613,2025-09-10,2025-09-26 15:28:04.506,HH,C,1720429806,JASSM,3,105,76,2,2,1,225,9,2,0,1,26,0,0,0,0,-188130.68200858065,-4786108.616182174,4202183.005339146,-2.30155,-0.153302,0.128183,93.5,-14.375,-12.125,0.0,0.0,0.0,0.0,0.0,0.0,2,0,41.45184605165678,-92.25100358543152,9999.999936177755,99.81732429517956,-0.0030378249450351,0.0023900911833488,,9001.267247400965,11068.098492074974,150,8,2025-09-10,2025-09-26 15:28:04.515,HH,C,1677631446,AMBUSH51,1,1,48,2,1,1,225,2,1,0,0,9,1,225,2,1,-142373.76252148332,-4793933.538554691,4194629.16922546,2.27494,2.67509,-0.440458,-82.5258,43.8587,42.8929,0.0288841,-7.38668,6.73687,0.00404156,0.00717493,-0.00377316,4,0,41.36369689822008,-91.70111216354078,8969.293126312223,-55.04842695193304,-0.3126884225998673,-6.806618471021658,180.08,9001.267247400965,11068.098492074974,150,True,25.288290768324977,False,154.70386036168117,177.83960657654598,False,23.255386023193317,True,False
8,1970-07-23 09:59:40.858342156,2025-09-10,2025-09-26 15:28:05.834,HH,C,1721742158,JASSM,3,105,76,2,2,1,225,9,2,0,1,26,0,0,0,0,-188027.8558367056,-4786124.512666549,4202169.593229771,-2.30155,-0.153302,0.128183,93.5,-14.375,-12.125,0.0,0.0,0.0,0.0,0.0,0.0,2,0,41.45168500465044,-92.24976705929473,10000.00160563769,99.81814286228678,-0.0020971440570641,0.0023894342728406,,9001.267247400965,11068.098492074974,150,8,2025-09-10,2025-09-26 15:28:05.947,HH,C,1679341410,AMBUSH51,1,1,48,2,1,1,225,2,1,0,0,9,1,225,2,1,-142493.2229335025,-4793870.837326371,4194689.868920976,2.27107,2.68741,-0.430831,-83.9582,43.1705,42.2508,0.0262285,-7.29236,6.79815,0.011798,0.00698976,-0.00748494,4,0,41.36445858030481,-91.70256091756424,8955.308381458228,-55.89345760486708,-0.2784563376761212,-6.726153452681619,181.07,9001.267247400965,11068.098492074974,150,True,25.15869960869782,False,155.59464847698152,177.9004894603134,False,22.429416140036764,True,False
8,1970-07-23 09:59:40.867065195,2025-09-10,2025-09-26 15:28:06.706,HH,C,1723054510,JASSM,3,105,76,2,2,1,225,9,2,0,1,26,0,0,0,0,-187925.0277117056,-4786140.407197799,4202156.179167271,-2.30155,-0.153302,0.128183,93.5,-14.375,-12.125,0.0,0.0,0.0,0.0,0.0,0.0,2,0,41.45152394325779,-92.2485305168464,9999.99969647524,99.818961437576,-0.0011564463926793,0.0023887791032464,,9001.267247400965,11068.098492074974,150,8,2025-09-10,2025-09-26 15:28:06.747,HH,C,1680295810,AMBUSH51,1,1,48,2,1,1,225,2,1,0,0,9,1,225,2,1,-142560.76520901284,-4793836.527814449,4194723.220979977,2.2658,2.69551,-0.424662,-84.7403,42.6531,41.8909,-0.120326,-7.2155,6.86716,-0.00821731,0.00115785,-0.00927841,4,0,41.36487590422531,-91.70337964577692,8948.118690716297,-56.44381543685861,-0.2457548751113887,-6.833169358753984,181.436,9001.267247400965,11068.098492074974,150,True,25.061139098997884,False,156.12325153313057,177.93147698852255,False,21.932491921862926,True,False
8,1970-07-23 09:59:40.879064448,2025-09-10,2025-09-26 15:28:07.906,HH,C,1724426718,JASSM,3,105,76,2,2,1,225,9,2,0,1,26,0,0,0,0,-187817.5120867056,-4786157.026338424,4202142.151823521,-2.30145,-0.153206,0.128183,93.5,-14.375,-12.125,0.0,0.0,0.0,0.0,0.0,0.0,2,0,41.45135551319145,-92.24723761217044,9999.999964419929,99.81618095140573,-0.0042298017763477,0.0071774865756407,,9001.267247400965,11068.098492074974,150,8,2025-09-10,2025-09-26 15:28:07.980,HH,C,1681767174,AMBUSH51,1,1,48,2,1,1,225,2,1,0,0,9,1,225,2,1,-142665.45642093025,-4793784.7543878015,4194773.783803061,2.26052,2.70718,-0.419533,-85.8804,41.6401,41.4654,-0.155437,-7.44748,6.96782,-0.000687636,0.006299,-0.00842537,4,0,41.36550673204533,-91.70464820468518,8937.986657742622,-57.08955166272292,-0.0380106940275765,-6.8596215309504,182.011,9001.267247400965,11068.098492074974,150,True,24.938577823249812,False,156.93433785238938,177.98011288671128,False,21.166501289177155,True,False
8,1970-07-23 09:59:40.901029251,2025-09-10,2025-09-26 15:28:10.102,HH,C,1727051214,JASSM,3,105,76,2,2,1,225,9,2,0,1,26,0,0,0,0,-187611.87341483065,-4786188.807588424,4202115.321745396,-2.30145,-0.153206,0.128279,93.5,-14.375,-12.125,0.0,0.0,0.0,0.0,0.0,0.0,2,0,41.45103335194775,-92.24476477218914,10000.003171249651,99.82190844623,-0.006014994236315,0.0071757595042871,,9001.267247400965,11068.098492074974,150,8,2025-09-10,2025-09-26 15:28:09.947,HH,C,1684113406,AMBUSH51,1,1,48,2,1,1,225,2,1,0,0,9,1,225,2,1,-142836.69389808446,-4793703.871287039,4194854.055155881,2.26015,2.72448,-0.407887,-87.6145,40.2817,40.5073,-0.152075,-7.30194,6.93704,0.0186036,-0.00814865,-0.0107556,4,0,41.36649949827312,-91.70672181795372,8925.512260172354,-58.20753403862683,0.11060303439254,-6.483515867691292,183.074,9001.267247400965,11068.098492074974,150,True,24.722374477429533,False,158.2032955380306,178.0544636387094,False,19.972441172939448,True,False
8,1970-07-23 09:59:40.917910468,2025-09-10,2025-09-26 15:28:11.791,HH,C,1725739144,JASSM,3,105,76,2,2,1,225,9,2,0,1,26,0,0,0,0,-187714.67810233065,-4786172.918916549,4202128.735807896,-2.30145,-0.153206,0.128279,93.5,-14.375,-12.125,0.0,0.0,0.0,0.0,0.0,0.0,2,0,41.45119442442198,-92.24600101311692,10000.000009311634,99.8210900784217,-0.0069554780458969,0.0071764145611989,,9001.267247400965,11068.098492074974,150,8,2025-09-10,2025-09-26 15:28:11.914,HH,C,1686459636,AMBUSH51,1,1,48,2,1,1,225,2,1,0,0,9,1,225,2,1,-143009.6462188919,-4793626.138288689,4194932.537496492,2.30283,2.73016,-0.409846,-88.851,39.1879,40.0031,-0.0688906,-7.3881,6.94595,0.0398028,0.00141793,0.00114537,4,0,41.36746111118772,-91.70881485289674,8917.059277665874,-58.34554268148175,0.4010772306368519,-3.908876270963861,183.966,9001.267247400965,11068.098492074974,150,True,24.674780898236435,False,159.07435454259567,178.13809535545798,False,19.18198710471399,True,False
8,1970-07-23 09:59:40.917933905,2025-09-10,2025-09-26 15:28:11.793,HH,C,1728423218,JASSM,3,105,76,2,2,1,225,9,2,0,1,26,0,0,0,0,-187504.3714617056,-4786205.418916549,4202101.292448521,-2.30145,-0.153206,0.128279,93.5,-14.375,-12.125,0.0,0.0,0.0,0.0,0.0,0.0,2,0,41.45086490969042,-92.24347205407184,9999.99931110079,99.82276419805764,-0.0050315404333241,0.0071750782243994,,9001.267247400965,11068.098492074974,150,8,2025-09-10,2025-09-26 15:28:11.914,HH,C,1686459636,AMBUSH51,1,1,48,2,1,1,225,2,1,0,0,9,1,225,2,1,-143009.6462188919,-4793626.138288689,4194932.537496492,2.30283,2.73016,-0.409846,-88.851,39.1879,40.0031,-0.0688906,-7.3881,6.94595,0.0398028,0.00141793,0.00114537,4,0,41.36746111118772,-91.70881485289674,8917.059277665874,-58.34554268148175,0.4010772306368519,-3.908876270963861,183.966,9001.267247400965,11068.098492074974,150,True,24.559527314274085,False,159.07435454259567,178.12962239338646,False,19.174141440281513,True,False
8,1970-07-23 09:59:40.924022712,2025-09-10,2025-09-26 15:28:12.402,HH,C,1729735570,JASSM,3,105,76,2,2,1,225,9,2,0,1,26,0,0,0,0,-187401.54528983065,-4786221.307588424,4202087.872526646,-2.30145,-0.153206,0.128279,93.5,-14.375,-12.125,0.0,0.0,0.0,0.0,0.0,0.0,2,0,41.45070377551456,-92.24223556886189,9999.99923553166,99.82358272222368,-0.0040908610291161,0.0071744218922482,,9001.267247400965,11068.098492074974,150,8,2025-09-10,2025-09-26 15:28:12.347,HH,C,1686976602,AMBUSH51,1,1,48,2,1,1,225,2,1,0,0,9,1,225,2,1,-143048.87007088176,-4793609.157898968,4194949.918512191,2.31565,2.7347,-0.407707,-89.0652,38.9505,39.9102,-0.111534,-7.38256,6.82502,0.0406559,-0.00401035,-0.0207675,4,0,41.36767251011703,-91.70928930987633,8915.835384978556,-58.60234583165694,0.4798975700998165,-3.0732534590935017,184.174,9001.267247400965,11068.098492074974,150,True,24.479702656371863,False,159.24055053682028,178.1428086908051,False,19.020606418593644,True,False
8,1970-07-23 09:59:40.934042153,2025-09-10,2025-09-26 15:28:13.404,HH,C,1731047920,JASSM,3,105,76,2,2,1,225,9,2,0,1,26,0,0,0,0,-187298.71716483065,-4786237.194307174,4202074.452604771,-2.30145,-0.153206,0.128279,93.5,-14.25,-12.125,0.0,0.0,0.0,0.0,0.0,0.0,2,0,41.45054264012614,-92.24099906734033,9999.99982378044,99.82440125456944,-0.0031501670938235,0.0071737802826637,,9001.267247400965,11068.098492074974,150,8,2025-09-10,2025-09-26 15:28:13.314,HH,C,1688129834,AMBUSH51,1,1,48,2,1,1,225,2,1,0,0,9,1,225,2,1,-143135.19409820123,-4793571.736239101,4194988.211034084,2.31439,2.74841,-0.398063,-89.4497,38.4371,39.978,-0.210538,-7.25203,6.91943,-0.0159467,0.00600148,-0.00850443,4,0,41.36813832730246,-91.71033352615008,8913.107215947573,-59.50594245524627,0.5915877019978899,-2.8459173873325807,183.77,9001.267247400965,11068.098492074974,150,True,24.37168951424749,False,159.43276858834307,178.14935347923353,False,18.809918848755732,True,False
8,1970-07-23 09:59:40.945057185,2025-09-10,2025-09-26 15:28:14.505,HH,C,1732300710,JASSM,3,105,76,2,2,1,225,9,2,0,1,26,0,0,0,0,-187200.55700858065,-4786252.358369674,4202061.640104771,-2.30145,-0.153206,0.128279,93.5,-14.25,-12.125,0.0,0.0,0.0,0.0,0.0,0.0,2,0,41.45038880388139,-92.2398187042342,9999.998176289697,99.82518262228022,-0.0022521766601082,0.0071731643843106,,9001.267247400965,11068.098492074974,150,8,2025-09-10,2025-09-26 15:28:14.515,HH,C,1689561432,AMBUSH51,1,1,48,2,1,1,225,2,1,0,0,9,1,225,2,1,-143242.39205287947,-4793525.889963984,4195035.584825788,2.3187,2.74345,-0.40333,-89.9439,38.0455,39.8914,-0.0387134,-7.47326,6.78105,0.0173053,-0.00900377,0.00121403,4,0,41.36871185480474,-91.71163004165692,8910.876724529413,-59.108560207808736,0.6245780015801092,-2.705357068307226,184.259,9001.267247400965,11068.098492074974,150,True,24.25382640366081,False,159.72066983096474,178.19345298556567,False,18.565349920150265,True,False
8,1970-07-23 09:59:40.956039666,2025-09-10,2025-09-26 15:28:15.603,HH,C,1733672624,JASSM,3,105,76,2,2,1,225,9,2,0,1,26,0,0,0,0,-187093.06091483065,-4786268.963838424,4202047.608854771,-2.30145,-0.153206,0.128279,93.5,-14.25,-12.125,0.0,0.0,0.0,0.0,0.0,0.0,2,0,41.45022032636941,-92.23852608448328,9999.999871241836,99.82603829804695,-0.0012687799649197,0.0071724936269208,,9001.267247400965,11068.098492074974,150,8,2025-09-10,2025-09-26 15:28:15.649,HH,C,1690913498,AMBUSH51,1,1,48,2,1,1,225,2,1,0,0,9,1,225,2,1,-143345.06942292102,-4793482.725962633,4195080.636377205,2.32181,2.75035,-0.394687,-90.2832,37.8453,39.679,-0.148529,-7.19631,6.71731,-0.00983809,0.00770756,-0.00164887,4,0,41.36925453839508,-91.71287163669398,8909.887498194828,-59.71625896373617,0.5277955225277845,-2.3797376064448,184.333,9001.267247400965,11068.098492074974,150,True,24.13365481238463,False,159.95147615408936,178.23469689665336,False,18.378641804650243,True,False
8,1970-07-23 09:59:40.967041743,2025-09-10,2025-09-26 15:28:16.704,HH,C,1734925582,JASSM,3,105,76,2,2,1,225,9,2,0,1,26,0,0,0,0,-186994.88903983065,-4786284.129854049,4202034.792448521,-2.30145,-0.15311,0.128279,93.5,-14.25,-12.125,0.0,0.0,0.0,0.0,0.0,0.0,2,0,41.45006642949173,-92.23734559208155,10000.004203361652,99.82318347169304,-0.0044276117558939,0.0064692837863501,,9001.267247400965,11068.098492074974,150,8,2025-09-10,2025-09-26 15:28:16.514,HH,C,1691947430,AMBUSH51,1,1,48,2,1,1,225,2,1,0,0,9,1,225,2,1,-143423.17470532472,-4793449.908997497,4195114.749376791,2.31389,2.75011,-0.398139,-90.4864,37.5385,39.6684,-0.0181705,-7.20192,6.76204,0.0113236,-0.0019027,0.0125866,4,0,41.36966617744625,-91.71381610890752,8908.841905478479,-59.56933790813572,0.6609123914433811,-2.8373123959566104,184.455,9001.267247400965,11068.098492074974,150,True,24.033275749893484,False,160.10274685015628,178.26543533535468,False,18.25694814668022,True,False
8,1970-07-23 09:59:40.981532837,2025-09-10,2025-09-26 15:28:18.153,HH,C,1736297324,JASSM,3,105,76,2,2,1,225,9,2,0,1,26,0,0,0,0,-186887.4066179556,-4786300.729463424,4202020.759245396,-2.30145,-0.15311,0.128279,93.5,-14.25,-12.125,0.0,0.0,0.0,0.0,0.0,0.0,2,0,41.44989794271007,-92.23605315127897,10000.00038623757,99.82403902358064,-0.0034443409204551,0.0064685475188155,,9001.267247400965,11068.098492074974,150,8,2025-09-10,2025-09-26 15:28:18.147,HH,C,1693895994,AMBUSH51,1,1,48,2,1,1,225,2,1,0,0,9,1,225,2,1,-143571.37664812128,-4793388.903292977,4195179.02058824,2.32633,2.7558,-0.394513,-90.9825,37.1284,39.5071,-0.254782,-7.35197,6.9514,-0.000937308,-0.00669431,0.00384806,4,0,41.37043662856511,-91.7156077918146,8908.987815506749,-59.930193197231134,0.7257336630077456,-2.0031332788076024,184.76,9001.267247400965,11068.098492074974,150,True,23.88616666935832,False,160.41897724886064,178.32596563181812,False,18.00231214022746,True,False
8,1970-07-23 09:59:40.989042829,2025-09-10,2025-09-26 15:28:18.904,HH,C,1737609676,JASSM,3,105,76,2,2,1,225,9,2,0,1,26,0,0,0,0,-186784.5784929556,-4786316.610322799,4202007.333464146,-2.30145,-0.15311,0.128375,93.5,-14.25,-12.125,0.0,0.0,0.0,0.0,0.0,0.0,2,0,41.44973673620568,-92.2348166830984,10000.002106299977,99.82894808573312,-0.0061700225366886,0.0064675314045747,,9001.267247400965,11068.098492074974,150,8,2025-09-10,2025-09-26 15:28:19.080,HH,C,1695009460,AMBUSH51,1,1,48,2,1,1,225,2,1,0,0,9,1,225,2,1,-143655.55953498904,-4793354.678516265,4195215.197430869,2.33845,2.75224,-0.395124,-91.1251,36.9791,39.39,-0.191016,-6.93553,6.66573,0.0124804,-0.00593906,0.00394585,4,0,41.37086947238191,-91.71662538384352,8909.413495985096,-59.772473848890456,0.6192219061968202,-1.385097854202706,184.846,9001.267247400965,11068.098492074974,150,True,23.779783626621235,False,160.54431729089904,178.35844282212548,False,17.911618737095157,True,False
8,1970-07-23 09:59:41.000781720,2025-09-10,2025-09-26 15:28:20.078,HH,C,1738862522,JASSM,3,105,76,2,2,1,225,9,2,0,1,26,0,0,0,0,-186686.4144304556,-4786331.770479049,4201994.513151646,-2.30145,-0.15311,0.128375,93.5,-14.25,-12.125,0.0,0.0,0.0,0.0,0.0,0.0,2,0,41.44958280796829,-92.23363630434412,10000.000491084696,99.82972945139146,-0.0052719939660974,0.0064669000045345,,9001.267247400965,11068.098492074974,150,8,2025-09-10,2025-09-26 15:28:19.947,HH,C,1696043392,AMBUSH51,1,1,48,2,1,1,225,2,1,0,0,9,1,225,2,1,-143734.89599535736,-4793322.306437912,4195249.174760385,2.35964,2.7522,-0.392555,-91.1504,37.2917,39.0674,-0.0904831,-6.89095,6.3532,0.0117085,-0.00983185,-0.00722487,4,0,41.371277299502125,-91.71758444731913,8909.276405050228,-59.87503494071609,0.5138406411463716,-0.1729089241554163,184.919,9001.267247400965,11068.098492074974,150,True,23.678843319276922,False,160.57567164319383,178.38907502377953,False,17.921285141622853,True,False
8,1970-07-23 09:59:41.011044121,2025-09-10,2025-09-26 15:28:21.104,HH,C,1740234378,JASSM,3,105,76,2,2,1,225,9,2,0,1,26,0,0,0,0,-186578.92419608065,-4786348.368135299,4201980.476042271,-2.30145,-0.15311,0.128375,93.5,-14.25,-12.125,0.0,0.0,0.0,0.0,0.0,0.0,2,0,41.44941426659052,-92.2323437902706,10000.000362621451,99.83058504360928,-0.0042886525028475,0.0064662328897217,,9001.267247400965,11068.098492074974,150,8,2025-09-10,2025-09-26 15:28:21.180,HH,C,1697514758,AMBUSH51,1,1,48,2,1,1,225,2,1,0,0,9,1,225,2,1,-143846.83221690194,-4793276.222236009,4195296.720447219,2.37958,2.74394,-0.390946,-91.2536,37.8338,38.8965,-0.121935,-6.83507,6.39341,0.0152518,0.00785737,0.00436197,4,0,41.371852475651295,-91.71893776236354,8907.228332123648,-59.6289454391961,0.1426368470807774,0.7899650303241725,185.2,9001.267247400965,11068.098492074974,150,True,23.553433436342253,False,160.50270540857008,178.43329450521972,False,18.051986750328588,True,False
8,1970-07-23 09:59:41.022019809,2025-09-10,2025-09-26 15:28:22.201,HH,C,1741487508,JASSM,3,105,76,2,2,1,225,9,2,0,1,26,0,0,0,0,-186480.73669608065,-4786363.528291549,4201967.653776646,-2.30145,-0.15311,0.128375,93.5,-14.25,-12.125,0.0,0.0,0.0,0.0,0.0,0.0,2,0,41.44926030523264,-92.23116314307148,10000.003051179923,99.8313665819644,-0.003390415670329,0.0064656296198878,,9001.267247400965,11068.098492074974,150,8,2025-09-10,2025-09-26 15:28:22.048,HH,C,1698548690,AMBUSH51,1,1,48,2,1,1,225,2,1,0,0,9,1,225,2,1,-143925.77027675175,-4793243.249898284,4195330.2236539,2.40362,2.73789,-0.391747,-91.2008,38.5416,38.7104,-0.112569,-7.08475,6.47017,0.0171826,-0.00399162,0.0101689,4,0,41.37226072150583,-91.71989231211612,8904.567009423423,-59.36829979621562,-0.0480640507131273,2.035255330571705,185.713,9001.267247400965,11068.098492074974,150,True,23.45269427643534,False,160.33757246269366,178.46399192193294,False,18.26322157003039,True,False
8,1970-07-23 09:59:41.033024014,2025-09-10,2025-09-26 15:28:23.302,HH,C,1742799428,JASSM,3,105,76,2,2,1,225,9,2,0,1,26,0,0,0,0,-186377.9417742056,-4786379.397432174,4201954.226042271,-2.30145,-0.15311,0.128375,93.5,-14.25,-12.125,0.0,0.0,0.0,0.0,0.0,0.0,2,0,41.449099095042,-92.22992710142223,9999.997259288317,99.83218478653758,-0.0024500281965103,0.006464986763717,,9001.267247400965,11068.098492074974,150,8,2025-09-10,2025-09-26 15:28:23.514,HH,C,1700298422,AMBUSH51,1,1,48,2,1,1,225,2,1,0,0,9,1,225,2,1,-144059.7077118836,-4793186.120296555,4195387.928620741,2.45027,2.73344,-0.393223,-90.887,39.225,39.5701,-0.103106,-7.07901,6.55831,0.0195129,-0.00277239,-0.0105018,4,0,41.372966231349245,-91.72151238860648,8899.009528586907,-59.14152747225557,-0.1505882119732563,4.610436719951696,186.276,9001.267247400965,11068.098492074974,150,True,23.31658997462599,False,159.74517073588757,178.51992512515073,False,18.916886053805076,True,False
8,1970-07-23 09:59:41.048701929,2025-09-10,2025-09-26 15:28:24.870,HH,C,1744111924,JASSM,3,105,76,2,2,1,225,9,2,0,1,26,0,0,0,0,-186275.1019304556,-4786395.274385299,4201940.792448521,-2.30145,-0.15311,0.128375,93.5,-14.25,-12.125,0.0,0.0,0.0,0.0,0.0,0.0,2,0,41.448937795942,-92.2286905253322,9999.999291154352,99.83300334226786,-0.0015092285583864,0.0064643385377217,,9001.267247400965,11068.098492074974,150,8,2025-09-10,2025-09-26 15:28:24.713,HH,C,1701730020,AMBUSH51,1,1,48,2,1,1,225,2,1,0,0,9,1,225,2,1,-144167.944371347,-4793138.54913759,4195435.370773012,2.45359,2.72813,-0.398502,-90.603,40.0643,40.225,0.00159067,-7.18083,6.52674,0.00479681,-0.00316563,0.00104966,4,0,41.37355016564549,-91.7228221249385,8892.829170878485,-58.73030324960665,-0.1280427505361013,4.682084427762479,186.483,9001.267247400965,11068.098492074974,150,True,23.19560006489778,False,159.18708484459242,178.5660725321973,False,19.530667322624694,True,False
8,1970-07-23 09:59:41.055022036,2025-09-10,2025-09-26 15:28:25.502,HH,C,1745424130,JASSM,3,105,76,2,2,1,225,9,2,0,1,26,0,0,0,0,-186172.2855242056,-4786411.145479049,4201927.360807896,-2.30145,-0.153015,0.128375,93.5,-14.25,-12.125,0.0,0.0,0.0,0.0,0.0,0.0,2,0,41.44877652617383,-92.22745423822757,9999.99905897147,99.83018552457204,-0.0046255722567615,0.0057606091423276,,9001.267247400965,11068.098492074974,150,8,2025-09-10,2025-09-26 15:28:25.514,HH,C,1702684418,AMBUSH51,1,1,48,2,1,1,225,2,1,0,0,9,1,225,2,1,-144240.29898817564,-4793106.33533336,4195467.711082166,2.46292,2.72203,-0.404825,-90.4003,40.3885,40.8527,-0.292811,-7.35524,6.85089,0.00103718,-0.00158229,-0.00601396,4,0,41.373947193287,-91.72369782642971,8889.04290153274,-58.24802684348941,-0.0902345861489927,5.079512583667935,186.679,9001.267247400965,11068.098492074974,150,True,23.095968996008096,False,158.81918270233018,178.59678935573407,False,19.930921311902694,True,False
8,1970-07-23 09:59:41.071141350,2025-09-10,2025-09-26 15:28:27.114,HH,C,1746676828,JASSM,3,105,76,2,2,1,225,9,2,0,1,26,0,0,0,0,-186074.1331804556,-4786426.295869674,4201914.538542271,-2.30145,-0.153015,0.128375,93.5,-14.25,-12.125,0.0,0.0,0.0,0.0,0.0,0.0,2,0,41.44862256461666,-92.2262740388954,10000.002447488549,99.83096675662,-0.0037276575922114,0.005759943580086,,9001.267247400965,11068.098492074974,150,8,2025-09-10,2025-09-26 15:28:27.080,HH,C,1704553450,AMBUSH51,1,1,48,2,1,1,225,2,1,0,0,9,1,225,2,1,-144381.3606922652,-4793042.479903001,4195532.593363854,2.4522,2.72603,-0.41501,-89.9076,40.7138,42.3372,-0.37535,-7.6387,7.14246,-0.0255695,0.00187149,0.0200913,4,0,41.37473984194459,-91.72540549360632,8883.05661488805,-57.9949207585756,0.4770793518634432,4.557587495762783,186.911,9001.267247400965,11068.098492074974,150,True,22.957602609174362,False,158.07690810381175,178.6624926499913,False,20.736433981949503,True,False
8,1970-07-23 09:59:41.076022351,2025-09-10,2025-09-26 15:28:27.602,HH,C,1747929528,JASSM,3,105,76,2,2,1,225,9,2,0,1,26,0,0,0,0,-185975.97888358065,-4786441.444307174,4201901.714323521,-2.30145,-0.153015,0.128375,93.5,-14.25,-12.125,0.0,0.0,0.0,0.0,0.0,0.0,2,0,41.448468589851146,-92.22509382270697,10000.001757160944,99.83174799743824,-0.0028297261457486,0.0057592797624746,,9001.267247400965,11068.098492074974,150,8,2025-09-10,2025-09-26 15:28:27.446,HH,C,1704990884,AMBUSH51,1,1,48,2,1,1,225,2,1,0,0,9,1,225,2,1,-144414.9560870959,-4793027.221051887,4195548.317324647,2.44648,2.72343,-0.419192,-89.8245,40.843,42.5446,-0.234247,-7.68419,7.03872,-0.0181105,0.00522541,0.0119728,4,0,41.37493075324854,-91.72581221790983,8882.096440994057,-57.73050707098366,0.5548561707128554,4.17140939679773,186.911,9001.267247400965,11068.098492074974,150,True,22.88363382454313,False,157.9447217263485,178.67623444075647,False,20.884537617854736,True,False
8,1970-07-23 09:59:41.086042684,2025-09-10,2025-09-26 15:28:28.604,HH,C,1749182228,JASSM,3,105,76,2,2,1,225,9,2,0,1,26,0,0,0,0,-185877.8245867056,-4786456.592744674,4201888.888151646,-2.30145,-0.153015,0.128471,93.5,-14.25,-12.125,0.0,0.0,0.0,0.0,0.0,0.0,2,0,41.44831458979862,-92.22391361209976,10000.001974105944,99.83661984247097,-0.0055981162024789,0.0057583341194029,,9001.267247400965,11068.098492074974,150,8,2025-09-10,2025-09-26 15:28:28.714,HH,C,1706502014,AMBUSH51,1,1,48,2,1,1,225,2,1,0,0,9,1,225,2,1,-144527.77279015482,-4792975.750555772,4195602.367418809,2.43467,2.7264,-0.427663,-89.4364,40.798,43.5453,-0.344364,-7.67126,7.17722,-0.017039,0.00666935,-2.18462e-05,4,0,41.37558163320783,-91.72717813930277,8881.018023415298,-57.50572065076219,1.0130190472260847,3.56806721996542,187.155,9001.267247400965,11068.098492074974,150,True,22.762029715906312,False,157.50095923297926,178.7309149753535,False,21.381127470122955,True,False
8,1970-07-23 09:59:41.097042436,2025-09-10,2025-09-26 15:28:29.704,HH,C,1750434922,JASSM,3,105,76,2,2,1,225,9,2,0,1,26,0,0,0,0,-185779.67028983065,-4786471.739229049,4201876.061979771,-2.30145,-0.153015,0.128471,93.5,-14.25,-12.125,0.0,0.0,0.0,0.0,0.0,0.0,2,0,41.44816058926083,-92.22273340798088,10000.00254055053,99.83740107056065,-0.0047001850678414,0.0057577326745581,,9001.267247400965,11068.098492074974,150,8,2025-09-10,2025-09-26 15:28:29.514,HH,C,1707456414,AMBUSH51,1,1,48,2,1,1,225,2,1,0,0,9,1,225,2,1,-144599.31894930545,-4792943.150634194,4195637.259498835,2.42007,2.72577,-0.433663,-89.284,40.6655,44.0752,-0.285927,-7.57825,7.17345,-0.00598483,0.00927425,0.00427666,4,0,41.37599830298763,-91.72804437925832,8881.77427125437,-57.24341020855091,1.237782152535717,2.721790144523698,187.192,9001.267247400965,11068.098492074974,150,True,22.665194772862222,False,157.30970462241268,178.7652468852446,False,21.60611765142772,True,False
8,1970-07-23 09:59:41.107017784,2025-09-10,2025-09-26 15:28:30.701,HH,C,1751628354,JASSM,3,105,76,2,2,1,225,9,2,0,1,26,0,0,0,0,-185686.1605242056,-4786486.166963424,4201863.841276646,-2.30145,-0.153015,0.128471,93.5,-14.25,-12.125,0.0,0.0,0.0,0.0,0.0,0.0,2,0,41.44801386692061,-92.22160905569424,9999.999714151423,99.8381453256892,-0.0038447439239165,0.0057571618520708,,9001.267247400965,11068.098492074974,150,8,2025-09-10,2025-09-26 15:28:30.714,HH,C,1708888012,AMBUSH51,1,1,48,2,1,1,225,2,1,0,0,9,1,225,2,1,-144706.83952857263,-4792894.351336079,4195690.65064949,2.41259,2.72819,-0.440879,-88.9907,40.2133,44.9006,-0.318306,-7.63844,7.11076,-0.00146786,0.00376484,0.00153444,4,0,41.376629772782415,-91.72934612823111,8885.461905032793,-57.04694950885428,1.6234879443781016,2.3566345738889307,187.155,9001.267247400965,11068.098492074974,150,True,22.549237858739147,False,157.05668836522443,178.81936314527135,False,21.90989602479856,True,False
8,1970-07-23 09:59:41.117062272,2025-09-10,2025-09-26 15:28:31.706,HH,C,1752880672,JASSM,3,105,76,2,2,1,225,9,2,0,1,26,0,0,0,0,-185588.0355242056,-4786501.307588424,4201851.015104771,-2.30145,-0.153015,0.128471,93.5,-14.25,-12.125,0.0,0.0,0.0,0.0,0.0,0.0,2,0,41.447859870850245,-92.22042921535687,9999.998727731676,99.83892630831718,-0.0029470781619594,0.0057565428222013,,9001.267247400965,11068.098492074974,150,8,2025-09-10,2025-09-26 15:28:31.814,HH,C,1710200312,AMBUSH51,1,1,48,2,1,1,225,2,1,0,0,9,1,225,2,1,-144804.1217771701,-4792850.096469553,4195740.119927706,2.40122,2.72742,-0.443419,-88.7922,40.1559,45.5036,-0.207258,-7.52391,7.14455,-0.00467614,-0.000242389,0.00648001,4,0,41.37720955690165,-91.73052398022082,8891.074319948406,-56.91759852123549,1.7011344331325269,1.6903841311165084,187.07,9001.267247400965,11068.098492074974,150,True,22.436835421161064,False,156.7996049053783,178.8692207446902,False,22.21989421128641,True,False
8,1970-07-23 09:59:41.134360386,2025-09-10,2025-09-26 15:28:33.436,HH,C,1754133370,JASSM,3,105,76,2,2,1,225,9,2,0,1,26,0,0,0,0,-185489.88122733065,-4786516.450166549,4201838.186979771,-2.30145,-0.153015,0.128471,93.5,-14.25,-12.125,0.0,0.0,0.0,0.0,0.0,0.0,2,0,41.44770584463237,-92.21924902953003,10000.000655184473,99.8397075172495,-0.0020491500157568,0.0057559509379886,,9001.267247400965,11068.098492074974,150,8,2025-09-10,2025-09-26 15:28:33.313,HH,C,1711989810,AMBUSH51,1,1,48,2,1,1,225,2,1,0,0,9,1,225,2,1,-144937.153077797,-4792790.102982763,4195808.896719472,2.39161,2.72936,-0.446864,-88.5377,39.7149,46.2512,-0.176184,-7.49243,6.99724,-0.00563737,0.00410813,0.00478017,4,0,41.378006884586654,-91.7321345100525,8902.497989395375,-56.8532105021755,1.914128775988351,1.1895475854149682,186.752,9001.267247400965,11068.098492074974,150,True,22.30287762816161,False,156.57047659732393,178.93907014463588,False,22.520951708823805,True,False
8,1970-07-23 09:59:41.139041202,2025-09-10,2025-09-26 15:28:33.904,HH,C,1755445722,JASSM,3,105,76,2,2,1,225,9,2,0,1,26,0,0,0,0,-185387.05310233065,-4786532.313447799,4201824.743620396,-2.30145,-0.152919,0.128471,93.5,-14.25,-12.125,0.0,0.0,0.0,0.0,0.0,0.0,2,0,41.44754444352672,-92.21801265276189,9999.997807332556,99.83688983417738,-0.0051653823871647,0.0050517286248776,,9001.267247400965,11068.098492074974,150,8,2025-09-10,2025-09-26 15:28:33.880,HH,C,1712665842,AMBUSH51,1,1,48,2,1,1,225,2,1,0,0,9,1,225,2,1,-144988.18067058735,-4792767.237105785,4195835.623057213,2.3873,2.72951,-0.448965,-88.4508,39.4015,46.6177,-0.215739,-7.57204,7.10513,-0.0110989,0.00295965,0.00583919,4,0,41.37831417615087,-91.73275222754177,8907.991765153278,-56.77520688631827,2.006419047527623,0.948753020709952,186.593,9001.267247400965,11068.098492074974,150,True,22.21575487958583,False,156.49117266948952,178.96448326681272,False,22.62514554510711,True,False
8,1970-07-23 09:59:41.150039812,2025-09-10,2025-09-26 15:28:35.003,HH,C,1756758070,JASSM,3,105,76,2,2,1,225,9,2,0,1,26,0,0,0,0,-185284.22497733065,-4786548.174775924,4201811.302214146,-2.30145,-0.152919,0.128471,93.5,-14.25,-12.125,0.0,0.0,0.0,0.0,0.0,0.0,2,0,41.44738305393085,-92.21677628302578,10000.000052516692,99.83770822819818,-0.0042246977544928,0.0050510458577064,,9001.267247400965,11068.098492074974,150,8,2025-09-10,2025-09-26 15:28:34.980,HH,C,1713978140,AMBUSH51,1,1,48,2,1,1,225,2,1,0,0,9,1,225,2,1,-145084.35645998782,-4792724.493882143,4195886.410933698,2.38291,2.73064,-0.45567,-88.2158,38.9896,46.9869,-0.192067,-7.54715,7.01306,0.000302727,0.0122786,0.0057518,4,0,41.37889403895676,-91.7339163761113,8920.121761521912,-56.54995404240461,2.323635373532739,0.7343679206130997,186.276,9001.267247400965,11068.098492074974,150,True,22.10144835609899,False,156.38768832685662,179.01467793787305,False,22.782477294495965,True,False
8,1970-07-23 09:59:41.160039240,2025-09-10,2025-09-26 15:28:36.003,HH,C,1757951118,JASSM,3,105,76,2,2,1,225,9,2,0,1,26,0,0,0,0,-185190.74450858065,-4786562.594697799,4201799.079557896,-2.30145,-0.152919,0.128471,93.5,-14.25,-12.125,0.0,0.0,0.0,0.0,0.0,0.0,2,0,41.44723629993351,-92.21565231136574,10000.001331719455,99.83845221994125,-0.003369522355669,0.0050504014050116,,9001.267247400965,11068.098492074974,150,8,2025-09-10,2025-09-26 15:28:36.080,HH,C,1715290440,AMBUSH51,1,1,48,2,1,1,225,2,1,0,0,9,1,225,2,1,-145182.07699149498,-4792681.389075639,4195938.4490083065,2.38443,2.73142,-0.458264,-87.9558,38.6376,47.2666,-0.0574794,-7.42923,6.77277,0.000720926,-0.000256953,-0.00413102,4,0,41.37948420416579,-91.73509912506364,8934.19558758774,-56.47577459822776,2.459267015714562,0.8442554807664141,185.958,9001.267247400965,11068.098492074974,150,True,21.99135559978307,False,156.2915820113749,179.06575405409515,False,22.935835495610164,True,False
8,1970-07-23 09:59:41.171020618,2025-09-10,2025-09-26 15:28:37.102,HH,C,1759144420,JASSM,3,105,76,2,2,1,225,9,2,0,1,26,0,0,0,0,-185097.2425554556,-4786577.014619674,4201786.854948521,-2.30145,-0.152919,0.128471,93.5,-14.25,-12.125,0.0,0.0,0.0,0.0,0.0,0.0,2,0,41.44708952672134,-92.2145280879857,10000.000998032188,99.8391963761362,-0.0025141558816233,0.0050497816927796,,9001.267247400965,11068.098492074974,150,8,2025-09-10,2025-09-26 15:28:37.079,HH,C,1716483438,AMBUSH51,1,1,48,2,1,1,225,2,1,0,0,9,1,225,2,1,-145269.54899676374,-4792642.746257979,4195985.724986357,2.37821,2.7356,-0.460273,-87.6124,38.4284,47.4785,-0.188739,-7.31362,6.83247,-0.014251,-0.0018174,0.000261115,4,0,41.38001750958678,-91.73615787021431,8948.163475936479,-56.54980083317137,2.692372380986177,0.5907919107993597,185.518,9001.267247400965,11068.098492074974,150,True,21.887386888083828,False,156.15869623907517,179.11138583274138,False,23.122625349986944,True,False
8,1970-07-23 09:59:41.181044371,2025-09-10,2025-09-26 15:28:38.104,HH,C,1760456516,JASSM,3,105,76,2,2,1,225,9,2,0,1,26,0,0,0,0,-184994.4339617056,-4786592.870088424,4201773.411589146,-2.30145,-0.152919,0.128567,93.5,-14.25,-12.125,0.0,0.0,0.0,0.0,0.0,0.0,2,0,41.44692811687456,-92.21329197167246,10000.002384453162,99.8441052507154,-0.0052399216445333,0.0050488422596894,,9001.267247400965,11068.098492074974,150,8,2025-09-10,2025-09-26 15:28:38.080,HH,C,1717676436,AMBUSH51,1,1,48,2,1,1,225,2,1,0,0,9,1,225,2,1,-145356.82633931973,-4792604.089185217,4196032.983718663,2.37794,2.72433,-0.452594,-87.3547,38.7765,47.1649,-0.142187,-6.35156,5.94016,-0.0079718,-0.0127239,-0.00340697,4,0,41.380550807924735,-91.73721431135434,8962.050197836652,-56.44153693813968,1.9739391317021608,0.294908845267212,185.2,9001.267247400965,11068.098492074974,150,True,21.778438662015056,False,156.11186308045862,179.1558294125726,False,23.233169814027786,True,False
8,1970-07-23 09:59:41.190018612,2025-09-10,2025-09-26 15:28:39.001,HH,C,1761589910,JASSM,3,105,76,2,2,1,225,9,2,0,1,26,0,0,0,0,-184905.6292742056,-4786606.563447799,4201761.798307896,-2.30145,-0.152919,0.128567,93.5,-14.25,-12.125,0.0,0.0,0.0,0.0,0.0,0.0,2,0,41.44678868936038,-92.21222423697527,9999.999913377462,99.84481201116758,-0.0044275258946993,0.0050483054528678,,9001.267247400965,11068.098492074974,150,8,2025-09-10,2025-09-26 15:28:39.014,HH,C,1718789902,AMBUSH51,1,1,48,2,1,1,225,2,1,0,0,9,1,225,2,1,-145437.15072105065,-4792568.187332307,4196075.77781588,2.37782,2.72576,-0.453798,-87.1505,39.2986,46.4671,-0.0565144,-6.98664,6.43608,0.00803422,0.00609302,0.00457627,4,0,41.38103881537477,-91.73818672257252,8972.519888539648,-56.44696913694017,2.075398940802776,0.3236899667947788,184.882,9001.267247400965,11068.098492074974,150,True,21.681402201200743,False,156.17538965505682,179.1946812094616,False,23.23363270695366,True,False
8,1970-07-23 09:59:41.200040788,2025-09-10,2025-09-26 15:28:40.004,HH,C,1762782956,JASSM,3,105,76,2,2,1,225,9,2,0,1,26,0,0,0,0,-184812.14685233065,-4786620.977510299,4201749.571745396,-2.30145,-0.152919,0.128567,93.5,-14.25,-12.125,0.0,0.0,0.0,0.0,0.0,0.0,2,0,41.446641899851656,-92.21110026519467,9999.997039886675,99.84555599424772,-0.0035723366570872,0.0050477333752567,,9001.267247400965,11068.098492074974,150,8,2025-09-10,2025-09-26 15:28:39.879,HH,C,1719823834,AMBUSH51,1,1,48,2,1,1,225,2,1,0,0,9,1,225,2,1,-145512.83395541116,-4792533.987090143,4196116.078202314,2.37364,2.72442,-0.451488,-87.0483,39.4193,46.2966,-0.157497,-6.94142,6.44742,-0.00275367,-0.00489876,-0.00595154,4,0,41.38150069250845,-91.73910309542686,8981.426151187356,-56.49001723139517,1.933087162336559,0.0493591585584264,184.675,9001.267247400965,11068.098492074974,150,True,21.58458187934067,False,156.17536333376768,179.2297092387575,False,23.287140213464046,True,False
8,1970-07-23 09:59:41.212679315,2025-09-10,2025-09-26 15:28:41.267,HH,C,1763856698,JASSM,3,105,76,2,2,1,225,9,2,0,1,26,0,0,0,0,-184728.0159929556,-4786633.950166549,4201738.567839146,-2.30145,-0.152919,0.128567,93.5,-14.25,-12.125,0.0,0.0,0.0,0.0,0.0,0.0,2,0,41.446509779138935,-92.21008873460892,9999.998761834338,99.84622554803168,-0.0028026955026204,0.0050472126311051,,9001.267247400965,11068.098492074974,150,8,2025-09-10,2025-09-26 15:28:41.180,HH,C,1721374732,AMBUSH51,1,1,48,2,1,1,225,2,1,0,0,9,1,225,2,1,-145626.4549910383,-4792482.423129467,4196176.517676846,2.37223,2.7217,-0.451376,-86.9823,39.3503,46.3237,-0.296016,-7.16432,6.81335,-0.00580382,-0.000471255,0.000937308,4,0,41.3821949689758,-91.74047892208684,8994.128266569853,-56.39465304592135,1.8325003587411768,-0.0961815913421254,184.516,9001.267247400965,11068.098492074974,150,True,21.470070818344055,False,156.1626878410594,179.28009277261174,False,23.376748331301773,True,False
8,1970-07-23 09:59:41.219036181,2025-09-10,2025-09-26 15:28:41.903,HH,C,1764990084,JASSM,3,105,76,2,2,1,225,9,2,0,1,26,0,0,0,0,-184639.20935233065,-4786647.641572799,4201726.952604771,-2.30145,-0.152823,0.128567,93.5,-14.25,-12.125,0.0,0.0,0.0,0.0,0.0,0.0,2,0,41.44637032078425,-92.20902099118577,9999.999708767597,99.84329631931152,-0.0060471995759623,0.0043426361745183,,9001.267247400965,11068.098492074974,150,8,2025-09-10,2025-09-26 15:28:41.979,HH,C,1722329132,AMBUSH51,1,1,48,2,1,1,225,2,1,0,0,9,1,225,2,1,-145695.9119860222,-4792451.019312786,4196213.404448323,2.36829,2.72339,-0.450923,-86.9303,39.2845,46.2616,-0.254637,-7.02291,6.69232,0.000275679,-0.0041123,-0.00418928,4,0,41.38261826998414,-91.74131994139194,9002.056545379852,-56.47582454044836,1.8749474729567588,-0.2826410495012456,184.271,9001.267247400965,11068.098492074974,150,True,21.3796063282795,False,156.185935080494,179.30794921077901,False,23.400863565338266,True,False
8,1970-07-23 09:59:41.228037378,2025-09-10,2025-09-26 15:28:42.803,HH,C,1766063834,JASSM,3,105,76,2,2,1,225,9,2,0,1,26,0,0,0,0,-184555.07653983065,-4786660.612275924,4201715.946745396,-2.30145,-0.152823,0.128567,93.5,-14.25,-12.125,0.0,0.0,0.0,0.0,0.0,0.0,2,0,41.44623818068207,-92.20800944659337,9999.99998023836,99.84396587879984,-0.0052775416562915,0.0043420683101946,,9001.267247400965,11068.098492074974,150,8,2025-09-10,2025-09-26 15:28:42.713,HH,C,1723203998,AMBUSH51,1,1,48,2,1,1,225,2,1,0,0,9,1,225,2,1,-145759.518937015,-4792422.289192226,4196247.135840651,2.3569,2.7264,-0.448123,-86.8967,39.316,46.035,-0.227848,-7.05153,6.61924,-0.0135956,-0.00342986,-0.00706882,4,0,41.38300541390031,-91.74209012408502,9009.285543692287,-56.69976391283515,1.8684676263143276,-0.8673859515521672,184.149,9001.267247400965,11068.098492074974,150,True,21.295240731159243,False,156.2500051179342,179.33159579972363,False,23.382730130829348,True,False
8,1970-07-23 09:59:41.237041343,2025-09-10,2025-09-26 15:28:43.704,HH,C,1767137576,JASSM,3,105,76,2,2,1,225,9,2,0,1,26,0,0,0,0,-184470.94372733065,-4786673.581025924,4201704.940886021,-2.30145,-0.152823,0.128567,93.5,-14.25,-12.125,0.0,0.0,0.0,0.0,0.0,0.0,2,0,41.44610604330879,-92.20699790700556,9999.999234960278,99.84463543321824,-0.00450788637128,0.0043415117514445,,9001.267247400965,11068.098492074974,150,8,2025-09-10,2025-09-26 15:28:43.613,HH,C,1724277696,AMBUSH51,1,1,48,2,1,1,225,2,1,0,0,9,1,225,2,1,-145837.7119568817,-4792387.125253022,4196288.3311234405,2.34611,2.72354,-0.44868,-86.9864,39.1893,45.8317,-0.233223,-6.99727,6.6675,-0.00693566,-0.0058163,0.000271518,4,0,41.383478578302416,-91.74303687736897,9017.968190838845,-56.57180282089016,1.789393187220153,-1.5529732542346388,183.954,9001.267247400965,11068.098492074974,150,True,21.202157137024088,False,156.3840649276019,179.35801809789353,False,23.302898734897994,True,False
8,1970-07-23 09:59:41.246038510,2025-09-10,2025-09-26 15:28:44.603,HH,C,1768270970,JASSM,3,105,76,2,2,1,225,9,2,0,1,26,0,0,0,0,-184382.1370867056,-4786687.270479049,4201693.321745396,-2.30145,-0.152823,0.128567,93.5,-14.25,-12.125,0.0,0.0,0.0,0.0,0.0,0.0,2,0,41.44596654153284,-92.205930177721,9999.999100248497,99.8453421786017,-0.0036954719248653,0.0043409103339652,,9001.267247400965,11068.098492074974,150,8,2025-09-10,2025-09-26 15:28:44.479,HH,C,1725311628,AMBUSH51,1,1,48,2,1,1,225,2,1,0,0,9,1,225,2,1,-145912.51461261458,-4792353.805333457,4196327.414670216,2.3377,2.73126,-0.445664,-87.0855,38.9275,45.5652,-0.309161,-7.22208,6.74656,-0.00274743,-0.00785945,-0.000966436,4,0,41.38392712147547,-91.74394247643426,9026.35834964378,-56.979400699098825,1.9439600417559115,-1.856620646795082,183.831,9001.267247400965,11068.098492074974,150,True,21.10861158167215,False,156.57898702339324,179.37978663472853,False,23.158709492853905,True,False
8,1970-07-23 09:59:41.256041362,2025-09-10,2025-09-26 15:28:45.604,HH,C,1769404364,JASSM,3,105,76,2,2,1,225,9,2,0,1,26,0,0,0,0,-184293.33044608065,-4786700.957979049,4201681.702604771,-2.30145,-0.152823,0.128567,93.5,-14.25,-12.125,0.0,0.0,0.0,0.0,0.0,0.0,2,0,41.445827041469926,-92.20486245390951,9999.998380740672,99.8460489184046,-0.0028830601107059,0.0043403202181664,,9001.267247400965,11068.098492074974,150,8,2025-09-10,2025-09-26 15:28:45.713,HH,C,1726782994,AMBUSH51,1,1,48,2,1,1,225,2,1,0,0,9,1,225,2,1,-146020.42917880937,-4792306.106902271,4196383.36187222,2.32484,2.73383,-0.445529,-87.2648,38.5131,45.1588,-0.141789,-7.2394,6.64575,-0.00377524,0.00669015,0.00272454,4,0,41.38456904640422,-91.74524883086552,9038.434467976149,-57.08079887646556,2.0321531799412043,-2.53317831819421,183.587,9001.267247400965,11068.098492074974,150,True,20.995304714061678,False,156.88957252661643,179.4053586179678,False,22.921109629479698,True,False
8,1970-07-23 09:59:41.265039344,2025-09-10,2025-09-26 15:28:46.503,HH,C,1770537760,JASSM,3,105,76,2,2,1,225,9,2,0,1,26,0,0,0,0,-184204.52185233065,-4786714.645479049,4201670.083464146,-2.30145,-0.152823,0.128567,93.5,-14.25,-12.125,0.0,0.0,0.0,0.0,0.0,0.0,2,0,41.44568753194152,-92.20379471132831,10000.001691387812,99.8467556686742,-0.0020706311130105,0.0043397334976562,,9001.267247400965,11068.098492074974,150,8,2025-09-10,2025-09-26 15:28:46.479,HH,C,1727697626,AMBUSH51,1,1,48,2,1,1,225,2,1,0,0,9,1,225,2,1,-146086.79441013216,-4792277.36737294,4196418.03936183,2.32161,2.73627,-0.438258,-87.3584,35.8946,47.3326,-0.0437848,-7.13652,6.51714,-0.00615336,-0.00728104,-0.0178962,4,0,41.38496210710695,-91.74605200759969,9047.91497478268,-57.46317953805098,1.8231644315835147,-2.6711935899002333,183.343,9001.267247400965,11068.098492074974,150,True,20.906916000268073,False,156.72239006104547,179.4173512648071,False,23.088380179839024,True,False
8,1970-07-23 09:59:41.275046800,2025-09-10,2025-09-26 15:28:47.504,HH,C,1771671152,JASSM,3,105,76,2,2,1,225,9,2,0,1,26,0,0,0,0,-184115.71618826807,-4786728.331025924,4201658.462370396,-2.30145,-0.152823,0.128663,93.5,-14.25,-12.125,0.0,0.0,0.0,0.0,0.0,0.0,2,0,41.44554801027941,-92.20272700923566,10000.000452854025,99.8515530913084,-0.0049244506755231,0.004338919237456,,9001.267247400965,11068.098492074974,150,8,2025-09-10,2025-09-26 15:28:47.446,HH,C,1728850858,AMBUSH51,1,1,48,2,1,1,225,2,1,0,0,9,1,225,2,1,-146171.18390459157,-4792240.283019677,4196460.749800136,2.3152,2.73837,-0.440141,-87.5943,37.8678,44.7913,-0.211962,-7.32276,6.69661,0.00161558,-0.00266836,0.00631565,4,0,41.38545576574786,-91.74707353012067,9055.643443586454,-57.46629973209776,1.9772606779317627,-2.987558781522916,182.976,9001.267247400965,11068.098492074974,150,True,20.807824223210236,False,157.29132478693558,179.4260790428866,False,22.61857340904976,True,False
8,1970-07-23 09:59:41.284017245,2025-09-10,2025-09-26 15:28:48.401,HH,C,1772804546,JASSM,3,105,76,2,2,1,225,9,2,0,1,26,0,0,0,0,-184026.90954764312,-4786742.016572799,4201646.841276646,-2.30145,-0.152823,0.128663,93.5,-14.25,-12.125,0.0,0.0,0.0,0.0,0.0,0.0,2,0,41.44540847892828,-92.20165930004576,10000.003336816078,99.85225981559483,-0.0041120391605901,0.004338385368938,,9001.267247400965,11068.098492074974,150,8,2025-09-10,2025-09-26 15:28:48.279,HH,C,1729845024,AMBUSH51,1,1,48,2,1,1,225,2,1,0,0,9,1,225,2,1,-146243.95991960488,-4792208.929761838,4196497.71305891,2.31129,2.74193,-0.439398,-87.7005,37.6788,44.3702,-0.197508,-7.20227,6.79084,-0.0080571,0.00193183,-0.00172377,4,0,41.38587862922706,-91.74795425618328,9064.139944494376,-57.62868438775764,2.076842985982968,-3.130666602437332,182.658,9001.267247400965,11068.098492074974,150,True,20.71572278881228,False,157.52902895015856,179.4296595999626,False,22.43201757553201,True,False
8,1970-07-23 09:59:41.294036943,2025-09-10,2025-09-26 15:28:49.403,HH,C,1773937940,JASSM,3,105,76,2,2,1,225,9,2,0,1,26,0,0,0,0,-183938.1019304556,-4786755.700166549,4201635.218229771,-2.30145,-0.152823,0.128663,93.5,-14.25,-12.125,0.0,0.0,0.0,0.0,0.0,0.0,2,0,41.44526893633813,-92.20059158465637,10000.001302273406,99.85296654202806,-0.0032996194417174,0.0043378515376662,,9001.267247400965,11068.098492074974,150,8,2025-09-10,2025-09-26 15:28:49.580,HH,C,1731395922,AMBUSH51,1,1,48,2,1,1,225,2,1,0,0,9,1,225,2,1,-146357.74051041834,-4792160.4919727165,4196554.815041251,2.30266,2.74881,-0.433294,-87.9153,37.2059,43.8023,-0.262753,-7.22568,6.66561,-0.00788858,-0.00192143,0.00268293,4,0,41.38653163558313,-91.74933102387942,9077.36937578048,-58.12964527335386,2.0789064591919795,-3.476416544987863,182.573,9001.267247400965,11068.098492074974,150,True,20.599291014102647,False,157.92862679797022,179.42746713782398,False,22.108971040728964,True,False
8,1970-07-23 09:59:41.303016177,2025-09-10,2025-09-26 15:28:50.301,HH,C,1775011682,JASSM,3,105,76,2,2,1,225,9,2,0,1,26,0,0,0,0,-183853.9691179556,-4786768.663057174,4201624.206511021,-2.30145,-0.152727,0.128663,93.5,-14.25,-12.125,0.0,0.0,0.0,0.0,0.0,0.0,2,0,41.44513672907201,-92.19958007787044,10000.001174729876,99.85000016812752,-0.0065868765556244,0.0036328153621904,,9001.267247400965,11068.098492074974,150,8,2025-09-10,2025-09-26 15:28:50.279,HH,C,1732231022,AMBUSH51,1,1,48,2,1,1,225,2,1,0,0,9,1,225,2,1,-146419.15491474827,-4792134.717795274,4196585.245853704,2.29648,2.75208,-0.428337,-88.077,36.947,43.4788,-0.0855354,-6.9978,6.55273,-0.0153558,0.00486755,-0.00550213,4,0,41.38687925366001,-91.75007402577884,9084.578731426702,-58.450959967214864,1.9969779145267328,-3.764001466328413,182.365,9001.267247400965,11068.098492074974,150,True,20.516665393655384,False,158.16591460381724,179.42151987597575,False,21.912835438056092,True,False
8,1970-07-23 09:59:41.312038268,2025-09-10,2025-09-26 15:28:51.203,HH,C,1776085424,JASSM,3,105,76,2,2,1,225,9,2,0,1,26,0,0,0,0,-183769.8363054556,-4786781.625947799,4201613.192839146,-2.30145,-0.152727,0.128663,93.5,-14.25,-12.125,0.0,0.0,0.0,0.0,0.0,0.0,2,0,41.44500449973352,-92.19856857519125,10000.00058867496,99.85066968355324,-0.0058172200596511,0.0036322467214861,,9001.267247400965,11068.098492074974,150,8,2025-09-10,2025-09-26 15:28:51.114,HH,C,1733225186,AMBUSH51,1,1,48,2,1,1,225,2,1,0,0,9,1,225,2,1,-146492.67656182687,-4792104.058740323,4196621.300871874,2.28554,2.75321,-0.425035,-88.3714,36.7664,42.9429,-0.17912,-7.24727,6.60258,-0.0146151,-0.00308656,-0.00399162,4,0,41.38729169568876,-91.75096344123418,9092.882531124837,-58.62667729096144,1.9047895059733893,-4.3698832209369085,182.206,9001.267247400965,11068.098492074974,150,True,20.426901055754094,False,158.50248544697814,179.41084362376307,False,21.628048655576798,True,False
8,1970-07-23 09:59:41.323041091,2025-09-10,2025-09-26 15:28:52.304,HH,C,1777397776,JASSM,3,105,76,2,2,1,225,9,2,0,1,26,0,0,0,0,-183667.00720389312,-4786797.465791549,4201599.731901646,-2.30145,-0.152727,0.128663,93.5,-14.25,-12.125,0.0,0.0,0.0,0.0,0.0,0.0,2,0,41.44484289746484,-92.19733230011173,9999.996404423997,99.85148797384252,-0.0048765330665206,0.0036315747223128,,9001.267247400965,11068.098492074974,150,8,2025-09-10,2025-09-26 15:28:52.413,HH,C,1734776086,AMBUSH51,1,1,48,2,1,1,225,2,1,0,0,9,1,225,2,1,-146608.28892827156,-4792056.492350094,4196677.173423029,2.28137,2.75998,-0.419796,-88.7482,36.1354,42.3466,-0.238456,-7.05258,6.67094,-0.00727896,-0.000533673,-0.0138183,4,0,41.38793084645525,-91.752361827582,9105.7476985334,-59.09027211304029,1.941719377381241,-4.465158825199333,182.377,9001.267247400965,11068.098492074974,150,True,20.302043712393704,False,159.00508350182844,179.3871345481445,False,21.19965890893991,True,False
8,1970-07-23 09:59:41.333035912,2025-09-10,2025-09-26 15:28:53.303,HH,C,1778650474,JASSM,3,105,76,2,2,1,225,9,2,0,1,26,0,0,0,0,-183568.8519304556,-4786812.586885299,4201586.882292271,-2.30145,-0.152727,0.128663,93.5,-14.25,-12.125,0.0,0.0,0.0,0.0,0.0,0.0,2,0,41.44468861741552,-92.1961522218545,9999.999558625435,99.85226906501563,-0.0039786002963032,0.0036309228547219,,9001.267247400965,11068.098492074974,150,8,2025-09-10,2025-09-26 15:28:53.279,HH,C,1735810018,AMBUSH51,1,1,48,2,1,1,225,2,1,0,0,9,1,225,2,1,-146684.6105758746,-4792025.80330057,4196713.100890933,2.2689,2.76856,-0.414252,-89.0196,35.7099,41.7391,-0.250094,-6.9527,6.62526,-0.0148024,0.00525246,-0.0131025,4,0,41.38834207726807,-91.75328472781122,9113.921965715985,-59.63390248284714,2.0350463624793127,-4.999728976720499,182.121,9001.267247400965,11068.098492074974,150,True,20.203155772004973,False,159.42843831555834,179.36677756642655,False,20.826138576995962,True,False
8,1970-07-23 09:59:41.344036773,2025-09-10,2025-09-26 15:28:54.403,HH,C,1779962824,JASSM,3,105,76,2,2,1,225,9,2,0,1,26,0,0,0,0,-183466.02282889312,-4786828.424775924,4201573.419401646,-2.30145,-0.152727,0.128663,93.5,-14.25,-12.125,0.0,0.0,0.0,0.0,0.0,0.0,2,0,41.44452698762173,-92.19491595966178,9999.997378270278,99.8530873416444,-0.003037913647217,0.0036302491141236,,9001.267247400965,11068.098492074974,150,8,2025-09-10,2025-09-26 15:28:54.579,HH,C,1737360916,AMBUSH51,1,1,48,2,1,1,225,2,1,0,0,9,1,225,2,1,-146801.21202996655,-4791979.700416165,4196766.858388276,2.25743,2.77367,-0.405832,-89.5605,34.9625,40.9649,-0.342862,-7.0603,6.78611,-0.0092368,-0.00533777,-0.00427458,4,0,41.38895803229461,-91.75469443604749,9125.890279661931,-60.16647722660447,1.8856389879038984,-5.557826784815069,182.377,9001.267247400965,11068.098492074974,150,True,20.078087762542165,False,160.0794887366298,179.33116835992598,False,20.246695990258115,True,False
8,1970-07-23 09:59:41.355037844,2025-09-10,2025-09-26 15:28:55.503,HH,C,1781215862,JASSM,3,105,76,2,2,1,225,9,2,0,1,26,0,0,0,0,-183367.8402117056,-4786843.547822799,4201560.563932896,-2.30145,-0.152727,0.128663,93.5,-14.25,-12.125,0.0,0.0,0.0,0.0,0.0,0.0,2,0,41.44437263785944,-92.19373556515004,10000.000577225926,99.85386863724572,-0.0021397311189551,0.0036295949342399,,9001.267247400965,11068.098492074974,150,8,2025-09-10,2025-09-26 15:28:55.412,HH,C,1738355082,AMBUSH51,1,1,48,2,1,1,225,2,1,0,0,9,1,225,2,1,-146875.9720396867,-4791950.77843948,4196800.4526331285,2.24836,2.77863,-0.398752,-89.957,34.6304,40.1991,-0.218639,-7.14767,6.60485,-0.00178203,0.00616376,-0.0131275,4,0,41.38934326367381,-91.75559806224476,9133.243409237422,-60.63932505084098,1.7857553052621036,-5.981506581753475,182.17,9001.267247400965,11068.098492074974,150,True,19.98033540308053,False,160.5768321433216,179.30502865982282,False,19.799074540685474,True,False
8,1970-07-23 09:59:41.366036492,2025-09-10,2025-09-26 15:28:56.603,HH,C,1782587528,JASSM,3,105,76,2,2,1,225,9,2,0,1,26,0,0,0,0,-183260.3636492056,-4786860.098604049,4201546.489714146,-2.30145,-0.152727,0.128759,93.5,-14.25,-12.125,0.0,0.0,0.0,0.0,0.0,0.0,2,0,41.44420367366273,-92.19244344290726,9999.996596005123,99.85881462854276,-0.0048227015541871,0.0036286751238061,,9001.267247400965,11068.098492074974,150,8,2025-09-10,2025-09-26 15:28:56.613,HH,C,1739786680,AMBUSH51,1,1,48,2,1,1,225,2,1,0,0,9,1,225,2,1,-146983.4766145252,-4791909.869944855,4196847.75938882,2.23815,2.78709,-0.388889,-90.5213,34.1183,39.1689,-0.177883,-7.08699,6.69304,-0.00713956,0.00246863,-0.0122391,4,0,41.38988639711121,-91.7568972408562,9143.327092634756,-61.3568395134046,1.707033702382457,-6.402384241062867,182.047,9001.267247400965,11068.098492074974,150,True,19.85839460399843,False,161.2724948079111,179.26513437251702,False,19.172413608372118,True,False
8,1970-07-23 09:59:41.377036668,2025-09-10,2025-09-26 15:28:57.703,HH,C,1783899878,JASSM,3,105,76,2,2,1,225,9,2,0,1,26,0,0,0,0,-183157.53454764312,-4786875.934541549,4201533.024870396,-2.30145,-0.152727,0.128759,93.5,-14.25,-12.125,0.0,0.0,0.0,0.0,0.0,0.0,2,0,41.44404200245118,-92.1912072000184,10000.002327351598,99.85963288455568,-0.0038820151751312,0.0036280667507807,,9001.267247400965,11068.098492074974,150,8,2025-09-10,2025-09-26 15:28:57.713,HH,C,1741098978,AMBUSH51,1,1,48,2,1,1,225,2,1,0,0,9,1,225,2,1,-147083.79013654147,-4791872.721869599,4196890.424327513,2.22296,2.79643,-0.379781,-91.0758,33.3492,38.3001,-0.268764,-7.14505,6.72327,-0.016367,-0.00608054,-0.00222312,4,0,41.390377119696176,-91.75810915944676,9152.057814846648,-62.07784354282642,1.695528094070505,-7.093729023335984,181.888,9001.267247400965,11068.098492074974,150,True,19.743413476071137,False,161.97359186107755,179.22586566843316,False,18.528782315212993,True,False
8,1970-07-23 09:59:41.388037074,2025-09-10,2025-09-26 15:28:58.803,HH,C,1785212230,JASSM,3,105,76,2,2,1,225,9,2,0,1,26,0,0,0,0,-183054.70446951807,-4786891.768525924,4201519.556120396,-2.30145,-0.152631,0.128759,93.5,-14.25,-12.125,0.0,0.0,0.0,0.0,0.0,0.0,2,0,41.44388030344674,-92.18997095248878,10000.000335396768,99.85681534265416,-0.0069982244213019,0.0029224198275181,,9001.267247400965,11068.098492074974,150,8,2025-09-10,2025-09-26 15:28:58.613,HH,C,1742172678,AMBUSH51,1,1,48,2,1,1,225,2,1,0,0,9,1,225,2,1,-147165.51498070272,-4791843.103599257,4196924.258477591,2.22309,2.79844,-0.377416,-91.5191,32.7703,37.5861,-0.315847,-6.97525,6.74848,0.0126365,-0.000252792,-0.00481554,4,0,41.39076681230498,-91.7590962781975,9158.759145882856,-62.25033454221785,1.677984413116714,-7.048693944101128,182.133,9001.267247400965,11068.098492074974,150,True,19.63941278438372,False,162.53250298652054,179.19234717866917,False,18.016486662957103,True,False
8,1970-07-23 09:59:41.399036120,2025-09-10,2025-09-26 15:28:59.903,HH,C,1786465042,JASSM,3,105,76,2,2,1,225,9,2,0,1,26,0,0,0,0,-182956.54040701807,-4786906.881807174,4201506.698698521,-2.30145,-0.152631,0.128759,93.5,-14.25,-12.125,0.0,0.0,0.0,0.0,0.0,0.0,2,0,41.44372594366207,-92.18879080764422,9999.998618952097,99.85759646306072,-0.0061002158374944,0.0029217836833656,,9001.267247400965,11068.098492074974,150,8,2025-09-10,2025-09-26 15:28:59.879,HH,C,1743683810,AMBUSH51,1,1,48,2,1,1,225,2,1,0,0,9,1,225,2,1,-147281.87417727895,-4791801.662154794,4196971.221936734,2.22169,2.8117,-0.362964,-92.1122,32.1674,36.5329,-0.364974,-7.03813,6.77584,-0.00788441,-0.00421841,-0.0145444,4,0,41.39130913808252,-91.7605014818412,9167.477765756115,-63.3390857637218,1.607849523348733,-6.885129456027962,182.047,9001.267247400965,11068.098492074974,150,True,19.517949665440742,False,163.2724105366034,179.14437967623275,False,17.34444268446057,True,False
8,1970-07-23 09:59:41.410014391,2025-09-10,2025-09-26 15:29:01.001,HH,C,1787777280,JASSM,3,105,76,2,2,1,225,9,2,0,1,26,0,0,0,0,-182853.7191179556,-4786922.711885299,4201493.229948521,-2.30145,-0.152631,0.128759,93.5,-14.25,-12.125,0.0,0.0,0.0,0.0,0.0,0.0,2,0,41.44356423993587,-92.1875546789417,9999.998897933328,99.85841463578866,-0.0051596015138718,0.0029211097888168,,9001.267247400965,11068.098492074974,150,8,2025-09-10,2025-09-26 15:29:01.113,HH,C,1745155174,AMBUSH51,1,1,48,2,1,1,225,2,1,0,0,9,1,225,2,1,-147395.31128424127,-4791762.455970825,4197014.967632786,2.2206,2.81442,-0.356884,-92.8113,31.7226,35.1596,-0.269809,-7.14084,6.48297,0.0099983,0.00622202,-0.00628444,4,0,41.391816959335685,-91.76187097948753,9174.50296080277,-63.69147301353696,1.4708162914070932,-6.902263797716497,182.206,9001.267247400965,11068.098492074974,150,True,19.39587465948424,False,164.12129700918348,179.09716026957173,False,16.565713431226968,True,False
8,1970-07-23 09:59:41.421034141,2025-09-10,2025-09-26 15:29:02.103,HH,C,1789089632,JASSM,3,105,76,2,2,1,225,9,2,0,1,26,0,0,0,0,-182750.89001639312,-4786938.541963424,4201479.759245396,-2.30145,-0.152631,0.128759,93.5,-14.25,-12.125,0.0,0.0,0.0,0.0,0.0,0.0,2,0,41.44340251152248,-92.18631846300414,9999.999852743716,99.85923286362934,-0.0042189162520908,0.0029204365957905,,9001.267247400965,11068.098492074974,150,8,2025-09-10,2025-09-26 15:29:01.989,HH,C,1746189106,AMBUSH51,1,1,48,2,1,1,225,2,1,0,0,9,1,225,2,1,-147475.77173348892,-4791735.224888338,4197045.211360088,2.22912,2.81703,-0.35374,-93.1874,31.2239,34.5829,-0.119512,-7.07879,6.42251,0.019413,-0.000467093,-0.0141886,4,0,41.39216840887681,-91.76284215821316,9179.209469628946,-63.91912633265671,1.4469108513518971,-6.36770584040532,182.17,9001.267247400965,11068.098492074974,150,True,19.292997518413888,False,164.5874118595687,179.06260575307442,False,16.14152557950033,True,False
8,1970-07-23 09:59:41.432034301,2025-09-10,2025-09-26 15:29:03.203,HH,C,1790401982,JASSM,3,105,76,2,2,1,225,9,2,0,1,26,0,0,0,0,-182648.05993826807,-4786954.370088424,4201466.288542271,-2.30145,-0.152631,0.128759,93.5,-14.25,-12.125,0.0,0.0,0.0,0.0,0.0,0.0,2,0,41.44324078166831,-92.18508224242518,10000.001566967025,99.8600510919144,-0.003278225030736,0.00291977640824,,9001.267247400965,11068.098492074974,150,8,2025-09-10,2025-09-26 15:29:03.214,HH,C,1747660472,AMBUSH51,1,1,48,2,1,1,225,2,1,0,0,9,1,225,2,1,-147591.8906097527,-4791696.891159766,4197087.358230559,2.24005,2.82181,-0.342399,-93.8418,30.7568,33.6291,-0.174954,-6.95675,6.80347,0.00337993,-0.000829117,-0.00166344,4,0,41.39265972582504,-91.76424340587688,9185.130102857747,-64.56640801511158,1.1814934418621432,-5.663092546135799,182.255,9001.267247400965,11068.098492074974,150,True,19.16970225405304,False,165.26182300595073,179.01441003584384,False,15.530173336931396,True,False
8,1970-07-23 09:59:41.443039058,2025-09-10,2025-09-26 15:29:04.303,HH,C,1791714320,JASSM,3,105,76,2,2,1,225,9,2,0,1,26,0,0,0,0,-182545.2308367056,-4786970.198213424,4201452.813932896,-2.30145,-0.152631,0.128759,93.5,-14.25,-12.125,0.0,0.0,0.0,0.0,0.0,0.0,2,0,41.443079011951646,-92.18384603965757,10000.000541238009,99.86086930578496,-0.0023375378522211,0.0029190884898557,,9001.267247400965,11068.098492074974,150,8,2025-09-10,2025-09-26 15:29:04.379,HH,C,1749052304,AMBUSH51,1,1,48,2,1,1,225,2,1,0,0,9,1,225,2,1,-147700.81875650116,-4791661.483762982,4197125.679222962,2.2415,2.82761,-0.335241,-94.3123,30.301,32.7875,-0.255535,-7.07326,6.61621,0.00538978,-0.0125928,-0.00559368,4,0,41.39310910601661,-91.76555769547345,9189.413343618338,-65.07993964682726,1.1232641595314008,-5.479944193005214,182.414,9001.267247400965,11068.098492074974,150,True,19.050685790199896,False,165.84278515081343,178.96879860380122,False,15.006565151698462,True,False
8,1970-07-23 09:59:41.454032864,2025-09-10,2025-09-26 15:29:05.403,HH,C,1793026684,JASSM,3,105,76,2,2,1,225,9,2,0,1,26,0,0,0,0,-182442.40075858065,-4786986.024385299,4201439.341276646,-2.30145,-0.152631,0.128759,93.5,-14.25,-12.125,0.0,0.0,0.0,0.0,0.0,0.0,2,0,41.44291725397047,-92.18260983224884,10000.004516228604,99.86168752009894,-0.0013968469702234,0.0029184265585519,,9001.267247400965,11068.098492074974,150,8,2025-09-10,2025-09-26 15:29:05.245,HH,C,1750086236,AMBUSH51,1,1,48,2,1,1,225,2,1,0,0,9,1,225,2,1,-147782.72847308818,-4791635.30623616,4197153.80149255,2.24737,2.83215,-0.329206,-94.6948,29.8839,32.3683,-0.212482,-7.17153,6.70137,0.0150292,-0.00767219,-0.0102022,4,0,41.39343966764877,-91.76654583668436,9192.235152673082,-65.50040700884604,1.061759050373559,-5.066623901755457,182.414,9001.267247400965,11068.098492074974,150,True,18.947290359404317,False,166.2225967461465,178.93375954997427,False,14.665514695047525,True,False
