Subject_cm,Timestamp,SampleDate_cm,SampleTime_cm,Configuration_cm,Scenario_cm,DisTime_cm,MarkingTxt_cm,Application_cm,EntId_cm,Site_cm,ExerciseId_cm,ForceId_cm,Category_cm,Country_cm,Domain_cm,Kind_cm,Extra_cm,Specific_cm,Subcategory_cm,AltCategory_cm,AltCountry_cm,AltDomain_cm,AltKind_cm,ECEF_X_cm,ECEF_Y_cm,ECEF_Z_cm,OriPhi_cm,OriPsi_cm,OriTheta_cm,LinVelX_cm,LinVelY_cm,LinVelZ_cm,LinAccX_cm,LinAccY_cm,LinAccZ_cm,AngVelX_cm,AngVelY_cm,AngVelZ_cm,DrAlg_cm,Appearance_cm,Latitude_cm,Longitude_cm,Altitude_cm,Heading_cm,Pitch_cm,Roll_cm,CalibratedAirspeed_cm,CM_Altitude_Lead_cm,CM_Altitude_Wing_cm,CM_Airspeed_cm,Subject_ac,SampleDate_ac,SampleTime_ac,Configuration_ac,Scenario_ac,DisTime_ac,MarkingTxt_ac,Application_ac,EntId_ac,Site_ac,ExerciseId_ac,ForceId_ac,Category_ac,Country_ac,Domain_ac,Kind_ac,Extra_ac,Specific_ac,Subcategory_ac,AltCategory_ac,AltCountry_ac,AltDomain_ac,AltKind_ac,ECEF_X_ac,ECEF_Y_ac,ECEF_Z_ac,OriPhi_ac,OriPsi_ac,OriTheta_ac,LinVelX_ac,LinVelY_ac,LinVelZ_ac,LinAccX_ac,LinAccY_ac,LinAccZ_ac,AngVelX_ac,AngVelY_ac,AngVelZ_ac,DrAlg_ac,Appearance_ac,Latitude_ac,Longitude_ac,Altitude_ac,Heading_ac,Pitch_ac,Roll_ac,CalibratedAirspeed_ac,CM_Altitude_Lead_ac,CM_Altitude_Wing_ac,CM_Airspeed_ac,Bank_Angle_Condition,distance_nm,Distance_Condition,angle_between_vel,angle_between_pos,Cone_Condition,angle_between_pos_nose,Nose_Cone_Condition,Intercept_Criteria
8,1970-07-23 09:59:59.895094039,2025-09-10,2025-09-26 15:59:49.509,AH,C,3993123680,JASSM,3,141,76,2,2,1,225,9,2,0,1,26,0,0,0,0,-188355.0316179556,-4786073.928682174,4202212.265104771,-2.30155,-0.153302,0.128183,93.5,-14.375,-12.0,0.0,0.0,0.0,0.0,0.0,0.0,2,0,41.45219738542684,-92.2537015029722,9999.999036400342,99.81553829347864,-0.0050902358939693,0.0023915261350528,,9023.624474727972,10930.733041558857,150,8,2025-09-10,2025-09-26 15:59:49.651,AH,C,3950492896,AMBUSH51,1,1,48,2,1,1,225,2,1,0,0,9,1,225,2,1,-143599.89766993554,-4792169.627941279,4196614.223390654,2.33371,2.77618,-0.398234,-74.4225,29.9376,31.1526,-0.0386437,-7.19227,6.4368,0.0628933,-0.000271518,0.000394273,4,0,41.38737468398238,-91.71638472928912,9023.43216752448,-60.543463724908655,1.6463704063338611,-1.1566703934486906,154.197,9023.624474727972,10930.733041558857,150,True,24.474418592145987,False,161.08267311133113,179.00952765961065,False,19.690582951542567,True,False
8,1970-07-23 09:59:59.905133694,2025-09-10,2025-09-26 15:59:50.513,AH,C,3994316846,JASSM,3,141,76,2,2,1,225,9,2,0,1,26,0,0,0,0,-188261.5433367056,-4786088.383760299,4202200.071745396,-2.30155,-0.153302,0.128183,93.5,-14.375,-12.0,0.0,0.0,0.0,0.0,0.0,0.0,2,0,41.45205098251659,-92.2525772553168,9999.996156077414,99.81628253872644,-0.0042349784348136,0.0023909213392661,,9023.624474727972,10930.733041558857,150,8,2025-09-10,2025-09-26 15:59:50.584,AH,C,3951606362,AMBUSH51,1,1,48,2,1,1,225,2,1,0,0,9,1,225,2,1,-143668.75666386326,-4792142.053362194,4196642.786091012,2.37628,2.7743,-0.402415,-74.2808,29.7577,31.1738,-0.264755,-7.22463,6.76157,0.0418002,0.0046158,0.00748702,4,0,41.38771928206961,-91.71721715219428,9022.622703792626,-60.30411683232795,1.7457739621296076,1.247588449061456,154.001,9023.624474727972,10930.733041558857,150,True,24.382921003120966,False,161.09164902252263,178.9805164756351,False,19.713865690956766,True,False
8,1970-07-23 09:59:59.916134125,2025-09-10,2025-09-26 15:59:51.613,AH,C,3995569426,JASSM,3,141,76,2,2,1,225,9,2,0,1,26,0,0,0,0,-188163.40075858065,-4786103.557588424,4202187.272917271,-2.30155,-0.153302,0.128183,93.5,-14.375,-12.125,0.0,0.0,0.0,0.0,0.0,0.0,2,0,41.451897295084585,-92.25139704305792,9999.999384518833,99.81706382988092,-0.0033371451456671,0.0023903020465372,,9023.624474727972,10930.733041558857,150,8,2025-09-10,2025-09-26 15:59:51.418,AH,C,3952600526,AMBUSH51,1,1,48,2,1,1,225,2,1,0,0,9,1,225,2,1,-143730.50931394115,-4792117.2338813925,4196668.526407136,2.40623,2.77002,-0.407772,-73.9823,29.9957,31.1806,-0.174346,-7.27037,6.59077,0.0314513,0.00422049,0.0117668,4,0,41.38802969737377,-91.71796370790362,9021.948392515473,-59.92815618619277,1.8038904375724472,2.878639402176042,153.708,9023.624474727972,10930.733041558857,150,True,24.293017563407318,False,160.95749971211507,178.9359069072935,False,19.940653691511585,True,False
8,1970-07-23 09:59:59.926133563,2025-09-10,2025-09-26 15:59:52.613,AH,C,3996822124,JASSM,3,141,76,2,2,1,225,9,2,0,1,26,0,0,0,0,-188065.2464617056,-4786118.733369674,4202174.470182896,-2.30155,-0.153302,0.128183,93.5,-14.375,-12.125,0.0,0.0,0.0,0.0,0.0,0.0,2,0,41.45174356030592,-92.25021669538198,10000.0029445056,99.81784520829817,-0.0024392016992818,0.0023896660077165,,9023.624474727972,10930.733041558857,150,8,2025-09-10,2025-09-26 15:59:52.618,AH,C,3954032126,AMBUSH51,1,1,48,2,1,1,225,2,1,0,0,9,1,225,2,1,-143818.9909921583,-4792081.526943532,4196706.173052351,2.39871,2.76582,-0.415851,-73.6893,28.1326,33.3702,-0.35294,-7.09497,6.71272,-0.0485496,0.00607638,0.00667975,4,0,41.38848048918968,-91.71903346721774,9022.290201123362,-59.44521315369386,1.9762475582454588,2.3671740366775182,153.415,9023.624474727972,10930.733041558857,150,True,24.187437995698808,False,160.48482527214676,178.89531826367912,False,20.40017742126882,True,False
8,1970-07-23 09:59:59.939954247,2025-09-10,2025-09-26 15:59:53.995,AH,C,3998015172,JASSM,3,141,76,2,2,1,225,9,2,0,1,26,0,0,0,0,-187971.76794608065,-4786133.182588424,4202162.276823521,-2.30155,-0.153302,0.128183,93.5,-14.375,-12.125,0.0,0.0,0.0,0.0,0.0,0.0,2,0,41.451597155926805,-92.24909258287629,10000.001088411424,99.8185893573756,-0.0015840379703997,0.0023890779311647,,9023.624474727972,10930.733041558857,150,8,2025-09-10,2025-09-26 15:59:54.084,AH,C,3955781856,AMBUSH51,1,1,48,2,1,1,225,2,1,0,0,9,1,225,2,1,-143926.39241831258,-4792036.726731711,4196751.827914606,2.33043,2.75786,-0.419574,-73.1429,30.28,31.4906,-0.0752637,-7.19798,6.59888,-0.0334404,0.00083952,-0.00277863,4,0,41.38903605085792,-91.72033251264509,9019.034481323142,-59.00008491910362,1.8348417205388037,-1.7147722043776468,153.757,9023.624474727972,10930.733041558857,150,True,24.073272648412132,False,160.42899961528954,178.8439059397077,False,20.57458711507794,True,False
8,1970-07-23 09:59:59.946426828,2025-09-10,2025-09-26 15:59:54.642,AH,C,3999208218,JASSM,3,141,76,2,2,1,225,9,2,0,1,26,0,0,0,0,-187878.2894304556,-4786147.631807174,4202150.081511021,-2.30155,-0.153302,0.128183,93.5,-14.375,-12.125,0.0,0.0,0.0,0.0,0.0,0.0,2,0,41.451450727385286,-92.24796847542558,9999.999660517877,99.81933350094508,-0.0007288719729215,0.0023884768310064,,9023.624474727972,10930.733041558857,150,8,2025-09-10,2025-09-26 15:59:54.519,AH,C,3956298822,AMBUSH51,1,1,48,2,1,1,225,2,1,0,0,9,1,225,2,1,-143958.63155684667,-4792023.548502868,4196765.419143716,2.31583,2.76173,-0.415965,-73.1589,30.176,31.3211,-0.0801467,-7.20685,6.48897,-0.0293,0.000514947,-0.00773877,4,0,41.38920044526741,-91.72072236021395,9018.476640881176,-59.289749492593344,1.8310042109040312,-2.4707107588400583,153.659,9023.624474727972,10930.733041558857,150,True,24.003167669125013,False,160.54831906788448,178.82678768027984,False,20.47476680387154,True,False
8,1970-07-23 09:59:59.956395965,2025-09-10,2025-09-26 15:59:55.639,AH,C,4000401716,JASSM,3,141,76,2,2,1,225,9,2,0,1,26,0,0,0,0,-187784.7738054556,-4786162.086885299,4202137.880339146,-2.30145,-0.153206,0.128183,93.5,-14.375,-12.125,0.0,0.0,0.0,0.0,0.0,0.0,2,0,41.45130422211888,-92.2468439267244,10000.000996880255,99.8164415647334,-0.003930302774025,0.0071772536852881,,9023.624474727972,10930.733041558857,150,8,2025-09-10,2025-09-26 15:59:55.652,AH,C,3957650888,AMBUSH51,1,1,48,2,1,1,225,2,1,0,0,9,1,225,2,1,-144041.11809387396,-4791989.619191328,4196800.399775133,2.33595,2.76939,-0.411713,-73.1891,30.0714,30.9267,0.0085545,-7.40564,6.77309,0.0606608,-0.00208372,-0.0105767,4,0,41.38962370858337,-91.72171990293668,9016.979346982076,-59.74732394145853,1.943238240441396,-1.156330107780737,153.219,9023.624474727972,10930.733041558857,150,True,23.903638137297072,False,160.77285603657756,178.78621160286212,False,20.29910343494687,True,False
8,1970-07-23 09:59:59.967986777,2025-09-10,2025-09-26 15:59:56.798,AH,C,4001653964,JASSM,3,141,76,2,2,1,225,9,2,0,1,26,0,0,0,0,-187686.6566179556,-4786177.250947799,4202125.079557896,-2.30145,-0.153206,0.128279,93.5,-14.375,-12.125,0.0,0.0,0.0,0.0,0.0,0.0,2,0,41.45115051488269,-92.24566404960429,10000.003441886258,99.82131314207112,-0.0066991285965275,0.0071762288839985,,9023.624474727972,10930.733041558857,150,8,2025-09-10,2025-09-26 15:59:56.984,AH,C,3959241554,AMBUSH51,1,1,48,2,1,1,225,2,1,0,0,9,1,225,2,1,-144138.91353889822,-4791949.81546938,4196841.733872377,2.40887,2.76554,-0.415063,-72.912,29.8579,31.2189,-0.184213,-7.34591,6.61241,0.0406954,0.000548237,0.0206863,4,0,41.39012206512628,-91.7229024475035,9015.949198408642,-59.46937775264699,1.937278161906581,2.9427194296702432,152.731,9023.624474727972,10930.733041558857,150,True,23.792686555671917,False,160.62704778322572,178.73820706839157,False,20.491216234087688,True,False
8,1970-07-23 09:59:59.977572388,2025-09-10,2025-09-26 15:59:57.757,AH,C,4002847010,JASSM,3,141,76,2,2,1,225,9,2,0,1,26,0,0,0,0,-187593.1761492056,-4786191.696260299,4202112.882292271,-2.30145,-0.153206,0.128279,93.5,-14.375,-12.125,0.0,0.0,0.0,0.0,0.0,0.0,2,0,41.451004063363776,-92.24453993606092,10000.002229733833,99.82205728315726,-0.0058439484362899,0.0071756475654777,,9023.624474727972,10930.733041558857,150,8,2025-09-10,2025-09-26 15:59:57.855,AH,C,3960275486,AMBUSH51,1,1,48,2,1,1,225,2,1,0,0,9,1,225,2,1,-144201.99937050504,-4791923.8133941945,4196868.810218419,2.439,2.7565,-0.423573,-72.5189,29.984,31.6702,-0.0972994,-7.25665,6.72979,0.0292521,0.00126812,0.00634893,4,0,41.390448260124586,-91.72366540936056,9015.382302739605,-58.7901947701108,1.950227484442829,4.481083032537574,152.523,9023.624474727972,10930.733041558857,150,True,23.704526052085175,False,160.241511144177,178.70525655814865,False,20.909006221409346,True,False
8,1970-07-23 09:59:59.987132530,2025-09-10,2025-09-26 15:59:58.713,AH,C,4004099696,JASSM,3,141,76,2,2,1,225,9,2,0,1,26,0,0,0,0,-187495.02575858065,-4786206.864229049,4202100.073698521,-2.30145,-0.153206,0.128279,93.5,-14.375,-12.125,0.0,0.0,0.0,0.0,0.0,0.0,2,0,41.45085026428039,-92.2433596711243,10000.004156645802,99.82283859303742,-0.0049460430704057,0.0071750179204709,,9023.624474727972,10930.733041558857,150,8,2025-09-10,2025-09-26 15:59:58.684,AH,C,3961269652,AMBUSH51,1,1,48,2,1,1,225,2,1,0,0,9,1,225,2,1,-144262.33986067565,-4791898.45356548,4196895.250752462,2.44927,2.74779,-0.42667,-72.0677,30.5485,31.9507,-0.240343,-7.16551,6.52012,-0.0152227,-0.00257266,0.0218993,4,0,41.390766828481546,-91.72439535212638,9014.815667801176,-58.34237052159354,1.7577450670204873,4.877840809764471,152.23,9023.624474727972,10930.733041558857,150,True,23.61535176018845,False,159.7501214643531,178.67222151206698,False,21.44139269436341,True,False
8,1970-07-23 09:59:59.997599317,2025-09-10,2025-09-26 15:59:59.759,AH,C,4005292754,JASSM,3,141,76,2,2,1,225,9,2,0,1,26,0,0,0,0,-187401.54528983065,-4786221.307588424,4202087.872526646,-2.30145,-0.153206,0.128279,93.5,-14.375,-12.125,0.0,0.0,0.0,0.0,0.0,0.0,2,0,41.45070377551456,-92.24223556886189,9999.99923553166,99.82358272222368,-0.0040908610291161,0.0071744218922482,,9023.624474727972,10930.733041558857,150,8,2025-09-10,2025-09-26 15:59:59.984,AH,C,3962820550,AMBUSH51,1,1,48,2,1,1,225,2,1,0,0,9,1,225,2,1,-144356.05795449307,-4791857.944108721,4196937.115077129,2.38627,2.73867,-0.434153,-71.4888,31.0762,32.3503,-0.0475155,-6.99774,6.51797,-0.0600553,-0.00234171,0.0116357,4,0,41.39127366609973,-91.72552948379096,9012.912279703369,-57.70367194268722,1.732357046161597,1.0697659389807868,152.327,9023.624474727972,10930.733041558857,150,True,23.509065362169316,False,159.171623861219,178.62035382368367,False,22.07904729611925,True,False
8,1970-07-23 10:00:00.007970001,2025-09-10,2025-09-26 16:00:00.797,AH,C,4006485850,JASSM,3,141,76,2,2,1,225,9,2,0,1,26,0,0,0,0,-187308.06091483065,-4786235.750947799,4202075.671354771,-2.30145,-0.153206,0.128279,93.5,-14.375,-12.125,0.0,0.0,0.0,0.0,0.0,0.0,2,0,41.4505572766711,-92.24111142496685,9999.99860911332,99.82432687680613,-0.0032356446388086,0.0071738326898612,,9023.624474727972,10930.733041558857,150,8,2025-09-10,2025-09-26 16:00:00.817,AH,C,3963814716,AMBUSH51,1,1,48,2,1,1,225,2,1,0,0,9,1,225,2,1,-144415.74788820744,-4791832.155097199,4196963.652458099,2.33429,2.73519,-0.435249,-71.4639,31.1768,32.1173,-0.0440184,-7.26344,6.59707,-0.0472035,-0.00354013,0.00277447,4,0,41.39159554604479,-91.72625182792204,9011.458188964618,-57.530781773625634,1.6515672982995462,-1.9868549711491508,152.523,9023.624474727972,10930.733041558857,150,True,23.422780777279872,False,159.22781157580462,178.58580149921656,False,22.06434356436869,True,False
8,1970-07-23 10:00:00.017111857,2025-09-10,2025-09-26 16:00:01.711,AH,C,4007678896,JASSM,3,141,76,2,2,1,225,9,2,0,1,26,0,0,0,0,-187214.5823992056,-4786250.192354049,4202063.470182896,-2.30145,-0.153206,0.128279,93.5,-14.25,-12.125,0.0,0.0,0.0,0.0,0.0,0.0,2,0,41.45041077710171,-92.23998735707816,9999.998417342753,99.82507097891124,-0.0023804823756685,0.0071732444831211,,9023.624474727972,10930.733041558857,150,8,2025-09-10,2025-09-26 16:00:01.718,AH,C,3964888414,AMBUSH51,1,1,48,2,1,1,225,2,1,0,0,9,1,225,2,1,-144480.3140597354,-4791804.143184591,4196992.474604478,2.29529,2.73892,-0.427209,-71.6812,31.0222,31.8745,-0.0122179,-7.09108,6.58427,-0.034645,-0.00655907,-0.0146463,4,0,41.39194519590636,-91.7270332323311,9009.855965260704,-57.99201025408977,1.458090578910564,-4.145127653825929,152.535,9023.624474727972,10930.733041558857,150,True,23.33363273619192,False,159.4216135182243,178.61492946818984,False,21.863217182409574,True,False
8,1970-07-23 10:00:00.029131960,2025-09-10,2025-09-26 16:00:02.913,AH,C,4009050862,JASSM,3,141,76,2,2,1,225,9,2,0,1,26,0,0,0,0,-187107.0823992056,-4786266.799775924,4202049.438932896,-2.30145,-0.153206,0.128279,93.5,-14.25,-12.125,0.0,0.0,0.0,0.0,0.0,0.0,2,0,41.450242290767605,-92.23869468885223,10000.003730556544,99.82592668714013,-0.0013970486990669,0.007172569261356,,9023.624474727972,10930.733041558857,150,8,2025-09-10,2025-09-26 16:00:03.083,AH,C,3966518846,AMBUSH51,1,1,48,2,1,1,225,2,1,0,0,9,1,225,2,1,-144578.04016420056,-4791762.355817719,4197035.294987079,2.30627,2.75233,-0.414067,-72.095,30.5306,31.2914,-0.162633,-7.21168,6.66631,0.045487,-0.00227305,-0.00471567,4,0,41.39246534491589,-91.72821574683616,9007.194780239171,-59.02111735926742,1.4134752654925362,-3.227900655587812,152.388,9023.624474727972,10930.733041558857,150,True,23.217444374702428,False,160.01027549769455,178.55895100382617,False,21.334242625116623,True,False
8,1970-07-23 10:00:00.039583704,2025-09-10,2025-09-26 16:00:03.958,AH,C,4010303666,JASSM,3,141,76,2,2,1,225,9,2,0,1,26,0,0,0,0,-187008.9222429556,-4786281.961885299,4202036.624479771,-2.30145,-0.15311,0.128279,93.5,-14.25,-12.125,0.0,0.0,0.0,0.0,0.0,0.0,2,0,41.45008842932337,-92.23751433754762,10000.003095402471,99.8230717677179,-0.0045559910331146,0.0064693826319261,,9023.624474727972,10930.733041558857,150,8,2025-09-10,2025-09-26 16:00:03.950,AH,C,3967552778,AMBUSH51,1,1,48,2,1,1,225,2,1,0,0,9,1,225,2,1,-144640.5001430255,-4791735.885741824,4197062.246478213,2.34216,2.75699,-0.413069,-72.2156,30.1974,31.2948,-0.228084,-7.18861,6.78832,0.0425867,0.00741004,-0.00233963,4,0,41.39279355794845,-91.7289714552344,9005.178638438352,-59.23571519580812,1.5453312174071612,-1.0696268782344818,151.936,9023.624474727972,10930.733041558857,150,True,23.12709235233069,False,160.17692555165445,178.52214847551213,False,21.201791403676868,True,False
8,1970-07-23 10:00:00.051152723,2025-09-10,2025-09-26 16:00:05.115,AH,C,4011675554,JASSM,3,141,76,2,2,1,225,9,2,0,1,26,0,0,0,0,-186901.42810233065,-4786298.563447799,4202022.589323521,-2.30145,-0.15311,0.128279,93.5,-14.25,-12.125,0.0,0.0,0.0,0.0,0.0,0.0,2,0,41.4499199223606,-92.23622175489103,9999.997905191707,99.82392741388182,-0.0035726123140476,0.0064686426473774,,9023.624474727972,10930.733041558857,150,8,2025-09-10,2025-09-26 16:00:05.217,AH,C,3969063910,AMBUSH51,1,1,48,2,1,1,225,2,1,0,0,9,1,225,2,1,-144732.4617266205,-4791697.249693504,4197101.877290812,2.39992,2.75448,-0.416427,-72.1449,30.3557,31.3802,-0.0712988,-7.01057,6.49624,0.0453351,0.00143041,-0.00777622,4,0,41.39327444229691,-91.73008399861068,9002.93342481118,-59.00763090006932,1.5905885639547643,2.188214584266392,152.327,9023.624474727972,10930.733041558857,150,True,23.01440848182335,False,160.05465458921003,178.46915057732443,False,21.380940022812702,True,False
8,1970-07-23 10:00:00.061154122,2025-09-10,2025-09-26 16:00:06.115,AH,C,4012928252,JASSM,3,141,76,2,2,1,225,9,2,0,1,26,0,0,0,0,-186803.27575858065,-4786313.723604049,4202009.772917271,-2.30145,-0.15311,0.128375,93.5,-14.25,-12.125,0.0,0.0,0.0,0.0,0.0,0.0,2,0,41.44976603217189,-92.235041509564,9999.999767076091,99.8287992589304,-0.0063410657167009,0.0064676307204103,,9023.624474727972,10930.733041558857,150,8,2025-09-10,2025-09-26 16:00:06.084,AH,C,3970097842,AMBUSH51,1,1,48,2,1,1,225,2,1,0,0,9,1,225,2,1,-144794.79602545022,-4791670.72273533,4197129.016900971,2.43007,2.7552,-0.419381,-71.9223,30.5584,31.8004,-0.165815,-7.13169,6.84578,0.0279455,0.00242077,0.00962795,4,0,41.39360427424536,-91.73083824521264,9001.182869508839,-58.91566321858194,1.73788741870199,3.9349122644676986,152.23,9023.624474727972,10930.733041558857,150,True,22.924136830123878,False,159.71385283541,178.43122667639864,False,21.759164586271897,True,False
8,1970-07-23 10:00:00.072813913,2025-09-10,2025-09-26 16:00:07.281,AH,C,4014240604,JASSM,3,141,76,2,2,1,225,9,2,0,1,26,0,0,0,0,-186700.44763358065,-4786329.602510299,4201996.347136021,-2.30145,-0.15311,0.128375,93.5,-14.25,-12.125,0.0,0.0,0.0,0.0,0.0,0.0,2,0,41.44960482641746,-92.23380504730342,10000.00131133608,99.82961775014152,-0.0054003755098029,0.0064670026869602,,9023.624474727972,10930.733041558857,150,8,2025-09-10,2025-09-26 16:00:07.284,AH,C,3971529440,AMBUSH51,1,1,48,2,1,1,225,2,1,0,0,9,1,225,2,1,-144880.76982423643,-4791634.114074286,4197166.2943329085,2.44909,2.74393,-0.429949,-71.6389,31.0999,32.1415,-0.186414,-6.99133,6.81694,0.00828181,0.00503192,0.0167581,4,0,41.39405826839712,-91.73187855091707,8998.384328458547,-58.07199374358541,1.757183514400456,4.784777143164101,152.437,9023.624474727972,10930.733041558857,150,True,22.817497584077916,False,159.260370431787,178.37973100308557,False,22.269597233579045,True,False
8,1970-07-23 10:00:00.083592756,2025-09-10,2025-09-26 16:00:08.359,AH,C,4015552954,JASSM,3,141,76,2,2,1,225,9,2,0,1,26,0,0,0,0,-186597.61950858065,-4786345.481416549,4201982.917448521,-2.30145,-0.15311,0.128375,93.5,-14.25,-12.125,0.0,0.0,0.0,0.0,0.0,0.0,2,0,41.44944358101933,-92.23256859116525,10000.000023064533,99.8304362346839,-0.0044596807780734,0.0064663486396439,,9023.624474727972,10930.733041558857,150,8,2025-09-10,2025-09-26 16:00:08.517,AH,C,3973000806,AMBUSH51,1,1,48,2,1,1,225,2,1,0,0,9,1,225,2,1,-144969.69484048238,-4791595.110838148,4197206.173274697,2.3992,2.73586,-0.436338,-71.3954,31.6286,32.7172,-0.00830981,-6.97639,6.68959,-0.0639023,-0.00277031,0.000654347,4,0,41.3945435308444,-91.73295499394814,8995.563583678211,-57.51653341193408,1.7263459445520666,1.7490159607603435,153.024,9023.624474727972,10930.733041558857,150,True,22.708997978504787,False,158.72457481824733,178.32376114362432,False,22.863935260132518,True,False
8,1970-07-23 10:00:00.094151815,2025-09-10,2025-09-26 16:00:09.415,AH,C,4016805654,JASSM,3,141,76,2,2,1,225,9,2,0,1,26,0,0,0,0,-186499.4652117056,-4786360.635713424,4201970.099089146,-2.30145,-0.15311,0.128375,93.5,-14.25,-12.125,0.0,0.0,0.0,0.0,0.0,0.0,2,0,41.449289675497695,-92.2313883424919,9999.998995132484,99.83121750968662,-0.0035617482001659,0.0064657469809755,,9023.624474727972,10930.733041558857,150,8,2025-09-10,2025-09-26 16:00:09.384,AH,C,3974034738,AMBUSH51,1,1,48,2,1,1,225,2,1,0,0,9,1,225,2,1,-145031.62215668097,-4791567.614517402,4197234.460260404,2.34508,2.73508,-0.437798,-71.432,31.6091,32.9838,-0.131684,-7.0331,6.88704,-0.0504243,-0.000236148,-0.00589537,4,0,41.39488693038542,-91.7337047586701,8993.897638881703,-57.4294664204688,1.7585286725049414,-1.3683321264775747,153.219,9023.624474727972,10930.733041558857,150,True,22.618849357200656,False,158.62903823722138,178.28245915302696,False,22.99908116986602,True,False
8,1970-07-23 10:00:00.105159167,2025-09-10,2025-09-26 16:00:10.515,AH,C,4018118004,JASSM,3,141,76,2,2,1,225,9,2,0,1,26,0,0,0,0,-186396.63903983065,-4786376.512666549,4201956.669401646,-2.30145,-0.15311,0.128375,93.5,-14.25,-12.125,0.0,0.0,0.0,0.0,0.0,0.0,2,0,41.44912841529038,-92.23015192257644,10000.004139592942,99.83203596513196,-0.0026210732375776,0.0064651007396535,,9023.624474727972,10930.733041558857,150,8,2025-09-10,2025-09-26 16:00:10.651,AH,C,3975545870,AMBUSH51,1,1,48,2,1,1,225,2,1,0,0,9,1,225,2,1,-145122.13605906235,-4791527.830634108,4197275.451163521,2.25991,2.74479,-0.429213,-71.9903,31.267,32.6503,0.0189834,-7.08874,6.8709,-0.0610998,0.00136591,-0.00437653,4,0,41.39538404090947,-91.73480049394502,8991.696832732954,-58.13542473440005,1.760966695234605,-6.035923160745413,153.415,9023.624474727972,10930.733041558857,150,True,22.509431271964754,False,159.1015724334445,178.22394657503852,False,22.586537028495048,True,False
8,1970-07-23 10:00:00.120396383,2025-09-10,2025-09-26 16:00:12.039,AH,C,4019430356,JASSM,3,141,76,2,2,1,225,9,2,0,1,26,0,0,0,0,-186293.81091483065,-4786392.385713424,4201943.237761021,-2.30145,-0.15311,0.128375,93.5,-14.25,-12.125,0.0,0.0,0.0,0.0,0.0,0.0,2,0,41.44896715232092,-92.22891548725812,10000.000907591842,99.83285442815384,-0.0016803841488822,0.006464467579009,,9023.624474727972,10930.733041558857,150,8,2025-09-10,2025-09-26 16:00:11.917,AH,C,3977057002,AMBUSH51,1,1,48,2,1,1,225,2,1,0,0,9,1,225,2,1,-145214.42275836074,-4791488.181200902,4197316.236458288,2.21251,2.75993,-0.414199,-72.9394,30.6504,31.6831,-0.0194793,-7.07025,6.79255,0.00342362,0.00541059,-0.0244355,4,0,41.39587863348144,-91.73591737680984,8989.518770872468,-59.30426691732531,1.7059874284488212,-8.432310176882345,153.757,9023.624474727972,10930.733041558857,150,True,22.39911780045198,False,160.08812363659715,178.1654078807972,False,21.663561331079553,True,False
8,1970-07-23 10:00:00.126157081,2025-09-10,2025-09-26 16:00:12.615,AH,C,4020683054,JASSM,3,141,76,2,2,1,225,9,2,0,1,26,0,0,0,0,-186195.6566179556,-4786407.538057174,4201930.415495396,-2.30145,-0.153015,0.128375,93.5,-14.25,-12.125,0.0,0.0,0.0,0.0,0.0,0.0,2,0,41.4488131945853,-92.22773525676394,10000.002533965884,99.8299995042134,-0.0048393768242543,0.0057607778123639,,9023.624474727972,10930.733041558857,150,8,2025-09-10,2025-09-26 16:00:12.719,AH,C,3978011400,AMBUSH51,1,1,48,2,1,1,225,2,1,0,0,9,1,225,2,1,-145272.41767460856,-4791464.5566398725,4197341.60806637,2.23427,2.77251,-0.401788,-73.2797,27.6527,33.9631,-0.114062,-7.08458,6.7812,0.0415235,0.000693878,-0.023389,4,0,41.396180007926986,-91.73661879045802,8990.770084777225,-60.2758878002507,1.6705827400923792,-6.927780757843777,153.904,9023.624474727972,10930.733041558857,150,True,22.31152698720128,False,160.166558737606,178.12830161154497,False,21.541535619906835,True,False
8,1970-07-23 10:00:00.137157006,2025-09-10,2025-09-26 16:00:13.715,AH,C,4021935754,JASSM,3,141,76,2,2,1,225,9,2,0,1,26,0,0,0,0,-186097.50232108065,-4786422.688447799,4201917.591276646,-2.30145,-0.153015,0.128375,93.5,-14.25,-12.125,0.0,0.0,0.0,0.0,0.0,0.0,2,0,41.44865922318897,-92.22655503275844,10000.00026820282,99.83078075316315,-0.0039414427522624,0.0057601027124781,,9023.624474727972,10930.733041558857,150,8,2025-09-10,2025-09-26 16:00:13.617,AH,C,3979085100,AMBUSH51,1,1,48,2,1,1,225,2,1,0,0,9,1,225,2,1,-145339.1828538061,-4791437.033591661,4197368.480819032,2.2841,2.78315,-0.397222,-74.0011,29.496,30.7132,-0.202011,-7.28053,7.03777,0.103288,-0.00467822,-0.00080415,4,0,41.39651312160494,-91.73742640117604,8986.344639295678,-60.85787916816778,1.884797314807483,-3.854033035949585,154.001,9023.624474727972,10930.733041558857,150,True,22.21894953745299,False,161.3096077456824,178.08717821700873,False,20.518091843403603,True,False
8,1970-07-23 10:00:00.147152798,2025-09-10,2025-09-26 16:00:14.715,AH,C,4023188696,JASSM,3,141,76,2,2,1,225,9,2,0,1,26,0,0,0,0,-185999.3284929556,-4786437.840791549,4201904.765104771,-2.30145,-0.153015,0.128375,93.5,-14.25,-12.125,0.0,0.0,0.0,0.0,0.0,0.0,2,0,41.44850521939698,-92.2253745799816,10000.00184410883,99.83156215115883,-0.0030433321134257,0.005759437574678,,9023.624474727972,10930.733041558857,150,8,2025-09-10,2025-09-26 16:00:14.883,AH,C,3980596230,AMBUSH51,1,1,48,2,1,1,225,2,1,0,0,9,1,225,2,1,-145432.92014631286,-4791399.617553772,4197406.637662197,2.36243,2.78442,-0.40159,-74.1858,29.2834,30.5435,-0.210674,-7.3875,6.91732,0.045564,-0.00119322,0.00274118,4,0,41.39697639510506,-91.73855984424353,8984.08057709231,-60.7279918823855,2.109623514117608,0.6670903260997277,154.001,9023.624474727972,10930.733041558857,150,True,22.110770802154104,False,161.52628200695673,178.0319728564244,False,20.357245375836065,True,False
8,1970-07-23 10:00:00.158152277,2025-09-10,2025-09-26 16:00:15.815,AH,C,4024500802,JASSM,3,141,76,2,2,1,225,9,2,0,1,26,0,0,0,0,-185896.5198992056,-4786453.706025924,4201891.331511021,-2.30145,-0.153015,0.128471,93.5,-14.25,-12.125,0.0,0.0,0.0,0.0,0.0,0.0,2,0,41.44834393388094,-92.22413840540116,9999.998871133355,99.83647104180206,-0.0057691467610493,0.0057584615573987,,9023.624474727972,10930.733041558857,150,8,2025-09-10,2025-09-26 16:00:15.683,AH,C,3981550630,AMBUSH51,1,1,48,2,1,1,225,2,1,0,0,9,1,225,2,1,-145492.37275439294,-4791375.870987918,4197431.024151029,2.40287,2.77904,-0.404082,-74.0827,29.4261,30.7947,-0.25541,-7.19152,6.70057,0.0442865,0.000685556,0.00681915,4,0,41.39727156494749,-91.73927874135872,8983.012158569472,-60.427439484645554,2.0095011330503025,2.874296259165685,153.953,9023.624474727972,10930.733041558857,150,True,22.01993818781322,False,161.32628826844854,177.99433290778404,False,20.594710599912407,True,False
8,1970-07-23 10:00:00.170129495,2025-09-10,2025-09-26 16:00:17.012,AH,C,4025813288,JASSM,3,141,76,2,2,1,225,9,2,0,1,26,0,0,0,0,-185793.68200858065,-4786469.577119674,4201877.892057896,-2.30145,-0.153015,0.128471,93.5,-14.25,-12.125,0.0,0.0,0.0,0.0,0.0,0.0,2,0,41.4481825674417,-92.2229018840588,10000.000425886004,99.8372895491133,-0.0048283653752259,0.0057578121947448,,9023.624474727972,10930.733041558857,150,8,2025-09-10,2025-09-26 16:00:16.917,AH,C,3983021994,AMBUSH51,1,1,48,2,1,1,225,2,1,0,0,9,1,225,2,1,-145584.10065064687,-4791338.77499312,4197469.161248573,2.43911,2.77004,-0.411764,-73.6592,29.9383,31.3655,-0.116959,-7.00902,6.66124,0.0200933,-0.00934707,0.0107681,4,0,41.3977331462993,-91.74038808835876,8981.352132627557,-59.78176787752834,1.985681941551008,4.768433459759742,153.904,9023.624474727972,10930.733041558857,150,True,21.910327012069228,False,160.73946332038074,177.93769843895043,False,21.240104602556208,True,False
8,1970-07-23 10:00:00.181128209,2025-09-10,2025-09-26 16:00:18.112,AH,C,4027125506,JASSM,3,141,76,2,2,1,225,9,2,0,1,26,0,0,0,0,-185690.8636492056,-4786485.442354049,4201864.454557896,-2.30145,-0.153015,0.128471,93.5,-14.25,-12.125,0.0,0.0,0.0,0.0,0.0,0.0,2,0,41.448021231251545,-92.22166560500588,9999.999337903811,99.83810789342144,-0.003887765816363,0.0057571754391547,,9023.624474727972,10930.733041558857,150,8,2025-09-10,2025-09-26 16:00:18.183,AH,C,3984533126,AMBUSH51,1,1,48,2,1,1,225,2,1,0,0,9,1,225,2,1,-145676.69992289395,-4791300.453572117,4197508.667854102,2.44085,2.757,-0.422639,-73.1036,30.569,32.0281,-0.129593,-7.06567,6.69959,-0.00391672,0.00618873,0.0043911,4,0,41.39821109531588,-91.74150830691028,8979.719858467604,-58.85824109805881,1.9460526159842069,4.597000272005604,154.001,9023.624474727972,10930.733041558857,150,True,21.800130388829547,False,160.02326253011475,177.87813135125583,False,22.01839880918056,True,False
8,1970-07-23 10:00:00.195182939,2025-09-10,2025-09-26 16:00:19.518,AH,C,4028437856,JASSM,3,141,76,2,2,1,225,9,2,0,1,26,0,0,0,0,-185588.0355242056,-4786501.307588424,4201851.015104771,-2.30145,-0.153015,0.128471,93.5,-14.25,-12.125,0.0,0.0,0.0,0.0,0.0,0.0,2,0,41.447859870850245,-92.22042921535687,9999.998727731676,99.83892630831718,-0.0029470781619594,0.0057565428222013,,9023.624474727972,10930.733041558857,150,8,2025-09-10,2025-09-26 16:00:19.684,AH,C,3986322624,AMBUSH51,1,1,48,2,1,1,225,2,1,0,0,9,1,225,2,1,-145786.6497341655,-4791253.759397721,4197556.655944846,2.36894,2.74787,-0.427244,-72.8033,31.1769,32.5661,-0.00782089,-7.12477,6.65856,-0.0853117,0.00250816,0.00696063,4,0,41.39879296295668,-91.74283887839984,8977.197441259676,-58.33438593893303,1.800044737991224,0.2785502431099468,153.757,9023.624474727972,10930.733041558857,150,True,21.67973347123595,False,159.4597934654948,177.8053943855124,False,22.65841817089919,True,False
8,1970-07-23 10:00:00.202153481,2025-09-10,2025-09-26 16:00:20.215,AH,C,4029750208,JASSM,3,141,76,2,2,1,225,9,2,0,1,26,0,0,0,0,-185485.2073992056,-4786517.170869674,4201837.575651646,-2.30145,-0.153015,0.128471,93.5,-14.25,-12.125,0.0,0.0,0.0,0.0,0.0,0.0,2,0,41.44769850878314,-92.2191928327398,9999.99896901084,99.83974471593744,-0.0020063931362494,0.0057559214938642,,9023.624474727972,10930.733041558857,150,8,2025-09-10,2025-09-26 16:00:20.117,AH,C,3986839590,AMBUSH51,1,1,48,2,1,1,225,2,1,0,0,9,1,225,2,1,-145818.67736675462,-4791239.962155025,4197570.927180388,2.34075,2.74312,-0.429721,-72.7984,31.1876,32.6018,-0.07569,-6.96731,6.73375,-0.0682175,-0.00968413,0.00794891,4,0,41.39896559309437,-91.74322654045685,8976.618150771485,-58.05857415393148,1.7282005905439624,-1.4409724637763053,153.904,9023.624474727972,10930.733041558857,150,True,21.604704811853562,False,159.43857592551362,177.77925870346968,False,22.705904125418577,True,False
8,1970-07-23 10:00:00.213151254,2025-09-10,2025-09-26 16:00:21.315,AH,C,4031062558,JASSM,3,141,76,2,2,1,225,9,2,0,1,26,0,0,0,0,-185382.3792742056,-4786533.034150924,4201824.134245396,-2.30145,-0.152919,0.128471,93.5,-14.25,-12.125,0.0,0.0,0.0,0.0,0.0,0.0,2,0,41.44753712024866,-92.21795645625006,10000.000619618217,99.83692703256304,-0.0051226277592762,0.0050517094466722,,9023.624474727972,10930.733041558857,150,8,2025-09-10,2025-09-26 16:00:21.384,AH,C,3988350722,AMBUSH51,1,1,48,2,1,1,225,2,1,0,0,9,1,225,2,1,-145910.63664336962,-4791200.81420705,4197611.49433799,2.29725,2.74979,-0.416045,-73.0532,31.0407,32.2109,-0.0559002,-7.01104,6.52872,-0.0227211,-0.00857517,-0.0234161,4,0,41.39945570755885,-91.74433945584452,8975.220964748298,-58.85723231518118,1.4144978237898702,-3.79883335876729,154.099,9023.624474727972,10930.733041558857,150,True,21.49479671055619,False,159.75225323584317,177.71585628576855,False,22.459798512174032,True,False
8,1970-07-23 10:00:00.225110069,2025-09-10,2025-09-26 16:00:22.511,AH,C,4032315258,JASSM,3,141,76,2,2,1,225,9,2,0,1,26,0,0,0,0,-185284.22497733065,-4786548.174775924,4201811.302214146,-2.30145,-0.152919,0.128471,93.5,-14.25,-12.125,0.0,0.0,0.0,0.0,0.0,0.0,2,0,41.44738305393085,-92.21677628302578,10000.000052516692,99.83770822819818,-0.0042246977544928,0.0050510458577064,,9023.624474727972,10930.733041558857,150,8,2025-09-10,2025-09-26 16:00:22.650,AH,C,3989861854,AMBUSH51,1,1,48,2,1,1,225,2,1,0,0,9,1,225,2,1,-146004.13006451368,-4791161.409039162,4197651.752860979,2.27032,2.75894,-0.41092,-73.4494,30.426,31.6234,-0.0923214,-7.2044,6.79415,0.0197251,0.000966436,0.000517028,4,0,41.399944979765216,-91.74547081101406,8972.642403301044,-59.40594409228719,1.5441870664560469,-5.145186794311914,154.001,9023.624474727972,10930.733041558857,150,True,21.38666224186809,False,160.3736337314555,177.65229686414148,False,21.901893821683,True,False
8,1970-07-23 10:00:00.235132655,2025-09-10,2025-09-26 16:00:23.513,AH,C,4033567966,JASSM,3,141,76,2,2,1,225,9,2,0,1,26,0,0,0,0,-185186.06872733065,-4786563.315400924,4201798.468229771,-2.30145,-0.152919,0.128471,93.5,-14.25,-12.125,0.0,0.0,0.0,0.0,0.0,0.0,2,0,41.447228962776514,-92.2155960920414,10000.000207067967,99.8384894332006,-0.0033267483106235,0.0050503726738484,,9023.624474727972,10930.733041558857,150,8,2025-09-10,2025-09-26 16:00:23.419,AH,C,3990776486,AMBUSH51,1,1,48,2,1,1,225,2,1,0,0,9,1,225,2,1,-146060.3935526744,-4791138.38908607,4197675.362651171,2.3155,2.76036,-0.406074,-73.6703,30.171,31.1432,-0.126031,-7.28153,6.57305,0.0974915,-0.00653203,-0.0190635,4,0,41.40023111869005,-91.74615140587817,8971.460434907422,-59.65537263364419,1.4006020399567434,-2.530363802854428,154.001,9023.624474727972,10930.733041558857,150,True,21.300259692147996,False,160.75543109120372,177.61249658918192,False,21.562993780601047,True,False
8,1970-07-23 10:00:00.245132752,2025-09-10,2025-09-26 16:00:24.513,AH,C,4034880414,JASSM,3,141,76,2,2,1,225,9,2,0,1,26,0,0,0,0,-185083.23278983065,-4786579.174775924,4201785.022917271,-2.30145,-0.152919,0.128471,93.5,-14.25,-12.125,0.0,0.0,0.0,0.0,0.0,0.0,2,0,41.44706753427491,-92.2143596418108,9999.999472337542,99.83930787537808,-0.0023859931223353,0.0050496889160345,,9023.624474727972,10930.733041558857,150,8,2025-09-10,2025-09-26 16:00:24.683,AH,C,3992287618,AMBUSH51,1,1,48,2,1,1,225,2,1,0,0,9,1,225,2,1,-146153.25349062873,-4791100.31795517,4197713.95853877,2.40017,2.76341,-0.403954,-73.5952,30.2074,30.9676,-0.345282,-7.33659,6.85424,0.100691,0.010895,0.0126781,4,0,41.40070132718562,-91.7472747336457,8968.518212204577,-59.85564249780729,1.4285527035876515,2.384398159310785,153.366,9023.624474727972,10930.733041558857,150,True,21.19011294251209,False,160.7935674604048,177.55019497924184,False,21.59105891180129,True,False
8,1970-07-23 10:00:00.256134565,2025-09-10,2025-09-26 16:00:25.613,AH,C,4036133144,JASSM,3,141,76,2,2,1,225,9,2,0,1,26,0,0,0,0,-184985.07653983065,-4786594.313447799,4201772.186979771,-2.30145,-0.152919,0.128567,93.5,-14.25,-12.125,0.0,0.0,0.0,0.0,0.0,0.0,2,0,41.4469134167716,-92.21317946316556,10000.00112950512,99.84417972301893,-0.0051543171483633,0.0050487768782218,,9023.624474727972,10930.733041558857,150,8,2025-09-10,2025-09-26 16:00:25.550,AH,C,3993321550,AMBUSH51,1,1,48,2,1,1,225,2,1,0,0,9,1,225,2,1,-146216.89296087733,-4791073.848963168,4197740.719321035,2.52213,2.75426,-0.41743,-73.2407,30.5421,31.6484,-0.175381,-7.12162,7.02558,0.151225,0.00592865,0.0262831,4,0,41.40102790787418,-91.74804472835967,8966.248462171458,-58.97086916629635,1.6389259896223365,9.186590829162824,153.708,9023.624474727972,10930.733041558857,150,True,21.099434521856008,False,160.247867934882,177.50450543445476,False,22.179344762918646,True,False
8,1970-07-23 10:00:00.268040734,2025-09-10,2025-09-26 16:00:26.804,AH,C,4037505010,JASSM,3,141,76,2,2,1,225,9,2,0,1,26,0,0,0,0,-184877.58435233065,-4786610.887666549,4201758.130339146,-2.30145,-0.152919,0.128567,93.5,-14.25,-12.125,0.0,0.0,0.0,0.0,0.0,0.0,2,0,41.446744653706105,-92.21188704257474,9999.9985424052,99.84503520821644,-0.0041709674093812,0.005048134177439,,9023.624474727972,10930.733041558857,150,8,2025-09-10,2025-09-26 16:00:26.683,AH,C,3994673616,AMBUSH51,1,1,48,2,1,1,225,2,1,0,0,9,1,225,2,1,-146300.24060682816,-4791037.794207599,4197777.240378907,2.69699,2.73237,-0.437178,-72.2032,32.3413,33.3259,-0.300875,-6.9315,7.155,0.139661,0.00333207,0.0412155,4,0,41.4014738230954,-91.74905369729618,8963.059806322266,-57.36338489856352,1.6480232244877333,18.73186397282821,153.904,9023.624474727972,10930.733041558857,150,False,20.992070389521878,False,158.49259580218512,177.44262891645846,False,24.00164248453343,True,False
8,1970-07-23 10:00:00.278132064,2025-09-10,2025-09-26 16:00:27.813,AH,C,4038757708,JASSM,3,141,76,2,2,1,225,9,2,0,1,26,0,0,0,0,-184779.4300554556,-4786626.022432174,4201745.292448521,-2.30145,-0.152919,0.128567,93.5,-14.25,-12.125,0.0,0.0,0.0,0.0,0.0,0.0,2,0,41.44659052045716,-92.21070690077966,9999.997332095254,99.8458163707972,-0.003273038440515,0.0050475295321121,,9023.624474727972,10930.733041558857,150,8,2025-09-10,2025-09-26 16:00:27.750,AH,C,3995946148,AMBUSH51,1,1,48,2,1,1,225,2,1,0,0,9,1,225,2,1,-146375.79612217922,-4791001.914373378,4197813.231977403,2.84166,2.68217,-0.466806,-70.5985,34.4024,36.0122,-0.272579,-7.01012,7.36845,0.101257,0.0158073,0.0525693,4,0,41.40191653095246,-91.74996951699008,8958.571944403371,-54.319175144782825,1.0926920967154046,25.837076625529928,154.784,9023.624474727972,10930.733041558857,150,False,20.89402665379997,False,156.02992080850785,177.3796602699096,False,26.52422728686952,True,False
8,1970-07-23 10:00:00.291241616,2025-09-10,2025-09-26 16:00:29.124,AH,C,4040070058,JASSM,3,141,76,2,2,1,225,9,2,0,1,26,0,0,0,0,-184676.59997733065,-4786641.877900924,4201731.843229771,-2.30145,-0.152919,0.128567,93.5,-14.25,-12.125,0.0,0.0,0.0,0.0,0.0,0.0,2,0,41.44642903494656,-92.20947054662705,10000.00141912567,99.84663473904764,-0.0023323353945867,0.0050468991517005,,9023.624474727972,10930.733041558857,150,8,2025-09-10,2025-09-26 16:00:28.983,AH,C,3997417514,AMBUSH51,1,1,48,2,1,1,225,2,1,0,0,9,1,225,2,1,-146460.94632371116,-4790955.743809163,4197858.859104226,2.97069,2.61481,-0.501304,-67.3535,39.2573,39.0243,-0.183399,-7.2588,7.41851,0.0684235,0.0115587,0.0501371,4,0,41.40248375853538,-91.75100374518598,8950.403941456127,-50.461054421121936,0.2659917433697096,31.478698312468183,156.384,9023.624474727972,10930.733041558857,150,False,20.787216258355087,False,151.8560022024404,177.29735479262052,False,30.80236595895924,False,False
8,1970-07-23 10:00:00.299131533,2025-09-10,2025-09-26 16:00:29.913,AH,C,4041322758,JASSM,3,141,76,2,2,1,225,9,2,0,1,26,0,0,0,0,-184578.4456804556,-4786657.008760299,4201719.003386021,-2.30145,-0.152823,0.128567,93.5,-14.25,-12.125,0.0,0.0,0.0,0.0,0.0,0.0,2,0,41.446274886977136,-92.20829041807178,9999.996911127047,99.84377989892047,-0.005491326100259,0.004342227504943,,9023.624474727972,10930.733041558857,150,8,2025-09-10,2025-09-26 16:00:30.086,AH,C,3998729812,AMBUSH51,1,1,48,2,1,1,225,2,1,0,0,9,1,225,2,1,-146533.77780761546,-4790909.671846515,4197903.487134293,3.06102,2.54208,-0.541938,-63.6988,43.4203,42.302,-0.279126,-7.5877,7.81752,0.0507696,0.0421685,0.0623669,4,0,41.40304588761102,-91.75189077097718,8939.389722486143,-46.2004779496849,-0.2903757268302151,34.57591308740116,157.387,9023.624474727972,10930.733041558857,150,False,20.68961803608385,False,147.70181619932552,177.21276625160402,False,35.049268023759154,False,False
8,1970-07-23 10:00:00.310133842,2025-09-10,2025-09-26 16:00:31.013,AH,C,4042575458,JASSM,3,141,76,2,2,1,225,9,2,0,1,26,0,0,0,0,-184480.29138358065,-4786672.139619674,4201706.163542271,-2.30145,-0.152823,0.128567,93.5,-14.25,-12.125,0.0,0.0,0.0,0.0,0.0,0.0,2,0,41.44612072689772,-92.2071102951028,9999.997551988832,99.844561041805,-0.0045934001509372,0.0043415754334388,,9023.624474727972,10930.733041558857,150,8,2025-09-10,2025-09-26 16:00:31.184,AH,C,4000042110,AMBUSH51,1,1,48,2,1,1,225,2,1,0,0,9,1,225,2,1,-146600.89205389822,-4790859.814689839,4197951.359502383,-3.13932,2.46637,-0.591516,-59.0961,47.5339,46.2163,-0.353334,-8.32899,8.68642,0.024706,0.0555612,0.0603653,4,0,41.40365347315282,-91.75271088624096,8925.679160378815,-41.5691154307479,-0.3067350100296382,36.96799083112942,159.012,9023.624474727972,10930.733041558857,150,False,20.59471444440296,False,142.9982592394709,177.1187183299865,False,39.84925380095934,False,False
8,1970-07-23 10:00:00.321110793,2025-09-10,2025-09-26 16:00:32.111,AH,C,4043887794,JASSM,3,141,76,2,2,1,225,9,2,0,1,26,0,0,0,0,-184377.46325858065,-4786687.991182174,4201692.710417271,-2.30145,-0.152823,0.128567,93.5,-14.25,-12.125,0.0,0.0,0.0,0.0,0.0,0.0,2,0,41.44595919917548,-92.2058739839322,10000.000181074656,99.8453793740252,-0.0036527150339581,0.0043408784908167,,9023.624474727972,10930.733041558857,150,8,2025-09-10,2025-09-26 16:00:31.983,AH,C,4000996510,AMBUSH51,1,1,48,2,1,1,225,2,1,0,0,9,1,225,2,1,-146647.31974471448,-4790819.867199297,4197990.098042043,-3.08019,2.40689,-0.629139,-54.9898,50.487,49.5629,-0.276831,-8.7387,9.03201,0.0317114,0.0530583,0.0606004,4,0,41.40414420292763,-91.75328022389114,8914.971440463214,-38.04357645433091,-0.1953039401515302,38.386615541515816,159.855,9023.624474727972,10930.733041558857,150,False,20.50935840262748,False,139.13791247257782,177.03877473925718,False,43.788368766917216,False,False
8,1970-07-23 10:00:00.331131448,2025-09-10,2025-09-26 16:00:33.113,AH,C,4045140506,JASSM,3,141,76,2,2,1,225,9,2,0,1,26,0,0,0,0,-184279.30700858065,-4786703.120088424,4201679.868620396,-2.30145,-0.152823,0.128567,93.5,-14.25,-12.125,0.0,0.0,0.0,0.0,0.0,0.0,2,0,41.44580501319793,-92.20469384995958,10000.002138942102,99.846160519298,-0.0027547722709661,0.0043402281156275,,9023.624474727972,10930.733041558857,150,8,2025-09-10,2025-09-26 16:00:33.049,AH,C,4002269042,AMBUSH51,1,1,48,2,1,1,225,2,1,0,0,9,1,225,2,1,-146702.30114201747,-4790764.112491274,4198044.966101421,-2.99236,2.31455,-0.682536,-48.524,54.087,54.1074,-0.324828,-9.2567,9.61763,0.0213188,0.0653109,0.0751334,4,0,41.40483630435421,-91.75395755729348,8901.029072407146,-32.861678697811925,0.0631930267862525,40.18435725631559,160.845,9023.624474727972,10930.733041558857,150,False,20.42032234638705,False,133.65873563408948,176.9270777961158,False,49.376189296832806,False,False
8,1970-07-23 10:00:00.343983612,2025-09-10,2025-09-26 16:00:34.398,AH,C,4046453134,JASSM,3,141,76,2,2,1,225,9,2,0,1,26,0,0,0,0,-184176.4573992056,-4786718.969697799,4201666.409636021,-2.30145,-0.152823,0.128567,93.5,-14.25,-12.125,0.0,0.0,0.0,0.0,0.0,0.0,2,0,41.44564343651845,-92.20345729489308,9999.996257645966,99.84697900782584,-0.0018138941924274,0.0043395412338685,,9023.624474727972,10930.733041558857,150,8,2025-09-10,2025-09-26 16:00:34.483,AH,C,4003979006,AMBUSH51,1,1,48,2,1,1,225,2,1,0,0,9,1,225,2,1,-146764.8703196617,-4790683.113642542,4198127.251395011,-2.95808,2.16028,-0.751853,-38.4711,57.6917,60.4464,-0.275088,-9.7049,9.90043,-0.153636,0.0676412,0.0718481,4,0,41.40586229813567,-91.75473480962124,8885.064761113203,-25.11752926225248,0.3367262727665203,36.355829773815216,162.287,9023.624474727972,10930.733041558857,150,False,20.321970775244104,False,125.96987726513903,176.76052188206273,False,57.2216033580965,False,False
8,1970-07-23 10:00:00.353169073,2025-09-10,2025-09-26 16:00:35.316,AH,C,4047765192,JASSM,3,141,76,2,2,1,225,9,2,0,1,26,0,0,0,0,-184073.65075858065,-4786734.813447799,4201652.956511021,-2.30145,-0.152823,0.128663,93.5,-14.25,-12.125,0.0,0.0,0.0,0.0,0.0,0.0,2,0,41.44548191111286,-92.20222126221844,9999.998415319998,99.85188784909109,-0.0045396308233592,0.004338658498674,,9023.624474727972,10930.733041558857,150,8,2025-09-10,2025-09-26 16:00:35.250,AH,C,4004893638,AMBUSH51,1,1,48,2,1,1,225,2,1,0,0,9,1,225,2,1,-146792.62366410272,-4790638.263465507,4198175.114455381,-3.12864,2.08873,-0.790726,-33.6517,58.2924,63.7112,0.0720936,-9.63468,9.97029,-0.344131,0.0588756,0.0520284,4,0,41.40644718973835,-91.75508284448829,8880.701545880867,-21.52049452015653,1.148395193114892,23.771161013096563,163.252,9023.624474727972,10930.733041558857,150,False,20.24604219205889,False,122.50987429908865,176.65968800932527,False,60.77098431639151,False,False
8,1970-07-23 10:00:00.364151499,2025-09-10,2025-09-26 16:00:36.415,AH,C,4049077560,JASSM,3,141,76,2,2,1,225,9,2,0,1,26,0,0,0,0,-183970.8206804556,-4786750.659150924,4201639.499479771,-2.30145,-0.152823,0.128663,93.5,-14.25,-12.125,0.0,0.0,0.0,0.0,0.0,0.0,2,0,41.445320339807246,-92.20098495465302,10000.000324784944,99.85270616858602,-0.003598931840365,0.0043380400060686,,9023.624474727972,10930.733041558857,150,8,2025-09-10,2025-09-26 16:00:36.616,AH,C,4006524070,AMBUSH51,1,1,48,2,1,1,225,2,1,0,0,9,1,225,2,1,-146834.96249145785,-4790560.345628922,4198265.16569293,2.69541,2.09367,-0.844087,-29.9234,56.4227,67.9587,0.10224,-8.84306,9.12424,-0.362898,0.0288735,-0.0351922,4,0,41.40751095837109,-91.7556172760446,8887.65553449755,-20.495843766865264,4.03684249611342,-2.2827279486131973,163.766,9023.624474727972,10930.733041558857,150,True,20.15858324525162,False,119.84794349751265,176.4823855280345,False,63.57775099072267,False,False
8,1970-07-23 10:00:00.375109617,2025-09-10,2025-09-26 16:00:37.510,AH,C,4050389912,JASSM,3,141,76,2,2,1,225,9,2,0,1,26,0,0,0,0,-183867.99157889312,-4786766.502900924,4201626.040495396,-2.30145,-0.152823,0.128663,93.5,-14.25,-12.125,0.0,0.0,0.0,0.0,0.0,0.0,2,0,41.44515875343821,-92.19974866579076,9999.998936368716,99.85352447307793,-0.0026582418101218,0.0043374181033299,,9023.624474727972,10930.733041558857,150,8,2025-09-10,2025-09-26 16:00:37.550,AH,C,4007637536,AMBUSH51,1,1,48,2,1,1,225,2,1,0,0,9,1,225,2,1,-146863.4080523827,-4790508.925809534,4198329.148386594,2.44323,2.15316,-0.847111,-31.259,54.4162,68.909,0.209333,-8.4615,8.60786,-0.075845,0.0227211,-0.0430319,4,0,41.408243622957,-91.7559760056869,8902.17327749025,-22.488021311485262,5.131973371731416,-14.339696829570782,163.619,9023.624474727972,10930.733041558857,150,False,20.081364805535035,False,120.67280440774728,176.35657501558578,False,62.858993518545226,False,False
8,1970-07-23 10:00:00.386129896,2025-09-10,2025-09-26 16:00:38.612,AH,C,4051702262,JASSM,3,141,76,2,2,1,225,9,2,0,1,26,0,0,0,0,-183765.16247733065,-4786782.344697799,4201612.581511021,-2.30145,-0.152727,0.128663,93.5,-14.25,-12.125,0.0,0.0,0.0,0.0,0.0,0.0,2,0,41.44499716540518,-92.19851238395935,9999.998399171573,99.85070687657706,-0.0057744658126463,0.0036322265435566,,9023.624474727972,10930.733041558857,150,8,2025-09-10,2025-09-26 16:00:38.749,AH,C,4009069134,AMBUSH51,1,1,48,2,1,1,225,2,1,0,0,9,1,225,2,1,-146902.60946703373,-4790444.518420797,4198412.022259106,2.51945,2.23348,-0.827032,-33.5993,52.1897,69.1561,-0.155939,-7.66219,7.83794,0.239249,0.0133418,-0.0313015,4,0,41.40917911976476,-91.75646802537014,8926.55801278714,-25.768412644527857,5.520812990675374,-6.857885164436555,162.287,9023.624474727972,10930.733041558857,150,True,19.99697779903386,False,122.21547150830682,176.19821182252917,False,61.45557578116258,False,False
8,1970-07-23 10:00:00.398130085,2025-09-10,2025-09-26 16:00:39.813,AH,C,4053014614,JASSM,3,141,76,2,2,1,225,9,2,0,1,26,0,0,0,0,-183662.33337576807,-4786798.186494674,4201599.120573521,-2.30145,-0.152727,0.128663,93.5,-14.25,-12.125,0.0,0.0,0.0,0.0,0.0,0.0,2,0,41.44483555090654,-92.19727610826268,9999.999271540968,99.85152516715664,-0.0048337761676027,0.0036315432024807,,9023.624474727972,10930.733041558857,150,8,2025-09-10,2025-09-26 16:00:39.784,AH,C,4010301900,AMBUSH51,1,1,48,2,1,1,225,2,1,0,0,9,1,225,2,1,-146937.08778327698,-4790390.277209302,4198482.105805781,2.84231,2.23689,-0.840966,-33.2845,51.5431,69.3202,-0.404837,-7.01379,7.34588,0.418812,0.00741836,0.0336984,4,0,41.40996864714542,-91.75689989390776,8947.839995583277,-25.496570085636428,6.2840951248079815,11.812844562587385,161.358,9023.624474727972,10930.733041558857,150,False,19.91636208802925,False,122.07185241707805,176.06172424228188,False,61.731400189201864,False,False
8,1970-07-23 10:00:00.408151073,2025-09-10,2025-09-26 16:00:40.815,AH,C,4054326962,JASSM,3,141,76,2,2,1,225,9,2,0,1,26,0,0,0,0,-183559.5042742056,-4786814.026338424,4201585.659636021,-2.30145,-0.152727,0.128663,93.5,-14.25,-12.125,0.0,0.0,0.0,0.0,0.0,0.0,2,0,41.44467393474421,-92.19603983959703,10000.000995089722,99.85234345045636,-0.0038930891467901,0.0036308711501457,,9023.624474727972,10930.733041558857,150,8,2025-09-10,2025-09-26 16:00:40.717,AH,C,4011415366,AMBUSH51,1,1,48,2,1,1,225,2,1,0,0,9,1,225,2,1,-146966.6823298665,-4790340.839754717,4198545.790458921,-3.09568,2.17758,-0.856624,-30.3576,52.6334,69.652,-0.451566,-6.60186,6.80663,0.199112,0.0156513,0.0576335,4,0,41.4106872863098,-91.7572716525564,8966.686252856403,-23.078442414826505,6.030280051368389,29.30022419863922,159.806,9023.624474727972,10930.733041558857,150,False,19.83899221970763,False,120.19711226893385,175.9349339294318,False,63.74564461921713,False,False
8,1970-07-23 10:00:00.419152221,2025-09-10,2025-09-26 16:00:41.915,AH,C,4055579662,JASSM,3,141,76,2,2,1,225,9,2,0,1,26,0,0,0,0,-183461.3480242056,-4786829.145479049,4201572.808073521,-2.30145,-0.152727,0.128663,93.5,-14.25,-12.125,0.0,0.0,0.0,0.0,0.0,0.0,2,0,41.444519640105625,-92.19485975668644,10000.00065543197,99.85312454208965,-0.0029951481642536,0.003630219306449,,9023.624474727972,10930.733041558857,150,8,2025-09-10,2025-09-26 16:00:42.049,AH,C,4013006030,AMBUSH51,1,1,48,2,1,1,225,2,1,0,0,9,1,225,2,1,-147003.0386943463,-4790266.375308383,4198637.651414929,-2.87013,2.01713,-0.853484,-23.8985,56.1102,69.6408,-0.274553,-6.54707,6.65435,-0.0225672,0.00959674,0.0694659,4,0,41.411743796729816,-91.75773339703932,8985.64223730602,-17.599892225373363,3.4681628985644624,35.73340972498417,160.099,9023.624474727972,10930.733041558857,150,False,19.75822601167917,False,116.06494936487766,175.75111438994696,False,68.09801749672145,False,False
8,1970-07-23 10:00:00.429150376,2025-09-10,2025-09-26 16:00:42.915,AH,C,4056832362,JASSM,3,141,76,2,2,1,225,9,2,0,1,26,0,0,0,0,-183363.19275076807,-4786844.262666549,4201559.956511021,-2.30145,-0.152727,0.128663,93.5,-14.25,-12.125,0.0,0.0,0.0,0.0,0.0,0.0,2,0,41.44436534476129,-92.19367969193326,10000.000756918022,99.85390561931186,-0.002097218389709,0.0036295770393377,,9023.624474727972,10930.733041558857,150,8,2025-09-10,2025-09-26 16:00:42.983,AH,C,4014119496,AMBUSH51,1,1,48,2,1,1,225,2,1,0,0,9,1,225,2,1,-147023.06224244196,-4790212.529450105,4198701.530061099,-2.90587,1.9322,-0.85692,-19.0601,58.6645,69.4969,-0.035261,-6.94423,6.99091,-0.150707,0.0177381,0.0534994,4,0,41.412491719969246,-91.75799241947152,8993.354380650917,-14.504902620329204,2.64637396660985,30.17715323692933,160.613,9023.624474727972,10930.733041558857,150,False,19.688538852634203,False,112.99055716856205,175.61506621879724,False,71.33072152184542,False,False
8,1970-07-23 10:00:00.440149794,2025-09-10,2025-09-26 16:00:44.014,AH,C,4058145124,JASSM,3,141,76,2,2,1,225,9,2,0,1,26,0,0,0,0,-183260.33142264312,-4786860.104463424,4201546.485807896,-2.30145,-0.152727,0.128759,93.5,-14.25,-12.125,0.0,0.0,0.0,0.0,0.0,0.0,2,0,41.44420361977714,-92.19244305505856,9999.999480893,99.85881488525638,-0.0048224058895414,0.003628671813321,,9023.624474727972,10930.733041558857,150,8,2025-09-10,2025-09-26 16:00:44.149,AH,C,4015511328,AMBUSH51,1,1,48,2,1,1,225,2,1,0,0,9,1,225,2,1,-147042.84351408487,-4790142.562418334,4198783.006376339,-3.09,1.85811,-0.858228,-14.6386,60.0937,70.0683,-0.115763,-6.57638,6.78873,-0.248455,0.00396873,0.0285426,4,0,41.41345439652137,-91.75825446613209,8999.595758763044,-11.802757922853944,1.9952196430120697,16.526224444037638,161.212,9023.624474727972,10930.733041558857,150,False,19.615041938267417,False,110.18184473091681,175.4403144114129,False,74.32295405821526,False,False
8,1970-07-23 10:00:00.451148773,2025-09-10,2025-09-26 16:00:45.114,AH,C,4059457052,JASSM,3,141,76,2,2,1,225,9,2,0,1,26,0,0,0,0,-183157.5355242056,-4786875.934541549,4201533.024870396,-2.30145,-0.152727,0.128759,93.5,-14.25,-12.125,0.0,0.0,0.0,0.0,0.0,0.0,2,0,41.44404200222876,-92.19120721169011,10000.002419182209,99.85963287683042,-0.0038820237569738,0.0036280650334911,,9023.624474727972,10930.733041558857,150,8,2025-09-10,2025-09-26 16:00:44.982,AH,C,4016505494,AMBUSH51,1,1,48,2,1,1,225,2,1,0,0,9,1,225,2,1,-147054.4294688869,-4790091.750095614,4198841.40394088,2.99788,1.82832,-0.860138,-13.0738,61.0526,70.1337,0.0544599,-6.63904,6.77169,-0.268691,0.000816633,0.00717909,4,0,41.41414881178469,-91.75841155836862,9002.244430667897,-10.691185386979,1.8528893298749267,4.080546302369877,162.14,9023.624474727972,10930.733041558857,150,True,19.547940575522762,False,109.18790698956565,175.30900460645498,False,75.45486365117699,False,False
8,1970-07-23 10:00:00.462838176,2025-09-10,2025-09-26 16:00:46.283,AH,C,4060709764,JASSM,3,141,76,2,2,1,225,9,2,0,1,26,0,0,0,0,-183059.37829764312,-4786891.047822799,4201520.169401646,-2.30145,-0.152631,0.128759,93.5,-14.25,-12.125,0.0,0.0,0.0,0.0,0.0,0.0,2,0,41.44388766675024,-92.1900271426883,10000.000191811754,99.85677815113132,-0.0070409835821885,0.0029224640031076,,9023.624474727972,10930.733041558857,150,8,2025-09-10,2025-09-26 16:00:46.416,AH,C,4018215458,AMBUSH51,1,1,48,2,1,1,225,2,1,0,0,9,1,225,2,1,-147073.48831754143,-4790003.994031599,4198941.838301307,2.68964,1.85416,-0.843441,-13.8511,61.9652,70.0666,0.08761,-6.12675,6.32922,-0.0809757,-0.0126656,-0.0430111,4,0,41.41534543550596,-91.75867151172484,9005.838852064024,-11.855300955480145,1.138424447779303,-12.496747904909286,163.485,9023.624474727972,10930.733041558857,150,False,19.476199303231827,False,109.621008955417,175.09145780867436,False,75.2462869708056,False,False
8,1970-07-23 10:00:00.472148213,2025-09-10,2025-09-26 16:00:47.214,AH,C,4061962864,JASSM,3,141,76,2,2,1,225,9,2,0,1,26,0,0,0,0,-182961.1917742056,-4786906.165010299,4201507.308073521,-2.30145,-0.152631,0.128759,93.5,-14.25,-12.125,0.0,0.0,0.0,0.0,0.0,0.0,2,0,41.443733263048486,-92.18884672734386,9999.997237612451,99.85755945069263,-0.0061427678043506,0.0029218187039728,,9023.624474727972,10930.733041558857,150,8,2025-09-10,2025-09-26 16:00:47.249,AH,C,4019209624,AMBUSH51,1,1,48,2,1,1,225,2,1,0,0,9,1,225,2,1,-147085.73166694093,-4789951.92871003,4198999.889314501,2.633,1.89716,-0.82718,-15.4876,62.8064,69.4499,-0.0211351,-6.49424,6.60059,0.00759729,0.00213157,-0.0420582,4,0,41.41604484692035,-91.75883692878436,9004.71221141663,-13.687464485594246,0.6446522690214587,-13.943310355370066,163.9,9023.624474727972,10930.733041558857,150,False,19.411498381084304,False,110.60681379761984,174.9575153273537,False,74.40194012296598,False,False
8,1970-07-23 10:00:00.483109926,2025-09-10,2025-09-26 16:00:48.310,AH,C,4063274810,JASSM,3,141,76,2,2,1,225,9,2,0,1,26,0,0,0,0,-182858.39392264312,-4786921.993135299,4201493.843229771,-2.30145,-0.152631,0.128759,93.5,-14.25,-12.125,0.0,0.0,0.0,0.0,0.0,0.0,2,0,41.4435715925722,-92.18761087937531,10000.003143878304,99.858377437727,-0.0052023666100323,0.0029211409126023,,9023.624474727972,10930.733041558857,150,8,2025-09-10,2025-09-26 16:00:48.116,AH,C,4020243556,AMBUSH51,1,1,48,2,1,1,225,2,1,0,0,9,1,225,2,1,-147100.08036828603,-4789897.315069947,4199059.83343753,2.67001,1.92805,-0.821982,-17.2667,62.9605,69.4245,0.00662428,-6.91297,7.13654,0.118416,-0.000259034,-0.0100524,4,0,41.41677181569949,-91.75902844470993,9001.589721623257,-14.924708419561538,0.6867740106163972,-10.538091774532282,164.401,9023.624474727972,10930.733041558857,150,False,19.343079606752276,False,111.6556304421733,174.8172944941594,False,73.49459703241097,False,False
8,1970-07-23 10:00:00.494148439,2025-09-10,2025-09-26 16:00:49.414,AH,C,4064587164,JASSM,3,141,76,2,2,1,225,9,2,0,1,26,0,0,0,0,-182755.56384451807,-4786937.821260299,4201480.372526646,-2.30145,-0.152631,0.128759,93.5,-14.25,-12.125,0.0,0.0,0.0,0.0,0.0,0.0,2,0,41.44340987661052,-92.18637465237845,9999.99895024078,99.85919567300606,-0.0042616754164717,0.0029204807782107,,9023.624474727972,10930.733041558857,150,8,2025-09-10,2025-09-26 16:00:49.349,AH,C,4021714922,AMBUSH51,1,1,48,2,1,1,225,2,1,0,0,9,1,225,2,1,-147122.49466840862,-4789819.025292047,4199145.707079318,2.90492,1.94327,-0.825922,-18.2302,63.0549,69.8745,-0.23959,-7.03291,7.17326,0.147854,-7.38611e-05,0.000548237,4,0,41.417813214766056,-91.75932504504476,8997.134249604283,-15.426776761132125,1.0751320213553313,3.553637325497268,165.22,9023.624474727972,10930.733041558857,150,True,19.268537630717056,False,112.17492964900802,174.62181553083565,False,73.17005703704125,False,False
8,1970-07-23 10:00:00.505151552,2025-09-10,2025-09-26 16:00:50.515,AH,C,4065839864,JASSM,3,141,76,2,2,1,225,9,2,0,1,26,0,0,0,0,-182657.40857108065,-4786952.930635299,4201467.513151646,-2.30145,-0.152631,0.128759,93.5,-14.25,-12.125,0.0,0.0,0.0,0.0,0.0,0.0,2,0,41.44325548800123,-92.1851946314087,9999.99991016611,99.85997670412893,-0.0033637470388297,0.0029198387396581,,9023.624474727972,10930.733041558857,150,8,2025-09-10,2025-09-26 16:00:50.449,AH,C,4023027220,AMBUSH51,1,1,48,2,1,1,225,2,1,0,0,9,1,225,2,1,-147141.97007411052,-4789749.449106932,4199221.951197512,3.02947,1.90624,-0.839208,-17.1332,63.3885,70.6057,-0.163696,-7.35969,7.43576,0.0563706,0.00573932,0.0376432,4,0,41.41873830274884,-91.7595833334633,8992.991213919073,-13.842324333378665,1.4046193837059515,9.154294232571122,165.855,9023.624474727972,10930.733041558857,150,True,19.199028129088443,False,111.44456068238709,174.445672624312,False,74.07588900838464,False,False
8,1970-07-23 10:00:00.515108673,2025-09-10,2025-09-26 16:00:51.510,AH,C,4067092866,JASSM,3,141,76,2,2,1,225,9,2,0,1,26,0,0,0,0,-182559.22888358065,-4786968.043916549,4201454.647917271,-2.30145,-0.152631,0.128759,93.5,-14.25,-12.125,0.0,0.0,0.0,0.0,0.0,0.0,2,0,41.443101030046414,-92.1840143224626,10000.000607020304,99.86075792346352,-0.0024655920214836,0.0029191779494191,,9023.624474727972,10930.733041558857,150,8,2025-09-10,2025-09-26 16:00:51.316,AH,C,4024061152,AMBUSH51,1,1,48,2,1,1,225,2,1,0,0,9,1,225,2,1,-147156.15524876383,-4789694.25349045,4199283.487444117,3.08198,1.86904,-0.845335,-15.6494,63.4681,71.5535,-0.137611,-7.22464,7.13155,-0.0099983,0.00230842,0.0221074,4,0,41.41947950953121,-91.75977312521988,8991.893900140776,-12.380661312364811,1.3822756740459907,10.608617226226356,167.212,9023.624474727972,10930.733041558857,150,False,19.133576799955392,False,110.49207965719314,174.3002810786759,False,75.17074729931169,False,False
8,1970-07-23 10:00:00.526768502,2025-09-10,2025-09-26 16:00:52.676,AH,C,4068404914,JASSM,3,141,76,2,2,1,225,9,2,0,1,26,0,0,0,0,-182456.4222429556,-4786983.866182174,4201441.177214146,-2.30145,-0.152631,0.128759,93.5,-14.25,-12.125,0.0,0.0,0.0,0.0,0.0,0.0,2,0,41.44293930498425,-92.18277839611576,10000.000649452317,99.86157595210771,-0.0015251146638083,0.0029185104839259,,9023.624474727972,10930.733041558857,150,8,2025-09-10,2025-09-26 16:00:52.582,AH,C,4025572284,AMBUSH51,1,1,48,2,1,1,225,2,1,0,0,9,1,225,2,1,-147174.84263451293,-4789612.914241926,4199374.695682171,3.00669,1.84593,-0.853413,-13.806,63.9713,72.2262,-0.0387452,-7.15061,7.10631,-0.0930598,0.00534401,0.0126427,4,0,41.42057574057075,-91.7600263287852,8991.255688391364,-11.421706607715308,1.6286017127891042,5.325067914337935,167.652,9023.624474727972,10930.733041558857,150,True,19.06137056214734,False,109.34239253166243,174.09049249732092,False,76.53106156343983,False,False
8,1970-07-23 10:00:00.537134936,2025-09-10,2025-09-26 16:00:53.713,AH,C,4069717264,JASSM,3,141,76,2,2,1,225,9,2,0,1,26,0,0,0,0,-182353.59314139312,-4786999.690400924,4201427.702604771,-2.30145,-0.152631,0.128854,93.5,-14.25,-12.125,0.0,0.0,0.0,0.0,0.0,0.0,2,0,41.44277753375478,-92.18154220657128,10000.000555134511,99.8664849443904,-0.0042505536935166,0.0029176725462517,,9023.624474727972,10930.733041558857,150,8,2025-09-10,2025-09-26 16:00:53.815,AH,C,4027043648,AMBUSH51,1,1,48,2,1,1,225,2,1,0,0,9,1,225,2,1,-147191.17492060043,-4789534.129996442,4199463.752478493,2.93388,1.83111,-0.855808,-13.0544,64.0722,73.0312,0.0477774,-6.95436,7.06657,-0.072464,0.00544804,0.0021607,4,0,41.42164267558125,-91.7602504556652,8992.060267733375,-10.847671008421464,1.6405189149195412,0.5291596766789065,168.629,9023.624474727972,10930.733041558857,150,True,18.990835507029093,False,108.84427024861611,173.88408144996242,False,77.23348087261431,False,False
