Subject_cm,Timestamp,SampleDate_cm,SampleTime_cm,Configuration_cm,Scenario_cm,DisTime_cm,MarkingTxt_cm,Application_cm,EntId_cm,Site_cm,ExerciseId_cm,ForceId_cm,Category_cm,Country_cm,Domain_cm,Kind_cm,Extra_cm,Specific_cm,Subcategory_cm,AltCategory_cm,AltCountry_cm,AltDomain_cm,AltKind_cm,ECEF_X_cm,ECEF_Y_cm,ECEF_Z_cm,OriPhi_cm,OriPsi_cm,OriTheta_cm,LinVelX_cm,LinVelY_cm,LinVelZ_cm,LinAccX_cm,LinAccY_cm,LinAccZ_cm,AngVelX_cm,AngVelY_cm,AngVelZ_cm,DrAlg_cm,Appearance_cm,Latitude_cm,Longitude_cm,Altitude_cm,Heading_cm,Pitch_cm,Roll_cm,CalibratedAirspeed_cm,CM_Altitude_Lead_cm,CM_Altitude_Wing_cm,CM_Airspeed_cm,Subject_ac,SampleDate_ac,SampleTime_ac,Configuration_ac,Scenario_ac,DisTime_ac,MarkingTxt_ac,Application_ac,EntId_ac,Site_ac,ExerciseId_ac,ForceId_ac,Category_ac,Country_ac,Domain_ac,Kind_ac,Extra_ac,Specific_ac,Subcategory_ac,AltCategory_ac,AltCountry_ac,AltDomain_ac,AltKind_ac,ECEF_X_ac,ECEF_Y_ac,ECEF_Z_ac,OriPhi_ac,OriPsi_ac,OriTheta_ac,LinVelX_ac,LinVelY_ac,LinVelZ_ac,LinAccX_ac,LinAccY_ac,LinAccZ_ac,AngVelX_ac,AngVelY_ac,AngVelZ_ac,DrAlg_ac,Appearance_ac,Latitude_ac,Longitude_ac,Altitude_ac,Heading_ac,Pitch_ac,Roll_ac,CalibratedAirspeed_ac,CM_Altitude_Lead_ac,CM_Altitude_Wing_ac,CM_Airspeed_ac,Bank_Angle_Condition,distance_nm,Distance_Condition,angle_between_vel,angle_between_pos,Cone_Condition,angle_between_pos_nose,Nose_Cone_Condition,Intercept_Criteria
8,1970-07-23 09:59:59.898113604,2025-09-10,2025-09-26 15:59:49.811,AH,C,3993421944,JASSM,3,139,76,2,2,1,225,9,2,0,1,26,0,0,0,0,-173016.59948904935,-4769783.614229049,4221222.573698521,-2.51458,-0.703426,0.607361,59.75,-50.5,-54.25,0.0,0.0,0.0,0.0,0.0,0.0,2,0,41.68086007386499,-92.07740589284846,9999.996153171613,139.82816850197344,-0.001389754093859,0.0009621308864188,,9023.624474727972,10930.733041558857,150,8,2025-09-10,2025-09-26 15:59:49.903,AH,C,3273535662,HAWK11,1,1,73,2,1,1,225,2,1,0,0,12,1,225,2,1,-142849.29724295562,-4791229.972627486,4198579.173307896,2.55149,2.70997,-0.426447,-86.125,35.5,32.875,-0.234375,-7.01562,6.375,0.0234375,0.0,0.0078125,4,0,41.40636336532531,-91.70775312617415,10919.680787902314,-56.923624762349554,0.3732952125298318,9.844469800542122,173.09,9023.624474727972,10930.733041558857,150,True,23.359045481062843,False,158.0399931566169,174.81384159779057,False,16.77655978876462,True,False
8,1970-07-23 09:59:59.909154620,2025-09-10,2025-09-26 15:59:50.915,AH,C,3994734628,JASSM,3,139,76,2,2,1,225,9,2,0,1,26,0,0,0,0,-172950.88659842435,-4769839.360322799,4221162.679167271,-2.51458,-0.703426,0.607361,59.75,-50.5,-54.25,0.0,0.0,0.0,0.0,0.0,0.0,2,0,41.68013837964368,-92.0765933221618,9999.996994417475,139.82870884216666,-0.0004468103754543,0.0009603085500839,,9023.624474727972,10930.733041558857,150,8,2025-09-10,2025-09-26 15:59:50.809,AH,C,3274649128,HAWK11,1,1,73,2,1,1,225,2,1,0,0,12,1,225,2,1,-142930.32458670562,-4791195.250947799,4198610.630339146,2.58207,2.68984,-0.436418,-85.25,37.125,33.625,-0.15625,-7.01562,6.28125,0.0273438,0.0078125,0.0136719,4,0,41.40676789221066,-91.7087336038963,10908.481174889474,-55.77048959222103,0.0688962183270302,11.118897512088443,173.261,9023.624474727972,10930.733041558857,150,False,23.25455551501933,False,159.08003054701544,174.83543007525202,False,15.764816504042388,True,False
8,1970-07-23 09:59:59.920153382,2025-09-10,2025-09-26 15:59:52.015,AH,C,3996046646,JASSM,3,139,76,2,2,1,225,9,2,0,1,26,0,0,0,0,-172885.20691092435,-4769895.075166549,4221102.815886021,-2.51458,-0.703426,0.607456,59.75,-50.5,-54.25,0.0,0.0,0.0,0.0,0.0,0.0,2,0,41.6794170693145,-92.07578118153153,9999.998100818342,139.83247082470356,-0.0039513161528239,0.00095840534461,,9023.624474727972,10930.733041558857,150,8,2025-09-10,2025-09-26 15:59:52.011,AH,C,3276080726,HAWK11,1,1,73,2,1,1,225,2,1,0,0,12,1,225,2,1,-143032.21325858062,-4791149.282197799,4198651.851042271,2.62205,2.66663,-0.452428,-84.0,38.875,35.0,-0.140625,-7.125,6.5,0.0195312,0.0117188,0.015625,4,0,41.40730152320318,-91.7099673576047,10892.341049687588,-54.26763749603323,-0.0748612562412238,12.837992445894146,173.566,9023.624474727972,10930.733041558857,150,False,23.136589001297764,False,160.50957514707883,174.86362337745481,False,14.372113726813488,True,False
8,1970-07-23 09:59:59.932818253,2025-09-10,2025-09-26 15:59:53.281,AH,C,3997418648,JASSM,3,139,76,2,2,1,225,9,2,0,1,26,0,0,0,0,-172816.52478201812,-4769953.340791549,4221040.210417271,-2.51458,-0.703426,0.607456,59.75,-50.5,-54.25,0.0,0.0,0.0,0.0,0.0,0.0,2,0,41.67866271821728,-92.0749319329168,10000.002490339164,139.8330355387744,-0.0029657384388216,0.0009565337443301,,9023.624474727972,10930.733041558857,150,8,2025-09-10,2025-09-26 15:59:53.199,AH,C,3277512324,HAWK11,1,1,73,2,1,1,225,2,1,0,0,12,1,225,2,1,-143132.59216483062,-4791100.789033736,4198695.460417271,2.55695,2.64823,-0.483204,-82.75,40.25,37.25,0.0,-8.45312,7.96875,-0.132812,0.0410156,0.03125,4,0,41.40786655213138,-91.71118399561756,10875.071627029747,-52.38462037324301,0.5944907039129219,8.64110947914246,174.08,9023.624474727972,10930.733041558857,150,True,23.015268307058406,False,162.18378913192507,174.88685878051152,False,12.719473529693385,True,False
8,1970-07-23 09:59:59.942776896,2025-09-10,2025-09-26 15:59:54.277,AH,C,3998671348,JASSM,3,139,76,2,2,1,225,9,2,0,1,26,0,0,0,0,-172753.81482108062,-4770006.532197799,4220983.050261021,-2.51458,-0.703426,0.607456,59.75,-50.5,-54.25,0.0,0.0,0.0,0.0,0.0,0.0,2,0,41.67797401217872,-92.07415655035896,9999.996135999589,139.83355112774856,-0.002065905453423,0.0009548596695487,,9023.624474727972,10930.733041558857,150,8,2025-09-10,2025-09-26 15:59:54.199,AH,C,3278665558,HAWK11,1,1,73,2,1,1,225,2,1,0,0,12,1,225,2,1,-143212.23669608062,-4791062.399385299,4198732.499479771,2.47297,2.64171,-0.502379,-82.125,39.625,39.25,-0.171875,-8.32812,7.60938,-0.0761719,0.0078125,-0.00585938,4,0,41.40833079707753,-91.71214930902632,10866.877727166391,-51.40484644085121,1.1906015386345563,3.6677181783869015,174.52,9023.624474727972,10930.733041558857,150,True,22.91130783422787,False,162.98549765884968,174.90210891798964,False,11.917078396658486,True,False
8,1970-07-23 09:59:59.952407264,2025-09-10,2025-09-26 15:59:55.240,AH,C,3999924132,JASSM,3,139,76,2,2,1,225,9,2,0,1,26,0,0,0,0,-172691.10046561187,-4770059.731416549,4220925.882292271,-2.51448,-0.70333,0.607456,59.75,-50.5,-54.25,0.0,0.0,0.0,0.0,0.0,0.0,2,0,41.6772852025467,-92.07338112822492,9999.996640563775,139.8304154040474,-0.0038116101889217,0.0033103583843229,,9023.624474727972,10930.733041558857,150,8,2025-09-10,2025-09-26 15:59:55.199,AH,C,3279898322,HAWK11,1,1,73,2,1,1,225,2,1,0,0,12,1,225,2,1,-143297.90466483062,-4791021.164033736,4198774.394011021,2.37748,2.65992,-0.49816,-82.0,39.0,40.5,-0.125,-8.0,7.54688,-0.0820312,0.00585938,-0.0175781,4,0,41.40884366586093,-91.71318762371271,10862.669017999691,-52.24643301160199,1.6279066371382178,-1.3234328163864062,173.994,9023.624474727972,10930.733041558857,150,True,22.80296561244997,False,163.2990620269634,174.91808653915857,False,11.623040348201354,True,False
8,1970-07-23 09:59:59.963133432,2025-09-10,2025-09-26 15:59:56.313,AH,C,4001236396,JASSM,3,139,76,2,2,1,225,9,2,0,1,26,0,0,0,0,-172625.40808279935,-4770115.454072799,4220866.003386021,-2.51448,-0.70333,0.607456,59.75,-50.5,-54.25,0.0,0.0,0.0,0.0,0.0,0.0,2,0,41.67656372016746,-92.07256890365352,10000.004057063335,139.8309554763101,-0.002868973286714,0.003308537890324,,9023.624474727972,10930.733041558857,150,8,2025-09-10,2025-09-26 15:59:56.511,AH,C,3281369688,HAWK11,1,1,73,2,1,1,225,2,1,0,0,12,1,225,2,1,-143398.46521170562,-4790972.953096236,4198825.405729771,2.3213,2.66405,-0.508035,-82.125,37.875,41.375,-0.15625,-7.84375,7.29688,-0.0195312,0.0117188,0.0117188,4,0,41.40945691328588,-91.71440639215126,10862.190290608003,-52.01725843813883,2.185886269851661,-4.420818722795324,173.786,9023.624474727972,10930.733041558857,150,True,22.68209920184383,False,163.20507425901238,174.9373254470396,False,11.757183530090021,True,False
8,1970-07-23 09:59:59.974132389,2025-09-10,2025-09-26 15:59:57.413,AH,C,4002489096,JASSM,3,139,76,2,2,1,225,9,2,0,1,26,0,0,0,0,-172562.69812186187,-4770168.645479049,4220808.839323521,-2.51448,-0.70333,0.607456,59.75,-50.5,-54.25,0.0,0.0,0.0,0.0,0.0,0.0,2,0,41.67587497167939,-92.07179357148138,10000.004907591872,139.83147101056556,-0.00196912001677,0.0033067894414545,,9023.624474727972,10930.733041558857,150,8,2025-09-10,2025-09-26 15:59:57.404,AH,C,3282483154,HAWK11,1,1,73,2,1,1,225,2,1,0,0,12,1,225,2,1,-143475.74646170562,-4790937.508760299,4198864.440886021,2.31257,2.67948,-0.508611,-82.375,36.875,41.5,-0.03125,-7.71875,7.40625,0.0,0.00390625,-0.0175781,4,0,41.40991750144086,-91.71534246233789,10865.413928755308,-52.56301478011296,2.735661820834012,-4.513578562689557,173.298,9023.624474727972,10930.733041558857,150,True,22.57922226823235,False,162.82933441549343,174.9509056890892,False,12.165589707821532,True,False
8,1970-07-23 09:59:59.985155957,2025-09-10,2025-09-26 15:59:58.515,AH,C,4003801446,JASSM,3,139,76,2,2,1,225,9,2,0,1,26,0,0,0,0,-172497.00183279935,-4770224.368135299,4220748.952604771,-2.51448,-0.70333,0.607456,59.75,-50.5,-54.25,0.0,0.0,0.0,0.0,0.0,0.0,2,0,41.67515342623606,-92.07098133551384,10000.00600390952,139.83201107541515,-0.0010264208255343,0.0033049622982413,,9023.624474727972,10930.733041558857,150,8,2025-09-10,2025-09-26 15:59:58.511,AH,C,3283596618,HAWK11,1,1,73,2,1,1,225,2,1,0,0,12,1,225,2,1,-143551.83630545562,-4790903.502900924,4198902.802214146,2.29848,2.69722,-0.509378,-82.375,36.125,41.125,0.0,-7.6875,7.23438,0.0,0.0136719,-0.00390625,4,0,41.410365187476906,-91.71626379486604,10870.629916603908,-53.18111899026555,3.3761803589664368,-4.858709597692815,172.65,9023.624474727972,10930.733041558857,150,True,22.47480468738394,False,162.44433870025938,174.96419098285497,False,12.571370308391577,True,False
8,1970-07-23 09:59:59.996098680,2025-09-10,2025-09-26 15:59:59.609,AH,C,4005113798,JASSM,3,139,76,2,2,1,225,9,2,0,1,26,0,0,0,0,-172431.30505545562,-4770280.086885299,4220689.061979771,-2.51448,-0.70333,0.607552,59.75,-50.5,-54.25,0.0,0.0,0.0,0.0,0.0,0.0,2,0,41.67443187216865,-92.07016911352603,9999.994632928016,139.835775307368,-0.0045332591847635,0.0033030057911569,,9023.624474727972,10930.733041558857,150,8,2025-09-10,2025-09-26 15:59:59.605,AH,C,3285147516,HAWK11,1,1,73,2,1,1,225,2,1,0,0,12,1,225,2,1,-143659.34411795562,-4790857.184541549,4198956.782682896,2.32523,2.70709,-0.515801,-82.375,34.75,41.125,0.03125,-7.3125,6.92188,0.0332031,0.0,-0.00195312,4,0,41.41098593879392,-91.71756495270095,10881.780263741795,-53.28563029954366,3.983865790625564,-3.0551995120828974,172.124,9023.624474727972,10930.733041558857,150,True,22.351008190706278,False,161.9521016091152,174.98967746919882,False,13.119729682806412,True,False
8,1970-07-23 10:00:00.006094239,2025-09-10,2025-09-26 16:00:00.609,AH,C,4006366574,JASSM,3,139,76,2,2,1,225,9,2,0,1,26,0,0,0,0,-172368.59118826812,-4770333.278291549,4220631.890104771,-2.51448,-0.70333,0.607552,59.75,-50.5,-54.25,0.0,0.0,0.0,0.0,0.0,0.0,2,0,41.67374305556629,-92.0693937856661,9999.994068035634,139.83629081725604,-0.0036333434234581,0.0033013013046127,,9023.624474727972,10930.733041558857,150,8,2025-09-10,2025-09-26 16:00:00.199,AH,C,3285744016,HAWK11,1,1,73,2,1,1,225,2,1,0,0,12,1,225,2,1,-143700.58435233062,-4790839.874971236,4198977.267057896,2.33002,2.71275,-0.514267,-82.375,34.375,41.0,-0.203125,-7.5625,7.01562,0.0195312,0.00390625,-0.00390625,4,0,41.411219826914646,-91.71806392168916,10886.703700564773,-53.55104898864023,4.116040678770194,-2.639594246291312,171.721,9023.624474727972,10930.733041558857,150,True,22.271598307101335,False,161.77376656211356,174.9925761435423,False,13.307216790341638,True,False
8,1970-07-23 10:00:00.017111188,2025-09-10,2025-09-26 16:00:01.711,AH,C,4007678848,JASSM,3,139,76,2,2,1,225,9,2,0,1,26,0,0,0,0,-172302.89831717435,-4770388.997041549,4220572.003386021,-2.51448,-0.70333,0.607552,59.75,-50.5,-54.25,0.0,0.0,0.0,0.0,0.0,0.0,2,0,41.67302151551649,-92.0685816459936,10000.002633426127,139.83683079555715,-0.0026906816340758,0.0032995173298284,,9023.624474727972,10930.733041558857,150,8,2025-09-10,2025-09-26 16:00:01.809,AH,C,3287613048,HAWK11,1,1,73,2,1,1,225,2,1,0,0,12,1,225,2,1,-143829.00036795562,-4790786.248994674,4199041.436979771,2.35945,2.70901,-0.525197,-81.75,33.5,40.875,0.0,-7.26562,6.8125,0.03125,0.0,0.015625,4,0,41.41194907396774,-91.7196175609468,10903.54974934436,-52.982681701068906,4.44041182306955,-1.0170051343181024,170.572,9023.624474727972,10930.733041558857,150,True,22.135205344464126,False,161.602736558152,175.02724748269807,False,13.535054259350169,True,False
8,1970-07-23 10:00:00.028112098,2025-09-10,2025-09-26 16:00:02.811,AH,C,4008931546,JASSM,3,139,76,2,2,1,225,9,2,0,1,26,0,0,0,0,-172240.18786795562,-4770442.180635299,4220514.835417271,-2.51448,-0.70333,0.607552,59.75,-50.5,-54.25,0.0,0.0,0.0,0.0,0.0,0.0,2,0,41.67233276027178,-92.06780639636492,10000.002325527452,139.83734623912042,-0.0017908422365434,0.0032978340342962,,9023.624474727972,10930.733041558857,150,8,2025-09-10,2025-09-26 16:00:02.904,AH,C,3289124180,HAWK11,1,1,73,2,1,1,225,2,1,0,0,12,1,225,2,1,-143931.86169608062,-4790743.952119674,4199092.567839146,2.5002,2.70642,-0.525772,-81.125,33.375,40.75,-0.109375,-6.98438,6.51562,0.238281,0.00390625,0.00195312,4,0,41.412527455195615,-91.72086181439876,10918.08495746836,-52.867698188380686,4.376564483025709,6.9815671170199485,169.912,9023.624474727972,10930.733041558857,150,True,22.01757438244623,False,161.71321636687622,175.05392009153636,False,13.454875459456332,True,False
8,1970-07-23 10:00:00.039583277,2025-09-10,2025-09-26 16:00:03.958,AH,C,4010243892,JASSM,3,139,76,2,2,1,225,9,2,0,1,26,0,0,0,0,-172174.49157889312,-4770497.895479049,4220454.940886021,-2.51448,-0.703234,0.607552,59.75,-50.5,-54.25,0.0,0.0,0.0,0.0,0.0,0.0,2,0,41.67161118040735,-92.06699425284084,9999.995049319052,139.8342329913783,-0.0034954491592031,0.0001593841028538,,9023.624474727972,10930.733041558857,150,8,2025-09-10,2025-09-26 16:00:04.105,AH,C,3290476244,HAWK11,1,1,73,2,1,1,225,2,1,0,0,12,1,225,2,1,-144023.25036795562,-4790704.473604049,4199139.263151646,2.73672,2.68859,-0.552041,-79.0,34.875,41.75,-0.359375,-7.26562,6.71875,0.128906,0.0175781,0.0390625,4,0,41.413061168737535,-91.72196798914052,10929.084895379252,-51.19052445320659,4.864625428068097,20.144072315210103,168.715,9023.624474727972,10930.733041558857,150,False,21.903657026313084,False,163.29842948519646,175.07376959045254,False,11.889890656970579,True,False
8,1970-07-23 10:00:00.050132763,2025-09-10,2025-09-26 16:00:05.013,AH,C,4011556248,JASSM,3,139,76,2,2,1,225,9,2,0,1,26,0,0,0,0,-172108.79431326812,-4770553.614229049,4220395.046354771,-2.51448,-0.703234,0.607552,59.75,-50.5,-54.25,0.0,0.0,0.0,0.0,0.0,0.0,2,0,41.67088957156741,-92.06618211405176,10000.002917137304,139.8347729465189,-0.0025527223327462,0.0001575367512744,,9023.624474727972,10930.733041558857,150,8,2025-09-10,2025-09-26 16:00:05.199,AH,C,3291828310,HAWK11,1,1,73,2,1,1,225,2,1,0,0,12,1,225,2,1,-144111.27575858062,-4790662.813447799,4199187.509245396,2.85886,2.61342,-0.58483,-75.75,37.625,43.5,-0.234375,-7.01562,6.73438,0.0488281,0.0175781,0.046875,4,0,41.41361892060596,-91.7230347769429,10937.84233443781,-47.23249336335852,3.809180384287196,25.122547789270246,168.483,9023.624474727972,10930.733041558857,150,False,21.78996393259952,False,166.00790720461916,175.0878856337031,False,9.18661944874969,True,False
8,1970-07-23 10:00:00.061153212,2025-09-10,2025-09-26 16:00:06.115,AH,C,4012928252,JASSM,3,139,76,2,2,1,225,9,2,0,1,26,0,0,0,0,-172040.11120779935,-4770611.860322799,4220332.429167271,-2.51448,-0.703234,0.607552,59.75,-50.5,-54.25,0.0,0.0,0.0,0.0,0.0,0.0,2,0,41.67013518666342,-92.065333086355,10000.003800460738,139.83533741925984,-0.0015671709409771,0.0001556210596707,,9023.624474727972,10930.733041558857,150,8,2025-09-10,2025-09-26 16:00:06.198,AH,C,3292742942,HAWK11,1,1,73,2,1,1,225,2,1,0,0,12,1,225,2,1,-144168.75427420562,-4790632.940400924,4199221.462370396,2.90085,2.5861,-0.594705,-73.875,39.25,45.25,-0.203125,-7.14062,7.03125,0.03125,0.0195312,0.0292969,4,0,41.41401553283,-91.7237323338267,10942.3138628832,-45.876645227600285,3.384881336454244,26.74295659318849,168.128,9023.624474727972,10930.733041558857,150,False,21.69224479210955,False,167.82857371762722,175.0885548377777,False,7.396105790059152,True,False
8,1970-07-23 10:00:00.072813211,2025-09-10,2025-09-26 16:00:07.281,AH,C,4014240604,JASSM,3,139,76,2,2,1,225,9,2,0,1,26,0,0,0,0,-171974.41443045562,-4770667.571260299,4220272.530729771,-2.51448,-0.703234,0.607648,59.75,-50.5,-54.25,0.0,0.0,0.0,0.0,0.0,0.0,2,0,41.669413586249085,-92.06452099390442,9999.995641659172,139.83909975254986,-0.0050710631535701,0.0001536213277513,,9023.624474727972,10930.733041558857,150,8,2025-09-10,2025-09-26 16:00:07.403,AH,C,3294373374,HAWK11,1,1,73,2,1,1,225,2,1,0,0,12,1,225,2,1,-144268.49646170562,-4790574.539033736,4199285.794401646,2.96912,2.53538,-0.610524,-69.75,43.75,48.125,-0.234375,-7.75,7.6875,0.0507812,0.046875,0.0449219,4,0,41.41477934687477,-91.72494518196038,10945.688263112044,-43.45457482337499,2.5507544415164807,29.13232498813473,168.666,9023.624474727972,10930.733041558857,150,False,21.565172620701468,False,171.85767243876197,175.0922094275834,False,3.346476889234353,True,False
8,1970-07-23 10:00:00.083592184,2025-09-10,2025-09-26 16:00:08.359,AH,C,4015552954,JASSM,3,139,76,2,2,1,225,9,2,0,1,26,0,0,0,0,-171908.71765311187,-4770723.282197799,4220212.636198521,-2.51448,-0.703234,0.607648,59.75,-50.5,-54.25,0.0,0.0,0.0,0.0,0.0,0.0,2,0,41.6686920062655,-92.06370891959072,10000.001666573931,139.8396396416018,-0.0041283759323715,0.0001518516812411,,9023.624474727972,10930.733041558857,150,8,2025-09-10,2025-09-26 16:00:08.699,AH,C,3295964038,HAWK11,1,1,73,2,1,1,225,2,1,0,0,12,1,225,2,1,-144358.53357108062,-4790513.296846236,4199353.497526646,3.05962,2.46396,-0.648874,-64.5,47.5,52.5,-0.171875,-7.95312,8.04688,0.0332031,0.03125,0.0449219,4,0,41.41558454319277,-91.7260431111972,10948.682382254538,-39.49283181663757,2.253564996881611,32.07295989038081,168.984,9023.624474727972,10930.733041558857,150,False,21.43997692060231,False,176.48543649341033,175.0814640987662,False,1.749032603760236,True,False
8,1970-07-23 10:00:00.094151536,2025-09-10,2025-09-26 16:00:09.415,AH,C,4016805654,JASSM,3,139,76,2,2,1,225,9,2,0,1,26,0,0,0,0,-171846.0069597525,-4770776.461885299,4220155.460417271,-2.51448,-0.703234,0.607648,59.75,-50.5,-54.25,0.0,0.0,0.0,0.0,0.0,0.0,2,0,41.66800318852847,-92.06293377260704,10000.007165315865,139.84015497320942,-0.0032285130261327,0.000150143361325,,9023.624474727972,10930.733041558857,150,8,2025-09-10,2025-09-26 16:00:09.404,AH,C,3296759372,HAWK11,1,1,73,2,1,1,225,2,1,0,0,12,1,225,2,1,-144401.20153983062,-4790480.136689986,4199390.040495396,3.09452,2.43174,-0.661625,-61.625,49.625,54.625,-0.34375,-8.10938,7.90625,0.0214844,0.0292969,0.0507812,4,0,41.41602083133442,-91.72656491215702,10949.60539934658,-37.87987804230081,1.9782774861197976,33.00730141193762,169.155,9023.624474727972,10930.733041558857,150,False,21.351242668857328,False,178.8749460886556,175.0638702061506,False,4.038311401876177,True,False
8,1970-07-23 10:00:00.105158512,2025-09-10,2025-09-26 16:00:10.515,AH,C,4018118004,JASSM,3,139,76,2,2,1,225,9,2,0,1,26,0,0,0,0,-171780.30993826812,-4770832.168916549,4220095.558073521,-2.51439,-0.703234,0.607648,59.75,-50.5,-54.375,0.0,0.0,0.0,0.0,0.0,0.0,2,0,41.66728156804194,-92.0621217325008,9999.997630589038,139.84069482453103,-0.0022858027270168,0.0056398276752547,,9023.624474727972,10930.733041558857,150,8,2025-09-10,2025-09-26 16:00:10.605,AH,C,3298190970,HAWK11,1,1,73,2,1,1,225,2,1,0,0,12,1,225,2,1,-144472.30114920562,-4790417.736299361,4199458.308073521,-3.11849,2.34325,-0.699399,-55.875,52.875,58.25,-0.296875,-8.0,7.92188,0.0195312,0.0332031,0.0546875,4,0,41.41684011179037,-91.7274370032494,10949.584414570549,-33.40346155926821,1.5546159671764297,33.97447880832721,169.424,9023.624474727972,10930.733041558857,150,False,21.232597962203023,False,176.50561377305215,174.99313980180088,False,8.497057590484435,True,False
8,1970-07-23 10:00:00.120395703,2025-09-10,2025-09-26 16:00:12.039,AH,C,4019430356,JASSM,3,139,76,2,2,1,225,9,2,0,1,26,0,0,0,0,-171714.61291678375,-4770887.875947799,4220035.655729771,-2.51439,-0.703234,0.607648,59.75,-50.5,-54.375,0.0,0.0,0.0,0.0,0.0,0.0,2,0,41.6665599417272,-92.06130971052926,9999.993759415856,139.84123465612717,-0.0013430923086,0.0056380398629823,,9023.624474727972,10930.733041558857,150,8,2025-09-10,2025-09-26 16:00:12.107,AH,C,3299861168,HAWK11,1,1,73,2,1,1,225,2,1,0,0,12,1,225,2,1,-144545.54919608062,-4790339.691377486,4199543.245573521,-3.0368,2.24364,-0.743597,-48.25,56.75,62.5,-0.15625,-8.51562,8.48438,-0.00976562,0.0410156,0.0625,4,0,41.417864594334056,-91.72834043066136,10947.437539233011,-28.42643756690524,1.5320920775518532,35.016374328177534,170.047,9023.624474727972,10930.733041558857,150,False,21.104259272774616,False,170.8945746704617,174.9400017353452,False,14.164202526751883,True,False
8,1970-07-23 10:00:00.126155822,2025-09-10,2025-09-26 16:00:12.615,AH,C,4020683054,JASSM,3,139,76,2,2,1,225,9,2,0,1,26,0,0,0,0,-171651.90197928375,-4770941.051729049,4219978.479948521,-2.51439,-0.703234,0.607648,59.75,-50.5,-54.375,0.0,0.0,0.0,0.0,0.0,0.0,2,0,41.66587113096267,-92.06053461345071,10000.00564166536,139.8417499329278,-0.0004432463598501,0.0056363472530199,,9023.624474727972,10930.733041558857,150,8,2025-09-10,2025-09-26 16:00:12.698,AH,C,3300775800,HAWK11,1,1,73,2,1,1,225,2,1,0,0,12,1,225,2,1,-144580.96716483062,-4790295.041963424,4199592.097136021,-3.00171,2.1795,-0.76095,-43.75,58.75,64.625,-0.40625,-8.4375,8.21875,0.0,0.03125,0.0605469,4,0,41.41845360893355,-91.72877977233492,10946.294084607096,-25.589019076407286,1.1610006984369647,34.58197144649687,170.096,9023.624474727972,10930.733041558857,150,False,21.011675530939847,False,167.75703970621288,174.89697005571261,False,17.342490904190868,True,False
8,1970-07-23 10:00:00.137156439,2025-09-10,2025-09-26 16:00:13.715,AH,C,4021935754,JASSM,3,139,76,2,2,1,225,9,2,0,1,26,0,0,0,0,-171589.19104178375,-4770994.223604049,4219921.296354771,-2.51439,-0.703138,0.607648,59.75,-50.5,-54.375,0.0,0.0,0.0,0.0,0.0,0.0,2,0,41.66518228572144,-92.05975953458058,9999.9960771411,139.83861463637106,-0.0021890676359003,0.0024993989722508,,9023.624474727972,10930.733041558857,150,8,2025-09-10,2025-09-26 16:00:13.404,AH,C,3301491600,HAWK11,1,1,73,2,1,1,225,2,1,0,0,12,1,225,2,1,-144606.32458670562,-4790258.674775924,4199631.612761021,-2.97055,2.12897,-0.772839,-40.25,60.375,66.25,-0.21875,-8.25,8.5,-0.00390625,0.0429688,0.0507812,4,0,41.41893213966452,-91.72909591046226,10944.510520060025,-23.41475454693559,0.875643102993476,34.396882437031,170.352,9023.624474727972,10930.733041558857,150,False,20.927693178309493,False,165.33551138701108,174.85569265120353,False,19.803082195824032,True,False
8,1970-07-23 10:00:00.147152551,2025-09-10,2025-09-26 16:00:14.715,AH,C,4023188696,JASSM,3,139,76,2,2,1,225,9,2,0,1,26,0,0,0,0,-171526.46765311187,-4771047.407197799,4219864.104948521,-2.51439,-0.703138,0.607648,59.75,-50.5,-54.375,0.0,0.0,0.0,0.0,0.0,0.0,2,0,41.664493315262526,-92.05898431784551,10000.0022411737,139.83912997881973,-0.0012890340802752,0.002497640004548,,9023.624474727972,10930.733041558857,150,8,2025-09-10,2025-09-26 16:00:14.699,AH,C,3303122032,HAWK11,1,1,73,2,1,1,225,2,1,0,0,12,1,225,2,1,-144656.07653983062,-4790172.825166549,4199724.962370396,-2.981,2.01134,-0.794698,-32.5,63.375,69.75,-0.15625,-7.51562,8.21875,-0.208984,0.00976562,0.0566406,4,0,41.420064045488935,-91.729721427081,10939.703673524748,-18.52419466769281,0.2277538400950345,29.084034487784937,170.792,9023.624474727972,10930.733041558857,150,False,20.80623432487203,False,160.17999950007157,174.7648491759762,False,25.04829269706553,True,False
8,1970-07-23 10:00:00.158152016,2025-09-10,2025-09-26 16:00:15.815,AH,C,4024500802,JASSM,3,139,76,2,2,1,225,9,2,0,1,26,0,0,0,0,-171460.78283865875,-4771103.098604049,4219804.210417271,-2.51439,-0.703138,0.607744,59.75,-50.5,-54.375,0.0,0.0,0.0,0.0,0.0,0.0,2,0,41.66377180974887,-92.05817251907888,10000.000094328432,139.84289430569837,-0.0047956939617197,0.0024956522896623,,9023.624474727972,10930.733041558857,150,8,2025-09-10,2025-09-26 16:00:15.701,AH,C,3304315030,HAWK11,1,1,73,2,1,1,225,2,1,0,0,12,1,225,2,1,-144686.67614920562,-4790107.205049361,4199795.524870396,-3.13594,1.9472,-0.800738,-28.625,65.125,71.75,-0.15625,-7.23438,7.95312,-0.132812,0.00195312,0.0253906,4,0,41.4209252304398,-91.730110785018,10933.76869192374,-15.981743455286871,-0.2606038956521163,17.575543309682587,172.21,9023.624474727972,10930.733041558857,150,False,20.70124636782126,False,157.61064505172743,174.68349412962021,False,27.69855220876222,True,False
8,1970-07-23 10:00:00.169152176,2025-09-10,2025-09-26 16:00:16.915,AH,C,4025813288,JASSM,3,139,76,2,2,1,225,9,2,0,1,26,0,0,0,0,-171395.07873709625,-4771158.805635299,4219744.296354771,-2.51439,-0.703138,0.607744,59.75,-50.5,-54.375,0.0,0.0,0.0,0.0,0.0,0.0,2,0,41.66305007783063,-92.05736050038908,9999.997587668144,139.84343409803208,-0.0038528830207475,0.0024938559635047,,9023.624474727972,10930.733041558857,150,8,2025-09-10,2025-09-26 16:00:17.011,AH,C,3305945462,HAWK11,1,1,73,2,1,1,225,2,1,0,0,12,1,225,2,1,-144722.83825858062,-4790015.992158736,4199893.870573521,3.08426,1.92745,-0.803902,-25.125,66.75,73.75,-0.109375,-6.73438,7.29688,-0.0195312,0.00390625,0.00976562,4,0,41.42212520743816,-91.73057586896948,10925.624821354044,-15.17676101158892,-0.3137443698132491,13.148932338313148,173.554,9023.624474727972,10930.733041558857,150,False,20.579585613287776,False,155.32717405533495,174.56785782197102,False,30.09799529683914,False,False
8,1970-07-23 10:00:00.180150254,2025-09-10,2025-09-26 16:00:18.015,AH,C,4027125506,JASSM,3,139,76,2,2,1,225,9,2,0,1,26,0,0,0,0,-171329.38806326812,-4771214.500947799,4219684.394011021,-2.51439,-0.703138,0.607744,59.75,-50.5,-54.375,0.0,0.0,0.0,0.0,0.0,0.0,2,0,41.66232848604778,-92.05654866592216,9999.99877972441,139.84397376023446,-0.0029102635348931,0.002492058897565,,9023.624474727972,10930.733041558857,150,8,2025-09-10,2025-09-26 16:00:18.011,AH,C,3307138460,HAWK11,1,1,73,2,1,1,225,2,1,0,0,12,1,225,2,1,-144746.61560233062,-4789946.906221236,4199968.095182896,-3.08963,1.87395,-0.828925,-22.625,67.625,75.375,-0.375,-8.3125,8.84375,0.0878906,0.0605469,0.0292969,4,0,41.42303295562415,-91.7308849714513,10918.622059317568,-12.773816784210537,0.5151103683582066,17.181344354048147,175.668,9023.624474727972,10930.733041558857,150,False,20.475299692857792,False,153.7400607561358,174.47197131131378,False,31.782985080921215,False,False
8,1970-07-23 10:00:00.191152276,2025-09-10,2025-09-26 16:00:19.115,AH,C,4028437856,JASSM,3,139,76,2,2,1,225,9,2,0,1,26,0,0,0,0,-171263.6905535025,-4771270.200166549,4219624.487761021,-2.51439,-0.703138,0.607744,59.75,-50.5,-54.375,0.0,0.0,0.0,0.0,0.0,0.0,2,0,41.66160684029228,-92.05573676591705,10000.006082454727,139.8445134583334,-0.0019675668239612,0.0024902785214523,,9023.624474727972,10930.733041558857,150,8,2025-09-10,2025-09-26 16:00:19.204,AH,C,3308570060,HAWK11,1,1,73,2,1,1,225,2,1,0,0,12,1,225,2,1,-144770.59802420562,-4789866.105439986,4200060.145964146,-2.96739,1.79811,-0.860371,-17.75,67.125,78.5,-0.171875,-8.09375,8.6875,-0.00390625,0.00976562,0.0410156,4,0,41.42413067681359,-91.73120076513064,10921.528883691815,-9.565152108735033,1.6439847929891556,20.99554752831047,176.182,9023.624474727972,10930.733041558857,150,False,20.362875373287107,False,150.8353819401758,174.35262264469404,False,34.81199348811978,False,False
8,1970-07-23 10:00:00.202153214,2025-09-10,2025-09-26 16:00:20.215,AH,C,4029750208,JASSM,3,139,76,2,2,1,225,9,2,0,1,26,0,0,0,0,-171197.9932878775,-4771325.895479049,4219564.577604771,-2.51439,-0.703138,0.607744,59.75,-50.5,-54.375,0.0,0.0,0.0,0.0,0.0,0.0,2,0,41.660885185748775,-92.05492488865067,10000.000982702642,139.8450531336485,-0.0010248699509657,0.0024884935693853,,9023.624474727972,10930.733041558857,150,8,2025-09-10,2025-09-26 16:00:20.403,AH,C,3309882358,HAWK11,1,1,73,2,1,1,225,2,1,0,0,12,1,225,2,1,-144786.97693045562,-4789790.351533736,4200147.210417271,-3.03383,1.72918,-0.866603,-13.625,67.375,80.125,-0.15625,-7.57812,8.07812,-0.126953,0.0195312,0.0429688,4,0,41.4251660808822,-91.73142387531227,10925.464379769011,-6.974520205522804,1.5712344426150155,14.258846502789195,176.609,9023.624474727972,10930.733041558857,150,False,20.256125133533573,False,148.47260063971444,174.23125447970423,False,37.29589636664613,False,False
8,1970-07-23 10:00:00.213150925,2025-09-10,2025-09-26 16:00:21.315,AH,C,4031062558,JASSM,3,139,76,2,2,1,225,9,2,0,1,26,0,0,0,0,-171132.29577811187,-4771381.590791549,4219504.663542271,-2.51439,-0.703138,0.607744,59.75,-50.5,-54.375,0.0,0.0,0.0,0.0,0.0,0.0,2,0,41.66016349916895,-92.0541130265846,9999.9930060712,139.84559279119068,-8.215151528283873e-05,0.0024866933536141,,9023.624474727972,10930.733041558857,150,8,2025-09-10,2025-09-26 16:00:21.309,AH,C,3311075356,HAWK11,1,1,73,2,1,1,225,2,1,0,0,12,1,225,2,1,-144798.82263358062,-4789722.729463424,4200227.128386021,-3.11331,1.70157,-0.895078,-11.0,66.875,81.75,-0.265625,-8.35938,8.90625,-0.0722656,0.0292969,0.0,4,0,41.42610567904224,-91.73158987663818,10933.551651156846,-5.762405238121692,3.058202614459943,8.533674975263294,177.501,9023.624474727972,10930.733041558857,150,True,20.15530677238845,False,146.9451546853667,174.11511456212818,False,38.9372602907322,False,False
8,1970-07-23 10:00:00.225171301,2025-09-10,2025-09-26 16:00:22.517,AH,C,4032315258,JASSM,3,139,76,2,2,1,225,9,2,0,1,26,0,0,0,0,-171069.58435233062,-4771434.754854049,4219447.476042271,-2.51439,-0.703043,0.607744,59.75,-50.5,-54.375,0.0,0.0,0.0,0.0,0.0,0.0,2,0,41.65947463049137,-92.05333808210143,9999.998500434573,139.84245546658565,-0.0018296560289963,-0.0006526525728977,,9023.624474727972,10930.733041558857,150,8,2025-09-10,2025-09-26 16:00:22.605,AH,C,3312506954,HAWK11,1,1,73,2,1,1,225,2,1,0,0,12,1,225,2,1,-144810.40857108062,-4789642.058564986,4200325.173307896,3.08579,1.69179,-0.891339,-9.25,66.5,82.875,0.1875,-6.375,6.85938,-0.105469,-0.00976562,0.015625,4,0,41.427245300373386,-91.73175749312756,10948.89074007896,-5.438237990310811,2.805581265180677,3.296250038945453,177.294,9023.624474727972,10930.733041558857,150,True,20.04872981458614,False,145.92782488576754,173.9739794968406,False,40.09296693340004,False,False
8,1970-07-23 10:00:00.234471448,2025-09-10,2025-09-26 16:00:23.447,AH,C,4033567966,JASSM,3,139,76,2,2,1,225,9,2,0,1,26,0,0,0,0,-171006.87243826812,-4771487.918916549,4219390.284636021,-2.51439,-0.703043,0.60784,59.75,-50.5,-54.375,0.0,0.0,0.0,0.0,0.0,0.0,2,0,41.65878573034783,-92.05256314827992,10000.000593670737,139.84619347681243,-0.0053760242500072,-0.0006546055258494,,9023.624474727972,10930.733041558857,150,8,2025-09-10,2025-09-26 16:00:23.605,AH,C,3313739720,HAWK11,1,1,73,2,1,1,225,2,1,0,0,12,1,225,2,1,-144819.43005545562,-4789571.933564986,4200410.577604771,3.05262,1.67357,-0.89805,-8.625,66.875,83.125,-0.09375,-6.71875,7.25,-0.015625,0.00390625,0.0078125,4,0,41.42823732030921,-91.73189065459398,10962.536567452316,-4.747120089932395,3.119460209653933,0.6172300576047105,177.966,9023.624474727972,10930.733041558857,150,True,19.94952705298948,False,145.58351584756082,173.84657586563318,False,40.56541975193788,False,False
8,1970-07-23 10:00:00.245132513,2025-09-10,2025-09-26 16:00:24.513,AH,C,4034880414,JASSM,3,139,76,2,2,1,225,9,2,0,1,26,0,0,0,0,-170941.17004569,-4771543.614229049,4219330.366667271,-2.51439,-0.703043,0.60784,59.75,-50.5,-54.375,0.0,0.0,0.0,0.0,0.0,0.0,2,0,41.65806400160487,-92.05175128039257,10000.000146098117,139.8467331161342,-0.0044332579969263,-0.00065639572953,,9023.624474727972,10930.733041558857,150,8,2025-09-10,2025-09-26 16:00:24.511,AH,C,3314654352,HAWK11,1,1,73,2,1,1,225,2,1,0,0,12,1,225,2,1,-144825.30700858062,-4789520.651338424,4200472.835417271,3.03163,1.67827,-0.900447,-8.25,67.0,83.25,-0.078125,-6.57812,7.15625,-0.03125,0.0117188,0.00390625,4,0,41.42896157367178,-91.73197942718213,10972.036059517635,-4.900111577655869,3.27378225986894,-0.383575735958765,178.222,9023.624474727972,10930.733041558857,150,True,19.86042371207392,False,145.37810746250986,173.746580272695,False,40.87100692766728,False,False
8,1970-07-23 10:00:00.256134280,2025-09-10,2025-09-26 16:00:25.613,AH,C,4036133144,JASSM,3,139,76,2,2,1,225,9,2,0,1,26,0,0,0,0,-170878.45691092435,-4771596.774385299,4219273.171354771,-2.51429,-0.703043,0.60784,59.75,-50.5,-54.375,0.0,0.0,0.0,0.0,0.0,0.0,2,0,41.65737508794245,-92.05097636743076,9999.9946120527,139.84724818478475,-0.0035333726793521,0.0048333570096435,,9023.624474727972,10930.733041558857,150,8,2025-09-10,2025-09-26 16:00:25.702,AH,C,3316324550,HAWK11,1,1,73,2,1,1,225,2,1,0,0,12,1,225,2,1,-144836.82849295562,-4789425.510713424,4200588.429167271,3.02098,1.67098,-0.893352,-8.375,67.75,83.25,-0.015625,-5.98438,6.45312,0.0351562,-0.0136719,-0.00195312,4,0,41.43030573381871,-91.73215151683311,10989.911925786691,-4.681500027982867,2.844545525519957,-1.3078522755343664,178.479,9023.624474727972,10930.733041558857,150,True,19.745551288817108,False,145.45392871735584,173.57600213285383,False,40.96756390813366,False,False
8,1970-07-23 10:00:00.268040483,2025-09-10,2025-09-26 16:00:26.804,AH,C,4037505010,JASSM,3,139,76,2,2,1,225,9,2,0,1,26,0,0,0,0,-170809.77966483062,-4771654.989229049,4219210.538542271,-2.51429,-0.703043,0.60784,59.75,-50.5,-54.375,0.0,0.0,0.0,0.0,0.0,0.0,2,0,41.65662066949307,-92.05012777844894,9999.996266806414,139.84781221634788,-0.0025479207717838,0.0048314854910974,,9023.624474727972,10930.733041558857,150,8,2025-09-10,2025-09-26 16:00:26.605,AH,C,3317159650,HAWK11,1,1,73,2,1,1,225,2,1,0,0,12,1,225,2,1,-144842.42419608062,-4789377.513643111,4200645.884245396,3.04409,1.66974,-0.883285,-8.25,68.625,82.75,-0.15625,-5.45312,5.95312,0.015625,-0.0078125,-0.00195312,4,0,41.43097807650848,-91.732235745894,10997.05063285846,-4.692769528943311,2.26679136106142,-0.0399051900739537,178.736,9023.624474727972,10930.733041558857,150,True,19.656365848387892,False,145.42500227915963,173.47910100566062,False,41.09537619863662,False,False
8,1970-07-23 10:00:00.278131787,2025-09-10,2025-09-26 16:00:27.813,AH,C,4038757708,JASSM,3,139,76,2,2,1,225,9,2,0,1,26,0,0,0,0,-170747.06823904935,-4771708.149385299,4219153.343229771,-2.51429,-0.703043,0.60784,59.75,-50.5,-54.375,0.0,0.0,0.0,0.0,0.0,0.0,2,0,41.6559317443469,-92.04935292058305,10000.00169460222,139.84832723373748,-0.0016480448217607,0.0048297541341033,,9023.624474727972,10930.733041558857,150,8,2025-09-10,2025-09-26 16:00:27.808,AH,C,3318710548,HAWK11,1,1,73,2,1,1,225,2,1,0,0,12,1,225,2,1,-144852.83435233062,-4789285.945283736,4200751.847136021,3.05789,1.65814,-0.869,-8.0,70.75,81.75,-0.125,-5.54688,6.04688,0.00585938,-0.0078125,0.0,4,0,41.432236189167554,-91.73239327131324,11002.735179766996,-4.344599957149075,1.4137989506531077,0.2516486159382003,179.787,9023.624474727972,10930.733041558857,150,True,19.54579100866135,False,145.3439914460029,173.31512754759825,False,41.33934744499479,False,False
8,1970-07-23 10:00:00.291241343,2025-09-10,2025-09-26 16:00:29.124,AH,C,4040070058,JASSM,3,139,76,2,2,1,225,9,2,0,1,26,0,0,0,0,-170681.37048514312,-4771763.836885299,4219093.425261021,-2.51429,-0.703043,0.60784,59.75,-50.5,-54.375,0.0,0.0,0.0,0.0,0.0,0.0,2,0,41.65521003828096,-92.04854118335554,10000.004912874869,139.84886675588527,-0.0007053414518766,0.0048279595890091,,9023.624474727972,10930.733041558857,150,8,2025-09-10,2025-09-26 16:00:29.403,AH,C,3320738646,HAWK11,1,1,73,2,1,1,225,2,1,0,0,12,1,225,2,1,-144866.43396170562,-4789162.498018111,4200889.638151646,3.05857,1.65267,-0.86181,-7.75,72.75,81.375,-0.09375,-6.34375,6.76562,-0.0078125,0.0,-0.00390625,4,0,41.43389822800492,-91.73260045093345,10999.39202469348,-4.177855493161404,0.9875616417305504,0.0552407088814665,181.607,9023.624474727972,10930.733041558857,150,True,19.414624866780784,False,145.20741576040552,173.10111027748988,False,41.6840415411905,False,False
8,1970-07-23 10:00:00.299131271,2025-09-10,2025-09-26 16:00:29.913,AH,C,4041322758,JASSM,3,139,76,2,2,1,225,9,2,0,1,26,0,0,0,0,-170618.65857108062,-4771816.989229049,4219036.229948521,-2.51429,-0.703043,0.60784,59.75,-50.5,-54.375,0.0,0.0,0.0,0.0,0.0,0.0,2,0,41.65452114907448,-92.0477663567992,10000.00172580825,139.84938173815607,0.0001945001511078,0.0048262597790386,,9023.624474727972,10930.733041558857,150,8,2025-09-10,2025-09-26 16:00:29.809,AH,C,3321176080,HAWK11,1,1,73,2,1,1,225,2,1,0,0,12,1,225,2,1,-144869.26403983062,-4789136.021455611,4200918.767057896,3.05732,1.64893,-0.86133,-7.75,73.125,81.5,-0.03125,-6.46875,6.875,-0.00390625,0.0,0.0078125,4,0,41.43425185114227,-91.73264385096196,10997.750174141627,-4.041085882053747,0.9490325460850126,-0.1764331202310718,182.316,9023.624474727972,10930.733041558857,150,True,19.34520481342422,False,145.1972559215983,173.04001144035877,False,41.75438410366081,False,False
8,1970-07-23 10:00:00.310133499,2025-09-10,2025-09-26 16:00:31.013,AH,C,4042575458,JASSM,3,139,76,2,2,1,225,9,2,0,1,26,0,0,0,0,-170555.94690115875,-4771870.145479049,4218979.030729771,-2.51429,-0.702947,0.607936,59.75,-50.5,-54.375,0.0,0.0,0.0,0.0,0.0,0.0,2,0,41.6538322048952,-92.04699154800802,10000.004772052043,139.84947208753212,-0.0060001910027958,0.0016881737255759,,9023.624474727972,10930.733041558857,150,8,2025-09-10,2025-09-26 16:00:30.809,AH,C,3322329312,HAWK11,1,1,73,2,1,1,225,2,1,0,0,12,1,225,2,1,-144876.83630545562,-4789064.115205611,4200997.597136021,3.06374,1.63877,-0.861522,-7.625,73.875,81.625,-0.1875,-6.70312,7.10938,0.0,0.00390625,-0.00585938,4,0,41.43521037158366,-91.7327603610276,10992.679846263623,-3.662130911359714,0.9316249327269952,-0.2439667600458332,183.257,9023.624474727972,10930.733041558857,150,True,19.24865766773177,False,145.11577690101362,172.90646002548414,False,41.96701080456502,False,False
8,1970-07-23 10:00:00.321110082,2025-09-10,2025-09-26 16:00:32.111,AH,C,4043887794,JASSM,3,139,76,2,2,1,225,9,2,0,1,26,0,0,0,0,-170490.24963553375,-4771925.825166549,4218919.108854771,-2.51429,-0.702947,0.607936,59.75,-50.5,-54.375,0.0,0.0,0.0,0.0,0.0,0.0,2,0,41.653110502218446,-92.04617987270407,9999.996851785789,139.85001154643567,-0.0050575072736783,0.0016863799478414,,9023.624474727972,10930.733041558857,150,8,2025-09-10,2025-09-26 16:00:31.900,AH,C,3323721144,HAWK11,1,1,73,2,1,1,225,2,1,0,0,12,1,225,2,1,-144885.95935233062,-4788978.068330611,4201092.327604771,3.06882,1.63446,-0.870726,-7.75,74.125,82.375,-0.171875,-7.0625,7.42188,0.0253906,0.0,0.00390625,4,0,41.43636006399242,-91.73290052492392,10987.489268272026,-3.4645408568542515,1.4472412680535485,-0.1370045396660094,184.809,9023.624474727972,10930.733041558857,150,True,19.14110019614854,False,145.15108076273273,172.7476372428498,False,42.09243861604177,False,False
8,1970-07-23 10:00:00.331130709,2025-09-10,2025-09-26 16:00:33.113,AH,C,4045140506,JASSM,3,139,76,2,2,1,225,9,2,0,1,26,0,0,0,0,-170427.53723319,-4771978.977510299,4218861.909636021,-2.51429,-0.702947,0.607936,59.75,-50.5,-54.375,0.0,0.0,0.0,0.0,0.0,0.0,2,0,41.65242157068143,-92.04540509061336,10000.000830867726,139.8505264780703,-0.0041576425359497,0.00168465985124,,9023.624474727972,10930.733041558857,150,8,2025-09-10,2025-09-26 16:00:33.395,AH,C,3324198342,HAWK11,1,1,73,2,1,1,225,2,1,0,0,12,1,225,2,1,-144889.13903983062,-4788947.875947799,4201125.796354771,3.0763,1.63446,-0.872068,-7.625,74.0,82.75,0.015625,-6.98438,7.375,0.0117188,0.00195312,-0.00585938,4,0,41.43676502332837,-91.73294945102803,10986.166571655158,-3.459163161743513,1.5243618389599278,0.2916193216834138,186.068,9023.624474727972,10930.733041558857,150,True,19.069535602746825,False,145.07569854410187,172.67808949243198,False,42.23908149614911,False,False
8,1970-07-23 10:00:00.343982893,2025-09-10,2025-09-26 16:00:34.398,AH,C,4046453134,JASSM,3,139,76,2,2,1,225,9,2,0,1,26,0,0,0,0,-170361.8253191275,-4772034.672822799,4218801.972136021,-2.51429,-0.702947,0.607936,59.75,-50.5,-54.375,0.0,0.0,0.0,0.0,0.0,0.0,2,0,41.651699661291055,-92.0445932683832,10000.006908471878,139.85106601963292,-0.0032147214189275,0.0016828442039612,,9023.624474727972,10930.733041558857,150,8,2025-09-10,2025-09-26 16:00:34.235,AH,C,3326027608,HAWK11,1,1,73,2,1,1,225,2,1,0,0,12,1,225,2,1,-144900.81872733062,-4788833.623994674,4201253.255339146,3.08963,1.61797,-0.882806,-7.5,74.25,83.875,-0.09375,-7.10938,7.53125,-0.00585938,0.0136719,0.00585938,4,0,41.43830296302457,-91.73313038378164,10982.90080960007,-2.816866918772458,2.1011067601083084,0.3488526164632467,186.581,9023.624474727972,10930.733041558857,150,True,18.945081494730132,False,144.96855221500255,172.4684135337803,False,42.5583948027552,False,False
8,1970-07-23 10:00:00.353168578,2025-09-10,2025-09-26 16:00:35.316,AH,C,4047765192,JASSM,3,139,76,2,2,1,225,9,2,0,1,26,0,0,0,0,-170296.1417253775,-4772090.336885299,4218742.058073521,-2.51429,-0.702947,0.607936,59.75,-50.5,-54.375,0.0,0.0,0.0,0.0,0.0,0.0,2,0,41.65097808442103,-92.04378181724724,9999.99567202799,139.8516053068961,-0.0022722288570085,0.0016810450814213,,9023.624474727972,10930.733041558857,150,8,2025-09-10,2025-09-26 16:00:35.399,AH,C,3327777338,HAWK11,1,1,73,2,1,1,225,2,1,0,0,12,1,225,2,1,-144911.35193045562,-4788725.163057174,4201376.179167271,3.09644,1.60982,-0.89038,-7.125,74.0,84.875,-0.265625,-7.17188,7.5625,-0.00390625,0.00976562,-0.00390625,4,0,41.43977603828737,-91.73329552549548,10983.953839938791,-2.498184211180744,2.519663009333834,0.3899477021678116,187.424,9023.624474727972,10930.733041558857,150,True,18.82405402563124,False,144.7426724024537,172.26316501278538,False,42.99218701572854,False,False
8,1970-07-23 10:00:00.364150860,2025-09-10,2025-09-26 16:00:36.415,AH,C,4049077560,JASSM,3,139,76,2,2,1,225,9,2,0,1,26,0,0,0,0,-170230.4425066275,-4772146.016572799,4218682.128386021,-2.51429,-0.702947,0.607936,59.75,-50.5,-54.375,0.0,0.0,0.0,0.0,0.0,0.0,2,0,41.650256306603495,-92.04297019017788,9999.992942690542,139.8521447034161,-0.0013294935376927,0.001679230943838,,9023.624474727972,10930.733041558857,150,8,2025-09-10,2025-09-26 16:00:36.403,AH,C,3329010104,HAWK11,1,1,73,2,1,1,225,2,1,0,0,12,1,225,2,1,-144918.84997733062,-4788647.940400924,4201464.788542271,3.10641,1.60186,-0.89479,-7.0,73.875,85.625,-0.140625,-7.03125,7.4375,0.00195312,0.0078125,-0.0136719,4,0,41.44083219577022,-91.73341309133193,10987.077365648289,-2.199859989557904,2.7590938941759635,0.6199874963271725,187.864,9023.624474727972,10930.733041558857,150,True,18.721620384331207,False,144.65059066806484,172.1074696073372,False,43.24115156231369,False,False
8,1970-07-23 10:00:00.375109092,2025-09-10,2025-09-26 16:00:37.510,AH,C,4050389912,JASSM,3,139,76,2,2,1,225,9,2,0,1,26,0,0,0,0,-170164.74426444,-4772201.696260299,4218622.202604771,-2.51429,-0.702947,0.607936,59.75,-50.5,-54.375,0.0,0.0,0.0,0.0,0.0,0.0,2,0,41.64953454902381,-92.04215859293744,10000.004479504303,139.8526840724427,-0.0003867836607443,0.0016774268863624,,9023.624474727972,10930.733041558857,150,8,2025-09-10,2025-09-26 16:00:37.604,AH,C,3330521236,HAWK11,1,1,73,2,1,1,225,2,1,0,0,12,1,225,2,1,-144927.31872733062,-4788553.803682174,4201573.952604771,3.12577,1.58872,-0.90083,-6.625,73.75,86.5,-0.109375,-7.04688,7.51562,0.0136719,0.0078125,0.0,4,0,41.4421275383217,-91.73354838434456,10993.334528434963,-1.7164097956146387,3.0868995416853378,1.1658374316406197,188.463,9023.624474727972,10930.733041558857,150,True,18.609137366288707,False,144.42664167200226,171.91888948187747,False,43.654370132388365,False,False
8,1970-07-23 10:00:00.386129378,2025-09-10,2025-09-26 16:00:38.612,AH,C,4051702262,JASSM,3,139,76,2,2,1,225,9,2,0,1,26,0,0,0,0,-170099.0460222525,-4772257.372041549,4218562.272917271,-2.51429,-0.702947,0.607936,59.75,-50.5,-54.375,0.0,0.0,0.0,0.0,0.0,0.0,2,0,41.64881278270308,-92.04134701548512,10000.003592657857,139.85322342064967,0.0005559277620555,0.0016756199585155,,9023.624474727972,10930.733041558857,150,8,2025-09-10,2025-09-26 16:00:38.512,AH,C,3331356336,HAWK11,1,1,73,2,1,1,225,2,1,0,0,12,1,225,2,1,-144931.65075858062,-4788502.200166549,4201634.399870396,3.14025,1.58153,-0.903323,-6.25,73.5,87.125,-0.140625,-7.28125,7.625,0.0175781,0.00976562,0.00195312,4,0,41.44284175860576,-91.733618841147,10998.06220614755,-1.4560017406434274,3.22180596732303,1.6864108650208167,188.781,9023.624474727972,10930.733041558857,150,True,18.522272006500508,False,144.21191806232878,171.80226763754575,False,43.98577793505832,False,False
8,1970-07-23 10:00:00.397149436,2025-09-10,2025-09-26 16:00:39.714,AH,C,4053014614,JASSM,3,139,76,2,2,1,225,9,2,0,1,26,0,0,0,0,-170033.34753592435,-4772313.043916549,4218502.343229771,-2.51429,-0.702851,0.608032,59.75,-50.5,-54.375,0.0,0.0,0.0,0.0,0.0,0.0,2,0,41.64809103396019,-92.04053545489111,9999.998777649713,139.85333449565812,-0.0055946754461588,-0.0014649104471452,,9023.624474727972,10930.733041558857,150,8,2025-09-10,2025-09-26 16:00:39.698,AH,C,3332907234,HAWK11,1,1,73,2,1,1,225,2,1,0,0,12,1,225,2,1,-144939.11169608062,-4788406.116182174,4201748.237761021,-3.11695,1.56092,-0.909938,-5.625,73.25,87.75,-0.171875,-7.20312,7.5625,0.0078125,0.0078125,0.00390625,4,0,41.44418040306781,-91.73374279895114,11009.623756613615,-0.7182537487068962,3.5852908005234725,2.288924288503402,189.807,9023.624474727972,10930.733041558857,150,True,18.408773723796855,False,143.87164958476797,171.6025963819742,False,44.52529704592497,False,False
8,1970-07-23 10:00:00.408150566,2025-09-10,2025-09-26 16:00:40.815,AH,C,4054326962,JASSM,3,139,76,2,2,1,225,9,2,0,1,26,0,0,0,0,-169967.64929373687,-4772368.719697799,4218442.409636021,-2.51429,-0.702851,0.608032,59.75,-50.5,-54.375,0.0,0.0,0.0,0.0,0.0,0.0,2,0,41.647369229729904,-92.03972391367172,10000.000701121166,139.85387380467404,-0.0046519437201874,-0.0014667414246196,,9023.624474727972,10930.733041558857,150,8,2025-09-10,2025-09-26 16:00:40.808,AH,C,3334338832,HAWK11,1,1,73,2,1,1,225,2,1,0,0,12,1,225,2,1,-144945.27380545562,-4788318.010713424,4201854.110807896,-3.09346,1.54443,-0.909267,-4.875,73.0,88.5,-0.09375,-6.76562,7.0625,-0.00976562,-0.0195312,0.0214844,4,0,41.44541804827457,-91.73384834721394,11023.415933860451,-0.1373989189458409,3.542787540506532,2.925212534004091,190.198,9023.624474727972,10930.733041558857,150,True,18.300130455864807,False,143.46405118628385,171.41286577538006,False,45.121614722716465,False,False
8,1970-07-23 10:00:00.419151960,2025-09-10,2025-09-26 16:00:41.915,AH,C,4055579662,JASSM,3,139,76,2,2,1,225,9,2,0,1,26,0,0,0,0,-169904.93713553375,-4772421.860322799,4218385.202604771,-2.51419,-0.702851,0.608032,59.75,-50.5,-54.375,0.0,0.0,0.0,0.0,0.0,0.0,2,0,41.64668027144809,-92.0389492770892,10000.001960013884,139.85438858158895,-0.0037520952622963,0.0040366706893092,,9023.624474727972,10930.733041558857,150,8,2025-09-10,2025-09-26 16:00:41.720,AH,C,3334935332,HAWK11,1,1,73,2,1,1,225,2,1,0,0,12,1,225,2,1,-144947.35778983062,-4788281.151338424,4201898.347136021,-3.10679,1.53657,-0.898242,-4.5,73.375,88.375,-0.171875,-6.01562,6.32812,-0.0449219,-0.0214844,0.00390625,4,0,41.44593553280181,-91.73388659971975,11029.030054031422,0.1417049529324217,2.9116010085368007,1.8235138209023407,190.479,9023.624474727972,10930.733041558857,150,True,18.225023667447797,False,143.2885246343339,171.31785919258462,False,45.39286694187933,False,False
8,1970-07-23 10:00:00.429149946,2025-09-10,2025-09-26 16:00:42.914,AH,C,4056832362,JASSM,3,139,76,2,2,1,225,9,2,0,1,26,0,0,0,0,-169842.22473319,-4772475.000947799,4218327.991667271,-2.51419,-0.702851,0.608032,59.75,-50.5,-54.375,0.0,0.0,0.0,0.0,0.0,0.0,2,0,41.64599128164648,-92.0381746540846,9999.999841419958,139.8549033424942,-0.0028522252455242,0.0040349350709822,,9023.624474727972,10930.733041558857,150,8,2025-09-10,2025-09-26 16:00:42.807,AH,C,3336685062,HAWK11,1,1,73,2,1,1,225,2,1,0,0,12,1,225,2,1,-144953.30896170562,-4788171.809541549,4202027.505339146,-3.13191,1.52123,-0.888271,-4.0,74.625,88.125,-0.09375,-6.26562,6.54688,-0.015625,-0.0078125,0.00195312,4,0,41.447456725718624,-91.73399731742236,11041.18804817585,0.6981524914142945,2.3466750382378456,-0.2748529130012307,190.98,9023.624474727972,10930.733041558857,150,True,18.107850713193127,False,143.06608583842188,171.08588579519574,False,45.84800956840552,False,False
8,1970-07-23 10:00:00.440148918,2025-09-10,2025-09-26 16:00:44.014,AH,C,4058145124,JASSM,3,139,76,2,2,1,225,9,2,0,1,26,0,0,0,0,-169776.50561697906,-4772530.688447799,4218268.038542271,-2.51419,-0.702851,0.608032,59.75,-50.5,-54.375,0.0,0.0,0.0,0.0,0.0,0.0,2,0,41.64526926354164,-92.03736291028396,10000.002552723725,139.85544276381592,-0.0019092196377559,0.0040331228464976,,9023.624474727972,10930.733041558857,150,8,2025-09-10,2025-09-26 16:00:43.916,AH,C,3337520162,HAWK11,1,1,73,2,1,1,225,2,1,0,0,12,1,225,2,1,-144956.04528983062,-4788119.022432174,4202089.036589146,3.11293,1.52401,-0.885203,-4.0,75.25,88.125,-0.21875,-6.54688,6.78125,-0.0859375,0.0,-0.0078125,4,0,41.44818558909567,-91.73404913595876,11045.26610702599,0.5997454779400392,2.1702850486844936,-2.352484090253082,191.53,9023.624474727972,10930.733041558857,150,True,18.021582224340037,False,143.07253977783603,170.95818765642233,False,45.96896972549539,False,False
8,1970-07-23 10:00:00.451147932,2025-09-10,2025-09-26 16:00:45.114,AH,C,4059457052,JASSM,3,139,76,2,2,1,225,9,2,0,1,26,0,0,0,0,-169710.8281267447,-4772586.336885299,4218208.120573521,-2.51419,-0.702851,0.608032,59.75,-50.5,-54.375,0.0,0.0,0.0,0.0,0.0,0.0,2,0,41.64454770064495,-92.0365517003594,9999.99549396754,139.85598182269896,-0.0009668148148167,0.004031313201657,,9023.624474727972,10930.733041558857,150,8,2025-09-10,2025-09-26 16:00:45.011,AH,C,3339309660,HAWK11,1,1,73,2,1,1,225,2,1,0,0,12,1,225,2,1,-144963.23278983062,-4788004.868135299,4202220.690886021,2.90363,1.52027,-0.87389,-5.75,76.625,87.875,0.015625,-6.23438,6.4375,-0.0449219,-0.0078125,-0.0234375,4,0,41.4497520480192,-91.7341763840729,11051.129902473456,0.7452418771960012,1.5256008002041097,-14.504308199981208,192.655,9023.624474727972,10930.733041558857,150,False,17.900027837014946,False,143.94639357451408,170.71504719399718,False,45.33621389184983,False,False
8,1970-07-23 10:00:00.462801906,2025-09-10,2025-09-26 16:00:46.280,AH,C,4060709764,JASSM,3,139,76,2,2,1,225,9,2,0,1,26,0,0,0,0,-169648.11511404935,-4772639.475557174,4218150.909636021,-2.51419,-0.702851,0.608032,59.75,-50.5,-54.375,0.0,0.0,0.0,0.0,0.0,0.0,2,0,41.64385870623349,-92.03577712195408,10000.004509408682,139.85649653233818,-6.695036122715878e-05,0.004029588802536,,9023.624474727972,10930.733041558857,150,8,2025-09-10,2025-09-26 16:00:46.104,AH,C,3340621958,HAWK11,1,1,73,2,1,1,225,2,1,0,0,12,1,225,2,1,-144970.78161795562,-4787920.584932174,4202316.212370396,2.83547,1.57645,-0.866987,-8.125,77.75,87.5,-0.140625,-6.54688,6.90625,-0.00585938,0.0117188,-0.0292969,4,0,41.45089685361384,-91.73429714475186,11051.98221870498,-1.3321436710136163,1.1435177697614531,-15.996694977983497,193.351,9023.624474727972,10930.733041558857,150,False,17.79798158161063,False,145.11208615312697,170.53120523952492,False,44.350803040489126,False,False
8,1970-07-23 10:00:00.472147489,2025-09-10,2025-09-26 16:00:47.214,AH,C,4061962864,JASSM,3,139,76,2,2,1,225,9,2,0,1,26,0,0,0,0,-169585.38269217435,-4772692.627900924,4218093.675261021,-2.51419,-0.702851,0.608128,59.75,-50.5,-54.375,0.0,0.0,0.0,0.0,0.0,0.0,2,0,41.64316947131548,-92.03500232151612,9999.999398815611,139.8602367906401,-0.0036154456751117,0.0040277706920127,,9023.624474727972,10930.733041558857,150,8,2025-09-10,2025-09-26 16:00:47.308,AH,C,3342053558,HAWK11,1,1,73,2,1,1,225,2,1,0,0,12,1,225,2,1,-144982.03943045562,-4787827.123994674,4202420.888151646,2.84879,1.60474,-0.867658,-10.875,78.5,87.5,-0.078125,-6.79688,7.0625,0.0332031,0.00390625,-0.00585938,4,0,41.4521573856053,-91.73446557696371,11050.443253912596,-2.3785186948149755,1.2225313557404602,-14.018836996172112,194.317,9023.624474727972,10930.733041558857,150,False,17.689976663681183,False,146.4337895886098,170.3326983443198,False,43.22534465038465,False,False
8,1970-07-23 10:00:00.483109638,2025-09-10,2025-09-26 16:00:48.310,AH,C,4063274810,JASSM,3,139,76,2,2,1,225,9,2,0,1,26,0,0,0,0,-169519.70398123687,-4772748.274385299,4218033.753386021,-2.51419,-0.702851,0.608128,59.75,-50.5,-54.375,0.0,0.0,0.0,0.0,0.0,0.0,2,0,41.64244787715729,-92.0341911504596,9999.995402711367,139.86077580153034,-0.0026730227946851,0.0040260126438983,,9023.624474727972,10930.733041558857,150,8,2025-09-10,2025-09-26 16:00:48.394,AH,C,3341616124,HAWK11,1,1,73,2,1,1,225,2,1,0,0,12,1,225,2,1,-144978.20349295562,-4787855.344697799,4202389.401823521,2.84314,1.59764,-0.867466,-10.125,78.25,87.5,-0.078125,-6.78125,6.98438,0.0292969,0.00585938,-0.0136719,4,0,41.45177765863932,-91.73440949765276,11051.136559651764,-2.116317053569674,1.1992274383013133,-14.647489400931578,195.319,9023.624474727972,10930.733041558857,150,False,17.65101288335425,False,146.07591682035826,170.35257242021476,False,43.56415672886123,False,False
8,1970-07-23 10:00:00.494147778,2025-09-10,2025-09-26 16:00:49.414,AH,C,4064587164,JASSM,3,139,76,2,2,1,225,9,2,0,1,26,0,0,0,0,-169454.0050066275,-4772803.938447799,4217973.815886021,-2.51419,-0.702755,0.608128,59.75,-50.5,-54.375,0.0,0.0,0.0,0.0,0.0,0.0,2,0,41.6417260713532,-92.0333797470679,10000.004312235951,139.85766620441146,-0.0043759312416611,0.0008870073282531,,9023.624474727972,10930.733041558857,150,8,2025-09-10,2025-09-26 16:00:49.512,AH,C,3344678154,HAWK11,1,1,73,2,1,1,225,2,1,0,0,12,1,225,2,1,-145011.68982108062,-4787655.489229049,4202611.864714146,2.80824,1.67923,-0.880217,-15.875,78.75,87.375,-0.34375,-7.09375,7.23438,0.0371094,0.00976562,-0.0234375,4,0,41.454462193937694,-91.73488223146524,11045.589213869329,-5.056420918762827,2.150101238869166,-13.147306815492309,196.345,9023.624474727972,10930.733041558857,150,False,17.475214811840623,False,148.8369416230944,169.96550131972828,False,41.188839102323925,False,False
8,1970-07-23 10:00:00.505150498,2025-09-10,2025-09-26 16:00:50.515,AH,C,4065839864,JASSM,3,139,76,2,2,1,225,9,2,0,1,26,0,0,0,0,-169391.29248221344,-4772857.069307174,4217916.597136021,-2.51419,-0.702755,0.608128,59.75,-50.5,-54.375,0.0,0.0,0.0,0.0,0.0,0.0,2,0,41.64103704927453,-92.03260524542377,9999.998329007658,139.8581808346428,-0.0034760662290614,0.0008852670700873,,9023.624474727972,10930.733041558857,150,8,2025-09-10,2025-09-26 16:00:50.354,AH,C,3345115588,HAWK11,1,1,73,2,1,1,225,2,1,0,0,12,1,225,2,1,-145017.80700858062,-4787626.135713424,4202644.517057896,2.81629,1.69083,-0.879163,-16.625,78.875,87.375,-0.171875,-7.10938,7.3125,0.0507812,-0.00585938,-0.0292969,4,0,41.45485611947017,-91.73496600190256,11044.820707212311,-5.48447704679271,2.136188485548138,-12.189691782867271,197.176,9023.624474727972,10930.733041558857,150,False,17.404089921397667,False,149.19067636513032,169.88291477649764,False,40.91725887521844,False,False
8,1970-07-23 10:00:00.515107843,2025-09-10,2025-09-26 16:00:51.510,AH,C,4067092866,JASSM,3,139,76,2,2,1,225,9,2,0,1,26,0,0,0,0,-169328.56457694,-4772910.213838424,4217859.366667271,-2.51419,-0.702755,0.608128,59.75,-50.5,-54.375,0.0,0.0,0.0,0.0,0.0,0.0,2,0,41.64034786464011,-92.03183057005891,10000.00412329174,139.85869557331506,-0.0025759892482312,0.0008835340767812,,9023.624474727972,10930.733041558857,150,8,2025-09-10,2025-09-26 16:00:51.400,AH,C,3346905086,HAWK11,1,1,73,2,1,1,225,2,1,0,0,12,1,225,2,1,-145045.01599295562,-4787509.168916549,4202774.688932896,2.85685,1.72841,-0.887024,-19.375,78.25,87.75,-0.25,-7.21875,7.42188,0.078125,0.0078125,-0.00195312,4,0,41.45642571235654,-91.73533369623615,11042.109816177284,-6.784904635171353,2.757127919192107,-8.257514344560006,198.496,9023.624474727972,10930.733041558857,150,True,17.278077981127748,False,150.4997364770737,169.64767915229598,False,39.84791091582753,False,False
8,1970-07-23 10:00:00.525107198,2025-09-10,2025-09-26 16:00:52.510,AH,C,4068226260,JASSM,3,139,76,2,2,1,225,9,2,0,1,26,0,0,0,0,-169271.82458670562,-4772958.284150924,4217807.597136021,-2.51419,-0.702755,0.608128,59.75,-50.5,-54.375,0.0,0.0,0.0,0.0,0.0,0.0,2,0,41.63972445589327,-92.03112985877831,10000.006273993076,139.85916115999282,-0.0017618262481354,0.0008819609846781,,9023.624474727972,10930.733041558857,150,8,2025-09-10,2025-09-26 16:00:52.400,AH,C,3348177618,HAWK11,1,1,73,2,1,1,225,2,1,0,0,12,1,225,2,1,-145066.74255545562,-4787425.043916549,4202869.007292271,2.91658,1.74385,-0.891531,-20.625,78.125,88.125,-0.265625,-7.375,7.48438,0.0390625,0.0136719,-0.0214844,4,0,41.45755890081192,-91.73562395545234,11041.8425076242,-7.299289777310616,3.0949640325431718,-4.1745995890272525,199.021,9023.624474727972,10930.733041558857,150,True,17.17675143276331,False,151.0693912867975,169.4719928522316,False,39.45562099198141,False,False
8,1970-07-23 10:00:00.534103871,2025-09-10,2025-09-26 16:00:53.410,AH,C,4069359350,JASSM,3,139,76,2,2,1,225,9,2,0,1,26,0,0,0,0,-169215.09973319,-4773006.338838424,4217755.839323521,-2.51419,-0.702755,0.608128,59.75,-50.5,-54.375,0.0,0.0,0.0,0.0,0.0,0.0,2,0,41.63910121178712,-92.03042934912034,10000.001222570158,139.85962660698493,-0.0009478829707466,0.0008803893275662,,9023.624474727972,10930.733041558857,150,8,2025-09-10,2025-09-26 16:00:53.605,AH,C,3349529682,HAWK11,1,1,73,2,1,1,225,2,1,0,0,12,1,225,2,1,-145090.57849295562,-4787337.235322799,4202968.464323521,2.95157,1.73512,-0.899488,-21.25,77.5,88.75,-0.125,-7.32812,7.45312,0.0292969,0.00390625,0.015625,4,0,41.45874830155878,-91.73594078189596,11043.849951984104,-6.922192196891996,3.500686504678241,-2.5379737284736725,199.962,9023.624474727972,10930.733041558857,150,True,17.072542389152147,False,151.34070687247993,169.28799031583935,False,39.37077803887721,False,False
8,1970-07-23 10:00:00.543107061,2025-09-10,2025-09-26 16:00:54.310,AH,C,4070433092,JASSM,3,139,76,2,2,1,225,9,2,0,1,26,0,0,0,0,-169161.3459490103,-4773051.877900924,4217706.792448521,-2.51419,-0.702755,0.608128,59.75,-50.5,-54.375,0.0,0.0,0.0,0.0,0.0,0.0,2,0,41.63851059948242,-92.0297655418457,10000.003643730875,139.86006766215124,-0.0001765651936024,0.0008788952846482,,9023.624474727972,10930.733041558857,150,8,2025-09-10,2025-09-26 16:00:54.395,AH,C,3349967116,HAWK11,1,1,73,2,1,1,225,2,1,0,0,12,1,225,2,1,-145098.59021170562,-4787308.291963424,4203001.577604771,2.96471,1.73359,-0.901501,-21.375,77.375,88.875,-0.125,-7.375,7.5,0.0371094,0.0,0.00195312,4,0,41.45914255023278,-91.73604706909886,11045.242883595469,-6.851412240665973,3.607331149180928,-1.849860454923732,200.476,9023.624474727972,10930.733041558857,150,True,17.0084890993467,False,151.39415592628018,169.20756866849842,False,39.398003570436835,False,False
8,1970-07-23 10:00:00.552128163,2025-09-10,2025-09-26 16:00:55.212,AH,C,4071507180,JASSM,3,139,76,2,2,1,225,9,2,0,1,26,0,0,0,0,-169107.57483084625,-4773097.428682174,4217657.729948521,-2.51419,-0.702755,0.608223,59.75,-50.5,-54.375,0.0,0.0,0.0,0.0,0.0,0.0,2,0,41.63791981183788,-92.0291015339003,10000.003007009323,139.86373249347724,-0.0038507262428837,0.0008773206835287,,9023.624474727972,10930.733041558857,150,8,2025-09-10,2025-09-26 16:00:55.396,AH,C,3350881748,HAWK11,1,1,73,2,1,1,225,2,1,0,0,12,1,225,2,1,-145115.05896170562,-4787249.129854049,4203069.620573521,2.98704,1.73829,-0.902172,-21.5,77.125,89.375,-0.25,-7.375,7.39062,0.0195312,0.00195312,0.0,4,0,41.45995081241838,-91.73626543439698,11048.8762722963,-7.0114104174361565,3.67053633536665,-0.3688816077319224,200.671,9023.624474727972,10930.733041558857,150,True,16.92487623976761,False,151.4207918319963,169.07223227341186,False,39.50697242015505,False,False
