Subject_cm,Timestamp,SampleDate_cm,SampleTime_cm,Configuration_cm,Scenario_cm,DisTime_cm,MarkingTxt_cm,Application_cm,EntId_cm,Site_cm,ExerciseId_cm,ForceId_cm,Category_cm,Country_cm,Domain_cm,Kind_cm,Extra_cm,Specific_cm,Subcategory_cm,AltCategory_cm,AltCountry_cm,AltDomain_cm,AltKind_cm,ECEF_X_cm,ECEF_Y_cm,ECEF_Z_cm,OriPhi_cm,OriPsi_cm,OriTheta_cm,LinVelX_cm,LinVelY_cm,LinVelZ_cm,LinAccX_cm,LinAccY_cm,LinAccZ_cm,AngVelX_cm,AngVelY_cm,AngVelZ_cm,DrAlg_cm,Appearance_cm,Latitude_cm,Longitude_cm,Altitude_cm,Heading_cm,Pitch_cm,Roll_cm,CalibratedAirspeed_cm,CM_Altitude_Lead_cm,CM_Altitude_Wing_cm,CM_Airspeed_cm,Subject_ac,SampleDate_ac,SampleTime_ac,Configuration_ac,Scenario_ac,DisTime_ac,MarkingTxt_ac,Application_ac,EntId_ac,Site_ac,ExerciseId_ac,ForceId_ac,Category_ac,Country_ac,Domain_ac,Kind_ac,Extra_ac,Specific_ac,Subcategory_ac,AltCategory_ac,AltCountry_ac,AltDomain_ac,AltKind_ac,ECEF_X_ac,ECEF_Y_ac,ECEF_Z_ac,OriPhi_ac,OriPsi_ac,OriTheta_ac,LinVelX_ac,LinVelY_ac,LinVelZ_ac,LinAccX_ac,LinAccY_ac,LinAccZ_ac,AngVelX_ac,AngVelY_ac,AngVelZ_ac,DrAlg_ac,Appearance_ac,Latitude_ac,Longitude_ac,Altitude_ac,Heading_ac,Pitch_ac,Roll_ac,CalibratedAirspeed_ac,CM_Altitude_Lead_ac,CM_Altitude_Wing_ac,CM_Airspeed_ac,Bank_Angle_Condition,distance_nm,Distance_Condition,angle_between_vel,angle_between_pos,Cone_Condition,angle_between_pos_nose,Nose_Cone_Condition,Intercept_Criteria
8,1970-07-23 09:59:53.783196662,2025-09-10,2025-09-26 15:49:38.319,AA,C,3263933678,JASSM,3,127,76,2,2,1,225,9,2,0,1,26,0,0,0,0,-172941.94470389312,-4769846.946260299,4221154.530729771,-2.51458,-0.703426,0.607361,59.75,-50.5,-54.25,0.0,0.0,0.0,0.0,0.0,0.0,2,0,41.680040184432194,-92.07648275272874,10000.001982933343,139.82878236761843,-0.0003185066383693,0.0009600670423976,,9133.40005056179,11009.472056291774,150,8,2025-09-10,2025-09-26 15:49:38.239,AA,C,2543301128,HAWK11,1,1,73,2,1,1,225,2,1,0,0,12,1,225,2,1,-144106.26208670562,-4794817.034150924,4194508.622526646,2.46175,2.53941,-0.574668,-73.75,54.625,60.375,-0.21875,-7.4375,6.14062,0.0234375,0.00390625,-0.00585938,4,0,41.35732312571783,-91.72148298455598,11009.985378822696,-44.89533425668459,1.0333968038114143,0.184412377096836,190.479,9133.40005056179,11009.472056291774,150,True,25.059953372565047,False,176.64648947312097,179.4029751756557,False,3.9491906726994372,True,False
8,1970-07-23 09:59:53.793227643,2025-09-10,2025-09-26 15:49:39.322,AA,C,3265067264,JASSM,3,127,76,2,2,1,225,9,2,0,1,26,0,0,0,0,-172885.19763358062,-4769895.086885299,4221102.808073521,-2.51458,-0.703426,0.607456,59.75,-50.5,-54.25,0.0,0.0,0.0,0.0,0.0,0.0,2,0,41.679416948734,-92.0757810651433,10000.008929976646,139.83247090209807,-0.0039511679393157,0.0009583939940085,,9133.40005056179,11009.472056291774,150,8,2025-09-10,2025-09-26 15:49:39.213,AA,C,2544812260,HAWK11,1,1,73,2,1,1,225,2,1,0,0,12,1,225,2,1,-144199.05505545562,-4794748.109346236,4194584.367643833,2.52417,2.52733,-0.582242,-73.125,54.75,60.25,-0.046875,-7.42188,6.29688,0.0507812,0.00390625,0.0117188,4,0,41.35822786171386,-91.72261556243772,11011.39889915049,-44.17246462835128,1.0077526632630656,3.394891597419159,190.015,9133.40005056179,11009.472056291774,150,True,24.9370345254901,False,176.8987255893358,179.39031809905725,False,3.7090775605990887,True,False
8,1970-07-23 09:59:53.803217278,2025-09-10,2025-09-26 15:49:40.321,AA,C,3266260120,JASSM,3,127,76,2,2,1,225,9,2,0,1,26,0,0,0,0,-172825.48327811187,-4769945.739229049,4221048.378386021,-2.51458,-0.703426,0.607456,59.75,-50.5,-54.25,0.0,0.0,0.0,0.0,0.0,0.0,2,0,41.67876113606439,-92.0750427035792,10000.00185020154,139.83296188148773,-0.0030943104075487,0.0009567931304591,,9133.40005056179,11009.472056291774,150,8,2025-09-10,2025-09-26 15:49:40.213,AA,C,2546164326,HAWK11,1,1,73,2,1,1,225,2,1,0,0,12,1,225,2,1,-144282.28552420562,-4794685.286104049,4194652.809050083,2.55801,2.52225,-0.58205,-72.375,55.375,60.375,-0.078125,-7.01562,6.625,0.00976562,0.0078125,0.0117188,4,0,41.35904869529125,-91.72363181220148,11011.298769415382,-43.99017788259808,0.8482790903009098,5.176853859460403,189.294,9133.40005056179,11009.472056291774,150,True,24.818765930702078,False,177.39548596348536,179.37959818932165,False,3.220829519382661,True,False
8,1970-07-23 09:59:53.812394312,2025-09-10,2025-09-26 15:49:41.239,AA,C,3267393916,JASSM,3,127,76,2,2,1,225,9,2,0,1,26,0,0,0,0,-172768.72546561187,-4769993.887666549,4220996.640104771,-2.51458,-0.703426,0.607456,59.75,-50.5,-54.25,0.0,0.0,0.0,0.0,0.0,0.0,2,0,41.67813774202064,-92.07434091152464,10000.001560914036,139.8334285378194,-0.0022798401797531,0.0009552420865802,,9133.40005056179,11009.472056291774,150,8,2025-09-10,2025-09-26 15:49:41.120,AA,C,2547317558,HAWK11,1,1,73,2,1,1,225,2,1,0,0,12,1,225,2,1,-144352.30505545562,-4794632.419893111,4194710.251432896,2.55878,2.50931,-0.592596,-72.0,55.75,60.875,-0.140625,-7.04688,7.0,-0.0234375,-0.00195312,0.0078125,4,0,41.35973840541784,-91.72448678058608,11010.89070749518,-43.1315080413938,0.939094425998391,4.823245574264927,189.893,9133.40005056179,11009.472056291774,150,True,24.713702058959747,False,177.74955757642877,179.37034752721806,False,2.8780400695652184,True,False
8,1970-07-23 09:59:53.823626444,2025-09-10,2025-09-26 15:49:42.362,AA,C,3268526906,JASSM,3,127,76,2,2,1,225,9,2,0,1,26,0,0,0,0,-172712.00818045562,-4770041.997041549,4220944.940886021,-2.51448,-0.70333,0.607456,59.75,-50.5,-54.25,0.0,0.0,0.0,0.0,0.0,0.0,2,0,41.677514831004,-92.07363963614192,9999.998651190892,139.8302435128395,-0.0041116246186324,0.0033109415188482,,9133.40005056179,11009.472056291774,150,8,2025-09-10,2025-09-26 15:49:42.323,AA,C,2548749156,HAWK11,1,1,73,2,1,1,225,2,1,0,0,12,1,225,2,1,-144439.86560233062,-4794565.095674361,4194783.223112583,2.4699,2.50307,-0.592788,-72.125,56.125,61.375,-0.1875,-6.89062,6.89062,-0.0625,-0.00976562,0.00585938,4,0,41.36061580091819,-91.72555639442874,11009.869290055884,-42.892409864527615,0.7661139732278672,-0.4648129737039087,190.944,9133.40005056179,11009.472056291774,150,True,24.593867722404944,False,177.90525593782573,179.3602146075177,False,2.733589938791306,True,False
8,1970-07-23 09:59:53.831203871,2025-09-10,2025-09-26 15:49:43.120,AA,C,3269600648,JASSM,3,127,76,2,2,1,225,9,2,0,1,26,0,0,0,0,-172658.25671561187,-4770087.590791549,4220895.944792271,-2.51448,-0.70333,0.607456,59.75,-50.5,-54.25,0.0,0.0,0.0,0.0,0.0,0.0,2,0,41.676924486365145,-92.07297504380594,9999.999335221068,139.83068542260804,-0.0033403248239466,0.0033094466037831,,9133.40005056179,11009.472056291774,150,8,2025-09-10,2025-09-26 15:49:43.119,AA,C,2549624022,HAWK11,1,1,73,2,1,1,225,2,1,0,0,12,1,225,2,1,-144493.14685233062,-4794523.670869674,4194827.973112583,2.44871,2.50537,-0.590391,-72.5,56.5,61.375,0.0,-6.79688,6.95312,-0.0195312,-0.0078125,-0.0117188,4,0,41.36115475558421,-91.72620744121434,11008.87659088714,-43.0636771362059,0.7261624536754294,-1.607509049800155,191.53,9133.40005056179,11009.472056291774,150,True,24.50417790174086,False,177.8670821408256,179.3540882050593,False,2.7744909247481644,True,False
8,1970-07-23 09:59:53.840198320,2025-09-10,2025-09-26 15:49:44.019,AA,C,3270674390,JASSM,3,127,76,2,2,1,225,9,2,0,1,26,0,0,0,0,-172604.50476248687,-4770133.184541549,4220846.948698521,-2.51448,-0.70333,0.607456,59.75,-50.5,-54.25,0.0,0.0,0.0,0.0,0.0,0.0,2,0,41.67633413792844,-92.07231045775924,10000.00376720751,139.83112732305986,-0.002569022208749,0.0033079550774408,,9133.40005056179,11009.472056291774,150,8,2025-09-10,2025-09-26 15:49:44.119,AA,C,2550896554,HAWK11,1,1,73,2,1,1,225,2,1,0,0,12,1,225,2,1,-144570.56286795562,-4794463.614229049,4194892.725065708,2.45782,2.51602,-0.586556,-73.0,56.625,61.75,-0.140625,-6.96875,7.14062,0.03125,0.0,0.0,4,0,41.3619352339725,-91.72715336376092,11007.183996355418,-43.59866275283787,0.8687220256362166,-0.7546443531253236,192.312,9133.40005056179,11009.472056291774,150,True,24.39490266124706,False,177.78398463014233,179.34538872121666,False,2.868259225377813,True,False
8,1970-07-23 09:59:53.849215064,2025-09-10,2025-09-26 15:49:44.921,AA,C,3271748132,JASSM,3,127,76,2,2,1,225,9,2,0,1,26,0,0,0,0,-172550.75427420562,-4770178.774385299,4220797.952604771,-2.51448,-0.70333,0.607456,59.75,-50.5,-54.25,0.0,0.0,0.0,0.0,0.0,0.0,2,0,41.675743808630365,-92.0716459031256,10000.002554095652,139.8315691974899,-0.0017977464044741,0.0033064673948755,,9133.40005056179,11009.472056291774,150,8,2025-09-10,2025-09-26 15:49:44.823,AA,C,2551731652,HAWK11,1,1,73,2,1,1,225,2,1,0,0,12,1,225,2,1,-144622.16052420562,-4794424.077119674,4194935.499479771,2.49464,2.51515,-0.589912,-73.25,56.625,62.0,-0.125,-7.04688,7.1875,0.0859375,0.00585938,0.015625,4,0,41.36244991671744,-91.72778365565816,11006.437581254184,-43.447382147430055,0.994523200706879,1.3297458158430049,192.813,9133.40005056179,11009.472056291774,150,True,24.306929717106843,False,177.73517359878662,179.3386910514942,False,2.925214430850051,True,False
8,1970-07-23 09:59:53.859215340,2025-09-10,2025-09-26 15:49:45.921,AA,C,3273001264,JASSM,3,127,76,2,2,1,225,9,2,0,1,26,0,0,0,0,-172488.02136404935,-4770231.985322799,4220740.765104771,-2.51448,-0.70333,0.607456,59.75,-50.5,-54.25,0.0,0.0,0.0,0.0,0.0,0.0,2,0,41.67505478444567,-92.0708703068765,10000.004218871474,139.8320848990117,-0.0008975504517944,0.0033047071168133,,9133.40005056179,11009.472056291774,150,8,2025-09-10,2025-09-26 15:49:45.761,AA,C,2552328152,HAWK11,1,1,73,2,1,1,225,2,1,0,0,12,1,225,2,1,-144659.36950858062,-4794395.148408736,4194966.807096958,2.53116,2.51247,-0.59135,-73.375,56.625,62.5,-0.203125,-7.09375,7.29688,0.0644531,-0.0078125,0.00585938,4,0,41.36282666681786,-91.72823833896044,11005.875151277036,-43.29634598211496,0.9803640192054024,3.3395783082812165,193.547,9133.40005056179,11009.472056291774,150,True,24.222626422813345,False,177.77001601616527,179.33382413223393,False,2.896021182071467,True,False
8,1970-07-23 09:59:53.871174617,2025-09-10,2025-09-26 15:49:47.117,AA,C,3274372834,JASSM,3,127,76,2,2,1,225,9,2,0,1,26,0,0,0,0,-172419.36023123687,-4770290.219697799,4220678.175261021,-2.51448,-0.70333,0.607552,59.75,-50.5,-54.25,0.0,0.0,0.0,0.0,0.0,0.0,2,0,41.67430068385239,-92.07002143835878,10000.003818430254,139.8358734960574,-0.0043618613630101,0.0033026860999467,,9133.40005056179,11009.472056291774,150,8,2025-09-10,2025-09-26 15:49:47.213,AA,C,2554594850,HAWK11,1,1,73,2,1,1,225,2,1,0,0,12,1,225,2,1,-144799.22302420562,-4794286.149385299,4195085.076628208,2.5396,2.50048,-0.603238,-72.875,57.625,63.625,-0.09375,-7.1875,7.34375,-0.105469,0.00195312,0.0078125,4,0,41.36424832460229,-91.72994745316696,11004.41113100156,-42.430149568430885,1.1675249097828488,3.453027248065052,194.781,9133.40005056179,11009.472056291774,150,True,24.049105445924347,False,178.42485407015295,179.3191185155614,False,2.2507493562681837,True,False
8,1970-07-23 09:59:53.884795288,2025-09-10,2025-09-26 15:49:48.479,AA,C,3275685186,JASSM,3,127,76,2,2,1,225,9,2,0,1,26,0,0,0,0,-172353.66394217435,-4770345.938447799,4220618.284636021,-2.51448,-0.70333,0.607552,59.75,-50.5,-54.25,0.0,0.0,0.0,0.0,0.0,0.0,2,0,41.673579122788674,-92.06920924366834,9999.999183832257,139.83641351686546,-0.0034191604118685,0.0033009090950012,,9133.40005056179,11009.472056291774,150,8,2025-09-10,2025-09-26 15:49:48.415,AA,C,2555946914,HAWK11,1,1,73,2,1,1,225,2,1,0,0,12,1,225,2,1,-144882.04919608062,-4794221.060518111,4195156.131315708,2.40912,2.5001,-0.604868,-73.375,57.5,64.125,0.046875,-6.95312,7.17188,-0.0351562,0.00585938,0.0,4,0,41.365100283964864,-91.73095987925274,11004.429052948431,-42.35912254260935,1.2311915771330035,-4.03415779422453,195.624,9133.40005056179,11009.472056291774,150,True,23.924359405213202,False,178.24214884289054,179.31054224078542,False,2.432903132940354,True,False
8,1970-07-23 09:59:53.892213557,2025-09-10,2025-09-26 15:49:49.221,AA,C,3276937884,JASSM,3,127,76,2,2,1,225,9,2,0,1,26,0,0,0,0,-172290.95349295562,-4770399.125947799,4220561.116667271,-2.51448,-0.70333,0.607552,59.75,-50.5,-54.25,0.0,0.0,0.0,0.0,0.0,0.0,2,0,41.67289034848655,-92.06843397896635,10000.004265000664,139.83692897610828,-0.0025193024364218,0.0032992117254516,,9133.40005056179,11009.472056291774,150,8,2025-09-10,2025-09-26 15:49:49.323,AA,C,2557020614,HAWK11,1,1,73,2,1,1,225,2,1,0,0,12,1,225,2,1,-144948.52966483062,-4794168.820283736,4195213.311979771,2.40921,2.51093,-0.594801,-74.125,57.375,64.25,-0.015625,-7.125,7.20312,0.0136719,0.0,-0.0117188,4,0,41.36578508649913,-91.73177252144907,11004.779916679508,-43.118910286950765,1.0943855112987508,-3.693679795896823,196.076,9133.40005056179,11009.472056291774,150,True,23.815610817434347,False,177.94843635294765,179.30342991165426,False,2.7362472270678224,True,False
8,1970-07-23 09:59:53.906018682,2025-09-10,2025-09-26 15:49:50.601,AA,C,3278309884,JASSM,3,127,76,2,2,1,225,9,2,0,1,26,0,0,0,0,-172222.27087576812,-4770457.375947799,4220498.499479771,-2.51448,-0.70333,0.607552,59.75,-50.5,-54.25,0.0,0.0,0.0,0.0,0.0,0.0,2,0,41.67213595701844,-92.0675849028536,9999.998340985298,139.83749350318317,-0.0015337353454108,0.0032973414603604,,9133.40005056179,11009.472056291774,150,8,2025-09-10,2025-09-26 15:49:50.323,AA,C,2558253380,HAWK11,1,1,73,2,1,1,225,2,1,0,0,12,1,225,2,1,-145025.87927420562,-4794108.725557174,4195279.624479771,2.44651,2.51563,-0.593842,-74.625,57.125,64.375,-0.15625,-7.15625,7.0625,0.0605469,-0.00976562,0.0,4,0,41.36657629725525,-91.732717799019,11006.414190289484,-43.32856602517273,1.1907085921386518,-1.410316611798626,196.541,9133.40005056179,11009.472056291774,150,True,23.693023673886554,False,177.69555665276272,179.2945669477236,False,2.996331569002638,True,False
8,1970-07-23 09:59:53.914834685,2025-09-10,2025-09-26 15:49:51.483,AA,C,3279562700,JASSM,3,127,76,2,2,1,225,9,2,0,1,26,0,0,0,0,-172159.55456717435,-4770510.563447799,4220441.323698521,-2.51448,-0.703234,0.607552,59.75,-50.5,-54.25,0.0,0.0,0.0,0.0,0.0,0.0,2,0,41.67144712033501,-92.06680960250252,9999.996675164488,139.83435575789028,-0.0032811137427889,0.0001589674274614,,9133.40005056179,11009.472056291774,150,8,2025-09-10,2025-09-26 15:49:51.619,AA,C,2559844044,HAWK11,1,1,73,2,1,1,225,2,1,0,0,12,1,225,2,1,-145125.99255545562,-4794031.877900924,4195364.192839146,2.49349,2.51314,-0.596431,-74.75,57.375,64.25,0.0625,-7.03125,6.65625,0.0175781,0.00390625,0.0117188,4,0,41.36758629407901,-91.73394096453472,11008.10434838594,-43.14454247251741,1.2349202960690884,1.2051593803543914,196.504,9133.40005056179,11009.472056291774,150,True,23.55751758725785,False,177.7333407198963,179.282376410084,False,2.976747639493342,True,False
8,1970-07-23 09:59:53.925174500,2025-09-10,2025-09-26 15:49:52.517,AA,C,3280874938,JASSM,3,127,76,2,2,1,225,9,2,0,1,26,0,0,0,0,-172093.86316092435,-4770566.274385299,4220381.433073521,-2.51448,-0.703234,0.607552,59.75,-50.5,-54.25,0.0,0.0,0.0,0.0,0.0,0.0,2,0,41.67072558187782,-92.06599754149948,9999.995735139762,139.83489565957078,-0.0023384771777972,0.0001571242709072,,9133.40005056179,11009.472056291774,150,8,2025-09-10,2025-09-26 15:49:52.621,AA,C,2560957510,HAWK11,1,1,73,2,1,1,225,2,1,0,0,12,1,225,2,1,-145195.32849295562,-4793978.388643111,4195423.158659458,2.51784,2.50873,-0.601416,-74.375,57.125,64.5,-0.09375,-7.60938,6.57812,0.0195312,0.00195312,0.0117188,4,0,41.36829004282394,-91.73478821660773,11009.484416116053,-42.80423920513748,1.33085314015358,2.465578422373446,196.309,9133.40005056179,11009.472056291774,150,True,23.44434406274919,False,177.78598885526557,179.27368856958685,False,2.9208665818369446,True,False
8,1970-07-23 09:59:53.936175758,2025-09-10,2025-09-26 15:49:53.617,AA,C,3282127854,JASSM,3,127,76,2,2,1,225,9,2,0,1,26,0,0,0,0,-172031.14196951812,-4770619.465791549,4220324.253386021,-2.51448,-0.703234,0.607552,59.75,-50.5,-54.25,0.0,0.0,0.0,0.0,0.0,0.0,2,0,41.67003668575562,-92.065222214737,10000.005251955128,139.83541113120202,-0.0014384796953733,0.0001553795346682,,9133.40005056179,11009.472056291774,150,8,2025-09-10,2025-09-26 15:49:53.619,AA,C,2562230042,HAWK11,1,1,73,2,1,1,225,2,1,0,0,12,1,225,2,1,-145275.07849295562,-4793916.668916549,4195491.421354771,2.51947,2.50164,-0.604388,-73.75,57.25,64.25,-0.390625,-7.5,6.34375,0.00390625,0.0078125,-0.00195312,4,0,41.36910362725258,-91.735762817113,11011.550060396045,-42.43622074665145,1.2593997643012054,2.336784471418682,195.392,9133.40005056179,11009.472056291774,150,True,23.325008848832997,False,178.0288029587522,179.2642042510549,False,2.688825009458707,True,False
8,1970-07-23 09:59:53.947172880,2025-09-10,2025-09-26 15:49:54.717,AA,C,3283499638,JASSM,3,127,76,2,2,1,225,9,2,0,1,26,0,0,0,0,-171962.46960623687,-4770677.700166549,4220261.644011021,-2.51448,-0.703234,0.607648,59.75,-50.5,-54.25,0.0,0.0,0.0,0.0,0.0,0.0,2,0,41.669282413920605,-92.06437334336614,10000.00242120496,139.83919791520563,-0.0048996838512431,0.0001533144043425,,9133.40005056179,11009.472056291774,150,8,2025-09-10,2025-09-26 15:49:54.821,AA,C,2563542340,HAWK11,1,1,73,2,1,1,225,2,1,0,0,12,1,225,2,1,-145356.13318045562,-4793853.328096236,4195561.177214146,2.52302,2.4978,-0.609374,-73.125,57.25,64.125,-0.109375,-7.34375,6.28125,0.0,0.00585938,0.0117188,4,0,41.36993668972409,-91.73675360785111,11012.968901836148,-42.1188582669743,1.3749118249325,2.422024419495502,194.708,9133.40005056179,11009.472056291774,150,True,23.199195299527165,False,178.23118111573757,179.25495714140854,False,2.4906510214803843,True,False
8,1970-07-23 09:59:53.959195450,2025-09-10,2025-09-26 15:49:55.919,AA,C,3284811990,JASSM,3,127,76,2,2,1,225,9,2,0,1,26,0,0,0,0,-171896.77282889312,-4770733.411104049,4220201.745573521,-2.51448,-0.703234,0.607648,59.75,-50.5,-54.25,0.0,0.0,0.0,0.0,0.0,0.0,2,0,41.668560806617904,-92.06356127234994,10000.000955508513,139.83973780067242,-0.0039569765400227,0.0001515278161294,,9133.40005056179,11009.472056291774,150,8,2025-09-10,2025-09-26 15:49:55.821,AA,C,2564814872,HAWK11,1,1,73,2,1,1,225,2,1,0,0,12,1,225,2,1,-145433.21716483062,-4793792.302705611,4195628.523893833,2.52455,2.49186,-0.61225,-72.375,57.25,64.0,-0.296875,-7.45312,6.3125,0.00976562,0.00195312,0.0,4,0,41.37074042356173,-91.73769617039422,11014.573362813457,-41.79792385559728,1.3353710966920205,2.322181743949268,193.828,9133.40005056179,11009.472056291774,150,True,23.078668105560016,False,178.4720505939049,179.2470459530861,False,2.2478183924551343,True,False
8,1970-07-23 09:59:53.969173462,2025-09-10,2025-09-26 15:49:56.917,AA,C,3286064690,JASSM,3,127,76,2,2,1,225,9,2,0,1,26,0,0,0,0,-171834.06189139312,-4770786.590791549,4220144.569792271,-2.51448,-0.703234,0.607648,59.75,-50.5,-54.25,0.0,0.0,0.0,0.0,0.0,0.0,2,0,41.66787198792198,-92.06278612558565,10000.007415627146,139.84025313080303,-0.0030571122426795,0.0001498211960431,,9133.40005056179,11009.472056291774,150,8,2025-09-10,2025-09-26 15:49:56.822,AA,C,2566047638,HAWK11,1,1,73,2,1,1,225,2,1,0,0,12,1,225,2,1,-145508.43200858062,-4793732.382783736,4195694.491667271,2.5234,2.48524,-0.61503,-71.75,57.375,63.875,-0.109375,-7.20312,6.17188,-0.0332031,-0.00390625,0.00976562,4,0,41.37152860210851,-91.7386160354692,11015.775927113144,-41.45569667416649,1.273733544104989,2.0457876735871974,192.936,9133.40005056179,11009.472056291774,150,True,22.962072478319563,False,178.71955967070704,179.23966831428524,False,2.000138447524699,True,False
8,1970-07-23 09:59:53.980173250,2025-09-10,2025-09-26 15:49:58.017,AA,C,3287436694,JASSM,3,127,76,2,2,1,225,9,2,0,1,26,0,0,0,0,-171765.37878592435,-4770844.829072799,4220081.944792271,-2.51439,-0.703234,0.607648,59.75,-50.5,-54.375,0.0,0.0,0.0,0.0,0.0,0.0,2,0,41.66711757172848,-92.06193718055724,9999.996884183469,139.84081751519756,-0.0020715574134175,0.0056394272063483,,9133.40005056179,11009.472056291774,150,8,2025-09-10,2025-09-26 15:49:58.009,AA,C,2567399702,HAWK11,1,1,73,2,1,1,225,2,1,0,0,12,1,225,2,1,-145589.14685233062,-4793667.454072799,4195765.733854771,2.60738,2.47565,-0.617715,-70.875,57.625,63.75,-0.046875,-7.15625,6.01562,0.113281,-0.00390625,0.0195312,4,0,41.37238117894217,-91.73960341668882,11016.507802294658,-41.00652509929376,1.1254978812443177,6.549671757549812,192.117,9133.40005056179,11009.472056291774,150,True,22.835437892478485,False,179.0977846131684,179.25119207384384,False,1.618405293211088,True,False
8,1970-07-23 09:59:53.991075844,2025-09-10,2025-09-26 15:49:59.107,AA,C,3288749488,JASSM,3,127,76,2,2,1,225,9,2,0,1,26,0,0,0,0,-171699.6593035025,-4770900.555635299,4220022.022917271,-2.51439,-0.703234,0.607648,59.75,-50.5,-54.375,0.0,0.0,0.0,0.0,0.0,0.0,2,0,41.66639570084605,-92.06112488488245,9999.997558866808,139.84135752700658,-0.0011285272208309,0.0056376411344627,,9133.40005056179,11009.472056291774,150,8,2025-09-10,2025-09-26 15:49:59.009,AA,C,2568592702,HAWK11,1,1,73,2,1,1,225,2,1,0,0,12,1,225,2,1,-145659.80310233062,-4793609.445283736,4195829.319792271,2.67804,2.46424,-0.620591,-70.0,56.25,65.375,-0.203125,-7.28125,6.1875,0.046875,-0.00195312,0.0136719,4,0,41.37314271773121,-91.74046819772914,11016.92205837795,-40.4825970912305,0.9379843364668126,10.228199501456531,191.103,9133.40005056179,11009.472056291774,150,False,22.719055941604903,False,178.29405490586018,179.24585090490345,False,2.1533321977106876,True,False
8,1970-07-23 09:59:54.002052282,2025-09-10,2025-09-26 15:50:00.205,AA,C,3290061778,JASSM,3,127,76,2,2,1,225,9,2,0,1,26,0,0,0,0,-171633.96545584625,-4770956.258760299,4219962.124479771,-2.51439,-0.703138,0.607648,59.75,-50.5,-54.375,0.0,0.0,0.0,0.0,0.0,0.0,2,0,41.66567411631009,-92.06031292492456,9999.999871978216,139.83824675363851,-0.0028315619380565,0.0025006672100809,,9133.40005056179,11009.472056291774,150,8,2025-09-10,2025-09-26 15:50:00.213,AA,C,2570024300,HAWK11,1,1,73,2,1,1,225,2,1,0,0,12,1,225,2,1,-145742.45153983062,-4793538.225557174,4195905.350065708,2.6466,2.42676,-0.635452,-67.875,59.125,64.25,0.0625,-7.3125,6.15625,-0.136719,-0.00976562,0.0136719,4,0,41.374064667032656,-91.74148100183402,11012.71591988469,-38.57762982079522,0.6006833236439033,7.189944605464056,190.443,9133.40005056179,11009.472056291774,150,True,22.59104461502173,False,178.99892928051838,179.243198523375,False,0.5180659077416064,True,False
8,1970-07-23 09:59:54.011992242,2025-09-10,2025-09-26 15:50:01.199,AA,C,3291135520,JASSM,3,127,76,2,2,1,225,9,2,0,1,26,0,0,0,0,-171580.21325858062,-4771001.836885299,4219913.112761021,-2.51439,-0.703138,0.607648,59.75,-50.5,-54.375,0.0,0.0,0.0,0.0,0.0,0.0,2,0,41.66508368196041,-92.0596485741016,10000.00417877388,139.83868840022902,-0.0020602508504703,0.0024991540752346,,9133.40005056179,11009.472056291774,150,8,2025-09-10,2025-09-26 15:50:01.321,AA,C,2571336598,HAWK11,1,1,73,2,1,1,225,2,1,0,0,12,1,225,2,1,-145817.31286795562,-4793472.372041549,4195976.016081333,2.49722,2.41966,-0.639574,-67.125,59.5,64.0,-0.171875,-7.26562,6.23438,-0.0371094,-0.00585938,-0.00585938,4,0,41.37491988528477,-91.7423988931631,11009.508298515371,-38.17512387760823,0.6048693270386429,-1.6061000601340465,189.893,9133.40005056179,11009.472056291774,150,True,22.479085759622393,False,178.68956331601746,179.24260838563293,False,0.630802754355652,True,False
8,1970-07-23 09:59:54.021094137,2025-09-10,2025-09-26 15:50:02.109,AA,C,3292328592,JASSM,3,127,76,2,2,1,225,9,2,0,1,26,0,0,0,0,-171520.48718436187,-4771052.477510299,4219858.651823521,-2.51439,-0.703138,0.607648,59.75,-50.5,-54.375,0.0,0.0,0.0,0.0,0.0,0.0,2,0,41.6644276265588,-92.0589104045884,10000.001461230742,139.83917911392496,-0.0012032209719637,0.0024974738540264,,9133.40005056179,11009.472056291774,150,8,2025-09-10,2025-09-26 15:50:02.009,AA,C,2572251232,HAWK11,1,1,73,2,1,1,225,2,1,0,0,12,1,225,2,1,-145868.99646170562,-4793427.003877486,4196024.982878208,2.46702,2.43232,-0.632767,-67.25,59.125,64.0,-0.140625,-7.39062,6.34375,-0.0253906,0.00585938,-0.015625,4,0,41.37551095519975,-91.7430325762762,11007.925276728029,-38.87689251769309,0.6271238429393475,-2.913176788428392,189.685,9133.40005056179,11009.472056291774,150,True,22.38232612612312,False,178.81622051799002,179.24157141093167,False,0.5842267788042032,True,False
8,1970-07-23 09:59:54.032056685,2025-09-10,2025-09-26 15:50:03.205,AA,C,3293580870,JASSM,3,127,76,2,2,1,225,9,2,0,1,26,0,0,0,0,-171457.79724295562,-4771105.629854049,4219801.487761021,-2.51439,-0.703138,0.607744,59.75,-50.5,-54.375,0.0,0.0,0.0,0.0,0.0,0.0,2,0,41.663739013756434,-92.05813562057378,9999.999315943787,139.8429188342783,-0.0047528521693535,0.0024955702552216,,9133.40005056179,11009.472056291774,150,8,2025-09-10,2025-09-26 15:50:02.713,AA,C,2573086330,HAWK11,1,1,73,2,1,1,225,2,1,0,0,12,1,225,2,1,-145916.67810233062,-4793385.858369674,4196069.194792271,2.45073,2.44047,-0.627398,-67.5,58.875,63.625,-0.109375,-7.07812,6.28125,0.0,-0.0136719,0.00976562,4,0,41.37604552952187,-91.74361694442788,11006.125497762743,-39.3632624350623,0.5996049402882722,-3.577101746523573,188.781,9133.40005056179,11009.472056291774,150,True,22.287042733291855,False,179.0636338967634,179.23950349949286,False,0.38817653352229037,True,False
8,1970-07-23 09:59:54.041194759,2025-09-10,2025-09-26 15:50:04.119,AA,C,3294714278,JASSM,3,127,76,2,2,1,225,9,2,0,1,26,0,0,0,0,-171401.05798514312,-4771153.735322799,4219749.749479771,-2.51439,-0.703138,0.607744,59.75,-50.5,-54.375,0.0,0.0,0.0,0.0,0.0,0.0,2,0,41.66311576780901,-92.05743439585537,9999.997276087566,139.8433849760729,-0.003938689306114,0.0024940258184449,,9133.40005056179,11009.472056291774,150,8,2025-09-10,2025-09-26 15:50:04.039,AA,C,2574120262,HAWK11,1,1,73,2,1,1,225,2,1,0,0,12,1,225,2,1,-145975.58825858062,-4793334.876924361,4196124.031706333,2.51429,2.43615,-0.633534,-67.875,58.625,63.625,0.015625,-7.1875,6.92188,0.113281,0.0,0.0136719,4,0,41.37670830025894,-91.74433899169316,11004.008481428453,-38.99572527594849,0.7679334900804777,-0.076450231383984,189.697,9133.40005056179,11009.472056291774,150,True,22.187011738976686,False,179.25438239421302,179.23766621869697,False,0.4215368445780176,True,False
8,1970-07-23 09:59:54.051099178,2025-09-10,2025-09-26 15:50:05.109,AA,C,3295907324,JASSM,3,127,76,2,2,1,225,9,2,0,1,26,0,0,0,0,-171341.3331316275,-4771204.372041549,4219695.288542271,-2.51439,-0.703138,0.607744,59.75,-50.5,-54.375,0.0,0.0,0.0,0.0,0.0,0.0,2,0,41.66245972105408,-92.05669628761606,9999.999138402778,139.84387563014857,-0.0030816845523756,0.0024923993195137,,9133.40005056179,11009.472056291774,150,8,2025-09-10,2025-09-26 15:50:05.119,AA,C,2575909760,HAWK11,1,1,73,2,1,1,225,2,1,0,0,12,1,225,2,1,-146077.77185233062,-4793246.094697799,4196219.745573521,2.58399,2.43328,-0.635547,-67.875,59.125,64.625,-0.15625,-6.875,7.07812,0.0195312,0.0,0.0214844,4,0,41.37786402159793,-91.74559159386172,11000.774138876686,-38.82140825076226,0.7852967952668657,3.821764757578324,190.125,9133.40005056179,11009.472056291774,150,True,22.04646320763021,False,178.88089635134608,179.2359674860348,False,0.6774509397083042,True,False
8,1970-07-23 09:59:54.061113533,2025-09-10,2025-09-26 15:50:06.111,AA,C,3297100370,JASSM,3,127,76,2,2,1,225,9,2,0,1,26,0,0,0,0,-171281.60803397125,-4771255.008760299,4219640.827604771,-2.51439,-0.703138,0.607744,59.75,-50.5,-54.375,0.0,0.0,0.0,0.0,0.0,0.0,2,0,41.66180366953696,-92.05595819143274,10000.00565980904,139.8443662698718,-0.0022246783302889,0.0024907744985037,,9133.40005056179,11009.472056291774,150,8,2025-09-10,2025-09-26 15:50:06.213,AA,C,2577222060,HAWK11,1,1,73,2,1,1,225,2,1,0,0,12,1,225,2,1,-146151.96716483062,-4793180.660127486,4196290.294401646,2.60106,2.42264,-0.641971,-67.5,59.875,65.375,-0.03125,-7.0,7.10938,-0.0195312,-0.00390625,0.0214844,4,0,41.37871604590562,-91.74650148714902,10998.32752203692,-38.20967677642176,0.800756826022307,4.44449231585422,191.384,9133.40005056179,11009.472056291774,150,True,21.929743958171287,False,178.41515034029314,179.23544791968308,False,1.0025529381141254,True,False
8,1970-07-23 09:59:54.072094644,2025-09-10,2025-09-26 15:50:07.209,AA,C,3298353068,JASSM,3,127,76,2,2,1,225,9,2,0,1,26,0,0,0,0,-171218.89709647125,-4771308.172822799,4219583.640104771,-2.51439,-0.703138,0.607744,59.75,-50.5,-54.375,0.0,0.0,0.0,0.0,0.0,0.0,2,0,41.66111481339239,-92.0551832134774,9999.998910555682,139.8448814194464,-0.0013248274136736,0.0024890664786869,,9133.40005056179,11009.472056291774,150,8,2025-09-10,2025-09-26 15:50:07.323,AA,C,2578534358,HAWK11,1,1,73,2,1,1,225,2,1,0,0,12,1,225,2,1,-146226.92224295562,-4793114.107393111,4196362.089323521,2.48831,2.42033,-0.646956,-67.5,60.25,66.0,0.203125,-6.82812,7.125,-0.146484,0.00195312,0.00195312,4,0,41.37958298842974,-91.74742088540935,10995.896659878716,-37.95894486356717,0.9737498083763876,-2.0907765987343505,191.848,9133.40005056179,11009.472056291774,150,True,21.80949520135531,False,178.1832629899652,179.2354031806798,False,1.230434709600217,True,False
8,1970-07-23 09:59:54.081072448,2025-09-10,2025-09-26 15:50:08.107,AA,C,3299486464,JASSM,3,127,76,2,2,1,225,9,2,0,1,26,0,0,0,0,-171162.15808279935,-4771356.274385299,4219531.897917271,-2.51439,-0.703138,0.607744,59.75,-50.5,-54.375,0.0,0.0,0.0,0.0,0.0,0.0,2,0,41.660491546186456,-92.05448205030636,9999.996591174346,139.8453474962432,-0.0005106641343556,0.0024875173941646,,9133.40005056179,11009.472056291774,150,8,2025-09-10,2025-09-26 15:50:08.039,AA,C,2578892258,HAWK11,1,1,73,2,1,1,225,2,1,0,0,12,1,225,2,1,-146247.09411795562,-4793096.467744674,4196381.099089146,2.45456,2.42081,-0.647915,-67.75,60.25,65.875,0.125,-6.96875,7.14062,-0.0761719,-0.00976562,0.0,4,0,41.37981258254013,-91.74766821889034,10995.234706293088,-37.94520019275747,1.0315243566720191,-4.007558365197974,192.972,9133.40005056179,11009.472056291774,150,True,21.743051995867145,False,178.31978706360297,179.23396623751088,False,1.0962247884702425,True,False
8,1970-07-23 09:59:54.092063017,2025-09-10,2025-09-26 15:50:09.206,AA,C,3300739278,JASSM,3,127,76,2,2,1,225,9,2,0,1,26,0,0,0,0,-171099.44104178375,-4771409.446260299,4219474.702604771,-2.51439,-0.703043,0.607744,59.75,-50.5,-54.375,0.0,0.0,0.0,0.0,0.0,0.0,2,0,41.659802582009895,-92.05370702725595,10000.00123464863,139.8422102271518,-0.002258059663077,-0.0006518240480609,,9133.40005056179,11009.472056291774,150,8,2025-09-10,2025-09-26 15:50:09.006,AA,C,2580562456,HAWK11,1,1,73,2,1,1,225,2,1,0,0,12,1,225,2,1,-146342.84802420562,-4793012.008760299,4196472.739714146,2.45264,2.44258,-0.634013,-68.875,60.125,66.0,-0.203125,-6.9375,6.98438,0.0332031,0.0,0.0,4,0,41.38091622356328,-91.7488425750179,10993.358559188962,-39.22260297531324,0.969761115547623,-3.3940381750670854,193.253,9133.40005056179,11009.472056291774,150,True,21.60456621657898,False,178.73229686132413,179.23384349097844,False,0.8305663170979118,True,False
8,1970-07-23 09:59:54.102061875,2025-09-10,2025-09-26 15:50:10.206,AA,C,3301932208,JASSM,3,127,76,2,2,1,225,9,2,0,1,26,0,0,0,0,-171039.7218035025,-4771460.071260299,4219420.241667271,-2.51439,-0.703043,0.607744,59.75,-50.5,-54.375,0.0,0.0,0.0,0.0,0.0,0.0,2,0,41.6591465797953,-92.05296906706276,9999.998521441275,139.8427007508879,-0.0014011420165583,-0.000653502245762,,9133.40005056179,11009.472056291774,150,8,2025-09-10,2025-09-26 15:50:10.116,AA,C,2581874754,HAWK11,1,1,73,2,1,1,225,2,1,0,0,12,1,225,2,1,-146419.58044608062,-4792945.078096236,4196545.458464146,2.53462,2.44334,-0.637944,-69.375,60.0,66.5,-0.109375,-7.09375,7.29688,0.0820312,0.0,0.0136719,4,0,41.381791310000224,-91.74978340062532,10992.154929395712,-39.1190960560016,1.173701318429757,1.330662771715217,193.938,9133.40005056179,11009.472056291774,150,True,21.485900560395805,False,178.74076071071977,179.23257686534424,False,0.9717373569144324,True,False
8,1970-07-23 09:59:54.111062760,2025-09-10,2025-09-26 15:50:11.106,AA,C,3303065602,JASSM,3,127,76,2,2,1,225,9,2,0,1,26,0,0,0,0,-170982.98278983062,-4771508.168916549,4219368.499479771,-2.51439,-0.703043,0.60784,59.75,-50.5,-54.375,0.0,0.0,0.0,0.0,0.0,0.0,2,0,41.658523322221065,-92.05226794826916,9999.999973167884,139.84638969377812,-0.0050332421256705,-0.0006552472800787,,9133.40005056179,11009.472056291774,150,8,2025-09-10,2025-09-26 15:50:11.116,AA,C,2583027986,HAWK11,1,1,73,2,1,1,225,2,1,0,0,12,1,225,2,1,-146486.36950858062,-4792887.192354049,4196608.786589146,2.58581,2.44143,-0.643409,-69.25,60.125,67.0,-0.390625,-7.01562,7.10938,0.015625,0.00390625,0.00390625,4,0,41.382551002038696,-91.75060219442184,10992.09920980344,-38.86399933035911,1.3758688211325512,4.204023249353012,195.099,9133.40005056179,11009.472056291774,150,True,21.378618700455906,False,178.5146611983105,179.2309924087966,False,1.164791075432623,True,False
8,1970-07-23 09:59:54.122077664,2025-09-10,2025-09-26 15:50:12.207,AA,C,3304318300,JASSM,3,127,76,2,2,1,225,9,2,0,1,26,0,0,0,0,-170920.27160819,-4771561.329072799,4219311.308073521,-2.51439,-0.703043,0.60784,59.75,-50.5,-54.375,0.0,0.0,0.0,0.0,0.0,0.0,2,0,41.65783443794309,-92.051493047718,9999.99968811839,139.84690475883872,-0.0041333879193806,-0.000656963322358,,9133.40005056179,11009.472056291774,150,8,2025-09-10,2025-09-26 15:50:12.318,AA,C,2584578884,HAWK11,1,1,73,2,1,1,225,2,1,0,0,12,1,225,2,1,-146576.85583670562,-4792808.115205611,4196695.427214146,2.56808,2.43299,-0.650216,-69.0,60.5,67.875,0.125,-7.34375,7.34375,-0.00195312,0.0,0.015625,4,0,41.38358980634449,-91.7517117714253,10992.255342493669,-38.32338071097993,1.4668440706808177,2.909895957941257,195.979,9133.40005056179,11009.472056291774,150,True,21.244986744199235,False,178.11281533652595,179.23006416871647,False,1.5024112678942545,True,False
8,1970-07-23 09:59:54.131063216,2025-09-10,2025-09-26 15:50:13.106,AA,C,3305451696,JASSM,3,127,76,2,2,1,225,9,2,0,1,26,0,0,0,0,-170863.53259451812,-4771609.426729049,4219259.561979771,-2.51429,-0.703043,0.60784,59.75,-50.5,-54.375,0.0,0.0,0.0,0.0,0.0,0.0,2,0,41.657211144959305,-92.05079195738682,10000.00151445485,139.84737075730493,-0.00331922276895,0.0048329506139277,,9133.40005056179,11009.472056291774,150,8,2025-09-10,2025-09-26 15:50:13.036,AA,C,2584936784,HAWK11,1,1,73,2,1,1,225,2,1,0,0,12,1,225,2,1,-146598.03943045562,-4792789.401338424,4196716.140104771,2.54123,2.43213,-0.650504,-69.0,60.75,67.875,-0.078125,-7.125,7.07812,-0.125,0.00195312,-0.00195312,4,0,41.38383709497905,-91.75197161115048,10992.73014715332,-38.28197923130265,1.4575432902039955,1.3429335059429457,196.431,9133.40005056179,11009.472056291774,150,True,21.17736392740265,False,178.1109613491156,179.22896312171082,False,1.4639004223584595,True,False
8,1970-07-23 09:59:54.141985928,2025-09-10,2025-09-26 15:50:14.198,AA,C,3306585090,JASSM,3,127,76,2,2,1,225,9,2,0,1,26,0,0,0,0,-170806.79358084625,-4771657.520479049,4219207.815886021,-2.51429,-0.703043,0.60784,59.75,-50.5,-54.375,0.0,0.0,0.0,0.0,0.0,0.0,2,0,41.65658787098214,-92.05009088225194,9999.99799601705,139.84783673994963,-0.0025050761856109,0.0048314065316736,,9133.40005056179,11009.472056291774,150,8,2025-09-10,2025-09-26 15:50:14.210,AA,C,2586527450,HAWK11,1,1,73,2,1,1,225,2,1,0,0,12,1,225,2,1,-146689.84021170562,-4792708.562471236,4196805.786589146,2.47172,2.43951,-0.647532,-69.25,60.375,68.25,-0.03125,-7.35938,6.89062,0.0292969,0.0,-0.0078125,4,0,41.38490641878164,-91.75309757505929,10995.18440850169,-38.65570644726919,1.5183261943052924,-2.393636542341286,196.614,9133.40005056179,11009.472056291774,150,True,21.04698090324277,False,178.05751326661175,179.22924818261717,False,1.6235184845009694,True,False
8,1970-07-23 09:59:54.151181895,2025-09-10,2025-09-26 15:50:15.118,AA,C,3307718484,JASSM,3,127,76,2,2,1,225,9,2,0,1,26,0,0,0,0,-170750.05456717435,-4771705.618135299,4219156.065886021,-2.51429,-0.703043,0.60784,59.75,-50.5,-54.375,0.0,0.0,0.0,0.0,0.0,0.0,2,0,41.65596454304618,-92.04938981895886,9999.99975278848,139.84830270900449,-0.0016908907833411,0.004829831389281,,9133.40005056179,11009.472056291774,150,8,2025-09-10,2025-09-26 15:50:15.116,AA,C,2587799982,HAWK11,1,1,73,2,1,1,225,2,1,0,0,12,1,225,2,1,-146764.56091483062,-4792643.390596236,4196878.503386021,2.4884,2.44708,-0.646765,-69.375,59.875,68.25,-0.03125,-7.375,6.64062,0.0175781,-0.0117188,0.00585938,4,0,41.38577136384183,-91.7540138446436,10998.188871301689,-38.962022909955664,1.6879900984187206,-1.184749762086176,196.272,9133.40005056179,11009.472056291774,150,True,20.932038648140235,False,178.06312255828325,179.2284971350254,False,1.716726457508272,True,False
8,1970-07-23 09:59:54.160789523,2025-09-10,2025-09-26 15:50:16.078,AA,C,3308911530,JASSM,3,127,76,2,2,1,225,9,2,0,1,26,0,0,0,0,-170690.3292253775,-4771756.243135299,4219101.597136021,-2.51429,-0.703043,0.60784,59.75,-50.5,-54.375,0.0,0.0,0.0,0.0,0.0,0.0,2,0,41.655308461453984,-92.04865187319616,10000.006846909251,139.8487931861979,-0.0008338980569029,0.0048282100005199,,9133.40005056179,11009.472056291774,150,8,2025-09-10,2025-09-26 15:50:16.006,AA,C,2588913446,HAWK11,1,1,73,2,1,1,225,2,1,0,0,12,1,225,2,1,-146828.67810233062,-4792587.558564986,4196940.849089146,2.52196,2.44143,-0.646669,-69.125,59.75,67.875,-0.21875,-7.4375,6.32812,0.0371094,0.0,0.0,4,0,41.38651266533157,-91.75480007333898,11000.88534337588,-38.75683051839612,1.5319340204143006,0.5483299172664581,195.673,9133.40005056179,11009.472056291774,150,True,20.823965174803448,False,178.12143668755473,179.2274034619256,False,1.645787578971843,True,False
8,1970-07-23 09:59:54.169083374,2025-09-10,2025-09-26 15:50:16.908,AA,C,3309985272,JASSM,3,127,76,2,2,1,225,9,2,0,1,26,0,0,0,0,-170636.57629569,-4771801.801729049,4219052.569792271,-2.51429,-0.703043,0.60784,59.75,-50.5,-54.375,0.0,0.0,0.0,0.0,0.0,0.0,2,0,41.654717970510696,-92.04798773502722,9999.99572828012,139.84923460160118,-6.25943823994492e-05,0.0048267419685505,,9133.40005056179,11009.472056291774,150,8,2025-09-10,2025-09-26 15:50:16.912,AA,C,2589947380,HAWK11,1,1,73,2,1,1,225,2,1,0,0,12,1,225,2,1,-146889.21325858062,-4792534.677705611,4196999.987761021,2.54996,2.44363,-0.64293,-68.75,59.75,67.875,0.0625,-7.25,6.17188,0.0175781,0.00195312,-0.00585938,4,0,41.38721541015422,-91.75554245554495,11003.621848175,-38.96517610065028,1.4191776671458842,2.222923823864848,195.514,9133.40005056179,11009.472056291774,150,True,20.724058566752586,False,178.00284304984328,179.22665781084947,False,1.7214951659191728,True,False
8,1970-07-23 09:59:54.179061676,2025-09-10,2025-09-26 15:50:17.906,AA,C,3311118906,JASSM,3,127,76,2,2,1,225,9,2,0,1,26,0,0,0,0,-170579.82507498687,-4771849.903291549,4219000.808073521,-2.51429,-0.703043,0.60784,59.75,-50.5,-54.375,0.0,0.0,0.0,0.0,0.0,0.0,2,0,41.65409453000737,-92.04728656423131,9999.993105369502,139.8497006249439,0.0007517386968758,0.0048251871259633,,9133.40005056179,11009.472056291774,150,8,2025-09-10,2025-09-26 15:50:18.116,AA,C,2591378978,HAWK11,1,1,73,2,1,1,225,2,1,0,0,12,1,225,2,1,-146971.46521170562,-4792462.590791549,4197080.376432896,2.54497,2.43913,-0.646956,-68.0,59.5,67.625,-0.046875,-7.57812,6.57812,-0.00390625,-0.00195312,0.00976562,4,0,41.38817188402993,-91.75655127649752,11006.843743422938,-38.6631647907204,1.485525020143199,1.789726618475147,194.329,9133.40005056179,11009.472056291774,150,True,20.602227547001302,False,177.83700627745407,179.22632836506477,False,1.842940573756117,True,False
8,1970-07-23 09:59:54.189062614,2025-09-10,2025-09-26 15:50:18.906,AA,C,3312312142,JASSM,3,127,76,2,2,1,225,9,2,0,1,26,0,0,0,0,-170520.09021170562,-4771900.536104049,4218946.327604771,-2.51429,-0.702947,0.607936,59.75,-50.5,-54.375,0.0,0.0,0.0,0.0,0.0,0.0,2,0,41.65343831123795,-92.04654854363208,10000.00629239342,139.84976651983183,-0.0054856875404511,0.001687195886741,,9133.40005056179,11009.472056291774,150,8,2025-09-10,2025-09-26 15:50:19.007,AA,C,2592532210,HAWK11,1,1,73,2,1,1,225,2,1,0,0,12,1,225,2,1,-147036.69372733062,-4792405.100557174,4197144.817839146,2.47824,2.43385,-0.646477,-67.75,59.375,67.375,-0.0625,-7.35938,6.32812,-0.0507812,-0.00195312,-0.00390625,4,0,41.38893697555239,-91.75735144397996,11010.108956177965,-38.4843972090756,1.3229169281493445,-2.211170925536352,193.718,9133.40005056179,11009.472056291774,150,True,20.49264224370958,False,177.8412324584997,179.2261090666728,False,1.828963270886969,True,False
8,1970-07-23 09:59:54.198065504,2025-09-10,2025-09-26 15:50:19.806,AA,C,3313385884,JASSM,3,127,76,2,2,1,225,9,2,0,1,26,0,0,0,0,-170466.33728201812,-4771946.094697799,4218897.296354771,-2.51429,-0.702947,0.607936,59.75,-50.5,-54.375,0.0,0.0,0.0,0.0,0.0,0.0,2,0,41.65284778168319,-92.04588444388308,9999.99866336714,139.85020789362457,-0.0047143635478827,0.0016857051314865,,9133.40005056179,11009.472056291774,150,8,2025-09-10,2025-09-26 15:50:19.912,AA,C,2593526376,HAWK11,1,1,73,2,1,1,225,2,1,0,0,12,1,225,2,1,-147093.83044608062,-4792354.982393111,4197200.921354771,2.46405,2.43788,-0.640821,-67.75,59.125,66.875,-0.1875,-7.34375,5.9375,0.0214844,-0.00976562,-0.00585938,4,0,41.38960340079951,-91.75805227537644,11012.81944522568,-38.824369296405166,1.169220579774495,-2.893089420054728,193.058,9133.40005056179,11009.472056291774,150,True,20.395598712228924,False,178.02058744426816,179.22552386943977,False,1.6760838588796176,True,False
8,1970-07-23 09:59:54.209063055,2025-09-10,2025-09-26 15:50:20.906,AA,C,3314697804,JASSM,3,127,76,2,2,1,225,9,2,0,1,26,0,0,0,0,-170400.66076834625,-4772001.758760299,4218837.394011021,-2.51429,-0.702947,0.607936,59.75,-50.5,-54.375,0.0,0.0,0.0,0.0,0.0,0.0,2,0,41.65212629136146,-92.04507304882932,10000.004591318017,139.85074715581194,-0.0037719711547224,0.0016839074074409,,9133.40005056179,11009.472056291774,150,8,2025-09-10,2025-09-26 15:50:20.507,AA,C,2594242174,HAWK11,1,1,73,2,1,1,225,2,1,0,0,12,1,225,2,1,-147134.65661795562,-4792319.442354049,4197240.595182896,2.47048,2.44555,-0.637177,-67.875,59.0,66.5,-0.296875,-7.42188,6.1875,0.0175781,-0.0078125,-0.00390625,4,0,41.39007517383872,-91.75855295300016,11014.527792330651,-39.23282426745404,1.208673172771631,-2.271436808410856,192.435,9133.40005056179,11009.472056291774,150,True,20.30302968744387,False,178.200628290633,179.2238994119864,False,1.5238199307733526,True,False
8,1970-07-23 09:59:54.219079472,2025-09-10,2025-09-26 15:50:21.907,AA,C,3315950504,JASSM,3,127,76,2,2,1,225,9,2,0,1,26,0,0,0,0,-170337.94885428375,-4772054.907197799,4218780.190886021,-2.51429,-0.702947,0.607936,59.75,-50.5,-54.375,0.0,0.0,0.0,0.0,0.0,0.0,2,0,41.65143734922373,-92.04429829785325,9999.997897992902,139.85126205678506,-0.0028721075791661,0.0016821810190958,,9133.40005056179,11009.472056291774,150,8,2025-09-10,2025-09-26 15:50:21.355,AA,C,2594639840,HAWK11,1,1,73,2,1,1,225,2,1,0,0,12,1,225,2,1,-147156.84997733062,-4792300.054658736,4197262.173307896,2.47115,2.44967,-0.634397,-67.75,59.125,66.125,-0.0625,-7.375,6.21875,0.0117188,0.0,-0.0136719,4,0,41.390332111032826,-91.75882515236222,11015.314626304316,-39.48051787970246,1.1929046429051495,-2.097915449888456,191.775,9133.40005056179,11009.472056291774,150,True,20.229470424696178,False,178.30282705911958,179.22226406138716,False,1.3700111450945043,True,False
8,1970-07-23 09:59:54.230125455,2025-09-10,2025-09-26 15:50:23.012,AA,C,3317203570,JASSM,3,127,76,2,2,1,225,9,2,0,1,26,0,0,0,0,-170275.21862967435,-4772108.071260299,4218722.972136021,-2.51429,-0.702947,0.607936,59.75,-50.5,-54.375,0.0,0.0,0.0,0.0,0.0,0.0,2,0,41.65074820722688,-92.0435233371373,9999.9989755191,139.85177709016062,-0.0019719861803466,0.0016804583806063,,9133.40005056179,11009.472056291774,150,8,2025-09-10,2025-09-26 15:50:22.817,AA,C,2597105372,HAWK11,1,1,73,2,1,1,225,2,1,0,0,12,1,225,2,1,-147297.18005545562,-4792178.750947799,4197397.380339146,2.52292,2.44862,-0.634013,-67.5,58.5,65.375,-0.15625,-7.28125,6.21875,0.0078125,-0.0078125,0.0,4,0,41.39194075436551,-91.76054586393082,11020.794878552177,-39.45543212234482,1.1484457180295298,0.8331034859754557,190.724,9133.40005056179,11009.472056291774,150,True,20.05200196169172,False,178.4859039672958,179.22028739668494,False,1.260385897694381,True,False
8,1970-07-23 09:59:54.241129202,2025-09-10,2025-09-26 15:50:24.112,AA,C,3318575208,JASSM,3,127,76,2,2,1,225,9,2,0,1,26,0,0,0,0,-170206.55236990875,-4772166.262666549,4218660.339323521,-2.51429,-0.702947,0.607936,59.75,-50.5,-54.375,0.0,0.0,0.0,0.0,0.0,0.0,2,0,41.64999387064199,-92.04267506386466,9999.998529911178,139.85234083852393,-0.0009867067458718,0.0016785870796351,,9133.40005056179,11009.472056291774,150,8,2025-09-10,2025-09-26 15:50:24.006,AA,C,2598497204,HAWK11,1,1,73,2,1,1,225,2,1,0,0,12,1,225,2,1,-147376.18396170562,-4792109.965791549,4197473.790495396,2.5304,2.44239,-0.637177,-67.0,58.125,65.5,-0.015625,-7.34375,6.35938,0.0078125,-0.00585938,0.00195312,4,0,41.39285127869912,-91.76151481888076,11023.309790995729,-39.11707386336498,1.1263234673966058,1.0563076230352948,189.783,9133.40005056179,11009.472056291774,150,True,19.92319282410151,False,178.2506288567982,179.218679977908,False,1.5033219545756926,True,False
8,1970-07-23 09:59:54.252103591,2025-09-10,2025-09-26 15:50:25.210,AA,C,3319887556,JASSM,3,127,76,2,2,1,225,9,2,0,1,26,0,0,0,0,-170140.85412772125,-4772221.942354049,4218600.409636021,-2.51429,-0.702947,0.607936,59.75,-50.5,-54.375,0.0,0.0,0.0,0.0,0.0,0.0,2,0,41.649272084678245,-92.04186347321269,10000.00360911183,139.85288020038354,-4.397674748538475e-05,0.0016767660738169,,9133.40005056179,11009.472056291774,150,8,2025-09-10,2025-09-26 15:50:24.818,AA,C,2599372070,HAWK11,1,1,73,2,1,1,225,2,1,0,0,12,1,225,2,1,-147425.54919608062,-4792067.205049361,4197521.263151646,2.50499,2.43922,-0.63641,-66.75,58.25,65.125,0.0625,-7.26562,6.32812,-0.0644531,0.00585938,0.0,4,0,41.39341707121236,-91.7621201990102,11024.835417051496,-39.02542569466371,1.005794078641857,-0.5054635950308856,189.074,9133.40005056179,11009.472056291774,150,True,19.823262256325787,False,178.31184807170422,179.21665849462624,False,1.3728979048870669,True,False
8,1970-07-23 09:59:54.263626967,2025-09-10,2025-09-26 15:50:26.362,AA,C,3321199908,JASSM,3,127,76,2,2,1,225,9,2,0,1,26,0,0,0,0,-170075.15564139312,-4772277.618135299,4218540.479948521,-2.51429,-0.702947,0.608032,59.75,-50.5,-54.375,0.0,0.0,0.0,0.0,0.0,0.0,2,0,41.648550316292805,-92.04105189942096,10000.004760438012,139.85664270227244,-0.0035473309862552,0.0016748863413982,,9133.40005056179,11009.472056291774,150,8,2025-09-10,2025-09-26 15:50:26.710,AA,C,2601718300,HAWK11,1,1,73,2,1,1,225,2,1,0,0,12,1,225,2,1,-147556.51599295562,-4791952.779268111,4197647.095182896,2.50691,2.44411,-0.630179,-66.875,58.375,64.625,-0.484375,-6.90625,6.82812,0.0273438,-0.00585938,0.00195312,4,0,41.39492317819062,-91.76372669389,11026.23964414246,-39.41923759714091,0.8519289738166215,-0.2361857582808845,188.952,9133.40005056179,11009.472056291774,150,True,19.651243309593138,False,178.54160338993856,179.21559367467893,False,1.1133497054329913,True,False
8,1970-07-23 09:59:54.274101645,2025-09-10,2025-09-26 15:50:27.410,AA,C,3322452608,JASSM,3,127,76,2,2,1,225,9,2,0,1,26,0,0,0,0,-170012.44348319,-4772330.758760299,4218483.272917271,-2.51429,-0.702851,0.608032,59.75,-50.5,-54.375,0.0,0.0,0.0,0.0,0.0,0.0,2,0,41.647861367102514,-92.04027723454276,9999.997173104308,139.85350609659952,-0.0052947131002085,-0.001465494230698,,9133.40005056179,11009.472056291774,150,8,2025-09-10,2025-09-26 15:50:27.506,AA,C,2602593166,HAWK11,1,1,73,2,1,1,225,2,1,0,0,12,1,225,2,1,-147605.89685233062,-4791909.708955611,4197694.167448521,2.52091,2.43989,-0.629891,-67.125,58.875,64.625,-0.140625,-6.67188,6.84375,0.0195312,0.0,0.00976562,4,0,41.39548809407894,-91.76433241273251,11026.14855051603,-39.27144066518034,0.7243743730324518,0.4254396492893548,189.661,9133.40005056179,11009.472056291774,150,True,19.553910937901303,False,178.6093453840833,179.21381237868783,False,0.9601651051236824,True,False
8,1970-07-23 09:59:54.288046481,2025-09-10,2025-09-26 15:50:28.804,AA,C,3323824610,JASSM,3,127,76,2,2,1,225,9,2,0,1,26,0,0,0,0,-169943.7589128775,-4772388.961885299,4218420.616667271,-2.51419,-0.702851,0.608032,59.75,-50.5,-54.375,0.0,0.0,0.0,0.0,0.0,0.0,2,0,41.647106782432914,-92.03942881245108,9999.996417345792,139.8540699120322,-0.0043091539614925,0.004037743440045,,9133.40005056179,11009.472056291774,150,8,2025-09-10,2025-09-26 15:50:29.210,AA,C,2604501964,HAWK11,1,1,73,2,1,1,225,2,1,0,0,12,1,225,2,1,-147714.02380545562,-4791815.252900924,4197797.214323521,2.52474,2.4443,-0.629412,-67.375,58.375,66.0,-0.03125,-6.6875,7.0,-0.00976562,0.0,-0.00195312,4,0,41.39672575787496,-91.76565881767206,11025.544780353735,-39.45359988669742,0.8239822013810031,0.7915014969127776,191.237,9133.40005056179,11009.472056291774,150,True,19.399741439673253,False,178.19387514401572,179.21219755797816,False,1.589631468550792,True,False
8,1970-07-23 09:59:54.300392814,2025-09-10,2025-09-26 15:50:30.039,AA,C,3325077310,JASSM,3,127,76,2,2,1,225,9,2,0,1,26,0,0,0,0,-169881.04651053375,-4772442.102510299,4218363.409636021,-2.51419,-0.702851,0.608032,59.75,-50.5,-54.375,0.0,0.0,0.0,0.0,0.0,0.0,2,0,41.64641782218276,-92.03865417922864,9999.999620692222,139.85458468405233,-0.0034093040916644,0.0040360247769262,,9133.40005056179,11009.472056291774,150,8,2025-09-10,2025-09-26 15:50:30.116,AA,C,2605774496,HAWK11,1,1,73,2,1,1,225,2,1,0,0,12,1,225,2,1,-147786.27575858062,-4791751.763643111,4197865.819792271,2.51621,2.44239,-0.632192,-67.625,59.5,65.5,0.046875,-6.90625,7.0625,-0.0351562,-0.00195312,0.00976562,4,0,41.39755328815316,-91.76654530542716,11023.687716526438,-39.28862263924135,0.9014764656798234,0.2402994782402423,192.288,9133.40005056179,11009.472056291774,150,True,19.282240723093253,False,178.46486244962563,179.2109008022647,False,1.0990739847164896,True,False
8,1970-07-23 09:59:54.307060478,2025-09-10,2025-09-26 15:50:30.706,AA,C,3326449314,JASSM,3,127,76,2,2,1,225,9,2,0,1,26,0,0,0,0,-169812.36169608062,-4772500.305635299,4218300.749479771,-2.51419,-0.702851,0.608032,59.75,-50.5,-54.375,0.0,0.0,0.0,0.0,0.0,0.0,2,0,41.64566319912731,-92.03780579208632,10000.002169097032,139.85514846022537,-0.002423723254329,0.004034114675843,,9133.40005056179,11009.472056291774,150,8,2025-09-10,2025-09-26 15:50:30.507,AA,C,2606251696,HAWK11,1,1,73,2,1,1,225,2,1,0,0,12,1,225,2,1,-147813.61364920562,-4791727.760713424,4197891.811979771,2.50576,2.44517,-0.633534,-67.75,59.625,65.5,-0.09375,-6.82812,7.03125,0.00390625,0.00390625,-0.0078125,4,0,41.397866512122846,-91.76688072355203,11023.10852306935,-39.347277614890025,1.0397144492864223,-0.2652406424685958,192.642,9133.40005056179,11009.472056291774,150,True,19.19913290775542,False,178.5031477057031,179.20893437988462,False,1.0473727628029772,True,False
8,1970-07-23 09:59:54.319059575,2025-09-10,2025-09-26 15:50:31.905,AA,C,3327821316,JASSM,3,127,76,2,2,1,225,9,2,0,1,26,0,0,0,0,-169743.6768816275,-4772558.504854049,4218238.089323521,-2.51419,-0.702851,0.608032,59.75,-50.5,-54.375,0.0,0.0,0.0,0.0,0.0,0.0,2,0,41.64490859305673,-92.03695742640868,10000.001336965785,139.85571221375167,-0.0014381609359402,0.0040322186375606,,9133.40005056179,11009.472056291774,150,8,2025-09-10,2025-09-26 15:50:32.116,AA,C,2608120726,HAWK11,1,1,73,2,1,1,225,2,1,0,0,12,1,225,2,1,-147920.42028983062,-4791633.715791549,4197994.352995396,2.51985,2.45715,-0.633918,-68.125,59.75,66.25,-0.046875,-7.10938,7.26562,0.03125,0.0,-0.00195312,4,0,41.39909852833008,-91.76819130127784,11022.349175890706,-39.78078428706132,1.3870585068555583,0.9396821361519888,193.718,9133.40005056179,11009.472056291774,150,True,19.04567164165853,False,178.38560294274498,179.2081920311678,False,1.2421524063580127,True,False
8,1970-07-23 09:59:54.329062256,2025-09-10,2025-09-26 15:50:32.906,AA,C,3329074260,JASSM,3,127,76,2,2,1,225,9,2,0,1,26,0,0,0,0,-169680.9522722525,-4772611.651338424,4218180.866667271,-2.51419,-0.702851,0.608032,59.75,-50.5,-54.375,0.0,0.0,0.0,0.0,0.0,0.0,2,0,41.64421947838756,-92.03618269698488,10000.000232819892,139.85622702740324,-0.0005381338943558,0.0040304962635055,,9133.40005056179,11009.472056291774,150,8,2025-09-10,2025-09-26 15:50:32.802,AA,C,2608955826,HAWK11,1,1,73,2,1,1,225,2,1,0,0,12,1,225,2,1,-147968.40271170562,-4791591.849580611,4198040.433073521,2.59511,2.45427,-0.638807,-68.0,59.875,66.625,-0.015625,-6.96875,7.125,0.105469,0.0,0.00195312,4,0,41.39964981704288,-91.76877994748868,11022.985779635865,-39.5078565529443,1.5340441443143338,5.160831627974539,194.573,9133.40005056179,11009.472056291774,150,True,18.949442448529936,False,178.20425666366614,179.2063681696717,False,1.4091493306823233,True,False
8,1970-07-23 09:59:54.341181328,2025-09-10,2025-09-26 15:50:34.118,AA,C,3330386358,JASSM,3,127,76,2,2,1,225,9,2,0,1,26,0,0,0,0,-169615.26611502594,-4772667.307588424,4218120.940886021,-2.51419,-0.702851,0.608128,59.75,-50.5,-54.375,0.0,0.0,0.0,0.0,0.0,0.0,2,0,41.643497809641445,-92.03537140614966,10000.002763979344,139.8599915369496,-0.0040442574260373,0.0040285825967506,,9133.40005056179,11009.472056291774,150,8,2025-09-10,2025-09-26 15:50:34.209,AA,C,2610626024,HAWK11,1,1,73,2,1,1,225,2,1,0,0,12,1,225,2,1,-148063.28357108062,-4791506.940400924,4198133.864714146,2.66913,2.43797,-0.648586,-67.0,60.75,67.875,-0.40625,-7.01562,7.14062,-0.0136719,-0.00195312,0.0117188,4,0,41.40076816742953,-91.76994475438156,11024.050279374404,-38.57461188185411,1.54636811319317,8.866176077867728,195.221,9133.40005056179,11009.472056291774,150,True,18.80797370538378,False,177.3600496079828,179.20751184496999,False,2.1373500833510195,True,False
8,1970-07-23 09:59:54.351103063,2025-09-10,2025-09-26 15:50:35.110,AA,C,3331639064,JASSM,3,127,76,2,2,1,225,9,2,0,1,26,0,0,0,0,-169552.55334647125,-4772720.442354049,4218063.726042271,-2.51419,-0.702851,0.608128,59.75,-50.5,-54.375,0.0,0.0,0.0,0.0,0.0,0.0,2,0,41.64280880417384,-92.03459685748328,10000.001576992188,139.86050621631065,-0.0031443926484694,0.0040269042655371,,9133.40005056179,11009.472056291774,150,8,2025-09-10,2025-09-26 15:50:35.207,AA,C,2611858790,HAWK11,1,1,73,2,1,1,225,2,1,0,0,12,1,225,2,1,-148132.09216483062,-4791443.889619674,4198203.513151646,2.64506,2.41794,-0.656256,-66.125,61.375,68.875,-0.1875,-6.98438,7.0,-0.0488281,0.00195312,0.0078125,4,0,41.40160072976498,-91.770790053773,11025.307803932892,-37.57727279965658,1.3736494709637903,6.815762650100817,195.795,9133.40005056179,11009.472056291774,150,True,18.69140299788613,False,176.65776805523703,179.20986829323317,False,2.804482638992007,True,False
8,1970-07-23 09:59:54.362380016,2025-09-10,2025-09-26 15:50:36.238,AA,C,3332891764,JASSM,3,127,76,2,2,1,225,9,2,0,1,26,0,0,0,0,-169489.8408220572,-4772773.577119674,4218006.511198521,-2.51419,-0.702755,0.608128,59.75,-50.5,-54.375,0.0,0.0,0.0,0.0,0.0,0.0,2,0,41.64211979335281,-92.03382232824607,10000.00557165728,139.85737212100233,-0.0048901385187948,0.0008879993209707,,9133.40005056179,11009.472056291774,150,8,2025-09-10,2025-09-26 15:50:36.301,AA,C,2613091554,HAWK11,1,1,73,2,1,1,225,2,1,0,0,12,1,225,2,1,-148200.86950858062,-4791379.272432174,4198274.835417271,2.55417,2.41525,-0.657886,-65.625,61.875,69.625,-0.015625,-7.15625,6.9375,-0.146484,-0.00195312,0.0078125,4,0,41.40245390823408,-91.77163558012398,11026.34881075624,-37.42444695803827,1.3807696012422237,1.5179766307633604,196.101,9133.40005056179,11009.472056291774,150,True,18.57386763045636,False,176.19191707039056,179.21436928456646,False,3.26039489445807,True,False
8,1970-07-23 09:59:54.373579220,2025-09-10,2025-09-26 15:50:37.357,AA,C,3334204172,JASSM,3,127,76,2,2,1,225,9,2,0,1,26,0,0,0,0,-169424.13916190094,-4772829.241182174,4217946.565886021,-2.51419,-0.702755,0.608128,59.75,-50.5,-54.375,0.0,0.0,0.0,0.0,0.0,0.0,2,0,41.64139793293246,-92.03301090088824,9999.999790518044,139.8579112911344,-0.0039473823355616,0.0008861764683018,,9133.40005056179,11009.472056291774,150,8,2025-09-10,2025-09-26 15:50:37.035,AA,C,2613568754,HAWK11,1,1,73,2,1,1,225,2,1,0,0,12,1,225,2,1,-148227.54528983062,-4791354.204072799,4198302.595182896,2.51314,2.41075,-0.65616,-65.75,61.875,69.75,0.078125,-7.1875,6.82812,-0.0664062,-0.00585938,0.0117188,4,0,41.40278550847879,-91.7719635317182,11026.949738053228,-37.31422527054092,1.1827428682868395,-0.9883203658722848,196.48,9133.40005056179,11009.472056291774,150,True,18.492679490382585,False,176.20437993662335,179.21474700352528,False,3.2580348459740227,True,False
8,1970-07-23 09:59:54.385642556,2025-09-10,2025-09-26 15:50:38.564,AA,C,3335456982,JASSM,3,127,76,2,2,1,225,9,2,0,1,26,0,0,0,0,-169361.4209001822,-4772882.377900924,4217889.343229771,-2.51419,-0.702755,0.608128,59.75,-50.5,-54.375,0.0,0.0,0.0,0.0,0.0,0.0,2,0,41.64070884825935,-92.0322363358227,10000.001607800998,139.85842596017852,-0.0030474370094082,0.0008844381915524,,9133.40005056179,11009.472056291774,150,8,2025-09-10,2025-09-26 15:50:38.803,AA,C,2616074052,HAWK11,1,1,73,2,1,1,225,2,1,0,0,12,1,225,2,1,-148365.93982108062,-4791223.756807174,4198448.020964146,2.57853,2.42388,-0.654051,-65.5,61.5,69.75,0.0,-7.39062,6.5,0.0742188,0.00195312,0.00976562,4,0,41.40451767524017,-91.77366514996704,11032.174534768405,-37.8726228481044,1.4305536268948964,3.2037702741807688,195.71,9133.40005056179,11009.472056291774,150,True,18.3100118301647,False,176.1347697368979,179.226719902575,False,3.367515794850853,True,False
8,1970-07-23 09:59:54.394063117,2025-09-10,2025-09-26 15:50:39.406,AA,C,3336829258,JASSM,3,127,76,2,2,1,225,9,2,0,1,26,0,0,0,0,-169292.72204764312,-4772940.579072799,4217826.663542271,-2.51419,-0.702755,0.608128,59.75,-50.5,-54.375,0.0,0.0,0.0,0.0,0.0,0.0,2,0,41.6399540603877,-92.03138793097344,10000.002404515708,139.85898968493166,-0.0020616853073715,0.0008825409708867,,9133.40005056179,11009.472056291774,150,8,2025-09-10,2025-09-26 15:50:39.115,AA,C,2616511484,HAWK11,1,1,73,2,1,1,225,2,1,0,0,12,1,225,2,1,-148389.51403983062,-4791201.434541549,4198472.981901646,2.60278,2.42244,-0.655489,-65.25,61.5,69.875,-0.015625,-7.39062,6.26562,0.0625,0.00390625,0.0253906,4,0,41.404814612418114,-91.7739550513668,11033.227233509837,-37.7717538852684,1.460153973765187,4.545895616908783,195.404,9133.40005056179,11009.472056291774,150,True,18.228936828369957,False,175.99803919353263,179.22694990987944,False,3.5052743830466353,True,False
8,1970-07-23 09:59:54.405062281,2025-09-10,2025-09-26 15:50:40.506,AA,C,3338141480,JASSM,3,127,76,2,2,1,225,9,2,0,1,26,0,0,0,0,-169227.0295427603,-4772996.233369674,4217766.722136021,-2.51419,-0.702755,0.608128,59.75,-50.5,-54.375,0.0,0.0,0.0,0.0,0.0,0.0,2,0,41.639232265200576,-92.03057667186516,9999.998997949677,139.85952872026073,-0.0011190468636396,0.000880706242694,,9133.40005056179,11009.472056291774,150,8,2025-09-10,2025-09-26 15:50:40.801,AA,C,2618460050,HAWK11,1,1,73,2,1,1,225,2,1,0,0,12,1,225,2,1,-148495.94568045562,-4791100.040010299,4198586.495573521,2.61131,2.4003,-0.668528,-63.75,61.625,69.875,-0.3125,-7.48438,6.21875,-0.0175781,0.00195312,0.0078125,4,0,41.4061644025921,-91.77526414321356,11038.259911984063,-36.523825469199046,1.4987296400664962,4.286949016700805,193.791,9133.40005056179,11009.472056291774,150,True,18.07261350175257,False,175.38808528133174,179.23700870097977,False,4.094901667494793,True,False
8,1970-07-23 09:59:54.417661554,2025-09-10,2025-09-26 15:50:41.766,AA,C,3339513172,JASSM,3,127,76,2,2,1,225,9,2,0,1,26,0,0,0,0,-169158.3596208853,-4773054.407197799,4217704.065886021,-2.51419,-0.702755,0.608128,59.75,-50.5,-54.375,0.0,0.0,0.0,0.0,0.0,0.0,2,0,41.63847777978889,-92.02972866421452,9999.99850898392,139.86009216469958,-0.0001337083466013,0.0008788071515843,,9133.40005056179,11009.472056291774,150,8,2025-09-10,2025-09-26 15:50:42.115,AA,C,2620090480,HAWK11,1,1,73,2,1,1,225,2,1,0,0,12,1,225,2,1,-148582.58630545562,-4791015.106416549,4198681.476042271,2.60738,2.39464,-0.671404,-62.5,61.875,69.75,-0.3125,-7.32812,6.1875,-0.0234375,0.00390625,0.00585938,4,0,41.40729480462484,-91.77633073515908,11042.070218940393,-36.22173925351752,1.4916521898343251,3.868356076134528,192.862,9133.40005056179,11009.472056291774,150,True,17.93080613685833,False,174.885371496166,179.24784753716864,False,4.581270520865866,True,False
