Subject_cm,Timestamp,SampleDate_cm,SampleTime_cm,Configuration_cm,Scenario_cm,DisTime_cm,MarkingTxt_cm,Application_cm,EntId_cm,Site_cm,ExerciseId_cm,ForceId_cm,Category_cm,Country_cm,Domain_cm,Kind_cm,Extra_cm,Specific_cm,Subcategory_cm,AltCategory_cm,AltCountry_cm,AltDomain_cm,AltKind_cm,ECEF_X_cm,ECEF_Y_cm,ECEF_Z_cm,OriPhi_cm,OriPsi_cm,OriTheta_cm,LinVelX_cm,LinVelY_cm,LinVelZ_cm,LinAccX_cm,LinAccY_cm,LinAccZ_cm,AngVelX_cm,AngVelY_cm,AngVelZ_cm,DrAlg_cm,Appearance_cm,Latitude_cm,Longitude_cm,Altitude_cm,Heading_cm,Pitch_cm,Roll_cm,CalibratedAirspeed_cm,CM_Altitude_Lead_cm,CM_Altitude_Wing_cm,CM_Airspeed_cm,Subject_ac,SampleDate_ac,SampleTime_ac,Configuration_ac,Scenario_ac,DisTime_ac,MarkingTxt_ac,Application_ac,EntId_ac,Site_ac,ExerciseId_ac,ForceId_ac,Category_ac,Country_ac,Domain_ac,Kind_ac,Extra_ac,Specific_ac,Subcategory_ac,AltCategory_ac,AltCountry_ac,AltDomain_ac,AltKind_ac,ECEF_X_ac,ECEF_Y_ac,ECEF_Z_ac,OriPhi_ac,OriPsi_ac,OriTheta_ac,LinVelX_ac,LinVelY_ac,LinVelZ_ac,LinAccX_ac,LinAccY_ac,LinAccZ_ac,AngVelX_ac,AngVelY_ac,AngVelZ_ac,DrAlg_ac,Appearance_ac,Latitude_ac,Longitude_ac,Altitude_ac,Heading_ac,Pitch_ac,Roll_ac,CalibratedAirspeed_ac,CM_Altitude_Lead_ac,CM_Altitude_Wing_ac,CM_Airspeed_ac,Bank_Angle_Condition,distance_nm,Distance_Condition,angle_between_vel,angle_between_pos,Cone_Condition,angle_between_pos_nose,Nose_Cone_Condition,Intercept_Criteria
8,1970-07-23 09:59:47.311081398,2025-09-10,2025-09-26 15:38:51.108,HA,C,2491734350,JASSM,3,113,76,2,2,1,225,9,2,0,1,26,0,0,0,0,-155734.76111014312,-4777169.213838424,4213588.171354771,-2.71093,-1.01118,0.751842,36.625,-58.375,-64.375,0.0,0.0,0.0,0.0,0.0,0.0,2,0,41.58893458888138,-91.8671696994164,10000.002448781031,155.93829531118053,-0.0042289966819171,-0.0006566758048612,,9225.216264497592,11151.327114366952,150,8,2025-09-10,2025-09-26 15:38:51.218,HA,C,1771947904,HAWK11,1,1,73,2,1,1,225,2,1,0,0,12,1,225,2,1,-139485.87732108062,-4795288.580049361,4194193.5063157086,2.44277,2.56923,-0.558657,-81.75,44.0,47.875,-0.078125,-7.32812,6.25,0.0195312,-0.0078125,0.00195312,4,0,41.35320391909243,-91.66615606909777,11151.327114366952,-46.5550137323335,1.2117433403079036,-0.0453537696099546,183.355,9225.216264497592,11151.327114366952,150,True,16.775562309011306,False,151.35019600871848,171.34521199054763,False,20.029542326052173,True,False
8,1970-07-23 09:59:47.321080013,2025-09-10,2025-09-26 15:38:52.108,HA,C,2492987048,JASSM,3,113,76,2,2,1,225,9,2,0,1,26,0,0,0,0,-155696.29040701812,-4777230.643525924,4213520.401823521,-2.71093,-1.01118,0.751842,36.625,-58.375,-64.375,0.0,0.0,0.0,0.0,0.0,0.0,2,0,41.58811916250466,-91.86668479756264,10000.001047656897,155.93861717770133,-0.0033365560500271,-0.0006579798007181,,9225.216264497592,11151.327114366952,150,8,2025-09-10,2025-09-26 15:38:52.124,HA,C,1772942070,HAWK11,1,1,73,2,1,1,225,2,1,0,0,12,1,225,2,1,-139553.83239920562,-4795251.878877486,4194233.816862584,2.46961,2.56654,-0.556164,-81.375,44.25,47.625,-0.046875,-7.14062,6.01562,0.03125,0.0,-0.0078125,4,0,41.35368260446535,-91.66698008448274,11153.22601155566,-46.54721885573991,1.0192226273193414,1.4116167563923752,182.658,9225.216264497592,11151.327114366952,150,True,16.678574334244573,False,151.4690722396007,171.37169796485287,False,19.931470024771873,True,False
8,1970-07-23 09:59:47.331080895,2025-09-10,2025-09-26 15:38:53.108,HA,C,2494180094,JASSM,3,113,76,2,2,1,225,9,2,0,1,26,0,0,0,0,-155659.65173514312,-4777289.145479049,4213455.858854771,-2.71093,-1.01118,0.751842,36.625,-58.375,-64.375,0.0,0.0,0.0,0.0,0.0,0.0,2,0,41.587342575164485,-91.86622299971296,9999.9970609881,155.93892370350642,-0.0024866233552167,-0.0006592185759713,,9225.216264497592,11151.327114366952,150,8,2025-09-10,2025-09-26 15:38:52.920,HA,C,1774015768,HAWK11,1,1,73,2,1,1,225,2,1,0,0,12,1,225,2,1,-139626.62536795562,-4795211.951143111,4194276.974089146,2.57047,2.55695,-0.559232,-80.75,44.75,47.625,-0.328125,-6.9375,6.17188,0.130859,-0.00390625,0.00195312,4,0,41.354198853275015,-91.66786299013566,11153.70351659865,-46.07705960410545,0.8569984601365656,6.90749668992067,182.292,9225.216264497592,11151.327114366952,150,True,16.580788574093503,False,151.82535210734162,171.40340032894767,False,19.601306633755726,True,False
8,1970-07-23 09:59:47.341083794,2025-09-10,2025-09-26 15:38:54.108,HA,C,2495313490,JASSM,3,113,76,2,2,1,225,9,2,0,1,26,0,0,0,0,-155624.84509451812,-4777344.721650924,4213394.546354771,-2.71083,-1.01118,0.751842,36.625,-58.375,-64.375,0.0,0.0,0.0,0.0,0.0,0.0,2,0,41.586604841787455,-91.86578430344387,10000.003095454416,155.93921489090965,-0.0016792117433442,0.0048447468295189,,9225.216264497592,11151.327114366952,150,8,2025-09-10,2025-09-26 15:38:54.218,HA,C,1775606432,HAWK11,1,1,73,2,1,1,225,2,1,0,0,12,1,225,2,1,-139733.42419608062,-4795151.100557174,4194341.860807896,2.70882,2.52685,-0.578311,-79.0,46.375,48.75,-0.15625,-6.95312,6.92188,0.0390625,0.0,0.0351562,4,0,41.35498034663557,-91.66915916772726,11152.2230998754,-44.26063211728246,0.7874235570998002,13.93125350846226,182.206,9225.216264497592,11151.327114366952,150,False,16.462149796717732,False,153.2527389940903,171.46177173185947,False,18.225719606391078,True,False
8,1970-07-23 09:59:47.351082644,2025-09-10,2025-09-26 15:38:55.108,HA,C,2496506534,JASSM,3,113,76,2,2,1,225,9,2,0,1,26,0,0,0,0,-155588.20642264312,-4777403.221650924,4213330.003386021,-2.71083,-1.01118,0.751842,36.625,-58.375,-64.375,0.0,0.0,0.0,0.0,0.0,0.0,2,0,41.58582826228609,-91.86532252793756,10000.003286910263,155.9395213927196,-0.000829289703955,0.0048435122541003,,9225.216264497592,11151.327114366952,150,8,2025-09-10,2025-09-26 15:38:55.624,HA,C,1777197098,HAWK11,1,1,73,2,1,1,225,2,1,0,0,12,1,225,2,1,-139836.96130545562,-4795088.013643111,4194408.434050083,2.68217,2.4816,-0.600937,-77.25,48.125,50.75,0.0625,-6.98438,7.17188,-0.0625,0.0078125,0.0273438,4,0,41.35578707511187,-91.67041721446644,11148.66944409215,-41.76529537215232,0.4823532381850517,10.989976001397048,183.355,9225.216264497592,11151.327114366952,150,False,16.340643699493015,False,154.98921169352897,171.5118034119547,False,16.539528267768674,True,False
8,1970-07-23 09:59:47.361082160,2025-09-10,2025-09-26 15:38:56.108,HA,C,2497699660,JASSM,3,113,76,2,2,1,225,9,2,0,1,26,0,0,0,0,-155551.56579764312,-4777461.725557174,4213265.452604771,-2.71083,-1.01118,0.751842,36.625,-58.375,-64.375,0.0,0.0,0.0,0.0,0.0,0.0,2,0,41.585051605296165,-91.86486073857516,10000.000489844157,155.93982789902654,2.0709017254614635e-05,0.0048422638903688,,9225.216264497592,11151.327114366952,150,8,2025-09-10,2025-09-26 15:38:56.016,HA,C,1777714064,HAWK11,1,1,73,2,1,1,225,2,1,0,0,12,1,225,2,1,-139870.89880545562,-4795066.782197799,4194430.967253208,2.63883,2.47508,-0.606306,-76.875,48.5,51.375,-0.046875,-7.17188,7.40625,-0.128906,0.0078125,0.0195312,4,0,41.356059595721455,-91.67082977766708,11147.689030464931,-41.3346080456063,0.5417900413280873,8.298941343584314,183.648,9225.216264497592,11151.327114366952,150,True,16.266523124699212,False,155.4204140313283,171.50960535339226,False,16.10833278474011,True,False
8,1970-07-23 09:59:47.371081842,2025-09-10,2025-09-26 15:38:57.108,HA,C,2498952280,JASSM,3,113,76,2,2,1,225,9,2,0,1,26,0,0,0,0,-155513.09704764312,-4777523.143525924,4213197.686979771,-2.71083,-1.01118,0.751842,36.625,-58.375,-64.375,0.0,0.0,0.0,0.0,0.0,0.0,2,0,41.58423626450738,-91.86437592279454,10000.003154814009,155.94014968374267,0.0009130541768056,0.0048409797889567,,9225.216264497592,11151.327114366952,150,8,2025-09-10,2025-09-26 15:38:57.123,HA,C,1778827530,HAWK11,1,1,73,2,1,1,225,2,1,0,0,12,1,225,2,1,-139942.71911795562,-4795020.942354049,4194479.845182896,2.54996,2.46722,-0.609757,-76.5,49.125,52.5,-0.046875,-7.125,7.23438,-0.0878906,0.00195312,-0.00585938,4,0,41.35664976638613,-91.6717031936057,11145.964824790704,-40.92087129134711,0.4782596660587243,2.953268169017826,184.662,9225.216264497592,11151.327114366952,150,True,16.16272245030944,False,156.06670022934637,171.53198537707124,False,15.489699450381526,True,False
8,1970-07-23 09:59:47.381080992,2025-09-10,2025-09-26 15:38:58.108,HA,C,2500145328,JASSM,3,113,76,2,2,1,225,9,2,0,1,26,0,0,0,0,-155476.45837576812,-4777581.641572799,4213133.140104771,-2.71083,-1.01118,0.751938,36.625,-58.375,-64.375,0.0,0.0,0.0,0.0,0.0,0.0,2,0,41.58345966439519,-91.86391418180108,10000.004077241994,155.94274875916614,-0.0032270204445869,0.0048397093838306,,9225.216264497592,11151.327114366952,150,8,2025-09-10,2025-09-26 15:38:58.124,HA,C,1780219362,HAWK11,1,1,73,2,1,1,225,2,1,0,0,12,1,225,2,1,-140032.16443045562,-4794963.128877486,4194542.020964146,2.48745,2.4675,-0.611387,-76.75,49.375,53.5,0.0,-6.98438,7.39062,-0.0332031,0.00585938,-0.00390625,4,0,41.3573978651404,-91.67279122422518,11144.86610180642,-40.87637325847847,0.5621776601491579,-0.6182946930078778,185.481,9225.216264497592,11151.327114366952,150,True,16.048281687733652,False,156.33767120850013,171.56700101083462,False,15.264282308709255,True,False
8,1970-07-23 09:59:47.390799157,2025-09-10,2025-09-26 15:38:59.079,HA,C,2501219068,JASSM,3,113,76,2,2,1,225,9,2,0,1,26,0,0,0,0,-155443.48376639312,-4777634.286104049,4213075.046354771,-2.71083,-1.01109,0.751938,36.625,-58.375,-64.375,0.0,0.0,0.0,0.0,0.0,0.0,2,0,41.5827607342165,-91.8634986281538,9999.996351019612,155.93938008402174,-0.0041366552084074,0.0010878539108102,,9225.216264497592,11151.327114366952,150,8,2025-09-10,2025-09-26 15:38:59.218,HA,C,1781491894,HAWK11,1,1,73,2,1,1,225,2,1,0,0,12,1,225,2,1,-140113.99841483062,-4794910.156221236,4194599.354948521,2.48064,2.45916,-0.609278,-77.375,49.75,54.125,-0.109375,-6.84375,7.01562,0.0117188,-0.00585938,0.0,4,0,41.358085797132375,-91.67378671855052,11144.647194605472,-40.635398975270206,0.2321395462472997,-1.2804299648509785,186.447,9225.216264497592,11151.327114366952,150,True,15.94415749207611,False,156.3861780322697,171.59944628217218,False,15.252108471393687,True,False
8,1970-07-23 09:59:47.402384563,2025-09-10,2025-09-26 15:39:00.238,HA,C,2502352672,JASSM,3,113,76,2,2,1,225,9,2,0,1,26,0,0,0,0,-155408.67028983062,-4777689.868135299,4213013.714323521,-2.71083,-1.01109,0.751938,36.625,-58.375,-64.375,0.0,0.0,0.0,0.0,0.0,0.0,2,0,41.582022824732334,-91.86305990973356,9999.99946110545,155.93967125992128,-0.0033290665324918,0.001086657869029,,9225.216264497592,11151.327114366952,150,8,2025-09-10,2025-09-26 15:39:00.124,HA,C,1782605358,HAWK11,1,1,73,2,1,1,225,2,1,0,0,12,1,225,2,1,-140187.08630545562,-4794862.620088424,4194650.756315708,2.49636,2.45619,-0.610141,-77.75,50.25,54.5,-0.09375,-6.96875,7.17188,0.00195312,0.0078125,0.00195312,4,0,41.35870285288321,-91.674675914641,11144.326206988557,-40.494386452019896,0.1896400744678825,-0.4764416567812283,187.204,9225.216264497592,11151.327114366952,150,True,15.843649825838535,False,156.48495767417936,171.6245430213749,False,15.176334249468757,True,False
8,1970-07-23 09:59:47.410738982,2025-09-10,2025-09-26 15:39:01.073,HA,C,2503545510,JASSM,3,113,76,2,2,1,225,9,2,0,1,26,0,0,0,0,-155372.03747733062,-4777748.352510299,4212949.179167271,-2.71083,-1.01109,0.751938,36.625,-58.375,-64.375,0.0,0.0,0.0,0.0,0.0,0.0,2,0,41.58124637840152,-91.86259827579488,10000.005941769405,155.9399776401892,-0.0024792992637114,0.0010854100421388,,9225.216264497592,11151.327114366952,150,8,2025-09-10,2025-09-26 15:39:01.033,HA,C,1783321158,HAWK11,1,1,73,2,1,1,225,2,1,0,0,12,1,225,2,1,-140233.83044608062,-4794832.506807174,4194683.379362583,2.49234,2.45638,-0.613592,-78.0,50.25,54.75,-0.125,-7.04688,7.26562,-0.00976562,0.00585938,0.0,4,0,41.35909407918983,-91.67524451741244,11144.290273002794,-40.38437918647934,0.3545430315261234,-0.7002401153553944,187.718,9225.216264497592,11151.327114366952,150,True,15.759778867403117,False,156.46552091742043,171.63052733092707,False,15.206078783771408,True,False
8,1970-07-23 09:59:47.419042161,2025-09-10,2025-09-26 15:39:01.904,HA,C,2504679000,JASSM,3,113,76,2,2,1,225,9,2,0,1,26,0,0,0,0,-155337.22790701812,-4777803.924775924,4212887.851042271,-2.71083,-1.01109,0.751938,36.625,-58.375,-64.375,0.0,0.0,0.0,0.0,0.0,0.0,2,0,41.58050854912194,-91.8621596284725,10000.00243690728,155.9402687601948,-0.0016718023564142,0.001084213586182,,9225.216264497592,11151.327114366952,150,8,2025-09-10,2025-09-26 15:39:02.014,HA,C,1784911824,HAWK11,1,1,73,2,1,1,225,2,1,0,0,12,1,225,2,1,-140337.21130545562,-4794766.027314986,4194755.739714146,2.48332,2.45168,-0.619345,-78.625,50.5,55.125,-0.21875,-6.85938,6.98438,-0.0605469,0.00195312,-0.00195312,4,0,41.35996002408943,-91.67650204001843,11144.969428511087,-40.01279033500252,0.4906234685316857,-1.3693000181745625,188.365,9225.216264497592,11151.327114366952,150,True,15.637832901650057,False,156.40859829775155,171.67824449314597,False,15.313097720457096,True,False
8,1970-07-23 09:59:47.429040965,2025-09-10,2025-09-26 15:39:02.904,HA,C,2505871950,JASSM,3,113,76,2,2,1,225,9,2,0,1,26,0,0,0,0,-155300.59118826812,-4777862.413057174,4212823.304167271,-2.71083,-1.01109,0.751938,36.625,-58.375,-64.375,0.0,0.0,0.0,0.0,0.0,0.0,2,0,41.57973199752357,-91.86169796778724,10000.001637922318,155.94057514905106,-0.0008219274946434,0.0010829573679108,,9225.216264497592,11151.327114366952,150,8,2025-09-10,2025-09-26 15:39:03.013,HA,C,1786104822,HAWK11,1,1,73,2,1,1,225,2,1,0,0,12,1,225,2,1,-140415.78943045562,-4794715.601533736,4194810.565886021,2.44641,2.45284,-0.618961,-79.125,50.625,55.25,-0.171875,-6.84375,7.07812,0.00976562,-0.0117188,-0.00390625,4,0,41.36061641239749,-91.6774578484912,11145.372428375162,-40.06967410367709,0.5057206290958541,-3.446283267996756,188.756,9225.216264497592,11151.327114366952,150,True,15.531235000074537,False,156.2947071636378,171.7076575606103,False,15.456802702689135,True,False
8,1970-07-23 09:59:47.439560725,2025-09-10,2025-09-26 15:39:03.956,HA,C,2507005346,JASSM,3,113,76,2,2,1,225,9,2,0,1,26,0,0,0,0,-155265.78454764312,-4777917.979463424,4212761.979948521,-2.71083,-1.01109,0.751938,36.625,-58.375,-64.375,0.0,0.0,0.0,0.0,0.0,0.0,2,0,41.57899422531944,-91.86125937833596,10000.001020086936,155.94086622194317,-1.4497203484657323e-05,0.001081760098188,,9225.216264497592,11151.327114366952,150,8,2025-09-10,2025-09-26 15:39:04.013,HA,C,1787138754,HAWK11,1,1,73,2,1,1,225,2,1,0,0,12,1,225,2,1,-140484.86950858062,-4794671.130830611,4194858.866667271,2.46578,2.45284,-0.618578,-79.5,50.75,55.375,-0.140625,-6.70312,6.82812,0.0273438,-0.00390625,0.0,4,0,41.361194973208015,-91.67829818947747,11145.607298515826,-40.08326322075488,0.4888802048273581,-2.336667384623418,189.514,9225.216264497592,11151.327114366952,150,True,15.433869938440134,False,156.22675464744503,171.73173861699897,False,15.549203535281332,True,False
8,1970-07-23 09:59:47.449080549,2025-09-10,2025-09-26 15:39:04.908,HA,C,2508198382,JASSM,3,113,76,2,2,1,225,9,2,0,1,26,0,0,0,0,-155229.14587576812,-4777976.467744674,4212697.429167271,-2.71083,-1.01109,0.751938,36.625,-58.375,-64.375,0.0,0.0,0.0,0.0,0.0,0.0,2,0,41.57821764398366,-91.8607977158232,10000.000527980104,155.94117260284852,0.0008354086839659,0.0010805092614428,,9225.216264497592,11151.327114366952,150,8,2025-09-10,2025-09-26 15:39:04.717,HA,C,1788093154,HAWK11,1,1,73,2,1,1,225,2,1,0,0,12,1,225,2,1,-140547.88708670562,-4794630.571260299,4194902.602995396,2.46607,2.45427,-0.621454,-79.875,50.75,55.375,-0.1875,-6.79688,6.85938,0.0292969,0.00585938,0.00585938,4,0,41.36172050519549,-91.67906479178475,11145.140409554428,-40.03992534087364,0.6620848103235154,-2.2717724042316343,189.942,9225.216264497592,11151.327114366952,150,True,15.338441282800938,False,156.0921859368838,171.75060803379782,False,15.70309635335328,True,False
8,1970-07-23 09:59:47.458738190,2025-09-10,2025-09-26 15:39:05.873,HA,C,2509331786,JASSM,3,113,76,2,2,1,225,9,2,0,1,26,0,0,0,0,-155194.33825858062,-4778032.032197799,4212636.101042271,-2.71083,-1.01109,0.752034,36.625,-58.375,-64.375,0.0,0.0,0.0,0.0,0.0,0.0,2,0,41.57747985370173,-91.86035913592484,9999.99505632536,155.9437580250049,-0.0033501070916896,0.0010792793580076,,9225.216264497592,11151.327114366952,150,8,2025-09-10,2025-09-26 15:39:05.754,HA,C,1788769186,HAWK11,1,1,73,2,1,1,225,2,1,0,0,12,1,225,2,1,-140592.74060233062,-4794601.825166549,4194933.411589146,2.47441,2.44804,-0.621646,-80.125,51.0,55.375,-0.296875,-6.79688,6.84375,0.00976562,-0.00195312,0.00976562,4,0,41.36209165666749,-91.67961039474208,11144.41587668444,-39.799912516901294,0.4995108171428248,-1.9992636716683208,190.492,9225.216264497592,11151.327114366952,150,True,15.258651704981945,False,156.06572653392578,171.7579726406654,False,15.733069776730805,True,False
8,1970-07-23 09:59:47.468061618,2025-09-10,2025-09-26 15:39:06.806,HA,C,2510524832,JASSM,3,113,76,2,2,1,225,9,2,0,1,26,0,0,0,0,-155157.69958670562,-4778090.520479049,4212571.546354771,-2.71083,-1.01109,0.752034,36.625,-58.375,-64.375,0.0,0.0,0.0,0.0,0.0,0.0,2,0,41.57670324224899,-91.8598974949805,9999.995027572912,155.94406438254063,-0.0025001769169942,0.0010780518018128,,9225.216264497592,11151.327114366952,150,8,2025-09-10,2025-09-26 15:39:06.826,HA,C,1790638218,HAWK11,1,1,73,2,1,1,225,2,1,0,0,12,1,225,2,1,-140717.45935233062,-4794521.159150924,4195019.576628208,2.53011,2.44402,-0.630274,-79.875,51.25,55.25,0.03125,-7.23438,6.42188,0.0292969,-0.00195312,0.00976562,4,0,41.363131402065065,-91.68112777737942,11141.68438823392,-39.358212551126336,0.7898498153484328,1.0622927845185448,190.333,9225.216264497592,11151.327114366952,150,True,15.119184813828404,False,156.1816002977271,171.82354172396225,False,15.677608332862265,True,False
8,1970-07-23 09:59:47.479080531,2025-09-10,2025-09-26 15:39:07.908,HA,C,2511777530,JASSM,3,113,76,2,2,1,225,9,2,0,1,26,0,0,0,0,-155119.22790701812,-4778151.932588424,4212503.765104771,-2.71083,-1.01109,0.752034,36.625,-58.375,-64.375,0.0,0.0,0.0,0.0,0.0,0.0,2,0,41.575887809710814,-91.85941277125264,10000.000975852166,155.94438605338388,-0.0016077568435201,0.0010767762099375,,9225.216264497592,11151.327114366952,150,8,2025-09-10,2025-09-26 15:39:07.825,HA,C,1791791450,HAWK11,1,1,73,2,1,1,225,2,1,0,0,12,1,225,2,1,-140794.79724295562,-4794470.796846236,4195073.011198521,2.52599,2.43078,-0.635931,-79.5,51.5,55.125,-0.125,-7.17188,6.32812,-0.0214844,-0.0136719,0.0117188,4,0,41.36377819163273,-91.6820688480273,11139.165999188754,-38.67364964632015,0.6952332848779138,0.3866037760753611,190.027,9225.216264497592,11151.327114366952,150,True,15.01091834163767,False,156.34185371048645,171.85272153704557,False,15.541462643938319,True,False
8,1970-07-23 09:59:47.489941460,2025-09-10,2025-09-26 15:39:08.994,HA,C,2512970578,JASSM,3,113,76,2,2,1,225,9,2,0,1,26,0,0,0,0,-155082.58923514312,-4778210.418916549,4212439.208464146,-2.71083,-1.01109,0.752034,36.625,-58.375,-64.375,0.0,0.0,0.0,0.0,0.0,0.0,2,0,41.57511119275257,-91.85895115374062,10000.001332076952,155.94469238573663,-0.0007578253035122,0.0010755474918754,,9225.216264497592,11151.327114366952,150,8,2025-09-10,2025-09-26 15:39:09.013,HA,C,1793262814,HAWK11,1,1,73,2,1,1,225,2,1,0,0,12,1,225,2,1,-140891.73474295562,-4794407.325166549,4195140.281706333,2.46051,2.4258,-0.641492,-79.25,51.25,55.0,-0.09375,-7.45312,6.4375,-0.0371094,0.00390625,0.00195312,4,0,41.364592929320416,-91.6832485606951,11135.803349360654,-38.30250648884687,0.8221306722678645,-3.5304177798532157,189.709,9225.216264497592,11151.327114366952,150,True,14.890956042848645,False,156.33412035892044,171.89820715902437,False,15.597120697048243,True,False
8,1970-07-23 09:59:47.499083339,2025-09-10,2025-09-26 15:39:09.908,HA,C,2514163624,JASSM,3,113,76,2,2,1,225,9,2,0,1,26,0,0,0,0,-155045.94958670562,-4778268.903291549,4212374.651823521,-2.71083,-1.01099,0.752034,36.625,-58.375,-64.375,0.0,0.0,0.0,0.0,0.0,0.0,2,0,41.574334585683054,-91.85848953634924,10000.001418627622,155.94135013736974,-0.001584638543519,-0.0026816530022619,,9225.216264497592,11151.327114366952,150,8,2025-09-10,2025-09-26 15:39:09.754,HA,C,1793620714,HAWK11,1,1,73,2,1,1,225,2,1,0,0,12,1,225,2,1,-140914.64294608062,-4794391.694307174,4195156.966276646,2.44843,2.42868,-0.642834,-79.0,51.125,54.875,0.09375,-7.34375,6.51562,-0.03125,0.0078125,-0.0117188,4,0,41.364794535677774,-91.6835275754753,11135.163175380512,-38.36537720802848,0.961709792213128,-4.1247956089442015,189.074,9225.216264497592,11151.327114366952,150,True,14.823614653889566,False,156.35729206475096,171.8866990401423,False,15.56282529860121,True,False
8,1970-07-23 09:59:47.510058660,2025-09-10,2025-09-26 15:39:11.005,HA,C,2515535628,JASSM,3,113,76,2,2,1,225,9,2,0,1,26,0,0,0,0,-155003.81482108062,-4778336.159150924,4212300.409636021,-2.71074,-1.01099,0.752034,36.625,-58.375,-64.375,0.0,0.0,0.0,0.0,0.0,0.0,2,0,41.5734414781592,-91.8579587004184,9999.999930421154,155.94170239234074,-0.0006072224981746,0.0028083479828465,,9225.216264497592,11151.327114366952,150,8,2025-09-10,2025-09-26 15:39:10.919,HA,C,1795529512,HAWK11,1,1,73,2,1,1,225,2,1,0,0,12,1,225,2,1,-141041.12536795562,-4794309.788057174,4195243.833464146,2.45485,2.43606,-0.638328,-79.5,50.5,54.125,-0.25,-7.5625,6.4375,0.0800781,0.0136719,0.0,4,0,41.36584603646361,-91.68506657912631,11131.06855105121,-38.79249674099188,0.951579720665148,-3.510819066221678,188.756,9225.216264497592,11151.327114366952,150,True,14.675503861266797,False,155.80221075809428,171.9530108195293,False,16.184041594132264,True,False
8,1970-07-23 09:59:47.521059913,2025-09-10,2025-09-26 15:39:12.105,HA,C,2516788414,JASSM,3,113,76,2,2,1,225,9,2,0,1,26,0,0,0,0,-154965.34021170562,-4778397.569307174,4212232.618620396,-2.71074,-1.01099,0.752034,36.625,-58.375,-64.375,0.0,0.0,0.0,0.0,0.0,0.0,2,0,41.57262598346379,-91.85747399112822,9999.999876304832,155.94202403291806,0.0002852573416298,0.0028070171203409,,9225.216264497592,11151.327114366952,150,8,2025-09-10,2025-09-26 15:39:12.218,HA,C,1797040644,HAWK11,1,1,73,2,1,1,225,2,1,0,0,12,1,225,2,1,-141141.61560233062,-4794245.317354049,4195312.506315708,2.53586,2.43203,-0.644655,-79.125,50.375,53.875,-0.203125,-7.46875,6.28125,0.0117188,0.00195312,0.0117188,4,0,41.3666755323149,-91.6862891404274,11128.568573575609,-38.43133686083625,1.1389071986723616,0.9996421104002634,187.73,9225.216264497592,11151.327114366952,150,True,14.55126626988804,False,155.83226201108528,172.00349711002622,False,16.203509819984756,True,False
8,1970-07-23 09:59:47.533588121,2025-09-10,2025-09-26 15:39:13.358,HA,C,2518160328,JASSM,3,113,76,2,2,1,225,9,2,0,1,26,0,0,0,0,-154923.20837576812,-4778464.819307174,4212158.378386021,-2.71074,-1.01099,0.75213,36.625,-58.375,-64.375,0.0,0.0,0.0,0.0,0.0,0.0,2,0,41.57173291854061,-91.85694322054074,10000.000135278517,155.94466949890187,-0.0037270901114554,0.0028054905080161,,9225.216264497592,11151.327114366952,150,8,2025-09-10,2025-09-26 15:39:13.125,HA,C,1798154110,HAWK11,1,1,73,2,1,1,225,2,1,0,0,12,1,225,2,1,-141213.87732108062,-4794198.300752486,4195362.500456333,2.53759,2.41775,-0.653572,-78.375,50.25,53.875,0.09375,-7.375,6.29688,-0.0195312,0.0,0.0117188,4,0,41.36728004304686,-91.68716852460248,11126.488849158375,-37.60429905833854,1.1775418450672093,0.6206439245238171,187.168,9225.216264497592,11151.327114366952,150,True,14.441593249539222,False,156.07289887585648,172.0282566364672,False,15.989845870390043,True,False
8,1970-07-23 09:59:47.543058659,2025-09-10,2025-09-26 15:39:14.305,HA,C,2519413028,JASSM,3,113,76,2,2,1,225,9,2,0,1,26,0,0,0,0,-154884.73669608062,-4778526.223604049,4212090.589323521,-2.71074,-1.01099,0.75213,36.625,-58.375,-64.375,0.0,0.0,0.0,0.0,0.0,0.0,2,0,41.5709174668766,-91.85645857415994,10000.000816528169,155.94499108699313,-0.0028346647729397,0.002804189184217,,9225.216264497592,11151.327114366952,150,8,2025-09-10,2025-09-26 15:39:14.420,HA,C,1799625474,HAWK11,1,1,73,2,1,1,225,2,1,0,0,12,1,225,2,1,-141309.36755545562,-4794134.270479049,4195428.495573521,2.63576,2.3747,-0.609182,-77.625,53.0,52.0,0.09375,-3.92188,3.32812,0.123047,-0.0292969,-0.00390625,4,0,41.36808968976247,-91.68833128068488,11118.920820414933,-37.40443881190401,-2.0446801511024306,4.787977456480455,186.483,9225.216264497592,11151.327114366952,150,True,14.31980123078252,False,156.4242685982682,172.07381389159076,False,15.649545348056096,True,False
8,1970-07-23 09:59:47.554058670,2025-09-10,2025-09-26 15:39:15.405,HA,C,2520785032,JASSM,3,113,76,2,2,1,225,9,2,0,1,26,0,0,0,0,-154842.60095389312,-4778593.473604049,4212016.343229771,-2.71074,-1.01099,0.75213,36.625,-58.375,-64.375,0.0,0.0,0.0,0.0,0.0,0.0,2,0,41.57002435830597,-91.8559277847556,9999.999644387784,155.94534328743725,-0.0018572533054969,0.0028027671588785,,9225.216264497592,11151.327114366952,150,8,2025-09-10,2025-09-26 15:39:15.421,HA,C,1800738940,HAWK11,1,1,73,2,1,1,225,2,1,0,0,12,1,225,2,1,-141381.80700858062,-4794082.416963424,4195476.669401646,2.77104,2.36396,-0.612825,-76.875,55.625,51.0,0.0,-5.875,5.79688,0.144531,0.0,0.0234375,4,0,41.3687106158494,-91.68921452904584,11101.014713367586,-36.86939792997684,-2.148637319564659,12.166434802218443,187.962,9225.216264497592,11151.327114366952,150,False,14.20920277803819,False,156.9194627429115,172.09878421542933,False,15.204000461568436,True,False
8,1970-07-23 09:59:47.565058624,2025-09-10,2025-09-26 15:39:16.505,HA,C,2522097382,JASSM,3,113,76,2,2,1,225,9,2,0,1,26,0,0,0,0,-154802.29821951812,-4778657.799775924,4211945.323698521,-2.71074,-1.01099,0.75213,36.625,-58.375,-64.375,0.0,0.0,0.0,0.0,0.0,0.0,2,0,41.56917006712466,-91.85542009900487,10000.001176492911,155.94568015184953,-0.0009223315178806,0.0028013941417617,,9225.216264497592,11151.327114366952,150,8,2025-09-10,2025-09-26 15:39:16.513,HA,C,1802130772,HAWK11,1,1,73,2,1,1,225,2,1,0,0,12,1,225,2,1,-141470.58044608062,-4794015.213838424,4195536.821745396,2.98129,2.31113,-0.623563,-75.0,58.5,52.125,-0.3125,-6.3125,6.4375,0.148438,0.0,0.0351562,4,0,41.369500824795225,-91.69029825011884,11072.496985474512,-34.4566001354368,-2.952730526588005,22.3512394577868,189.795,9225.216264497592,11151.327114366952,150,False,14.087757375573197,False,158.50931722207653,172.13549604622173,False,13.701995320649589,True,False
8,1970-07-23 09:59:47.576060954,2025-09-10,2025-09-26 15:39:17.606,HA,C,2523350082,JASSM,3,113,76,2,2,1,225,9,2,0,1,26,0,0,0,0,-154763.82653983062,-4778719.200166549,4211877.530729771,-2.71074,-1.01099,0.75213,36.625,-58.375,-64.375,0.0,0.0,0.0,0.0,0.0,0.0,2,0,41.56835460568997,-91.85493549244744,9999.99970725817,155.94600169723498,-2.9903515409748865e-05,0.0028000905050958,,9225.216264497592,11151.327114366952,150,8,2025-09-10,2025-09-26 15:39:17.514,HA,C,1803363538,HAWK11,1,1,73,2,1,1,225,2,1,0,0,12,1,225,2,1,-141547.33435233062,-4793952.338838424,4195591.526823521,3.12261,2.26185,-0.632192,-72.25,62.0,53.75,-0.25,-6.79688,6.90625,0.0878906,0.0175781,0.0429688,4,0,41.37023061540011,-91.69123694578133,11041.953988987148,-32.235735715794895,-3.691135656894308,28.660763104116477,191.481,9225.216264497592,11151.327114366952,150,False,13.975346820662038,False,160.61177883896005,172.15943167042803,False,11.747274979104578,True,False
8,1970-07-23 09:59:47.587079840,2025-09-10,2025-09-26 15:39:18.707,HA,C,2524662432,JASSM,3,113,76,2,2,1,225,9,2,0,1,26,0,0,0,0,-154723.52282889312,-4778783.524385299,4211806.509245396,-2.71074,-1.01099,0.75213,36.625,-58.375,-64.375,0.0,0.0,0.0,0.0,0.0,0.0,2,0,41.56750030857387,-91.85442782190212,10000.002995590845,155.94633854044528,0.0009050230718197,0.0027987243885613,,9225.216264497592,11151.327114366952,150,8,2025-09-10,2025-09-26 15:39:18.825,HA,C,1804755370,HAWK11,1,1,73,2,1,1,225,2,1,0,0,12,1,225,2,1,-141629.57653983062,-4793877.327119674,4195655.569792271,-3.04514,2.19426,-0.646094,-68.0,65.875,56.5,-0.09375,-7.54688,7.71875,0.0585938,0.03125,0.0449219,4,0,41.371094656693366,-91.69224548477042,11002.19631759279,-29.11698089606583,-4.472591064914407,32.74193549340542,194.182,9225.216264497592,11151.327114366952,150,False,13.8519126437347,False,163.5783509551017,172.17625761583628,False,9.08138509861148,True,False
8,1970-07-23 09:59:47.598145877,2025-09-10,2025-09-26 15:39:19.814,HA,C,2525974782,JASSM,3,113,76,2,2,1,225,9,2,0,1,26,0,0,0,0,-154683.21911795562,-4778847.844697799,4211735.485807896,-2.71074,-1.01099,0.752226,36.625,-58.375,-64.375,0.0,0.0,0.0,0.0,0.0,0.0,2,0,41.566646019250925,-91.85392016624655,9999.998013904067,155.9489700612254,-0.0031528716380801,0.002797335066745,,9225.216264497592,11151.327114366952,150,8,2025-09-10,2025-09-26 15:39:19.718,HA,C,1805948368,HAWK11,1,1,73,2,1,1,225,2,1,0,0,12,1,225,2,1,-141697.06091483062,-4793808.234346236,4195714.634245396,-2.9857,2.14824,-0.65501,-63.75,69.125,59.875,-0.203125,-8.32812,8.26562,0.0175781,0.0273438,0.0625,4,0,41.371892473165865,-91.69307573286795,10965.144223200788,-27.003444284835837,-4.944494444940011,34.377245470076325,196.137,9225.216264497592,11151.327114366952,150,False,13.736065836201849,False,166.55050977408445,172.17346437367473,False,6.625357972890098,True,False
8,1970-07-23 09:59:47.609950786,2025-09-10,2025-09-26 15:39:20.995,HA,C,2527287486,JASSM,3,113,76,2,2,1,225,9,2,0,1,26,0,0,0,0,-154642.90466483062,-4778912.182588424,4211664.442839146,-2.71074,-1.01099,0.752226,36.625,-58.375,-64.375,0.0,0.0,0.0,0.0,0.0,0.0,2,0,41.56579149322039,-91.853412388496,9999.99835587485,155.9493069643101,-0.0022176991570496,0.0027960065131887,,9225.216264497592,11151.327114366952,150,8,2025-09-10,2025-09-26 15:39:20.919,HA,C,1807379966,HAWK11,1,1,73,2,1,1,225,2,1,0,0,12,1,225,2,1,-141770.73474295562,-4793721.943330611,4195789.606901646,-2.92214,2.07778,-0.672459,-57.375,72.875,64.375,-0.203125,-9.34375,8.92188,0.0253906,0.046875,0.0527344,4,0,41.37289888471752,-91.69398599107252,10920.721907404084,-23.67946777956319,-5.327029500236985,35.233652803524,198.447,9225.216264497592,11151.327114366952,150,False,13.6076689618853,False,170.45303724369887,172.15605644911918,False,4.762342487526126,True,False
8,1970-07-23 09:59:47.622782112,2025-09-10,2025-09-26 15:39:22.278,HA,C,2528599884,JASSM,3,113,76,2,2,1,225,9,2,0,1,26,0,0,0,0,-154602.59997733062,-4778976.504854049,4211593.415495396,-2.71074,-1.01089,0.752226,36.625,-58.375,-64.375,0.0,0.0,0.0,0.0,0.0,0.0,2,0,41.56493716139041,-91.8529047471392,10000.000717217648,155.94600049148627,-0.0029573373330388,-0.0009573258198674,,9225.216264497592,11151.327114366952,150,8,2025-09-10,2025-09-26 15:39:22.404,HA,C,1809089932,HAWK11,1,1,73,2,1,1,225,2,1,0,0,12,1,225,2,1,-141848.46911795562,-4793612.187471236,4195888.854948521,-2.83796,1.99302,-0.704672,-48.125,76.0,71.125,-0.234375,-10.8906,9.82812,0.0253906,0.0664062,0.0683594,4,0,41.37420803120661,-91.69495306424778,10871.502333334704,-19.502610418524693,-4.941988374739831,36.59567651153487,200.353,9225.216264497592,11151.327114366952,150,False,13.462500169616122,False,175.27888339695247,172.1069865397165,False,6.842851474180766,True,False
8,1970-07-23 09:59:47.631076642,2025-09-10,2025-09-26 15:39:23.107,HA,C,2529971488,JASSM,3,113,76,2,2,1,225,9,2,0,1,26,0,0,0,0,-154560.47693045562,-4779043.727510299,4211519.181120396,-2.71074,-1.01089,0.752226,36.625,-58.375,-64.375,0.0,0.0,0.0,0.0,0.0,0.0,2,0,41.564044275126506,-91.85237421825896,9999.999700496302,155.9463524776377,-0.0019801933114464,-0.000958784449825,,9225.216264497592,11151.327114366952,150,8,2025-09-10,2025-09-26 15:39:23.013,HA,C,1809885264,HAWK11,1,1,73,2,1,1,225,2,1,0,0,12,1,225,2,1,-141878.53552420562,-4793561.458955611,4195936.972136021,-2.78024,1.92467,-0.733435,-42.625,76.5,74.0,-0.234375,-11.4062,10.3281,0.0253906,0.0703125,0.0605469,4,0,41.37482930488681,-91.69533004971588,10853.20033541222,-16.18314139596362,-4.272209856803063,37.05530715799028,200.537,9225.216264497592,11151.327114366952,150,False,13.363873466774205,False,176.3823866519137,172.05065847711023,False,9.335749725943783,True,False
8,1970-07-23 09:59:47.642075696,2025-09-10,2025-09-26 15:39:24.207,HA,C,2531224188,JASSM,3,113,76,2,2,1,225,9,2,0,1,26,0,0,0,0,-154522.00525076812,-4779105.120088424,4211451.382292271,-2.71074,-1.01089,0.752226,36.625,-58.375,-64.375,0.0,0.0,0.0,0.0,0.0,0.0,2,0,41.56322880729782,-91.8518896913254,9999.99818198213,155.94667393778423,-0.0010877720134135,-0.0009601083572646,,9225.216264497592,11151.327114366952,150,8,2025-09-10,2025-09-26 15:39:24.310,HA,C,1811436162,HAWK11,1,1,73,2,1,1,225,2,1,0,0,12,1,225,2,1,-141926.82653983062,-4793458.082979049,4196039.433073521,-2.68284,1.80952,-0.775331,-30.875,77.5,80.5,-0.4375,-12.2188,11.0781,0.0429688,0.0859375,0.0644531,4,0,41.3761273945418,-91.69594330277816,10824.523339091988,-10.930686015631872,-3.0996303099305176,37.77683932847843,200.806,9225.216264497592,11151.327114366952,150,False,13.230213972159632,False,172.4184720443277,171.9430856314051,False,15.460463315678838,True,False
8,1970-07-23 09:59:47.652057219,2025-09-10,2025-09-26 15:39:25.205,HA,C,2532476918,JASSM,3,113,76,2,2,1,225,9,2,0,1,26,0,0,0,0,-154483.53161795562,-4779166.514619674,4211383.581511021,-2.71074,-1.01089,0.752226,36.625,-58.375,-64.375,0.0,0.0,0.0,0.0,0.0,0.0,2,0,41.56241331288147,-91.85140515242828,10000.002120019264,155.94699540068734,-0.000195320915679,-0.0009614257422325,,9225.216264497592,11151.327114366952,150,8,2025-09-10,2025-09-26 15:39:24.913,HA,C,1811714528,HAWK11,1,1,73,2,1,1,225,2,1,0,0,12,1,225,2,1,-141933.93396170562,-4793439.446260299,4196059.044401646,-2.65647,1.78095,-0.785878,-28.5,77.25,81.625,-0.375,-12.3125,11.2031,0.0214844,0.0839844,0.0507812,4,0,41.376369392340656,-91.69603477299188,10821.709558884471,-9.672931021277948,-2.725645329186541,38.07156427433911,200.512,9225.216264497592,11151.327114366952,150,False,13.162743939407282,False,171.29943521562842,171.89212694624092,False,16.708001769318336,True,False
8,1970-07-23 09:59:47.663077475,2025-09-10,2025-09-26 15:39:26.307,HA,C,2533789238,JASSM,3,113,76,2,2,1,225,9,2,0,1,26,0,0,0,0,-154443.22888358062,-4779230.827119674,4211312.554167271,-2.71074,-1.01089,0.752226,36.625,-58.375,-64.375,0.0,0.0,0.0,0.0,0.0,0.0,2,0,41.56155902958808,-91.85089759112088,10000.002682143344,155.94733213204216,0.0007395739942236,-0.0009628127556829,,9225.216264497592,11151.327114366952,150,8,2025-09-10,2025-09-26 15:39:26.513,HA,C,1813981226,HAWK11,1,1,73,2,1,1,225,2,1,0,0,12,1,225,2,1,-141968.11755545562,-4793290.900361861,4196222.237761021,-2.5257,1.56188,-0.831513,-9.0,75.5,88.25,-0.359375,-12.0469,11.0,-0.101562,0.078125,0.0449219,4,0,41.37834867136119,-91.69649555272474,10812.578050456616,-0.7989147425319594,-0.9732366540188536,36.17783945663974,198.496,9225.216264497592,11151.327114366952,150,False,12.995685001925002,False,161.50860043377892,171.6574067029265,False,26.83363466299209,True,False
8,1970-07-23 09:59:47.674077924,2025-09-10,2025-09-26 15:39:27.407,HA,C,2535101588,JASSM,3,113,76,2,2,1,225,9,2,0,1,26,0,0,0,0,-154402.92517264312,-4779295.139619674,4211241.522917271,-2.71064,-1.01089,0.752322,36.625,-58.375,-64.375,0.0,0.0,0.0,0.0,0.0,0.0,2,0,41.56070471781143,-91.8503900314877,10000.000229409932,155.9499624511527,-0.0033150616166749,0.0045272368131877,,9225.216264497592,11151.327114366952,150,8,2025-09-10,2025-09-26 15:39:27.403,HA,C,1815015158,HAWK11,1,1,73,2,1,1,225,2,1,0,0,12,1,225,2,1,-141971.03161795562,-4793224.424775924,4196299.901823521,-2.61611,1.47406,-0.846374,-1.125,73.5,90.875,-0.3125,-11.6719,10.5156,-0.201172,0.0507812,0.0390625,4,0,41.37926788619075,-91.69655386978744,10817.646574440956,2.547713935431232,-0.0629140352672057,27.223092890798775,197.249,9225.216264497592,11151.327114366952,150,False,12.892221331130868,False,157.4774229385105,171.4999590824426,False,31.00802721006541,False,False
8,1970-07-23 09:59:47.690760240,2025-09-10,2025-09-26 15:39:29.076,HA,C,2536413940,JASSM,3,113,76,2,2,1,225,9,2,0,1,26,0,0,0,0,-154362.62146170562,-4779359.452119674,4211170.491667271,-2.71064,-1.01089,0.752322,36.625,-58.375,-64.375,0.0,0.0,0.0,0.0,0.0,0.0,2,0,41.559850403667184,-91.8498824852238,10000.003341735466,155.95029916127595,-0.0023801389586153,0.004525884530728,,9225.216264497592,11151.327114366952,150,8,2025-09-10,2025-09-26 15:39:29.309,HA,C,1817401156,HAWK11,1,1,73,2,1,1,225,2,1,0,0,12,1,225,2,1,-141956.63903983062,-4793079.201143111,4196484.972136021,-2.80565,1.38183,-0.897666,10.125,67.75,94.75,-0.078125,-9.64062,9.17188,-0.0996094,0.0214844,0.0234375,4,0,41.38138368773163,-91.69643334695516,10860.63456971782,5.686205697909302,3.153941046393758,12.39943907392799,193.742,9225.216264497592,11151.327114366952,150,False,12.732740519759538,False,151.4330117407542,171.1340570149591,False,37.34297197249509,False,False
8,1970-07-23 09:59:47.697134939,2025-09-10,2025-09-26 15:39:29.713,HA,C,2537726292,JASSM,3,113,76,2,2,1,225,9,2,0,1,26,0,0,0,0,-154322.31775076812,-4779423.762666549,4211099.458464146,-2.71064,-1.01089,0.752322,36.625,-58.375,-64.375,0.0,0.0,0.0,0.0,0.0,0.0,2,0,41.558996085657895,-91.84937495308392,10000.002975824682,155.9506358563446,-0.0014452150240568,0.0045245311008672,,9225.216264497592,11151.327114366952,150,8,2025-09-10,2025-09-26 15:39:29.903,HA,C,1817997656,HAWK11,1,1,73,2,1,1,225,2,1,0,0,12,1,225,2,1,-141951.22302420562,-4793045.401338424,4196532.331511021,-2.81831,1.35508,-0.905336,11.375,66.5,95.625,-0.125,-9.125,8.96875,-0.0214844,0.0273438,0.0253906,4,0,41.38190542612318,-91.69638061695724,10879.78804931144,6.573948284811371,3.7130573587463394,10.52554312202414,193.192,9225.216264497592,11151.327114366952,150,False,12.652337587228025,False,150.6661571843197,171.008204914468,False,38.21008001033599,False,False
8,1970-07-23 09:59:47.708057053,2025-09-10,2025-09-26 15:39:30.805,HA,C,2539098282,JASSM,3,113,76,2,2,1,225,9,2,0,1,26,0,0,0,0,-154280.18200858062,-4779490.993135299,4211025.194792271,-2.71064,-1.01089,0.752322,36.625,-58.375,-64.375,0.0,0.0,0.0,0.0,0.0,0.0,2,0,41.55810294073052,-91.84884436633264,9999.996808834338,155.95098783968473,-0.0004678021570006,0.0045231189866304,,9225.216264497592,11151.327114366952,150,8,2025-09-10,2025-09-26 15:39:30.903,HA,C,1819309954,HAWK11,1,1,73,2,1,1,225,2,1,0,0,12,1,225,2,1,-141935.02966483062,-4792971.865205611,4196635.784636021,-2.81831,1.33428,-0.91943,14.5,64.5,96.5,-0.015625,-8.03125,8.15625,-0.0078125,0.015625,0.0117188,4,0,41.383044123792025,-91.69621322065764,10922.046635880875,7.178479125507584,4.62004576785663,9.626591453482307,191.799,9225.216264497592,11151.327114366952,150,True,12.541266222559539,False,148.90831633818343,170.7659754809085,False,40.179149981726674,False,False
8,1970-07-23 09:59:47.718767183,2025-09-10,2025-09-26 15:39:31.876,HA,C,2540350994,JASSM,3,113,76,2,2,1,225,9,2,0,1,26,0,0,0,0,-154241.70935233062,-4779552.379854049,4210957.388151646,-2.71064,-1.01089,0.752322,36.625,-58.375,-64.375,0.0,0.0,0.0,0.0,0.0,0.0,2,0,41.5572874397289,-91.84835991872244,10000.0007753092,155.95130920958033,0.0004246389333106,0.0045218299934557,,9225.216264497592,11151.327114366952,150,8,2025-09-10,2025-09-26 15:39:32.203,HA,C,1820662020,HAWK11,1,1,73,2,1,1,225,2,1,0,0,12,1,225,2,1,-141915.72888358062,-4792898.201143111,4196743.020964146,-2.73681,1.29593,-0.930455,17.375,63.375,96.0,-0.25,-7.3125,7.48438,0.0429688,0.00976562,0.0195312,4,0,41.3842096689816,-91.69600874989904,10971.978097647028,8.380066544170342,5.467090167468194,12.646603048572468,189.795,9225.216264497592,11151.327114366952,150,False,12.435014690984833,False,147.4059795670527,170.51240518959202,False,41.938051476110985,False,False
8,1970-07-23 09:59:47.729074039,2025-09-10,2025-09-26 15:39:32.907,HA,C,2541663344,JASSM,3,113,76,2,2,1,225,9,2,0,1,26,0,0,0,0,-154201.40564139312,-4779616.686494674,4210886.351042271,-2.71064,-1.0108,0.752322,36.625,-58.375,-64.375,0.0,0.0,0.0,0.0,0.0,0.0,2,0,41.55643311162079,-91.84785242819382,9999.999018091665,155.9480030171051,-0.0003151174623756,0.0007679221274045,,9225.216264497592,11151.327114366952,150,8,2025-09-10,2025-09-26 15:39:32.903,HA,C,1821656184,HAWK11,1,1,73,2,1,1,225,2,1,0,0,12,1,225,2,1,-141899.47302420562,-4792844.902314986,4196820.929167271,-2.67555,1.2639,-0.929209,19.625,62.625,95.5,-0.15625,-6.78125,7.03125,0.0429688,0.00585938,0.0136719,4,0,41.38505553671587,-91.69583343985218,11008.634947623392,9.475276053821302,5.611527297992157,14.791837368089556,188.573,9225.216264497592,11151.327114366952,150,False,12.341746394695692,False,146.2392822957452,170.30741317006894,False,43.31544164262375,False,False
8,1970-07-23 09:59:47.738078205,2025-09-10,2025-09-26 15:39:33.807,HA,C,2542737086,JASSM,3,113,76,2,2,1,225,9,2,0,1,26,0,0,0,0,-154168.43005545562,-4779669.299775924,4210828.231901646,-2.71064,-1.0108,0.752418,36.625,-58.375,-64.375,0.0,0.0,0.0,0.0,0.0,0.0,2,0,41.55573413586607,-91.84743722121814,10000.003320994594,155.95057379442946,-0.0045427084932138,0.0007666893227519,,9225.216264497592,11151.327114366952,150,8,2025-09-10,2025-09-26 15:39:33.809,HA,C,1822769650,HAWK11,1,1,73,2,1,1,225,2,1,0,0,12,1,225,2,1,-141878.83239920562,-4792785.277314986,4196907.456511021,-2.55801,1.23198,-0.917992,22.625,63.0,94.0,-0.234375,-6.15625,6.375,0.078125,-0.00390625,0.0253906,4,0,41.38599799083383,-91.69560799055238,11048.107257377918,10.697299426941475,5.225538015554674,20.18245967124551,187.412,9225.216264497592,11151.327114366952,150,False,12.255112778643866,False,144.86977590601586,170.0835364139375,False,44.947482062248156,False,False
8,1970-07-23 09:59:47.747054921,2025-09-10,2025-09-26 15:39:34.705,HA,C,2543810980,JASSM,3,113,76,2,2,1,225,9,2,0,1,26,0,0,0,0,-154135.44861014312,-4779721.920869674,4210770.099089146,-2.71064,-1.0108,0.752418,36.625,-58.375,-64.375,0.0,0.0,0.0,0.0,0.0,0.0,2,0,41.55503502096808,-91.84702195000747,10000.0003018166,155.9508492620574,-0.00377764105723,0.0007655630830944,,9225.216264497592,11151.327114366952,150,8,2025-09-10,2025-09-26 15:39:34.701,HA,C,1823803582,HAWK11,1,1,73,2,1,1,225,2,1,0,0,12,1,225,2,1,-141857.74646170562,-4792729.531221236,4196985.673307896,-2.50614,1.19842,-0.900447,25.375,63.75,92.25,-0.171875,-5.71875,5.96875,-0.0195312,-0.0078125,0.0292969,4,0,41.38686133955207,-91.69537584533496,11079.07031083869,12.09117089745858,4.535742302055957,21.755754724724788,186.214,9225.216264497592,11151.327114366952,150,False,12.172759018776427,False,143.6351057656804,169.86819995958476,False,46.43428093061528,False,False
8,1970-07-23 09:59:47.757058566,2025-09-10,2025-09-26 15:39:35.705,HA,C,2544944224,JASSM,3,113,76,2,2,1,225,9,2,0,1,26,0,0,0,0,-154100.64489920562,-4779777.448213424,4210708.755339146,-2.71064,-1.0108,0.752418,36.625,-58.375,-64.375,0.0,0.0,0.0,0.0,0.0,0.0,2,0,41.55429729068165,-91.84658374469026,10000.000498845717,155.9511399387569,-0.0029703148703289,0.0007643797208856,,9225.216264497592,11151.327114366952,150,8,2025-09-10,2025-09-26 15:39:35.607,HA,C,1824797748,HAWK11,1,1,73,2,1,1,225,2,1,0,0,12,1,225,2,1,-141835.04724295562,-4792674.596650924,4197061.065886021,-2.5258,1.1548,-0.875328,28.0,64.75,90.5,-0.03125,-5.45312,5.82812,-0.0625,-0.00390625,0.0371094,4,0,41.38770107443037,-91.69512413811402,11105.791391097351,14.001404498545336,3.573252998469228,18.82558204335844,185.603,9225.216264497592,11151.327114366952,150,False,12.089749526594229,False,142.45928834931544,169.64831527805407,False,47.85929585142345,False,False
8,1970-07-23 09:59:47.766359326,2025-09-10,2025-09-26 15:39:36.635,HA,C,2546077616,JASSM,3,113,76,2,2,1,225,9,2,0,1,26,0,0,0,0,-154065.83630545562,-4779832.981416549,4210647.403776646,-2.71064,-1.0108,0.752418,36.625,-58.375,-64.375,0.0,0.0,0.0,0.0,0.0,0.0,2,0,41.55355947199597,-91.8461454886072,10000.00183573976,155.9514306448912,-0.0021628909447101,0.0007632025409507,,9225.216264497592,11151.327114366952,150,8,2025-09-10,2025-09-26 15:39:36.553,HA,C,1825513548,HAWK11,1,1,73,2,1,1,225,2,1,0,0,12,1,225,2,1,-141817.75622733062,-4792634.954072799,4197114.585417271,-2.50442,1.13706,-0.856345,29.5,65.75,89.375,0.046875,-5.17188,5.54688,0.09375,-0.015625,0.03125,4,0,41.38830122961228,-91.69493161864946,11123.088499791524,14.947996872151636,2.7232946841382546,19.328494657417178,185.603,9225.216264497592,11151.327114366952,150,False,12.017267005972915,False,141.8240202941923,169.47511091664012,False,48.683398287977475,False,False
8,1970-07-23 09:59:47.775038920,2025-09-10,2025-09-26 15:39:37.503,HA,C,2547151688,JASSM,3,113,76,2,2,1,225,9,2,0,1,26,0,0,0,0,-154032.84997733062,-4779885.608369674,4210589.261198521,-2.71064,-1.0108,0.752418,36.625,-58.25,-64.5,0.0,0.0,0.0,0.0,0.0,0.0,2,0,41.55286025237987,-91.84573018450403,10000.003148843523,155.9517061224953,-0.0013977135718612,0.0007620770954405,,9225.216264497592,11151.327114366952,150,8,2025-09-10,2025-09-26 15:39:37.403,HA,C,1826984912,HAWK11,1,1,73,2,1,1,225,2,1,0,0,12,1,225,2,1,-141778.26208670562,-4792551.614229049,4197220.444792271,-2.37316,1.1223,-0.822885,33.5,68.25,86.25,-0.21875,-4.76562,5.10938,-0.00585938,-0.0117188,0.0351562,4,0,41.38951855050348,-91.69448932910534,11144.797668636998,16.06338407234154,1.0655555501697154,26.255711886188177,184.956,9225.216264497592,11151.327114366952,150,False,11.923295186780255,False,140.0420603335598,169.14357514319136,False,50.81402676509002,False,False
8,1970-07-23 09:59:47.785036270,2025-09-10,2025-09-26 15:39:38.503,HA,C,2548285130,JASSM,3,113,76,2,2,1,225,9,2,0,1,26,0,0,0,0,-153998.04040701812,-4779941.141572799,4210527.903776646,-2.71064,-1.0108,0.752418,36.625,-58.25,-64.5,0.0,0.0,0.0,0.0,0.0,0.0,2,0,41.55212239098306,-91.84529193614004,9999.999741654165,155.9519968152515,-0.0005902500134539,0.0007608918724517,,9225.216264497592,11151.327114366952,150,8,2025-09-10,2025-09-26 15:39:38.607,HA,C,1828297212,HAWK11,1,1,73,2,1,1,225,2,1,0,0,12,1,225,2,1,-141739.29528983062,-4792473.966768111,4197312.585417271,-2.38965,1.06094,-0.770921,37.0,70.625,83.625,-0.171875,-5.375,5.71875,-0.09375,-0.0078125,0.046875,4,0,41.39060929773705,-91.69405131207928,11150.800645203031,19.356784300883103,-0.9462286783902868,22.798752384234223,186.251,9225.216264497592,11151.327114366952,150,False,11.83331583304833,False,138.43041571815854,168.84036534967396,False,52.71408078440662,False,False
8,1970-07-23 09:59:47.794036837,2025-09-10,2025-09-26 15:39:39.403,HA,C,2549418332,JASSM,3,113,76,2,2,1,225,9,2,0,1,26,0,0,0,0,-153963.23864920562,-4779996.663057174,4210466.558073521,-2.71064,-1.0108,0.752418,36.625,-58.25,-64.5,0.0,0.0,0.0,0.0,0.0,0.0,2,0,41.55138467515975,-91.84485379581083,9999.99784728654,155.95228743210882,0.0002170491920169,0.0007596996536918,,9225.216264497592,11151.327114366952,150,8,2025-09-10,2025-09-26 15:39:39.513,HA,C,1829331144,HAWK11,1,1,73,2,1,1,225,2,1,0,0,12,1,225,2,1,-141705.67028983062,-4792410.809541549,4197384.183073521,-2.5674,1.04301,-0.747816,39.625,72.125,82.125,0.1875,-5.70312,5.96875,-0.318359,-0.0078125,0.0195312,4,0,41.39147422811334,-91.6936719710609,11148.286090044532,20.521438956364424,-1.921319608671655,11.878046497804634,187.29,9225.216264497592,11151.327114366952,150,False,11.753216699254331,False,137.21445110882541,168.58169139507592,False,54.170322858921395,False,False
8,1970-07-23 09:59:47.804360404,2025-09-10,2025-09-26 15:39:40.436,HA,C,2550551540,JASSM,3,113,76,2,2,1,225,9,2,0,1,26,0,0,0,0,-153928.43591483062,-4780052.184541549,4210405.212370396,-2.71064,-1.0108,0.752418,36.625,-58.25,-64.5,0.0,0.0,0.0,0.0,0.0,0.0,2,0,41.5506469577598,-91.84441565375064,10000.000025157564,155.95257804587584,0.0010243518959757,0.0007585154872865,,9225.216264497592,11151.327114366952,150,8,2025-09-10,2025-09-26 15:39:40.703,HA,C,1830882042,HAWK11,1,1,73,2,1,1,225,2,1,0,0,12,1,225,2,1,-141652.68786795562,-4792315.077119674,4197489.679167271,-2.79856,1.03256,-0.733818,41.0,74.125,81.5,0.0,-6.20312,6.39062,0.00585938,0.00195312,-0.00390625,4,0,41.39276516656185,-91.69307289247033,11137.764693245528,21.224679762677912,-2.507459036735992,-1.797201044187317,189.16,9225.216264497592,11151.327114366952,150,True,11.658320212340957,False,136.7349475432571,168.2075264382059,False,55.00305254962035,False,False
8,1970-07-23 09:59:47.813036631,2025-09-10,2025-09-26 15:39:41.303,HA,C,2551684934,JASSM,3,113,76,2,2,1,225,9,2,0,1,26,0,0,0,0,-153893.62732108062,-4780107.713838424,4210343.854948521,-2.71064,-1.0108,0.752513,36.625,-58.25,-64.5,0.0,0.0,0.0,0.0,0.0,0.0,2,0,41.5499091141861,-91.84397744848168,9999.99956066347,155.95516262017742,-0.0031576165208067,0.0007573040762611,,9225.216264497592,11151.327114366952,150,8,2025-09-10,2025-09-26 15:39:41.404,HA,C,1831796674,HAWK11,1,1,73,2,1,1,225,2,1,0,0,12,1,225,2,1,-141620.86560233062,-4792257.709932174,4197551.858854771,-2.79645,1.05423,-0.73842,41.375,75.0,81.75,-0.109375,-6.54688,6.73438,-0.00195312,0.0,-0.0117188,4,0,41.39353175705116,-91.69271301617792,11129.20766426073,20.270602012959493,-2.5904312006182684,-0.8003324353653688,190.149,9225.216264497592,11151.327114366952,150,True,11.583077203371461,False,136.69387006865747,167.96151647148477,False,55.28458597858053,False,False
8,1970-07-23 09:59:47.822377595,2025-09-10,2025-09-26 15:39:42.237,HA,C,2552759058,JASSM,3,113,76,2,2,1,225,9,2,0,1,26,0,0,0,0,-153860.63903983062,-4780160.338838424,4210285.704557896,-2.71064,-1.0108,0.752513,36.625,-58.25,-64.5,0.0,0.0,0.0,0.0,0.0,0.0,2,0,41.54920984570699,-91.84356216847064,9999.998386763104,155.95543806201883,-0.0023923946486867,0.0007562081231991,,9225.216264497592,11151.327114366952,150,8,2025-09-10,2025-09-26 15:39:42.309,HA,C,1832949906,HAWK11,1,1,73,2,1,1,225,2,1,0,0,12,1,225,2,1,-141581.16833670562,-4792185.145479049,4197629.765104771,-2.76452,1.04598,-0.739475,41.75,75.75,82.25,-0.078125,-6.76562,6.95312,0.0449219,0.0,0.0292969,4,0,41.39449629478584,-91.69226442284274,11116.812638011652,20.57635086605686,-2.4092316672688074,0.6974122533425681,191.054,9225.216264497592,11151.327114366952,150,True,11.503288943783192,False,136.67087326126384,167.66428502664417,False,55.60295186155918,False,False
8,1970-07-23 09:59:47.832356985,2025-09-10,2025-09-26 15:39:43.235,HA,C,2553892070,JASSM,3,113,76,2,2,1,225,9,2,0,1,26,0,0,0,0,-153825.84216483062,-4780215.846650924,4210224.366667271,-2.71064,-1.0108,0.752513,36.625,-58.25,-64.5,0.0,0.0,0.0,0.0,0.0,0.0,2,0,41.548472256164935,-91.84312413120448,9999.99670826494,155.95572859388713,-0.0015852361047588,0.000755058895555,,9225.216264497592,11151.327114366952,150,8,2025-09-10,2025-09-26 15:39:43.309,HA,C,1834142904,HAWK11,1,1,73,2,1,1,225,2,1,0,0,12,1,225,2,1,-141538.92028983062,-4792108.930635299,4197711.800261021,-2.70316,1.02853,-0.741296,42.5,76.25,82.625,-0.125,-7.03125,7.1875,0.0136719,0.0,-0.00195312,4,0,41.39551086682932,-91.6917866324433,11104.216128159238,21.22712886775198,-2.043315041778597,3.5133753853060594,192.496,9225.216264497592,11151.327114366952,150,True,11.419729477457288,False,136.4377013237075,167.34587962835178,False,56.15399141387985,False,False
8,1970-07-23 09:59:47.841534165,2025-09-10,2025-09-26 15:39:44.153,HA,C,2554965872,JASSM,3,113,76,2,2,1,225,9,2,0,1,26,0,0,0,0,-153792.86364920562,-4780268.454072799,4210166.233854771,-2.71054,-1.0107,0.752513,36.625,-58.25,-64.5,0.0,0.0,0.0,0.0,0.0,0.0,2,0,41.54777320581445,-91.84270899328337,9999.99907713043,155.95236185469483,-0.0024948758297732,0.002492258393957,,9225.216264497592,11151.327114366952,150,8,2025-09-10,2025-09-26 15:39:43.701,HA,C,1834620104,HAWK11,1,1,73,2,1,1,225,2,1,0,0,12,1,225,2,1,-141521.67028983062,-4792078.012666549,4197745.065886021,-2.71093,1.02873,-0.741296,43.0,76.5,82.75,-0.0625,-6.9375,7.125,-0.00585938,0.0,0.0,4,0,41.39592237525127,-91.69159147396996,11099.070930279298,21.219720754188163,-2.045861000403788,3.076127110221579,192.801,9225.216264497592,11151.327114366952,150,True,11.360388165626281,False,136.2587651371744,167.1858083130702,False,56.491935178329214,False,False
8,1970-07-23 09:59:47.850074923,2025-09-10,2025-09-26 15:39:45.007,HA,C,2556099208,JASSM,3,113,76,2,2,1,225,9,2,0,1,26,0,0,0,0,-153758.05700858062,-4780323.977510299,4210104.876432896,-2.71054,-1.0107,0.752513,36.625,-58.25,-64.5,0.0,0.0,0.0,0.0,0.0,0.0,2,0,41.54703538994941,-91.84227085246638,10000.000553673975,155.9526524470257,-0.0016874761200219,0.0024910510301923,,9225.216264497592,11151.327114366952,150,8,2025-09-10,2025-09-26 15:39:44.809,HA,C,1835892636,HAWK11,1,1,73,2,1,1,225,2,1,0,0,12,1,225,2,1,-141475.46521170562,-4791996.680635299,4197832.907682896,-2.69262,1.01051,-0.746378,44.0,76.5,83.5,-0.015625,-7.1875,7.4375,0.0175781,0.0136719,0.00976562,4,0,41.39700727884314,-91.6910681954162,11086.20658598208,21.82376912236413,-1.4874673240372216,3.4000271915106004,194.121,9225.216264497592,11151.327114366952,150,True,11.275216390612306,False,135.9139616932218,166.83859989581134,False,57.191758229068945,False,False
8,1970-07-23 09:59:47.859085509,2025-09-10,2025-09-26 15:39:45.908,HA,C,2557172950,JASSM,3,113,76,2,2,1,225,9,2,0,1,26,0,0,0,0,-153725.08044608062,-4780376.579072799,4210046.745573521,-2.71054,-1.0107,0.752513,36.625,-58.25,-64.5,0.0,0.0,0.0,0.0,0.0,0.0,2,0,41.546336384079126,-91.84185575856932,10000.000604808109,155.95292774981604,-0.0009225452440117,0.0024899139750553,,9225.216264497592,11151.327114366952,150,8,2025-09-10,2025-09-26 15:39:45.903,HA,C,1837204936,HAWK11,1,1,73,2,1,1,225,2,1,0,0,12,1,225,2,1,-141426.98278983062,-4791912.618135299,4197924.479948521,-2.80517,0.999484,-0.745802,44.5,76.5,84.25,-0.078125,-7.04688,7.1875,-0.136719,-0.00585938,0.0,4,0,41.39813400616188,-91.69051865557506,11074.561972722906,22.26534962687603,-1.338850737973134,-3.488574746235912,195.612,9225.216264497592,11151.327114366952,150,True,11.19166478203438,False,135.7910786503977,166.47648067781896,False,57.68401481371482,False,False
8,1970-07-23 09:59:47.870074149,2025-09-10,2025-09-26 15:39:47.007,HA,C,2558485300,JASSM,3,113,76,2,2,1,225,9,2,0,1,26,0,0,0,0,-153684.77575858062,-4780440.870088424,4209975.694792271,-2.71054,-1.0107,0.752513,36.625,-58.25,-64.5,0.0,0.0,0.0,0.0,0.0,0.0,2,0,41.54548202697092,-91.84134843364336,10000.002009146652,155.95326421783855,1.2383618776437258e-05,0.0024885183911015,,9225.216264497592,11151.327114366952,150,8,2025-09-10,2025-09-26 15:39:47.013,HA,C,1838517234,HAWK11,1,1,73,2,1,1,225,2,1,0,0,12,1,225,2,1,-141378.30114920562,-4791828.294893111,4198016.927214146,-2.87324,1.00687,-0.755677,44.0,77.0,85.25,-0.140625,-7.17188,7.26562,-0.0351562,0.0,-0.0234375,4,0,41.399268224606736,-91.68996680806404,11064.169073919704,21.762554469811704,-0.934278704919924,-7.090149833653841,197.176,9225.216264497592,11151.327114366952,150,True,11.098381493390301,False,136.19088834691465,166.09433684194164,False,57.67084201318477,False,False
8,1970-07-23 09:59:47.880074652,2025-09-10,2025-09-26 15:39:48.007,HA,C,2559678346,JASSM,3,113,76,2,2,1,225,9,2,0,1,26,0,0,0,0,-153648.13513358062,-4780499.315400924,4209911.101042271,-2.71054,-1.0107,0.752609,36.625,-58.25,-64.5,0.0,0.0,0.0,0.0,0.0,0.0,2,0,41.544705328642266,-91.84088724116576,10000.00086436845,155.9558657621482,-0.0041300330645752,0.0024871806580725,,9225.216264497592,11151.327114366952,150,8,2025-09-10,2025-09-26 15:39:48.013,HA,C,1839789766,HAWK11,1,1,73,2,1,1,225,2,1,0,0,12,1,225,2,1,-141332.22693045562,-4791746.322236861,4198107.298307896,-2.94122,1.02556,-0.763922,42.875,77.625,86.375,-0.15625,-7.28125,7.28125,-0.00390625,0.0078125,0.0,4,0,41.40037398576391,-91.68944526287396,11055.252245994545,20.86558834025896,-0.7874176076385773,-10.233476012519,198.569,9225.216264497592,11151.327114366952,150,False,11.011042427400897,False,136.88456064494974,165.723248968356,False,57.35250186938153,False,False
8,1970-07-23 09:59:47.890364629,2025-09-10,2025-09-26 15:39:49.036,HA,C,2560871392,JASSM,3,113,76,2,2,1,225,9,2,0,1,26,0,0,0,0,-153611.49450858062,-4780557.758760299,4209846.507292271,-2.71054,-1.0107,0.752609,36.625,-58.25,-64.5,0.0,0.0,0.0,0.0,0.0,0.0,2,0,41.54392864000994,-91.8404260604777,9999.999525445544,155.95617161686843,-0.0032801011409263,0.0024859466598257,,9225.216264497592,11151.327114366952,150,8,2025-09-10,2025-09-26 15:39:49.013,HA,C,1840942998,HAWK11,1,1,73,2,1,1,225,2,1,0,0,12,1,225,2,1,-141291.31482108062,-4791671.746064986,4198190.294401646,-2.92952,1.03764,-0.777057,41.75,77.625,87.5,-0.15625,-7.39062,7.35938,-0.015625,0.0,-0.0117188,4,0,41.40138505558256,-91.68898276564389,11048.911309792387,20.1282275339719,-0.2677901273109473,-9.074411771035503,199.571,9225.216264497592,11151.327114366952,150,True,10.926969548533728,False,137.50285215952977,165.37552940242708,False,57.09072333070329,False,False
8,1970-07-23 09:59:47.901964981,2025-09-10,2025-09-26 15:39:50.196,HA,C,2562004786,JASSM,3,113,76,2,2,1,225,9,2,0,1,26,0,0,0,0,-153576.68591483062,-4780613.278291549,4209785.144011021,-2.71054,-1.0107,0.752609,36.625,-58.25,-64.5,0.0,0.0,0.0,0.0,0.0,0.0,2,0,41.54319079916423,-91.83998794968592,10000.000138819863,155.95646216729796,-0.0024726797512713,0.0024847800879579,,9225.216264497592,11151.327114366952,150,8,2025-09-10,2025-09-26 15:39:50.013,HA,C,1842056464,HAWK11,1,1,73,2,1,1,225,2,1,0,0,12,1,225,2,1,-141252.74450858062,-4791599.497041549,4198271.181120396,-2.9347,1.05461,-0.787795,40.625,78.0,88.125,-0.21875,-7.28125,7.23438,0.0117188,0.00195312,-0.00976562,4,0,41.40236763040868,-91.6885474120386,11043.895022394334,19.26496599838804,0.062272370774096,-8.683988972868836,200.207,9225.216264497592,11151.327114366952,150,True,10.846335968668619,False,138.10045618385786,165.03652623432782,False,56.8341985708687,False,False
8,1970-07-23 09:59:47.910736034,2025-09-10,2025-09-26 15:39:51.073,HA,C,2563198108,JASSM,3,113,76,2,2,1,225,9,2,0,1,26,0,0,0,0,-153540.03747733062,-4780671.733369674,4209720.532682896,-2.71054,-1.0107,0.752609,36.625,-58.25,-64.5,0.0,0.0,0.0,0.0,0.0,0.0,2,0,41.54241391991084,-91.8395266924788,9999.997668214715,155.95676806360402,-0.0016225471044131,0.0024835369589297,,9225.216264497592,11151.327114366952,150,8,2025-09-10,2025-09-26 15:39:50.903,HA,C,1843209696,HAWK11,1,1,73,2,1,1,225,2,1,0,0,12,1,225,2,1,-141213.92224295562,-4791523.593721236,4198356.495573521,-2.88686,1.05921,-0.795177,39.5,78.0,88.75,-0.15625,-7.09375,7.03125,0.0839844,0.00585938,-0.00585938,4,0,41.4034018754946,-91.68811032164292,11039.485773193426,18.94387022278261,0.3949598945735787,-5.756573359585347,200.696,9225.216264497592,11151.327114366952,150,True,10.761264601696746,False,138.65670013553725,164.6780749696784,False,56.64106898985258,False,False
8,1970-07-23 09:59:47.920093675,2025-09-10,2025-09-26 15:39:52.009,HA,C,2564450556,JASSM,3,113,76,2,2,1,225,9,2,0,1,26,0,0,0,0,-153501.57165701812,-4780733.084932174,4209652.720182896,-2.71054,-1.0107,0.752609,36.625,-58.25,-64.5,0.0,0.0,0.0,0.0,0.0,0.0,2,0,41.54159854640697,-91.83904257444628,10000.000691270166,155.957089115685,-0.0007302869801027,0.0024822450164394,,9225.216264497592,11151.327114366952,150,8,2025-09-10,2025-09-26 15:39:52.107,HA,C,1844601528,HAWK11,1,1,73,2,1,1,225,2,1,0,0,12,1,225,2,1,-141168.16833670562,-4791432.473604049,4198459.151823521,-2.90095,1.07398,-0.802751,38.875,78.375,89.0,-0.21875,-7.21875,6.98438,-0.148438,0.0,0.00390625,4,0,41.40464491932707,-91.6875957574531,11034.781228049353,18.24115737052205,0.6016141375797637,-5.963905731249911,200.879,9225.216264497592,11151.327114366952,150,True,10.6667515889087,False,138.99313319761643,164.2530331681511,False,56.729225640906556,False,False
8,1970-07-23 09:59:47.930075652,2025-09-10,2025-09-26 15:39:53.007,HA,C,2565643578,JASSM,3,113,76,2,2,1,225,9,2,0,1,26,0,0,0,0,-153464.93200858062,-4780791.522432174,4209588.124479771,-2.71054,-1.0107,0.752609,36.625,-58.25,-64.5,0.0,0.0,0.0,0.0,0.0,0.0,2,0,41.54082187156572,-91.83858145184892,9999.99919568462,155.95739491309203,0.000119621417311,0.0024810102215976,,9225.216264497592,11151.327114366952,150,8,2025-09-10,2025-09-26 15:39:53.013,HA,C,1845754760,HAWK11,1,1,73,2,1,1,225,2,1,0,0,12,1,225,2,1,-141131.74060233062,-4791357.356416549,4198543.894011021,-3.00996,1.07551,-0.803902,37.625,78.75,89.5,-0.015625,-6.92188,6.82812,-0.0683594,0.00195312,-0.0195312,4,0,41.40567020197991,-91.68718696900656,11031.25384762063,18.161735406599373,0.6441443967284147,-12.147220549032497,201.685,9225.216264497592,11151.327114366952,150,False,10.58222926920159,False,139.62600611220637,163.88938414925641,False,56.46115182919812,False,False
