Subject_cm,Timestamp,SampleDate_cm,SampleTime_cm,Configuration_cm,Scenario_cm,DisTime_cm,MarkingTxt_cm,Application_cm,EntId_cm,Site_cm,ExerciseId_cm,ForceId_cm,Category_cm,Country_cm,Domain_cm,Kind_cm,Extra_cm,Specific_cm,Subcategory_cm,AltCategory_cm,AltCountry_cm,AltDomain_cm,AltKind_cm,ECEF_X_cm,ECEF_Y_cm,ECEF_Z_cm,OriPhi_cm,OriPsi_cm,OriTheta_cm,LinVelX_cm,LinVelY_cm,LinVelZ_cm,LinAccX_cm,LinAccY_cm,LinAccZ_cm,AngVelX_cm,AngVelY_cm,AngVelZ_cm,DrAlg_cm,Appearance_cm,Latitude_cm,Longitude_cm,Altitude_cm,Heading_cm,Pitch_cm,Roll_cm,CalibratedAirspeed_cm,CM_Altitude_Lead_cm,CM_Altitude_Wing_cm,CM_Airspeed_cm,Subject_ac,SampleDate_ac,SampleTime_ac,Configuration_ac,Scenario_ac,DisTime_ac,MarkingTxt_ac,Application_ac,EntId_ac,Site_ac,ExerciseId_ac,ForceId_ac,Category_ac,Country_ac,Domain_ac,Kind_ac,Extra_ac,Specific_ac,Subcategory_ac,AltCategory_ac,AltCountry_ac,AltDomain_ac,AltKind_ac,ECEF_X_ac,ECEF_Y_ac,ECEF_Z_ac,OriPhi_ac,OriPsi_ac,OriTheta_ac,LinVelX_ac,LinVelY_ac,LinVelZ_ac,LinAccX_ac,LinAccY_ac,LinAccZ_ac,AngVelX_ac,AngVelY_ac,AngVelZ_ac,DrAlg_ac,Appearance_ac,Latitude_ac,Longitude_ac,Altitude_ac,Heading_ac,Pitch_ac,Roll_ac,CalibratedAirspeed_ac,CM_Altitude_Lead_ac,CM_Altitude_Wing_ac,CM_Airspeed_ac,Bank_Angle_Condition,distance_nm,Distance_Condition,angle_between_vel,angle_between_pos,Cone_Condition,angle_between_pos_nose,Nose_Cone_Condition,Intercept_Criteria
8,1970-07-23 09:59:47.312771493,2025-09-10,2025-09-26 15:38:51.277,HA,C,2491853656,JASSM,3,116,76,2,2,1,225,9,2,0,1,26,0,0,0,0,-180658.86853201807,-4777947.329072799,4211723.144011021,-2.36693,-0.400848,0.381002,81.875,-34.625,-35.5,0.0,0.0,0.0,0.0,0.0,0.0,2,0,41.5664975526651,-92.16537801252116,10000.00422649194,119.79801888119492,-0.0038563898483674,0.004554656550613,,9225.216264497592,11151.327114366952,150,8,2025-09-10,2025-09-26 15:38:51.241,HA,C,2449183504,AMBUSH51,1,1,48,2,1,1,225,2,1,0,0,9,1,225,2,1,-140443.5265001,-4794885.327295711,4193730.529267848,2.39082,2.65546,-0.460775,-87.038,48.3497,51.2144,-0.184879,-7.14677,6.3247,-0.00411854,0.00212741,-0.00190687,4,0,41.35230679251525,-91.67772966101587,9223.876715231536,-53.49970580960197,-0.1621173730189929,-0.6643088280368972,195.074,9225.216264497592,11151.327114366952,150,True,25.38464398234134,False,172.2040469619411,179.3567296284611,False,7.410827277951791,True,False
8,1970-07-23 09:59:47.322341986,2025-09-10,2025-09-26 15:38:52.234,HA,C,2493106352,JASSM,3,116,76,2,2,1,225,9,2,0,1,26,0,0,0,0,-180572.91638358065,-4777983.766572799,4211685.743620396,-2.36693,-0.400848,0.381002,81.875,-34.625,-35.5,0.0,0.0,0.0,0.0,0.0,0.0,2,0,41.566047699271934,-92.16433227979132,10000.000279884072,119.79871271021264,-0.0029538800071475,0.0045530987353531,,9225.216264497592,11151.327114366952,150,8,2025-09-10,2025-09-26 15:38:52.307,HA,C,2450456036,AMBUSH51,1,1,48,2,1,1,225,2,1,0,0,9,1,225,2,1,-140535.8038677073,-4794833.689691113,4193784.1949783526,2.38961,2.65483,-0.46229,-87.1341,48.3926,51.0127,-0.0608757,-7.4204,6.43879,0.00298877,-0.00101013,0.000519108,4,0,41.352960208351575,-91.67884943979932,9219.741734328813,-53.41809890928403,-0.1186141439297987,-0.7496146644304388,195.27,9225.216264497592,11151.327114366952,150,True,25.26742947711516,False,172.28642842307906,179.3651148632664,False,7.352150299780958,True,False
8,1970-07-23 09:59:47.333563084,2025-09-10,2025-09-26 15:38:53.356,HA,C,2494359052,JASSM,3,116,76,2,2,1,225,9,2,0,1,26,0,0,0,0,-180486.96423514312,-4778020.204072799,4211648.341276646,-2.36693,-0.400848,0.381098,81.875,-34.625,-35.5,0.0,0.0,0.0,0.0,0.0,0.0,2,0,41.56559782318216,-92.16328656156853,9999.997279124753,119.80324854417808,-0.0059774174647864,0.0045512602780771,,9225.216264497592,11151.327114366952,150,8,2025-09-10,2025-09-26 15:38:53.341,HA,C,2451688800,AMBUSH51,1,1,48,2,1,1,225,2,1,0,0,9,1,225,2,1,-140626.68320194102,-4794782.942991287,4193836.9401654433,2.39155,2.65501,-0.461204,-87.327,48.34,51.0571,-0.194443,-7.30367,6.50437,0.00880404,0.0017529,0.000485819,4,0,41.35360234282396,-91.67995223785404,9215.710791352009,-53.467673615479335,-0.1572851660671007,-0.6341467333522006,195.38,9225.216264497592,11151.327114366952,150,True,25.15121615023862,False,172.3478557658322,179.37295486798428,False,7.305769019849768,True,False
8,1970-07-23 09:59:47.344772490,2025-09-10,2025-09-26 15:38:54.477,HA,C,2495671402,JASSM,3,116,76,2,2,1,225,9,2,0,1,26,0,0,0,0,-180396.91931326807,-4778058.375947799,4211609.159636021,-2.36693,-0.400848,0.381098,81.875,-34.625,-35.5,0.0,0.0,0.0,0.0,0.0,0.0,2,0,41.5651265304798,-92.1621910653638,10000.001748669652,119.80397537759346,-0.005031933623476,0.0045496928262889,,9225.216264497592,11151.327114366952,150,8,2025-09-10,2025-09-26 15:38:54.441,HA,C,2453001100,AMBUSH51,1,1,48,2,1,1,225,2,1,0,0,9,1,225,2,1,-140722.31798159008,-4794729.765837612,4193892.301906721,2.39081,2.65536,-0.461744,-87.4828,48.3393,50.9693,-0.199578,-7.48548,6.62586,-0.000271518,0.00371074,0.00249567,4,0,41.354275760768864,-91.68111268708316,9211.71933697001,-53.4607189014833,-0.121381960706497,-0.6676881953856645,195.416,9225.216264497592,11151.327114366952,150,True,25.029250722253675,False,172.4249005470802,179.38077370825945,False,7.249189363766355,True,False
8,1970-07-23 09:59:47.354766788,2025-09-10,2025-09-26 15:38:55.476,HA,C,2496924102,JASSM,3,116,76,2,2,1,225,9,2,0,1,26,0,0,0,0,-180310.96716483065,-4778094.811494674,4211571.755339146,-2.36693,-0.400848,0.381098,81.875,-34.625,-35.5,0.0,0.0,0.0,0.0,0.0,0.0,2,0,41.56467663334779,-92.16114537772953,10000.000347759402,119.80466915799732,-0.0041294167565054,0.0045481823642517,,9225.216264497592,11151.327114366952,150,8,2025-09-10,2025-09-26 15:38:55.509,HA,C,2454273632,AMBUSH51,1,1,48,2,1,1,225,2,1,0,0,9,1,225,2,1,-140816.35345476354,-4794677.598735308,4193946.8718797257,2.38663,2.65656,-0.461173,-87.6244,48.3636,50.9486,-0.0996039,-7.12884,6.62802,0.000720926,0.00329462,-0.0015927,4,0,41.35493809363805,-91.68225371145216,9208.390036044397,-53.52897416110975,-0.1029927292094302,-0.8761718440053872,195.722,9225.216264497592,11151.327114366952,150,True,24.910947341798398,False,172.47026826939157,179.3883245001394,False,7.223244413008933,True,False
8,1970-07-23 09:59:47.364081568,2025-09-10,2025-09-26 15:38:56.408,HA,C,2498117148,JASSM,3,116,76,2,2,1,225,9,2,0,1,26,0,0,0,0,-180229.10778983065,-4778129.510713424,4211536.132292271,-2.36693,-0.400848,0.381098,81.875,-34.5,-35.5,0.0,0.0,0.0,0.0,0.0,0.0,2,0,41.564248159452085,-92.16014949659284,10000.00083681988,119.80532988764386,-0.0032698799468459,0.0045467517211693,,9225.216264497592,11151.327114366952,150,8,2025-09-10,2025-09-26 15:38:56.274,HA,C,2455188264,AMBUSH51,1,1,48,2,1,1,225,2,1,0,0,9,1,225,2,1,-140883.6329563361,-4794640.555283428,4193985.656878856,2.3823,2.65728,-0.461364,-87.7379,48.0973,51.0071,-0.0720404,-7.4409,6.49019,0.000814553,-0.00215862,0.00168424,4,0,41.35540855432574,-91.68306999545484,9206.143532831804,-53.5492931360458,-0.0693096916502664,-1.106117695326948,195.722,9225.216264497592,11151.327114366952,150,True,24.813614796624307,False,172.5146249300573,179.4166320318691,False,7.142404846297635,True,False
8,1970-07-23 09:59:47.375061210,2025-09-10,2025-09-26 15:38:57.506,HA,C,2499369846,JASSM,3,116,76,2,2,1,225,9,2,0,1,26,0,0,0,0,-180143.15661795562,-4778165.942354049,4211498.727995396,-2.36693,-0.400848,0.381098,81.875,-34.5,-35.5,0.0,0.0,0.0,0.0,0.0,0.0,2,0,41.563798266772665,-92.15910385073956,10000.000091367634,119.80602362828624,-0.0023673831545187,0.0045452562064814,,9225.216264497592,11151.327114366952,150,8,2025-09-10,2025-09-26 15:38:57.442,HA,C,2456580096,AMBUSH51,1,1,48,2,1,1,225,2,1,0,0,9,1,225,2,1,-140985.7563089083,-4794584.53651124,4194044.510631296,2.37511,2.65737,-0.458968,-88.0191,47.9552,50.9583,-0.260602,-7.50738,6.51613,-0.00192559,0.00268709,0.00374195,4,0,41.35612128890989,-91.68430897976997,9203.217471344447,-53.646324344376765,-0.1662459016668713,-1.5152388550708058,195.771,9225.216264497592,11151.327114366952,150,True,24.68999257996827,False,172.65449204836318,179.42597252043757,False,7.019386850339229,True,False
8,1970-07-23 09:59:47.385061382,2025-09-10,2025-09-26 15:38:58.506,HA,C,2500562894,JASSM,3,116,76,2,2,1,225,9,2,0,1,26,0,0,0,0,-180061.29626639312,-4778200.639619674,4211463.102995396,-2.36693,-0.400848,0.381098,81.875,-34.5,-35.5,0.0,0.0,0.0,0.0,0.0,0.0,2,0,41.56336977385193,-92.15810798576533,10000.001111712823,119.80668433574242,-0.0015078385584998,0.0045438283983126,,9225.216264497592,11151.327114366952,150,8,2025-09-10,2025-09-26 15:38:58.507,HA,C,2457852628,AMBUSH51,1,1,48,2,1,1,225,2,1,0,0,9,1,225,2,1,-141079.74787981185,-4794533.576095057,4194098.9549175855,2.3758,2.6571,-0.457449,-88.2198,45.6591,52.9052,-0.185297,-7.11964,6.42476,0.00361087,-0.00280152,-0.00100181,4,0,41.35677557623351,-91.68544912160029,9202.603763542193,-53.69522261626037,-0.2390486665070458,-1.4828076543858235,195.881,9225.216264497592,11151.327114366952,150,True,24.574543745766587,False,172.52189001763486,179.43470542150675,False,7.076633822252832,True,False
8,1970-07-23 09:59:47.395079934,2025-09-10,2025-09-26 15:38:59.507,HA,C,2501815592,JASSM,3,116,76,2,2,1,225,9,2,0,1,26,0,0,0,0,-179975.34411795562,-4778237.071260299,4211425.694792271,-2.36693,-0.400752,0.381098,81.875,-34.5,-35.5,0.0,0.0,0.0,0.0,0.0,0.0,2,0,41.56291983645583,-92.15706235654108,10000.001920527397,119.80373373172984,-0.0041717679977608,0.0024993318150022,,9225.216264497592,11151.327114366952,150,8,2025-09-10,2025-09-26 15:38:59.641,HA,C,2459204692,AMBUSH51,1,1,48,2,1,1,225,2,1,0,0,9,1,225,2,1,-141180.41358736338,-4794478.678885567,4194155.38138468,2.37372,2.65958,-0.457649,-88.5907,47.8471,50.5351,-0.178837,-7.51413,6.71264,-0.00326549,0.00382517,0.00473439,4,0,41.35746547607663,-91.68667035969462,9197.087674743005,-53.782718630350615,-0.1431558617822191,-1.538505335271119,195.844,9225.216264497592,11151.327114366952,150,True,24.452302846246564,False,172.99335386216288,179.44140388189592,False,6.723210199805928,True,False
8,1970-07-23 09:59:47.405090724,2025-09-10,2025-09-26 15:39:00.509,HA,C,2503008640,JASSM,3,116,76,2,2,1,225,9,2,0,1,26,0,0,0,0,-179893.48474295562,-4778271.764619674,4211390.067839146,-2.36693,-0.400752,0.381098,81.875,-34.5,-35.5,0.0,0.0,0.0,0.0,0.0,0.0,2,0,41.56249133572448,-92.15606653199607,9999.99886165208,119.80439440098796,-0.003312237036739,0.0024978528755189,,9225.216264497592,11151.327114366952,150,8,2025-09-10,2025-09-26 15:39:00.407,HA,C,2460119324,AMBUSH51,1,1,48,2,1,1,225,2,1,0,0,9,1,225,2,1,-141248.39685081027,-4794441.952192002,4194193.9035932375,2.37428,2.66181,-0.457882,-88.7386,47.5253,50.6295,-0.270734,-7.44366,6.67823,0.00433284,0.00780743,-0.00551046,4,0,41.35793212431967,-91.6874949995468,9195.122760748423,-53.85848699107201,-0.0553659019959871,-1.4501641340437794,195.954,9225.216264497592,11151.327114366952,150,True,24.35476559711371,False,173.0905278140398,179.44597677170827,False,6.62739592047054,True,False
8,1970-07-23 09:59:47.416040933,2025-09-10,2025-09-26 15:39:01.604,HA,C,2504261456,JASSM,3,116,76,2,2,1,225,9,2,0,1,26,0,0,0,0,-179807.52478201812,-4778308.196260299,4211352.655729771,-2.36693,-0.400752,0.381098,81.875,-34.5,-35.5,0.0,0.0,0.0,0.0,0.0,0.0,2,0,41.56204135514675,-92.15502083754932,10000.000594214618,119.80508814988292,-0.0024096465714408,0.0024962949994058,,9225.216264497592,11151.327114366952,150,8,2025-09-10,2025-09-26 15:39:01.540,HA,C,2461471390,AMBUSH51,1,1,48,2,1,1,225,2,1,0,0,9,1,225,2,1,-141349.71758082154,-4794387.478636527,4194251.219459243,2.37117,2.66536,-0.456558,-88.9531,47.2624,50.6222,-0.0475688,-7.43015,6.53548,0.00409357,0.0033508,0.00587456,4,0,41.358625377918834,-91.6887239538101,9192.639204950032,-54.04529782094554,0.0135956367910512,-1.538522892582623,196.04,9225.216264497592,11151.327114366952,150,True,24.232122174447237,False,173.223583346886,179.45291525499928,False,6.505433984281659,True,False
8,1970-07-23 09:59:47.427060761,2025-09-10,2025-09-26 15:39:02.706,HA,C,2505573686,JASSM,3,116,76,2,2,1,225,9,2,0,1,26,0,0,0,0,-179717.48767264312,-4778346.354463424,4211313.466276646,-2.36693,-0.400752,0.381194,81.875,-34.5,-35.5,0.0,0.0,0.0,0.0,0.0,0.0,2,0,41.561570010622354,-92.15392556119062,9999.99828160126,119.8096569481483,-0.0053901564910446,0.0024944237734887,,9225.216264497592,11151.327114366952,150,8,2025-09-10,2025-09-26 15:39:02.641,HA,C,2462783688,AMBUSH51,1,1,48,2,1,1,225,2,1,0,0,9,1,225,2,1,-141447.27903903218,-4794335.553212469,4194306.209961895,2.37503,2.66761,-0.457736,-89.2022,47.0921,50.5426,-0.193791,-7.59971,6.78416,0.00590577,0.00414142,-0.00723943,4,0,41.35928842188335,-91.68990714983047,9191.122092093412,-54.08529633898639,0.1425166571703328,-1.260574215055143,196.076,9225.216264497592,11151.327114366952,150,True,24.109604893931575,False,173.36730605720555,179.45910871215057,False,6.375760064038422,True,False
8,1970-07-23 09:59:47.437079982,2025-09-10,2025-09-26 15:39:03.707,HA,C,2506766734,JASSM,3,116,76,2,2,1,225,9,2,0,1,26,0,0,0,0,-179635.62829764312,-4778381.045869674,4211277.837370396,-2.36693,-0.400752,0.381194,81.875,-34.5,-35.5,0.0,0.0,0.0,0.0,0.0,0.0,2,0,41.56114148112651,-92.15292977897144,10000.001029794324,119.8103175717989,-0.0045306250565832,0.0024930007268906,,9225.216264497592,11151.327114366952,150,8,2025-09-10,2025-09-26 15:39:03.674,HA,C,2464016454,AMBUSH51,1,1,48,2,1,1,225,2,1,0,0,9,1,225,2,1,-141540.05633621782,-4794286.622449696,4194358.31128969,2.3742,2.67257,-0.457744,-89.3078,46.7695,50.4997,-0.224389,-7.51636,6.80424,-0.00504648,-0.000398434,0.00309697,4,0,41.35991497429517,-91.6910321893652,9190.372776854198,-54.27308459428024,0.3169359493328964,-1.1831010563264377,195.966,9225.216264497592,11151.327114366952,150,True,23.99558745473634,False,173.48957482398916,179.46468413695285,False,6.261138883791953,True,False
8,1970-07-23 09:59:47.447059332,2025-09-10,2025-09-26 15:39:04.705,HA,C,2507960040,JASSM,3,116,76,2,2,1,225,9,2,0,1,26,0,0,0,0,-179553.75036795562,-4778415.743135299,4211242.198698521,-2.36693,-0.400752,0.381194,81.875,-34.5,-35.5,0.0,0.0,0.0,0.0,0.0,0.0,2,0,41.56071284641705,-92.15193378510656,9999.99990035789,119.81097833026392,-0.0036708996045298,0.0024915774856531,,9225.216264497592,11151.327114366952,150,8,2025-09-10,2025-09-26 15:39:04.841,HA,C,2465408286,AMBUSH51,1,1,48,2,1,1,225,2,1,0,0,9,1,225,2,1,-141644.44041316997,-4794231.982084569,4194416.923754199,2.37658,2.67413,-0.458028,-89.467,46.3377,50.6297,-0.327507,-7.57024,6.77239,0.0030824,-0.00631356,-0.0067921,4,0,41.36061740262245,-91.6922978560811,9190.536771755797,-54.32175992841884,0.3846333787713232,-1.0076996225907575,196.076,9225.216264497592,11151.327114366952,150,True,23.873813028597112,False,173.5915684685261,179.47087667313082,False,6.160935188158909,True,False
8,1970-07-23 09:59:47.457062748,2025-09-10,2025-09-26 15:39:05.706,HA,C,2509212480,JASSM,3,116,76,2,2,1,225,9,2,0,1,26,0,0,0,0,-179467.81579764312,-4778452.159150924,4211204.792448521,-2.36693,-0.400752,0.381194,81.875,-34.5,-35.5,0.0,0.0,0.0,0.0,0.0,0.0,2,0,41.56026295510679,-92.15088845904656,9999.998939201185,119.81167181048733,-0.0027685738315945,0.0024900744479875,,9225.216264497592,11151.327114366952,150,8,2025-09-10,2025-09-26 15:39:05.574,HA,C,2466283152,AMBUSH51,1,1,48,2,1,1,225,2,1,0,0,9,1,225,2,1,-141710.1341618758,-4794198.016248787,4194453.54279524,2.37517,2.67699,-0.458457,-89.5353,46.2026,50.4541,-0.184418,-7.49214,6.51553,0.00223144,-0.000841601,-0.00550005,4,0,41.36105514445217,-91.693094263982,9191.100852697811,-54.413117339547824,0.5031365285332925,-1.0169003745679204,196.076,9225.216264497592,11151.327114366952,150,True,23.775685451194676,False,173.70203083150045,179.47402597601848,False,6.061084885016343,True,False
8,1970-07-23 09:59:47.467083130,2025-09-10,2025-09-26 15:39:06.708,HA,C,2510405528,JASSM,3,116,76,2,2,1,225,9,2,0,1,26,0,0,0,0,-179385.95544608062,-4778486.848604049,4211169.159636021,-2.36693,-0.400752,0.381194,81.875,-34.5,-35.5,0.0,0.0,0.0,0.0,0.0,0.0,2,0,41.55983438478057,-92.1498927061434,10000.002682155566,119.81233239762707,-0.0019090280055672,0.0024886427871921,,9225.216264497592,11151.327114366952,150,8,2025-09-10,2025-09-26 15:39:06.708,HA,C,2467635218,AMBUSH51,1,1,48,2,1,1,225,2,1,0,0,9,1,225,2,1,-141810.9914094155,-4794146.009313622,4194509.943149446,2.37516,2.68009,-0.459008,-89.5882,45.7403,50.5397,-0.432002,-7.63937,6.82794,-0.00431203,-0.00114953,-0.0127801,4,0,41.36172757206785,-91.69431693174715,9192.708498159824,-54.50915915537492,0.6360338082717615,-0.9396085541070764,196.003,9225.216264497592,11151.327114366952,150,True,23.65649751377445,False,173.78577654220413,179.47947219239902,False,5.977726947765921,True,False
8,1970-07-23 09:59:47.478360921,2025-09-10,2025-09-26 15:39:07.836,HA,C,2511658226,JASSM,3,116,76,2,2,1,225,9,2,0,1,26,0,0,0,0,-179300.00329764312,-4778523.268525924,4211131.743620396,-2.36693,-0.400657,0.381194,81.875,-34.5,-35.5,0.0,0.0,0.0,0.0,0.0,0.0,2,0,41.55938438971588,-92.14884719617118,9999.998575114543,119.80938193418852,-0.0045729626168561,0.0004436986967254,,9225.216264497592,11151.327114366952,150,8,2025-09-10,2025-09-26 15:39:07.841,HA,C,2468987282,AMBUSH51,1,1,48,2,1,1,225,2,1,0,0,9,1,225,2,1,-141912.98988286842,-4794093.547977533,4194567.243729804,2.38031,2.68296,-0.45918,-89.5459,45.491,50.6132,-0.0656541,-7.30695,6.54473,0.000444207,0.00237292,0.000171649,4,0,41.36240856803399,-91.6955534123346,9195.24084191312,-54.6108690374573,0.7447903431251934,-0.5732044839668015,195.93,9225.216264497592,11151.327114366952,150,True,23.53394463619131,False,173.79651528130566,179.48486478518103,False,5.97490912036235,True,False
8,1970-07-23 09:59:47.488337378,2025-09-10,2025-09-26 15:39:08.833,HA,C,2512910924,JASSM,3,116,76,2,2,1,225,9,2,0,1,26,0,0,0,0,-179214.05017264312,-4778559.688447799,4211094.327604771,-2.36693,-0.400657,0.381194,81.875,-34.5,-35.5,0.0,0.0,0.0,0.0,0.0,0.0,2,0,41.55893438532841,-92.14780168901132,9999.9995755133,119.81007551644306,-0.003670449140203,0.0004421477632211,,9225.216264497592,11151.327114366952,150,8,2025-09-10,2025-09-26 15:39:08.841,HA,C,2470180282,AMBUSH51,1,1,48,2,1,1,225,2,1,0,0,9,1,225,2,1,-142002.2014866686,-4794048.22187259,4194617.091440468,2.37988,2.68264,-0.460128,-89.6156,45.3504,50.5332,-0.222785,-7.6647,6.64491,0.00758273,0.00688157,0.00487171,4,0,41.36299904043289,-91.69663470693084,9198.253056494928,-54.56258478542673,0.7743119865213554,-0.6052040525676449,195.82,9225.216264497592,11151.327114366952,150,True,23.42014490164232,False,173.87381652975776,179.4891506036167,False,5.909254724760279,True,False
8,1970-07-23 09:59:47.499083618,2025-09-10,2025-09-26 15:39:09.908,HA,C,2514163624,JASSM,3,116,76,2,2,1,225,9,2,0,1,26,0,0,0,0,-179128.09802420562,-4778596.108369674,4211056.909636021,-2.36693,-0.400657,0.381194,81.875,-34.5,-35.5,0.0,0.0,0.0,0.0,0.0,0.0,2,0,41.55848435802902,-92.14675620804977,10000.001612200947,119.81076907514996,-0.0027679365374052,0.0004405808372151,,9225.216264497592,11151.327114366952,150,8,2025-09-10,2025-09-26 15:39:09.907,HA,C,2471452814,AMBUSH51,1,1,48,2,1,1,225,2,1,0,0,9,1,225,2,1,-142097.88071256425,-4793999.829144249,4194670.686040902,2.38192,2.68593,-0.460912,-89.614,44.9886,50.6698,-0.256872,-7.39701,6.58239,0.0106578,0.00834006,-0.00336328,4,0,41.36363190346221,-91.6977943364514,9202.319287804654,-54.65611988100932,0.923675567008746,-0.4054865587616335,195.514,9225.216264497592,11151.327114366952,150,True,23.30202756176371,False,173.8907965796457,179.4937499114884,False,5.893410860865589,True,False
8,1970-07-23 09:59:47.509080057,2025-09-10,2025-09-26 15:39:10.908,HA,C,2515416322,JASSM,3,116,76,2,2,1,225,9,2,0,1,26,0,0,0,0,-179042.14489920562,-4778632.524385299,4211019.491667271,-2.36684,-0.400657,0.381194,81.875,-34.5,-35.5,0.0,0.0,0.0,0.0,0.0,0.0,2,0,41.55803434471157,-92.14571073165386,9999.99917337932,119.8114626246578,-0.0018654291044844,0.0059305100700509,,9225.216264497592,11151.327114366952,150,8,2025-09-10,2025-09-26 15:39:10.941,HA,C,2472685578,AMBUSH51,1,1,48,2,1,1,225,2,1,0,0,9,1,225,2,1,-142191.17232139935,-4793952.906186926,4194722.902081418,2.38075,2.68679,-0.463202,-89.5818,44.7452,50.6583,-0.0763626,-7.43434,6.52668,0.00482594,0.00149075,0.000373467,4,0,41.36424712578516,-91.6989249564714,9206.847210684542,-54.599471293420734,1.050726306624351,-0.4494540049239031,195.282,9225.216264497592,11151.327114366952,150,True,23.185569113182318,False,173.9284513858081,179.49796795519035,False,5.863487309186663,True,False
8,1970-07-23 09:59:47.519080044,2025-09-10,2025-09-26 15:39:11.908,HA,C,2516609494,JASSM,3,116,76,2,2,1,225,9,2,0,1,26,0,0,0,0,-178960.27673514312,-4778667.211885299,4210983.849089146,-2.36684,-0.400657,0.38129,81.875,-34.5,-35.5,0.0,0.0,0.0,0.0,0.0,0.0,2,0,41.55760567701981,-92.14471495450726,10000.000666804615,119.8159655015014,-0.0049315748739538,0.0059288135009099,,9225.216264497592,11151.327114366952,150,8,2025-09-10,2025-09-26 15:39:11.875,HA,C,2473799044,AMBUSH51,1,1,48,2,1,1,225,2,1,0,0,9,1,225,2,1,-142275.11673774026,-4793910.979488541,4194769.743389628,2.38124,2.68727,-0.46422,-89.5265,44.7324,50.3681,-0.242378,-7.44371,6.63765,-0.000498302,0.00401867,0.000989323,4,0,41.364797977844205,-91.69994220923786,9211.343137854135,-54.57815067112612,1.1110152797214008,-0.4092452872971673,195.062,9225.216264497592,11151.327114366952,150,True,23.078018547236642,False,174.02288630390402,179.50144976156304,False,5.7886333452790195,True,False
8,1970-07-23 09:59:47.530058907,2025-09-10,2025-09-26 15:39:13.005,HA,C,2517862068,JASSM,3,116,76,2,2,1,225,9,2,0,1,26,0,0,0,0,-178874.33239920562,-4778703.622041549,4210946.433073521,-2.36684,-0.400657,0.38129,81.875,-34.5,-35.5,0.0,0.0,0.0,0.0,0.0,0.0,2,0,41.55715569122088,-92.14366961429008,9999.999058678142,119.81665894872869,-0.0040291601717044,0.0059273309895418,,9225.216264497592,11151.327114366952,150,8,2025-09-10,2025-09-26 15:39:13.007,HA,C,2475151110,AMBUSH51,1,1,48,2,1,1,225,2,1,0,0,9,1,225,2,1,-142376.71363949956,-4793860.33038599,4194826.685330495,2.38088,2.68797,-0.464116,-89.5048,44.2797,50.5772,-0.29946,-7.55836,6.59804,0.00418512,0.00244782,0.00396873,4,0,41.36546578639544,-91.70117336676874,9217.56715918677,-54.60909920446137,1.1322594321818815,-0.412091796917329,195.025,9225.216264497592,11151.327114366952,150,True,22.956079936428065,False,174.01420052263913,179.50575001279867,False,5.794582603440698,True,False
8,1970-07-23 09:59:47.540362563,2025-09-10,2025-09-26 15:39:14.036,HA,C,2519114872,JASSM,3,116,76,2,2,1,225,9,2,0,1,26,0,0,0,0,-178788.37146170562,-4778740.040010299,4210909.007292271,-2.36684,-0.400657,0.38129,81.875,-34.5,-35.5,0.0,0.0,0.0,0.0,0.0,0.0,2,0,41.55670558721776,-92.1426240863049,9999.999035942015,119.81735251434812,-0.0031265600452518,0.0059258294173574,,9225.216264497592,11151.327114366952,150,8,2025-09-10,2025-09-26 15:39:14.140,HA,C,2476503174,AMBUSH51,1,1,48,2,1,1,225,2,1,0,0,9,1,225,2,1,-142478.2027577833,-4793809.92461066,4194883.55303423,2.38235,2.68853,-0.46619,-89.4347,44.1979,50.4465,-0.244782,-7.50998,6.66384,0.00370658,0.00821731,0.00119322,4,0,41.36613165226404,-91.70240317528813,9224.229499418268,-54.54960791707621,1.2397314092025744,-0.3122895945430737,194.671,9225.216264497592,11151.327114366952,150,True,22.834242147013416,False,174.05687182332397,179.50969744951422,False,5.768943254455107,True,False
8,1970-07-23 09:59:47.551079598,2025-09-10,2025-09-26 15:39:15.107,HA,C,2520367466,JASSM,3,116,76,2,2,1,225,9,2,0,1,26,0,0,0,0,-178702.42614920562,-4778776.450166549,4210871.587370396,-2.36684,-0.400657,0.38129,81.875,-34.5,-35.5,0.0,0.0,0.0,0.0,0.0,0.0,2,0,41.55625555625328,-92.14157876340194,9999.999230352552,119.81804593775531,-0.0022241246384937,0.0059243285397629,,9225.216264497592,11151.327114366952,150,8,2025-09-10,2025-09-26 15:39:15.207,HA,C,2477775706,AMBUSH51,1,1,48,2,1,1,225,2,1,0,0,9,1,225,2,1,-142572.9273603611,-4793763.069444616,4194936.652431184,2.38332,2.6884,-0.467861,-89.3124,43.9925,50.3902,-0.197761,-7.33362,6.47078,0.0138016,-0.00279528,-0.00648209,4,0,41.36675213806849,-91.70355096795404,9230.973009847454,-54.47997471504094,1.3060879083936958,-0.2588827694043285,194.598,9225.216264497592,11151.327114366952,150,True,22.71696606831492,False,174.07506998476316,179.5130349497065,False,5.761230244170087,True,False
8,1970-07-23 09:59:47.563180999,2025-09-10,2025-09-26 15:39:16.318,HA,C,2521620164,JASSM,3,116,76,2,2,1,225,9,2,0,1,26,0,0,0,0,-178616.47302420562,-4778812.862275924,4210834.163542271,-2.36684,-0.400561,0.38129,81.875,-34.5,-35.5,0.0,0.0,0.0,0.0,0.0,0.0,2,0,41.55580547953546,-92.1405333605898,10000.000195240047,119.81509562239206,-0.0048880441843003,0.0038789164553271,,9225.216264497592,11151.327114366952,150,8,2025-09-10,2025-09-26 15:39:16.406,HA,C,2479207304,AMBUSH51,1,1,48,2,1,1,225,2,1,0,0,9,1,225,2,1,-142680.57442007054,-4793710.008802904,4194997.080659958,2.38833,2.68763,-0.471074,-89.1411,43.6914,50.4545,-0.305116,-7.35235,6.65863,0.010506,0.000627299,0.00265796,4,0,41.367456721416346,-91.70485530329708,9239.28855088366,-54.325919387460665,1.4143714550366315,0.0119468638718873,193.95,9225.216264497592,11151.327114366952,150,True,22.591076053574184,False,174.04493528419906,179.51668619919997,False,5.798701009165149,True,False
8,1970-07-23 09:59:47.572080661,2025-09-10,2025-09-26 15:39:17.208,HA,C,2522932872,JASSM,3,116,76,2,2,1,225,9,2,0,1,26,0,0,0,0,-178526.40271170562,-4778851.016572799,4210794.946745396,-2.36684,-0.400561,0.38129,81.875,-34.5,-35.5,0.0,0.0,0.0,0.0,0.0,0.0,2,0,41.555333843088754,-92.13943789902712,10000.001190245808,119.81582229270384,-0.0039423038478704,0.0038772951272245,,9225.216264497592,11151.327114366952,150,8,2025-09-10,2025-09-26 15:39:17.140,HA,C,2480082170,AMBUSH51,1,1,48,2,1,1,225,2,1,0,0,9,1,225,2,1,-142745.8875952996,-4793677.770330097,4195033.872768125,2.39117,2.68653,-0.472141,-89.0071,43.7501,50.3282,-0.108859,-7.51104,6.55227,-0.00320932,-0.00283481,0.0166312,4,0,41.36788534101274,-91.70564671755976,9244.50627119091,-54.243688714785705,1.4213861063911442,0.1483895979399896,193.754,9225.216264497592,11151.327114366952,150,True,22.490822652127527,False,174.04618479401003,179.5181518108277,False,5.813931077391844,True,False
8,1970-07-23 09:59:47.583569368,2025-09-10,2025-09-26 15:39:18.356,HA,C,2524244866,JASSM,3,116,76,2,2,1,225,9,2,0,1,26,0,0,0,0,-178436.38025076812,-4778889.149385299,4210755.749479771,-2.36684,-0.400561,0.38129,81.875,-34.5,-35.5,0.0,0.0,0.0,0.0,0.0,0.0,2,0,41.55486244520721,-92.13834303590664,10000.002071821486,119.81654855927216,-0.00299706546592,0.0038756730817601,,9225.216264497592,11151.327114366952,150,8,2025-09-10,2025-09-26 15:39:18.342,HA,C,2481513770,AMBUSH51,1,1,48,2,1,1,225,2,1,0,0,9,1,225,2,1,-142852.33382151983,-4793625.052822197,4195094.078503055,2.39598,2.68847,-0.471792,-88.714,43.7244,50.3312,-0.212278,-7.15582,6.30244,0.008261,-0.00662149,-0.00498615,4,0,41.36858656942397,-91.706936634135,9253.110701566033,-54.33031628630667,1.4755407080656466,0.4719455223728898,193.486,9225.216264497592,11151.327114366952,150,True,22.363038026452127,False,173.9617231436595,179.52084638254345,False,5.917911636595401,True,False
8,1970-07-23 09:59:47.594078960,2025-09-10,2025-09-26 15:39:19.407,HA,C,2525497566,JASSM,3,116,76,2,2,1,225,9,2,0,1,26,0,0,0,0,-178350.42712576812,-4778925.557588424,4210718.321745396,-2.36684,-0.400561,0.38129,81.875,-34.5,-35.5,0.0,0.0,0.0,0.0,0.0,0.0,2,0,41.55441233596105,-92.13729767973628,10000.001039031162,119.81724197958196,-0.0020945502034177,0.0038741150927862,,9225.216264497592,11151.327114366952,150,8,2025-09-10,2025-09-26 15:39:19.441,HA,C,2482826068,AMBUSH51,1,1,48,2,1,1,225,2,1,0,0,9,1,225,2,1,-142949.36900508718,-4793577.168883684,4195148.823859398,2.33794,2.69297,-0.468929,-88.6965,43.6614,50.041,-0.18337,-7.57169,6.53928,-0.0606441,0.00180284,-0.0010455,4,0,41.36922383228296,-91.70811246928088,9261.089312432034,-54.61112353290972,1.5147656765845894,-2.7438816201038416,192.911,9225.216264497592,11151.327114366952,150,True,22.244167249544624,False,174.08010924997086,179.5226884698985,False,5.8203804598509485,True,False
8,1970-07-23 09:59:47.604081615,2025-09-10,2025-09-26 15:39:20.408,HA,C,2526750652,JASSM,3,116,76,2,2,1,225,9,2,0,1,26,0,0,0,0,-178264.44763358062,-4778961.975557174,4210680.882292271,-2.36684,-0.400561,0.381386,81.875,-34.5,-35.5,0.0,0.0,0.0,0.0,0.0,0.0,2,0,41.55396208586716,-92.13625201802763,10000.001246922657,119.82177803991937,-0.0051174019064335,0.0038723506697335,,9225.216264497592,11151.327114366952,150,8,2025-09-10,2025-09-26 15:39:20.206,HA,C,2483740700,AMBUSH51,1,1,48,2,1,1,225,2,1,0,0,9,1,225,2,1,-143017.42503585492,-4793543.7879063785,4195187.059560492,2.30419,2.69301,-0.468657,-88.8604,43.2538,49.8229,-0.214121,-7.24452,6.55037,-0.027494,-0.000161246,-0.00783864,4,0,41.36966848512069,-91.70893708712848,9266.84098360757,-54.62407512225967,1.505779577376727,-4.676490432606943,192.752,9225.216264497592,11151.327114366952,150,True,22.144714705478652,False,174.2770054335457,179.52333547472205,False,5.624140069298098,True,False
8,1970-07-23 09:59:47.615080602,2025-09-10,2025-09-26 15:39:21.508,HA,C,2528062614,JASSM,3,116,76,2,2,1,225,9,2,0,1,26,0,0,0,0,-178174.42810233062,-4779000.104463424,4210641.681120396,-2.36684,-0.400561,0.381386,81.875,-34.5,-35.5,0.0,0.0,0.0,0.0,0.0,0.0,2,0,41.55349065388443,-92.13515723802394,10000.000901279136,119.82250423176798,-0.0041721852790443,0.0038707750084832,,9225.216264497592,11151.327114366952,150,8,2025-09-10,2025-09-26 15:39:21.406,HA,C,2485172298,AMBUSH51,1,1,48,2,1,1,225,2,1,0,0,9,1,225,2,1,-143124.89737923315,-4793492.042002744,4195246.291856404,2.26401,2.70486,-0.459754,-89.3308,42.4748,49.068,-0.261081,-7.2233,6.59172,-0.0410449,-0.00277447,-0.0223945,4,0,41.3703571411901,-91.7102389791586,9275.824382661938,-55.41662202115658,1.5540193193959415,-6.696147663647398,192.606,9225.216264497592,11151.327114366952,150,True,22.016845398227392,False,174.8281728452708,179.5245120606651,False,5.072045479908258,True,False
8,1970-07-23 09:59:47.626100521,2025-09-10,2025-09-26 15:39:22.610,HA,C,2529375406,JASSM,3,116,76,2,2,1,225,9,2,0,1,26,0,0,0,0,-178084.35095389312,-4779038.254854049,4210602.456511021,-2.36684,-0.400561,0.381386,81.875,-34.5,-35.5,0.0,0.0,0.0,0.0,0.0,0.0,2,0,41.55301893824307,-92.13406177453138,10000.002695217914,119.82323087021511,-0.0032263786325435,0.0038692225807643,,9225.216264497592,11151.327114366952,150,8,2025-09-10,2025-09-26 15:39:22.507,HA,C,2486484598,AMBUSH51,1,1,48,2,1,1,225,2,1,0,0,9,1,225,2,1,-143223.05442400547,-4793445.907035453,4195298.980969623,2.23584,2.70425,-0.459193,-89.9802,41.936,47.8749,0.00528209,-7.15407,6.38805,-0.0121912,0.00852316,0.00882068,4,0,41.3709698824884,-91.7114276493892,9283.752058266386,-55.416990823699386,1.510319097110694,-8.325491205369895,192.105,9225.216264497592,11151.327114366952,150,True,21.895619924143237,False,175.57733650390765,179.52505360466688,False,4.334026202541106,True,False
8,1970-07-23 09:59:47.637562959,2025-09-10,2025-09-26 15:39:23.756,HA,C,2530687316,JASSM,3,116,76,2,2,1,225,9,2,0,1,26,0,0,0,0,-177994.33532889312,-4779076.377900924,4210563.255339146,-2.36684,-0.400561,0.381386,81.875,-34.5,-35.5,0.0,0.0,0.0,0.0,0.0,0.0,2,0,41.55254751941634,-92.13296707573568,9999.999735747842,119.82395699465924,-0.0022812108609369,0.0038676580214394,,9225.216264497592,11151.327114366952,150,8,2025-09-10,2025-09-26 15:39:23.740,HA,C,2487955962,AMBUSH51,1,1,48,2,1,1,225,2,1,0,0,9,1,225,2,1,-143335.1495751649,-4793394.307788186,4195357.480757249,2.21827,2.72241,-0.438925,-90.7566,41.2835,46.5369,-0.101857,-7.1692,6.33422,-0.0332614,0.000926905,-0.0136373,4,0,41.3716518678619,-91.71278474652244,9291.865521709156,-56.89834824614243,1.3213756105958192,-8.917409275048028,192.019,9225.216264497592,11151.327114366952,150,True,21.765806077018453,False,176.43819182538056,179.52530393754031,False,3.478962645763952,True,False
8,1970-07-23 09:59:47.648078223,2025-09-10,2025-09-26 15:39:24.807,HA,C,2531940016,JASSM,3,116,76,2,2,1,225,9,2,0,1,26,0,0,0,0,-177908.38122733062,-4779112.780244674,4210525.823698521,-2.36684,-0.400465,0.381386,81.875,-34.5,-35.5,0.0,0.0,0.0,0.0,0.0,0.0,2,0,41.552097369982576,-92.13192178508044,10000.00246629222,119.82100682237724,-0.0049451216788393,0.0018217713304334,,9225.216264497592,11151.327114366952,150,8,2025-09-10,2025-09-26 15:39:24.973,HA,C,2489427328,AMBUSH51,1,1,48,2,1,1,225,2,1,0,0,9,1,225,2,1,-143447.1162932275,-4793344.118597724,4195413.374394653,2.18774,2.7266,-0.433691,-91.6985,40.3638,45.0869,-0.0273916,-7.13495,6.37517,0.00514011,0.00717077,-0.0102667,4,0,41.37230787370604,-91.7141398331908,9297.79781878192,-57.26423066359922,1.2582359952283628,-10.573406083585905,191.836,9225.216264497592,11151.327114366952,150,False,21.639401330666512,False,177.41234110901058,179.52484002725666,False,2.481002663466554,True,False
8,1970-07-23 09:59:47.658077425,2025-09-10,2025-09-26 15:39:25.807,HA,C,2533192714,JASSM,3,116,76,2,2,1,225,9,2,0,1,26,0,0,0,0,-177822.42810233062,-4779149.180635299,4210488.390104771,-2.36684,-0.400465,0.381386,81.875,-34.5,-35.5,0.0,0.0,0.0,0.0,0.0,0.0,2,0,41.55164720929209,-92.13087652149076,10000.001441003196,119.82170014357786,-0.0040426117911033,0.0018202211215548,,9225.216264497592,11151.327114366952,150,8,2025-09-10,2025-09-26 15:39:25.806,HA,C,2490421494,AMBUSH51,1,1,48,2,1,1,225,2,1,0,0,9,1,225,2,1,-143523.75296057193,-4793310.650963354,4195450.337461506,2.17985,2.73683,-0.417929,-92.3716,39.9188,43.8452,0.026088,-7.07767,6.30526,-0.0228709,-0.0031365,-0.0204554,4,0,41.37274287392095,-91.71506703378176,9301.235399468756,-58.277284521859166,0.9835791989218604,-10.802674955961171,191.677,9225.216264497592,11151.327114366952,150,False,21.53626203624877,False,178.17166598685913,179.52404339192367,False,1.715865062065481,True,False
8,1970-07-23 09:59:47.669077479,2025-09-10,2025-09-26 15:39:26.907,HA,C,2534505066,JASSM,3,116,76,2,2,1,225,9,2,0,1,26,0,0,0,0,-177732.38122733062,-4779187.313447799,4210449.171354771,-2.36684,-0.400465,0.381386,81.875,-34.5,-35.5,0.0,0.0,0.0,0.0,0.0,0.0,2,0,41.551175590324135,-92.12978149050647,9999.997924450652,119.8224264687718,-0.0030971137704966,0.0018185899503676,,9225.216264497592,11151.327114366952,150,8,2025-09-10,2025-09-26 15:39:27.006,HA,C,2491853092,AMBUSH51,1,1,48,2,1,1,225,2,1,0,0,9,1,225,2,1,-143636.0545629218,-4793262.969664884,4195502.032305361,2.16152,2.7452,-0.407325,-93.4837,38.948,42.2681,-0.121493,-7.10194,6.484,-0.000999726,-0.00010507,-0.0149397,4,0,41.37335552271707,-91.71642526666464,9304.274588804536,-59.01715214022624,0.8578856898042633,-11.672734550078449,191.799,9225.216264497592,11151.327114366952,150,False,21.40845675511042,False,179.09986923500625,179.52304002711728,False,0.6202876940327893,True,False
8,1970-07-23 09:59:47.680078003,2025-09-10,2025-09-26 15:39:28.007,HA,C,2535757766,JASSM,3,116,76,2,2,1,225,9,2,0,1,26,0,0,0,0,-177646.42810233062,-4779223.711885299,4210411.735807896,-2.36684,-0.400465,0.381386,81.875,-34.5,-35.5,0.0,0.0,0.0,0.0,0.0,0.0,2,0,41.55072540860345,-92.12873625748357,9999.9984989832,119.82311975706318,-0.0021946035546044,0.0018170380290167,,9225.216264497592,11151.327114366952,150,8,2025-09-10,2025-09-26 15:39:27.841,HA,C,2492847258,AMBUSH51,1,1,48,2,1,1,225,2,1,0,0,9,1,225,2,1,-143714.47639264044,-4793230.782659132,4195536.539472427,2.15444,2.75711,-0.392491,-94.3183,38.3557,40.9492,0.0132498,-6.97489,6.48435,-0.0023854,0.00814865,-0.0177069,4,0,41.37376598463238,-91.71737335787084,9305.680183848906,-60.06209420452024,0.6949488534889046,-11.826712139607572,191.75,9225.216264497592,11151.327114366952,150,False,21.30523645992152,False,179.3197584995438,179.52207014020155,False,0.3167821153829723,True,False
8,1970-07-23 09:59:47.691076889,2025-09-10,2025-09-26 15:39:29.107,HA,C,2537129768,JASSM,3,116,76,2,2,1,225,9,2,0,1,26,0,0,0,0,-177552.28845389312,-4779263.575166549,4210370.733854771,-2.36684,-0.400465,0.381482,81.875,-34.5,-35.5,0.0,0.0,0.0,0.0,0.0,0.0,2,0,41.55023234407467,-92.12759148972005,9999.998508690587,119.82772164273644,-0.0051316398493279,0.001815129977199,,9225.216264497592,11151.327114366952,150,8,2025-09-10,2025-09-26 15:39:29.006,HA,C,2494239090,AMBUSH51,1,1,48,2,1,1,225,2,1,0,0,9,1,225,2,1,-143824.85382553915,-4793187.004144721,4195582.630493493,2.11143,2.77389,-0.374806,-95.6215,37.111,39.147,-0.224765,-7.46242,6.75611,-0.041769,0.00203586,-0.0214541,4,0,41.37431789617808,-91.71870725440058,9306.044535264044,-61.41018263799877,0.6080998751661109,-13.946262492438835,191.677,9225.216264497592,11151.327114366952,150,False,21.177619985004586,False,178.23373024697764,179.52099727511873,False,1.632045236375643,True,False
8,1970-07-23 09:59:47.702056194,2025-09-10,2025-09-26 15:39:30.205,HA,C,2538382468,JASSM,3,116,76,2,2,1,225,9,2,0,1,26,0,0,0,0,-177466.33435233062,-4779299.971650924,4210333.296354771,-2.36684,-0.400465,0.381482,81.875,-34.5,-35.5,0.0,0.0,0.0,0.0,0.0,0.0,2,0,41.54978214108704,-92.12654627626218,10000.000841516214,119.82841490522308,-0.0042291217165494,0.0018136414086159,,9225.216264497592,11151.327114366952,150,8,2025-09-10,2025-09-26 15:39:30.207,HA,C,2495670688,AMBUSH51,1,1,48,2,1,1,225,2,1,0,0,9,1,225,2,1,-143941.13046506172,-4793143.457249088,4195628.031549245,2.02342,2.80136,-0.354505,-97.1745,35.0342,37.0067,-0.0112984,-7.98023,7.03918,-0.0524424,0.0162318,-0.0237573,4,0,41.37486270177889,-91.7201115441526,9305.92690077365,-63.271916105411314,0.8377439358385578,-18.451112102643805,191.787,9225.216264497592,11151.327114366952,150,False,21.052621200937228,False,176.49619169458086,179.52058576979172,False,3.393297845081593,True,False
8,1970-07-23 09:59:47.712057923,2025-09-10,2025-09-26 15:39:31.205,HA,C,2539635168,JASSM,3,116,76,2,2,1,225,9,2,0,1,26,0,0,0,0,-177380.38025076812,-4779336.366182174,4210295.856901646,-2.36684,-0.400465,0.381482,81.875,-34.5,-35.5,0.0,0.0,0.0,0.0,0.0,0.0,2,0,41.549331927059946,-92.12550107817552,9999.999329351413,119.8291081513448,-0.003326603328536,0.0018121511707906,,9225.216264497592,11151.327114366952,150,8,2025-09-10,2025-09-26 15:39:31.306,HA,C,2496982986,AMBUSH51,1,1,48,2,1,1,225,2,1,0,0,9,1,225,2,1,-144048.26471028605,-4793106.391919438,4195666.759273064,1.9694,2.82404,-0.329514,-98.9081,32.8156,34.3414,-0.100366,-7.82415,7.04634,-0.0176799,0.0132087,-0.032192,4,0,41.375325514159854,-91.72140434318094,9306.620246827357,-65.15296429772023,0.7189409413086191,-21.13609383587121,191.799,9225.216264497592,11151.327114366952,150,False,20.934414470708898,False,174.48971478068353,179.52100540834633,False,5.430543234962627,True,False
8,1970-07-23 09:59:47.723537454,2025-09-10,2025-09-26 15:39:32.353,HA,C,2540947516,JASSM,3,116,76,2,2,1,225,9,2,0,1,26,0,0,0,0,-177290.33337576812,-4779374.493135299,4210256.634245396,-2.36684,-0.400465,0.381482,81.875,-34.5,-35.5,0.0,0.0,0.0,0.0,0.0,0.0,2,0,41.54886026535865,-92.12440612793615,10000.000938174546,119.82983438984446,-0.0023811108094946,0.0018105897155315,,9225.216264497592,11151.327114366952,150,8,2025-09-10,2025-09-26 15:39:32.509,HA,C,2498414584,AMBUSH51,1,1,48,2,1,1,225,2,1,0,0,9,1,225,2,1,-144167.7601564868,-4793068.691466803,4195705.691956301,1.95425,2.85349,-0.299496,-100.646,30.2605,31.1233,0.0175496,-7.64111,6.82071,0.00359007,0.00486131,-0.0193568,4,0,41.3757912620101,-91.72284501937672,9307.11743305445,-67.50622094870702,0.6910753006505894,-21.51110135147452,191.677,9225.216264497592,11151.327114366952,150,False,20.80779224995395,False,172.17318819563798,179.52156790303127,False,7.781545093785423,True,False
8,1970-07-23 09:59:47.734059064,2025-09-10,2025-09-26 15:39:33.405,HA,C,2542200216,JASSM,3,116,76,2,2,1,225,9,2,0,1,26,0,0,0,0,-177204.38025076812,-4779410.885713424,4210219.192839146,-2.36674,-0.400369,0.381482,81.875,-34.5,-35.5,0.0,0.0,0.0,0.0,0.0,0.0,2,0,41.54841003008721,-92.1233609721042,10000.001114792787,119.82688434595762,-0.0050450212899143,0.0052556827692444,,9225.216264497592,11151.327114366952,150,8,2025-09-10,2025-09-26 15:39:33.274,HA,C,2499329218,AMBUSH51,1,1,48,2,1,1,225,2,1,0,0,9,1,225,2,1,-144245.253284083,-4793046.273064798,4195728.606476322,1.96192,2.87033,-0.282684,-101.678,28.5448,29.2375,-0.0513314,-7.71156,6.9049,0.0178297,0.012934,-0.0245396,4,0,41.37606545857111,-91.72377858303442,9307.380725507966,-68.84180196221331,0.7027352414250124,-20.810716588257407,191.799,9225.216264497592,11151.327114366952,150,False,20.70921379466787,False,170.7358435316271,179.5210931344878,False,9.237186617637498,True,False
8,1970-07-23 09:59:47.746368056,2025-09-10,2025-09-26 15:39:34.636,HA,C,2543453174,JASSM,3,116,76,2,2,1,225,9,2,0,1,26,0,0,0,0,-177118.40857108062,-4779447.284150924,4210181.743620396,-2.36674,-0.400369,0.381482,81.875,-34.5,-35.5,0.0,0.0,0.0,0.0,0.0,0.0,2,0,41.54795970181427,-92.12231560604786,10000.00217866692,119.82757768477744,-0.00414232265926,0.0052541400945671,,9225.216264497592,11151.327114366952,150,8,2025-09-10,2025-09-26 15:39:34.708,HA,C,2501039182,AMBUSH51,1,1,48,2,1,1,225,2,1,0,0,9,1,225,2,1,-144392.44863706589,-4793007.316698922,4195767.491934291,1.98512,2.8976,-0.249339,-103.497,25.8312,25.5125,-0.0131115,-7.50007,6.78783,0.0127447,0.0140242,-0.0274982,4,0,41.376533364155215,-91.72555056965376,9306.7527380491,-71.26840812551258,0.5025979097010342,-19.09635042309184,191.604,9225.216264497592,11151.327114366952,150,False,20.572207435023806,False,168.1629227077924,179.518475302471,False,11.86382882381323,True,False
8,1970-07-23 09:59:47.755055982,2025-09-10,2025-09-26 15:39:35.505,HA,C,2544765268,JASSM,3,116,76,2,2,1,225,9,2,0,1,26,0,0,0,0,-177028.37927420562,-4779485.399385299,4210142.524870396,-2.36674,-0.400369,0.381482,81.875,-34.5,-35.5,0.0,0.0,0.0,0.0,0.0,0.0,2,0,41.54748810199571,-92.1212209177479,10000.001725505754,119.82830372994816,-0.0031970159400687,0.0052525182098581,,9225.216264497592,11151.327114366952,150,8,2025-09-10,2025-09-26 15:39:35.473,HA,C,2501953814,AMBUSH51,1,1,48,2,1,1,225,2,1,0,0,9,1,225,2,1,-144472.15022755487,-4792988.064787512,4195786.10396544,1.99889,2.91016,-0.233956,-104.291,24.3543,23.8174,0.0614158,-7.44995,6.51634,0.0303632,-0.00325509,-0.0239508,4,0,41.37675925711373,-91.72650939153904,9305.65153549477,-72.39037389256936,0.4179428984558034,-18.144205407581893,191.799,9225.216264497592,11151.327114366952,150,False,20.471539672970984,False,166.91785852892662,179.51401226821932,False,13.136288256534671,True,False
8,1970-07-23 09:59:47.766360195,2025-09-10,2025-09-26 15:39:36.636,HA,C,2546077616,JASSM,3,116,76,2,2,1,225,9,2,0,1,26,0,0,0,0,-176938.33142264312,-4779523.520479049,4210103.296354771,-2.36674,-0.400369,0.381482,81.875,-34.5,-35.5,0.0,0.0,0.0,0.0,0.0,0.0,2,0,41.54701639509116,-92.12012602063676,9999.998416502483,119.82902990683938,-0.0022515151778906,0.0052508961120527,,9225.216264497592,11151.327114366952,150,8,2025-09-10,2025-09-26 15:39:36.540,HA,C,2503226346,AMBUSH51,1,1,48,2,1,1,225,2,1,0,0,9,1,225,2,1,-144584.80473346653,-4792962.690017259,4195810.118203039,2.01517,2.9287,-0.212345,-105.366,22.6525,21.328,-0.184163,-7.428,6.72934,0.0184913,0.00700016,-0.0236928,4,0,41.37705212407337,-91.72786399153658,9303.648623809871,-74.00391689555516,0.34450002226822,-16.986848141592805,191.799,9225.216264497592,11151.327114366952,150,False,20.353469457480486,False,165.26092355850932,179.50465477628327,False,14.842334192394512,True,False
8,1970-07-23 09:59:47.782360212,2025-09-10,2025-09-26 15:39:38.236,HA,C,2547330316,JASSM,3,116,76,2,2,1,225,9,2,0,1,26,0,0,0,0,-176852.37732108062,-4779559.907197799,4210065.851042271,-2.36674,-0.400369,0.381482,81.875,-34.5,-35.5,0.0,0.0,0.0,0.0,0.0,0.0,2,0,41.54656612963122,-92.11908091510249,9999.996911643431,119.82972305376823,-0.0013490022507981,0.0052493531326889,,9225.216264497592,11151.327114366952,150,8,2025-09-10,2025-09-26 15:39:38.040,HA,C,2505015844,AMBUSH51,1,1,48,2,1,1,225,2,1,0,0,9,1,225,2,1,-144743.875106191,-4792930.397750449,4195839.151431406,2.04602,2.94822,-0.188637,-106.565,20.4104,18.1671,-0.169389,-7.63055,6.68304,0.0338981,0.00624907,-0.0201558,4,0,41.377411670825005,-91.72977545856524,9298.964119368538,-75.74731939267485,0.2411173964912386,-15.00548520616126,192.141,9225.216264497592,11151.327114366952,150,False,20.214347411692167,False,163.15719851613332,179.48255378173016,False,17.020681498865585,True,False
8,1970-07-23 09:59:47.788735782,2025-09-10,2025-09-26 15:39:38.873,HA,C,2548642668,JASSM,3,116,76,2,2,1,225,9,2,0,1,26,0,0,0,0,-176762.33044608062,-4779598.026338424,4210026.622526646,-2.36674,-0.400369,0.381578,81.875,-34.5,-35.5,0.0,0.0,0.0,0.0,0.0,0.0,2,0,41.54609441371002,-92.11798606165596,10000.00004791508,119.83429191400349,-0.0043288792354665,0.0052475774946036,,9225.216264497592,11151.327114366952,150,8,2025-09-10,2025-09-26 15:39:38.840,HA,C,2505970244,AMBUSH51,1,1,48,2,1,1,225,2,1,0,0,9,1,225,2,1,-144829.4776039306,-4792914.430983421,4195853.08685677,2.08821,2.94726,-0.191164,-107.098,19.4002,16.8999,0.14289,-7.28736,6.57641,0.0928746,0.00115785,0.00195056,4,0,41.377585350580055,-91.73080359966164,9296.259186454596,-75.60477124201594,0.2995112590776533,-12.597960299372494,192.532,9225.216264497592,11151.327114366952,150,False,20.11257374089156,False,162.27237247725463,179.46523158449537,False,17.94680699828418,True,False
8,1970-07-23 09:59:47.800386516,2025-09-10,2025-09-26 15:39:40.038,HA,C,2550014674,JASSM,3,116,76,2,2,1,225,9,2,0,1,26,0,0,0,0,-176668.18982108062,-4779637.877900924,4209985.608854771,-2.36674,-0.400369,0.381578,81.875,-34.5,-35.5,0.0,0.0,0.0,0.0,0.0,0.0,2,0,41.5456012329616,-92.11684145077714,10000.004264713443,119.83505104196334,-0.0033404038644725,0.0052459460072769,,9225.216264497592,11151.327114366952,150,8,2025-09-10,2025-09-26 15:39:40.173,HA,C,2507560908,AMBUSH51,1,1,48,2,1,1,225,2,1,0,0,9,1,225,2,1,-144972.54856760782,-4792889.571519718,4195874.5391496895,2.19575,2.95935,-0.163252,-107.649,18.6639,15.319,-0.0527662,-6.93777,6.30146,0.0420644,-0.00744957,-0.0150292,4,0,41.377852330913896,-91.73252132700873,9292.254302706197,-77.24880531524065,-0.267790922080256,-6.314487993394661,192.679,9225.216264497592,11151.327114366952,150,True,19.978662416806067,False,161.35609043403258,179.42983480835306,False,18.94142523309045,True,False
8,1970-07-23 09:59:47.813175938,2025-09-10,2025-09-26 15:39:41.317,HA,C,2551327020,JASSM,3,116,76,2,2,1,225,9,2,0,1,26,0,0,0,0,-176578.14294608062,-4779675.993135299,4209946.376432896,-2.36674,-0.400273,0.381578,81.875,-34.5,-35.5,0.0,0.0,0.0,0.0,0.0,0.0,2,0,41.5451294926288,-92.11574663161448,10000.000983756798,119.83213415894826,-0.0059613314422089,0.0031990760410662,,9225.216264497592,11151.327114366952,150,8,2025-09-10,2025-09-26 15:39:41.272,HA,C,2508873208,AMBUSH51,1,1,48,2,1,1,225,2,1,0,0,9,1,225,2,1,-145090.46746794117,-4792869.201886068,4195890.20807818,2.26001,2.94479,-0.171113,-108.105,18.5948,14.5979,0.246408,-6.81239,6.3403,0.0918218,-0.00779911,0.0289276,4,0,41.378058058105005,-91.73393704347843,9284.89235524729,-76.3634150393838,-0.5737712981442208,-2.7778027320035426,193.302,9225.216264497592,11151.327114366952,150,True,19.86091856251285,False,161.0021064585628,179.39225843667916,False,19.36324053914293,True,False
8,1970-07-23 09:59:47.821037067,2025-09-10,2025-09-26 15:39:42.103,HA,C,2552639828,JASSM,3,116,76,2,2,1,225,9,2,0,1,26,0,0,0,0,-176488.06482108062,-4779714.122041549,4209907.130339146,-2.36674,-0.400273,0.381578,81.875,-34.5,-35.5,0.0,0.0,0.0,0.0,0.0,0.0,2,0,41.54465757508394,-92.11465144823136,10000.004375848832,119.83286049204062,-0.0050155139908676,0.0031974558842232,,9225.216264497592,11151.327114366952,150,8,2025-09-10,2025-09-26 15:39:42.107,HA,C,2509867372,AMBUSH51,1,1,48,2,1,1,225,2,1,0,0,9,1,225,2,1,-145180.70573521717,-4792853.556633296,4195902.37513971,2.34161,2.94084,-0.171347,-108.399,19.2049,14.5177,0.0495465,-6.88304,6.5872,0.083333,-0.00303247,-0.0162068,4,0,41.37821701166911,-91.73502045786584,9279.505108969102,-76.20416722938876,-0.7288687498159445,1.8568371286039251,194.365,9225.216264497592,11151.327114366952,150,True,19.757471430706747,False,161.1324492315801,179.3603421821677,False,19.288121844908982,True,False
8,1970-07-23 09:59:47.832357532,2025-09-10,2025-09-26 15:39:43.235,HA,C,2553951722,JASSM,3,116,76,2,2,1,225,9,2,0,1,26,0,0,0,0,-176398.04821951812,-4779752.221650924,4209867.909636021,-2.36674,-0.400273,0.381578,81.875,-34.5,-35.5,0.0,0.0,0.0,0.0,0.0,0.0,2,0,41.54418597928669,-92.11355703020811,10000.002403345445,119.83358631076948,-0.004070348307833,0.0031958448285637,,9225.216264497592,11151.327114366952,150,8,2025-09-10,2025-09-26 15:39:43.272,HA,C,2511259204,AMBUSH51,1,1,48,2,1,1,225,2,1,0,0,9,1,225,2,1,-145307.5039008863,-4792830.54589911,4195919.326015575,2.37749,2.95483,-0.156618,-108.84,19.7851,15.2543,-0.0556243,-7.30201,6.83066,0.00393753,0.00290347,0.0154557,4,0,41.378445470410846,-91.73654319763357,9269.100049066556,-77.36182328676225,-0.7092721542841172,4.058436531524054,194.451,9225.216264497592,11151.327114366952,150,True,19.63495218710345,False,161.55518238687893,179.31179016618003,False,18.932852348540543,True,False
8,1970-07-23 09:59:47.843014915,2025-09-10,2025-09-26 15:39:44.301,HA,C,2555264074,JASSM,3,116,76,2,2,1,225,9,2,0,1,26,0,0,0,0,-176308.00134451812,-4779790.332979049,4209828.673307896,-2.36674,-0.400273,0.381578,81.875,-34.5,-35.5,0.0,0.0,0.0,0.0,0.0,0.0,2,0,41.54371420455656,-92.11246226051722,9999.998149990832,119.83431235595305,-0.0031248600817716,0.0031942244427925,,9225.216264497592,11151.327114366952,150,8,2025-09-10,2025-09-26 15:39:44.314,HA,C,2512491970,AMBUSH51,1,1,48,2,1,1,225,2,1,0,0,9,1,225,2,1,-145421.2645517674,-4792809.030753303,4195935.204919446,2.40058,2.94485,-0.165686,-109.163,20.4767,16.0956,-0.0252949,-7.3079,6.87728,0.0322731,-0.00423921,0.00266004,4,0,41.37866012872185,-91.73790969354354,9259.085545644486,-76.5984473706987,-0.7774194054999347,5.279584683392312,195.282,9225.216264497592,11151.327114366952,150,True,19.518906150414086,False,162.06194267457002,179.26564878700498,False,18.486396139124892,True,False
8,1970-07-23 09:59:47.855543881,2025-09-10,2025-09-26 15:39:45.554,HA,C,2556516774,JASSM,3,116,76,2,2,1,225,9,2,0,1,26,0,0,0,0,-176222.04626639312,-4779826.711885299,4209791.220182896,-2.36674,-0.400273,0.381578,81.875,-34.5,-35.5,0.0,0.0,0.0,0.0,0.0,0.0,2,0,41.54326386338266,-92.11141725309196,9999.998501262618,119.8350053927592,-0.0022223383930051,0.0031926823343884,,9225.216264497592,11151.327114366952,150,8,2025-09-10,2025-09-26 15:39:45.639,HA,C,2514082634,AMBUSH51,1,1,48,2,1,1,225,2,1,0,0,9,1,225,2,1,-145566.3534901678,-4792780.541215023,4195957.111995306,2.4323,2.93742,-0.172838,-109.464,21.3592,17.7036,-0.10869,-7.45709,6.91437,0.0175217,0.00185485,0.0222696,4,0,41.37895129706582,-91.73965290125844,9247.331136163226,-76.01414913888597,-0.8105097227786089,7.017517166014088,196.345,9225.216264497592,11151.327114366952,150,True,19.388552035562164,False,162.91985135737852,179.20611983651756,False,17.698537465075397,True,False
8,1970-07-23 09:59:47.866332989,2025-09-10,2025-09-26 15:39:46.633,HA,C,2557769790,JASSM,3,116,76,2,2,1,225,9,2,0,1,26,0,0,0,0,-176136.06970389312,-4779863.098604049,4209753.757292271,-2.36674,-0.400273,0.381578,81.875,-34.5,-35.5,0.0,0.0,0.0,0.0,0.0,0.0,2,0,41.54281340502495,-92.11037199954,10000.000030538336,119.8356985866195,-0.0013195938604874,0.0031911438510966,,9225.216264497592,11151.327114366952,150,8,2025-09-10,2025-09-26 15:39:46.672,HA,C,2515315400,AMBUSH51,1,1,48,2,1,1,225,2,1,0,0,9,1,225,2,1,-145680.24841853458,-4792757.306428839,4195975.64321667,2.46669,2.92527,-0.183571,-109.602,22.402,19.0111,-0.113958,-7.14674,6.94879,0.0164398,0.000571123,0.00680875,4,0,41.37919403236326,-91.7410216489352,9238.863470906726,-75.09894772745636,-0.9004027934602598,8.850587839184216,197.249,9225.216264497592,11151.327114366952,150,True,19.274166883049592,False,163.72254157817406,179.1585159605872,False,16.953177154701844,True,False
8,1970-07-23 09:59:47.877600813,2025-09-10,2025-09-26 15:39:47.760,HA,C,2559141474,JASSM,3,116,76,2,2,1,225,9,2,0,1,26,0,0,0,0,-176041.95153983062,-4779902.930635299,4209712.743620396,-2.36674,-0.400273,0.381674,81.875,-34.5,-35.5,0.0,0.0,0.0,0.0,0.0,0.0,2,0,41.54232025977082,-92.10922778187168,9999.999823652106,119.8403002712238,-0.0042565797064485,0.0031892887658307,,9225.216264497592,11151.327114366952,150,8,2025-09-10,2025-09-26 15:39:47.739,HA,C,2516587932,AMBUSH51,1,1,48,2,1,1,225,2,1,0,0,9,1,225,2,1,-145796.3721940417,-4792732.196655038,4195995.90460355,2.47874,2.91634,-0.193026,-109.699,23.7571,20.3767,-0.2041,-7.30724,6.98166,0.00836503,0.0029326,0.0134084,4,0,41.37945918243333,-91.742417709737,9229.708434082972,-74.36066452055232,-0.9036470662266698,9.433735401630356,198.264,9225.216264497592,11151.327114366952,150,True,19.152939098776944,False,164.63979213032508,179.10995476721234,False,16.095922458397663,True,False
8,1970-07-23 09:59:47.887073710,2025-09-10,2025-09-26 15:39:48.707,HA,C,2560513478,JASSM,3,116,76,2,2,1,225,9,2,0,1,26,0,0,0,0,-175947.81042654935,-4779942.770479049,4209671.720182896,-2.36674,-0.400273,0.381674,81.875,-34.5,-35.5,0.0,0.0,0.0,0.0,0.0,0.0,2,0,41.541826995753446,-92.10808330343436,10000.001699420776,119.84105925491856,-0.003268105347507,0.0031876642617885,,9225.216264497592,11151.327114366952,150,8,2025-09-10,2025-09-26 15:39:48.706,HA,C,2517741164,AMBUSH51,1,1,48,2,1,1,225,2,1,0,0,9,1,225,2,1,-145903.1195376951,-4792707.950693547,4196015.838860509,2.48094,2.90552,-0.204816,-109.743,25.0791,21.6459,-0.164895,-7.28926,7.04246,0.00501943,0.00324677,0.00542307,4,0,41.37971866729815,-91.74370147958956,9221.274500167054,-73.452854425934,-0.8917962572906227,9.422873300444424,199.193,9225.216264497592,11151.327114366952,150,True,19.03622338810257,False,165.5081668450306,179.06564294750075,False,15.282321192050627,True,False
8,1970-07-23 09:59:47.898097575,2025-09-10,2025-09-26 15:39:49.809,HA,C,2561825828,JASSM,3,116,76,2,2,1,225,9,2,0,1,26,0,0,0,0,-175857.76306326812,-4779980.875947799,4209632.477995396,-2.36674,-0.400177,0.381674,81.875,-34.5,-35.5,0.0,0.0,0.0,0.0,0.0,0.0,2,0,41.5413551643078,-92.10698861005626,9999.99879557034,119.83814250279812,-0.0058890212714771,0.0011402979788104,,9225.216264497592,11151.327114366952,150,8,2025-09-10,2025-09-26 15:39:49.772,HA,C,2519013696,AMBUSH51,1,1,48,2,1,1,225,2,1,0,0,9,1,225,2,1,-146019.44356785266,-4792680.37946042,4196039.10109155,2.47439,2.90074,-0.21412,-109.779,26.1653,23.2659,-0.128691,-7.31754,7.21881,-0.00731433,0.00588288,0.0120061,4,0,41.38001865173649,-91.74510085233403,9212.600351180376,-72.8804551843218,-0.7254511640095199,8.982565365886366,199.865,9225.216264497592,11151.327114366952,150,True,18.91639160891684,False,166.42981560791944,179.01870033355414,False,14.4109815206928,True,False
8,1970-07-23 09:59:47.909073886,2025-09-10,2025-09-26 15:39:50.907,HA,C,2563078848,JASSM,3,116,76,2,2,1,225,9,2,0,1,26,0,0,0,0,-175771.78601248687,-4780017.256807174,4209595.011198521,-2.36674,-0.400177,0.381674,81.875,-34.5,-35.5,0.0,0.0,0.0,0.0,0.0,0.0,2,0,41.5409046742896,-92.10594341471258,9999.999435720189,119.83883563209211,-0.0049862786643315,0.0011387712718362,,9225.216264497592,11151.327114366952,150,8,2025-09-10,2025-09-26 15:39:50.772,HA,C,2520206696,AMBUSH51,1,1,48,2,1,1,225,2,1,0,0,9,1,225,2,1,-146129.9721293454,-4792652.975489687,4196062.98200669,2.47169,2.89271,-0.22763,-109.786,26.9695,25.0027,-0.087758,-7.48105,7.16488,0.0013992,0.00909116,0.0159259,4,0,41.38032285360599,-91.74643095817572,9205.252379995462,-72.00852405109507,-0.527123534920082,8.717397557626088,200.891,9225.216264497592,11151.327114366952,150,True,18.801676468415565,False,167.3039524632895,178.97568146462712,False,13.576009621783143,True,False
8,1970-07-23 09:59:47.920094229,2025-09-10,2025-09-26 15:39:52.009,HA,C,2564450556,JASSM,3,116,76,2,2,1,225,9,2,0,1,26,0,0,0,0,-175677.66589529935,-4780057.084932174,4209553.991667271,-2.36674,-0.400177,0.381674,81.875,-34.5,-35.5,0.0,0.0,0.0,0.0,0.0,0.0,2,0,41.54041146906627,-92.10479924267892,10000.000837797646,119.83959439145814,-0.0039980162700219,0.0011370677156736,,9225.216264497592,11151.327114366952,150,8,2025-09-10,2025-09-26 15:39:52.106,HA,C,2521797360,AMBUSH51,1,1,48,2,1,1,225,2,1,0,0,9,1,225,2,1,-146276.13628136335,-4792615.6316351965,4196096.991028975,2.4661,2.884,-0.244742,-109.658,28.0874,27.0908,-0.147808,-7.68537,7.44481,-0.0132274,0.00491124,0.0143343,4,0,41.380748079438746,-91.74819032748864,9198.09550387995,-70.96128514318032,-0.2129194335871603,8.273875804796381,201.991,9225.216264497592,11151.327114366952,150,True,18.661580063064083,False,168.40525952076212,178.92168045955958,False,12.524854120066742,True,False
8,1970-07-23 09:59:47.931073846,2025-09-10,2025-09-26 15:39:53.107,HA,C,2565762884,JASSM,3,116,76,2,2,1,225,9,2,0,1,26,0,0,0,0,-175587.61950858062,-4780095.184541549,4209514.747526646,-2.36674,-0.400177,0.381674,81.875,-34.5,-35.5,0.0,0.0,0.0,0.0,0.0,0.0,2,0,41.53993962781834,-92.10370461131134,9999.996506154492,119.84032029092968,-0.0030525431009252,0.0011354610569375,,9225.216264497592,11151.327114366952,150,8,2025-09-10,2025-09-26 15:39:53.040,HA,C,2522910826,AMBUSH51,1,1,48,2,1,1,225,2,1,0,0,9,1,225,2,1,-146377.53357861243,-4792588.969174746,4196122.448484762,2.46227,2.87925,-0.257195,-109.494,28.5655,28.6945,-0.0120351,-7.48536,7.32579,-0.0194608,0.0112009,0.00167176,4,0,41.38106014136908,-91.749411130832,9195.321273729038,-70.26076601534504,0.0825781843061502,7.985720246043211,202.614,9225.216264497592,11151.327114366952,150,True,18.548301740787856,False,169.1319779210434,178.88537813830058,False,11.82205250506183,True,False
8,1970-07-23 09:59:47.942733533,2025-09-10,2025-09-26 15:39:54.273,HA,C,2567075234,JASSM,3,116,76,2,2,1,225,9,2,0,1,26,0,0,0,0,-175497.57165701812,-4780133.286104049,4209475.503386021,-2.36674,-0.400177,0.381674,81.875,-34.5,-35.5,0.0,0.0,0.0,0.0,0.0,0.0,2,0,41.53946776478481,-92.10260997746408,10000.002539526931,119.8410461852718,-0.002107052275882,0.0011338513777371,,9225.216264497592,11151.327114366952,150,8,2025-09-10,2025-09-26 15:39:54.439,HA,C,2524581024,AMBUSH51,1,1,48,2,1,1,225,2,1,0,0,9,1,225,2,1,-146530.3559371062,-4792547.430580709,4196163.427005415,2.45057,2.87465,-0.269405,-109.179,29.5187,30.7443,-0.134921,-7.35203,7.08932,-0.0223237,-0.00418512,0.00478433,4,0,41.381556121988936,-91.75125159879202,9193.48068726886,-69.57771687770791,0.3768502528416685,7.2497170222390785,203.421,9225.216264497592,11151.327114366952,150,True,18.40549067561887,False,170.16585455731618,178.8350838852341,False,10.825834846994248,True,False
8,1970-07-23 09:59:47.953051941,2025-09-10,2025-09-26 15:39:55.305,HA,C,2568327934,JASSM,3,116,76,2,2,1,225,9,2,0,1,26,0,0,0,0,-175411.61657889312,-4780169.653291549,4209438.038542271,-2.36674,-0.400177,0.381674,81.875,-34.5,-35.5,0.0,0.0,0.0,0.0,0.0,0.0,2,0,41.53901732470903,-92.1015651119192,9999.997640898364,119.841739069995,-0.0012045287629067,0.0011323022650863,,9225.216264497592,11151.327114366952,150,8,2025-09-10,2025-09-26 15:39:55.473,HA,C,2525813790,AMBUSH51,1,1,48,2,1,1,225,2,1,0,0,9,1,225,2,1,-146643.75268623096,-4792515.8930529365,4196195.521810209,2.42766,2.86959,-0.280721,-109.007,30.0231,32.0599,-0.236101,-7.55075,7.27978,-0.00886021,0.010067,0.0195732,4,0,41.38193978147276,-91.75261753650472,9194.025261988923,-68.91484240914497,0.6182235532590513,5.864023672119951,203.995,9225.216264497592,11151.327114366952,150,True,18.287004514528995,False,170.77684883300847,178.79885789051355,False,10.238132416670616,True,False
