Subject_cm,Timestamp,SampleDate_cm,SampleTime_cm,Configuration_cm,Scenario_cm,DisTime_cm,MarkingTxt_cm,Application_cm,EntId_cm,Site_cm,ExerciseId_cm,ForceId_cm,Category_cm,Country_cm,Domain_cm,Kind_cm,Extra_cm,Specific_cm,Subcategory_cm,AltCategory_cm,AltCountry_cm,AltDomain_cm,AltKind_cm,ECEF_X_cm,ECEF_Y_cm,ECEF_Z_cm,OriPhi_cm,OriPsi_cm,OriTheta_cm,LinVelX_cm,LinVelY_cm,LinVelZ_cm,LinAccX_cm,LinAccY_cm,LinAccZ_cm,AngVelX_cm,AngVelY_cm,AngVelZ_cm,DrAlg_cm,Appearance_cm,Latitude_cm,Longitude_cm,Altitude_cm,Heading_cm,Pitch_cm,Roll_cm,CalibratedAirspeed_cm,CM_Altitude_Lead_cm,CM_Altitude_Wing_cm,CM_Airspeed_cm,Subject_ac,SampleDate_ac,SampleTime_ac,Configuration_ac,Scenario_ac,DisTime_ac,MarkingTxt_ac,Application_ac,EntId_ac,Site_ac,ExerciseId_ac,ForceId_ac,Category_ac,Country_ac,Domain_ac,Kind_ac,Extra_ac,Specific_ac,Subcategory_ac,AltCategory_ac,AltCountry_ac,AltDomain_ac,AltKind_ac,ECEF_X_ac,ECEF_Y_ac,ECEF_Z_ac,OriPhi_ac,OriPsi_ac,OriTheta_ac,LinVelX_ac,LinVelY_ac,LinVelZ_ac,LinAccX_ac,LinAccY_ac,LinAccZ_ac,AngVelX_ac,AngVelY_ac,AngVelZ_ac,DrAlg_ac,Appearance_ac,Latitude_ac,Longitude_ac,Altitude_ac,Heading_ac,Pitch_ac,Roll_ac,CalibratedAirspeed_ac,CM_Altitude_Lead_ac,CM_Altitude_Wing_ac,CM_Airspeed_ac,Bank_Angle_Condition,distance_nm,Distance_Condition,angle_between_vel,angle_between_pos,Cone_Condition,angle_between_pos_nose,Nose_Cone_Condition,Intercept_Criteria
8,1970-07-23 09:59:53.779200089,2025-09-10,2025-09-26 15:49:37.920,AA,C,3263277636,JASSM,3,128,76,2,2,1,225,9,2,0,1,26,0,0,0,0,-180581.09314139312,-4777980.299775924,4211689.300261021,-2.36693,-0.400848,0.381002,81.875,-34.625,-35.5,0.0,0.0,0.0,0.0,0.0,0.0,2,0,41.56609048870113,-92.16443176150256,9999.996483778916,119.79864670575652,-0.0030397341771485,0.0045532414667818,,9133.40005056179,11009.472056291774,150,8,2025-09-10,2025-09-26 15:49:38.034,AA,C,3220815094,AMBUSH51,1,1,48,2,1,1,225,2,1,0,0,9,1,225,2,1,-141552.3568830449,-4793970.6754143,4194690.208219161,2.37473,2.62405,-0.517893,-73.9408,45.8775,50.1135,-0.0434277,-7.28455,6.62005,-0.0402834,0.00325925,-0.0172513,4,0,41.36403303731311,-91.69129045584214,9133.16760721928,-50.139874591277525,1.225767848040792,-2.4040360829409924,177.514,9133.40005056179,11009.472056291774,150,True,24.4564022209893,False,168.57253588263188,179.3749265394757,False,11.709815397048999,True,False
8,1970-07-23 09:59:53.792819538,2025-09-10,2025-09-26 15:49:39.281,AA,C,3264530200,JASSM,3,128,76,2,2,1,225,9,2,0,1,26,0,0,0,0,-180495.15075858065,-4778016.735322799,4211651.903776646,-2.36693,-0.400848,0.381098,81.875,-34.625,-35.5,0.0,0.0,0.0,0.0,0.0,0.0,2,0,41.56564066242502,-92.16338615972106,10000.001857055073,119.80318246304338,-0.0060633724521536,0.0045513958794355,,9133.40005056179,11009.472056291774,150,8,2025-09-10,2025-09-26 15:49:39.167,AA,C,3222167160,AMBUSH51,1,1,48,2,1,1,225,2,1,0,0,9,1,225,2,1,-141636.9603271287,-4793918.043648729,4194746.854090727,2.33049,2.62881,-0.51282,-74.2618,45.612,49.7111,-0.108504,-7.28671,6.35715,-0.0301634,-0.00353597,-0.00480721,4,0,41.36471371363376,-91.69231929258112,9132.592493257696,-50.51076804355675,1.166723524502255,-4.812205360240847,177.477,9133.40005056179,11009.472056291774,150,True,24.34203170134664,False,168.89922182510855,179.3586230425943,False,11.414217568679277,True,False
8,1970-07-23 09:59:53.798216480,2025-09-10,2025-09-26 15:49:39.821,AA,C,3265663844,JASSM,3,128,76,2,2,1,225,9,2,0,1,26,0,0,0,0,-180417.3675554556,-4778049.707979049,4211618.056120396,-2.36693,-0.400848,0.381098,81.875,-34.625,-35.5,0.0,0.0,0.0,0.0,0.0,0.0,2,0,41.56523354581325,-92.16243983927356,9999.998636756613,119.80381032312948,-0.0052466372657197,0.0045500391955116,,9133.40005056179,11009.472056291774,150,8,2025-09-10,2025-09-26 15:49:39.934,AA,C,3223081792,AMBUSH51,1,1,48,2,1,1,225,2,1,0,0,9,1,225,2,1,-141694.05620016326,-4793882.722533906,4194784.660499303,2.32139,2.63321,-0.509875,-74.5042,45.5991,49.0601,-0.0625696,-7.37387,6.46904,0.0168913,0.0101627,-0.0120435,4,0,41.3651690447128,-91.69301356031272,9131.7812914817,-50.78779899577048,1.1879116455954777,-5.2158450964489775,177.269,9133.40005056179,11009.472056291774,150,True,24.25253831726869,False,169.2161431225892,179.34675786362212,False,11.129071286506514,True,False
8,1970-07-23 09:59:53.809617471,2025-09-10,2025-09-26 15:49:40.961,AA,C,3266857056,JASSM,3,128,76,2,2,1,225,9,2,0,1,26,0,0,0,0,-180335.4964617056,-4778084.413057174,4211582.429167271,-2.36693,-0.400848,0.381098,81.875,-34.625,-35.5,0.0,0.0,0.0,0.0,0.0,0.0,2,0,41.56480502454637,-92.16144379806174,9999.99778360644,119.80447116625103,-0.0043869785780594,0.0045486109013742,,9133.40005056179,11009.472056291774,150,8,2025-09-10,2025-09-26 15:49:40.834,AA,C,3224155490,AMBUSH51,1,1,48,2,1,1,225,2,1,0,0,9,1,225,2,1,-141760.98987474706,-4793841.967442559,4194828.435068993,2.34221,2.64128,-0.501642,-74.7972,44.9999,48.8979,-0.181183,-7.35581,6.40487,0.0453559,-0.00261011,-0.00961963,4,0,41.36569526129867,-91.69382723476168,9131.2549930572,-51.40460793842053,1.1075789116631816,-3.811183327722142,176.805,9133.40005056179,11009.472056291774,150,True,24.153715546144813,False,169.53727239914406,179.3330459547623,False,10.819957672794118,True,False
8,1970-07-23 09:59:53.818796446,2025-09-10,2025-09-26 15:49:41.879,AA,C,3268049688,JASSM,3,128,76,2,2,1,225,9,2,0,1,26,0,0,0,0,-180253.66638358065,-4778119.100557174,4211546.819792271,-2.36693,-0.400848,0.381098,81.875,-34.625,-35.5,0.0,0.0,0.0,0.0,0.0,0.0,2,0,41.564376708630014,-92.16044826908356,10000.000584614174,119.80513166393013,-0.0035277502167116,0.0045471826666231,,9133.40005056179,11009.472056291774,150,8,2025-09-10,2025-09-26 15:49:42.002,AA,C,3225547322,AMBUSH51,1,1,48,2,1,1,225,2,1,0,0,9,1,225,2,1,-141848.9865236071,-4793788.935244589,4194885.106997928,2.41433,2.64508,-0.500376,-74.8008,44.8414,48.4037,-0.0748276,-7.66325,6.49176,0.093324,0.0175384,-0.000562801,4,0,41.3663778746212,-91.69489678617254,9130.014538175405,-51.59578483459207,1.1827069409893525,0.4214424976563973,176.34,9133.40005056179,11009.472056291774,150,True,24.040298025019954,False,169.75000159498612,179.31507759203797,False,10.642032439301524,True,False
8,1970-07-23 09:59:53.828194797,2025-09-10,2025-09-26 15:49:42.819,AA,C,3269242734,JASSM,3,128,76,2,2,1,225,9,2,0,1,26,0,0,0,0,-180171.80700858065,-4778153.799775924,4211511.196745396,-2.36693,-0.400848,0.381098,81.875,-34.5,-35.5,0.0,0.0,0.0,0.0,0.0,0.0,2,0,41.56394822867451,-92.15945239715762,10000.004373563304,119.80579238355016,-0.0026682133622184,0.0045457519973417,,9133.40005056179,11009.472056291774,150,8,2025-09-10,2025-09-26 15:49:42.800,AA,C,3226501722,AMBUSH51,1,1,48,2,1,1,225,2,1,0,0,9,1,225,2,1,-141908.8199819112,-4793752.9415787365,4194923.664471985,2.46707,2.64074,-0.501537,-74.4745,44.8619,48.4595,-0.279546,-7.34352,6.45794,0.0417919,0.000997645,0.00824644,4,0,41.366841779996335,-91.6956240189481,9129.387268855487,-51.38967560598699,1.0868091222799767,3.3277771695830705,175.778,9133.40005056179,11009.472056291774,150,True,23.946710644649546,False,169.56196768955985,179.37171372776933,False,10.81017348854199,True,False
8,1970-07-23 09:59:53.837201227,2025-09-10,2025-09-26 15:49:43.720,AA,C,3270376130,JASSM,3,128,76,2,2,1,225,9,2,0,1,26,0,0,0,0,-180094.04040701812,-4778186.760713424,4211477.352995396,-2.36693,-0.400848,0.381098,81.875,-34.5,-35.5,0.0,0.0,0.0,0.0,0.0,0.0,2,0,41.56354117205905,-92.158506330176,10000.000137860432,119.8064200544788,-0.0018516564046084,0.004544399526083,,9133.40005056179,11009.472056291774,150,8,2025-09-10,2025-09-26 15:49:43.567,AA,C,3227416354,AMBUSH51,1,1,48,2,1,1,225,2,1,0,0,9,1,225,2,1,-141965.93607679123,-4793718.201726194,4194960.755658147,2.49921,2.63348,-0.505812,-74.0292,45.0758,48.6878,-0.15215,-7.3711,6.3064,0.024396,0.00287434,-0.00450969,4,0,41.367288800745165,-91.69631836849008,9128.471751730656,-50.95523379731381,1.026609993309184,4.976639535406052,175.399,9133.40005056179,11009.472056291774,150,True,23.857482279567193,False,169.2575677358693,179.3583322907554,False,11.13497705891997,True,False
8,1970-07-23 09:59:53.847213687,2025-09-10,2025-09-26 15:49:44.721,AA,C,3271569532,JASSM,3,128,76,2,2,1,225,9,2,0,1,26,0,0,0,0,-180012.15661795562,-4778221.467744674,4211441.716276646,-2.36693,-0.400752,0.381098,81.875,-34.5,-35.5,0.0,0.0,0.0,0.0,0.0,0.0,2,0,41.56311254203736,-92.15751018805014,10000.000268823089,119.80343662082906,-0.004558308023392,0.0025000051381126,,9133.40005056179,11009.472056291774,150,8,2025-09-10,2025-09-26 15:49:44.567,AA,C,3228609352,AMBUSH51,1,1,48,2,1,1,225,2,1,0,0,9,1,225,2,1,-142039.25133021548,-4793673.198401812,4195008.65615811,2.4981,2.62652,-0.516265,-73.2719,45.4664,48.8664,-0.208065,-7.46967,6.52352,-0.0307044,-0.0041976,0.013346,4,0,41.367866995840224,-91.69720980744847,9126.918285227834,-50.29754720434488,1.243310512847276,4.730839849566707,175.057,9133.40005056179,11009.472056291774,150,True,23.75408917643027,False,168.80149764601782,179.3404282760214,False,11.622036032811483,True,False
8,1970-07-23 09:59:53.858018295,2025-09-10,2025-09-26 15:49:45.801,AA,C,3272643302,JASSM,3,128,76,2,2,1,225,9,2,0,1,26,0,0,0,0,-179938.48083670562,-4778252.694307174,4211409.651823521,-2.36693,-0.400752,0.381098,81.875,-34.5,-35.5,0.0,0.0,0.0,0.0,0.0,0.0,2,0,41.56272687933458,-92.15661391083324,10000.000982610978,119.80403124898206,-0.0037847033016282,0.002498671142626,,9133.40005056179,11009.472056291774,150,8,2025-09-10,2025-09-26 15:49:45.867,AA,C,3230160250,AMBUSH51,1,1,48,2,1,1,225,2,1,0,0,9,1,225,2,1,-142134.38255163791,-4793613.782007981,4195072.044680816,2.44468,2.61458,-0.519425,-72.6494,45.8529,48.963,-0.104986,-7.36326,6.35426,-0.0352213,0.00229802,0.00623242,4,0,41.36863164396914,-91.69836689190366,9125.072392288232,-49.7326463645968,0.9867336877467354,1.3425267333205917,174.764,9133.40005056179,11009.472056291774,150,True,23.63996993087061,False,168.42252805920253,179.31572236010774,False,12.04213648168908,True,False
8,1970-07-23 09:59:53.866214386,2025-09-10,2025-09-26 15:49:46.621,AA,C,3273776310,JASSM,3,128,76,2,2,1,225,9,2,0,1,26,0,0,0,0,-179860.74157889312,-4778285.641572799,4211375.817839146,-2.36693,-0.400752,0.381098,81.875,-34.5,-35.5,0.0,0.0,0.0,0.0,0.0,0.0,2,0,41.56231994046791,-92.15566821305414,9999.999754401792,119.80465865990894,-0.0029684330116134,0.0024972650874537,,9133.40005056179,11009.472056291774,150,8,2025-09-10,2025-09-26 15:49:46.767,AA,C,3231233950,AMBUSH51,1,1,48,2,1,1,225,2,1,0,0,9,1,225,2,1,-142199.8881752851,-4793572.671681603,4195115.764029902,2.41894,2.61658,-0.521647,-72.4715,45.8385,48.8261,-0.188131,-7.3201,6.47423,-0.0185495,0.00502984,-0.00178827,4,0,41.369159813636045,-91.6991637249106,9123.475098541136,-49.72385497717884,1.148784609430277,-0.0754172527327947,174.544,9133.40005056179,11009.472056291774,150,True,23.54436704107122,False,168.40150395421557,179.2972260494303,False,12.09029818062962,True,False
8,1970-07-23 09:59:53.875174013,2025-09-10,2025-09-26 15:49:47.517,AA,C,3274909708,JASSM,3,128,76,2,2,1,225,9,2,0,1,26,0,0,0,0,-179782.97497733062,-4778318.600557174,4211341.970182896,-2.36693,-0.400752,0.381098,81.875,-34.5,-35.5,0.0,0.0,0.0,0.0,0.0,0.0,2,0,41.56191283795284,-92.15472219445256,9999.99924316435,119.8052862786334,-0.0021518691996438,0.0024958475035177,,9133.40005056179,11009.472056291774,150,8,2025-09-10,2025-09-26 15:49:47.667,AA,C,3232307648,AMBUSH51,1,1,48,2,1,1,225,2,1,0,0,9,1,225,2,1,-142265.84911079324,-4793530.819554863,4195160.246117755,2.39995,2.61536,-0.52216,-72.3715,45.7708,48.792,-0.139948,-7.24396,6.57298,-0.00193599,-0.00148659,0.00242077,4,0,41.36969745971485,-91.69996627127304,9121.743395509113,-49.659394494947456,1.1316278065006982,-1.1965763514768155,174.251,9133.40005056179,11009.472056291774,150,True,23.44824756956636,False,168.3917748717596,179.27750163899523,False,12.12554744397202,True,False
8,1970-07-23 09:59:53.885196751,2025-09-10,2025-09-26 15:49:48.519,AA,C,3276043098,JASSM,3,128,76,2,2,1,225,9,2,0,1,26,0,0,0,0,-179705.20837576812,-4778351.557588424,4211308.122526646,-2.36693,-0.400752,0.381194,81.875,-34.5,-35.5,0.0,0.0,0.0,0.0,0.0,0.0,2,0,41.56150573927881,-92.15377618860556,9999.998195230866,119.8097560455362,-0.0052612276574727,0.002494218493348,,9133.40005056179,11009.472056291774,150,8,2025-09-10,2025-09-26 15:49:48.467,AA,C,3233262048,AMBUSH51,1,1,48,2,1,1,225,2,1,0,0,9,1,225,2,1,-142323.17239722333,-4793494.681220413,4195198.7660241965,2.39478,2.61573,-0.521954,-72.3995,45.652,48.7047,-0.154284,-7.25047,6.65703,0.00283689,0.00819442,0.0139077,4,0,41.37016238262672,-91.7006636515504,9120.518268254073,-49.681604811499405,1.135671234795545,-1.4829490080637104,174.422,9133.40005056179,11009.472056291774,150,True,23.358389139862254,False,168.4639592048581,179.25995474602743,False,12.075405877471042,True,False
8,1970-07-23 09:59:53.894223437,2025-09-10,2025-09-26 15:49:49.422,AA,C,3277176756,JASSM,3,128,76,2,2,1,225,9,2,0,1,26,0,0,0,0,-179627.42419608062,-4778384.522432174,4211274.265104771,-2.36693,-0.400752,0.381194,81.875,-34.5,-35.5,0.0,0.0,0.0,0.0,0.0,0.0,2,0,41.56109852436485,-92.15282998064151,9999.997690483347,119.81038377988054,-0.0044444771659796,0.0024928509024939,,9133.40005056179,11009.472056291774,150,8,2025-09-10,2025-09-26 15:49:49.633,AA,C,3234653880,AMBUSH51,1,1,48,2,1,1,225,2,1,0,0,9,1,225,2,1,-142407.86307920734,-4793441.20459774,4195255.831834221,2.4223,2.6201,-0.521084,-72.3312,45.5291,48.7139,-0.0967919,-7.35489,6.66134,0.100854,-8.63447e-05,-0.00235627,4,0,41.37085081926607,-91.70169402498226,9118.842159929094,-49.87821623006588,1.2427885168997337,0.2143783970768479,174.287,9133.40005056179,11009.472056291774,150,True,23.248913738074908,False,168.46735592016168,179.23403541162156,False,12.10306384066556,True,False
8,1970-07-23 09:59:53.906019312,2025-09-10,2025-09-26 15:49:50.601,AA,C,3278309884,JASSM,3,128,76,2,2,1,225,9,2,0,1,26,0,0,0,0,-179549.67517264312,-4778417.469697799,4211240.425261021,-2.36693,-0.400752,0.381194,81.875,-34.5,-35.5,0.0,0.0,0.0,0.0,0.0,0.0,2,0,41.56069151699705,-92.15188421341436,9999.99982050492,119.81101121678113,-0.0036281121107981,0.0024915106109467,,9133.40005056179,11009.472056291774,150,8,2025-09-10,2025-09-26 15:49:50.634,AA,C,3235846878,AMBUSH51,1,1,48,2,1,1,225,2,1,0,0,9,1,225,2,1,-142480.6107899611,-4793395.326488908,4195305.016720145,2.52327,2.62139,-0.523802,-71.9583,45.0941,49.55,-0.229833,-7.41628,6.64342,0.0616387,-0.0057414,0.00463661,4,0,41.37144294938785,-91.70257909360878,9117.9097849668,-49.82382083734536,1.402894501531995,6.037957602920591,174.116,9133.40005056179,11009.472056291774,150,True,23.147987944006438,False,168.1492942282469,179.21090511015257,False,12.428216744262446,True,False
8,1970-07-23 09:59:53.914826869,2025-09-10,2025-09-26 15:49:51.482,AA,C,3279443454,JASSM,3,128,76,2,2,1,225,9,2,0,1,26,0,0,0,0,-179471.89685233062,-4778450.430635299,4211206.569792271,-2.36693,-0.400752,0.381194,81.875,-34.5,-35.5,0.0,0.0,0.0,0.0,0.0,0.0,2,0,41.56028432160156,-92.15093810111976,10000.00303497039,119.81163887755704,-0.0028114256652079,0.0024901466940567,,9133.40005056179,11009.472056291774,150,8,2025-09-10,2025-09-26 15:49:51.501,AA,C,3236880810,AMBUSH51,1,1,48,2,1,1,225,2,1,0,0,9,1,225,2,1,-142542.4342747495,-4793355.847548207,4195347.273091619,2.55248,2.60789,-0.534076,-71.301,45.9024,49.7801,0.03745,-7.19926,6.50554,0.0232142,0.014817,0.0227087,4,0,41.371952159999,-91.70333144185736,9116.906925422882,-48.93392139448504,1.4055060905230203,7.34325212417436,173.945,9133.40005056179,11009.472056291774,150,True,23.05468067716671,False,167.60326838037605,179.18982701242535,False,13.01266035278818,True,False
8,1970-07-23 09:59:53.923173279,2025-09-10,2025-09-26 15:49:52.317,AA,C,3280576676,JASSM,3,128,76,2,2,1,225,9,2,0,1,26,0,0,0,0,-179394.14196951812,-4778483.377900924,4211172.722136021,-2.36693,-0.400752,0.381194,81.875,-34.5,-35.5,0.0,0.0,0.0,0.0,0.0,0.0,2,0,41.55987724731959,-92.1499922874782,9999.99612801246,119.81226633515487,-0.0019949894436973,0.0024887879258607,,9133.40005056179,11009.472056291774,150,8,2025-09-10,2025-09-26 15:49:52.400,AA,C,3237954510,AMBUSH51,1,1,48,2,1,1,225,2,1,0,0,9,1,225,2,1,-142606.5844552885,-4793314.1232789485,4195392.272937523,2.55014,2.59585,-0.546233,-70.6623,46.4416,50.5955,-0.269894,-7.37227,7.14126,-0.044892,0.00589745,0.0135145,4,0,41.37249283414314,-91.70411238671204,9116.501624079763,-48.03071302988181,1.5448390605224356,6.877672591476758,174.593,9133.40005056179,11009.472056291774,150,True,22.959348805959724,False,166.93615224073736,179.16647120964325,False,13.706101554626427,True,False
8,1970-07-23 09:59:53.932172533,2025-09-10,2025-09-26 15:49:53.217,AA,C,3281710068,JASSM,3,128,76,2,2,1,225,9,2,0,1,26,0,0,0,0,-179316.37536795562,-4778516.331025924,4211138.870573521,-2.36693,-0.400657,0.381194,81.875,-34.5,-35.5,0.0,0.0,0.0,0.0,0.0,0.0,2,0,41.55947010659092,-92.14904634276064,9999.99826788503,119.809249821012,-0.00474487181726,0.0004439962988904,,9133.40005056179,11009.472056291774,150,8,2025-09-10,2025-09-26 15:49:53.234,AA,C,3238948676,AMBUSH51,1,1,48,2,1,1,225,2,1,0,0,9,1,225,2,1,-142665.22658428983,-4793275.132551721,4195434.633400552,2.48435,2.59064,-0.551088,-70.1739,46.8825,51.1799,-0.134321,-7.21721,7.00078,-0.0993245,-0.00635726,0.0118812,4,0,41.37300039782424,-91.70482659133636,9116.70047024043,-47.65665442051689,1.5905249250321696,2.96245454827384,174.886,9133.40005056179,11009.472056291774,150,True,22.8676001843749,False,166.4336109044471,179.14325031664512,False,14.236367891530254,True,False
8,1970-07-23 09:59:53.941193873,2025-09-10,2025-09-26 15:49:54.119,AA,C,3282783812,JASSM,3,128,76,2,2,1,225,9,2,0,1,26,0,0,0,0,-179242.70153983062,-4778547.549775924,4211106.800261021,-2.36693,-0.400657,0.381194,81.875,-34.5,-35.5,0.0,0.0,0.0,0.0,0.0,0.0,2,0,41.55908438439415,-92.148150193099,10000.00330582088,119.80984432191546,-0.0039712874059763,0.000442660513873,,9133.40005056179,11009.472056291774,150,8,2025-09-10,2025-09-26 15:49:54.134,AA,C,3240022374,AMBUSH51,1,1,48,2,1,1,225,2,1,0,0,9,1,225,2,1,-142729.54597024937,-4793232.377368752,4195481.414566616,2.41554,2.58704,-0.547847,-70.3501,46.9191,51.7159,0.033921,-7.14494,6.88685,-0.0503223,0.00694815,-0.00192559,4,0,41.37355919248367,-91.70560994856474,9117.641224829802,-47.64414506285458,1.335731422575688,-1.087725110601807,175.79,9133.40005056179,11009.472056291774,150,True,22.7742182194475,False,166.31899933780926,179.1174833472441,False,14.37508081167692,True,False
8,1970-07-23 09:59:53.951196509,2025-09-10,2025-09-26 15:49:55.119,AA,C,3283917208,JASSM,3,128,76,2,2,1,225,9,2,0,1,26,0,0,0,0,-179164.93493826812,-4778580.498994674,4211072.946745396,-2.36693,-0.400657,0.381194,81.875,-34.5,-35.5,0.0,0.0,0.0,0.0,0.0,0.0,2,0,41.55867723860803,-92.14720427325932,9999.999896905152,119.81047183517194,-0.0031547353283226,0.0004412601691913,,9133.40005056179,11009.472056291774,150,8,2025-09-10,2025-09-26 15:49:54.966,AA,C,3241016540,AMBUSH51,1,1,48,2,1,1,225,2,1,0,0,9,1,225,2,1,-142788.5119146009,-4793193.342230375,4195524.215984429,2.37502,2.59741,-0.540159,-70.6772,46.9479,51.53,-0.225912,-7.02435,6.85843,-0.0280974,0.00100805,-0.0188013,4,0,41.374069931568,-91.7063280595586,9118.718039152587,-48.31736686718646,1.333491310804886,-3.1172172756654613,175.998,9133.40005056179,11009.472056291774,150,True,22.682234844415948,False,166.50610995844622,179.09328262749838,False,14.220006706199682,True,False
8,1970-07-23 09:59:53.962004176,2025-09-10,2025-09-26 15:49:56.200,AA,C,3284990950,JASSM,3,128,76,2,2,1,225,9,2,0,1,26,0,0,0,0,-179091.26208670562,-4778611.715791549,4211040.874479771,-2.36693,-0.400657,0.381194,81.875,-34.5,-35.5,0.0,0.0,0.0,0.0,0.0,0.0,2,0,41.55829150028399,-92.14630815807377,10000.003831281772,119.8110663038883,-0.0023811581170316,0.0004399181547666,,9133.40005056179,11009.472056291774,150,8,2025-09-10,2025-09-26 15:49:56.234,AA,C,3242527672,AMBUSH51,1,1,48,2,1,1,225,2,1,0,0,9,1,225,2,1,-142878.48925764972,-4793134.354853667,4195588.57198426,2.32566,2.60989,-0.533628,-71.5231,46.53,51.1339,-0.220694,-7.1041,7.23087,-0.0251846,0.00969037,-0.00234587,4,0,41.37483938456798,-91.70742365588116,9119.71599623326,-49.02765958793998,1.4551109266558926,-5.597021846818347,175.876,9133.40005056179,11009.472056291774,150,True,22.5704627740865,False,167.08037059132653,179.05768096642856,False,13.68593269376216,True,False
8,1970-07-23 09:59:53.970793425,2025-09-10,2025-09-26 15:49:57.079,AA,C,3286184006,JASSM,3,128,76,2,2,1,225,9,2,0,1,26,0,0,0,0,-179009.39978201812,-4778646.399385299,4211005.235807896,-2.36684,-0.400657,0.38129,81.875,-34.5,-35.5,0.0,0.0,0.0,0.0,0.0,0.0,2,0,41.557862886084926,-92.14531244493962,10000.001952870078,119.81556914156674,-0.0054473746829903,0.0059296742685787,,9133.40005056179,11009.472056291774,150,8,2025-09-10,2025-09-26 15:49:57.033,AA,C,3243482070,AMBUSH51,1,1,48,2,1,1,225,2,1,0,0,9,1,225,2,1,-142936.19205425,-4793097.266825139,4195629.20555417,2.32023,2.61369,-0.529386,-72.1498,46.1525,50.793,-0.127824,-7.01485,6.79458,0.00432868,-0.00147826,-0.0147441,4,0,41.37532411705106,-91.70812601547262,9120.799279541798,-49.32953570448721,1.3965937726649231,-5.805325452197709,176.511,9133.40005056179,11009.472056291774,150,True,22.477296122684095,False,167.53675211019757,179.03438340853276,False,13.254395137324412,True,False
8,1970-07-23 09:59:53.979173053,2025-09-10,2025-09-26 15:49:57.917,AA,C,3287317390,JASSM,3,128,76,2,2,1,225,9,2,0,1,26,0,0,0,0,-178931.63415701812,-4778679.346650924,4210971.380339146,-2.36684,-0.400657,0.38129,81.875,-34.5,-35.5,0.0,0.0,0.0,0.0,0.0,0.0,2,0,41.557455715150326,-92.1443665732899,10000.002354820725,119.81619660779693,-0.004630829644793,0.0059283224136401,,9133.40005056179,11009.472056291774,150,8,2025-09-10,2025-09-26 15:49:57.833,AA,C,3244436470,AMBUSH51,1,1,48,2,1,1,225,2,1,0,0,9,1,225,2,1,-142994.32426359053,-4793060.514309941,4195669.381904347,2.32493,2.61973,-0.523136,-72.7346,45.8141,50.3516,0.0416112,-7.11703,6.68871,0.01949,-0.00169673,-0.00359215,4,0,41.37580368600777,-91.70883339446684,9121.75145807401,-49.791320409084186,1.3260645335011054,-5.373102467265918,176.475,9133.40005056179,11009.472056291774,150,True,22.386663092592045,False,168.0001737822262,179.011606616227,False,12.817271545121628,True,False
8,1970-07-23 09:59:53.989075100,2025-09-10,2025-09-26 15:49:58.907,AA,C,3288450782,JASSM,3,128,76,2,2,1,225,9,2,0,1,26,0,0,0,0,-178853.86755545562,-4778712.293916549,4210937.522917271,-2.36684,-0.400657,0.38129,81.875,-34.5,-35.5,0.0,0.0,0.0,0.0,0.0,0.0,2,0,41.55704852347179,-92.14342070182124,10000.002670709586,119.81682406885828,-0.0038142705261377,0.0059269636528919,,9133.40005056179,11009.472056291774,150,8,2025-09-10,2025-09-26 15:49:59.066,AA,C,3245907834,AMBUSH51,1,1,48,2,1,1,225,2,1,0,0,9,1,225,2,1,-143085.06231948416,-4793003.79164088,4195731.325026126,2.36435,2.6296,-0.519906,-73.3494,45.3342,50.0117,0.0391841,-7.26827,6.93514,0.0497314,0.00494453,0.000693878,4,0,41.37654321725512,-91.70993732715873,9123.163925579483,-50.28203539544019,1.5140380358831147,-2.8446808678251863,176.475,9133.40005056179,11009.472056291774,150,True,22.27289068879415,False,168.4746129418259,178.97774728062797,False,12.3771500388534,True,False
8,1970-07-23 09:59:53.999593014,2025-09-10,2025-09-26 15:49:59.959,AA,C,3289584178,JASSM,3,128,76,2,2,1,225,9,2,0,1,26,0,0,0,0,-178776.09997733062,-4778745.239229049,4210903.665495396,-2.36684,-0.400657,0.38129,81.875,-34.5,-35.5,0.0,0.0,0.0,0.0,0.0,0.0,2,0,41.55664133585381,-92.14247483140892,10000.002359834834,119.8174515241685,-0.0029977102286323,0.0059256191816867,,9133.40005056179,11009.472056291774,150,8,2025-09-10,2025-09-26 15:49:59.933,AA,C,3246941766,AMBUSH51,1,1,48,2,1,1,225,2,1,0,0,9,1,225,2,1,-143148.7960116248,-4792964.505545973,4195774.464995187,2.4606,2.63037,-0.519221,-73.4041,45.0882,50.1703,-0.292508,-7.19907,6.51159,0.107089,-0.00517132,-0.00539602,4,0,41.3770568607463,-91.71071253746756,9124.72867007822,-50.337147475631305,1.5108952496016317,2.689930822135368,176.475,9133.40005056179,11009.472056291774,150,True,22.178612355869667,False,168.4997592119734,178.95356038069173,False,12.371441736999897,True,False
8,1970-07-23 09:59:54.008094039,2025-09-10,2025-09-26 15:50:00.809,AA,C,3290717902,JASSM,3,128,76,2,2,1,225,9,2,0,1,26,0,0,0,0,-178698.31091483062,-4778778.194307174,4210869.796354771,-2.36684,-0.400657,0.38129,81.875,-34.5,-35.5,0.0,0.0,0.0,0.0,0.0,0.0,2,0,41.556234008043056,-92.14152871126792,10000.002786810192,119.81807914008876,-0.002180914204251,0.0059242571598555,,9133.40005056179,11009.472056291774,150,8,2025-09-10,2025-09-26 15:50:00.733,AA,C,3247896166,AMBUSH51,1,1,48,2,1,1,225,2,1,0,0,9,1,225,2,1,-143207.4384697998,-4792928.020098749,4195814.364760846,2.51644,2.62558,-0.52277,-73.0493,45.4166,50.4252,-0.149201,-7.03483,6.60107,0.0522365,0.00683996,0.0165126,4,0,41.3775328667986,-91.71142595287012,9125.7875904427,-50.024556800623,1.505441806809745,5.761416294187786,176.096,9133.40005056179,11009.472056291774,150,True,22.087846465663915,False,168.19437380634812,178.93028674981338,False,12.706193126266987,True,False
8,1970-07-23 09:59:54.017115155,2025-09-10,2025-09-26 15:50:01.711,AA,C,3291851358,JASSM,3,128,76,2,2,1,225,9,2,0,1,26,0,0,0,0,-178620.53943045562,-4778811.139619674,4210835.935026646,-2.36684,-0.400561,0.38129,81.875,-34.5,-35.5,0.0,0.0,0.0,0.0,0.0,0.0,2,0,41.55582677936981,-92.1405828178375,10000.002126701687,119.81506281495224,-0.0049307451016161,0.0038789957963597,,9133.40005056179,11009.472056291774,150,8,2025-09-10,2025-09-26 15:50:01.833,AA,C,3249208464,AMBUSH51,1,1,48,2,1,1,225,2,1,0,0,9,1,225,2,1,-143287.22648298246,-4792877.710361758,4195869.419728539,2.56404,2.60843,-0.537043,-72.2629,46.0903,51.0977,-0.181135,-7.23907,6.61395,0.0226816,-0.00731017,0.0191175,4,0,41.37818966591583,-91.71239686991498,9127.254835569356,-48.84808086465855,1.5602465892391608,8.023049028668169,176.353,9133.40005056179,11009.472056291774,150,True,21.98172475606314,False,167.49282530109923,178.89799643177608,False,13.447722777327881,True,False
8,1970-07-23 09:59:54.027116804,2025-09-10,2025-09-26 15:50:02.711,AA,C,3292984360,JASSM,3,128,76,2,2,1,225,9,2,0,1,26,0,0,0,0,-178542.79919608062,-4778844.071260299,4210802.085417271,-2.36684,-0.400561,0.38129,81.875,-34.5,-35.5,0.0,0.0,0.0,0.0,0.0,0.0,2,0,41.555419696401614,-92.13963731654589,10000.000547407102,119.81569001034669,-0.0041144649256807,0.0038775863348036,,9133.40005056179,11009.472056291774,150,8,2025-09-10,2025-09-26 15:50:02.633,AA,C,3250162864,AMBUSH51,1,1,48,2,1,1,225,2,1,0,0,9,1,225,2,1,-143344.90967739775,-4792840.396385855,4195910.351757508,2.52983,2.59949,-0.540173,-71.6213,46.6377,51.5973,-0.0109746,-7.15416,6.52295,-0.094768,-0.00219191,0.00553334,4,0,41.37867773012061,-91.71309914854696,9128.450861504643,-48.39869348514655,1.4077962373395687,5.812122612998619,176.267,9133.40005056179,11009.472056291774,150,True,21.891086819843068,False,166.93789339989394,178.8719767667855,False,14.035017490177811,True,False
8,1970-07-23 09:59:54.036122503,2025-09-10,2025-09-26 15:50:03.612,AA,C,3294058258,JASSM,3,128,76,2,2,1,225,9,2,0,1,26,0,0,0,0,-178469.11364920562,-4778875.284150924,4210770.001432896,-2.36684,-0.400561,0.38129,81.875,-34.5,-35.5,0.0,0.0,0.0,0.0,0.0,0.0,2,0,41.55503384610792,-92.13874114110682,10000.000476094312,119.81628448092806,-0.0033407634781405,0.0038762568492458,,9133.40005056179,11009.472056291774,150,8,2025-09-10,2025-09-26 15:50:03.433,AA,C,3251117262,AMBUSH51,1,1,48,2,1,1,225,2,1,0,0,9,1,225,2,1,-143402.28313953674,-4792802.909289268,4195951.456585814,2.46297,2.59213,-0.545596,-71.2878,46.8881,51.8413,-0.0907799,-7.35252,6.61731,-0.0713217,-0.00214821,0.00322804,4,0,41.37916804151544,-91.7137978000696,9129.576138485529,-47.922841471309866,1.4082541366204102,1.7749572100044624,176.389,9133.40005056179,11009.472056291774,150,True,21.80308017450891,False,166.66286434244572,178.8452706167323,False,14.340929562047892,True,False
8,1970-07-23 09:59:54.045054236,2025-09-10,2025-09-26 15:50:04.505,AA,C,3295191496,JASSM,3,128,76,2,2,1,225,9,2,0,1,26,0,0,0,0,-178391.35778983062,-4778908.219697799,4210736.144011021,-2.36684,-0.400561,0.38129,81.875,-34.5,-35.5,0.0,0.0,0.0,0.0,0.0,0.0,2,0,41.55462667550434,-92.1377954741088,9999.998328680718,119.8169117764098,-0.0025243245800772,0.0038748547317221,,9133.40005056179,11009.472056291774,150,8,2025-09-10,2025-09-26 15:50:04.333,AA,C,3252190962,AMBUSH51,1,1,48,2,1,1,225,2,1,0,0,9,1,225,2,1,-143466.54067871103,-4792760.6107187215,4195998.126040692,2.41008,2.59537,-0.542934,-71.2252,46.9253,51.9428,-0.235188,-7.31019,6.7828,-0.0544315,-0.00251024,-0.00333207,4,0,41.37972331507969,-91.71458040524008,9131.440828091088,-48.14321430916807,1.3969720313239775,-1.1644322772882576,176.475,9133.40005056179,11009.472056291774,150,True,21.707336503823367,False,166.59499398898168,178.81448072522386,False,14.442169353732103,True,False
8,1970-07-23 09:59:54.054073513,2025-09-10,2025-09-26 15:50:05.407,AA,C,3296265238,JASSM,3,128,76,2,2,1,225,9,2,0,1,26,0,0,0,0,-178317.68298514312,-4778939.426729049,4210704.063932896,-2.36684,-0.400561,0.38129,81.875,-34.5,-35.5,0.0,0.0,0.0,0.0,0.0,0.0,2,0,41.55424086967296,-92.13689945180676,10000.001216520228,119.8175061360918,-0.0017507374997924,0.0038735274297134,,9133.40005056179,11009.472056291774,150,8,2025-09-10,2025-09-26 15:50:05.566,AA,C,3253662326,AMBUSH51,1,1,48,2,1,1,225,2,1,0,0,9,1,225,2,1,-143555.1913962377,-4792702.406124762,4196062.252499307,2.34738,2.60126,-0.538948,-71.5914,46.6946,51.601,-0.153262,-7.53616,6.68557,-0.0375849,0.00640719,0.00781159,4,0,41.38048671905596,-91.71566006725077,9133.829502746965,-48.51218403679778,1.4143678014108705,-4.592354256815997,176.524,9133.40005056179,11009.472056291774,150,True,21.596455816373677,False,166.91106385615342,178.77286137331848,False,14.172787841663137,True,False
8,1970-07-23 09:59:54.065093293,2025-09-10,2025-09-26 15:50:06.509,AA,C,3297577588,JASSM,3,128,76,2,2,1,225,9,2,0,1,26,0,0,0,0,-178227.63708670562,-4778977.567354049,4210664.852995396,-2.36684,-0.400561,0.381386,81.875,-34.5,-35.5,0.0,0.0,0.0,0.0,0.0,0.0,2,0,41.553769314068525,-92.1358043414818,10000.002585925007,119.82207499451508,-0.0047308881992748,0.0038717095619454,,9133.40005056179,11009.472056291774,150,8,2025-09-10,2025-09-26 15:50:06.433,AA,C,3254696258,AMBUSH51,1,1,48,2,1,1,225,2,1,0,0,9,1,225,2,1,-143617.5224321467,-4792662.065463964,4196106.824064128,2.33452,2.6066,-0.536074,-72.0236,46.2186,51.3745,-0.0941661,-7.15537,6.60349,0.010404,0.00422673,-0.0101731,4,0,41.38101651214483,-91.7164189924749,9135.829693390153,-48.81937338096431,1.4633947327789532,-5.180000202200767,176.353,9133.40005056179,11009.472056291774,150,True,21.494672952218977,False,167.27315016019597,178.74254052587256,False,13.837728179988577,True,False
8,1970-07-23 09:59:54.075093435,2025-09-10,2025-09-26 15:50:07.509,AA,C,3298770634,JASSM,3,128,76,2,2,1,225,9,2,0,1,26,0,0,0,0,-178145.77673514312,-4779012.239229049,4210629.204557896,-2.36684,-0.400561,0.381386,81.875,-34.5,-35.5,0.0,0.0,0.0,0.0,0.0,0.0,2,0,41.5533406122948,-92.13480879577408,10000.000618200453,119.82273535981744,-0.0038713463255994,0.0038702800484892,,9133.40005056179,11009.472056291774,150,8,2025-09-10,2025-09-26 15:50:07.699,AA,C,3256207390,AMBUSH51,1,1,48,2,1,1,225,2,1,0,0,9,1,225,2,1,-143708.71766970408,-4792603.746332128,4196170.949687729,2.3831,2.61759,-0.526748,-72.5518,45.9378,50.78,-0.279418,-7.11474,6.57059,0.0717275,-0.00593698,-0.0124617,4,0,41.38178012016478,-91.71752913047791,9138.135883577368,-49.58072741332616,1.4201655390328516,-2.0966126656192072,176.182,9133.40005056179,11009.472056291774,150,True,21.377464977637107,False,167.75186987852578,178.70083283010845,False,13.408050296532066,True,False
8,1970-07-23 09:59:54.086072200,2025-09-10,2025-09-26 15:50:08.607,AA,C,3300023334,JASSM,3,128,76,2,2,1,225,9,2,0,1,26,0,0,0,0,-178059.82361014312,-4779048.643525924,4210591.774870396,-2.36684,-0.400561,0.381386,81.875,-34.5,-35.5,0.0,0.0,0.0,0.0,0.0,0.0,2,0,41.55289048095042,-92.13376349038548,10000.003323148736,119.82342872568456,-0.0029688369008098,0.003868790601367,,9133.40005056179,11009.472056291774,150,8,2025-09-10,2025-09-26 15:50:08.534,AA,C,3257201556,AMBUSH51,1,1,48,2,1,1,225,2,1,0,0,9,1,225,2,1,-143769.2026998996,-4792565.303424173,4196212.996541359,2.42753,2.622,-0.527882,-72.5822,45.9605,50.6265,-0.291185,-7.28525,6.96597,0.0389935,0.00626363,0.00375651,4,0,41.38228189461928,-91.71826535616584,9139.202964246731,-49.702017088996406,1.6141124965707083,0.5729401219057826,175.839,9133.40005056179,11009.472056291774,150,True,21.279973147614403,False,167.8106931568964,178.67194095048202,False,13.383288706313094,True,False
8,1970-07-23 09:59:54.096106406,2025-09-10,2025-09-26 15:50:09.610,AA,C,3301276034,JASSM,3,128,76,2,2,1,225,9,2,0,1,26,0,0,0,0,-177973.86950858062,-4779085.045869674,4210554.343229771,-2.36684,-0.400561,0.381386,81.875,-34.5,-35.5,0.0,0.0,0.0,0.0,0.0,0.0,2,0,41.55244033878304,-92.13271818868004,10000.002093799843,119.82412208293934,-0.0020663197407923,0.0038673040246463,,9133.40005056179,11009.472056291774,150,8,2025-09-10,2025-09-26 15:50:09.430,AA,C,3258275254,AMBUSH51,1,1,48,2,1,1,225,2,1,0,0,9,1,225,2,1,-143835.15490138647,-4792523.475315536,4196258.947167186,2.45662,2.61484,-0.531851,-72.4923,45.8682,50.9544,-0.133753,-7.21853,6.72695,0.0445736,-0.00968413,-0.00153652,4,0,41.38282918242138,-91.71906810912516,9140.814875722372,-49.28626930281354,1.5513504778351808,2.04335631022235,176.059,9133.40005056179,11009.472056291774,150,True,21.178554665400917,False,167.6853557936298,178.64041934958527,False,13.53519454371156,True,False
8,1970-07-23 09:59:54.107044243,2025-09-10,2025-09-26 15:50:10.704,AA,C,3302588384,JASSM,3,128,76,2,2,1,225,9,2,0,1,26,0,0,0,0,-177883.82361014312,-4779123.180635299,4210515.128386021,-2.36684,-0.400465,0.381386,81.875,-34.5,-35.5,0.0,0.0,0.0,0.0,0.0,0.0,2,0,41.551968751858254,-92.13162314174696,10000.002365811431,119.82120491251924,-0.0046872640167551,0.0018213250747344,,9133.40005056179,11009.472056291774,150,8,2025-09-10,2025-09-26 15:50:10.696,AA,C,3259786386,AMBUSH51,1,1,48,2,1,1,225,2,1,0,0,9,1,225,2,1,-143926.39788477926,-4792464.806861664,4196323.030396292,2.61404,2.6066,-0.523732,-71.9305,47.0548,51.2625,-0.315816,-6.4341,6.38933,0.164383,-0.00338617,0.00167176,4,0,41.38359454695775,-91.72017900400256,9142.192513632424,-49.2862756733586,0.933806835886438,10.825305460428392,176.401,9133.40005056179,11009.472056291774,150,False,21.05615319749535,False,167.0699560811428,178.5962156557753,False,14.216616801679615,True,False
8,1970-07-23 09:59:54.118380285,2025-09-10,2025-09-26 15:50:11.838,AA,C,3303841082,JASSM,3,128,76,2,2,1,225,9,2,0,1,26,0,0,0,0,-177797.86950858062,-4779159.581025924,4210477.692839146,-2.36684,-0.400465,0.381386,81.875,-34.5,-35.5,0.0,0.0,0.0,0.0,0.0,0.0,2,0,41.551518575505845,-92.13057787060956,9999.99848600946,119.82189823696368,-0.003784740084228,0.0018197679811792,,9133.40005056179,11009.472056291774,150,8,2025-09-10,2025-09-26 15:50:11.864,AA,C,3261178218,AMBUSH51,1,1,48,2,1,1,225,2,1,0,0,9,1,225,2,1,-144010.175551347,-4792407.713595998,4196383.21151826,2.79487,2.57179,-0.537298,-70.3296,49.5721,52.1344,-0.221381,-6.57897,6.45981,0.134241,-0.010481,0.041563,4,0,41.38432551685208,-91.72120018806164,9138.4384404605,-47.47455078617933,0.406801784793087,20.198020371464903,176.646,9133.40005056179,11009.472056291774,150,False,20.94086167040818,False,165.50399170951928,178.550294025817,False,15.858749988012848,True,False
8,1970-07-23 09:59:54.129064119,2025-09-10,2025-09-26 15:50:12.906,AA,C,3305153432,JASSM,3,128,76,2,2,1,225,9,2,0,1,26,0,0,0,0,-177707.82361014312,-4779197.713838424,4210438.476042271,-2.36684,-0.400465,0.381386,81.875,-34.5,-35.5,0.0,0.0,0.0,0.0,0.0,0.0,2,0,41.5510469666208,-92.12948285565804,10000.000864579282,119.82262454967582,-0.0028392560670418,0.0018181436705177,,9133.40005056179,11009.472056291774,150,8,2025-09-10,2025-09-26 15:50:12.830,AA,C,3262331450,AMBUSH51,1,1,48,2,1,1,225,2,1,0,0,9,1,225,2,1,-144077.51892633067,-4792358.043902549,4196433.825283107,2.93373,2.53082,-0.540872,-68.3659,52.4139,53.1735,-0.189314,-6.09943,5.83515,0.0909293,-0.00985266,0.0369316,4,0,41.38495066065736,-91.72202242389784,9130.989381998452,-45.789488739854015,-0.7146790805401735,26.944333785112452,177.33,9133.40005056179,11009.472056291774,150,False,20.833894982287475,False,163.63455782291697,178.5061813506138,False,17.795151040257654,True,False
8,1970-07-23 09:59:54.139042978,2025-09-10,2025-09-26 15:50:13.904,AA,C,3306346480,JASSM,3,128,76,2,2,1,225,9,2,0,1,26,0,0,0,0,-177625.96228201812,-4779232.377900924,4210402.823698521,-2.36684,-0.400465,0.381386,81.875,-34.5,-35.5,0.0,0.0,0.0,0.0,0.0,0.0,2,0,41.55061823043024,-92.12848738527548,10000.001073839649,119.82328482957143,-0.0019797187483119,0.0018166801113158,,9133.40005056179,11009.472056291774,150,8,2025-09-10,2025-09-26 15:50:13.930,AA,C,3263643750,AMBUSH51,1,1,48,2,1,1,225,2,1,0,0,9,1,225,2,1,-144150.7314897937,-4792298.150479093,4196491.960189146,3.0416,2.47628,-0.554405,-65.3764,56.6274,54.1833,-0.334275,-6.58779,6.29853,0.0724765,0.0154515,0.0539842,4,0,41.38568634153322,-91.72291845675322,9115.1385399615,-43.21038403081685,-1.7459967019257778,31.44232366168385,178.589,9133.40005056179,11009.472056291774,150,False,20.726006904668015,False,160.94500440655227,178.44966482560207,False,20.566933873975046,True,False
8,1970-07-23 09:59:54.149992797,2025-09-10,2025-09-26 15:50:14.999,AA,C,3307539604,JASSM,3,128,76,2,2,1,225,9,2,0,1,26,0,0,0,0,-177544.09704764312,-4779267.043916549,4210367.165495396,-2.36684,-0.400465,0.381482,81.875,-34.5,-35.5,0.0,0.0,0.0,0.0,0.0,0.0,2,0,41.550189435342745,-92.12749188041388,9999.997682826212,119.82778771122528,-0.0050456275925927,0.001814983895616,,9133.40005056179,11009.472056291774,150,8,2025-09-10,2025-09-26 15:50:15.163,AA,C,3265115114,AMBUSH51,1,1,48,2,1,1,225,2,1,0,0,9,1,225,2,1,-144229.2659714651,-4792224.444049143,4196560.239153153,-3.12164,2.40562,-0.572953,-61.0186,61.6226,56.309,-0.201802,-6.85602,6.59567,0.0503431,0.0147795,0.0484414,4,0,41.386571715597626,-91.7238830480628,9087.705954673324,-39.81598774994564,-2.898334662965798,36.012802440635475,180.214,9133.40005056179,11009.472056291774,150,False,20.611150116528005,False,157.21484175026953,178.3739380340582,False,24.385275932779884,True,False
8,1970-07-23 09:59:54.160042901,2025-09-10,2025-09-26 15:50:16.004,AA,C,3308792224,JASSM,3,128,76,2,2,1,225,9,2,0,1,26,0,0,0,0,-177458.14880545562,-4779303.438447799,4210329.729948521,-2.36684,-0.400465,0.381482,81.875,-34.5,-35.5,0.0,0.0,0.0,0.0,0.0,0.0,2,0,41.54973925495327,-92.12644673935372,10000.000502714009,119.8284809251051,-0.0041431672511576,0.001813489280368,,9133.40005056179,11009.472056291774,150,8,2025-09-10,2025-09-26 15:50:15.863,AA,C,3265950214,AMBUSH51,1,1,48,2,1,1,225,2,1,0,0,9,1,225,2,1,-144271.01864924474,-4792180.116239335,4196599.974382601,-3.06804,2.36079,-0.584911,-58.1611,64.5544,57.608,-0.280972,-7.04259,6.85693,0.0233973,0.0221989,0.0620007,4,0,41.38709619668042,-91.724397731652,9067.924364254204,-37.64843303710349,-3.536315886322126,37.55676078971834,181.326,9133.40005056179,11009.472056291774,150,False,20.521829814268674,False,154.92027207437175,178.3228419551554,False,26.735530433221026,True,False
8,1970-07-23 09:59:54.169084779,2025-09-10,2025-09-26 15:50:16.908,AA,C,3309985272,JASSM,3,128,76,2,2,1,225,9,2,0,1,26,0,0,0,0,-177376.28747733062,-4779338.098604049,4210294.073698521,-2.36684,-0.400465,0.381482,81.875,-34.5,-35.5,0.0,0.0,0.0,0.0,0.0,0.0,2,0,41.54931048937493,-92.1254513108294,9999.997005423462,119.82914116026367,-0.0032836292717339,0.0018120799965838,,9133.40005056179,11009.472056291774,150,8,2025-09-10,2025-09-26 15:50:16.830,AA,C,3267103446,AMBUSH51,1,1,48,2,1,1,225,2,1,0,0,9,1,225,2,1,-144324.93287459816,-4792116.002092636,4196656.207173485,-3.0021,2.29721,-0.606914,-53.6788,68.469,59.8863,-0.196324,-8.0013,7.49501,0.036967,0.0212668,0.0473887,4,0,41.38784757985927,-91.72506481708552,9036.150787572118,-34.41933803179794,-4.076357479592223,39.07514633257136,183.367,9133.40005056179,11009.472056291774,150,False,20.42260989635721,False,151.52672456429187,178.246697045242,False,30.207600575760736,False,False
8,1970-07-23 09:59:54.180102875,2025-09-10,2025-09-26 15:50:18.010,AA,C,3311237970,JASSM,3,128,76,2,2,1,225,9,2,0,1,26,0,0,0,0,-177290.33337576812,-4779374.493135299,4210256.634245396,-2.36684,-0.400465,0.381482,81.875,-34.5,-35.5,0.0,0.0,0.0,0.0,0.0,0.0,2,0,41.54886026535865,-92.12440612793615,10000.000938174546,119.82983438984446,-0.0023811108094946,0.0018105897155315,,9133.40005056179,11009.472056291774,150,8,2025-09-10,2025-09-26 15:50:18.030,AA,C,3268535044,AMBUSH51,1,1,48,2,1,1,225,2,1,0,0,9,1,225,2,1,-144385.6282988179,-4792030.356793048,4196730.607762005,-2.94934,2.20662,-0.643589,-46.8864,72.6719,63.7588,-0.279836,-8.99901,8.61234,-0.0459801,0.0551035,0.0552408,4,0,41.38884848482877,-91.72582067480964,8991.320993325156,-29.709978343986155,-4.311264929648209,38.71353555327724,185.665,9133.40005056179,11009.472056291774,150,False,20.31025972895241,False,146.87555988450436,178.13755181368103,False,34.96457925545431,False,False
8,1970-07-23 09:59:54.190064374,2025-09-10,2025-09-26 15:50:19.006,AA,C,3312431018,JASSM,3,128,76,2,2,1,225,9,2,0,1,26,0,0,0,0,-177208.47302420562,-4779409.151338424,4210220.976042271,-2.36674,-0.400369,0.381482,81.875,-34.5,-35.5,0.0,0.0,0.0,0.0,0.0,0.0,2,0,41.54843148033035,-92.12341073893634,9999.998151423872,119.82685133796168,-0.0050880017063909,0.0052557664640358,,9133.40005056179,11009.472056291774,150,8,2025-09-10,2025-09-26 15:50:19.031,AA,C,3269728042,AMBUSH51,1,1,48,2,1,1,225,2,1,0,0,9,1,225,2,1,-144429.0529951473,-4791956.202377684,4196796.086786462,-2.88053,2.12547,-0.684992,-40.1302,75.2798,67.642,-0.394862,-9.79331,9.31269,0.0615201,0.052405,0.0506989,4,0,41.38972389734596,-91.72636610846833,8954.136661582374,-25.369242140891632,-3.7923400060417536,39.48113166705304,187.852,9133.40005056179,11009.472056291774,150,False,20.212436521987527,False,142.68291603591172,178.03433778468005,False,39.25306119638129,False,False
8,1970-07-23 09:59:54.201582919,2025-09-10,2025-09-26 15:50:20.158,AA,C,3313743330,JASSM,3,128,76,2,2,1,225,9,2,0,1,26,0,0,0,0,-177118.42907889312,-4779447.274385299,4210181.751432896,-2.36674,-0.400369,0.381482,81.875,-34.5,-35.5,0.0,0.0,0.0,0.0,0.0,0.0,2,0,41.54795980814966,-92.1223158558898,9999.997081594527,119.82757751907064,-0.0041425377612948,0.0052541393400741,,9133.40005056179,11009.472056291774,150,8,2025-09-10,2025-09-26 15:50:20.164,AA,C,3271080108,AMBUSH51,1,1,48,2,1,1,225,2,1,0,0,9,1,225,2,1,-144469.43684916152,-4791869.596598038,4196874.650147673,-2.76498,2.02746,-0.7316,-30.9947,78.2057,71.8742,-0.362518,-10.4714,9.92635,0.0304901,0.0685441,0.0644579,4,0,41.39076226462213,-91.72687971729832,8914.482815446661,-20.399157174158905,-2.962231351284617,42.15242217629714,189.819,9133.40005056179,11009.472056291774,150,False,20.10620933862809,False,137.35821330343433,177.904023641656,False,44.70117441496916,False,False
8,1970-07-23 09:59:54.211082570,2025-09-10,2025-09-26 15:50:21.108,AA,C,3314996068,JASSM,3,128,76,2,2,1,225,9,2,0,1,26,0,0,0,0,-177032.47204764312,-4779483.666963424,4210144.308073521,-2.36674,-0.400369,0.381482,81.875,-34.5,-35.5,0.0,0.0,0.0,0.0,0.0,0.0,2,0,41.54750954151845,-92.1212706822993,10000.003047733298,119.82827072406748,-0.0032399900062179,0.0052525921245899,,9133.40005056179,11009.472056291774,150,8,2025-09-10,2025-09-26 15:50:21.130,AA,C,3272233340,AMBUSH51,1,1,48,2,1,1,225,2,1,0,0,9,1,225,2,1,-144495.10327462188,-4791793.048212846,4196946.143896634,-2.65,1.90828,-0.770364,-21.79,79.6794,75.6103,-0.475198,-11.3806,10.7933,0.0202972,0.0770039,0.0673977,4,0,41.39169571531669,-91.72721390366574,8883.151837594965,-14.96082557094928,-2.4046533527679435,43.82237039127016,191.494,9133.40005056179,11009.472056291774,150,False,20.012720087042226,False,132.3455966834477,177.7784851457899,False,49.830404675406584,False,False
8,1970-07-23 09:59:54.222060715,2025-09-10,2025-09-26 15:50:22.206,AA,C,3316248766,JASSM,3,128,76,2,2,1,225,9,2,0,1,26,0,0,0,0,-176946.51794608062,-4779520.055635299,4210106.862761021,-2.36674,-0.400369,0.381482,81.875,-34.5,-35.5,0.0,0.0,0.0,0.0,0.0,0.0,2,0,41.54705927485061,-92.1202255600165,10000.000642937946,119.82896388886384,-0.0023374708002841,0.0052510394063538,,9133.40005056179,11009.472056291774,150,8,2025-09-10,2025-09-26 15:50:22.196,AA,C,3273505872,AMBUSH51,1,1,48,2,1,1,225,2,1,0,0,9,1,225,2,1,-144512.37935944568,-4791708.240426933,4197028.602516314,-2.54115,1.77183,-0.810952,-10.8104,79.8025,79.6733,-0.398593,-11.7534,11.3098,0.00416431,0.0795859,0.0627663,4,0,41.39275383677357,-91.72745084209184,8854.671459417175,-9.083365500909524,-1.355082853767979,44.30366457362258,192.459,9133.40005056179,11009.472056291774,150,False,19.91971918595348,False,126.62937790037871,177.6282311791635,False,55.682858566754994,False,False
8,1970-07-23 09:59:54.232060182,2025-09-10,2025-09-26 15:50:23.206,AA,C,3317501466,JASSM,3,128,76,2,2,1,225,9,2,0,1,26,0,0,0,0,-176860.56384451812,-4779556.442354049,4210069.417448521,-2.36674,-0.400369,0.381482,81.875,-34.5,-35.5,0.0,0.0,0.0,0.0,0.0,0.0,2,0,41.54660901029872,-92.11918045310122,9999.998643078485,119.82965703729631,-0.0014349578800308,0.005249496430921,,9133.40005056179,11009.472056291774,150,8,2025-09-10,2025-09-26 15:50:23.163,AA,C,3274659104,AMBUSH51,1,1,48,2,1,1,225,2,1,0,0,9,1,225,2,1,-144517.40043255375,-4791630.880384901,4197107.026011799,-2.43453,1.63315,-0.839659,0.0825884,79.3157,82.4345,-0.435319,-12.0153,11.4105,0.00541475,0.0763838,0.0570842,4,0,41.393742611855984,-91.72753869934974,8834.857587104667,-3.536172617061577,-0.3746507998008314,44.48519324307546,193.143,9133.40005056179,11009.472056291774,150,False,19.834721339638854,False,121.11582248570606,177.47897824956175,False,61.335275687160795,False,False
8,1970-07-23 09:59:54.243101604,2025-09-10,2025-09-26 15:50:24.310,AA,C,3318813816,JASSM,3,128,76,2,2,1,225,9,2,0,1,26,0,0,0,0,-176770.51696951812,-4779594.561494674,4210030.188932896,-2.36674,-0.400369,0.381578,81.875,-34.5,-35.5,0.0,0.0,0.0,0.0,0.0,0.0,2,0,41.54613729532876,-92.11808559820786,10000.00126077944,119.83422589909743,-0.0044148348812435,0.0052477150320681,,9133.40005056179,11009.472056291774,150,8,2025-09-10,2025-09-26 15:50:24.229,AA,C,3275931636,AMBUSH51,1,1,48,2,1,1,225,2,1,0,0,9,1,225,2,1,-144510.54138198044,-4791546.239777813,4197196.551650932,-2.28044,1.47116,-0.859246,12.795,77.9476,84.3652,-0.170444,-12.0597,11.5883,0.199505,0.0793154,0.0636173,4,0,41.39485178780337,-91.72748725329038,8820.343141592868,2.598922911415023,0.6937790997132386,46.35420000947353,193.767,9133.40005056179,11009.472056291774,150,False,19.74952766199059,False,114.79106367949333,177.30245782092135,False,67.82735465942956,False,False
8,1970-07-23 09:59:54.254101775,2025-09-10,2025-09-26 15:50:25.410,AA,C,3320126166,JASSM,3,128,76,2,2,1,225,9,2,0,1,26,0,0,0,0,-176680.46911795562,-4779632.678682174,4209990.958464146,-2.36674,-0.400369,0.381578,81.875,-34.5,-35.5,0.0,0.0,0.0,0.0,0.0,0.0,2,0,41.54566556860605,-92.11699074840438,10000.000451619597,119.83495202532356,-0.0034693399594128,0.0052461643733028,,9133.40005056179,11009.472056291774,150,8,2025-09-10,2025-09-26 15:50:25.396,AA,C,3277323468,AMBUSH51,1,1,48,2,1,1,225,2,1,0,0,9,1,225,2,1,-144487.25581648093,-4791456.161980676,4197294.487485088,-1.96797,1.28912,-0.848838,27.047,76.4492,83.8569,-0.541046,-11.1308,10.5861,0.0630535,0.0770205,0.0767583,4,0,41.39605303862349,-91.72724151622566,8809.488075407764,9.468027354504168,0.924706639742315,56.481759639789416,193.571,9133.40005056179,11009.472056291774,150,False,19.669772686492113,False,107.73574259741595,177.09924811446137,False,75.08738875150429,False,False
8,1970-07-23 09:59:54.265102623,2025-09-10,2025-09-26 15:50:26.510,AA,C,3321378866,JASSM,3,128,76,2,2,1,225,9,2,0,1,26,0,0,0,0,-176594.51501639312,-4779669.063447799,4209953.509245396,-2.36674,-0.400369,0.381578,81.875,-34.5,-35.5,0.0,0.0,0.0,0.0,0.0,0.0,2,0,41.5452152598862,-92.11594568724044,10000.001246672102,119.83564512441446,-0.0025668199861684,0.005244668760468,,9133.40005056179,11009.472056291774,150,8,2025-09-10,2025-09-26 15:50:26.463,AA,C,3278596000,AMBUSH51,1,1,48,2,1,1,225,2,1,0,0,9,1,225,2,1,-144451.03283149927,-4791375.463377664,4197381.138973394,-1.84076,1.10291,-0.791796,40.7357,75.0171,81.0559,-0.320322,-12.0456,11.4435,-0.105111,0.103176,0.0616428,4,0,41.39712462850228,-91.72683782473878,8796.273718225782,17.32696836584794,-0.3873841294019308,55.99085880884174,194.488,9133.40005056179,11009.472056291774,150,False,19.60269936627222,False,100.90322387150555,176.90434431618806,False,82.12448473100231,False,False
8,1970-07-23 09:59:54.280435177,2025-09-10,2025-09-26 15:50:28.043,AA,C,3322750868,JASSM,3,128,76,2,2,1,225,9,2,0,1,26,0,0,0,0,-176500.37536795562,-4779708.911104049,4209912.493620396,-2.36674,-0.400273,0.381578,81.875,-34.5,-35.5,0.0,0.0,0.0,0.0,0.0,0.0,2,0,41.54472206868238,-92.11480112078966,10000.002830721076,119.8327612285787,-0.0051447734956831,0.0031976757941651,,9133.40005056179,11009.472056291774,150,8,2025-09-10,2025-09-26 15:50:28.163,AA,C,3280624098,AMBUSH51,1,1,48,2,1,1,225,2,1,0,0,9,1,225,2,1,-144363.63367956632,-4791254.550888712,4197516.438233071,-2.16802,0.842777,-0.775583,60.0971,65.746,79.2597,0.430028,-13.4563,12.7839,-0.418151,0.0885678,0.0345514,4,0,41.39877306535829,-91.7258371707673,8785.895780817726,27.352739061086883,3.016366362294412,26.919121380712127,195.893,9133.40005056179,11009.472056291774,150,False,19.53913178425298,False,90.81119915976633,176.58447507582707,False,92.51060735542991,False,False
8,1970-07-23 09:59:54.291600609,2025-09-10,2025-09-26 15:50:29.160,AA,C,3324003568,JASSM,3,128,76,2,2,1,225,9,2,0,1,26,0,0,0,0,-176414.42028983062,-4779745.291963424,4209875.042448521,-2.36674,-0.400273,0.381578,81.875,-34.5,-35.5,0.0,0.0,0.0,0.0,0.0,0.0,2,0,41.54427175034827,-92.11375608004678,10000.000592063532,119.83345430129368,-0.0042422521551074,0.0031961354061197,,9133.40005056179,11009.472056291774,150,8,2025-09-10,2025-09-26 15:50:29.329,AA,C,3282015930,AMBUSH51,1,1,48,2,1,1,225,2,1,0,0,9,1,225,2,1,-144289.4188723195,-4791182.774542775,4197610.879665032,-2.47959,0.77168,-0.818089,65.0909,57.5298,81.288,-0.107963,-11.4589,10.773,-0.295125,0.0419438,-0.0162318,4,0,41.3998509711334,-91.72497631009024,8808.736351232968,28.589592334648323,6.555175047242003,6.256607487227389,194.647,9133.40005056179,11009.472056291774,150,True,19.490909470391067,False,87.68990895678911,176.3616214382395,False,95.80572408844014,False,False
8,1970-07-23 09:59:54.297059950,2025-09-10,2025-09-26 15:50:29.705,AA,C,3325256540,JASSM,3,128,76,2,2,1,225,9,2,0,1,26,0,0,0,0,-176328.44763358062,-4779781.680635299,4209837.581511021,-2.36674,-0.400273,0.381578,81.875,-34.5,-35.5,0.0,0.0,0.0,0.0,0.0,0.0,2,0,41.54382131397563,-92.11271083993071,9999.9998821531,119.8341475000606,-0.0033395379032907,0.0031945804863275,,9133.40005056179,11009.472056291774,150,8,2025-09-10,2025-09-26 15:50:29.696,AA,C,3282453362,AMBUSH51,1,1,48,2,1,1,225,2,1,0,0,9,1,225,2,1,-144265.95541759813,-4791162.465223814,4197640.312860098,-2.57705,0.766909,-0.830466,65.192,55.6653,82.0639,-0.0318379,-10.8054,10.0443,-0.255151,0.0411718,-0.00347563,4,0,41.40017470788422,-91.72470328093772,8820.899829736996,28.372419368281648,7.256125189010313,0.4453678549702723,193.571,9133.40005056179,11009.472056291774,150,True,19.439323146279982,False,87.45649893127545,176.28653544318442,False,96.09954281275418,False,False
8,1970-07-23 09:59:54.308064752,2025-09-10,2025-09-26 15:50:30.806,AA,C,3326568618,JASSM,3,128,76,2,2,1,225,9,2,0,1,26,0,0,0,0,-176238.41833670562,-4779819.784150924,4209798.354948521,-2.36674,-0.400273,0.381578,81.875,-34.5,-35.5,0.0,0.0,0.0,0.0,0.0,0.0,2,0,41.54334963966834,-92.11161629641272,10000.003705305724,119.83487339001294,-0.0023942424575946,0.0031929745560192,,9133.40005056179,11009.472056291774,150,8,2025-09-10,2025-09-26 15:50:30.796,AA,C,3283765662,AMBUSH51,1,1,48,2,1,1,225,2,1,0,0,9,1,225,2,1,-144194.28943733952,-4791102.466913695,4197731.860197375,-2.75528,0.770489,-0.855677,63.6565,52.2746,83.9443,-0.0776551,-8.88319,8.26634,-0.128372,0.018535,-0.0139826,4,0,41.40116253510491,-91.72386860381042,8866.634889563,27.4858627518952,8.411805282418978,-9.734040031794928,191.066,9133.40005056179,11009.472056291774,150,True,19.390289848784498,False,87.81818958764367,176.07772558620348,False,95.91728207443256,False,False
8,1970-07-23 09:59:54.319060324,2025-09-10,2025-09-26 15:50:31.906,AA,C,3327821316,JASSM,3,128,76,2,2,1,225,9,2,0,1,26,0,0,0,0,-176152.46423514312,-4779856.161104049,4209760.899870396,-2.36674,-0.400273,0.381578,81.875,-34.5,-35.5,0.0,0.0,0.0,0.0,0.0,0.0,2,0,41.5428992890571,-92.11057131327888,9999.999310006911,119.83556640571328,-0.0014917280046737,0.0031914262470066,,9133.40005056179,11009.472056291774,150,8,2025-09-10,2025-09-26 15:50:31.896,AA,C,3285077960,AMBUSH51,1,1,48,2,1,1,225,2,1,0,0,9,1,225,2,1,-144126.07059131493,-4791044.769611961,4197822.980492363,-2.86573,0.800251,-0.871889,60.8208,51.6591,84.4149,-0.0632762,-7.67356,7.16603,-0.010146,0.0119145,-0.0256423,4,0,41.40213316212196,-91.72307426479186,8917.36718113519,26.04132555069452,8.630447313019634,-14.980087340709288,189.074,9133.40005056179,11009.472056291774,150,False,19.342912062953495,False,88.96510070082915,175.87293989230434,False,94.9729414846866,False,False
8,1970-07-23 09:59:54.329063206,2025-09-10,2025-09-26 15:50:32.906,AA,C,3329074260,JASSM,3,128,76,2,2,1,225,9,2,0,1,26,0,0,0,0,-176066.49255545562,-4779892.543916549,4209723.438932896,-2.36674,-0.400273,0.381674,81.875,-34.5,-35.5,0.0,0.0,0.0,0.0,0.0,0.0,2,0,41.5424488583626,-92.1095261316416,10000.00015303109,119.84010241340786,-0.004514266125797,0.0031897248732721,,9133.40005056179,11009.472056291774,150,8,2025-09-10,2025-09-26 15:50:32.963,AA,C,3286350492,AMBUSH51,1,1,48,2,1,1,225,2,1,0,0,9,1,225,2,1,-144062.42754123223,-4790988.734369978,4197912.221090782,-2.87502,0.843876,-0.877656,58.1161,51.8347,84.4122,-0.168572,-6.71702,6.26088,0.0727074,-0.00861262,-0.0246207,4,0,41.40308038221018,-91.72233398169708,8968.455900113251,24.471517902046937,8.117900968749671,-13.822700535532316,186.85,9133.40005056179,11009.472056291774,150,False,19.294211686677706,False,90.13909018224929,175.67315044274392,False,94.00532150212605,False,False
8,1970-07-23 09:59:54.341182015,2025-09-10,2025-09-26 15:50:34.118,AA,C,3330386358,JASSM,3,128,76,2,2,1,225,9,2,0,1,26,0,0,0,0,-175976.46277029935,-4779930.645479049,4209684.206511021,-2.36674,-0.400273,0.381674,81.875,-34.5,-35.5,0.0,0.0,0.0,0.0,0.0,0.0,2,0,41.54197712592026,-92.10843162942878,10000.002980979343,119.84082825637388,-0.0035689533250692,0.0031881600315209,,9133.40005056179,11009.472056291774,150,8,2025-09-10,2025-09-26 15:50:34.195,AA,C,3287821858,AMBUSH51,1,1,48,2,1,1,225,2,1,0,0,9,1,225,2,1,-143992.34650675143,-4790923.060741692,4198015.125880332,-2.86465,0.877217,-0.867467,55.6115,53.3988,83.2708,-0.0011657,-5.91011,5.67013,0.0316739,-0.0207196,-0.0154141,4,0,41.404178331574045,-91.72152021824569,9025.0175649239,23.66274882877213,7.021337127455237,-11.872142732919658,184.528,9133.40005056179,11009.472056291774,150,False,19.2423102233842,False,91.293938680405,175.443254194121,False,93.10633376360039,False,False
8,1970-07-23 09:59:54.351103338,2025-09-10,2025-09-26 15:50:35.110,AA,C,3331639064,JASSM,3,128,76,2,2,1,225,9,2,0,1,26,0,0,0,0,-175890.50769217435,-4779967.018525924,4209646.747526646,-2.36674,-0.400177,0.381674,81.875,-34.5,-35.5,0.0,0.0,0.0,0.0,0.0,0.0,2,0,41.54152674346272,-92.10738668051935,9999.99625232936,119.8378785176982,-0.0062328396115429,0.0011408888006063,,9133.40005056179,11009.472056291774,150,8,2025-09-10,2025-09-26 15:50:35.229,AA,C,3289054622,AMBUSH51,1,1,48,2,1,1,225,2,1,0,0,9,1,225,2,1,-143935.3260412975,-4790866.057046765,4198100.306012079,-2.881,0.930495,-0.852946,54.0539,55.4586,81.5997,-0.466074,-5.10985,4.881,0.0153246,-0.0274129,-0.0360369,4,0,41.4051026994178,-91.72085937517274,9065.41931589202,22.2487611178506,5.385637026718002,-10.64774494762056,182.988,9133.40005056179,11009.472056291774,150,False,19.19151905081275,False,92.04690976784829,175.2474473249419,False,92.57960462502005,False,False
8,1970-07-23 09:59:54.362380621,2025-09-10,2025-09-26 15:50:36.238,AA,C,3332891764,JASSM,3,128,76,2,2,1,225,9,2,0,1,26,0,0,0,0,-175804.55261404935,-4780003.391572799,4209609.290495396,-2.36674,-0.400177,0.381674,81.875,-34.5,-35.5,0.0,0.0,0.0,0.0,0.0,0.0,2,0,41.541076364630754,-92.10634174611036,9999.998970578325,119.83857147630408,-0.0053303235466516,0.0011393561726024,,9133.40005056179,11009.472056291774,150,8,2025-09-10,2025-09-26 15:50:36.396,AA,C,3290446454,AMBUSH51,1,1,48,2,1,1,225,2,1,0,0,9,1,225,2,1,-143873.11812555237,-4790799.407365362,4198193.609677953,-2.75236,0.940174,-0.818286,53.1153,58.4638,79.3951,-0.260216,-4.69384,4.5422,0.159845,-0.0342164,0.0135894,4,0,41.40614021652018,-91.72013999371056,9099.346505544856,22.76493504265433,3.4329073326213373,-2.826559908515801,181.84,9133.40005056179,11009.472056291774,150,True,19.140473464996855,False,92.60339736410145,175.0282933265488,False,92.27944806043,False,False
8,1970-07-23 09:59:54.373579826,2025-09-10,2025-09-26 15:50:37.357,AA,C,3334204172,JASSM,3,128,76,2,2,1,225,9,2,0,1,26,0,0,0,0,-175714.50134451812,-4780041.497041549,4209570.046354771,-2.36674,-0.400177,0.381674,81.875,-34.5,-35.5,0.0,0.0,0.0,0.0,0.0,0.0,2,0,41.5406045042456,-92.1052470312918,10000.000539743858,119.8392974406621,-0.0043847940103965,0.0011377429218074,,9133.40005056179,11009.472056291774,150,8,2025-09-10,2025-09-26 15:50:37.495,AA,C,3291758752,AMBUSH51,1,1,48,2,1,1,225,2,1,0,0,9,1,225,2,1,-143814.36460356,-4790732.901703144,4198280.070897513,-2.70703,0.968692,-0.793635,53.1813,61.0979,77.1533,-0.149211,-4.77442,4.65242,-0.0464753,-0.0203867,-0.00790938,4,0,41.40713006306117,-91.71946181638556,9119.043816499328,22.322527778134592,1.6793780607021822,0.9297665049061428,181.717,9133.40005056179,11009.472056291774,150,True,19.086675016992224,False,92.63797156124033,174.816123940345,False,92.48622816941077,False,False
8,1970-07-23 09:59:54.385643316,2025-09-10,2025-09-26 15:50:38.564,AA,C,3335456982,JASSM,3,128,76,2,2,1,225,9,2,0,1,26,0,0,0,0,-175628.53894217435,-4780077.872041549,4209532.581511021,-2.36674,-0.400177,0.381674,81.875,-34.5,-35.5,0.0,0.0,0.0,0.0,0.0,0.0,2,0,41.54015404323153,-92.10420203804418,10000.001035673144,119.83999042564912,-0.0034821891393707,0.0011361888215113,,9133.40005056179,11009.472056291774,150,8,2025-09-10,2025-09-26 15:50:38.696,AA,C,3293190352,AMBUSH51,1,1,48,2,1,1,225,2,1,0,0,9,1,225,2,1,-143751.04145344303,-4790657.797230755,4198370.785126546,-2.78595,0.96932,-0.763759,53.2104,64.0471,75.0228,0.0669803,-5.17084,4.95229,-0.114494,-0.0177381,0.00735386,4,0,41.408200592126754,-91.71873209984308,9126.491375947531,22.99454828855983,0.1057704289500572,-3.556340342494277,181.925,9133.40005056179,11009.472056291774,150,True,19.035796807310646,False,92.75986993286367,174.58662738867395,False,92.61825090728571,False,False
8,1970-07-23 09:59:54.394063868,2025-09-10,2025-09-26 15:50:39.406,AA,C,3336829258,JASSM,3,128,76,2,2,1,225,9,2,0,1,26,0,0,0,0,-175534.37927420562,-4780117.711885299,4209491.544401646,-2.36674,-0.400177,0.381674,81.875,-34.5,-35.5,0.0,0.0,0.0,0.0,0.0,0.0,2,0,41.53966064098347,-92.10305741389392,9999.998872688617,119.84074947356535,-0.0024935265117659,0.0011345076169561,,9133.40005056179,11009.472056291774,150,8,2025-09-10,2025-09-26 15:50:39.595,AA,C,3294264050,AMBUSH51,1,1,48,2,1,1,225,2,1,0,0,9,1,225,2,1,-143703.3852996791,-4790599.159582211,4198438.055568909,-2.88833,0.986871,-0.74782,52.8729,66.1408,73.9647,0.0884386,-5.37074,4.99033,-0.0907857,-0.0181272,-0.014611,4,0,41.40901208994359,-91.71818366761585,9124.730601500136,22.68967325906699,-1.023089641443495,-8.730113759964555,182.744,9133.40005056179,11009.472056291774,150,True,18.979099561307308,False,93.08348824601391,174.4061499221764,False,92.48723966599395,False,False
