Subject_cm,Timestamp,SampleDate_cm,SampleTime_cm,Configuration_cm,Scenario_cm,DisTime_cm,MarkingTxt_cm,Application_cm,EntId_cm,Site_cm,ExerciseId_cm,ForceId_cm,Category_cm,Country_cm,Domain_cm,Kind_cm,Extra_cm,Specific_cm,Subcategory_cm,AltCategory_cm,AltCountry_cm,AltDomain_cm,AltKind_cm,ECEF_X_cm,ECEF_Y_cm,ECEF_Z_cm,OriPhi_cm,OriPsi_cm,OriTheta_cm,LinVelX_cm,LinVelY_cm,LinVelZ_cm,LinAccX_cm,LinAccY_cm,LinAccZ_cm,AngVelX_cm,AngVelY_cm,AngVelZ_cm,DrAlg_cm,Appearance_cm,Latitude_cm,Longitude_cm,Altitude_cm,Heading_cm,Pitch_cm,Roll_cm,CalibratedAirspeed_cm,CM_Altitude_Lead_cm,CM_Altitude_Wing_cm,CM_Airspeed_cm,Subject_ac,SampleDate_ac,SampleTime_ac,Configuration_ac,Scenario_ac,DisTime_ac,MarkingTxt_ac,Application_ac,EntId_ac,Site_ac,ExerciseId_ac,ForceId_ac,Category_ac,Country_ac,Domain_ac,Kind_ac,Extra_ac,Specific_ac,Subcategory_ac,AltCategory_ac,AltCountry_ac,AltDomain_ac,AltKind_ac,ECEF_X_ac,ECEF_Y_ac,ECEF_Z_ac,OriPhi_ac,OriPsi_ac,OriTheta_ac,LinVelX_ac,LinVelY_ac,LinVelZ_ac,LinAccX_ac,LinAccY_ac,LinAccZ_ac,AngVelX_ac,AngVelY_ac,AngVelZ_ac,DrAlg_ac,Appearance_ac,Latitude_ac,Longitude_ac,Altitude_ac,Heading_ac,Pitch_ac,Roll_ac,CalibratedAirspeed_ac,CM_Altitude_Lead_ac,CM_Altitude_Wing_ac,CM_Airspeed_ac,Bank_Angle_Condition,distance_nm,Distance_Condition,angle_between_vel,angle_between_pos,Cone_Condition,angle_between_pos_nose,Nose_Cone_Condition,Intercept_Criteria
8,1970-07-23 09:59:53.783595526,2025-09-10,2025-09-26 15:49:38.359,AA,C,3263754666,JASSM,3,129,76,2,2,1,225,9,2,0,1,26,0,0,0,0,-188228.8402117056,-4786093.440400924,4202195.808073521,-2.30155,-0.153302,0.128183,93.5,-14.375,-12.125,0.0,0.0,0.0,0.0,0.0,0.0,2,0,41.45199977744445,-92.25218398351385,10000.00018635154,99.81654288180506,-0.0039358027023589,0.0023907203236554,,9133.40005056179,11009.472056291774,150,8,2025-09-10,2025-09-26 15:49:38.368,AA,C,3221212760,AMBUSH51,1,1,48,2,1,1,225,2,1,0,0,9,1,225,2,1,-141577.64075985696,-4793954.887404996,4194707.182309402,2.35834,2.6265,-0.515433,-74.0442,45.8207,50.0821,-0.16684,-7.18122,6.88431,-0.0522697,0.00180908,-0.00772837,4,0,41.36423711632358,-91.69159794390043,9132.948394038522,-50.3248669301418,1.2015556404033567,-3.2779859525065627,177.514,9133.40005056179,11009.472056291774,150,True,25.753985768507736,False,148.7363621237111,178.12227255291114,False,29.453855217847057,True,False
8,1970-07-23 09:59:53.793197747,2025-09-10,2025-09-26 15:49:39.319,AA,C,3265007420,JASSM,3,129,76,2,2,1,225,9,2,0,1,26,0,0,0,0,-188130.68200858065,-4786108.616182174,4202183.005339146,-2.30155,-0.153302,0.128183,93.5,-14.375,-12.125,0.0,0.0,0.0,0.0,0.0,0.0,2,0,41.45184605165678,-92.25100358543152,9999.999936177755,99.81732429517956,-0.0030378249450351,0.0023900911833488,,9133.40005056179,11009.472056291774,150,8,2025-09-10,2025-09-26 15:49:39.167,AA,C,3222167160,AMBUSH51,1,1,48,2,1,1,225,2,1,0,0,9,1,225,2,1,-141636.9603271287,-4793918.043648729,4194746.854090727,2.33049,2.62881,-0.51282,-74.2618,45.612,49.7111,-0.108504,-7.28671,6.35715,-0.0301634,-0.00353597,-0.00480721,4,0,41.36471371363376,-91.69231929258112,9132.592493257696,-50.51076804355675,1.166723524502255,-4.812205360240847,177.477,9133.40005056179,11009.472056291774,150,True,25.662602780098062,False,148.99721726842637,178.16367726795153,False,29.237332943518783,True,False
8,1970-07-23 09:59:53.803217014,2025-09-10,2025-09-26 15:49:40.321,AA,C,3266260120,JASSM,3,129,76,2,2,1,225,9,2,0,1,26,0,0,0,0,-188032.52966483065,-4786123.790010299,4202170.202604771,-2.30155,-0.153302,0.128183,93.5,-14.375,-12.125,0.0,0.0,0.0,0.0,0.0,0.0,2,0,41.45169232401008,-92.24982326387604,10000.000602000084,99.8181056555105,-0.0021399013142202,0.0023894630348152,,9133.40005056179,11009.472056291774,150,8,2025-09-10,2025-09-26 15:49:40.400,AA,C,3223638524,AMBUSH51,1,1,48,2,1,1,225,2,1,0,0,9,1,225,2,1,-141729.09218013566,-4793861.327074021,4194807.643701764,2.32999,2.63576,-0.505812,-74.7135,45.2978,48.9964,-0.219626,-7.35644,6.67114,0.0160799,0.00399162,-0.0148835,4,0,41.36544533222223,-91.69343949312731,9131.502624404467,-51.0385264250484,1.0999311245331622,-4.656924831029705,177.135,9133.40005056179,11009.472056291774,150,True,25.55057123402651,False,149.49004730145413,178.22923019100776,False,28.81578781752993,True,False
8,1970-07-23 09:59:53.816027925,2025-09-10,2025-09-26 15:49:41.602,AA,C,3267632120,JASSM,3,129,76,2,2,1,225,9,2,0,1,26,0,0,0,0,-187925.0277117056,-4786140.407197799,4202156.179167271,-2.30155,-0.153302,0.128183,93.5,-14.375,-12.125,0.0,0.0,0.0,0.0,0.0,0.0,2,0,41.45152394325779,-92.2485305168464,9999.99969647524,99.818961437576,-0.0011564463926793,0.0023887791032464,,9133.40005056179,11009.472056291774,150,8,2025-09-10,2025-09-26 15:49:41.635,AA,C,3225109890,AMBUSH51,1,1,48,2,1,1,225,2,1,0,0,9,1,225,2,1,-141821.04540098808,-4793805.794105861,4194867.124197639,2.38426,2.64481,-0.498445,-74.8929,44.7919,48.5519,-0.222475,-7.3866,6.47526,0.0608293,0.0172117,-0.0131129,4,0,41.36616109185295,-91.69455716758422,9130.482328875858,-51.65963310357848,1.0911162094605196,-1.3098089121943095,176.377,9133.40005056179,11009.472056291774,150,True,25.433756038688394,False,149.84286615507628,178.29281930951595,False,28.529286923746366,True,False
8,1970-07-23 09:59:53.825216321,2025-09-10,2025-09-26 15:49:42.521,AA,C,3268884820,JASSM,3,129,76,2,2,1,225,9,2,0,1,26,0,0,0,0,-187826.8753679556,-4786155.579072799,4202143.374479771,-2.30145,-0.153206,0.128183,93.5,-14.375,-12.125,0.0,0.0,0.0,0.0,0.0,0.0,2,0,41.45137018868147,-92.24735020788572,10000.002109382996,99.81610641483412,-0.0043154607519896,0.0071775593776081,,9133.40005056179,11009.472056291774,150,8,2025-09-10,2025-09-26 15:49:42.433,AA,C,3226064288,AMBUSH51,1,1,48,2,1,1,225,2,1,0,0,9,1,225,2,1,-141880.98188364017,-4793769.761224793,4194905.656381625,2.44749,2.64336,-0.50149,-74.6895,44.6771,48.5256,-0.243672,-7.36952,6.53529,0.0684901,-0.00624282,0.00985266,4,0,41.36662504357125,-91.69528563965062,9129.70968567372,-51.48912924258163,1.1725636851970112,2.2762886700131,176.084,9133.40005056179,11009.472056291774,150,True,25.342276116996597,False,149.80555698354112,178.33311037590408,False,28.608862607951796,True,False
8,1970-07-23 09:59:53.835215401,2025-09-10,2025-09-26 15:49:43.521,AA,C,3270137520,JASSM,3,129,76,2,2,1,225,9,2,0,1,26,0,0,0,0,-187728.7230242056,-4786170.748994674,4202130.567839146,-2.30145,-0.153206,0.128279,93.5,-14.375,-12.125,0.0,0.0,0.0,0.0,0.0,0.0,2,0,41.451216420443686,-92.24616990541536,10000.000630068094,99.820978274754,-0.0070839629435648,0.0071764959464544,,9133.40005056179,11009.472056291774,150,8,2025-09-10,2025-09-26 15:49:43.567,AA,C,3227416354,AMBUSH51,1,1,48,2,1,1,225,2,1,0,0,9,1,225,2,1,-141965.93607679123,-4793718.201726194,4194960.755658147,2.49921,2.63348,-0.505812,-74.0292,45.0758,48.6878,-0.15215,-7.3711,6.3064,0.024396,0.00287434,-0.00450969,4,0,41.367288800745165,-91.69631836849008,9128.471751730656,-50.95523379731381,1.026609993309184,4.976639535406052,175.399,9133.40005056179,11009.472056291774,150,True,25.235008838384825,False,149.39090905777385,178.3926143241355,False,29.089253894604642,True,False
8,1970-07-23 09:59:53.846235380,2025-09-10,2025-09-26 15:49:44.623,AA,C,3271390218,JASSM,3,129,76,2,2,1,225,9,2,0,1,26,0,0,0,0,-187630.56872733065,-4786185.918916549,4202117.761198521,-2.30145,-0.153206,0.128279,93.5,-14.375,-12.125,0.0,0.0,0.0,0.0,0.0,0.0,2,0,41.45106264054796,-92.24498958517448,10000.004111454657,99.82175962453604,-0.0061860228719967,0.0071758748753413,,9133.40005056179,11009.472056291774,150,8,2025-09-10,2025-09-26 15:49:44.567,AA,C,3228609352,AMBUSH51,1,1,48,2,1,1,225,2,1,0,0,9,1,225,2,1,-142039.25133021548,-4793673.198401812,4195008.65615811,2.4981,2.62652,-0.516265,-73.2719,45.4664,48.8664,-0.208065,-7.46967,6.52352,-0.0307044,-0.0041976,0.013346,4,0,41.367866995840224,-91.69720980744847,9126.918285227834,-50.29754720434488,1.243310512847276,4.730839849566707,175.057,9133.40005056179,11009.472056291774,150,True,25.135018414551645,False,148.9329461061504,178.44428336562135,False,29.604840107423463,True,False
8,1970-07-23 09:59:53.858018024,2025-09-10,2025-09-26 15:49:45.801,AA,C,3272643302,JASSM,3,129,76,2,2,1,225,9,2,0,1,26,0,0,0,0,-187532.38513358065,-4786201.090791549,4202104.948698521,-2.30145,-0.153206,0.128279,93.5,-14.375,-12.125,0.0,0.0,0.0,0.0,0.0,0.0,2,0,41.45090880422075,-92.24380891941826,10000.001994782651,99.82254120065728,-0.0052878159231659,0.0071752549829031,,9133.40005056179,11009.472056291774,150,8,2025-09-10,2025-09-26 15:49:45.867,AA,C,3230160250,AMBUSH51,1,1,48,2,1,1,225,2,1,0,0,9,1,225,2,1,-142134.38255163791,-4793613.782007981,4195072.044680816,2.44468,2.61458,-0.519425,-72.6494,45.8529,48.963,-0.104986,-7.36326,6.35426,-0.0352213,0.00229802,0.00623242,4,0,41.36863164396914,-91.69836689190366,9125.072392288232,-49.7326463645968,0.9867336877467354,1.3425267333205917,174.764,9133.40005056179,11009.472056291774,150,True,25.021115343667468,False,148.55287925879477,178.51425219513794,False,30.062998994339097,False,False
8,1970-07-23 09:59:53.868235959,2025-09-10,2025-09-26 15:49:46.823,AA,C,3274014872,JASSM,3,129,76,2,2,1,225,9,2,0,1,26,0,0,0,0,-187424.9183367056,-4786217.696260299,4202090.923307896,-2.30145,-0.153206,0.128279,93.5,-14.375,-12.125,0.0,0.0,0.0,0.0,0.0,0.0,2,0,41.45074040425356,-92.24251662919951,10000.000170530056,99.82339666711158,-0.0043046835133895,0.0071745718325977,,9133.40005056179,11009.472056291774,150,8,2025-09-10,2025-09-26 15:49:46.767,AA,C,3231233950,AMBUSH51,1,1,48,2,1,1,225,2,1,0,0,9,1,225,2,1,-142199.8881752851,-4793572.671681603,4195115.764029902,2.41894,2.61658,-0.521647,-72.4715,45.8385,48.8261,-0.188131,-7.3201,6.47423,-0.0185495,0.00502984,-0.00178827,4,0,41.369159813636045,-91.6991637249106,9123.475098541136,-49.72385497717884,1.148784609430277,-0.0754172527327947,174.544,9133.40005056179,11009.472056291774,150,True,24.920837678337264,False,148.53175630115146,178.5614202375513,False,30.136555632089888,False,False
8,1970-07-23 09:59:53.879197969,2025-09-10,2025-09-26 15:49:47.919,AA,C,3275327260,JASSM,3,129,76,2,2,1,225,9,2,0,1,26,0,0,0,0,-187322.08825858065,-4786233.582979049,4202077.503386021,-2.30145,-0.153206,0.128279,93.5,-14.375,-12.125,0.0,0.0,0.0,0.0,0.0,0.0,2,0,41.45057927234214,-92.24128010294191,9999.999286461072,99.82421521642668,-0.0033639724206294,0.0071739336685228,,9133.40005056179,11009.472056291774,150,8,2025-09-10,2025-09-26 15:49:47.867,AA,C,3232546248,AMBUSH51,1,1,48,2,1,1,225,2,1,0,0,9,1,225,2,1,-142279.5997721647,-4793522.111309935,4195169.499679091,2.39738,2.61571,-0.522252,-72.3579,45.7429,48.7634,-0.093772,-7.33092,6.36203,-0.00768052,-0.00496534,-0.00238748,4,0,41.36980931051326,-91.70013357132042,9121.381373634911,-49.66938922094403,1.14743765230218,-1.3339996344891107,174.373,9133.40005056179,11009.472056291774,150,True,24.81406868754893,False,148.53370193026169,178.62054002792829,False,30.199240336643637,False,False
8,1970-07-23 09:59:53.889217125,2025-09-10,2025-09-26 15:49:48.921,AA,C,3276579970,JASSM,3,129,76,2,2,1,225,9,2,0,1,26,0,0,0,0,-187223.9339617056,-4786248.747041549,4202064.690886021,-2.30145,-0.153206,0.128279,93.5,-14.25,-12.125,0.0,0.0,0.0,0.0,0.0,0.0,2,0,41.45042543761746,-92.24009980854278,9999.996976072134,99.82499653922378,-0.0024660334830892,0.0071733074793804,,9133.40005056179,11009.472056291774,150,8,2025-09-10,2025-09-26 15:49:48.967,AA,C,3233858548,AMBUSH51,1,1,48,2,1,1,225,2,1,0,0,9,1,225,2,1,-142359.37096630427,-4793471.872831392,4195223.09752112,2.39769,2.61795,-0.521153,-72.3943,45.5735,48.6452,0.0201879,-7.33045,6.30832,-0.00561865,0.00301166,0.0100295,4,0,41.37045594407074,-91.70110403477996,9119.791440055806,-49.7950264256196,1.174538612091417,-1.2548714688922014,174.544,9133.40005056179,11009.472056291774,150,True,24.709900759284356,False,148.58500542814681,178.65640926239269,False,30.164307960346257,False,False
8,1970-07-23 09:59:53.902017521,2025-09-10,2025-09-26 15:49:50.201,AA,C,3277832670,JASSM,3,129,76,2,2,1,225,9,2,0,1,26,0,0,0,0,-187125.77966483065,-4786263.911104049,4202051.878386021,-2.30145,-0.153206,0.128279,93.5,-14.25,-12.125,0.0,0.0,0.0,0.0,0.0,0.0,2,0,41.4502715907792,-92.2389195197204,9999.999814705545,99.82577785594408,-0.0015680945214983,0.0071726812438789,,9133.40005056179,11009.472056291774,150,8,2025-09-10,2025-09-26 15:49:50.100,AA,C,3235210612,AMBUSH51,1,1,48,2,1,1,225,2,1,0,0,9,1,225,2,1,-142441.8258892851,-4793419.789709993,4195278.736488843,2.47844,2.6224,-0.522854,-72.1802,45.5029,48.857,-0.207499,-7.48033,6.78393,0.109351,0.00979232,0.000275679,4,0,41.37112684922817,-91.7021072225541,9118.29016076817,-49.89709021829942,1.395010856813539,3.4965395530805043,174.287,9133.40005056179,11009.472056291774,150,True,24.604039902848122,False,148.450021564993,178.71917598171842,False,30.36585697835259,False,False
8,1970-07-23 09:59:53.909234672,2025-09-10,2025-09-26 15:49:50.923,AA,C,3278966234,JASSM,3,129,76,2,2,1,225,9,2,0,1,26,0,0,0,0,-187036.9613054556,-4786277.629854049,4202040.284636021,-2.30145,-0.15311,0.128279,93.5,-14.25,-12.125,0.0,0.0,0.0,0.0,0.0,0.0,2,0,41.45013238500151,-92.23785150016867,9999.99968450371,99.8228485769528,-0.0048124994840327,0.0064695797374106,,9133.40005056179,11009.472056291774,150,8,2025-09-10,2025-09-26 15:49:50.867,AA,C,3236125244,AMBUSH51,1,1,48,2,1,1,225,2,1,0,0,9,1,225,2,1,-142496.63990627992,-4793385.06434238,4195315.95551494,2.5329,2.62025,-0.52572,-71.7287,45.6971,49.2969,-0.270444,-7.39257,6.73954,0.0323335,-0.00208372,0.0143093,4,0,41.3715750151716,-91.70277416488187,9117.547462582172,-49.70877744020965,1.4480727266376483,6.559920235825471,173.945,9133.40005056179,11009.472056291774,150,True,24.520739036104494,False,148.0732415272841,178.7605661421881,False,30.78689081337111,False,False
8,1970-07-23 09:59:53.919196239,2025-09-10,2025-09-26 15:49:51.919,AA,C,3280159110,JASSM,3,129,76,2,2,1,225,9,2,0,1,26,0,0,0,0,-186943.49450858065,-4786292.067354049,4202028.081511021,-2.30145,-0.15311,0.128279,93.5,-14.25,-12.125,0.0,0.0,0.0,0.0,0.0,0.0,2,0,41.44998586092307,-92.23672758884338,10000.00032101749,99.82359256919116,-0.0039574432465066,0.0064689262365276,,9133.40005056179,11009.472056291774,150,8,2025-09-10,2025-09-26 15:49:51.934,AA,C,3237397776,AMBUSH51,1,1,48,2,1,1,225,2,1,0,0,9,1,225,2,1,-142573.7083664612,-4793335.486548601,4195369.187248134,2.5666,2.5996,-0.542196,-70.9261,46.2009,50.1446,-0.183258,-7.20173,6.84349,-0.00617416,0.0146027,0.0127114,4,0,41.372215703407775,-91.7037121686018,9116.608193684577,-48.320947252731486,1.4896288100013209,7.923931040494029,174.287,9133.40005056179,11009.472056291774,150,True,24.420730598632762,False,147.33921516095504,178.82082918109572,False,31.586094614651294,False,False
8,1970-07-23 09:59:53.930172453,2025-09-10,2025-09-26 15:49:53.017,AA,C,3281352156,JASSM,3,129,76,2,2,1,225,9,2,0,1,26,0,0,0,0,-186850.0159929556,-4786306.504854049,4202015.876432896,-2.30145,-0.15311,0.128375,93.5,-14.25,-12.125,0.0,0.0,0.0,0.0,0.0,0.0,2,0,41.44983931540928,-92.23560354250723,10000.000260564018,99.82842721353056,-0.0067686561978593,0.0064679279470187,,9133.40005056179,11009.472056291774,150,8,2025-09-10,2025-09-26 15:49:52.833,AA,C,3238471476,AMBUSH51,1,1,48,2,1,1,225,2,1,0,0,9,1,225,2,1,-142637.59534321405,-4793293.582172118,4195414.578961741,2.52341,2.59319,-0.548409,-70.3555,46.6382,50.999,-0.125997,-7.2007,6.91398,-0.0574525,0.00148034,0.00754112,4,0,41.372760139096194,-91.70449004041149,9116.592121354171,-47.85082281396567,1.554715151164094,5.271310039451188,174.715,9133.40005056179,11009.472056291774,150,True,24.328916772473153,False,146.71600187563965,178.87200556300866,False,32.264519135111556,False,False
8,1970-07-23 09:59:53.940417128,2025-09-10,2025-09-26 15:49:54.041,AA,C,3282485552,JASSM,3,129,76,2,2,1,225,9,2,0,1,26,0,0,0,0,-186761.20935233065,-4786320.219697799,4202004.280729771,-2.30145,-0.15311,0.128375,93.5,-14.25,-12.125,0.0,0.0,0.0,0.0,0.0,0.0,2,0,41.449700086193296,-92.23453567902652,10000.000503664272,99.8291340999147,-0.0059562347502014,0.006467374577433,,9133.40005056179,11009.472056291774,150,8,2025-09-10,2025-09-26 15:49:54.134,AA,C,3240022374,AMBUSH51,1,1,48,2,1,1,225,2,1,0,0,9,1,225,2,1,-142729.54597024937,-4793232.377368752,4195481.414566616,2.41554,2.58704,-0.547847,-70.3501,46.9191,51.7159,0.033921,-7.14494,6.88685,-0.0503223,0.00694815,-0.00192559,4,0,41.37355919248367,-91.70560994856474,9117.641224829802,-47.64414506285458,1.335731422575688,-1.087725110601807,175.79,9133.40005056179,11009.472056291774,150,True,24.221698117173627,False,146.41036965498526,178.94834026057683,False,32.65393184409612,False,False
8,1970-07-23 09:59:53.950816862,2025-09-10,2025-09-26 15:49:55.081,AA,C,3283618946,JASSM,3,129,76,2,2,1,225,9,2,0,1,26,0,0,0,0,-186672.4027117056,-4786333.932588424,4201992.685026646,-2.30145,-0.15311,0.128375,93.5,-14.25,-12.125,0.0,0.0,0.0,0.0,0.0,0.0,2,0,41.44956085868839,-92.23346782102284,10000.00016241765,99.82984098071934,-0.005143815940362,0.0064668325094153,,9133.40005056179,11009.472056291774,150,8,2025-09-10,2025-09-26 15:49:54.966,AA,C,3241016540,AMBUSH51,1,1,48,2,1,1,225,2,1,0,0,9,1,225,2,1,-142788.5119146009,-4793193.342230375,4195524.215984429,2.37502,2.59741,-0.540159,-70.6772,46.9479,51.53,-0.225912,-7.02435,6.85843,-0.0280974,0.00100805,-0.0188013,4,0,41.374069931568,-91.7063280595586,9118.718039152587,-48.31736686718646,1.333491310804886,-3.1172172756654613,175.998,9133.40005056179,11009.472056291774,150,True,24.135526333222973,False,146.5954246157836,178.99600947784495,False,32.52488390710492,False,False
8,1970-07-23 09:59:53.957194451,2025-09-10,2025-09-26 15:49:55.719,AA,C,3284693124,JASSM,3,129,76,2,2,1,225,9,2,0,1,26,0,0,0,0,-186588.23669608065,-4786346.928682174,4201981.692839146,-2.30145,-0.15311,0.128375,93.5,-14.25,-12.125,0.0,0.0,0.0,0.0,0.0,0.0,2,0,41.449428882415056,-92.23245576866722,9999.997916934071,99.83051091853656,-0.0043738478840495,0.0064663039361339,,9133.40005056179,11009.472056291774,150,8,2025-09-10,2025-09-26 15:49:55.667,AA,C,3241851638,AMBUSH51,1,1,48,2,1,1,225,2,1,0,0,9,1,225,2,1,-142838.04332542254,-4793161.205506202,4195559.967395602,2.34699,2.60421,-0.534641,-71.0336,44.8334,53.2905,-0.0964308,-7.13259,6.74369,-0.0282472,0.00429331,-0.00835047,4,0,41.37449370443204,-91.70693104929435,9120.794142848474,-48.77781717204772,1.3142125984108808,-4.53463658244269,175.998,9133.40005056179,11009.472056291774,150,True,24.057981685212628,False,146.68471175439493,179.0351381712049,False,32.4573809962487,False,False
8,1970-07-23 09:59:53.968015701,2025-09-10,2025-09-26 15:49:56.801,AA,C,3285885732,JASSM,3,129,76,2,2,1,225,9,2,0,1,26,0,0,0,0,-186494.79138358065,-4786361.358369674,4201969.489714146,-2.30145,-0.15311,0.128375,93.5,-14.25,-12.125,0.0,0.0,0.0,0.0,0.0,0.0,2,0,41.44928234712909,-92.23133214206013,10000.003828232362,99.83125471195018,-0.0035189909265989,0.0064657188624523,,9133.40005056179,11009.472056291774,150,8,2025-09-10,2025-09-26 15:49:56.633,AA,C,3243004870,AMBUSH51,1,1,48,2,1,1,225,2,1,0,0,9,1,225,2,1,-142907.85777906753,-4793115.493030836,4195609.238975983,2.32112,2.61098,-0.531743,-71.8735,46.193,51.092,-0.236344,-7.30155,6.78117,-0.00426626,-8.63447e-05,-0.00277655,4,0,41.37508591464484,-91.7077811236281,9120.272547697848,-49.13965646868169,1.4097237254406607,-5.828377855511227,176.255,9133.40005056179,11009.472056291774,150,True,23.96256716244156,False,147.41181096499952,179.08885625845247,False,31.8153052260001,False,False
8,1970-07-23 09:59:53.977216307,2025-09-10,2025-09-26 15:49:57.721,AA,C,3286959898,JASSM,3,129,76,2,2,1,225,9,2,0,1,26,0,0,0,0,-186410.62732108065,-4786374.352510299,4201958.495573521,-2.30145,-0.15311,0.128375,93.5,-14.25,-12.125,0.0,0.0,0.0,0.0,0.0,0.0,2,0,41.449150350060265,-92.23032012261582,10000.000717895971,99.83192462427932,-0.0027490404039263,0.0064651851411742,,9133.40005056179,11009.472056291774,150,8,2025-09-10,2025-09-26 15:49:57.833,AA,C,3244436470,AMBUSH51,1,1,48,2,1,1,225,2,1,0,0,9,1,225,2,1,-142994.32426359053,-4793060.514309941,4195669.381904347,2.32493,2.61973,-0.523136,-72.7346,45.8141,50.3516,0.0416112,-7.11703,6.68871,0.01949,-0.00169673,-0.00359215,4,0,41.37580368600777,-91.70883339446684,9121.75145807401,-49.791320409084186,1.3260645335011054,-5.373102467265918,176.475,9133.40005056179,11009.472056291774,150,True,23.861944267919366,False,148.09306447622427,179.15319812103297,False,31.214110497350894,False,False
8,1970-07-23 09:59:53.985195060,2025-09-10,2025-09-26 15:49:58.519,AA,C,3288033640,JASSM,3,129,76,2,2,1,225,9,2,0,1,26,0,0,0,0,-186326.49450858065,-4786387.340791549,4201947.507292271,-2.30145,-0.15311,0.128375,93.5,-14.25,-12.125,0.0,0.0,0.0,0.0,0.0,0.0,2,0,41.44901841124897,-92.2293084835146,10000.002709731636,99.83259428308364,-0.0019793791996903,0.0064646694037658,,9133.40005056179,11009.472056291774,150,8,2025-09-10,2025-09-26 15:49:58.633,AA,C,3245390868,AMBUSH51,1,1,48,2,1,1,225,2,1,0,0,9,1,225,2,1,-143052.81424957,-4793023.852905833,4195709.385114948,2.35149,2.62645,-0.519292,-73.1928,45.5142,50.0695,-0.200794,-7.27022,6.86681,0.0439016,0.00146578,-0.0161964,4,0,41.37628147594219,-91.70954502436416,9122.581904724138,-50.18813837509068,1.383335405872832,-3.669139012939864,176.389,9133.40005056179,11009.472056291774,150,True,23.77908333924899,False,148.44403264158527,179.19421832971494,False,30.91466278632985,False,False
8,1970-07-23 09:59:53.995095312,2025-09-10,2025-09-26 15:49:59.509,AA,C,3289226686,JASSM,3,129,76,2,2,1,225,9,2,0,1,26,0,0,0,0,-186233.0159929556,-4786401.770479049,4201935.294401646,-2.30145,-0.153015,0.128375,93.5,-14.25,-12.125,0.0,0.0,0.0,0.0,0.0,0.0,2,0,41.44887178702832,-92.22818447421676,9999.997309667737,99.82970214421977,-0.0051811463076703,0.0057610260328238,,9133.40005056179,11009.472056291774,150,8,2025-09-10,2025-09-26 15:49:59.500,AA,C,3246424800,AMBUSH51,1,1,48,2,1,1,225,2,1,0,0,9,1,225,2,1,-143116.4866867239,-4792984.474367095,4195752.528698254,2.40788,2.63079,-0.52055,-73.4558,45.0717,50.1234,-0.331462,-7.2188,6.89849,0.120095,0.0104061,-0.00430371,4,0,41.3767957071355,-91.71031952990212,9123.920553870565,-50.30183135580037,1.581294823040034,-0.317442698533851,176.426,9133.40005056179,11009.472056291774,150,True,23.68793824580021,False,148.6444773829,179.23710344635026,False,30.76686013477166,False,False
8,1970-07-23 09:59:54.006093665,2025-09-10,2025-09-26 15:50:00.609,AA,C,3290478962,JASSM,3,129,76,2,2,1,225,9,2,0,1,26,0,0,0,0,-186134.8948992056,-4786416.916963424,4201922.476042271,-2.30145,-0.153015,0.128375,93.5,-14.25,-12.125,0.0,0.0,0.0,0.0,0.0,0.0,2,0,41.4487178753342,-92.22700464676036,9999.999383296625,99.83048313158255,-0.0042835160881401,0.0057603542142884,,9133.40005056179,11009.472056291774,150,8,2025-09-10,2025-09-26 15:50:00.700,AA,C,3247856400,AMBUSH51,1,1,48,2,1,1,225,2,1,0,0,9,1,225,2,1,-143204.57914461708,-4792930.475360413,4195812.870293185,2.51705,2.62968,-0.517326,-73.3747,42.7262,52.5419,-0.30099,-7.12272,6.52382,0.0661244,-0.00265588,-0.00138464,4,0,41.377508681668495,-91.71139092614848,9128.37809972009,-50.3841242854071,1.407580356245446,5.903636908960518,176.133,9133.40005056179,11009.472056291774,150,True,23.578976893201588,False,148.3667416672427,179.29520718820058,False,31.09329734704924,False,False
8,1970-07-23 09:59:54.016097047,2025-09-10,2025-09-26 15:50:01.609,AA,C,3291731660,JASSM,3,129,76,2,2,1,225,9,2,0,1,26,0,0,0,0,-186036.74060233065,-4786432.067354049,4201909.651823521,-2.30145,-0.153015,0.128375,93.5,-14.25,-12.125,0.0,0.0,0.0,0.0,0.0,0.0,2,0,41.44856389643997,-92.22582442620966,10000.000304972951,99.8312643767671,-0.0033855820011402,0.0057596790857002,,9133.40005056179,11009.472056291774,150,8,2025-09-10,2025-09-26 15:50:01.433,AA,C,3248731264,AMBUSH51,1,1,48,2,1,1,225,2,1,0,0,9,1,225,2,1,-143258.741597577,-4792895.902345119,4195849.472106997,2.54925,2.61458,-0.532424,-72.635,45.7391,50.8676,-0.0272936,-7.14035,6.56738,0.0353982,0.00517964,0.0221843,4,0,41.3779518348741,-91.712050160948,9126.664286011148,-49.25040407334425,1.56041400457189,7.344581709367323,176.389,9133.40005056179,11009.472056291774,150,True,23.491191259379214,False,147.9037172550123,179.3276257825812,False,31.636414197017796,False,False
8,1970-07-23 09:59:54.027116290,2025-09-10,2025-09-26 15:50:02.711,AA,C,3292984360,JASSM,3,129,76,2,2,1,225,9,2,0,1,26,0,0,0,0,-185938.5863054556,-4786447.215791549,4201896.827604771,-2.30145,-0.153015,0.128471,93.5,-14.25,-12.125,0.0,0.0,0.0,0.0,0.0,0.0,2,0,41.44840991706033,-92.22464421214748,10000.001576185528,99.8361362255421,-0.0061539743505145,0.005758706767701,,9133.40005056179,11009.472056291774,150,8,2025-09-10,2025-09-26 15:50:02.633,AA,C,3250162864,AMBUSH51,1,1,48,2,1,1,225,2,1,0,0,9,1,225,2,1,-143344.90967739775,-4792840.396385855,4195910.351757508,2.52983,2.59949,-0.540173,-71.6213,46.6377,51.5973,-0.0109746,-7.15416,6.52295,-0.094768,-0.00219191,0.00553334,4,0,41.37867773012061,-91.71309914854696,9128.450861504643,-48.39869348514655,1.4077962373395687,5.812122612998619,176.267,9133.40005056179,11009.472056291774,150,True,23.38313821334981,False,147.03295783426785,179.37908831684376,False,32.59196487423167,False,False
8,1970-07-23 09:59:54.037617848,2025-09-10,2025-09-26 15:50:03.761,AA,C,3294237244,JASSM,3,129,76,2,2,1,225,9,2,0,1,26,0,0,0,0,-185840.4183367056,-4786462.364229049,4201883.999479771,-2.30145,-0.153015,0.128471,93.5,-14.25,-12.125,0.0,0.0,0.0,0.0,0.0,0.0,2,0,41.44825590237842,-92.22346384025566,9999.998208598769,99.83691756616568,-0.0052559181792473,0.0057581050699704,,9133.40005056179,11009.472056291774,150,8,2025-09-10,2025-09-26 15:50:03.866,AA,C,3251634228,AMBUSH51,1,1,48,2,1,1,225,2,1,0,0,9,1,225,2,1,-143433.62138659428,-4792782.231804049,4195974.2591706,2.43736,2.59222,-0.546031,-71.1823,46.9418,51.9291,-0.11587,-7.22461,6.69402,-0.0569115,-0.00208788,-0.00660069,4,0,41.37943942030243,-91.71417949044282,9130.456595029817,-47.910203601103454,1.4304258683355249,0.3107955902682169,176.524,9133.40005056179,11009.472056291774,150,True,23.273357984715886,False,146.67261512298853,179.4259356998609,False,33.04046513150219,False,False
8,1970-07-23 09:59:54.050025517,2025-09-10,2025-09-26 15:50:05.002,AA,C,3295489758,JASSM,3,129,76,2,2,1,225,9,2,0,1,26,0,0,0,0,-185742.2777117056,-4786477.508760299,4201871.175261021,-2.30145,-0.153015,0.128471,93.5,-14.25,-12.125,0.0,0.0,0.0,0.0,0.0,0.0,2,0,41.44810191886838,-92.22228380258066,10000.001483190768,99.83769868316946,-0.0043581120868564,0.0057575038890384,,9133.40005056179,11009.472056291774,150,8,2025-09-10,2025-09-26 15:50:05.200,AA,C,3253224894,AMBUSH51,1,1,48,2,1,1,225,2,1,0,0,9,1,225,2,1,-143528.32092600086,-4792719.900513034,4196042.998818595,2.36348,2.59954,-0.539606,-71.3768,46.7075,51.8428,0.0722605,-7.1793,6.39331,-0.0498396,0.00683996,-0.00413102,4,0,41.3802574453541,-91.715332866558,9133.13886965006,-48.4234704107202,1.3872408106914331,-3.718217372147581,176.353,9133.40005056179,11009.472056291774,150,True,23.15982049286982,False,146.83804062424127,179.4652584430191,False,32.96936462350847,False,False
8,1970-07-23 09:59:54.058092910,2025-09-10,2025-09-26 15:50:05.809,AA,C,3296682806,JASSM,3,129,76,2,2,1,225,9,2,0,1,26,0,0,0,0,-185648.7972429556,-4786491.932588424,4201858.958464146,-2.30145,-0.153015,0.128471,93.5,-14.25,-12.125,0.0,0.0,0.0,0.0,0.0,0.0,2,0,41.44795523497174,-92.22115980429658,10000.002202099708,99.83844270310352,-0.0035029382008396,0.0057569301787156,,9133.40005056179,11009.472056291774,150,8,2025-09-10,2025-09-26 15:50:05.699,AA,C,3253821392,AMBUSH51,1,1,48,2,1,1,225,2,1,0,0,9,1,225,2,1,-143564.73790052926,-4792696.247414381,4196069.191774638,2.34244,2.60112,-0.54029,-71.6119,45.6898,52.4923,-0.153262,-7.53616,6.68557,-0.0375849,0.00640719,0.00781159,4,0,41.38056850542009,-91.71577629494168,9134.428888518656,-48.45680687057724,1.4681875845952632,-4.878089380488531,176.353,9133.40005056179,11009.472056291774,150,True,23.085653428904994,False,146.97488229844555,179.4758352705375,False,32.85789034656335,False,False
8,1970-07-23 09:59:54.069193404,2025-09-10,2025-09-26 15:50:06.919,AA,C,3297935502,JASSM,3,129,76,2,2,1,225,9,2,0,1,26,0,0,0,0,-185550.64294608065,-4786507.077119674,4201846.128386021,-2.30145,-0.153015,0.128471,93.5,-14.25,-12.125,0.0,0.0,0.0,0.0,0.0,0.0,2,0,41.44780119144963,-92.2199796141088,10000.001500008351,99.83922391640178,-0.0026050051630895,0.0057563140022169,,9133.40005056179,11009.472056291774,150,8,2025-09-10,2025-09-26 15:50:06.833,AA,C,3255173458,AMBUSH51,1,1,48,2,1,1,225,2,1,0,0,9,1,225,2,1,-143645.88985553794,-4792643.851490463,4196126.919183797,2.3359,2.61008,-0.531852,-72.2224,46.2007,51.0466,-0.214928,-7.16807,6.57337,0.0122974,0.00150323,-0.0126219,4,0,41.381255477474426,-91.71676433823978,9136.687456951422,-49.10804883328236,1.394304632741666,-5.006631563725421,176.304,9133.40005056179,11009.472056291774,150,True,22.98088605837275,False,147.5630630242407,179.49188500282511,False,32.36271542446299,False,False
8,1970-07-23 09:59:54.079095099,2025-09-10,2025-09-26 15:50:07.909,AA,C,3299247854,JASSM,3,129,76,2,2,1,225,9,2,0,1,26,0,0,0,0,-185447.81482108065,-4786522.940400924,4201832.686979771,-2.30145,-0.152919,0.128471,93.5,-14.25,-12.125,0.0,0.0,0.0,0.0,0.0,0.0,2,0,41.447639811373655,-92.21874323372002,9999.999554595206,99.83640623724446,-0.0057212397768682,0.0050521399763007,,9133.40005056179,11009.472056291774,150,8,2025-09-10,2025-09-26 15:50:07.699,AA,C,3256207390,AMBUSH51,1,1,48,2,1,1,225,2,1,0,0,9,1,225,2,1,-143708.71766970408,-4792603.746332128,4196170.949687729,2.3831,2.61759,-0.526748,-72.5518,45.9378,50.78,-0.279418,-7.11474,6.57059,0.0717275,-0.00593698,-0.0124617,4,0,41.38178012016478,-91.71752913047791,9138.135883577368,-49.58072741332616,1.4201655390328516,-2.0966126656192072,176.182,9133.40005056179,11009.472056291774,150,True,22.885172335333827,False,147.84833572086362,179.49517691610313,False,32.139304483174804,False,False
8,1970-07-23 09:59:54.090361531,2025-09-10,2025-09-26 15:50:09.036,AA,C,3300500820,JASSM,3,129,76,2,2,1,225,9,2,0,1,26,0,0,0,0,-185349.63903983065,-4786538.084932174,4201819.852995396,-2.30145,-0.152919,0.128471,93.5,-14.25,-12.125,0.0,0.0,0.0,0.0,0.0,0.0,2,0,41.44748572165402,-92.21756279817852,9999.998867998394,99.83718760810844,-0.0048231134272375,0.0050514785214526,,9133.40005056179,11009.472056291774,150,8,2025-09-10,2025-09-26 15:50:08.963,AA,C,3257718522,AMBUSH51,1,1,48,2,1,1,225,2,1,0,0,9,1,225,2,1,-143801.1258222615,-4792545.015314527,4196235.221429644,2.43925,2.61955,-0.530963,-72.5237,45.9249,50.7148,-0.319142,-7.35468,6.92167,0.029868,-0.00500487,-0.00318227,4,0,41.38254693702773,-91.71865392940968,9139.843215445982,-49.494583243108345,1.6666241041688816,1.1792705262621836,175.974,9133.40005056179,11009.472056291774,150,True,22.773595750505354,False,147.86199755182452,179.48668299042458,False,32.21743329761212,False,False
8,1970-07-23 09:59:54.101582076,2025-09-10,2025-09-26 15:50:10.158,AA,C,3301812904,JASSM,3,129,76,2,2,1,225,9,2,0,1,26,0,0,0,0,-185246.8323992056,-4786553.942354049,4201806.413542271,-2.30145,-0.152919,0.128471,93.5,-14.25,-12.125,0.0,0.0,0.0,0.0,0.0,0.0,2,0,41.44732435870044,-92.21632668926574,9999.999855029246,99.83800582852837,-0.0038826251458008,0.0050507936325534,,9133.40005056179,11009.472056291774,150,8,2025-09-10,2025-09-26 15:50:10.263,AA,C,3259269420,AMBUSH51,1,1,48,2,1,1,225,2,1,0,0,9,1,225,2,1,-143895.6508788915,-4792484.885455518,4196301.30039222,2.54424,2.60873,-0.526339,-72.2288,46.5749,51.0263,-0.265058,-6.70109,6.47828,0.128451,-0.00764931,-0.00626779,4,0,41.38333388768672,-91.71980454176618,9142.193111903309,-49.26752527789909,1.1154694617748873,6.88745396960787,176.316,9133.40005056179,11009.472056291774,150,True,22.658189878360986,False,147.47528202724854,179.46154260069576,False,32.701883266429654,False,False
8,1970-07-23 09:59:54.111062477,2025-09-10,2025-09-26 15:50:11.106,AA,C,3303065602,JASSM,3,129,76,2,2,1,225,9,2,0,1,26,0,0,0,0,-185148.67810233065,-4786569.082979049,4201793.579557896,-2.30145,-0.152919,0.128471,93.5,-14.25,-12.125,0.0,0.0,0.0,0.0,0.0,0.0,2,0,41.4471702624826,-92.21514652375308,10000.00215678634,99.8387870157602,-0.0029846928566295,0.0050501169979391,,9133.40005056179,11009.472056291774,150,8,2025-09-10,2025-09-26 15:50:11.064,AA,C,3260223820,AMBUSH51,1,1,48,2,1,1,225,2,1,0,0,9,1,225,2,1,-143953.16480446688,-4792446.941716723,4196342.066756469,2.67526,2.60183,-0.527167,-71.5145,47.8401,51.3686,-0.352943,-6.53035,6.45134,0.141506,0.016548,0.0152913,4,0,41.3838245625164,-91.72050513428914,9141.502456711938,-48.97899264378235,0.9277733856981524,14.200882001316002,176.353,9133.40005056179,11009.472056291774,150,False,22.56833734049328,False,146.7527526904941,179.43657129453734,False,33.4916488096333,False,False
8,1970-07-23 09:59:54.122077421,2025-09-10,2025-09-26 15:50:12.207,AA,C,3304318300,JASSM,3,129,76,2,2,1,225,9,2,0,1,26,0,0,0,0,-185050.5238054556,-4786584.219697799,4201780.745573521,-2.30145,-0.152919,0.128567,93.5,-14.25,-12.125,0.0,0.0,0.0,0.0,0.0,0.0,2,0,41.44701617740659,-92.21396636563094,10000.000008355257,99.84365885138402,-0.0057530389980434,0.0050491831332321,,9133.40005056179,11009.472056291774,150,8,2025-09-10,2025-09-26 15:50:12.231,AA,C,3261615652,AMBUSH51,1,1,48,2,1,1,225,2,1,0,0,9,1,225,2,1,-144035.35029855563,-4792389.556231022,4196401.942820252,2.85337,2.55558,-0.540588,-69.5966,50.5687,52.5107,-0.309349,-6.4555,6.13649,0.139334,-0.00548341,0.0496232,4,0,41.38455549213228,-91.72150741243904,9136.252242002913,-46.741674939422175,0.0412201930512637,23.07563582201008,176.817,9133.40005056179,11009.472056291774,150,False,22.462724080040015,False,144.91794733323383,179.38854521819655,False,35.4290516236006,False,False
8,1970-07-23 09:59:54.132042081,2025-09-10,2025-09-26 15:50:13.204,AA,C,3305511346,JASSM,3,129,76,2,2,1,225,9,2,0,1,26,0,0,0,0,-184957.0433367056,-4786598.635713424,4201768.520964146,-2.30145,-0.152919,0.128567,93.5,-14.25,-12.125,0.0,0.0,0.0,0.0,0.0,0.0,2,0,41.446869406024334,-92.21284240844032,9999.999122471296,99.84440282816526,-0.0048978665569113,0.0050486093284693,,9133.40005056179,11009.472056291774,150,8,2025-09-10,2025-09-26 15:50:13.196,AA,C,3262768884,AMBUSH51,1,1,48,2,1,1,225,2,1,0,0,9,1,225,2,1,-144101.94148582456,-4792338.780507201,4196452.926333924,2.96983,2.5155,-0.54304,-67.4709,53.7316,53.4996,-0.20635,-6.13911,5.95954,0.0746091,0.00104342,0.0384109,4,0,41.38518984319799,-91.7223210667598,9126.830025070984,-45.124790993737015,-1.086528506165709,28.549595808565773,177.624,9133.40005056179,11009.472056291774,150,False,22.36905550224818,False,142.93719784087477,179.3366023794465,False,37.50452640416013,False,False
8,1970-07-23 09:59:54.145963483,2025-09-10,2025-09-26 15:50:14.596,AA,C,3306704394,JASSM,3,129,76,2,2,1,225,9,2,0,1,26,0,0,0,0,-184863.5628679556,-4786613.049775924,4201756.296354771,-2.30145,-0.152919,0.128567,93.5,-14.25,-12.125,0.0,0.0,0.0,0.0,0.0,0.0,2,0,41.44672263528369,-92.2117184572175,9999.998107225769,99.84514679882868,-0.0040426967477734,0.0050480468211324,,9133.40005056179,11009.472056291774,150,8,2025-09-10,2025-09-26 15:50:14.630,AA,C,3264478848,AMBUSH51,1,1,48,2,1,1,225,2,1,0,0,9,1,225,2,1,-144195.79864896624,-4792257.2861274425,4196530.198643589,3.11346,2.43675,-0.56493,-63.0629,59.4031,55.3383,-0.25048,-6.87568,6.66397,0.066861,0.0162318,0.0423828,4,0,41.38617952621857,-91.72347147100282,9100.872486954586,-41.30824674732852,-2.4036369421473176,34.287773440267664,179.542,9133.40005056179,11009.472056291774,150,False,22.257002660546473,False,139.14155837352993,179.24040109772454,False,41.450044034902376,False,False
8,1970-07-23 09:59:54.152045989,2025-09-10,2025-09-26 15:50:15.204,AA,C,3307957094,JASSM,3,129,76,2,2,1,225,9,2,0,1,26,0,0,0,0,-184765.4066179556,-4786628.184541549,4201743.458464146,-2.30145,-0.152919,0.128567,93.5,-14.25,-12.125,0.0,0.0,0.0,0.0,0.0,0.0,2,0,41.44656850075356,-92.21053829287632,9999.997447181428,99.84592797599169,-0.0031447506118374,0.0050474456035298,,9133.40005056179,11009.472056291774,150,8,2025-09-10,2025-09-26 15:50:15.163,AA,C,3265115114,AMBUSH51,1,1,48,2,1,1,225,2,1,0,0,9,1,225,2,1,-144229.2659714651,-4792224.444049143,4196560.239153153,-3.12164,2.40562,-0.572953,-61.0186,61.6226,56.309,-0.201802,-6.85602,6.59567,0.0503431,0.0147795,0.0484414,4,0,41.386571715597626,-91.7238830480628,9087.705954673324,-39.81598774994564,-2.898334662965798,36.012802440635475,180.214,9133.40005056179,11009.472056291774,150,False,22.181086079462702,False,137.47377701487002,179.19657452025922,False,43.17721201666125,False,False
8,1970-07-23 09:59:54.163240377,2025-09-10,2025-09-26 15:50:16.324,AA,C,3309209792,JASSM,3,129,76,2,2,1,225,9,2,0,1,26,0,0,0,0,-184667.25232108065,-4786643.319307174,4201730.620573521,-2.30145,-0.152919,0.128567,93.5,-14.25,-12.125,0.0,0.0,0.0,0.0,0.0,0.0,2,0,41.44641435366419,-92.20935815746556,10000.002121397303,99.84670913161592,-0.0022468216155595,0.0050468409052366,,9133.40005056179,11009.472056291774,150,8,2025-09-10,2025-09-26 15:50:16.263,AA,C,3266427412,AMBUSH51,1,1,48,2,1,1,225,2,1,0,0,9,1,225,2,1,-144294.135290891,-4792153.864428848,4196623.159466466,-3.04356,2.33664,-0.592097,-56.4525,66.2136,58.4724,-0.221735,-7.53036,7.14832,0.0381779,0.030205,0.0562021,4,0,41.38740475005441,-91.72468330839216,9055.338817562992,-36.45620582227719,-3.81585371779687,38.11438868822393,182.145,9133.40005056179,11009.472056291774,150,False,22.083681996398155,False,133.89504725310002,179.0993308819493,False,46.8800843358421,False,False
8,1970-07-23 09:59:54.173066231,2025-09-10,2025-09-26 15:50:17.306,AA,C,3310403292,JASSM,3,129,76,2,2,1,225,9,2,0,1,26,0,0,0,0,-184573.73669608065,-4786657.735322799,4201718.388151646,-2.30145,-0.152823,0.128567,93.5,-14.25,-12.125,0.0,0.0,0.0,0.0,0.0,0.0,2,0,41.44626749261288,-92.20823380085857,10000.000086188527,99.8438173748435,-0.0054482477998708,0.00434219748231,,9133.40005056179,11009.472056291774,150,8,2025-09-10,2025-09-26 15:50:17.163,AA,C,3267501112,AMBUSH51,1,1,48,2,1,1,225,2,1,0,0,9,1,225,2,1,-144342.84368229398,-4792092.428243245,4196676.706756081,-2.97667,2.27196,-0.61643,-51.8444,69.7879,60.8551,-0.306407,-8.25668,7.79075,0.0375183,0.0388104,0.0529667,4,0,41.38812300373825,-91.7252872513248,9023.945010946758,-33.11921358958525,-4.2101150521714965,39.607320822413776,183.929,9133.40005056179,11009.472056291774,150,False,21.998718785581968,False,130.5599762072532,179.00932859255315,False,50.32022594136612,False,False
8,1970-07-23 09:59:54.184063289,2025-09-10,2025-09-26 15:50:18.406,AA,C,3311715188,JASSM,3,129,76,2,2,1,225,9,2,0,1,26,0,0,0,0,-184470.94372733065,-4786673.581025924,4201704.940886021,-2.30145,-0.152823,0.128567,93.5,-14.25,-12.125,0.0,0.0,0.0,0.0,0.0,0.0,2,0,41.44610604330879,-92.20699790700556,9999.999234960278,99.84463543321824,-0.00450788637128,0.0043415117514445,,9133.40005056179,11009.472056291774,150,8,2025-09-10,2025-09-26 15:50:18.396,AA,C,3268972476,AMBUSH51,1,1,48,2,1,1,225,2,1,0,0,9,1,225,2,1,-144402.08402055682,-4792004.065137218,4196753.67212903,-2.9407,2.17545,-0.659183,-44.5669,73.636,65.0837,-0.269785,-9.39505,8.95041,-0.00536273,0.0482625,0.050056,4,0,41.38915765254833,-91.72602671290002,8977.886618003913,-28.03420071928304,-4.162460326356082,38.0016371777833,186.703,9133.40005056179,11009.472056291774,150,False,21.899747946167416,False,125.70751820837847,178.87360943491151,False,55.31875927417177,False,False
8,1970-07-23 09:59:54.194087068,2025-09-10,2025-09-26 15:50:19.408,AA,C,3312967888,JASSM,3,129,76,2,2,1,225,9,2,0,1,26,0,0,0,0,-184372.78747733065,-4786688.711885299,4201692.099089146,-2.30145,-0.152823,0.128567,93.5,-14.25,-12.125,0.0,0.0,0.0,0.0,0.0,0.0,2,0,41.44595185723846,-92.20581776681212,10000.001088704756,99.84541658488637,-0.0036099409791276,0.0043408500807804,,9133.40005056179,11009.472056291774,150,8,2025-09-10,2025-09-26 15:50:19.430,AA,C,3270205242,AMBUSH51,1,1,48,2,1,1,225,2,1,0,0,9,1,225,2,1,-144444.81767669495,-4791925.620469443,4196823.684251312,-2.83906,2.09687,-0.701237,-37.0825,76.4262,69.1535,-0.479565,-9.87659,9.50685,0.0508424,0.0589984,0.0497522,4,0,41.39008931587324,-91.72656544241796,8939.931395412135,-23.836474611851205,-3.453092506149663,40.713413236902205,188.683,9133.40005056179,11009.472056291774,150,False,21.813337138048748,False,121.09823002780222,178.74613030742168,False,60.06017601840593,False,False
8,1970-07-23 09:59:54.205075774,2025-09-10,2025-09-26 15:50:20.507,AA,C,3314220590,JASSM,3,129,76,2,2,1,225,9,2,0,1,26,0,0,0,0,-184274.6331804556,-4786703.840791549,4201679.257292271,-2.30145,-0.152823,0.128567,93.5,-14.25,-12.125,0.0,0.0,0.0,0.0,0.0,0.0,2,0,41.445797670236495,-92.2046376564496,10000.003476618358,99.84619771441773,-0.0027120153789206,0.0043401962701723,,9133.40005056179,11009.472056291774,150,8,2025-09-10,2025-09-26 15:50:20.496,AA,C,3271477774,AMBUSH51,1,1,48,2,1,1,225,2,1,0,0,9,1,225,2,1,-144479.51039628312,-4791842.710186185,4196899.509013156,-2.72304,1.98511,-0.745163,-28.2102,78.3847,73.396,-0.421814,-10.7282,10.2236,0.0398694,0.072077,0.0648844,4,0,41.39108823162415,-91.72700974014548,8903.009093869076,-18.44567357658139,-2.83549895935794,42.82366212024994,190.284,9133.40005056179,11009.472056291774,150,False,21.73064197272747,False,116.02172475766747,178.6049053793991,False,65.27908344538206,False,False
8,1970-07-23 09:59:54.215080771,2025-09-10,2025-09-26 15:50:21.508,AA,C,3315473284,JASSM,3,129,76,2,2,1,225,9,2,0,1,26,0,0,0,0,-184176.47888358065,-4786718.967744674,4201666.413542271,-2.30145,-0.152823,0.128567,93.5,-14.25,-12.125,0.0,0.0,0.0,0.0,0.0,0.0,2,0,41.44564346957532,-92.2034575525735,10000.00197226041,99.8469788372648,-0.0018140901533144,0.0043395407712064,,9133.40005056179,11009.472056291774,150,8,2025-09-10,2025-09-26 15:50:21.464,AA,C,3272631006,AMBUSH51,1,1,48,2,1,1,225,2,1,0,0,9,1,225,2,1,-144501.97445306837,-4791766.129481432,4196972.019722371,-2.61364,1.86526,-0.784482,-18.2608,79.912,76.8689,-0.45847,-11.5942,10.9978,0.0117772,0.0788015,0.060821,4,0,41.392029316068616,-91.72730568570962,8873.569218237555,-13.054711881074772,-2.0695861810576326,44.10253289421515,191.921,9133.40005056179,11009.472056291774,150,False,21.65521149145537,False,110.64594144345504,178.4678602911554,False,70.79362306538991,False,False
8,1970-07-23 09:59:54.225067302,2025-09-10,2025-09-26 15:50:22.506,AA,C,3316666332,JASSM,3,129,76,2,2,1,225,9,2,0,1,26,0,0,0,0,-184082.99743826807,-4786733.373994674,4201654.181120396,-2.30145,-0.152823,0.128663,93.5,-14.25,-12.125,0.0,0.0,0.0,0.0,0.0,0.0,2,0,41.44549660114295,-92.20233363559136,10000.003696435548,99.85181346834176,-0.0046251356365316,0.0043387194524362,,9133.40005056179,11009.472056291774,150,8,2025-09-10,2025-09-26 15:50:22.563,AA,C,3273943304,AMBUSH51,1,1,48,2,1,1,225,2,1,0,0,9,1,225,2,1,-144515.63510653094,-4791678.79924711,4197058.187853729,-2.50132,1.71822,-0.823598,-6.72675,79.6778,80.8189,-0.394899,-11.8461,11.4396,-0.0038647,0.0886947,0.0550328,4,0,41.39312813757895,-91.72750034424593,8846.664613633386,-6.8954692202084304,-0.9587933878474224,44.30056990457046,192.838,9133.40005056179,11009.472056291774,150,False,21.585609741011556,False,104.66367229658498,178.30458700599485,False,76.93437064578596,False,False
8,1970-07-23 09:59:54.236106654,2025-09-10,2025-09-26 15:50:23.610,AA,C,3317919030,JASSM,3,129,76,2,2,1,225,9,2,0,1,26,0,0,0,0,-183984.84314139312,-4786748.498994674,4201641.335417271,-2.30145,-0.152823,0.128663,93.5,-14.25,-12.125,0.0,0.0,0.0,0.0,0.0,0.0,2,0,41.445342375289805,-92.20115354352376,10000.003203519003,99.85259457874172,-0.0037272107172638,0.0043381263294058,,9133.40005056179,11009.472056291774,150,8,2025-09-10,2025-09-26 15:50:23.499,AA,C,3275056770,AMBUSH51,1,1,48,2,1,1,225,2,1,0,0,9,1,225,2,1,-144516.7621104354,-4791604.0179037135,4197135.121158518,-2.39456,1.58142,-0.847385,3.96446,78.8768,83.2315,-0.433848,-12.1606,11.5109,0.00362127,0.0822261,0.0726221,4,0,41.39409221100385,-91.72754075251,8829.675203413668,-1.5460845520730049,-0.0306728600283842,44.55424746369921,193.534,9133.40005056179,11009.472056291774,150,False,21.52166445506164,False,99.27052543215278,178.15716640384113,False,82.47200489127442,False,False
8,1970-07-23 09:59:54.246108014,2025-09-10,2025-09-26 15:50:24.610,AA,C,3319112078,JASSM,3,129,76,2,2,1,225,9,2,0,1,26,0,0,0,0,-183891.36169608065,-4786762.901338424,4201629.101042271,-2.30145,-0.152823,0.128663,93.5,-14.25,-12.125,0.0,0.0,0.0,0.0,0.0,0.0,2,0,41.44519549441717,-92.20002963872804,10000.000660806629,99.85333849620808,-0.0028720367424668,0.004337575018189,,9133.40005056179,11009.472056291774,150,8,2025-09-10,2025-09-26 15:50:24.496,AA,C,3276249770,AMBUSH51,1,1,48,2,1,1,225,2,1,0,0,9,1,225,2,1,-144506.7556714081,-4791525.986897641,4197218.468542724,-2.19297,1.43124,-0.8616,15.9472,77.5528,84.5441,-0.557482,-11.8511,11.2942,0.213379,0.0800103,0.0471952,4,0,41.3951209202048,-91.72744932325875,8817.786299652073,4.078233714836233,0.928529053687286,49.65264309795637,193.84,9133.40005056179,11009.472056291774,150,False,21.465767568441148,False,93.31756504829262,177.9969402603183,False,88.58452369411816,False,False
8,1970-07-23 09:59:54.258041041,2025-09-10,2025-09-26 15:50:25.804,AA,C,3320365196,JASSM,3,129,76,2,2,1,225,9,2,0,1,26,0,0,0,0,-183793.17321951807,-4786778.030244674,4201616.247526646,-2.30145,-0.152727,0.128663,93.5,-14.25,-12.125,0.0,0.0,0.0,0.0,0.0,0.0,2,0,41.44504117677887,-92.19884914726568,9999.99962930879,99.85048397257354,-0.006030708486313,0.0036324026179969,,9133.40005056179,11009.472056291774,150,8,2025-09-10,2025-09-26 15:50:25.763,AA,C,3277760900,AMBUSH51,1,1,48,2,1,1,225,2,1,0,0,9,1,225,2,1,-144476.65250269635,-4791428.591941102,4197324.441808065,-1.91257,1.22719,-0.827969,30.2656,75.1439,84.3459,-0.569822,-11.2001,10.5147,0.00760769,0.0921756,0.0970067,4,0,41.39642118760888,-91.72712476984428,8805.864517443404,12.038334685604571,0.2522146649126079,57.04326332948899,193.498,9133.40005056179,11009.472056291774,150,False,21.415638139002162,False,86.21395261662852,177.78978898177675,False,95.89700960002747,False,False
8,1970-07-23 09:59:54.266111059,2025-09-10,2025-09-26 15:50:26.611,AA,C,3321558242,JASSM,3,129,76,2,2,1,225,9,2,0,1,26,0,0,0,0,-183699.69275076807,-4786792.430635299,4201604.011198521,-2.30145,-0.152727,0.128663,93.5,-14.25,-12.125,0.0,0.0,0.0,0.0,0.0,0.0,2,0,41.44489427161324,-92.19772526543262,9999.997713213364,99.85122787043974,-0.0051755434819363,0.0036317935940061,,9133.40005056179,11009.472056291774,150,8,2025-09-10,2025-09-26 15:50:26.696,AA,C,3278874366,AMBUSH51,1,1,48,2,1,1,225,2,1,0,0,9,1,225,2,1,-144440.76560235786,-4791357.474594737,4197400.416244315,-1.85723,1.06158,-0.78471,43.9021,74.335,80.4357,-0.491183,-12.3782,11.9186,-0.241088,0.105013,0.0561917,4,0,41.397363633356605,-91.72672163849442,8793.083031280545,19.03674232383315,-0.2158429831795799,53.3587482474416,194.757,9133.40005056179,11009.472056291774,150,False,21.374753536057245,False,79.39692895694445,177.63345565967552,False,102.8883060058036,False,False
8,1970-07-23 09:59:54.280434901,2025-09-10,2025-09-26 15:50:28.043,AA,C,3322750868,JASSM,3,129,76,2,2,1,225,9,2,0,1,26,0,0,0,0,-183606.24450858065,-4786806.827119674,4201591.778776646,-2.30145,-0.152727,0.128663,93.5,-14.25,-12.125,0.0,0.0,0.0,0.0,0.0,0.0,2,0,41.44474739771029,-92.1966017756302,10000.002388135064,99.85197150665329,-0.0043206714700104,0.0036311765199178,,9133.40005056179,11009.472056291774,150,8,2025-09-10,2025-09-26 15:50:28.163,AA,C,3280624098,AMBUSH51,1,1,48,2,1,1,225,2,1,0,0,9,1,225,2,1,-144363.63367956632,-4791254.550888712,4197516.438233071,-2.16802,0.842777,-0.775583,60.0971,65.746,79.2597,0.430028,-13.4563,12.7839,-0.418151,0.0885678,0.0345514,4,0,41.39877306535829,-91.7258371707673,8785.895780817726,27.352739061086883,3.016366362294412,26.919121380712127,195.893,9133.40005056179,11009.472056291774,150,False,21.351882783232217,False,70.89487467617994,177.39768476503633,False,111.60334740836156,False,False
8,1970-07-23 09:59:54.288045135,2025-09-10,2025-09-26 15:50:28.804,AA,C,3323824610,JASSM,3,129,76,2,2,1,225,9,2,0,1,26,0,0,0,0,-183522.11169608065,-4786819.786104049,4201580.763151646,-2.30145,-0.152727,0.128663,93.5,-14.25,-12.125,0.0,0.0,0.0,0.0,0.0,0.0,2,0,41.444615152252815,-92.19559028683544,9999.99909961906,99.8526410077135,-0.0035510179686384,0.0036306174765244,,9133.40005056179,11009.472056291774,150,8,2025-09-10,2025-09-26 15:50:28.896,AA,C,3281498964,AMBUSH51,1,1,48,2,1,1,225,2,1,0,0,9,1,225,2,1,-144317.8548717294,-4791208.602861029,4197575.128677454,-2.35903,0.782714,-0.799472,64.1507,60.291,80.3251,-0.0606448,-12.2731,11.6218,-0.307692,0.0489325,-0.0025144,4,0,41.399450855921,-91.72530676112406,8796.811107550568,28.77425005009217,5.41699359193957,13.64060948454568,195.514,9133.40005056179,11009.472056291774,150,False,21.32423940178328,False,68.49892133425314,177.280777928927,False,114.08753461623286,False,False
8,1970-07-23 09:59:54.294061002,2025-09-10,2025-09-26 15:50:29.406,AA,C,3324898730,JASSM,3,129,76,2,2,1,225,9,2,0,1,26,0,0,0,0,-183437.94861014312,-4786832.748994674,4201569.743620396,-2.30145,-0.152727,0.128663,93.5,-14.25,-12.125,0.0,0.0,0.0,0.0,0.0,0.0,2,0,41.44448285520106,-92.1945784385338,9999.99785990584,99.85331074497137,-0.0027810885988706,0.0036300629737639,,9133.40005056179,11009.472056291774,150,8,2025-09-10,2025-09-26 15:50:29.329,AA,C,3282015930,AMBUSH51,1,1,48,2,1,1,225,2,1,0,0,9,1,225,2,1,-144289.4188723195,-4791182.774542775,4197610.879665032,-2.47959,0.77168,-0.818089,65.0909,57.5298,81.288,-0.107963,-11.4589,10.773,-0.295125,0.0419438,-0.0162318,4,0,41.3998509711334,-91.72497631009024,8808.736351232968,28.589592334648323,6.555175047242003,6.256607487227389,194.647,9133.40005056179,11009.472056291774,150,True,21.28984286975286,False,67.83156918809375,177.20917240958633,False,114.80801106529564,False,False
8,1970-07-23 09:59:54.304065568,2025-09-10,2025-09-26 15:50:30.406,AA,C,3326091398,JASSM,3,129,76,2,2,1,225,9,2,0,1,26,0,0,0,0,-183344.4964617056,-4786847.141572799,4201557.507292271,-2.30145,-0.152727,0.128663,93.5,-14.25,-12.125,0.0,0.0,0.0,0.0,0.0,0.0,2,0,41.444335948347295,-92.19345491802814,9999.99715671144,99.85405439543378,-0.0019261829893967,0.003629449364708,,9133.40005056179,11009.472056291774,150,8,2025-09-10,2025-09-26 15:50:30.396,AA,C,3283288462,AMBUSH51,1,1,48,2,1,1,225,2,1,0,0,9,1,225,2,1,-144220.3323662422,-4791124.071467321,4197697.998396902,-2.69839,0.76515,-0.846922,64.4845,53.2644,83.3034,-0.086058,-9.45458,8.81292,-0.126403,0.0189885,-0.0188242,4,0,41.40080073617872,-91.72417199365697,8848.236918833907,27.926764014603556,8.092426530165007,-6.641275917818835,192.105,9133.40005056179,11009.472056291774,150,True,21.26746595840745,False,67.76032635090297,177.04684313411624,False,115.00947919852618,False,False
8,1970-07-23 09:59:54.313067146,2025-09-10,2025-09-26 15:50:31.306,AA,C,3327165140,JASSM,3,129,76,2,2,1,225,9,2,0,1,26,0,0,0,0,-183260.3636492056,-4786860.098604049,4201546.489714146,-2.30145,-0.152727,0.128759,93.5,-14.25,-12.125,0.0,0.0,0.0,0.0,0.0,0.0,2,0,41.44420367366273,-92.19244344290726,9999.996596005123,99.85881462854276,-0.0048227015541871,0.0036286751238061,,9133.40005056179,11009.472056291774,150,8,2025-09-10,2025-09-26 15:50:31.296,AA,C,3284362160,AMBUSH51,1,1,48,2,1,1,225,2,1,0,0,9,1,225,2,1,-144162.63311748527,-4791075.933987433,4197773.368809409,-2.82389,0.784209,-0.862061,62.5143,51.758,84.2884,-0.046505,-8.13594,7.68624,-0.102104,0.00508809,-0.0241151,4,0,41.40160628179073,-91.72349991402,8889.087102314379,26.85011959008752,8.454582151269411,-13.163321556478156,190.088,9133.40005056179,11009.472056291774,150,False,21.245517028352026,False,68.52018312786427,176.90852466777346,False,114.37767910152371,False,False
8,1970-07-23 09:59:54.322059435,2025-09-10,2025-09-26 15:50:32.205,AA,C,3328239278,JASSM,3,129,76,2,2,1,225,9,2,0,1,26,0,0,0,0,-183176.1995867056,-4786873.059541549,4201535.468229771,-2.30145,-0.152727,0.128759,93.5,-14.25,-12.125,0.0,0.0,0.0,0.0,0.0,0.0,2,0,41.44407134759658,-92.19143159661292,9999.997996475378,99.85948435903276,-0.0040527639046117,0.0036281755609677,,9133.40005056179,11009.472056291774,150,8,2025-09-10,2025-09-26 15:50:32.262,AA,C,3285515392,AMBUSH51,1,1,48,2,1,1,225,2,1,0,0,9,1,225,2,1,-144103.49692501427,-4791025.413940217,4197853.951558201,-2.87388,0.81455,-0.874917,59.9034,51.6642,84.451,-0.0618732,-7.44897,7.00435,0.00425794,0.00248527,-0.0318841,4,0,41.40246144020996,-91.72281150779624,8935.285644645746,25.494015504572246,8.513136276601134,-14.900865056042308,188.121,9133.40005056179,11009.472056291774,150,False,21.224067346344285,False,69.62910143392872,176.76163223785662,False,113.4209731948236,False,False
8,1970-07-23 09:59:54.332063230,2025-09-10,2025-09-26 15:50:33.206,AA,C,3329372278,JASSM,3,129,76,2,2,1,225,9,2,0,1,26,0,0,0,0,-183087.42321951807,-4786886.729463424,4201523.841276646,-2.30145,-0.152727,0.128759,93.5,-14.25,-12.125,0.0,0.0,0.0,0.0,0.0,0.0,2,0,41.443931757968464,-92.19036430481717,9999.997193487685,99.86019078641522,-0.0032406326576407,0.0036276462754846,,9133.40005056179,11009.472056291774,150,8,2025-09-10,2025-09-26 15:50:33.296,AA,C,3286748158,AMBUSH51,1,1,48,2,1,1,225,2,1,0,0,9,1,225,2,1,-144042.74769915614,-4790970.7795503605,4197940.7957977895,-2.87486,0.853844,-0.874117,57.365,52.1916,84.2529,-0.12891,-6.38232,6.05621,0.00536065,-0.00378772,-0.0198874,4,0,41.40338362758244,-91.7221052915409,8984.837170073795,24.247322233048106,7.764012595845847,-13.406346078036592,186.178,9133.40005056179,11009.472056291774,150,False,21.20058026467672,False,70.7591375234549,176.602724437128,False,112.46223549557529,False,False
8,1970-07-23 09:59:54.342079156,2025-09-10,2025-09-26 15:50:34.207,AA,C,3330565322,JASSM,3,129,76,2,2,1,225,9,2,0,1,26,0,0,0,0,-182993.9417742056,-4786901.123994674,4201511.599089146,-2.30145,-0.152631,0.128759,93.5,-14.25,-12.125,0.0,0.0,0.0,0.0,0.0,0.0,2,0,41.44378476545858,-92.18924045228268,10000.003320380436,99.85729885021058,-0.006442366169576,0.0029220339154327,,9133.40005056179,11009.472056291774,150,8,2025-09-10,2025-09-26 15:50:34.195,AA,C,3287821858,AMBUSH51,1,1,48,2,1,1,225,2,1,0,0,9,1,225,2,1,-143992.34650675143,-4790923.060741692,4198015.125880332,-2.86465,0.877217,-0.867467,55.6115,53.3988,83.2708,-0.0011657,-5.91011,5.67013,0.0316739,-0.0207196,-0.0154141,4,0,41.404178331574045,-91.72152021824569,9025.0175649239,23.66274882877213,7.021337127455237,-11.872142732919658,184.528,9133.40005056179,11009.472056291774,150,False,21.17013875752435,False,71.52477835787835,176.46343143453487,False,111.85638495492262,False,False
8,1970-07-23 09:59:54.351102331,2025-09-10,2025-09-26 15:50:35.110,AA,C,3331639064,JASSM,3,129,76,2,2,1,225,9,2,0,1,26,0,0,0,0,-182909.80798514312,-4786914.077119674,4201500.577604771,-2.30145,-0.152631,0.128759,93.5,-14.25,-12.125,0.0,0.0,0.0,0.0,0.0,0.0,2,0,41.443652450829504,-92.18822898439564,10000.000347576071,99.85796832471348,-0.0056727051359079,0.002921477526245,,9133.40005056179,11009.472056291774,150,8,2025-09-10,2025-09-26 15:50:35.229,AA,C,3289054622,AMBUSH51,1,1,48,2,1,1,225,2,1,0,0,9,1,225,2,1,-143935.3260412975,-4790866.057046765,4198100.306012079,-2.881,0.930495,-0.852946,54.0539,55.4586,81.5997,-0.466074,-5.10985,4.881,0.0153246,-0.0274129,-0.0360369,4,0,41.4051026994178,-91.72085937517274,9065.41931589202,22.2487611178506,5.385637026718002,-10.64774494762056,182.988,9133.40005056179,11009.472056291774,150,False,21.147482986923276,False,72.22743413532032,176.30257969217348,False,111.34447164145996,False,False
8,1970-07-23 09:59:54.361198160,2025-09-10,2025-09-26 15:50:36.119,AA,C,3332712806,JASSM,3,129,76,2,2,1,225,9,2,0,1,26,0,0,0,0,-182825.67517264312,-4786927.028291549,4201489.556120396,-2.30145,-0.152631,0.128759,93.5,-14.25,-12.125,0.0,0.0,0.0,0.0,0.0,0.0,2,0,41.44352013870829,-92.18721753318124,9999.996449471531,99.8586377864218,-0.0049030553153555,0.0029209307258484,,9133.40005056179,11009.472056291774,150,8,2025-09-10,2025-09-26 15:50:35.995,AA,C,3289969254,AMBUSH51,1,1,48,2,1,1,225,2,1,0,0,9,1,225,2,1,-143894.15115907893,-4790822.393303638,4198162.147946406,-2.824,0.944388,-0.832375,53.2983,57.2775,80.2852,-0.217773,-4.72083,4.59314,0.192188,-0.0215061,0.012391,4,0,41.40578731399929,-91.72038306320124,9089.16856079592,22.27347464712018,4.094428617444241,-6.785847835458381,181.925,9133.40005056179,11009.472056291774,150,True,21.1182905608891,False,72.61603764058174,176.18044947522506,False,111.10040362724952,False,False
8,1970-07-23 09:59:54.369119231,2025-09-10,2025-09-26 15:50:36.911,AA,C,3333786720,JASSM,3,129,76,2,2,1,225,9,2,0,1,26,0,0,0,0,-182741.52868826807,-4786939.983369674,4201478.532682896,-2.30145,-0.152631,0.128759,93.5,-14.25,-12.125,0.0,0.0,0.0,0.0,0.0,0.0,2,0,41.44338778437072,-92.18620592089056,10000.000410125627,99.85930735298577,-0.0041332777755177,0.0029203722650801,,9133.40005056179,11009.472056291774,150,8,2025-09-10,2025-09-26 15:50:36.796,AA,C,3290923654,AMBUSH51,1,1,48,2,1,1,225,2,1,0,0,9,1,225,2,1,-143851.5286450468,-4790775.370682785,4198225.6617848165,-2.702,0.94687,-0.807313,53.0928,59.3475,78.6164,-0.134656,-4.62976,4.51202,0.110439,-0.0295476,-0.00699392,4,0,41.40650345469548,-91.71989064992682,9108.180983554252,22.791627459159734,2.752074944687548,0.3393478646544391,181.888,9133.40005056179,11009.472056291774,150,True,21.089713065159486,False,72.74358031287512,176.05222920036195,False,111.12463833793439,False,False
8,1970-07-23 09:59:54.380039854,2025-09-10,2025-09-26 15:50:38.003,AA,C,3334979596,JASSM,3,129,76,2,2,1,225,9,2,0,1,26,0,0,0,0,-182648.05993826807,-4786954.370088424,4201466.288542271,-2.30145,-0.152631,0.128759,93.5,-14.25,-12.125,0.0,0.0,0.0,0.0,0.0,0.0,2,0,41.44324078166831,-92.18508224242518,10000.001566967025,99.8600510919144,-0.003278225030736,0.00291977640824,,9133.40005056179,11009.472056291774,150,8,2025-09-10,2025-09-26 15:50:37.896,AA,C,3292235952,AMBUSH51,1,1,48,2,1,1,225,2,1,0,0,9,1,225,2,1,-143793.43032010406,-4790708.550242527,4198310.14026573,-2.73253,0.972316,-0.784452,53.2642,62.1419,76.2798,-0.0572908,-4.9005,4.75759,-0.0579144,-0.0278873,0.020601,4,0,41.40748167085718,-91.71922040740908,9122.852827230588,22.402089808685048,1.1394357877571877,-0.3817448103747674,181.387,9133.40005056179,11009.472056291774,150,True,21.062494643986003,False,72.71506951826251,175.87798237842551,False,111.3548032347905,False,False
8,1970-07-23 09:59:54.388060153,2025-09-10,2025-09-26 15:50:38.806,AA,C,3336112990,JASSM,3,129,76,2,2,1,225,9,2,0,1,26,0,0,0,0,-182559.25232108065,-4786968.040010299,4201454.651823521,-2.30145,-0.152631,0.128759,93.5,-14.25,-12.125,0.0,0.0,0.0,0.0,0.0,0.0,2,0,41.4431010743298,-92.18401460436183,10000.001686230094,99.86075773688088,-0.0024658077988539,0.0029191853899107,,9133.40005056179,11009.472056291774,150,8,2025-09-10,2025-09-26 15:50:38.696,AA,C,3293190352,AMBUSH51,1,1,48,2,1,1,225,2,1,0,0,9,1,225,2,1,-143751.04145344303,-4790657.797230755,4198370.785126546,-2.78595,0.96932,-0.763759,53.2104,64.0471,75.0228,0.0669803,-5.17084,4.95229,-0.114494,-0.0177381,0.00735386,4,0,41.408200592126754,-91.71873209984308,9126.491375947531,22.99454828855983,0.1057704289500572,-3.556340342494277,181.925,9133.40005056179,11009.472056291774,150,True,21.03142689112153,False,72.84173735115552,175.74685280427934,False,111.37354133872284,False,False
8,1970-07-23 09:59:54.397059768,2025-09-10,2025-09-26 15:50:39.705,AA,C,3337186732,JASSM,3,129,76,2,2,1,225,9,2,0,1,26,0,0,0,0,-182475.11853201807,-4786980.987275924,4201443.628386021,-2.30145,-0.152631,0.128759,93.5,-14.25,-12.125,0.0,0.0,0.0,0.0,0.0,0.0,2,0,41.44296873544093,-92.18300316038076,9999.99961739226,99.86142718647405,-0.0016961523630958,0.0029186498619454,,9133.40005056179,11009.472056291774,150,8,2025-09-10,2025-09-26 15:50:39.595,AA,C,3294264050,AMBUSH51,1,1,48,2,1,1,225,2,1,0,0,9,1,225,2,1,-143703.3852996791,-4790599.159582211,4198438.055568909,-2.88833,0.986871,-0.74782,52.8729,66.1408,73.9647,0.0884386,-5.37074,4.99033,-0.0907857,-0.0181272,-0.014611,4,0,41.40901208994359,-91.71818366761585,9124.730601500136,22.68967325906699,-1.023089641443495,-8.730113759964555,182.744,9133.40005056179,11009.472056291774,150,True,21.005179659535802,False,73.16852744504325,175.5998882858996,False,111.2058029768402,False,False
