Unnamed: 0_cm,Subject_cm,Timestamp,SampleDate_cm,SampleTime_cm,Configuration_cm,Scenario_cm,DisTime_cm,MarkingTxt_cm,Application_cm,EntId_cm,Site_cm,ExerciseId_cm,ForceId_cm,Category_cm,Country_cm,Domain_cm,Kind_cm,Extra_cm,Specific_cm,Subcategory_cm,AltCategory_cm,AltCountry_cm,AltDomain_cm,AltKind_cm,ECEF_X_cm,ECEF_Y_cm,ECEF_Z_cm,OriPhi_cm,OriPsi_cm,OriTheta_cm,LinVelX_cm,LinVelY_cm,LinVelZ_cm,LinAccX_cm,LinAccY_cm,LinAccZ_cm,AngVelX_cm,AngVelY_cm,AngVelZ_cm,DrAlg_cm,Appearance_cm,Latitude_cm,Longitude_cm,Altitude_cm,Heading_cm,Pitch_cm,Roll_cm,CalibratedAirspeed_cm,CM_Altitude_Lead_cm,CM_Altitude_Wing_cm,CM_Airspeed_cm,Unnamed: 0_ac,Subject_ac,SampleDate_ac,SampleTime_ac,Configuration_ac,Scenario_ac,DisTime_ac,MarkingTxt_ac,Application_ac,EntId_ac,Site_ac,ExerciseId_ac,ForceId_ac,Category_ac,Country_ac,Domain_ac,Kind_ac,Extra_ac,Specific_ac,Subcategory_ac,AltCategory_ac,AltCountry_ac,AltDomain_ac,AltKind_ac,ECEF_X_ac,ECEF_Y_ac,ECEF_Z_ac,OriPhi_ac,OriPsi_ac,OriTheta_ac,LinVelX_ac,LinVelY_ac,LinVelZ_ac,LinAccX_ac,LinAccY_ac,LinAccZ_ac,AngVelX_ac,AngVelY_ac,AngVelZ_ac,DrAlg_ac,Appearance_ac,Latitude_ac,Longitude_ac,Altitude_ac,Heading_ac,Pitch_ac,Roll_ac,CalibratedAirspeed_ac,CM_Altitude_Lead_ac,CM_Altitude_Wing_ac,CM_Airspeed_ac,Bank_Angle_Condition,distance_nm,Distance_Condition,angle_between_vel,angle_between_pos,Cone_Condition,angle_between_pos_nose,Nose_Cone_Condition,Intercept_Criteria
6733,8,1970-07-23 10:01:53.925572338,2025-09-10,2025-09-12 19:09:52.557,HA,C,1243271370,JASSM,3,105,76,2,2,1,225,9,2,0,1,26,0,0,0,0,-188172.08044608065,-4786102.215791549,4202188.403776646,-2.30155,-0.153302,0.128183,92.75,-14.25,-12.0,0.0,0.0,0.0,0.0,0.0,0.0,2,0,41.45191087943788,-92.25150142021928,9999.996999349089,99.81699473312452,-0.0034165476828683,0.0023903487629932,,8802.566937047923,11004.7807189461,150,6732,8,2025-09-10,2025-09-12 19:09:52.538,HA,C,374504160,AMBUSH51,1,1,48,2,1,1,225,2,1,0,0,9,1,225,2,1,-147706.16097393553,-4792553.576193946,4195935.383137477,2.36259,2.75708,-0.41306,-87.0336,32.9753,35.9477,-0.173315,-7.22055,6.9218,0.00458043,-0.0047011,0.0068566,4,0,41.37976492060241,-91.76529306660866,8802.826305773306,-59.26288358219698,1.565203829640284,0.1281487419730438,0.0,8802.566937047923,11004.7807189461,150,True,22.28950359742381,False,161.9396088459718,178.57457844703632,False,16.788288126488595,True,False
6747,8,1970-07-23 10:01:53.935067047,2025-09-10,2025-09-12 19:09:53.506,HA,C,1244524068,JASSM,3,105,76,2,2,1,225,9,2,0,1,26,0,0,0,0,-188074.6175554556,-4786117.284150924,4202175.692839146,-2.30155,-0.153302,0.128183,92.75,-14.25,-12.0,0.0,0.0,0.0,0.0,0.0,0.0,2,0,41.45175824267858,-92.25032938673768,10000.00228444598,99.81777060784468,-0.0025249319871553,0.0023897309663149,,8802.566937047923,11004.7807189461,150,6748,8,2025-09-10,2025-09-12 19:09:53.538,HA,C,375697160,AMBUSH51,1,1,48,2,1,1,225,2,1,0,0,9,1,225,2,1,-147793.1214369848,-4792520.484137765,4195971.435436264,2.36725,2.7619,-0.410066,-86.9762,33.0215,36.1461,-0.0870511,-7.1401,6.58825,-0.000377628,0.000652266,0.00228345,4,0,41.380189239706326,-91.7663438950207,8806.18731437448,-59.56387301412185,1.6225098068565131,0.4968432554205365,0.0,8802.566937047923,11004.7807189461,150,True,22.18477529404926,False,161.83025163993233,178.60674899790033,False,16.93315849914519,True,False
6763,8,1970-07-23 10:01:53.945094494,2025-09-10,2025-09-12 19:09:54.509,HA,C,1245717116,JASSM,3,105,76,2,2,1,225,9,2,0,1,26,0,0,0,0,-187981.7972429556,-4786131.631807174,4202163.583464146,-2.30155,-0.153302,0.128183,92.75,-14.25,-12.0,0.0,0.0,0.0,0.0,0.0,0.0,2,0,41.45161285661397,-92.24921318875504,9999.996331482616,99.8185095178254,-0.001675787264435,0.0023891335623238,,8802.566937047923,11004.7807189461,150,6766,8,2025-09-10,2025-09-12 19:09:54.539,HA,C,376890158,AMBUSH51,1,1,48,2,1,1,225,2,1,0,0,9,1,225,2,1,-147880.77602656226,-4792486.959512177,4196007.807582778,2.35592,2.75881,-0.414422,-86.9038,33.0326,36.2432,-0.13458,-7.16548,6.74834,0.00242701,-0.00173834,0.00142209,4,0,41.38061815409348,-91.76740318679992,8809.235472447772,-59.27355476310959,1.686158892906752,-0.2146335570433382,0.0,8802.566937047923,11004.7807189461,150,True,22.08217488005179,False,161.76771910811365,178.63947137782995,False,17.033003872461872,True,False
6778,8,1970-07-23 10:01:53.955063319,2025-09-10,2025-09-12 19:09:55.506,HA,C,1246969814,JASSM,3,105,76,2,2,1,225,9,2,0,1,26,0,0,0,0,-187884.33435233065,-4786146.698213424,4202150.870573521,-2.30155,-0.153302,0.128183,92.75,-14.25,-12.0,0.0,0.0,0.0,0.0,0.0,0.0,2,0,41.4514601949871,-92.24804116691968,10000.002487210311,99.81928538024776,-0.0007841719363423,0.0023885140344175,,8802.566937047923,11004.7807189461,150,6779,8,2025-09-10,2025-09-12 19:09:55.538,HA,C,378083156,AMBUSH51,1,1,48,2,1,1,225,2,1,0,0,9,1,225,2,1,-147967.45524755528,-4792453.710142437,4196044.20606918,2.36331,2.75562,-0.418238,-86.8258,33.0842,36.3943,-0.228256,-7.19095,6.79346,0.00898297,-0.00461996,-0.00718533,4,0,41.38104577862008,-91.76845074085098,8812.949142122648,-59.00158767896197,1.724614861163152,0.1429503963551954,0.0,8802.566937047923,11004.7807189461,150,True,21.97757186885517,False,161.66976708608757,178.67225295926946,False,17.168534053002293,True,False
6791,8,1970-07-23 10:01:53.966065537,2025-09-10,2025-09-12 19:09:56.606,HA,C,1248222514,JASSM,3,105,76,2,2,1,225,9,2,0,1,26,0,0,0,0,-187786.87341483065,-4786161.762666549,4202138.153776646,-2.30145,-0.153206,0.128183,92.75,-14.25,-12.0,0.0,0.0,0.0,0.0,0.0,0.0,2,0,41.4513075062376,-92.24686917484205,10000.000625014263,99.8164248509007,-0.0039495095594309,0.0071772633398047,,8802.566937047923,11004.7807189461,150,6793,8,2025-09-10,2025-09-12 19:09:56.804,HA,C,379594288,AMBUSH51,1,1,48,2,1,1,225,2,1,0,0,9,1,225,2,1,-148077.19987300184,-4792411.492973042,4196090.411450574,2.36223,2.75353,-0.417473,-86.7424,33.0948,36.6318,-0.197443,-7.00335,6.69728,0.00174666,0.00487379,0.00913069,4,0,41.38158871342289,-91.76977711329076,8817.625732934313,-58.95532119360643,1.6174826282374577,0.0340493983454663,0.0,8802.566937047923,11004.7807189461,150,True,21.859348161819923,False,161.54782075218694,178.714715232699,False,17.33799669882773,True,False
6805,8,1970-07-23 10:01:53.977064633,2025-09-10,2025-09-12 19:09:57.706,HA,C,1249534864,JASSM,3,105,76,2,2,1,225,9,2,0,1,26,0,0,0,0,-187684.7698992056,-4786177.541963424,4202124.833464146,-2.30145,-0.153206,0.128279,92.75,-14.25,-12.0,0.0,0.0,0.0,0.0,0.0,0.0,2,0,41.45114756290483,-92.24564136179173,10000.002240290656,99.82132816097835,-0.0066818692975615,0.0071762208130217,,8802.566937047923,11004.7807189461,150,6804,8,2025-09-10,2025-09-12 19:09:57.671,HA,C,380628220,AMBUSH51,1,1,48,2,1,1,225,2,1,0,0,9,1,225,2,1,-148152.11373417996,-4792382.462344637,4196122.135910489,2.3737,2.74783,-0.424907,-86.529,33.201,36.6841,-0.149083,-7.01525,6.69841,0.0218036,-0.0101835,0.0178921,4,0,41.38196182626346,-91.77068261220349,8820.698818483497,-58.44439852131417,1.7120009955705748,0.5727649824657185,0.0,8802.566937047923,11004.7807189461,150,True,21.75911886235725,False,161.43469717167477,178.74284272132053,False,17.486532607826913,True,False
6817,8,1970-07-23 10:01:53.987062892,2025-09-10,2025-09-12 19:09:58.706,HA,C,1250787564,JASSM,3,105,76,2,2,1,225,9,2,0,1,26,0,0,0,0,-187587.30700858065,-4786192.602510299,4202112.114714146,-2.30145,-0.153206,0.128279,92.75,-14.25,-12.0,0.0,0.0,0.0,0.0,0.0,0.0,2,0,41.45099486023395,-92.24446935945404,9999.996744705077,99.82210400341344,-0.0057902551298025,0.0071756032871445,,8802.566937047923,11004.7807189461,150,6818,8,2025-09-10,2025-09-12 19:09:58.738,HA,C,381900752,AMBUSH51,1,1,48,2,1,1,225,2,1,0,0,9,1,225,2,1,-148243.91685155654,-4792346.665496807,4196161.095058789,2.38774,2.74285,-0.418723,-86.3596,33.8048,36.549,-0.129099,-6.89671,6.22452,-0.00210036,-0.0121496,-0.00208788,4,0,41.38242091988411,-91.7717923504693,8824.104273077926,-58.50809845358734,1.278001267866063,1.2586365243575766,0.0,8802.566937047923,11004.7807189461,150,True,21.651443213060485,False,161.25797187533848,178.77819537390363,False,17.718399976315116,True,False
6833,8,1970-07-23 10:01:53.999996161,2025-09-10,2025-09-12 19:09:59.999,HA,C,1252040262,JASSM,3,105,76,2,2,1,225,9,2,0,1,26,0,0,0,0,-187489.8441179556,-4786207.663057174,4202099.397917271,-2.30145,-0.153206,0.128279,92.75,-14.25,-12.0,0.0,0.0,0.0,0.0,0.0,0.0,2,0,41.45084215879371,-92.24329736261296,10000.000567747702,99.82287983985783,-0.0048986431856945,0.0071749986970826,,8802.566937047923,11004.7807189461,150,6834,8,2025-09-10,2025-09-12 19:10:00.005,HA,C,383411884,AMBUSH51,1,1,48,2,1,1,225,2,1,0,0,9,1,225,2,1,-148352.4131098425,-4792303.117718486,4196206.745863555,2.36498,2.74564,-0.40805,-86.2762,34.5892,36.2071,-0.147941,-6.8836,6.39146,-0.0454891,-0.00376692,0.00228969,4,0,41.38296821351171,-91.77310435826294,8824.229717982513,-59.042021789161815,0.9453804776326624,0.0088010481112939,0.0,8802.566937047923,11004.7807189461,150,True,21.5338466999731,False,161.12393888373117,178.8198131793253,False,17.92322798950941,True,False
6844,8,1970-07-23 10:01:54.009187199,2025-09-10,2025-09-12 19:10:00.918,HA,C,1253292960,JASSM,3,105,76,2,2,1,225,9,2,0,1,26,0,0,0,0,-187392.3831804556,-4786222.723604049,4202086.677214146,-2.30145,-0.153206,0.128279,92.75,-14.25,-12.0,0.0,0.0,0.0,0.0,0.0,0.0,2,0,41.450689418605066,-92.2421253946144,10000.001171659078,99.82365565486064,-0.0040070438862243,0.0071743646643262,,8802.566937047923,11004.7807189461,150,6842,8,2025-09-10,2025-09-12 19:10:00.804,HA,C,384366284,AMBUSH51,1,1,48,2,1,1,225,2,1,0,0,9,1,225,2,1,-148421.1121295288,-4792274.940603643,4196235.6710789725,2.34867,2.73767,-0.408801,-86.2895,34.9271,36.0323,-0.0648621,-6.7618,6.20673,-0.0129527,-0.0110386,0.0131712,4,0,41.38331846548979,-91.77393534621994,8822.871939610346,-58.712784131417536,0.6832459589694175,-1.10261890792056,0.0,8802.566937047923,11004.7807189461,150,True,21.439741262102356,False,161.08739618048378,178.8449981539694,False,18.001675000437235,True,False
6856,8,1970-07-23 10:01:54.021693158,2025-09-10,2025-09-12 19:10:02.169,HA,C,1254664964,JASSM,3,105,76,2,2,1,225,9,2,0,1,26,0,0,0,0,-187285.6370867056,-4786239.215791549,4202072.745573521,-2.30145,-0.153206,0.128279,92.75,-14.25,-12.0,0.0,0.0,0.0,0.0,0.0,0.0,2,0,41.45052213858518,-92.24084178038964,10000.001938331912,99.82450537431592,-0.0030305068659587,0.0071736951231298,,8802.566937047923,11004.7807189461,150,6859,8,2025-09-10,2025-09-12 19:10:02.305,HA,C,386155782,AMBUSH51,1,1,48,2,1,1,225,2,1,0,0,9,1,225,2,1,-148550.38938416925,-4792221.87191309,4196289.170354814,2.33369,2.73669,-0.403377,-86.5769,35.3306,35.5528,-0.271172,-6.94864,6.58736,-0.0104914,-0.00415183,0.00752655,4,0,41.38397152620085,-91.77549913379352,8818.193066926911,-58.89402485659922,0.426154773116091,-1.9847902848692,0.0,8802.566937047923,11004.7807189461,150,True,21.30477246982849,False,161.22010953656283,178.89245979446716,False,17.947860255721697,True,False
6868,8,1970-07-23 10:01:54.031182800,2025-09-10,2025-09-12 19:10:03.118,HA,C,1255917664,JASSM,3,105,76,2,2,1,225,9,2,0,1,26,0,0,0,0,-187188.1761492056,-4786254.272432174,4202060.024870396,-2.30145,-0.153206,0.128279,92.75,-14.25,-12.0,0.0,0.0,0.0,0.0,0.0,0.0,2,0,41.45036939662611,-92.239669825738,10000.003580542716,99.82528117555536,-0.0021389128342546,0.0071730836736738,,8802.566937047923,11004.7807189461,150,6870,8,2025-09-10,2025-09-12 19:10:03.139,HA,C,387149948,AMBUSH51,1,1,48,2,1,1,225,2,1,0,0,9,1,225,2,1,-148622.65697348182,-4792192.370943382,4196318.68038786,2.33501,2.72927,-0.407475,-86.8526,35.5088,35.265,-0.100656,-6.96249,6.62635,0.0245604,-0.00513387,0.00374403,4,0,41.38433292525139,-91.7763732632334,8815.128219879487,-58.45089508296745,0.3227329750042667,-2.0737014170742905,0.0,8802.566937047923,11004.7807189461,150,True,21.208657737414473,False,161.34707990948513,178.91689212839538,False,17.863815342013087,True,False
6885,8,1970-07-23 10:01:54.043222594,2025-09-10,2025-09-12 19:10:04.322,HA,C,1257289666,JASSM,3,105,76,2,2,1,225,9,2,0,1,26,0,0,0,0,-187081.4300554556,-4786270.760713424,4202046.089323521,-2.30145,-0.153206,0.128279,92.75,-14.25,-12.0,0.0,0.0,0.0,0.0,0.0,0.0,2,0,41.45020208610241,-92.23838622595628,9999.997915091591,99.82613088005404,-0.0011623765799202,0.007172410743593,,8802.566937047923,11004.7807189461,150,6884,8,2025-09-10,2025-09-12 19:10:04.271,HA,C,388502012,AMBUSH51,1,1,48,2,1,1,225,2,1,0,0,9,1,225,2,1,-148720.7087370047,-4792152.246280201,4196358.732218871,2.35642,2.73537,-0.402246,-86.9498,35.4927,35.3234,-0.129338,-6.80096,6.61697,-0.000254873,-0.00899337,-0.00321348,4,0,41.38482392770791,-91.7775593234067,8810.762359813178,-58.89079970807761,0.3329713473295735,-0.7119064089242779,0.0,8802.566937047923,11004.7807189461,150,True,21.092229254413002,False,161.35851936858256,178.95005358683812,False,17.90016653230692,True,False
6900,8,1970-07-23 10:01:54.054012317,2025-09-10,2025-09-12 19:10:05.401,HA,C,1258542364,JASSM,3,105,76,2,2,1,225,9,2,0,1,26,0,0,0,0,-186983.96716483065,-4786285.815400924,4202033.366667271,-2.30145,-0.15311,0.128279,92.75,-14.25,-12.0,0.0,0.0,0.0,0.0,0.0,0.0,2,0,41.45004931802596,-92.23721426039286,10000.00096539312,99.82327040893756,-0.0043276981596708,0.0064692175031605,,8802.566937047923,11004.7807189461,150,6899,8,2025-09-10,2025-09-12 19:10:05.304,HA,C,389734778,AMBUSH51,1,1,48,2,1,1,225,2,1,0,0,9,1,225,2,1,-148810.5538975163,-4792115.179838784,4196395.031069219,2.35299,2.73566,-0.401751,-87.1734,35.8034,35.1771,-0.265396,-6.97851,6.7295,-0.00414142,0.00470735,-0.00478225,4,0,41.38527290266013,-91.77864624173591,8805.160097701159,-58.92247172041887,0.324415084268964,-0.9021369925819684,0.0,8802.566937047923,11004.7807189461,150,True,20.985754897072,False,161.3728476254159,178.97901138760366,False,17.938830096619117,True,False
6913,8,1970-07-23 10:01:54.063084146,2025-09-10,2025-09-12 19:10:06.308,HA,C,1259797420,JASSM,3,105,76,2,2,1,225,9,2,0,1,26,0,0,0,0,-186886.32263358065,-4786300.897432174,4202020.616667271,-2.30145,-0.15311,0.128279,92.75,-14.25,-12.0,0.0,0.0,0.0,0.0,0.0,0.0,2,0,41.44989623300396,-92.23604011649674,9999.999469578408,99.82404765214952,-0.0034344224453406,0.0064685298739118,,8802.566937047923,11004.7807189461,150,6912,8,2025-09-10,2025-09-12 19:10:06.305,HA,C,390927776,AMBUSH51,1,1,48,2,1,1,225,2,1,0,0,9,1,225,2,1,-148897.73912213865,-4792079.280846759,4196430.354705402,2.37339,2.72938,-0.403865,-87.3382,35.9603,35.2865,-0.108679,-7.28314,6.77221,0.00918895,-0.00424753,-0.00233547,4,0,41.385708830509735,-91.77970096984748,8800.117067573126,-58.6014653429252,0.1813627233776745,0.1268702702679308,0.0,8802.566937047923,11004.7807189461,150,True,20.88076083059115,False,161.32760066773326,179.00628636754686,False,18.02932294155957,True,False
6929,8,1970-07-23 10:01:54.074408749,2025-09-10,2025-09-12 19:10:07.440,HA,C,1261107414,JASSM,3,105,76,2,2,1,225,9,2,0,1,26,0,0,0,0,-186784.4027117056,-4786316.637666549,4202007.310026646,-2.30145,-0.15311,0.128375,92.75,-14.25,-12.0,0.0,0.0,0.0,0.0,0.0,0.0,2,0,41.44973645616847,-92.23481456931114,10000.001538834847,99.82894948498216,-0.0061684136267086,0.0064675259399264,,8802.566937047923,11004.7807189461,150,6926,8,2025-09-10,2025-09-12 19:10:07.304,HA,C,392120776,AMBUSH51,1,1,48,2,1,1,225,2,1,0,0,9,1,225,2,1,-148984.96583835833,-4792043.215445035,4196465.615890276,2.37652,2.73549,-0.399944,-87.4242,36.1518,35.4153,-0.113792,-7.14568,6.72183,-0.00639887,-0.000100909,0.0053877,4,0,41.38614530920201,-91.7807562699671,8794.537535858974,-58.98957601979727,0.2457053657747888,0.4416161244983244,0.0,8802.566937047923,11004.7807189461,150,True,20.773403530609016,False,161.24169122952927,179.03230343545644,False,18.16124947328679,True,False
6943,8,1970-07-23 10:01:54.086385552,2025-09-10,2025-09-12 19:10:08.638,HA,C,1262419766,JASSM,3,105,76,2,2,1,225,9,2,0,1,26,0,0,0,0,-186682.2972429556,-4786332.405244674,4201993.976042271,-2.30145,-0.15311,0.128375,92.75,-14.25,-12.0,0.0,0.0,0.0,0.0,0.0,0.0,2,0,41.44957636213061,-92.23358679763948,9999.999182359494,99.82976222288627,-0.0052343310985444,0.0064668837733669,,8802.566937047923,11004.7807189461,150,6944,8,2025-09-10,2025-09-12 19:10:08.737,HA,C,393830740,AMBUSH51,1,1,48,2,1,1,225,2,1,0,0,9,1,225,2,1,-149110.89260367127,-4791990.933022529,4196516.616661173,2.38112,2.72895,-0.40671,-87.5906,36.3613,35.647,-0.122056,-7.15674,6.69465,0.0149168,0.00913277,0.00521917,4,0,41.38677735084368,-91.78227988327338,8786.167225274274,-58.473317692503535,0.2847271737300219,0.5608527060923392,0.0,8802.566937047923,11004.7807189461,150,True,20.64310635682951,False,161.13585277853886,179.06886843859988,False,18.333278952012158,True,False
6955,8,1970-07-23 10:01:54.096791778,2025-09-10,2025-09-12 19:10:09.679,HA,C,1263732116,JASSM,3,105,76,2,2,1,225,9,2,0,1,26,0,0,0,0,-186580.19372733065,-4786348.170869674,4201980.642057896,-2.30145,-0.15311,0.128375,92.75,-14.25,-12.0,0.0,0.0,0.0,0.0,0.0,0.0,2,0,41.44941626615852,-92.23235905625953,9999.99778551614,99.830574938156,-0.0043002683650271,0.006466249462078,,8802.566937047923,11004.7807189461,150,6956,8,2025-09-10,2025-09-12 19:10:09.737,HA,C,395023740,AMBUSH51,1,1,48,2,1,1,225,2,1,0,0,9,1,225,2,1,-149198.16559951365,-4791954.480161623,4196552.281055147,2.38819,2.72984,-0.407082,-87.5695,36.5273,35.8683,-0.178495,-7.1389,6.81524,0.000190374,-0.00869168,-0.00365873,4,0,41.3872188249276,-91.78333591621832,8780.525333677399,-58.49300293559945,0.333725953081624,0.9861924226211232,0.0,8802.566937047923,11004.7807189461,150,True,20.535592770405255,False,160.99537804282227,179.09211792591333,False,18.51974507378769,True,False
6969,8,1970-07-23 10:01:54.107623540,2025-09-10,2025-09-12 19:10:10.762,HA,C,1264984816,JASSM,3,105,76,2,2,1,225,9,2,0,1,26,0,0,0,0,-186482.7308367056,-4786363.219697799,4201967.913542271,-2.30145,-0.15311,0.128375,92.75,-14.25,-12.0,0.0,0.0,0.0,0.0,0.0,0.0,2,0,41.4492634320171,-92.23118712171456,9999.999821232135,99.83135070914378,-0.0034086586292378,0.0064656416172054,,8802.566937047923,11004.7807189461,150,6970,8,2025-09-10,2025-09-12 19:10:10.837,HA,C,396336038,AMBUSH51,1,1,48,2,1,1,225,2,1,0,0,9,1,225,2,1,-149293.3745908248,-4791914.46520033,4196591.415930232,2.40194,2.72294,-0.410739,-87.5224,36.7785,36.1455,-0.0246448,-7.10382,6.66959,0.0179836,-0.00742044,0.0186432,4,0,41.387703439378825,-91.78448808639703,8774.2611746016,-58.08722060304544,0.2327596360227984,1.6185226422827528,0.0,8802.566937047923,11004.7807189461,150,True,20.425917069079976,False,160.79976894354405,179.11611538338116,False,18.767322218003383,True,False
6981,8,1970-07-23 10:01:54.117105109,2025-09-10,2025-09-12 19:10:11.710,HA,C,1266297166,JASSM,3,105,76,2,2,1,225,9,2,0,1,26,0,0,0,0,-186380.62732108065,-4786378.983369674,4201954.577604771,-2.30145,-0.15311,0.128375,92.75,-14.25,-12.0,0.0,0.0,0.0,0.0,0.0,0.0,2,0,41.44910330887856,-92.22995939304413,10000.000273342204,99.83216341095395,-0.0024745962523411,0.006465005565892,,8802.566937047923,11004.7807189461,150,6979,8,2025-09-10,2025-09-12 19:10:11.604,HA,C,397250670,AMBUSH51,1,1,48,2,1,1,225,2,1,0,0,9,1,225,2,1,-149360.68203442992,-4791885.89750658,4196619.294167746,2.41132,2.71948,-0.410575,-87.5004,37.1085,36.3356,-0.178988,-7.13184,6.51806,0.00977151,-0.00520877,0.0103229,4,0,41.388049121370926,-91.7853027211634,8769.609274304108,-57.963342466575625,0.100439486545196,2.0775516461010657,0.0,8802.566937047923,11004.7807189461,150,True,20.33014601103821,False,160.61722740936926,179.13114716642104,False,18.98980844409366,True,False
6997,8,1970-07-23 10:01:54.128481037,2025-09-10,2025-09-12 19:10:12.848,HA,C,1267549866,JASSM,3,105,76,2,2,1,225,9,2,0,1,26,0,0,0,0,-186283.1644304556,-4786394.030244674,4201941.847136021,-2.30145,-0.15311,0.128375,92.75,-14.25,-12.0,0.0,0.0,0.0,0.0,0.0,0.0,2,0,41.44895044873528,-92.22878747067328,10000.0036630601,99.8329391690655,-0.0015829868754236,0.0064643959854211,,8802.566937047923,11004.7807189461,150,6994,8,2025-09-10,2025-09-12 19:10:12.737,HA,C,398602736,AMBUSH51,1,1,48,2,1,1,225,2,1,0,0,9,1,225,2,1,-149460.163796353,-4791843.053051213,4196660.866178283,2.42075,2.71134,-0.415703,-87.4021,37.5967,36.73,-0.24532,-7.18093,6.76749,0.00579966,0.00866256,0.00387095,4,0,41.38856620943772,-91.78650701558529,8762.009033754803,-57.45260735441518,0.0177440457881562,2.43081335588946,0.0,8802.566937047923,11004.7807189461,150,True,20.21784368491018,False,160.28898363356487,179.15232371556888,False,19.37727791635067,True,False
7009,8,1970-07-23 10:01:54.139082437,2025-09-10,2025-09-12 19:10:13.908,HA,C,1268921868,JASSM,3,105,76,2,2,1,225,9,2,0,1,26,0,0,0,0,-186176.4183367056,-4786410.506807174,4201927.901823521,-2.30145,-0.153015,0.128375,92.75,-14.25,-12.0,0.0,0.0,0.0,0.0,0.0,0.0,2,0,41.44878302063688,-92.22750393229003,9999.999623604132,99.83015262957194,-0.0046633822487051,0.005760648952634,,8802.566937047923,11004.7807189461,150,7012,8,2025-09-10,2025-09-12 19:10:14.005,HA,C,400113868,AMBUSH51,1,1,48,2,1,1,225,2,1,0,0,9,1,225,2,1,-149570.1135803843,-4791795.288206276,4196707.420321119,2.42663,2.70594,-0.422271,-87.2875,37.9343,37.3777,-0.0332228,-7.32593,6.77654,0.00320724,0.010146,0.00578301,4,0,41.38914424828596,-91.7878382093958,8753.921555572406,-56.98923290785112,0.0959653751031189,2.6425692636068256,0.0,8802.566937047923,11004.7807189461,150,True,20.094203504784097,False,159.91712807929198,179.17246136407425,False,19.809805440300664,True,False
7021,8,1970-07-23 10:01:54.150783168,2025-09-10,2025-09-12 19:10:15.078,HA,C,1270234220,JASSM,3,105,76,2,2,1,225,9,2,0,1,26,0,0,0,0,-186074.31482108065,-4786426.266572799,4201914.561979771,-2.30145,-0.153015,0.128375,92.75,-14.25,-12.0,0.0,0.0,0.0,0.0,0.0,0.0,2,0,41.44862285508145,-92.22627622355118,9999.998708515508,99.83096531049064,-0.0037293206490562,0.0057599501881763,,8802.566937047923,11004.7807189461,150,7025,8,2025-09-10,2025-09-12 19:10:15.237,HA,C,401585232,AMBUSH51,1,1,48,2,1,1,225,2,1,0,0,9,1,225,2,1,-149677.87076428544,-4791747.778543056,4196754.223723841,2.436,2.70111,-0.429712,-87.0349,38.2762,38.1262,-0.204532,-7.51058,6.68658,0.00972574,0.00660069,0.00918271,4,0,41.38972284477274,-91.78914314084228,8746.842568129608,-56.51368061618,0.2324450641091204,3.066319954095765,0.0,8802.566937047923,11004.7807189461,150,True,19.97429192905051,False,159.469040265776,179.18874877829066,False,20.318806001472044,True,False
7036,8,1970-07-23 10:01:54.162363873,2025-09-10,2025-09-12 19:10:16.236,HA,C,1271486918,JASSM,3,105,76,2,2,1,225,9,2,0,1,26,0,0,0,0,-185976.8519304556,-4786441.309541549,4201901.827604771,-2.30145,-0.153015,0.128375,92.75,-14.25,-12.0,0.0,0.0,0.0,0.0,0.0,0.0,2,0,41.44846995430874,-92.2251043202893,9999.999971331516,99.8317410486036,-0.0028377120506539,0.0057592805956288,,8802.566937047923,11004.7807189461,150,7039,8,2025-09-10,2025-09-12 19:10:16.304,HA,C,402857764,AMBUSH51,1,1,48,2,1,1,225,2,1,0,0,9,1,225,2,1,-149769.62092350348,-4791706.818503197,4196794.973441912,2.44697,2.69312,-0.437682,-86.7208,38.5878,38.8285,-0.264946,-7.5446,6.80157,0.00352557,-0.00725815,0.00371698,4,0,41.39022457043159,-91.79025443694792,8741.522143151356,-55.89891806553663,0.2798997220728382,3.5053184204925847,0.0,8802.566937047923,11004.7807189461,150,True,19.866336240818327,False,159.02922255406753,179.19900345449207,False,20.812202176428503,True,False
7049,8,1970-07-23 10:01:54.171101852,2025-09-10,2025-09-12 19:10:17.110,HA,C,1272679966,JASSM,3,105,76,2,2,1,225,9,2,0,1,26,0,0,0,0,-185884.02966483065,-4786455.633760299,4201889.698698521,-2.30145,-0.153015,0.128471,92.75,-14.25,-12.0,0.0,0.0,0.0,0.0,0.0,0.0,2,0,41.44832433165113,-92.22398822262554,9999.9978874483,99.83657045446,-0.0056548828922499,0.0057583786708581,,8802.566937047923,11004.7807189461,150,7048,8,2025-09-10,2025-09-12 19:10:17.106,HA,C,403812164,AMBUSH51,1,1,48,2,1,1,225,2,1,0,0,9,1,225,2,1,-149838.9194248714,-4791675.765402694,4196826.176587687,2.45099,2.69124,-0.441341,-86.5404,38.7979,39.365,-0.189013,-7.41248,6.96765,-0.00867088,0.00532112,-0.00298253,4,0,41.39060707566575,-91.79109384921752,8738.143947397903,-55.684838769940654,0.3664514029570594,3.691406334642332,0.0,8802.566937047923,11004.7807189461,150,True,19.77423739616702,False,158.71990498740286,179.20395556753576,False,21.16262427878003,True,False
7061,8,1970-07-23 10:01:54.182403756,2025-09-10,2025-09-12 19:10:18.240,HA,C,1273932664,JASSM,3,105,76,2,2,1,225,9,2,0,1,26,0,0,0,0,-185786.5667742056,-4786470.674775924,4201876.962370396,-2.30145,-0.153015,0.128471,92.75,-14.25,-12.0,0.0,0.0,0.0,0.0,0.0,0.0,2,0,41.4481714060148,-92.22281633101504,10000.00002076678,99.83734618030046,-0.004763274607196,0.0057577710031259,,8802.566937047923,11004.7807189461,150,7063,8,2025-09-10,2025-09-12 19:10:18.338,HA,C,405283528,AMBUSH51,1,1,48,2,1,1,225,2,1,0,0,9,1,225,2,1,-149945.7428264529,-4791627.138884063,4196875.460348073,2.45508,2.68189,-0.451662,-86.1309,39.1322,40.2738,-0.162299,-7.47419,6.91437,3.64104e-05,-0.000999726,0.0241422,4,0,41.39120920055285,-91.7923881036092,8733.64671685027,-54.92876392923645,0.4686219819908109,3.699917064362865,0.0,8802.566937047923,11004.7807189461,150,True,19.65716822183304,False,158.1715286718648,179.20797391284873,False,21.77655576553957,True,False
7076,8,1970-07-23 10:01:54.192790110,2025-09-10,2025-09-12 19:10:19.279,HA,C,1275245016,JASSM,3,105,76,2,2,1,225,9,2,0,1,26,0,0,0,0,-185684.4613054556,-4786486.430635299,4201863.618620396,-2.30145,-0.153015,0.128471,92.75,-14.25,-12.0,0.0,0.0,0.0,0.0,0.0,0.0,2,0,41.44801118777157,-92.22158862380655,10000.002110843536,99.83815885037872,-0.0038291965073868,0.0057571388843219,,8802.566937047923,11004.7807189461,150,7075,8,2025-09-10,2025-09-12 19:10:19.271,HA,C,406396994,AMBUSH51,1,1,48,2,1,1,225,2,1,0,0,9,1,225,2,1,-150025.42774134598,-4791590.68293242,4196913.004164136,2.45786,2.67832,-0.457389,-85.8677,39.2078,41.0331,-0.121494,-7.37146,6.83385,-0.00228553,0.00385638,0.0121642,4,0,41.391664705382986,-91.7933536370162,8731.540576102912,-54.571011133775,0.5840272602454454,3.772500582698078,0.0,8802.566937047923,11004.7807189461,150,True,19.55366637443797,False,157.79825809191067,179.20651343288236,False,22.196899420413512,True,False
7094,8,1970-07-23 10:01:54.205632927,2025-09-10,2025-09-12 19:10:20.563,HA,C,1276497714,JASSM,3,105,76,2,2,1,225,9,2,0,1,26,0,0,0,0,-185586.99841483065,-4786501.467744674,4201850.880339146,-2.30145,-0.153015,0.128471,92.75,-14.25,-12.0,0.0,0.0,0.0,0.0,0.0,0.0,2,0,41.44785824776105,-92.22041674527786,10000.000798729763,99.83893456273896,-0.0029375912336726,0.0057565408204702,,8802.566937047923,11004.7807189461,150,7095,8,2025-09-10,2025-09-12 19:10:20.637,HA,C,408027426,AMBUSH51,1,1,48,2,1,1,225,2,1,0,0,9,1,225,2,1,-150142.47462687374,-4791535.994810153,4196969.838995819,2.45852,2.67379,-0.467851,-85.2508,39.6896,41.9292,-0.13673,-7.44253,6.84273,-0.0032114,0.0031469,0.0077471,4,0,41.39235193983031,-91.79477233249732,8729.314705673463,-53.99380484939508,0.8663508981579064,3.7022442611278015,0.0,8802.566937047923,11004.7807189461,150,True,19.430265074577676,False,157.14592906037237,179.19828695273824,False,22.9313481419476,True,False
7106,8,1970-07-23 10:01:54.214101772,2025-09-10,2025-09-12 19:10:21.410,HA,C,1277810064,JASSM,3,105,76,2,2,1,225,9,2,0,1,26,0,0,0,0,-185484.89294608065,-4786517.219697799,4201837.534636021,-2.30145,-0.153015,0.128471,92.75,-14.25,-12.0,0.0,0.0,0.0,0.0,0.0,0.0,2,0,41.447698013979085,-92.21918905168737,9999.999938484672,99.83974721875263,-0.0020035161421676,0.0057559183010892,,8802.566937047923,11004.7807189461,150,7104,8,2025-09-10,2025-09-12 19:10:21.238,HA,C,408743224,AMBUSH51,1,1,48,2,1,1,225,2,1,0,0,9,1,225,2,1,-150192.99822997546,-4791512.292262951,4196994.726174804,2.45226,2.67217,-0.47062,-85.0636,39.8902,42.2133,-0.086164,-7.54735,7.00211,-0.0136102,-0.000891535,0.0226878,4,0,41.392651545710194,-91.79538476159532,8728.888766056434,-53.82559910696495,0.9269939302584436,3.304189191623073,0.0,8802.566937047923,11004.7807189461,150,True,19.34405471634181,False,156.92776367953493,179.19064598120175,False,23.187424000706194,True,False
7123,8,1970-07-23 10:01:54.224130978,2025-09-10,2025-09-12 19:10:22.413,HA,C,1279062762,JASSM,3,105,76,2,2,1,225,9,2,0,1,26,0,0,0,0,-185387.4300554556,-4786532.254854049,4201824.794401646,-2.30145,-0.152919,0.128471,92.75,-14.25,-12.0,0.0,0.0,0.0,0.0,0.0,0.0,2,0,41.44754504796833,-92.21801718533446,9999.999980342249,99.8368868339117,-0.0051688331478424,0.0050517437474313,,8802.566937047923,11004.7807189461,150,7124,8,2025-09-10,2025-09-12 19:10:22.604,HA,C,410373656,AMBUSH51,1,1,48,2,1,1,225,2,1,0,0,9,1,225,2,1,-150309.22746246145,-4791457.120938607,4197053.345526582,2.4506,2.66343,-0.4809,-84.5647,40.0549,43.0998,-0.207241,-7.39133,6.81542,-0.00445767,-0.00202546,0.00661109,4,0,41.39335383084729,-91.79679391359656,8729.297061778943,-53.09980446624662,1.0593353172358984,2.9924165559081306,0.0,8802.566937047923,11004.7807189461,150,True,19.22098855384078,False,156.4075109210548,179.169426427222,False,23.79005863273767,True,False
7141,8,1970-07-23 10:01:54.235584462,2025-09-10,2025-09-12 19:10:23.558,HA,C,1280315462,JASSM,3,105,76,2,2,1,225,9,2,0,1,26,0,0,0,0,-185289.96716483065,-4786547.290010299,4201812.052214146,-2.30145,-0.152919,0.128471,92.75,-14.25,-12.0,0.0,0.0,0.0,0.0,0.0,0.0,2,0,41.44739205684118,-92.21684532448693,10000.000857246034,99.83766252744137,-0.0042772259941305,0.0050510743379422,,8802.566937047923,11004.7807189461,150,7142,8,2025-09-10,2025-09-12 19:10:23.604,HA,C,411566656,AMBUSH51,1,1,48,2,1,1,225,2,1,0,0,9,1,225,2,1,-150392.63086299985,-4791416.970676581,4197096.243552195,2.44716,2.65366,-0.476254,-84.3465,40.4993,43.5451,-0.301481,-6.69551,6.33855,-0.0235763,-0.0347553,0.00167176,4,0,41.393866730253,-91.79780531724316,8730.02686963205,-52.91361031214711,0.5284749493347886,2.540087481691274,0.0,8802.566937047923,11004.7807189461,150,True,19.11751285194915,False,156.05316365374136,179.14724930400826,False,24.213365414286557,True,False
7157,8,1970-07-23 10:01:54.245613423,2025-09-10,2025-09-12 19:10:24.561,HA,C,1281568130,JASSM,3,105,76,2,2,1,225,9,2,0,1,26,0,0,0,0,-185192.50622733065,-4786562.323213424,4201799.310026646,-2.30145,-0.152919,0.128471,92.75,-14.125,-12.0,0.0,0.0,0.0,0.0,0.0,0.0,2,0,41.44723906494962,-92.21567349339308,10000.002196951154,99.8384381989197,-0.00338563863438,0.0050504127892803,,8802.566937047923,11004.7807189461,150,7156,8,2025-09-10,2025-09-12 19:10:24.471,HA,C,412600588,AMBUSH51,1,1,48,2,1,1,225,2,1,0,0,9,1,225,2,1,-150466.30308706695,-4791380.527780322,4197134.024204612,2.44578,2.62929,-0.461194,-84.2548,41.9277,42.9077,-0.0728591,-5.54906,5.21439,-0.00722903,-0.013631,0.0157179,4,0,41.3943248343616,-91.79869909411448,8728.0286373788,-52.56594038462269,-0.9456980636459178,1.8287040062450053,0.0,8802.566937047923,11004.7807189461,150,True,19.01983000139136,False,155.78037602951483,179.1923191911042,False,24.52668569853015,True,False
7170,8,1970-07-23 10:01:54.256084390,2025-09-10,2025-09-12 19:10:25.608,HA,C,1282820860,JASSM,3,105,76,2,2,1,225,9,2,0,1,26,0,0,0,0,-185095.0394304556,-4786577.354463424,4201786.565886021,-2.30145,-0.152919,0.128471,92.75,-14.125,-12.0,0.0,0.0,0.0,0.0,0.0,0.0,2,0,41.44708606091737,-92.2145015986756,9999.99901518281,99.83921391015612,-0.0024940001616568,0.0050497598522527,,8802.566937047923,11004.7807189461,150,7169,8,2025-09-10,2025-09-12 19:10:25.603,HA,C,413952652,AMBUSH51,1,1,48,2,1,1,225,2,1,0,0,9,1,225,2,1,-150561.6146992606,-4791332.127939495,4197182.375738211,2.43223,2.64172,-0.477579,-84.3744,42.5267,43.2601,-0.259207,-7.52295,7.44823,-0.0137767,0.0013888,-0.00557911,4,0,41.39492138377924,-91.79985588492504,8721.22632548618,-52.41363669628888,0.178629130180757,1.3738800790184664,0.0,8802.566937047923,11004.7807189461,150,True,18.909124596461766,False,155.52185317847088,179.15393059626072,False,24.869854139600793,True,False
7181,8,1970-07-23 10:01:54.266069030,2025-09-10,2025-09-12 19:10:26.606,HA,C,1284013906,JASSM,3,105,76,2,2,1,225,9,2,0,1,26,0,0,0,0,-185002.2191179556,-4786591.668916549,4201774.429167271,-2.30145,-0.152919,0.128567,92.75,-14.125,-12.0,0.0,0.0,0.0,0.0,0.0,0.0,2,0,41.446940340345336,-92.2133855763115,9999.99989753459,99.84404329135717,-0.0053111415705679,0.0050488901452963,,8802.566937047923,11004.7807189461,150,7180,8,2025-09-10,2025-09-12 19:10:26.570,HA,C,415105884,AMBUSH51,1,1,48,2,1,1,225,2,1,0,0,9,1,225,2,1,-150643.02804082172,-4791290.787073875,4197224.401058154,2.40806,2.64342,-0.474545,-84.6246,42.4994,43.937,-0.105614,-7.04805,6.92184,-0.0300032,-0.00581214,0.00297213,4,0,41.39543581855699,-91.8008440101728,8716.9963306633,-52.59494982919159,0.1084045000770381,0.0333416442596667,0.0,8802.566937047923,11004.7807189461,150,True,18.809297359962116,False,155.38271541692342,179.1160675971751,False,25.07177704254304,True,False
7197,8,1970-07-23 10:01:54.276091384,2025-09-10,2025-09-12 19:10:27.609,HA,C,1285206954,JASSM,3,105,76,2,2,1,225,9,2,0,1,26,0,0,0,0,-184909.3948992056,-4786605.983369674,4201762.290495396,-2.30145,-0.152919,0.128567,92.75,-14.125,-12.0,0.0,0.0,0.0,0.0,0.0,0.0,2,0,41.44679459666601,-92.21226951225376,10000.000772009238,99.84478204236204,-0.0044619732104593,0.0050483232217619,,8802.566937047923,11004.7807189461,150,7193,8,2025-09-10,2025-09-12 19:10:27.403,HA,C,416100050,AMBUSH51,1,1,48,2,1,1,225,2,1,0,0,9,1,225,2,1,-150713.4274097763,-4791255.158158367,4197260.798622988,2.38466,2.6443,-0.480057,-84.9432,42.5911,44.1102,-0.158564,-7.26466,7.12276,-0.0127801,0.00125356,0.0136872,4,0,41.395880331698685,-91.80169842537812,8713.760933025078,-52.41726613659346,0.3736722512105335,-1.2838155342118451,0.0,8802.566937047923,11004.7807189461,150,True,18.71611442864924,False,155.3998824352844,179.07959661585818,False,25.115972042566792,True,False
7208,8,1970-07-23 10:01:54.286438077,2025-09-10,2025-09-12 19:10:28.643,HA,C,1286459652,JASSM,3,105,76,2,2,1,225,9,2,0,1,26,0,0,0,0,-184811.93200858065,-4786621.012666549,4201749.544401646,-2.30145,-0.152919,0.128567,92.75,-14.125,-12.0,0.0,0.0,0.0,0.0,0.0,0.0,2,0,41.44664155550039,-92.21109768112258,10000.003666910054,99.8455577047031,-0.0035703693530225,0.0050477253002023,,8802.566937047923,11004.7807189461,150,7210,8,2025-09-10,2025-09-12 19:10:28.770,HA,C,417730482,AMBUSH51,1,1,48,2,1,1,225,2,1,0,0,9,1,225,2,1,-150829.67556848013,-4791196.907033666,4197321.107642905,2.36343,2.65185,-0.480922,-85.5971,42.196,44.6262,-0.251531,-7.22284,7.2096,-0.0161881,0.000198697,-0.00128061,4,0,41.3966122644786,-91.80310910033764,8710.30683759294,-52.66899300645646,0.6691131830292646,-2.302412301804277,0.0,8802.566937047923,11004.7807189461,150,True,18.592931745473052,False,155.54653239165296,179.01552472431095,False,25.06056321101976,True,False
7225,8,1970-07-23 10:01:54.300899754,2025-09-10,2025-09-12 19:10:30.089,HA,C,1287772002,JASSM,3,105,76,2,2,1,225,9,2,0,1,26,0,0,0,0,-184709.82653983065,-4786636.754854049,4201736.188932896,-2.30145,-0.152919,0.128567,92.75,-14.125,-12.0,0.0,0.0,0.0,0.0,0.0,0.0,2,0,41.44648121449163,-92.2098700379176,9999.999895557668,99.8463703078301,-0.0026362960680367,0.0050471016007053,,8802.566937047923,11004.7807189461,150,7222,8,2025-09-10,2025-09-12 19:10:30.037,HA,C,419241614,AMBUSH51,1,1,48,2,1,1,225,2,1,0,0,9,1,225,2,1,-150937.8800100984,-4791143.609679468,4197376.98965079,2.34376,2.65158,-0.477714,-86.3761,41.8942,44.6973,-0.230035,-6.89213,6.85208,-0.00659236,-0.00183821,-0.000914421,4,0,41.39728633019426,-91.80442184597086,8708.821005427353,-52.78341384597413,0.52515672219633,-3.437645217324077,0.0,8802.566937047923,11004.7807189461,150,True,18.47216595461812,False,155.85228708466082,178.9506370473837,False,24.845339402304578,True,False
7233,8,1970-07-23 10:01:54.308429179,2025-09-10,2025-09-12 19:10:30.842,HA,C,1289024702,JASSM,3,105,76,2,2,1,225,9,2,0,1,26,0,0,0,0,-184612.36169608065,-4786651.780244674,4201723.440886021,-2.30145,-0.152823,0.128567,92.75,-14.125,-12.0,0.0,0.0,0.0,0.0,0.0,0.0,2,0,41.44632815940205,-92.20869819652178,9999.99915962948,99.84350998307303,-0.0058015947084696,0.0043424598030331,,8802.566937047923,11004.7807189461,150,7234,8,2025-09-10,2025-09-12 19:10:30.871,HA,C,420235780,AMBUSH51,1,1,48,2,1,1,225,2,1,0,0,9,1,225,2,1,-151009.76010362367,-4791108.290660405,4197414.006645174,2.33659,2.65608,-0.477463,-86.849,41.9955,44.4977,-0.227227,-7.19541,7.08843,-0.0103,0.000760457,0.000198697,4,0,41.39773287799042,-91.8052938840554,8707.822821501793,-52.96299939380603,0.6695589646158533,-3.7315106552639294,0.0,8802.566937047923,11004.7807189461,150,True,18.37573008113194,False,156.03910281306452,178.90361028633205,False,24.72687503798811,True,False
7247,8,1970-07-23 10:01:54.321584885,2025-09-10,2025-09-12 19:10:32.158,HA,C,1290217748,JASSM,3,105,76,2,2,1,225,9,2,0,1,26,0,0,0,0,-184519.5394304556,-4786666.090791549,4201711.298307896,-2.30145,-0.152823,0.128567,92.75,-14.125,-12.0,0.0,0.0,0.0,0.0,0.0,0.0,2,0,41.44618236668747,-92.20758217859242,10000.001477113336,99.84424869461655,-0.0049524442608031,0.0043418320999496,,8802.566937047923,11004.7807189461,150,7246,8,2025-09-10,2025-09-12 19:10:32.070,HA,C,421667378,AMBUSH51,1,1,48,2,1,1,225,2,1,0,0,9,1,225,2,1,-151114.9694739629,-4791057.473851752,4197467.765227834,2.34139,2.65544,-0.478874,-87.6379,41.607,44.7137,-0.0907861,-7.14973,7.08526,0.0124867,0.00389591,-0.00779079,4,0,41.39837838843693,-91.80656995821616,8707.61448953013,-52.88507282648349,0.7083147920053677,-3.4727934643944187,0.0,8802.566937047923,11004.7807189461,150,True,18.26204059448098,False,156.3169837929656,178.83417623378648,False,24.533926712118706,True,False
7258,8,1970-07-23 10:01:54.331264561,2025-09-10,2025-09-12 19:10:33.126,HA,C,1291470446,JASSM,3,105,76,2,2,1,225,9,2,0,1,26,0,0,0,0,-184422.07653983065,-4786681.114229049,4201698.548307896,-2.30145,-0.152823,0.128567,92.75,-14.125,-12.0,0.0,0.0,0.0,0.0,0.0,0.0,2,0,41.4460292862884,-92.20641037219492,10000.001796720766,99.84502433120883,-0.0040608438013382,0.0043411854700507,,8802.566937047923,11004.7807189461,150,7259,8,2025-09-10,2025-09-12 19:10:33.137,HA,C,422939910,AMBUSH51,1,1,48,2,1,1,225,2,1,0,0,9,1,225,2,1,-151207.70687434165,-4791013.377136933,4197514.819611554,2.32766,2.66852,-0.473396,-88.1866,41.1997,44.7422,-0.261658,-7.26376,7.24875,-0.0178151,0.00935123,0.000883212,4,0,41.398940987232535,-91.80769451958076,8708.430992380336,-53.58893889945632,0.928472883362039,-3.925973421976078,0.0,8802.566937047923,11004.7807189461,150,True,18.153360401440263,False,156.58653921801664,178.770210729679,False,24.340429631533024,True,False
7265,8,1970-07-23 10:01:54.339101336,2025-09-10,2025-09-12 19:10:33.910,HA,C,1292723146,JASSM,3,105,76,2,2,1,225,9,2,0,1,26,0,0,0,0,-184324.61169608065,-4786696.137666549,4201685.796354771,-2.30145,-0.152823,0.128567,92.75,-14.125,-12.0,0.0,0.0,0.0,0.0,0.0,0.0,2,0,41.445876181221614,-92.20523854796242,10000.002766631536,99.84579997724992,-0.0031692239014443,0.0043405292460752,,8802.566937047923,11004.7807189461,150,7270,8,2025-09-10,2025-09-12 19:10:33.971,HA,C,423934076,AMBUSH51,1,1,48,2,1,1,225,2,1,0,0,9,1,225,2,1,-151281.23671964923,-4790978.921664516,4197551.834728653,2.32806,2.66932,-0.472898,-88.69,40.9992,44.6062,-0.104861,-7.20538,6.99049,0.0212377,0.00422465,-0.00563945,4,0,41.399382050427846,-91.80858598647552,8709.695974321248,-53.63900441587481,0.9361557669034766,-3.882763513337383,0.0,8802.566937047923,11004.7807189461,150,True,18.05620024178606,False,156.8402904973793,178.71750133614248,False,24.15097975235636,True,False
7282,8,1970-07-23 10:01:54.349101380,2025-09-10,2025-09-12 19:10:34.910,HA,C,1293916192,JASSM,3,105,76,2,2,1,225,9,2,0,1,26,0,0,0,0,-184231.7894304556,-4786710.442354049,4201673.651823521,-2.30145,-0.152823,0.128567,92.75,-14.125,-12.0,0.0,0.0,0.0,0.0,0.0,0.0,2,0,41.44573037663712,-92.20412254822088,10000.000718137358,99.84653867012572,-0.0023200790904828,0.0043399224517599,,8802.566937047923,11004.7807189461,150,7279,8,2025-09-10,2025-09-12 19:10:34.804,HA,C,424928242,AMBUSH51,1,1,48,2,1,1,225,2,1,0,0,9,1,225,2,1,-151354.8944341331,-4790944.853371678,4197588.883452371,2.32458,2.6822,-0.473988,-89.0779,40.5842,44.6069,-0.169686,-7.53537,7.43338,-0.0050548,0.0100045,-0.0254696,4,0,41.39982100615712,-91.8094788468674,8712.00027514884,-54.0782899195406,1.4296192811938575,-3.754632549321155,0.0,8802.566937047923,11004.7807189461,150,True,17.961567489988834,False,157.06903381857646,178.66391854103458,False,23.981835515635037,True,False
7297,8,1970-07-23 10:01:54.362858563,2025-09-10,2025-09-12 19:10:36.285,HA,C,1295228544,JASSM,3,105,76,2,2,1,225,9,2,0,1,26,0,0,0,0,-184129.6839617056,-4786726.178682174,4201660.290495396,-2.30145,-0.152823,0.128663,92.75,-14.125,-12.0,0.0,0.0,0.0,0.0,0.0,0.0,2,0,41.44556995652312,-92.20289494206594,10000.001480914403,99.85144193519864,-0.0050522293386742,0.0043390044322073,,8802.566937047923,11004.7807189461,150,7296,8,2025-09-10,2025-09-12 19:10:36.237,HA,C,426638206,AMBUSH51,1,1,48,2,1,1,225,2,1,0,0,9,1,225,2,1,-151482.94444745823,-4790886.913941879,4197652.47564414,2.32289,2.68019,-0.460239,-89.8388,40.272,44.3152,-0.0979458,-6.39175,6.3038,0.0153746,0.00125564,-0.0124659,4,0,41.40057093469242,-91.81103057924764,8717.411952457247,-54.54168129055861,0.7849572360859554,-3.912382436570803,0.0,8802.566937047923,11004.7807189461,150,True,17.829745927963305,False,157.48047253949667,178.57220590586155,False,23.680244810066494,True,False
7306,8,1970-07-23 10:01:54.371079791,2025-09-10,2025-09-12 19:10:37.107,HA,C,1296540894,JASSM,3,105,76,2,2,1,225,9,2,0,1,26,0,0,0,0,-184027.5784929556,-4786741.913057174,4201646.927214146,-2.30145,-0.152823,0.128663,92.75,-14.125,-12.0,0.0,0.0,0.0,0.0,0.0,0.0,2,0,41.44540952175545,-92.2016673428564,9999.998774297806,99.85225449200932,-0.0041181574699015,0.0043383812424846,,8802.566937047923,11004.7807189461,150,7305,8,2025-09-10,2025-09-12 19:10:37.037,HA,C,427592604,AMBUSH51,1,1,48,2,1,1,225,2,1,0,0,9,1,225,2,1,-151554.7857994698,-4790854.338400173,4197687.614619605,2.3167,2.69205,-0.461992,-90.2425,39.8272,44.4785,-0.185034,-7.32774,7.10715,-0.00851899,0.00184237,-0.00421841,4,0,41.400988439489886,-91.8119012066711,8719.114257686268,-54.91752877383158,1.2750467922850284,-3.971541670182806,0.0,8802.566937047923,11004.7807189461,150,True,17.731269337226493,False,157.660599052594,178.51687888993112,False,23.555406142433053,True,False
7321,8,1970-07-23 10:01:54.381081489,2025-09-10,2025-09-12 19:10:38.108,HA,C,1297733940,JASSM,3,105,76,2,2,1,225,9,2,0,1,26,0,0,0,0,-183934.75720389312,-4786756.215791549,4201634.780729771,-2.30145,-0.152823,0.128663,92.75,-14.125,-12.0,0.0,0.0,0.0,0.0,0.0,0.0,2,0,41.44526368074335,-92.20055137167677,10000.00251180114,99.85299315917256,-0.0032690215286088,0.0043378315819985,,8802.566937047923,11004.7807189461,150,7319,8,2025-09-10,2025-09-12 19:10:37.970,HA,C,428706070,AMBUSH51,1,1,48,2,1,1,225,2,1,0,0,9,1,225,2,1,-151639.20477408342,-4790816.446904217,4197728.70599795,2.31277,2.69033,-0.45671,-90.832,40.0603,43.9277,-0.153595,-6.92392,6.74641,0.000858245,-0.00319059,-0.00567482,4,0,41.40147537963731,-91.81292412679804,8721.638936568976,-55.06129215066331,0.9949779342826198,-4.242809724785229,0.0,8802.566937047923,11004.7807189461,150,True,17.63051211599106,False,157.96224113090904,178.45230544569964,False,23.338775582008438,True,False
7328,8,1970-07-23 10:01:54.391211702,2025-09-10,2025-09-12 19:10:39.121,HA,C,1298867336,JASSM,3,105,76,2,2,1,225,9,2,0,1,26,0,0,0,0,-183846.57361014312,-4786769.801729049,4201623.237761021,-2.30145,-0.152727,0.128663,92.75,-14.125,-12.0,0.0,0.0,0.0,0.0,0.0,0.0,2,0,41.44512510671099,-92.19949116418012,9999.997658858712,99.85005902032796,-0.0065192219894363,0.003632765930603,,8802.566937047923,11004.7807189461,150,7329,8,2025-09-10,2025-09-12 19:10:39.170,HA,C,430137668,AMBUSH51,1,1,48,2,1,1,225,2,1,0,0,9,1,225,2,1,-151749.10955658898,-4790768.080549032,4197781.154656967,2.30915,2.70165,-0.454216,-91.5502,39.5535,43.7622,-0.212588,-7.28013,7.05976,-0.00119738,0.00281192,-0.0173157,4,0,41.40209649826887,-91.81425552063112,8725.031911385506,-55.58387403274895,1.2925104627447612,-4.175154589973213,0.0,8802.566937047923,11004.7807189461,150,True,17.517418260881005,False,158.3626521255151,178.36976285454938,False,23.026701317224813,True,False
7344,8,1970-07-23 10:01:54.402796815,2025-09-10,2025-09-12 19:10:40.279,HA,C,1300060382,JASSM,3,105,76,2,2,1,225,9,2,0,1,26,0,0,0,0,-183753.75134451807,-4786784.102510299,4201611.087370396,-2.30145,-0.152727,0.128663,92.75,-14.125,-12.0,0.0,0.0,0.0,0.0,0.0,0.0,2,0,41.444979230079504,-92.19837519197232,9999.997000696572,99.85079768404916,-0.0056700756039544,0.0036321493976158,,8802.566937047923,11004.7807189461,150,7342,8,2025-09-10,2025-09-12 19:10:40.236,HA,C,431410200,AMBUSH51,1,1,48,2,1,1,225,2,1,0,0,9,1,225,2,1,-151846.2009530618,-4790726.2191983145,4197827.216175909,2.30102,2.71493,-0.459437,-92.1236,38.7671,43.8175,-0.289334,-7.73274,7.60455,0.000918583,0.0234535,-0.00559992,4,0,41.40263819838279,-91.81543138498256,8729.57616038426,-55.87216917876663,1.9816418315856383,-4.3136785952700585,0.0,8802.566937047923,11004.7807189461,150,True,17.409444637660027,False,158.71392258889747,178.29562525160117,False,22.745377731454564,True,False
7352,8,1970-07-23 10:01:54.411661802,2025-09-10,2025-09-12 19:10:41.166,HA,C,1301253428,JASSM,3,105,76,2,2,1,225,9,2,0,1,26,0,0,0,0,-183660.92810233065,-4786798.403291549,4201598.936979771,-2.30145,-0.152727,0.128663,92.75,-14.125,-12.0,0.0,0.0,0.0,0.0,0.0,0.0,2,0,41.444833342842045,-92.19725921309193,10000.000855091892,99.85153635004778,-0.0048209206150579,0.0036315345398501,,8802.566937047923,11004.7807189461,150,7350,8,2025-09-10,2025-09-12 19:10:41.037,HA,C,432364600,AMBUSH51,1,1,48,2,1,1,225,2,1,0,0,9,1,225,2,1,-151919.81489680815,-4790695.367121641,4197862.133309413,2.30131,2.72399,-0.463757,-92.4765,37.8533,44.0547,-0.378737,-7.89451,7.79709,0.00643424,0.00516716,-0.000500383,4,0,41.40304358380659,-91.81632259287024,8735.193740901477,-56.03556002386339,2.483146606604287,-4.072013431377755,0.0,8802.566937047923,11004.7807189461,150,True,17.315359228350836,False,158.96320608815728,178.23832533179385,False,22.541172248870527,True,False
7361,8,1970-07-23 10:01:54.420083548,2025-09-10,2025-09-12 19:10:42.008,HA,C,1302446474,JASSM,3,105,76,2,2,1,225,9,2,0,1,26,0,0,0,0,-183568.10486014312,-4786812.702119674,4201586.784636021,-2.30145,-0.152727,0.128663,92.75,-14.125,-12.0,0.0,0.0,0.0,0.0,0.0,0.0,2,0,41.44468744322547,-92.1961432401068,10000.000273070264,99.85227501000526,-0.0039717660009777,0.0036309179986337,,8802.566937047923,11004.7807189461,150,7363,8,2025-09-10,2025-09-12 19:10:42.070,HA,C,433597366,AMBUSH51,1,1,48,2,1,1,225,2,1,0,0,9,1,225,2,1,-152015.36326998612,-4790656.882825277,4197907.819344769,2.29963,2.74257,-0.46772,-92.7792,34.9582,46.1621,-0.228699,-8.01971,7.76755,-0.00188606,0.0137975,-0.00471775,4,0,41.40356292731445,-91.81747877425866,8747.121102355872,-56.55920101801536,3.3110337576982625,-3.716809313637068,0.0,8802.566937047923,11004.7807189461,150,True,17.208520530189038,False,158.93501396877514,178.16633410760988,False,22.56378325684689,True,False
7375,8,1970-07-23 10:01:54.430848349,2025-09-10,2025-09-12 19:10:43.084,HA,C,1303639520,JASSM,3,105,76,2,2,1,225,9,2,0,1,26,0,0,0,0,-183475.2816179556,-4786826.998994674,4201574.632292271,-2.30145,-0.152727,0.128663,92.75,-14.125,-12.0,0.0,0.0,0.0,0.0,0.0,0.0,2,0,41.44454154440575,-92.19502727301642,9999.999495962826,99.85301366392106,-0.0031226140156793,0.0036303127555749,,8802.566937047923,11004.7807189461,150,7373,8,2025-09-10,2025-09-12 19:10:42.903,HA,C,434591530,AMBUSH51,1,1,48,2,1,1,225,2,1,0,0,9,1,225,2,1,-152093.3416311511,-4790626.290668223,4197944.66115772,2.30123,2.74724,-0.469524,-92.9972,35.5312,44.5473,-0.145753,-7.63175,7.29572,0.00374195,0.00639679,-0.00818402,4,0,41.40397891854382,-91.8184220533918,8757.903951812363,-56.65732624219583,3.552907758309837,-3.509865486394449,0.0,8802.566937047923,11004.7807189461,150,True,17.1120769429191,False,159.48960522624677,178.10685312991077,False,22.11100653217758,True,False
7387,8,1970-07-23 10:01:54.441159471,2025-09-10,2025-09-12 19:10:44.115,HA,C,1304772916,JASSM,3,105,76,2,2,1,225,9,2,0,1,26,0,0,0,0,-183387.09997733065,-4786840.581025924,4201563.085417271,-2.30145,-0.152727,0.128663,92.75,-14.125,-12.0,0.0,0.0,0.0,0.0,0.0,0.0,2,0,41.44440291590298,-92.19396711416398,9999.998398722411,99.85371537661848,-0.0023159209912908,0.0036297226840002,,8802.566937047923,11004.7807189461,150,7386,8,2025-09-10,2025-09-12 19:10:44.070,HA,C,435983362,AMBUSH51,1,1,48,2,1,1,225,2,1,0,0,9,1,225,2,1,-152201.36796121608,-4790585.460535466,4197996.016464499,2.29579,2.7603,-0.468053,-93.2176,34.5085,44.4969,-0.241253,-7.64796,7.41879,-0.0112591,0.00573516,-0.00480305,4,0,41.40454810930744,-91.81972824290573,8777.349859239135,-57.192402977666674,3.964465305731315,-3.51850884850338,0.0,8802.566937047923,11004.7807189461,150,True,17.000747156662428,False,159.8038139499194,178.02754495104716,False,21.865399343839165,True,False
7397,8,1970-07-23 10:01:54.450829197,2025-09-10,2025-09-12 19:10:45.082,HA,C,1306025600,JASSM,3,105,76,2,2,1,225,9,2,0,1,26,0,0,0,0,-183289.63611014312,-4786855.590791549,4201550.323698521,-2.30145,-0.152727,0.128663,92.75,-14.125,-12.0,0.0,0.0,0.0,0.0,0.0,0.0,2,0,41.444249699331024,-92.19279536640173,9999.998565254382,99.85449094708956,-0.0014243167027723,0.0036290858047974,,8802.566937047923,11004.7807189461,150,7399,8,2025-09-10,2025-09-12 19:10:45.270,HA,C,437414962,AMBUSH51,1,1,48,2,1,1,225,2,1,0,0,9,1,225,2,1,-152313.71312078106,-4790544.42434432,4198049.589694768,2.28399,2.77936,-0.46983,-93.3045,32.9407,44.7667,-0.191543,-7.71629,7.56641,-0.00396249,0.00796348,-0.0118001,4,0,41.40513266548977,-91.82108613289012,8801.447501057808,-57.809825935788886,4.728321174182495,-3.7476628344662006,0.0,8802.566937047923,11004.7807189461,150,True,16.88194112750236,False,160.06171874610567,177.94474699090782,False,21.660550632765922,True,False
7408,8,1970-07-23 10:01:54.460095903,2025-09-10,2025-09-12 19:10:46.009,HA,C,1307159008,JASSM,3,105,76,2,2,1,225,9,2,0,1,26,0,0,0,0,-183201.45251639312,-4786869.170869674,4201538.776823521,-2.30145,-0.152727,0.128759,92.75,-14.125,-12.0,0.0,0.0,0.0,0.0,0.0,0.0,2,0,41.444111062324616,-92.1917351946008,10000.00123333781,99.8592834108806,-0.0042837808241876,0.0036283354551671,,8802.566937047923,11004.7807189461,150,7405,8,2025-09-10,2025-09-12 19:10:45.903,HA,C,438170528,AMBUSH51,1,1,48,2,1,1,225,2,1,0,0,9,1,225,2,1,-152372.60375313906,-4790523.664854758,4198077.611664877,2.27425,2.7873,-0.465761,-93.2952,32.3499,44.5064,-0.19436,-7.47402,7.16115,0.00118074,0.000760457,-0.00442022,4,0,41.40543419824753,-91.82179765326308,8815.799122494522,-58.26292802188012,4.855092321512378,-4.138405489473097,0.0,8802.566937047923,11004.7807189461,150,True,16.79940159324309,False,160.28791932651518,177.89905885327786,False,21.474743008130968,True,False
7421,8,1970-07-23 10:01:54.471184039,2025-09-10,2025-09-12 19:10:47.118,HA,C,1308352054,JASSM,3,105,76,2,2,1,225,9,2,0,1,26,0,0,0,0,-183108.6292742056,-4786883.463838424,4201526.618620396,-2.30145,-0.152727,0.128759,92.75,-14.125,-12.0,0.0,0.0,0.0,0.0,0.0,0.0,2,0,41.44396510445485,-92.19061924904966,9999.996321200788,99.86002204212446,-0.0034346272459069,0.0036277744097662,,8802.566937047923,11004.7807189461,150,7419,8,2025-09-10,2025-09-12 19:10:47.070,HA,C,439562360,AMBUSH51,1,1,48,2,1,1,225,2,1,0,0,9,1,225,2,1,-152480.80689665355,-4790486.576884717,4198128.746505249,2.2796,2.78937,-0.473675,-93.341,30.9239,44.5682,-0.166607,-7.4433,7.27396,0.0289005,0.00474272,0.0100378,4,0,41.405979561404735,-91.82310458405864,8844.005521261355,-58.01273802877356,5.248876185293727,-3.756215237217935,0.0,8802.566937047923,11004.7807189461,150,True,16.685802077176806,False,160.559374104582,177.82049699427378,False,21.25328874827785,True,False
7429,8,1970-07-23 10:01:54.479077993,2025-09-10,2025-09-12 19:10:47.907,HA,C,1309485450,JASSM,3,105,76,2,2,1,225,9,2,0,1,26,0,0,0,0,-183020.44763358065,-4786897.041963424,4201515.069792271,-2.30145,-0.152631,0.128759,92.75,-14.125,-12.0,0.0,0.0,0.0,0.0,0.0,0.0,2,0,41.44382644539333,-92.18955911075004,9999.998662053264,99.85708793487672,-0.0066848432539134,0.0029222059961818,,8802.566937047923,11004.7807189461,150,7428,8,2025-09-10,2025-09-12 19:10:47.903,HA,C,440556524,AMBUSH51,1,1,48,2,1,1,225,2,1,0,0,9,1,225,2,1,-152558.93540157075,-4790460.516586023,4198165.630527641,2.28493,2.80017,-0.46622,-93.195,30.6458,43.9185,-0.175826,-7.2083,6.99634,-0.00626987,0.00438693,-0.015283,4,0,41.40636879662452,-91.8240479963076,8866.063316967842,-58.70748058255185,5.346931454351003,-3.234655837327483,0.0,8802.566937047923,11004.7807189461,150,True,16.592253974840443,False,160.84754213019042,177.76211811247086,False,21.033723793659085,True,False
7441,8,1970-07-23 10:01:54.491158001,2025-09-10,2025-09-12 19:10:49.115,HA,C,1310618844,JASSM,3,105,76,2,2,1,225,9,2,0,1,26,0,0,0,0,-182932.26501639312,-4786910.620088424,4201503.519011021,-2.30145,-0.152631,0.128759,92.75,-14.125,-12.0,0.0,0.0,0.0,0.0,0.0,0.0,2,0,41.443687763605375,-92.18849896529296,10000.000825612233,99.85778962882527,-0.0058781423314066,0.0029216205698098,,8802.566937047923,11004.7807189461,150,7440,8,2025-09-10,2025-09-12 19:10:48.970,HA,C,441829056,AMBUSH51,1,1,48,2,1,1,225,2,1,0,0,9,1,225,2,1,-152657.78734602325,-4790427.996293451,4198211.920220278,2.27922,2.80007,-0.462635,-93.1708,30.1711,43.4584,-0.161739,-6.94347,6.7031,-0.00458459,-3.8491e-05,0.00510474,4,0,41.40685602155302,-91.82524148790368,8894.270969054127,-58.852529908858685,5.201028661189899,-3.5772928578881875,0.0,8802.566937047923,11004.7807189461,150,True,16.48679235820653,False,161.1280128103507,177.6896547332178,False,20.828797146792578,True,False
7447,8,1970-07-23 10:01:54.499120594,2025-09-10,2025-09-12 19:10:49.912,HA,C,1311811890,JASSM,3,105,76,2,2,1,225,9,2,0,1,26,0,0,0,0,-182839.4417742056,-4786924.909150924,4201491.360807896,-2.30145,-0.152631,0.128759,92.75,-14.125,-12.0,0.0,0.0,0.0,0.0,0.0,0.0,2,0,41.44354179758479,-92.18738303603094,9999.999667325574,99.85852824312605,-0.0050289940262406,0.002921028198915,,8802.566937047923,11004.7807189461,150,7445,8,2025-09-10,2025-09-12 19:10:49.770,HA,C,442783456,AMBUSH51,1,1,48,2,1,1,225,2,1,0,0,9,1,225,2,1,-152732.4478795907,-4790403.744133217,4198246.533736132,2.28252,2.80268,-0.461078,-93.1806,29.9226,43.0581,-0.192118,-7.18938,6.97143,0.00218983,0.00290139,-0.0112071,4,0,41.40721981050356,-91.826142795584,8915.586367546424,-59.01115539317384,5.235854382240546,-3.336052337887549,0.0,8802.566937047923,11004.7807189461,150,True,16.39282964586018,False,161.34917402887785,177.6325264970119,False,20.670372758280816,True,False
7457,8,1970-07-23 10:01:54.508825825,2025-09-10,2025-09-12 19:10:50.882,HA,C,1312945284,JASSM,3,105,76,2,2,1,225,9,2,0,1,26,0,0,0,0,-182751.25915701807,-4786938.485322799,4201479.808073521,-2.30145,-0.152631,0.128759,92.75,-14.125,-12.0,0.0,0.0,0.0,0.0,0.0,0.0,2,0,41.44340309418699,-92.18632290073252,10000.001320001536,99.85922992638578,-0.0042222934570861,0.0029204410537354,,8802.566937047923,11004.7807189461,150,7458,8,2025-09-10,2025-09-12 19:10:50.969,HA,C,444215054,AMBUSH51,1,1,48,2,1,1,225,2,1,0,0,9,1,225,2,1,-152844.7287705489,-4790367.961038108,4198298.035315636,2.25626,2.81313,-0.44937,-93.148,29.1518,42.5499,-0.226661,-7.01866,6.78934,-0.0103666,0.00697311,-0.00988179,4,0,41.40775905688844,-91.82749801176584,8948.144446525423,-59.87168011069467,5.157582551090253,-4.65513888899441,0.0,8802.566937047923,11004.7807189461,150,True,16.27980689258913,False,161.7071278370371,177.5508353151296,False,20.38871700302202,True,False
7473,8,1970-07-23 10:01:54.519217216,2025-09-10,2025-09-12 19:10:51.921,HA,C,1314078678,JASSM,3,105,76,2,2,1,225,9,2,0,1,26,0,0,0,0,-182663.07751639312,-4786952.059541549,4201468.255339146,-2.30145,-0.152631,0.128759,92.75,-14.125,-12.0,0.0,0.0,0.0,0.0,0.0,0.0,2,0,41.44326439242065,-92.18526278251208,10000.002420123306,99.85993159640928,-0.0034156040993349,0.0029198634939857,,8802.566937047923,11004.7807189461,150,7474,8,2025-09-10,2025-09-12 19:10:51.938,HA,C,445368286,AMBUSH51,1,1,48,2,1,1,225,2,1,0,0,9,1,225,2,1,-152934.9979266124,-4790339.789206728,4198338.568360379,2.26695,2.80718,-0.447993,-93.1835,28.861,41.7005,-0.190712,-6.37455,6.26854,0.0200871,-0.0188804,0.00408733,4,0,41.40818314113724,-91.82858733482242,8973.90001545519,-59.7149227185372,4.8824732853332975,-4.176812585430831,0.0,8802.566937047923,11004.7807189461,150,True,16.17958157478274,False,162.1406649281439,177.48409569019103,False,20.03421115646784,True,False
7495,8,1970-07-23 10:01:54.529101633,2025-09-10,2025-09-12 19:10:52.910,HA,C,1315391028,JASSM,3,105,76,2,2,1,225,9,2,0,1,26,0,0,0,0,-182560.97107108065,-4786967.774385299,4201454.876432896,-2.30145,-0.152631,0.128759,92.75,-14.125,-12.0,0.0,0.0,0.0,0.0,0.0,0.0,2,0,41.4431037805211,-92.18403526747748,9999.997722807697,99.86074406046056,-0.0024815317671157,0.0029191989859228,,8802.566937047923,11004.7807189461,150,7492,8,2025-09-10,2025-09-12 19:10:52.871,HA,C,446481752,AMBUSH51,1,1,48,2,1,1,225,2,1,0,0,9,1,225,2,1,-153020.8505566353,-4790312.781625436,4198376.37970928,2.28912,2.79378,-0.445348,-93.1358,29.4979,40.4967,-0.0709147,-6.19732,6.1287,0.0263913,-0.00744541,-0.00562489,4,0,41.40858275431816,-91.82962345382552,8996.271229099686,-59.3403069911778,4.281475450501191,-3.207931075366493,0.0,8802.566937047923,11004.7807189461,150,True,16.074314775679216,False,162.52107000636133,177.41820085298247,False,19.766867898795304,True,False
7514,8,1970-07-23 10:01:54.540102792,2025-09-10,2025-09-12 19:10:54.010,HA,C,1316703380,JASSM,3,105,76,2,2,1,225,9,2,0,1,26,0,0,0,0,-182458.86560233065,-4786983.489229049,4201441.497526646,-2.30145,-0.152631,0.128759,92.75,-14.125,-12.0,0.0,0.0,0.0,0.0,0.0,0.0,2,0,41.44294315529812,-92.18280777016804,9999.998688721847,99.86155651018969,-0.0015474679905652,0.0029185327109576,,8802.566937047923,11004.7807189461,150,7512,8,2025-09-10,2025-09-12 19:10:53.936,HA,C,447754284,AMBUSH51,1,1,48,2,1,1,225,2,1,0,0,9,1,225,2,1,-153121.0955194283,-4790280.601529008,4198419.514730347,2.30434,2.78955,-0.42585,-93.161,30.2876,39.4251,-0.148409,-5.84939,5.7098,-0.0172284,-0.00289931,-0.00731849,4,0,41.40904633166001,-91.83083352739916,9018.610050861227,-59.98632208471243,3.3434045745604,-2.4809438309266283,0.0,8802.566937047923,11004.7807189461,150,True,15.960824157476694,False,162.81052115220305,177.3414255894558,False,19.602432956455946,True,False
7536,8,1970-07-23 10:01:54.550102118,2025-09-10,2025-09-12 19:10:55.010,HA,C,1317956078,JASSM,3,105,76,2,2,1,225,9,2,0,1,26,0,0,0,0,-182361.40075858065,-4786998.489229049,4201428.726042271,-2.30145,-0.152631,0.128854,92.75,-14.125,-12.0,0.0,0.0,0.0,0.0,0.0,0.0,2,0,41.44278981749997,-92.18163606771512,10000.001907034217,99.86642282034268,-0.0043219778193411,0.0029177182796784,,8802.566937047923,11004.7807189461,150,7537,8,2025-09-10,2025-09-12 19:10:55.037,HA,C,449066582,AMBUSH51,1,1,48,2,1,1,225,2,1,0,0,9,1,225,2,1,-153223.56420838568,-4790246.528609856,4198462.294300279,2.3078,2.78071,-0.426347,-93.2505,31.0392,38.4757,-0.160635,-6.40161,6.19294,0.00313234,-0.00356718,0.011644,4,0,41.40951833490694,-91.8320709096561,9035.703916733164,-59.64239976536869,3.036081322693128,-2.473033451161096,0.0,8802.566937047923,11004.7807189461,150,True,15.848627333203414,False,163.05122862311018,177.26165142269147,False,19.483262300027608,True,False
