Subject_cm,Timestamp,SampleDate_cm,SampleTime_cm,Configuration_cm,Scenario_cm,DisTime_cm,MarkingTxt_cm,Application_cm,EntId_cm,Site_cm,ExerciseId_cm,ForceId_cm,Category_cm,Country_cm,Domain_cm,Kind_cm,Extra_cm,Specific_cm,Subcategory_cm,AltCategory_cm,AltCountry_cm,AltDomain_cm,AltKind_cm,ECEF_X_cm,ECEF_Y_cm,ECEF_Z_cm,OriPhi_cm,OriPsi_cm,OriTheta_cm,LinVelX_cm,LinVelY_cm,LinVelZ_cm,LinAccX_cm,LinAccY_cm,LinAccZ_cm,AngVelX_cm,AngVelY_cm,AngVelZ_cm,DrAlg_cm,Appearance_cm,Latitude_cm,Longitude_cm,Altitude_cm,Heading_cm,Pitch_cm,Roll_cm,CalibratedAirspeed_cm,CM_Altitude_Lead_cm,CM_Altitude_Wing_cm,CM_Airspeed_cm,Subject_ac,SampleDate_ac,SampleTime_ac,Configuration_ac,Scenario_ac,DisTime_ac,MarkingTxt_ac,Application_ac,EntId_ac,Site_ac,ExerciseId_ac,ForceId_ac,Category_ac,Country_ac,Domain_ac,Kind_ac,Extra_ac,Specific_ac,Subcategory_ac,AltCategory_ac,AltCountry_ac,AltDomain_ac,AltKind_ac,ECEF_X_ac,ECEF_Y_ac,ECEF_Z_ac,OriPhi_ac,OriPsi_ac,OriTheta_ac,LinVelX_ac,LinVelY_ac,LinVelZ_ac,LinAccX_ac,LinAccY_ac,LinAccZ_ac,AngVelX_ac,AngVelY_ac,AngVelZ_ac,DrAlg_ac,Appearance_ac,Latitude_ac,Longitude_ac,Altitude_ac,Heading_ac,Pitch_ac,Roll_ac,CalibratedAirspeed_ac,CM_Altitude_Lead_ac,CM_Altitude_Wing_ac,CM_Airspeed_ac,Bank_Angle_Condition,distance_nm,Distance_Condition,angle_between_vel,angle_between_pos,Cone_Condition,angle_between_pos_nose,Nose_Cone_Condition,Intercept_Criteria
8,1970-07-23 09:59:59.898113033,2025-09-10,2025-09-26 15:59:49.811,AH,C,3993421944,JASSM,3,137,76,2,2,1,225,9,2,0,1,26,0,0,0,0,-155721.93786795562,-4777189.690400924,4213565.581511021,-2.71093,-1.01118,0.751842,36.625,-58.375,-64.375,0.0,0.0,0.0,0.0,0.0,0.0,2,0,41.58866278026593,-91.86700806800928,10000.001444339823,155.93840259890803,-0.0039315176168493,-0.0006571131573472,,9023.624474727972,10930.733041558857,150,8,2025-09-10,2025-09-26 15:59:49.903,AH,C,3273535662,HAWK11,1,1,73,2,1,1,225,2,1,0,0,12,1,225,2,1,-142849.29724295562,-4791229.972627486,4198579.173307896,2.55149,2.70997,-0.426447,-86.125,35.5,32.875,-0.234375,-7.01562,6.375,0.0234375,0.0,0.0078125,4,0,41.40636336532531,-91.70775312617415,10919.680787902314,-56.923624762349554,0.3732952125298318,9.844469800542122,173.09,9023.624474727972,10930.733041558857,150,True,13.06576520452999,False,142.02009565062934,170.73551859333514,False,28.71698894692706,True,False
8,1970-07-23 09:59:59.909154062,2025-09-10,2025-09-26 15:59:50.915,AH,C,3994734628,JASSM,3,137,76,2,2,1,225,9,2,0,1,26,0,0,0,0,-155681.62439139312,-4777254.061494674,4213494.565886021,-2.71093,-1.01118,0.751842,36.625,-58.375,-64.375,0.0,0.0,0.0,0.0,0.0,0.0,2,0,41.58780830103427,-91.86649994402484,9999.999379495555,155.93873987779634,-0.0029963353414678,-0.0006584768855519,,9023.624474727972,10930.733041558857,150,8,2025-09-10,2025-09-26 15:59:50.809,AH,C,3274649128,HAWK11,1,1,73,2,1,1,225,2,1,0,0,12,1,225,2,1,-142930.32458670562,-4791195.250947799,4198610.630339146,2.58207,2.68984,-0.436418,-85.25,37.125,33.625,-0.15625,-7.01562,6.28125,0.0273438,0.0078125,0.0136719,4,0,41.40676789221066,-91.7087336038963,10908.481174889474,-55.77048959222103,0.0688962183270302,11.118897512088443,173.261,9023.624474727972,10930.733041558857,150,False,12.966046900985807,False,143.07451849087244,170.80032268252472,False,27.725854319383302,True,False
8,1970-07-23 09:59:59.920152932,2025-09-10,2025-09-26 15:59:52.015,AH,C,3996046646,JASSM,3,137,76,2,2,1,225,9,2,0,1,26,0,0,0,0,-155641.33239920562,-4777318.395479049,4213423.589323521,-2.71093,-1.01118,0.751842,36.625,-58.375,-64.375,0.0,0.0,0.0,0.0,0.0,0.0,2,0,41.58695429973631,-91.86599210531963,9999.998650533957,155.9390769616384,-0.002061674408905,-0.0006598304933254,,9023.624474727972,10930.733041558857,150,8,2025-09-10,2025-09-26 15:59:52.011,AH,C,3276080726,HAWK11,1,1,73,2,1,1,225,2,1,0,0,12,1,225,2,1,-143032.21325858062,-4791149.282197799,4198651.851042271,2.62205,2.66663,-0.452428,-84.0,38.875,35.0,-0.140625,-7.125,6.5,0.0195312,0.0117188,0.015625,4,0,41.40730152320318,-91.7099673576047,10892.341049687588,-54.26763749603323,-0.0748612562412238,12.837992445894146,173.566,9023.624474727972,10930.733041558857,150,False,12.853686359341623,False,144.5180941911652,170.8900943296375,False,26.3722528186908,True,False
8,1970-07-23 09:59:59.932816859,2025-09-10,2025-09-26 15:59:53.281,AH,C,3997418648,JASSM,3,137,76,2,2,1,225,9,2,0,1,26,0,0,0,0,-155599.19763358062,-4777385.670869674,4213349.366667271,-2.71083,-1.01118,0.751842,36.625,-58.375,-64.375,0.0,0.0,0.0,0.0,0.0,0.0,2,0,41.586061243711775,-91.86546105505244,10000.001649872458,155.93942944634514,-0.0010842717229221,0.0048438886211109,,9023.624474727972,10930.733041558857,150,8,2025-09-10,2025-09-26 15:59:53.199,AH,C,3277512324,HAWK11,1,1,73,2,1,1,225,2,1,0,0,12,1,225,2,1,-143132.59216483062,-4791100.789033736,4198695.460417271,2.55695,2.64823,-0.483204,-82.75,40.25,37.25,0.0,-8.45312,7.96875,-0.132812,0.0410156,0.03125,4,0,41.40786655213138,-91.71118399561756,10875.071627029747,-52.38462037324301,0.5944907039129219,8.64110947914246,174.08,9023.624474727972,10930.733041558857,150,True,12.737661395905024,False,146.18619804698727,170.97216897068967,False,24.785983750967436,True,False
8,1970-07-23 09:59:59.942775757,2025-09-10,2025-09-26 15:59:54.277,AH,C,3998671348,JASSM,3,137,76,2,2,1,225,9,2,0,1,26,0,0,0,0,-155560.72790701812,-4777447.096650924,4213281.593229771,-2.71083,-1.01118,0.751842,36.625,-58.375,-64.375,0.0,0.0,0.0,0.0,0.0,0.0,2,0,41.58524580655863,-91.86497620941996,10000.000107989665,155.93975125728994,-0.0001918317889861,0.0048425742372468,,9023.624474727972,10930.733041558857,150,8,2025-09-10,2025-09-26 15:59:54.199,AH,C,3278665558,HAWK11,1,1,73,2,1,1,225,2,1,0,0,12,1,225,2,1,-143212.23669608062,-4791062.399385299,4198732.499479771,2.47297,2.64171,-0.502379,-82.125,39.625,39.25,-0.171875,-8.32812,7.60938,-0.0761719,0.0078125,-0.00585938,4,0,41.40833079707753,-91.71214930902632,10866.877727166391,-51.40484644085121,1.1906015386345563,3.6677181783869015,174.52,9023.624474727972,10930.733041558857,150,True,12.63789279464304,False,146.95678302061654,171.03078656502387,False,24.079544117495455,True,False
8,1970-07-23 09:59:59.952398380,2025-09-10,2025-09-26 15:59:55.239,AH,C,3999745090,JASSM,3,137,76,2,2,1,225,9,2,0,1,26,0,0,0,0,-155527.75232108062,-4777499.745088424,4213223.503386021,-2.71083,-1.01118,0.751842,36.625,-58.375,-64.375,0.0,0.0,0.0,0.0,0.0,0.0,2,0,41.58454688360091,-91.86456061964564,10000.000870531436,155.94002709629805,0.0005730994373143,0.0048414697181312,,9023.624474727972,10930.733041558857,150,8,2025-09-10,2025-09-26 15:59:55.199,AH,C,3279898322,HAWK11,1,1,73,2,1,1,225,2,1,0,0,12,1,225,2,1,-143297.90466483062,-4791021.164033736,4198774.394011021,2.37748,2.65992,-0.49816,-82.0,39.0,40.5,-0.125,-8.0,7.54688,-0.0820312,0.00585938,-0.0175781,4,0,41.40884366586093,-91.71318762371271,10862.669017999691,-52.24643301160199,1.6279066371382178,-1.3234328163864062,173.994,9023.624474727972,10930.733041558857,150,True,12.541462665692213,False,147.2657915849954,171.10097686278246,False,23.85312258419047,True,False
8,1970-07-23 09:59:59.961152376,2025-09-10,2025-09-26 15:59:56.115,AH,C,4000998206,JASSM,3,137,76,2,2,1,225,9,2,0,1,26,0,0,0,0,-155489.26892264312,-4777561.188447799,4213155.706511021,-2.71083,-1.01118,0.751842,36.625,-58.375,-64.375,0.0,0.0,0.0,0.0,0.0,0.0,2,0,41.58373118238498,-91.8640756260281,9999.999732649543,155.94034899583966,0.0014658291011915,0.0048401658288525,,9023.624474727972,10930.733041558857,150,8,2025-09-10,2025-09-26 15:59:55.904,AH,C,3280773188,HAWK11,1,1,73,2,1,1,225,2,1,0,0,12,1,225,2,1,-143357.29528983062,-4790992.519502486,4198804.487761021,2.33424,2.66213,-0.501036,-82.125,37.875,41.625,-0.015625,-8.0,7.25,-0.0449219,0.0078125,0.00195312,4,0,41.40920664180668,-91.71390748157972,10861.891075147214,-52.21736909392927,1.8249851803703336,-3.7393895327343953,173.823,9023.624474727972,10930.733041558857,150,True,12.452774373262772,False,147.27476098074322,171.13361592048443,False,23.901671337134793,True,False
8,1970-07-23 09:59:59.972133088,2025-09-10,2025-09-26 15:59:57.213,AH,C,4002310294,JASSM,3,137,76,2,2,1,225,9,2,0,1,26,0,0,0,0,-155448.97400076812,-4777625.520479049,4213084.722136021,-2.71083,-1.01109,0.751938,36.625,-58.375,-64.375,0.0,0.0,0.0,0.0,0.0,0.0,2,0,41.58287712941426,-91.863567816879,10000.00352096618,155.9393341633158,-0.0042640372029368,0.0010880522365538,,9023.624474727972,10930.733041558857,150,8,2025-09-10,2025-09-26 15:59:57.404,AH,C,3282483154,HAWK11,1,1,73,2,1,1,225,2,1,0,0,12,1,225,2,1,-143475.74646170562,-4790937.508760299,4198864.440886021,2.31257,2.67948,-0.508611,-82.375,36.875,41.5,-0.03125,-7.71875,7.40625,0.0,0.00390625,-0.0175781,4,0,41.40991750144086,-91.71534246233789,10865.413928755308,-52.56301478011296,2.735661820834012,-4.513578562689557,173.298,9023.624474727972,10930.733041558857,150,True,12.326699215888276,False,146.82821571335333,171.2379390500803,False,24.46641025883323,True,False
8,1970-07-23 09:59:59.983572988,2025-09-10,2025-09-26 15:59:58.357,AH,C,4003563148,JASSM,3,137,76,2,2,1,225,9,2,0,1,26,0,0,0,0,-155410.49841483062,-4777686.948213424,4213016.936979771,-2.71083,-1.01109,0.751938,36.625,-58.375,-64.375,0.0,0.0,0.0,0.0,0.0,0.0,2,0,41.582061594419045,-91.8630829479303,10000.000585582771,155.93965596965478,-0.0033714935282967,0.0010867287334169,,9023.624474727972,10930.733041558857,150,8,2025-09-10,2025-09-26 15:59:58.511,AH,C,3283596618,HAWK11,1,1,73,2,1,1,225,2,1,0,0,12,1,225,2,1,-143551.83630545562,-4790903.502900924,4198902.802214146,2.29848,2.69722,-0.509378,-82.375,36.125,41.125,0.0,-7.6875,7.23438,0.0,0.0136719,-0.00390625,4,0,41.410365187476906,-91.71626379486604,10870.629916603908,-53.18111899026555,3.3761803589664368,-4.858709597692815,172.65,9023.624474727972,10930.733041558857,150,True,12.228883037966977,False,146.4508111047562,171.29473368828388,False,24.90800741722792,True,False
8,1970-07-23 09:59:59.994093123,2025-09-10,2025-09-26 15:59:59.409,AH,C,4004934840,JASSM,3,137,76,2,2,1,225,9,2,0,1,26,0,0,0,0,-155368.37341483062,-4777754.200166549,4212942.722136021,-2.71083,-1.01109,0.751938,36.625,-58.375,-64.375,0.0,0.0,0.0,0.0,0.0,0.0,2,0,41.58116871480998,-91.86255210395466,9999.997209086116,155.94000828356334,-0.0023943025562221,0.0010852837577585,,9023.624474727972,10930.733041558857,150,8,2025-09-10,2025-09-26 15:59:59.605,AH,C,3285147516,HAWK11,1,1,73,2,1,1,225,2,1,0,0,12,1,225,2,1,-143659.34411795562,-4790857.184541549,4198956.782682896,2.32523,2.70709,-0.515801,-82.375,34.75,41.125,0.03125,-7.3125,6.92188,0.0332031,0.0,-0.00195312,4,0,41.41098593879392,-91.71756495270095,10881.780263741795,-53.28563029954366,3.983865790625564,-3.0551995120828974,172.124,9023.624474727972,10930.733041558857,150,True,12.108139079467305,False,145.99056370210587,171.39014317879963,False,25.489537706245038,True,False
8,1970-07-23 10:00:00.005976761,2025-09-10,2025-09-26 16:00:00.597,AH,C,4006247192,JASSM,3,137,76,2,2,1,225,9,2,0,1,26,0,0,0,0,-155328.07068045562,-4777818.543916549,4212871.718229771,-2.71083,-1.01109,0.751938,36.625,-58.375,-64.375,0.0,0.0,0.0,0.0,0.0,0.0,2,0,41.58031445481175,-91.86204423680242,10000.003281117,155.94034534225236,-0.0014593807696975,0.0010839004686806,,9023.624474727972,10930.733041558857,150,8,2025-09-10,2025-09-26 16:00:00.199,AH,C,3285744016,HAWK11,1,1,73,2,1,1,225,2,1,0,0,12,1,225,2,1,-143700.58435233062,-4790839.874971236,4198977.267057896,2.33002,2.71275,-0.514267,-82.375,34.375,41.0,-0.203125,-7.5625,7.01562,0.0195312,0.00390625,-0.00390625,4,0,41.411219826914646,-91.71806392168916,10886.703700564773,-53.55104898864023,4.116040678770194,-2.639594246291312,171.721,9023.624474727972,10930.733041558857,150,True,12.028841476339338,False,145.81896995206108,171.4038646869572,False,25.68091468108186,True,False
8,1970-07-23 10:00:00.016754034,2025-09-10,2025-09-26 16:00:01.675,AH,C,4007559534,JASSM,3,137,76,2,2,1,225,9,2,0,1,26,0,0,0,0,-155287.76794608062,-4777882.883760299,4212800.710417271,-2.71083,-1.01109,0.751938,36.625,-58.375,-64.375,0.0,0.0,0.0,0.0,0.0,0.0,2,0,41.57946018946522,-91.86153638455724,9999.99683130769,155.9406823853614,-0.0005244565886802,0.001082514905613,,9023.624474727972,10930.733041558857,150,8,2025-09-10,2025-09-26 16:00:01.809,AH,C,3287613048,HAWK11,1,1,73,2,1,1,225,2,1,0,0,12,1,225,2,1,-143829.00036795562,-4790786.248994674,4199041.436979771,2.35945,2.70901,-0.525197,-81.75,33.5,40.875,0.0,-7.26562,6.8125,0.03125,0.0,0.015625,4,0,41.41194907396774,-91.7196175609468,10903.54974934436,-52.982681701068906,4.44041182306955,-1.0170051343181024,170.572,9023.624474727972,10930.733041558857,150,True,11.899076137594552,False,145.67124085767722,171.53271279914725,False,25.976492121619902,True,False
8,1970-07-23 10:00:00.027111911,2025-09-10,2025-09-26 16:00:02.711,AH,C,4008812242,JASSM,3,137,76,2,2,1,225,9,2,0,1,26,0,0,0,0,-155249.29724295562,-4777944.299775924,4212732.933073521,-2.71083,-1.01109,0.751938,36.625,-58.375,-64.375,0.0,0.0,0.0,0.0,0.0,0.0,2,0,41.578644767018375,-91.8610516297782,10000.003800845734,155.94100409421551,0.0003679573524266,0.0010811978270282,,9023.624474727972,10930.733041558857,150,8,2025-09-10,2025-09-26 16:00:02.904,AH,C,3289124180,HAWK11,1,1,73,2,1,1,225,2,1,0,0,12,1,225,2,1,-143931.86169608062,-4790743.952119674,4199092.567839146,2.5002,2.70642,-0.525772,-81.125,33.375,40.75,-0.109375,-6.98438,6.51562,0.238281,0.00390625,0.00195312,4,0,41.412527455195615,-91.72086181439876,10918.08495746836,-52.867698188380686,4.376564483025709,6.9815671170199485,169.912,9023.624474727972,10930.733041558857,150,True,11.786959031980073,False,145.78349873666778,171.63256364246504,False,25.968232269630345,True,False
8,1970-07-23 10:00:00.037130126,2025-09-10,2025-09-26 16:00:03.713,AH,C,4010064972,JASSM,3,137,76,2,2,1,225,9,2,0,1,26,0,0,0,0,-155210.82458670562,-4778005.713838424,4212665.147917271,-2.71083,-1.01109,0.752034,36.625,-58.375,-64.375,0.0,0.0,0.0,0.0,0.0,0.0,2,0,41.57782930185572,-91.86056686455828,9999.993884298028,155.94362016907897,-0.0037325474754503,0.001079830160424,,9023.624474727972,10930.733041558857,150,8,2025-09-10,2025-09-26 16:00:03.699,AH,C,3289999046,HAWK11,1,1,73,2,1,1,225,2,1,0,0,12,1,225,2,1,-143990.92419608062,-4790718.669893111,4199122.526823521,2.66539,2.70153,-0.53814,-79.875,34.375,41.125,-0.359375,-7.29688,6.65625,0.203125,0.0292969,0.0292969,4,0,41.41286952494183,-91.72157662573008,10925.287883184488,-52.202021237571614,4.722855666279511,16.357087766098623,169.069,9023.624474727972,10930.733041558857,150,False,11.699534521587301,False,146.67303666789653,171.67309144597903,False,25.109992783180335,True,False
8,1970-07-23 10:00:00.048130576,2025-09-10,2025-09-26 16:00:04.813,AH,C,4011317766,JASSM,3,137,76,2,2,1,225,9,2,0,1,26,0,0,0,0,-155172.35095389312,-4778067.131807174,4212597.362761021,-2.71083,-1.01109,0.752034,36.625,-58.375,-64.375,0.0,0.0,0.0,0.0,0.0,0.0,2,0,41.57701381140522,-91.86008209831591,9999.998542942973,155.94394187529028,-0.0028400641423998,0.0010785473112817,,9023.624474727972,10930.733041558857,150,8,2025-09-10,2025-09-26 16:00:04.809,AH,C,3291390878,HAWK11,1,1,73,2,1,1,225,2,1,0,0,12,1,225,2,1,-144082.74255545562,-4790676.812471236,4199171.499479771,2.82866,2.63643,-0.572846,-77.0,36.5,43.0,-0.046875,-7.15625,6.90625,0.0683594,0.0175781,0.078125,4,0,41.41343267925816,-91.72268880064163,10935.41535581542,-48.51623858268693,4.028992620609067,24.025645593722608,168.446,9023.624474727972,10930.733041558857,150,False,11.591390733815958,False,149.04360797054548,171.75373742352394,False,22.8206092477219,True,False
8,1970-07-23 10:00:00.060772913,2025-09-10,2025-09-26 16:00:06.077,AH,C,4012630380,JASSM,3,137,76,2,2,1,225,9,2,0,1,26,0,0,0,0,-155132.04040701812,-4778131.481416549,4212526.339323521,-2.71083,-1.01109,0.752034,36.625,-58.375,-64.375,0.0,0.0,0.0,0.0,0.0,0.0,2,0,41.5761593749336,-91.8595742004026,10000.002909122672,155.944278926852,-0.0019049617734272,0.0010771996049216,,9023.624474727972,10930.733041558857,150,8,2025-09-10,2025-09-26 16:00:06.198,AH,C,3292742942,HAWK11,1,1,73,2,1,1,225,2,1,0,0,12,1,225,2,1,-144168.75427420562,-4790632.940400924,4199221.462370396,2.90085,2.5861,-0.594705,-73.875,39.25,45.25,-0.203125,-7.14062,7.03125,0.03125,0.0195312,0.0292969,4,0,41.41401553283,-91.7237323338267,10942.3138628832,-45.876645227600285,3.384881336454244,26.74295659318849,168.128,9023.624474727972,10930.733041558857,150,False,11.481374420039973,False,151.8727640513956,171.8180720628535,False,20.04969280944141,True,False
8,1970-07-23 10:00:00.070131250,2025-09-10,2025-09-26 16:00:07.013,AH,C,4014001994,JASSM,3,137,76,2,2,1,225,9,2,0,1,26,0,0,0,0,-155089.91638358062,-4778198.721650924,4212452.120573521,-2.71083,-1.01109,0.752034,36.625,-58.375,-64.375,0.0,0.0,0.0,0.0,0.0,0.0,2,0,41.57526652167405,-91.85904346933964,10000.002547162676,155.94463112488657,-0.0009278143870093,0.0010758002216058,,9023.624474727972,10930.733041558857,150,8,2025-09-10,2025-09-26 16:00:07.105,AH,C,3293935942,HAWK11,1,1,73,2,1,1,225,2,1,0,0,12,1,225,2,1,-144242.44372733062,-4790590.540986861,4199268.296354771,2.94917,2.54583,-0.60784,-70.625,42.75,47.125,-0.3125,-7.375,7.25,0.0507812,0.0253906,0.0410156,4,0,41.41457070467718,-91.72462811348188,10945.137076551484,-43.93270170291623,2.741391059428582,28.31023685703247,168.312,9023.624474727972,10930.733041558857,150,False,11.373801179513432,False,154.86918674179515,171.8581927747559,False,17.057834372369513,True,False
8,1970-07-23 10:00:00.081598163,2025-09-10,2025-09-26 16:00:08.159,AH,C,4015314346,JASSM,3,137,76,2,2,1,225,9,2,0,1,26,0,0,0,0,-155049.61364920562,-4778263.053682174,4212381.106901646,-2.71083,-1.01109,0.752034,36.625,-58.375,-64.375,0.0,0.0,0.0,0.0,0.0,0.0,2,0,41.574412249509145,-91.85853569921596,9999.997060404496,155.94496808001608,7.103183029237567e-06,0.0010744528272918,,9023.624474727972,10930.733041558857,150,8,2025-09-10,2025-09-26 16:00:08.011,AH,C,3295128940,HAWK11,1,1,73,2,1,1,225,2,1,0,0,12,1,225,2,1,-144311.67419608062,-4790546.439424361,4199316.755339146,3.01619,2.49559,-0.63852,-67.125,45.375,50.0,0.015625,-8.09375,8.10938,0.0488281,0.0410156,0.0644531,4,0,41.415147764034735,-91.7254712389968,10946.975434339556,-41.00686265555862,2.6592680576168144,30.60760587664205,169.204,9023.624474727972,10930.733041558857,150,False,11.268878914704622,False,158.021204480774,171.88722027111532,False,13.940976170338091,True,False
8,1970-07-23 10:00:00.092324130,2025-09-10,2025-09-26 16:00:09.232,AH,C,4016626696,JASSM,3,137,76,2,2,1,225,9,2,0,1,26,0,0,0,0,-155009.31091483062,-4778327.385713424,4212310.093229771,-2.71074,-1.01099,0.752034,36.625,-58.375,-64.375,0.0,0.0,0.0,0.0,0.0,0.0,2,0,41.57355797497442,-91.85802794247276,9999.997138653316,155.94165644467722,-0.0007347165994614,0.0028085393219106,,9023.624474727972,10930.733041558857,150,8,2025-09-10,2025-09-26 16:00:09.105,AH,C,3296441238,HAWK11,1,1,73,2,1,1,225,2,1,0,0,12,1,225,2,1,-144384.40075858062,-4790493.766572799,4199375.104948521,3.08397,2.43797,-0.664597,-62.625,48.375,53.75,-0.03125,-7.875,7.85938,0.015625,0.0253906,0.0449219,4,0,41.41584194323924,-91.72635924259816,10949.46438233083,-38.00837952245973,2.280784404231808,32.618063843832374,169.118,9023.624474727972,10930.733041558857,150,False,11.156931505806142,False,161.9590603840941,171.90639801533433,False,10.051619291299504,True,False
8,1970-07-23 10:00:00.103151728,2025-09-10,2025-09-26 16:00:10.315,AH,C,4017879488,JASSM,3,137,76,2,2,1,225,9,2,0,1,26,0,0,0,0,-154970.83630545562,-4778388.797822799,4212242.302214146,-2.71074,-1.01099,0.752034,36.625,-58.375,-64.375,0.0,0.0,0.0,0.0,0.0,0.0,2,0,41.572742468929896,-91.857543230682,10000.001151397924,155.9419780876541,0.0001577740985385,0.0028072042281315,,9023.624474727972,10930.733041558857,150,8,2025-09-10,2025-09-26 16:00:10.309,AH,C,3297753538,HAWK11,1,1,73,2,1,1,225,2,1,0,0,12,1,225,2,1,-144451.30310233062,-4790437.376924361,4199436.933073521,-3.14015,2.36722,-0.691921,-57.5,52.0,57.0,-0.234375,-7.98438,7.875,0.0136719,0.0390625,0.0664062,4,0,41.41658275301077,-91.72717900723646,10949.936451303667,-34.52092284236276,1.7705689124489643,33.58073367177104,169.473,9023.624474727972,10930.733041558857,150,False,11.0467524409784,False,166.15732851673644,171.90680788922884,False,5.849395163944974,True,False
8,1970-07-23 10:00:00.114775185,2025-09-10,2025-09-26 16:00:11.477,AH,C,4019251400,JASSM,3,137,76,2,2,1,225,9,2,0,1,26,0,0,0,0,-154928.70349295562,-4778456.047822799,4212168.061979771,-2.71074,-1.01099,0.75213,36.625,-58.375,-64.375,0.0,0.0,0.0,0.0,0.0,0.0,2,0,41.5718494045335,-91.85701244649027,10000.000539410805,155.94462356345923,-0.0038545699873679,0.0028056805841852,,9023.624474727972,10930.733041558857,150,8,2025-09-10,2025-09-26 16:00:11.511,AH,C,3299145368,HAWK11,1,1,73,2,1,1,225,2,1,0,0,12,1,225,2,1,-144515.58825858062,-4790373.440400924,4199506.315886021,-3.06719,2.29186,-0.718287,-51.75,55.375,60.625,-0.328125,-8.34375,8.35938,0.015625,0.046875,0.0527344,4,0,41.41741991939108,-91.72797023645894,10948.0575762768,-30.933077042067875,1.3003090144916476,35.05794005549142,169.961,9023.624474727972,10930.733041558857,150,False,10.927309690624764,False,170.62973808677754,171.88186815742856,False,1.4959707345459727,True,False
8,1970-07-23 10:00:00.125156487,2025-09-10,2025-09-26 16:00:12.515,AH,C,4020563736,JASSM,3,137,76,2,2,1,225,9,2,0,1,26,0,0,0,0,-154888.40075858062,-4778520.373994674,4212097.046354771,-2.71074,-1.01099,0.75213,36.625,-58.375,-64.375,0.0,0.0,0.0,0.0,0.0,0.0,2,0,41.5709951447134,-91.8565047321608,9999.998686527984,155.94496045898077,-0.00291967251346,0.0028043183318541,,9023.624474727972,10930.733041558857,150,8,2025-09-10,2025-09-26 16:00:12.698,AH,C,3300775800,HAWK11,1,1,73,2,1,1,225,2,1,0,0,12,1,225,2,1,-144580.96716483062,-4790295.041963424,4199592.097136021,-3.00171,2.1795,-0.76095,-43.75,58.75,64.625,-0.40625,-8.4375,8.21875,0.0,0.03125,0.0605469,4,0,41.41845360893355,-91.72877977233492,10946.294084607096,-25.589019076407286,1.1610006984369647,34.58197144649687,170.096,9023.624474727972,10930.733041558857,150,False,10.799959009509697,False,176.24523939508967,171.82881586910892,False,4.448402238495046,True,False
8,1970-07-23 10:00:00.136773396,2025-09-10,2025-09-26 16:00:13.677,AH,C,4021876100,JASSM,3,137,76,2,2,1,225,9,2,0,1,26,0,0,0,0,-154848.09704764312,-4778584.702119674,4212026.026823521,-2.71074,-1.01099,0.75213,36.625,-58.375,-64.375,0.0,0.0,0.0,0.0,0.0,0.0,2,0,41.570140844756025,-91.85599701875378,9999.998608532773,155.9452973482049,-0.0019847366138474,0.0028029491728116,,9023.624474727972,10930.733041558857,150,8,2025-09-10,2025-09-26 16:00:13.404,AH,C,3301491600,HAWK11,1,1,73,2,1,1,225,2,1,0,0,12,1,225,2,1,-144606.32458670562,-4790258.674775924,4199631.612761021,-2.97055,2.12897,-0.772839,-40.25,60.375,66.25,-0.21875,-8.25,8.5,-0.00390625,0.0429688,0.0507812,4,0,41.41893213966452,-91.72909591046226,10944.510520060025,-23.41475454693559,0.875643102993476,34.396882437031,170.352,9023.624474727972,10930.733041558857,150,False,10.71260191763604,False,178.66450470111934,171.76891074531918,False,6.895806619658152,True,False
8,1970-07-23 10:00:00.147151899,2025-09-10,2025-09-26 16:00:14.715,AH,C,4023188696,JASSM,3,137,76,2,2,1,225,9,2,0,1,26,0,0,0,0,-154807.78650076812,-4778649.040010299,4211954.995573521,-2.71074,-1.01099,0.75213,36.625,-58.375,-64.375,0.0,0.0,0.0,0.0,0.0,0.0,2,0,41.56928640656624,-91.8554892330586,10000.00199955843,155.94563427970797,-0.0010496503863043,0.0028015831399731,,9023.624474727972,10930.733041558857,150,8,2025-09-10,2025-09-26 16:00:14.699,AH,C,3303122032,HAWK11,1,1,73,2,1,1,225,2,1,0,0,12,1,225,2,1,-144656.07653983062,-4790172.825166549,4199724.962370396,-2.981,2.01134,-0.794698,-32.5,63.375,69.75,-0.15625,-7.51562,8.21875,-0.208984,0.00976562,0.0566406,4,0,41.420064045488935,-91.729721427081,10939.703673524748,-18.52419466769281,0.2277538400950345,29.084034487784937,170.792,9023.624474727972,10930.733041558857,150,False,10.584675527508963,False,176.17352407311458,171.65884829620776,False,12.146394656585537,True,False
8,1970-07-23 10:00:00.158151352,2025-09-10,2025-09-26 16:00:15.815,AH,C,4024500802,JASSM,3,137,76,2,2,1,225,9,2,0,1,26,0,0,0,0,-154767.49060233062,-4778713.352510299,4211883.987761021,-2.71074,-1.01099,0.75213,36.625,-58.375,-64.375,0.0,0.0,0.0,0.0,0.0,0.0,2,0,41.56843227251604,-91.85498164604176,10000.00085089055,155.9459710736974,-0.0001149004182545,0.0028002154248722,,9023.624474727972,10930.733041558857,150,8,2025-09-10,2025-09-26 16:00:15.701,AH,C,3304315030,HAWK11,1,1,73,2,1,1,225,2,1,0,0,12,1,225,2,1,-144686.67614920562,-4790107.205049361,4199795.524870396,-3.13594,1.9472,-0.800738,-28.625,65.125,71.75,-0.15625,-7.23438,7.95312,-0.132812,0.00195312,0.0253906,4,0,41.4209252304398,-91.730110785018,10933.76869192374,-15.981743455286871,-0.2606038956521163,17.575543309682587,172.21,9023.624474727972,10930.733041558857,150,False,10.476203449173736,False,173.60440984774456,171.54475455278893,False,14.826051657943959,True,False
8,1970-07-23 10:00:00.169151337,2025-09-10,2025-09-26 16:00:16.915,AH,C,4025813288,JASSM,3,137,76,2,2,1,225,9,2,0,1,26,0,0,0,0,-154727.18298514312,-4778777.682588424,4211812.958464146,-2.71074,-1.01099,0.75213,36.625,-58.375,-64.375,0.0,0.0,0.0,0.0,0.0,0.0,2,0,41.56757788879859,-91.8544739252228,10000.000691484054,155.9463079507813,0.0008201203943099,0.0027988474408407,,9023.624474727972,10930.733041558857,150,8,2025-09-10,2025-09-26 16:00:17.011,AH,C,3305945462,HAWK11,1,1,73,2,1,1,225,2,1,0,0,12,1,225,2,1,-144722.83825858062,-4790015.992158736,4199893.870573521,3.08426,1.92745,-0.803902,-25.125,66.75,73.75,-0.109375,-6.73438,7.29688,-0.0195312,0.00390625,0.00976562,4,0,41.42212520743816,-91.73057586896948,10925.624821354044,-15.17676101158892,-0.3137443698132491,13.148932338313148,173.554,9023.624474727972,10930.733041558857,150,False,10.348785168668835,False,171.32205463726115,171.3839101036359,False,17.270029858854034,True,False
8,1970-07-23 10:00:00.180149456,2025-09-10,2025-09-26 16:00:18.014,AH,C,4027125506,JASSM,3,137,76,2,2,1,225,9,2,0,1,26,0,0,0,0,-154686.88318045562,-4778841.998994674,4211741.942839146,-2.71074,-1.01099,0.752226,36.625,-58.375,-64.375,0.0,0.0,0.0,0.0,0.0,0.0,2,0,41.56672367485164,-91.85396631665182,10000.002937429012,155.94893944082708,-0.0032378576962212,0.0027974523530761,,9023.624474727972,10930.733041558857,150,8,2025-09-10,2025-09-26 16:00:18.011,AH,C,3307138460,HAWK11,1,1,73,2,1,1,225,2,1,0,0,12,1,225,2,1,-144746.61560233062,-4789946.906221236,4199968.095182896,-3.08963,1.87395,-0.828925,-22.625,67.625,75.375,-0.375,-8.3125,8.84375,0.0878906,0.0605469,0.0292969,4,0,41.42303295562415,-91.7308849714513,10918.622059317568,-12.773816784210537,0.5151103683582066,17.181344354048147,175.668,9023.624474727972,10930.733041558857,150,False,10.24000142648977,False,169.73705090415726,171.23895197370982,False,19.00839772801981,True,False
8,1970-07-23 10:00:00.191152019,2025-09-10,2025-09-26 16:00:19.115,AH,C,4028437856,JASSM,3,137,76,2,2,1,225,9,2,0,1,26,0,0,0,0,-154646.57946951812,-4778906.319307174,4211670.919401646,-2.71074,-1.01099,0.752226,36.625,-58.375,-64.375,0.0,0.0,0.0,0.0,0.0,0.0,2,0,41.56586938337552,-91.85345867315472,10000.00301486201,155.949276255354,-0.0023029405305165,0.0027961267470999,,9023.624474727972,10930.733041558857,150,8,2025-09-10,2025-09-26 16:00:19.204,AH,C,3308570060,HAWK11,1,1,73,2,1,1,225,2,1,0,0,12,1,225,2,1,-144770.59802420562,-4789866.105439986,4200060.145964146,-2.96739,1.79811,-0.860371,-17.75,67.125,78.5,-0.171875,-8.09375,8.6875,-0.00390625,0.00976562,0.0410156,4,0,41.42413067681359,-91.73120076513064,10921.528883691815,-9.565152108735033,1.6439847929891556,20.99554752831047,176.182,9023.624474727972,10930.733041558857,150,False,10.121537867908872,False,166.80095803989482,171.05660517058263,False,22.141719036934003,True,False
8,1970-07-23 10:00:00.202152636,2025-09-10,2025-09-26 16:00:20.215,AH,C,4029750208,JASSM,3,137,76,2,2,1,225,9,2,0,1,26,0,0,0,0,-154606.27575858062,-4778970.637666549,4211599.894011021,-2.71074,-1.01089,0.752226,36.625,-58.375,-64.375,0.0,0.0,0.0,0.0,0.0,0.0,2,0,41.56501508803575,-91.85295104378808,9999.999613945634,155.94596977508934,-0.0030426158640988,-0.0009571944036302,,9023.624474727972,10930.733041558857,150,8,2025-09-10,2025-09-26 16:00:20.403,AH,C,3309882358,HAWK11,1,1,73,2,1,1,225,2,1,0,0,12,1,225,2,1,-144786.97693045562,-4789790.351533736,4200147.210417271,-3.03383,1.72918,-0.866603,-13.625,67.375,80.125,-0.15625,-7.57812,8.07812,-0.126953,0.0195312,0.0429688,4,0,41.4251660808822,-91.73142387531227,10925.464379769011,-6.974520205522804,1.5712344426150155,14.258846502789195,176.609,9023.624474727972,10930.733041558857,150,False,10.008580976296521,False,164.425186106143,170.8615685413698,False,24.710769309278938,True,False
8,1970-07-23 10:00:00.213150078,2025-09-10,2025-09-26 16:00:21.315,AH,C,4031062558,JASSM,3,137,76,2,2,1,225,9,2,0,1,26,0,0,0,0,-154565.97204764312,-4779034.956025924,4211528.866667271,-2.71074,-1.01089,0.752226,36.625,-58.375,-64.375,0.0,0.0,0.0,0.0,0.0,0.0,2,0,41.56416077717631,-91.85244342779426,9999.997526667736,155.94630656004082,-0.0021076853619745,-0.0009585859871213,,9023.624474727972,10930.733041558857,150,8,2025-09-10,2025-09-26 16:00:21.309,AH,C,3311075356,HAWK11,1,1,73,2,1,1,225,2,1,0,0,12,1,225,2,1,-144798.82263358062,-4789722.729463424,4200227.128386021,-3.11331,1.70157,-0.895078,-11.0,66.875,81.75,-0.265625,-8.35938,8.90625,-0.0722656,0.0292969,0.0,4,0,41.42610567904224,-91.73158987663818,10933.551651156846,-5.762405238121692,3.058202614459943,8.533674975263294,177.501,9023.624474727972,10930.733041558857,150,True,9.901954520801718,False,162.8600889462466,170.66758187931555,False,26.460101764244392,True,False
8,1970-07-23 10:00:00.225170706,2025-09-10,2025-09-26 16:00:22.517,AH,C,4032315258,JASSM,3,137,76,2,2,1,225,9,2,0,1,26,0,0,0,0,-154527.50036795562,-4779096.350557174,4211461.067839146,-2.71074,-1.01089,0.752226,36.625,-58.375,-64.375,0.0,0.0,0.0,0.0,0.0,0.0,2,0,41.56334529800039,-91.85195889836388,10000.000075787537,155.9466280225841,-0.0012152532080551,-0.0009599141256595,,9023.624474727972,10930.733041558857,150,8,2025-09-10,2025-09-26 16:00:22.605,AH,C,3312506954,HAWK11,1,1,73,2,1,1,225,2,1,0,0,12,1,225,2,1,-144810.40857108062,-4789642.058564986,4200325.173307896,3.08579,1.69179,-0.891339,-9.25,66.5,82.875,0.1875,-6.375,6.85938,-0.105469,-0.00976562,0.015625,4,0,41.427245300373386,-91.73175749312756,10948.89074007896,-5.438237990310811,2.805581265180677,3.296250038945453,177.294,9023.624474727972,10930.733041558857,150,True,9.787901431892726,False,161.81262649153487,170.43296691513316,False,27.732123725111165,True,False
8,1970-07-23 10:00:00.234470813,2025-09-10,2025-09-26 16:00:23.447,AH,C,4033567966,JASSM,3,137,76,2,2,1,225,9,2,0,1,26,0,0,0,0,-154489.02868826812,-4779157.743135299,4211393.269011021,-2.71074,-1.01089,0.752226,36.625,-58.375,-64.375,0.0,0.0,0.0,0.0,0.0,0.0,2,0,41.56252982832238,-91.85147438187347,10000.002903528017,155.94694947136182,-0.0003228318013498,-0.0009612380493949,,9023.624474727972,10930.733041558857,150,8,2025-09-10,2025-09-26 16:00:23.605,AH,C,3313739720,HAWK11,1,1,73,2,1,1,225,2,1,0,0,12,1,225,2,1,-144819.43005545562,-4789571.933564986,4200410.577604771,3.05262,1.67357,-0.89805,-8.625,66.875,83.125,-0.09375,-6.71875,7.25,-0.015625,0.00390625,0.0078125,4,0,41.42823732030921,-91.73189065459398,10962.536567452316,-4.747120089932395,3.119460209653933,0.6172300576047105,177.966,9023.624474727972,10930.733041558857,150,True,9.682241735887136,False,161.47751141392408,170.21441980217998,False,28.289411152979113,True,False
8,1970-07-23 10:00:00.245132070,2025-09-10,2025-09-26 16:00:24.513,AH,C,4034880414,JASSM,3,137,76,2,2,1,225,9,2,0,1,26,0,0,0,0,-154448.72204764312,-4779222.061494674,4211322.233854771,-2.71074,-1.01089,0.752226,36.625,-58.375,-64.375,0.0,0.0,0.0,0.0,0.0,0.0,2,0,41.56167545853278,-91.85096676969356,9999.999768750517,155.94728623724217,0.0006121573285529,-0.0009626269316311,,9023.624474727972,10930.733041558857,150,8,2025-09-10,2025-09-26 16:00:24.511,AH,C,3314654352,HAWK11,1,1,73,2,1,1,225,2,1,0,0,12,1,225,2,1,-144825.30700858062,-4789520.651338424,4200472.835417271,3.03163,1.67827,-0.900447,-8.25,67.0,83.25,-0.078125,-6.57812,7.15625,-0.03125,0.0117188,0.00390625,4,0,41.42896157367178,-91.73197942718213,10972.036059517635,-4.900111577655869,3.27378225986894,-0.383575735958765,178.222,9023.624474727972,10930.733041558857,150,True,9.588659450537378,False,161.27488031800388,170.03237200415418,False,28.675162369260306,True,False
8,1970-07-23 10:00:00.256133664,2025-09-10,2025-09-26 16:00:25.613,AH,C,4036133144,JASSM,3,137,76,2,2,1,225,9,2,0,1,26,0,0,0,0,-154410.24939139312,-4779283.454072799,4211254.429167271,-2.71064,-1.01089,0.752322,36.625,-58.375,-64.375,0.0,0.0,0.0,0.0,0.0,0.0,2,0,41.56085994516994,-91.85048226645456,10000.00014882975,155.9499012611513,-0.0034849396651228,0.0045274735481297,,9023.624474727972,10930.733041558857,150,8,2025-09-10,2025-09-26 16:00:25.702,AH,C,3316324550,HAWK11,1,1,73,2,1,1,225,2,1,0,0,12,1,225,2,1,-144836.82849295562,-4789425.510713424,4200588.429167271,3.02098,1.67098,-0.893352,-8.375,67.75,83.25,-0.015625,-5.98438,6.45312,0.0351562,-0.0136719,-0.00195312,4,0,41.43030573381871,-91.73215151683311,10989.911925786691,-4.681500027982867,2.844545525519957,-1.3078522755343664,178.479,9023.624474727972,10930.733041558857,150,True,9.464786226192441,False,161.37149737233136,169.74155050132416,False,28.876410035357896,True,False
8,1970-07-23 10:00:00.268039813,2025-09-10,2025-09-26 16:00:26.803,AH,C,4037505010,JASSM,3,137,76,2,2,1,225,9,2,0,1,26,0,0,0,0,-154368.11755545562,-4779350.682588424,4211180.177214146,-2.71064,-1.01089,0.752322,36.625,-58.375,-64.375,0.0,0.0,0.0,0.0,0.0,0.0,2,0,41.55996689545824,-91.84995169674816,10000.002312147328,155.9502532461494,-0.0025076236304949,0.0045260656024295,,9023.624474727972,10930.733041558857,150,8,2025-09-10,2025-09-26 16:00:26.605,AH,C,3317159650,HAWK11,1,1,73,2,1,1,225,2,1,0,0,12,1,225,2,1,-144842.42419608062,-4789377.513643111,4200645.884245396,3.04409,1.66974,-0.883285,-8.25,68.625,82.75,-0.15625,-5.45312,5.95312,0.015625,-0.0078125,-0.00195312,4,0,41.43097807650848,-91.732235745894,10997.05063285846,-4.692769528943311,2.26679136106142,-0.0399051900739537,178.736,9023.624474727972,10930.733041558857,150,True,9.371649607426091,False,161.37341082089597,169.5576575912309,False,29.066512339380353,True,False
8,1970-07-23 10:00:00.278130342,2025-09-10,2025-09-26 16:00:27.813,AH,C,4038757708,JASSM,3,137,76,2,2,1,225,9,2,0,1,26,0,0,0,0,-154329.64587576812,-4779412.069307174,4211112.372526646,-2.71064,-1.01089,0.752322,36.625,-58.375,-64.375,0.0,0.0,0.0,0.0,0.0,0.0,2,0,41.55915141235136,-91.8494672329928,9999.999016790012,155.95057463859467,-0.0016151982355925,0.0045247739446281,,9023.624474727972,10930.733041558857,150,8,2025-09-10,2025-09-26 16:00:27.808,AH,C,3318710548,HAWK11,1,1,73,2,1,1,225,2,1,0,0,12,1,225,2,1,-144852.83435233062,-4789285.945283736,4200751.847136021,3.05789,1.65814,-0.869,-8.0,70.75,81.75,-0.125,-5.54688,6.04688,0.00585938,-0.0078125,0.0,4,0,41.432236189167554,-91.73239327131324,11002.735179766996,-4.344599957149075,1.4137989506531077,0.2516486159382003,179.787,9023.624474727972,10930.733041558857,150,True,9.252804102377624,False,161.33443816865352,169.26955989802576,False,29.390708928014952,True,False
8,1970-07-23 10:00:00.291240509,2025-09-10,2025-09-26 16:00:29.124,AH,C,4040070058,JASSM,3,137,76,2,2,1,225,9,2,0,1,26,0,0,0,0,-154289.34118826812,-4779476.379854049,4211041.339323521,-2.71064,-1.01089,0.752322,36.625,-58.375,-64.375,0.0,0.0,0.0,0.0,0.0,0.0,2,0,41.55829709259323,-91.8489597000955,10000.0031267735,155.95091132951444,-0.0006802707926335,0.004523428565687,,9023.624474727972,10930.733041558857,150,8,2025-09-10,2025-09-26 16:00:29.403,AH,C,3320738646,HAWK11,1,1,73,2,1,1,225,2,1,0,0,12,1,225,2,1,-144866.43396170562,-4789162.498018111,4200889.638151646,3.05857,1.65267,-0.86181,-7.75,72.75,81.375,-0.09375,-6.34375,6.76562,-0.0078125,0.0,-0.00390625,4,0,41.43389822800492,-91.73260045093345,10999.39202469348,-4.177855493161404,0.9875616417305504,0.0552407088814665,181.607,9023.624474727972,10930.733041558857,150,True,9.110553652316732,False,161.20385293673783,168.89597620559766,False,29.87273184335877,True,False
8,1970-07-23 10:00:00.299130548,2025-09-10,2025-09-26 16:00:29.913,AH,C,4041322758,JASSM,3,137,76,2,2,1,225,9,2,0,1,26,0,0,0,0,-154250.86950858062,-4779537.764619674,4210973.532682896,-2.71064,-1.01089,0.752322,36.625,-58.375,-64.375,0.0,0.0,0.0,0.0,0.0,0.0,2,0,41.5574816035713,-91.8484752620352,10000.001170882975,155.95123269430812,0.0002121560002044,0.0045221357424211,,9023.624474727972,10930.733041558857,150,8,2025-09-10,2025-09-26 16:00:29.809,AH,C,3321176080,HAWK11,1,1,73,2,1,1,225,2,1,0,0,12,1,225,2,1,-144869.26403983062,-4789136.021455611,4200918.767057896,3.05732,1.64893,-0.86133,-7.75,73.125,81.5,-0.03125,-6.46875,6.875,-0.00390625,0.0,0.0078125,4,0,41.43425185114227,-91.73264385096196,10997.750174141627,-4.041085882053747,0.9490325460850126,-0.1764331202310718,182.316,9023.624474727972,10930.733041558857,150,True,9.03955774651023,False,161.19297015064416,168.76359229605737,False,30.012444745629615,False,False
8,1970-07-23 10:00:00.309111498,2025-09-10,2025-09-26 16:00:30.911,AH,C,4042456152,JASSM,3,137,76,2,2,1,225,9,2,0,1,26,0,0,0,0,-154216.06091483062,-4779593.301729049,4210912.183073521,-2.71064,-1.0108,0.752322,36.625,-58.375,-64.375,0.0,0.0,0.0,0.0,0.0,0.0,2,0,41.556743782350665,-91.84803696142164,9999.998429793995,155.94788060524303,-0.0006550937546663,0.0007684440070199,,9023.624474727972,10930.733041558857,150,8,2025-09-10,2025-09-26 16:00:30.809,AH,C,3322329312,HAWK11,1,1,73,2,1,1,225,2,1,0,0,12,1,225,2,1,-144876.83630545562,-4789064.115205611,4200997.597136021,3.06374,1.63877,-0.861522,-7.625,73.875,81.625,-0.1875,-6.70312,7.10938,0.0,0.00390625,-0.00585938,4,0,41.43521037158366,-91.7327603610276,10992.679846263623,-3.662130911359714,0.9316249327269952,-0.2439667600458332,183.257,9023.624474727972,10930.733041558857,150,True,8.942092773151595,False,161.10861868111454,168.51885271138764,False,30.33227551099008,False,False
8,1970-07-23 10:00:00.318091321,2025-09-10,2025-09-26 16:00:31.809,AH,C,4043589548,JASSM,3,137,76,2,2,1,225,9,2,0,1,26,0,0,0,0,-154181.25329764312,-4779648.838838424,4210850.833464146,-2.71064,-1.0108,0.752418,36.625,-58.375,-64.375,0.0,0.0,0.0,0.0,0.0,0.0,2,0,41.55600595917646,-91.84759868247173,9999.999916793531,155.95046668906244,-0.004840174294352,0.0007671294562847,,9023.624474727972,10930.733041558857,150,8,2025-09-10,2025-09-26 16:00:31.900,AH,C,3323721144,HAWK11,1,1,73,2,1,1,225,2,1,0,0,12,1,225,2,1,-144885.95935233062,-4788978.068330611,4201092.327604771,3.06882,1.63446,-0.870726,-7.75,74.125,82.375,-0.171875,-7.0625,7.42188,0.0253906,0.0,0.00390625,4,0,41.43636006399242,-91.73290052492392,10987.489268272026,-3.4645408568542515,1.4472412680535485,-0.1370045396660094,184.809,9023.624474727972,10930.733041558857,150,True,8.834853817708426,False,161.14600646970777,168.23101593273438,False,30.589667751711154,False,False
8,1970-07-23 10:00:00.329110431,2025-09-10,2025-09-26 16:00:32.911,AH,C,4044842504,JASSM,3,137,76,2,2,1,225,9,2,0,1,26,0,0,0,0,-154142.77282889312,-4779710.233369674,4210783.009245396,-2.71064,-1.0108,0.752418,36.625,-58.375,-64.375,0.0,0.0,0.0,0.0,0.0,0.0,2,0,41.55519028914049,-91.84711416960847,9999.997219096,155.95078808907525,-0.0039475541619563,0.0007658187924688,,9023.624474727972,10930.733041558857,150,8,2025-09-10,2025-09-26 16:00:32.699,AH,C,3324635776,HAWK11,1,1,73,2,1,1,225,2,1,0,0,12,1,225,2,1,-144891.89489920562,-4788921.041963424,4201155.581511021,3.08407,1.63005,-0.87389,-7.625,74.125,83.125,-0.03125,-6.9375,7.29688,0.00976562,0.00195312,0.0136719,4,0,41.437125215108914,-91.73299209701996,10985.071881340527,-3.289978298248059,1.617694790208322,0.5475922860495867,185.457,9023.624474727972,10930.733041558857,150,True,8.742812473373558,False,161.05756645157112,168.00602128529667,False,30.912217039813903,False,False
8,1970-07-23 10:00:00.339113442,2025-09-10,2025-09-26 16:00:33.911,AH,C,4046035292,JASSM,3,137,76,2,2,1,225,9,2,0,1,26,0,0,0,0,-154106.14099295562,-4779768.678682174,4210718.442839146,-2.71064,-1.0108,0.752418,36.625,-58.375,-64.375,0.0,0.0,0.0,0.0,0.0,0.0,2,0,41.55441379772332,-91.84665294436688,9999.998787320434,155.9510940365066,-0.0030978116720449,0.0007645691695006,,9023.624474727972,10930.733041558857,150,8,2025-09-10,2025-09-26 16:00:34.199,AH,C,3326465040,HAWK11,1,1,73,2,1,1,225,2,1,0,0,12,1,225,2,1,-144903.53552420562,-4788806.858369674,4201283.440886021,3.0904,1.61634,-0.884436,-7.375,74.125,84.125,-0.078125,-7.09375,7.375,0.00390625,0.0,-0.00585938,4,0,41.43866545605562,-91.73317254013448,10982.844196582811,-2.752347616328156,2.1913011326362524,0.32304086392665,186.581,9023.624474727972,10930.733041558857,150,True,8.61353112721493,False,160.8935695127289,167.61905627733427,False,31.473046576023837,False,False
8,1970-07-23 10:00:00.349994234,2025-09-10,2025-09-26 16:00:34.999,AH,C,4047168686,JASSM,3,137,76,2,2,1,225,9,2,0,1,26,0,0,0,0,-154071.33239920562,-4779824.213838424,4210657.089323521,-2.71064,-1.0108,0.752418,36.625,-58.375,-64.375,0.0,0.0,0.0,0.0,0.0,0.0,2,0,41.55367595450954,-91.84621468595604,10000.000011053282,155.95138474485483,-0.0022903648793513,0.0007633823981622,,9023.624474727972,10930.733041558857,150,8,2025-09-10,2025-09-26 16:00:35.010,AH,C,3327379672,HAWK11,1,1,73,2,1,1,225,2,1,0,0,12,1,225,2,1,-144908.97497733062,-4788749.942354049,4201347.933073521,3.09471,1.61241,-0.889805,-7.25,73.875,84.75,-0.203125,-7.125,7.4375,0.00585938,0.00195312,0.0,4,0,41.43943839333889,-91.73325814863618,10983.361247743838,-2.5932061279888616,2.491350011542957,0.402154276491219,187.192,9023.624474727972,10930.733041558857,150,True,8.526635677405467,False,160.8054962726576,167.38559183806504,False,31.80119897106637,False,False
8,1970-07-23 10:00:00.358211157,2025-09-10,2025-09-26 16:00:35.821,AH,C,4048302240,JASSM,3,137,76,2,2,1,225,9,2,0,1,26,0,0,0,0,-154036.51989920562,-4779879.754854049,4210595.727995396,-2.71064,-1.0108,0.752418,36.625,-58.25,-64.5,0.0,0.0,0.0,0.0,0.0,0.0,2,0,41.55293802270808,-91.84577638847676,10000.002453535422,155.95167547487748,-0.0014828237424686,0.0007621937411749,,9023.624474727972,10930.733041558857,150,8,2025-09-10,2025-09-26 16:00:35.699,AH,C,3328254538,HAWK11,1,1,73,2,1,1,225,2,1,0,0,12,1,225,2,1,-144914.29138358062,-4788694.997041549,4201410.690886021,3.10094,1.60541,-0.892297,-7.125,73.875,85.25,-0.125,-7.14062,7.39062,0.00585938,0.00195312,0.00585938,4,0,41.44018791991568,-91.7333415753889,10984.95164801396,-2.3339418132696523,2.6218117820774665,0.4589294348818875,187.546,9023.624474727972,10930.733041558857,150,True,8.441063037969776,False,160.72932251965366,167.13884366254248,False,32.12234260178403,False,False
8,1970-07-23 10:00:00.370041469,2025-09-10,2025-09-26 16:00:37.004,AH,C,4049495126,JASSM,3,137,76,2,2,1,225,9,2,0,1,26,0,0,0,0,-153999.88415701812,-4779938.200166549,4210531.153776646,-2.71064,-1.0108,0.752418,36.625,-58.25,-64.5,0.0,0.0,0.0,0.0,0.0,0.0,2,0,41.55216147375722,-91.84531514848116,10000.000045892324,155.9519814184734,-0.000633019293181,0.0007609548990132,,9023.624474727972,10930.733041558857,150,8,2025-09-10,2025-09-26 16:00:37.308,AH,C,3330044036,HAWK11,1,1,73,2,1,1,225,2,1,0,0,12,1,225,2,1,-144924.95349295562,-4788583.502900924,4201539.341276646,3.11513,1.59371,-0.899296,-6.75,73.75,86.125,-0.0625,-7.17188,7.4375,0.00585938,0.00390625,0.0195312,4,0,41.44171766079994,-91.73350936496674,10991.010506139288,-1.8974000578839416,3.005413189540268,0.770222377241786,188.231,9023.624474727972,10930.733041558857,150,True,8.313523774153532,False,160.5005992079028,166.72351843703046,False,32.77193116783814,False,False
8,1970-07-23 10:00:00.378111506,2025-09-10,2025-09-26 16:00:37.811,AH,C,4050688172,JASSM,3,137,76,2,2,1,225,9,2,0,1,26,0,0,0,0,-153963.24353201812,-4779996.655244674,4210466.567839146,-2.71064,-1.0108,0.752418,36.625,-58.25,-64.5,0.0,0.0,0.0,0.0,0.0,0.0,2,0,41.55138478660211,-91.84485385729154,10000.000313012024,155.9522873913292,0.0002169286732685,0.0007597030497291,,9023.624474727972,10930.733041558857,150,8,2025-09-10,2025-09-26 16:00:37.900,AH,C,3330759836,HAWK11,1,1,73,2,1,1,225,2,1,0,0,12,1,225,2,1,-144928.65075858062,-4788539.024385299,4201591.226042271,3.13114,1.58499,-0.901693,-6.5,73.75,86.625,0.09375,-7.07812,7.45312,0.0136719,0.0136719,0.0078125,4,0,41.442331814101074,-91.7335696549066,10994.610926624917,-1.5816319805913488,3.131889969895883,1.3127841136155391,188.585,9023.624474727972,10930.733041558857,150,True,8.232961661246073,False,160.35165598755646,166.50185847458312,False,33.14430792701524,False,False
8,1970-07-23 10:00:00.388127644,2025-09-10,2025-09-26 16:00:38.812,AH,C,4051881204,JASSM,3,137,76,2,2,1,225,9,2,0,1,26,0,0,0,0,-153926.60388358062,-4780055.106416549,4210401.983854771,-2.71064,-1.0108,0.752418,36.625,-58.25,-64.5,0.0,0.0,0.0,0.0,0.0,0.0,2,0,41.55060813376311,-91.84439259034444,9999.99992096432,155.95259334340727,0.0010668396059118,0.000758456942779,,9023.624474727972,10930.733041558857,150,8,2025-09-10,2025-09-26 16:00:38.808,AH,C,3331873302,HAWK11,1,1,73,2,1,1,225,2,1,0,0,12,1,225,2,1,-144934.35974295562,-4788470.485322799,4201671.769011021,-3.13852,1.57751,-0.905432,-6.125,73.375,87.375,-0.09375,-7.10938,7.45312,0.0136719,-0.00585938,-0.00390625,4,0,41.44328217805417,-91.73366270049856,11001.44851750362,-1.3096910857021369,3.3388716396636684,1.7661334303347271,189.025,9023.624474727972,10930.733041558857,150,True,8.135652920351886,False,160.1208633691831,166.19712942393036,False,33.68194778547652,False,False
8,1970-07-23 10:00:00.397148715,2025-09-10,2025-09-26 16:00:39.714,AH,C,4053014614,JASSM,3,137,76,2,2,1,225,9,2,0,1,26,0,0,0,0,-153891.79528983062,-4780110.637666549,4210340.624479771,-2.71064,-1.0108,0.752513,36.625,-58.25,-64.5,0.0,0.0,0.0,0.0,0.0,0.0,2,0,41.54987026528988,-91.84395438484697,10000.000217753122,155.95517791764286,-0.0031151059193982,0.0007572376390563,,9023.624474727972,10930.733041558857,150,8,2025-09-10,2025-09-26 16:00:39.698,AH,C,3332907234,HAWK11,1,1,73,2,1,1,225,2,1,0,0,12,1,225,2,1,-144939.11169608062,-4788406.116182174,4201748.237761021,-3.11695,1.56092,-0.909938,-5.625,73.25,87.75,-0.171875,-7.20312,7.5625,0.0078125,0.0078125,0.00390625,4,0,41.44418040306781,-91.73374279895114,11009.623756613615,-0.7182537487068962,3.5852908005234725,2.288924288503402,189.807,9023.624474727972,10930.733041558857,150,True,8.043871708776178,False,159.84962939414538,165.8997876171717,False,34.25052805120476,False,False
8,1970-07-23 10:00:00.407150408,2025-09-10,2025-09-26 16:00:40.715,AH,C,4054207660,JASSM,3,137,76,2,2,1,225,9,2,0,1,26,0,0,0,0,-153855.15466483062,-4780169.086885299,4210276.038542271,-2.71064,-1.0108,0.752513,36.625,-58.25,-64.5,0.0,0.0,0.0,0.0,0.0,0.0,2,0,41.549093607323535,-91.84349312849064,9999.99967367189,155.9554838536421,-0.0022651901768154,0.0007560324674568,,9023.624474727972,10930.733041558857,150,8,2025-09-10,2025-09-26 16:00:40.808,AH,C,3334338832,HAWK11,1,1,73,2,1,1,225,2,1,0,0,12,1,225,2,1,-144945.27380545562,-4788318.010713424,4201854.110807896,-3.09346,1.54443,-0.909267,-4.875,73.0,88.5,-0.09375,-6.76562,7.0625,-0.00976562,-0.0195312,0.0214844,4,0,41.44541804827457,-91.73384834721394,11023.415933860451,-0.1373989189458409,3.542787540506532,2.925212534004091,190.198,9023.624474727972,10930.733041558857,150,True,7.933157388964153,False,159.43077389540215,165.5059423576809,False,35.061843995953666,False,False
8,1970-07-23 10:00:00.419155906,2025-09-10,2025-09-26 16:00:41.915,AH,C,4055341054,JASSM,3,137,76,2,2,1,225,9,2,0,1,26,0,0,0,0,-153820.34607108062,-4780224.614229049,4210214.679167271,-2.71064,-1.0108,0.752513,36.625,-58.25,-64.5,0.0,0.0,0.0,0.0,0.0,0.0,2,0,41.54835575853244,-91.84305494495293,9999.998904548527,155.9557744818578,-0.00145775003523,0.0007548787648945,,9023.624474727972,10930.733041558857,150,8,2025-09-10,2025-09-26 16:00:41.720,AH,C,3334935332,HAWK11,1,1,73,2,1,1,225,2,1,0,0,12,1,225,2,1,-144947.35778983062,-4788281.151338424,4201898.347136021,-3.10679,1.53657,-0.898242,-4.5,73.375,88.375,-0.171875,-6.01562,6.32812,-0.0449219,-0.0214844,0.00390625,4,0,41.44593553280181,-91.73388659971975,11029.030054031422,0.1417049529324217,2.9116010085368007,1.8235138209023407,190.479,9023.624474727972,10930.733041558857,150,True,7.860912549114066,False,159.26296781947852,165.28643466615196,False,35.45031077893223,False,False
8,1970-07-23 10:00:00.426129278,2025-09-10,2025-09-26 16:00:42.612,AH,C,4056474450,JASSM,3,137,76,2,2,1,225,9,2,0,1,26,0,0,0,0,-153785.53747733062,-4780280.141572799,4210153.319792271,-2.71054,-1.0107,0.752513,36.625,-58.25,-64.5,0.0,0.0,0.0,0.0,0.0,0.0,2,0,41.54761790797681,-91.84261677137938,10000.002286285404,155.95242302026386,-0.0023249316985391,0.0024920040683161,,9023.624474727972,10930.733041558857,150,8,2025-09-10,2025-09-26 16:00:42.807,AH,C,3336685062,HAWK11,1,1,73,2,1,1,225,2,1,0,0,12,1,225,2,1,-144953.30896170562,-4788171.809541549,4202027.505339146,-3.13191,1.52123,-0.888271,-4.0,74.625,88.125,-0.09375,-6.26562,6.54688,-0.015625,-0.0078125,0.00195312,4,0,41.447456725718624,-91.73399731742236,11041.18804817585,0.6981524914142945,2.3466750382378456,-0.2748529130012307,190.98,9023.624474727972,10930.733041558857,150,True,7.739893173822263,False,159.05746023167373,164.8018734246022,False,36.138847116148916,False,False
8,1970-07-23 10:00:00.438801479,2025-09-10,2025-09-26 16:00:43.880,AH,C,4057667494,JASSM,3,137,76,2,2,1,225,9,2,0,1,26,0,0,0,0,-153748.89685233062,-4780338.588838424,4210088.729948521,-2.71054,-1.0107,0.752513,36.625,-58.25,-64.5,0.0,0.0,0.0,0.0,0.0,0.0,2,0,41.54684122968305,-91.84215554779271,10000.001786570328,155.9527289209441,-0.0014750025448378,0.0024907383336319,,9023.624474727972,10930.733041558857,150,8,2025-09-10,2025-09-26 16:00:43.900,AH,C,3337957594,HAWK11,1,1,73,2,1,1,225,2,1,0,0,12,1,225,2,1,-144957.55310233062,-4788091.778291549,4202120.630339146,3.0693,1.52008,-0.883381,-4.125,75.5,88.125,-0.15625,-6.39062,6.71875,-0.164062,-0.0136719,-0.00195312,4,0,41.44856064603814,-91.73407702306396,11047.024509961817,0.744012001616966,2.0682771764758145,-5.020707161043815,191.53,9023.624474727972,10930.733041558857,150,True,7.637190085527128,False,159.1339461374072,164.40891757952474,False,36.45135753809387,False,False
8,1970-07-23 10:00:00.446148878,2025-09-10,2025-09-26 16:00:44.614,AH,C,4058800888,JASSM,3,137,76,2,2,1,225,9,2,0,1,26,0,0,0,0,-153714.08923514312,-4780394.112275924,4210027.368620396,-2.71054,-1.0107,0.752513,36.625,-58.25,-64.5,0.0,0.0,0.0,0.0,0.0,0.0,2,0,41.546103385466985,-91.8417174078672,9999.99992898506,155.9530195073284,-0.0006675752826624,0.0024895282970366,,9023.624474727972,10930.733041558857,150,8,2025-09-10,2025-09-26 16:00:44.606,AH,C,3338832460,HAWK11,1,1,73,2,1,1,225,2,1,0,0,12,1,225,2,1,-144960.99255545562,-4788036.006807174,4202185.022917271,2.94706,1.51423,-0.877054,-5.0,76.25,87.875,-0.046875,-6.17188,6.40625,-0.144531,-0.0078125,0.00195312,4,0,41.44932645241216,-91.73413832976344,11050.03859649595,0.963856709527033,1.710293740042928,-12.275494718401184,192.276,9023.624474727972,10930.733041558857,150,False,7.553419156814784,False,159.57980482224588,164.10462192370522,False,36.303305602390886,False,False
8,1970-07-23 10:00:00.455129049,2025-09-10,2025-09-26 16:00:45.512,AH,C,4059874656,JASSM,3,137,76,2,2,1,225,9,2,0,1,26,0,0,0,0,-153681.11169608062,-4780446.715791549,4209969.233854771,-2.71054,-1.0107,0.752513,36.625,-58.25,-64.5,0.0,0.0,0.0,0.0,0.0,0.0,2,0,41.54540433971105,-91.8413023134478,10000.00116388889,155.9532948053914,9.73940088269968e-05,0.0024883843362195,,9023.624474727972,10930.733041558857,150,8,2025-09-10,2025-09-26 16:00:45.400,AH,C,3339747094,HAWK11,1,1,73,2,1,1,225,2,1,0,0,12,1,225,2,1,-144965.32653983062,-4787977.373994674,4202252.044401646,2.88206,1.53782,-0.873986,-6.375,76.875,87.625,-0.125,-6.32812,6.59375,-0.0195312,0.00585938,-0.0292969,4,0,41.45012686714445,-91.73421136831224,11051.799425906043,0.0997884087751114,1.5259138985095384,-14.986529548949434,193.009,9023.624474727972,10930.733041558857,150,False,7.4703826768258095,False,160.26296603789248,163.79194716842983,False,35.92547366727558,False,False
8,1970-07-23 10:00:00.464129410,2025-09-10,2025-09-26 16:00:46.412,AH,C,4061008026,JASSM,3,137,76,2,2,1,225,9,2,0,1,26,0,0,0,0,-153646.30310233062,-4780502.237275924,4209907.872526646,-2.71054,-1.0107,0.752609,36.625,-58.25,-64.5,0.0,0.0,0.0,0.0,0.0,0.0,2,0,41.54466650389799,-91.84086418198194,10000.002519021336,155.9558810550946,-0.0040875453098914,0.0024871228096091,,9023.624474727972,10930.733041558857,150,8,2025-09-10,2025-09-26 16:00:46.605,AH,C,3341178692,HAWK11,1,1,73,2,1,1,225,2,1,0,0,12,1,225,2,1,-144974.54528983062,-4787884.493135299,4202356.735807896,2.83441,1.59112,-0.868137,-9.125,77.875,87.5,-0.125,-6.71875,6.92188,0.0234375,0.00585938,-0.00585938,4,0,41.451384418304905,-91.73435520811223,11051.562197707268,-1.8733836904965544,1.2275102379012326,-15.427216653283644,193.742,9023.624474727972,10930.733041558857,150,False,7.362198637051002,False,161.59877421936,163.34744829191104,False,35.021997149962004,False,False
8,1970-07-23 10:00:00.473127463,2025-09-10,2025-09-26 16:00:47.312,AH,C,4062081768,JASSM,3,137,76,2,2,1,225,9,2,0,1,26,0,0,0,0,-153613.32653983062,-4780554.836885299,4209849.737761021,-2.71054,-1.0107,0.752609,36.625,-58.25,-64.5,0.0,0.0,0.0,0.0,0.0,0.0,2,0,41.54396747800253,-91.84044911913723,10000.001902050664,155.9561563244925,-0.0033226009150847,0.0024860098691357,,9023.624474727972,10930.733041558857,150,8,2025-09-10,2025-09-26 16:00:47.308,AH,C,3342053558,HAWK11,1,1,73,2,1,1,225,2,1,0,0,12,1,225,2,1,-144982.03943045562,-4787827.123994674,4202420.888151646,2.84879,1.60474,-0.867658,-10.875,78.5,87.5,-0.078125,-6.79688,7.0625,0.0332031,0.00390625,-0.00585938,4,0,41.4521573856053,-91.73446557696371,11050.443253912596,-2.3785186948149755,1.2225313557404602,-14.018836996172112,194.317,9023.624474727972,10930.733041558857,150,False,7.279867508346428,False,162.4333319150395,163.03670154847018,False,34.48948692884184,False,False
8,1970-07-23 10:00:00.483108876,2025-09-10,2025-09-26 16:00:48.310,AH,C,4063274810,JASSM,3,137,76,2,2,1,225,9,2,0,1,26,0,0,0,0,-153576.68591483062,-4780613.278291549,4209785.144011021,-2.71054,-1.0107,0.752609,36.625,-58.25,-64.5,0.0,0.0,0.0,0.0,0.0,0.0,2,0,41.54319079916423,-91.83998794968592,10000.000138819863,155.95646216729796,-0.0024726797512713,0.0024847800879579,,9023.624474727972,10930.733041558857,150,8,2025-09-10,2025-09-26 16:00:48.394,AH,C,3341616124,HAWK11,1,1,73,2,1,1,225,2,1,0,0,12,1,225,2,1,-144978.20349295562,-4787855.344697799,4202389.401823521,2.84314,1.59764,-0.867466,-10.125,78.25,87.5,-0.078125,-6.78125,6.98438,0.0292969,0.00585938,-0.0136719,4,0,41.45177765863932,-91.73440949765276,11051.136559651764,-2.116317053569674,1.1992274383013133,-14.647489400931578,195.319,9023.624474727972,10930.733041558857,150,False,7.249989800783887,False,162.0765426437549,163.02158968612483,False,34.86482909880241,False,False
8,1970-07-23 10:00:00.492127008,2025-09-10,2025-09-26 16:00:49.212,AH,C,4064348554,JASSM,3,137,76,2,2,1,225,9,2,0,1,26,0,0,0,0,-153543.70935233062,-4780665.875947799,4209727.007292271,-2.71054,-1.0107,0.752609,36.625,-58.25,-64.5,0.0,0.0,0.0,0.0,0.0,0.0,2,0,41.54249176842149,-91.83957290646592,9999.998343402214,155.95673741564863,-0.0017077340143716,0.002483665991442,,9023.624474727972,10930.733041558857,150,8,2025-09-10,2025-09-26 16:00:49.198,AH,C,3344280488,HAWK11,1,1,73,2,1,1,225,2,1,0,0,12,1,225,2,1,-145006.48474295562,-4787681.118135299,4202583.298307896,2.81246,1.66188,-0.874753,-15.0,78.75,87.625,-0.265625,-6.95312,7.1875,0.0136719,0.0117188,-0.00585938,4,0,41.45411784211235,-91.73481071633516,11046.146797760635,-4.454061968891053,1.776345521585834,-13.649723425783224,196.15,9023.624474727972,10930.733041558857,150,False,7.088688254352267,False,164.4041280074152,162.28220989186013,False,33.274548961253046,False,False
8,1970-07-23 10:00:00.502126209,2025-09-10,2025-09-26 16:00:50.212,AH,C,4065481948,JASSM,3,137,76,2,2,1,225,9,2,0,1,26,0,0,0,0,-153508.90075858062,-4780721.395479049,4209665.640104771,-2.71054,-1.0107,0.752609,36.625,-58.25,-64.5,0.0,0.0,0.0,0.0,0.0,0.0,2,0,41.54175389782916,-91.83913481507092,9999.998540758275,155.95702794495963,-0.000900288393709,0.0024824886692429,,9023.624474727972,10930.733041558857,150,8,2025-09-10,2025-09-26 16:00:50.306,AH,C,3345592786,HAWK11,1,1,73,2,1,1,225,2,1,0,0,12,1,225,2,1,-145024.57068045562,-4787595.184541549,4202678.942839146,2.81994,1.70646,-0.877437,-17.375,78.625,87.625,0.078125,-7.0,7.25,0.0410156,0.00390625,-0.0234375,4,0,41.45527140358895,-91.7350580817455,11044.026628233223,-6.064278410806775,2.1059396746878654,-11.313244392207544,197.225,9023.624474727972,10930.733041558857,150,False,6.9836009572120705,False,165.54308835476385,161.8529665949131,False,32.5696018656411,False,False
8,1970-07-23 10:00:00.511129294,2025-09-10,2025-09-26 16:00:51.112,AH,C,4066615344,JASSM,3,137,76,2,2,1,225,9,2,0,1,26,0,0,0,0,-153474.09216483062,-4780776.913057174,4209604.272917271,-2.71054,-1.0107,0.752609,36.625,-58.25,-64.5,0.0,0.0,0.0,0.0,0.0,0.0,2,0,41.541016037123455,-91.83869673438667,9999.998095303128,155.95731846292833,-9.285353779344492e-05,0.0024813155649195,,9023.624474727972,10930.733041558857,150,8,2025-09-10,2025-09-26 16:00:51.104,AH,C,3346586952,HAWK11,1,1,73,2,1,1,225,2,1,0,0,12,1,225,2,1,-145039.92224295562,-4787529.413057174,4202752.114714146,2.84218,1.72372,-0.883669,-18.875,78.375,87.75,-0.109375,-7.20312,7.34375,0.0683594,0.00585938,0.00585938,4,0,41.45615382223814,-91.73526545819902,11042.45235161708,-6.642573832184711,2.5428589172385325,-9.29977921524752,198.203,9023.624474727972,10930.733041558857,150,True,6.89214045833017,False,166.25955253124036,161.49079882560463,False,32.22346610937233,False,False
8,1970-07-23 10:00:00.520088835,2025-09-10,2025-09-26 16:00:52.008,AH,C,4067689086,JASSM,3,137,76,2,2,1,225,9,2,0,1,26,0,0,0,0,-153441.11560233062,-4780829.508760299,4209546.136198521,-2.71054,-1.0107,0.752609,36.625,-58.25,-64.5,0.0,0.0,0.0,0.0,0.0,0.0,2,0,41.540317013106346,-91.83828171972796,10000.003096361905,155.95759368050105,0.0006720816203301,0.0024802056584243,,9023.624474727972,10930.733041558857,150,8,2025-09-10,2025-09-26 16:00:52.104,AH,C,3347779952,HAWK11,1,1,73,2,1,1,225,2,1,0,0,12,1,225,2,1,-145059.67419608062,-4787451.719697799,4202839.050261021,2.90517,1.73953,-0.890955,-20.25,78.25,88.0,-0.1875,-7.23438,7.375,0.0585938,0.00976562,-0.0078125,4,0,41.45719927233942,-91.7355297745598,11041.806666685146,-7.150369499126468,3.0387135129,-5.0126155256492,198.948,9023.624474727972,10930.733041558857,150,True,6.794456637410325,False,166.89921727871533,161.0856511452925,False,31.996104941792364,False,False
8,1970-07-23 10:00:00.531998843,2025-09-10,2025-09-26 16:00:53.199,AH,C,4068942254,JASSM,3,137,76,2,2,1,225,9,2,0,1,26,0,0,0,0,-153402.62829764312,-4780890.891572799,4209478.280729771,-2.71054,-1.0107,0.752609,36.625,-58.25,-64.5,0.0,0.0,0.0,0.0,0.0,0.0,2,0,41.5395011623347,-91.83779736375745,10000.00067929864,155.95791487705378,0.0015648549709231,0.0024789055066211,,9023.624474727972,10930.733041558857,150,8,2025-09-10,2025-09-26 16:00:53.199,AH,C,3349092250,HAWK11,1,1,73,2,1,1,225,2,1,0,0,12,1,225,2,1,-145082.80505545562,-4787365.223604049,4202936.634245396,2.93997,1.74068,-0.896804,-21.0,77.625,88.625,-0.1875,-7.4375,7.48438,0.0175781,0.00195312,0.0117188,4,0,41.45836835187157,-91.7358376912157,11042.915872457002,-7.141512860925424,3.3773977801238155,-2.9666357133492154,199.694,9023.624474727972,10930.733041558857,150,True,6.68314065861649,False,167.2282844115593,160.61550296975676,False,32.151494703478555,False,False
