Subject_cm,Timestamp,SampleDate_cm,SampleTime_cm,Configuration_cm,Scenario_cm,DisTime_cm,MarkingTxt_cm,Application_cm,EntId_cm,Site_cm,ExerciseId_cm,ForceId_cm,Category_cm,Country_cm,Domain_cm,Kind_cm,Extra_cm,Specific_cm,Subcategory_cm,AltCategory_cm,AltCountry_cm,AltDomain_cm,AltKind_cm,ECEF_X_cm,ECEF_Y_cm,ECEF_Z_cm,OriPhi_cm,OriPsi_cm,OriTheta_cm,LinVelX_cm,LinVelY_cm,LinVelZ_cm,LinAccX_cm,LinAccY_cm,LinAccZ_cm,AngVelX_cm,AngVelY_cm,AngVelZ_cm,DrAlg_cm,Appearance_cm,Latitude_cm,Longitude_cm,Altitude_cm,Heading_cm,Pitch_cm,Roll_cm,CalibratedAirspeed_cm,CM_Altitude_Lead_cm,CM_Altitude_Wing_cm,CM_Airspeed_cm,Subject_ac,SampleDate_ac,SampleTime_ac,Configuration_ac,Scenario_ac,DisTime_ac,MarkingTxt_ac,Application_ac,EntId_ac,Site_ac,ExerciseId_ac,ForceId_ac,Category_ac,Country_ac,Domain_ac,Kind_ac,Extra_ac,Specific_ac,Subcategory_ac,AltCategory_ac,AltCountry_ac,AltDomain_ac,AltKind_ac,ECEF_X_ac,ECEF_Y_ac,ECEF_Z_ac,OriPhi_ac,OriPsi_ac,OriTheta_ac,LinVelX_ac,LinVelY_ac,LinVelZ_ac,LinAccX_ac,LinAccY_ac,LinAccZ_ac,AngVelX_ac,AngVelY_ac,AngVelZ_ac,DrAlg_ac,Appearance_ac,Latitude_ac,Longitude_ac,Altitude_ac,Heading_ac,Pitch_ac,Roll_ac,CalibratedAirspeed_ac,CM_Altitude_Lead_ac,CM_Altitude_Wing_ac,CM_Airspeed_ac,Bank_Angle_Condition,distance_nm,Distance_Condition,angle_between_vel,angle_between_pos,Cone_Condition,angle_between_pos_nose,Nose_Cone_Condition,Intercept_Criteria
8,1970-07-23 09:59:47.318340015,2025-09-10,2025-09-26 15:38:51.834,HA,C,2492509830,JASSM,3,114,76,2,2,1,225,9,2,0,1,26,0,0,0,0,-163245.38513358062,-4785328.764619674,4204098.233854771,-2.36559,-0.397301,0.382249,71.625,-29.875,-31.125,0.0,0.0,0.0,0.0,0.0,0.0,2,0,41.47484679530307,-91.95381473381732,10000.001182252568,119.8535178278698,-0.0038755028584315,0.0050455851861855,,9225.216264497592,11151.327114366952,150,8,2025-09-10,2025-09-26 15:38:51.941,HA,C,2450018602,AMBUSH51,1,1,48,2,1,1,225,2,1,0,0,9,1,225,2,1,-140504.35456527886,-4794851.101196534,4193766.152737799,2.39127,2.65407,-0.461919,-87.0692,48.458,51.1199,-0.254901,-7.18716,6.3782,0.00495078,0.00550629,-0.000229906,4,0,41.35274030364489,-91.6784678678694,9221.226181757018,-53.40319927557181,-0.1611299362273065,-0.6744549456278948,195.148,9225.216264497592,11151.327114366952,150,True,14.383840200483835,False,172.08737634923628,179.11339121184758,False,7.276532883530443,True,False
8,1970-07-23 09:59:47.327062581,2025-09-10,2025-09-26 15:38:52.706,HA,C,2493643596,JASSM,3,114,76,2,2,1,225,9,2,0,1,26,0,0,0,0,-163177.35583670562,-4785357.317354049,4204068.573698521,-2.36559,-0.397301,0.382249,71.625,-29.875,-31.125,0.0,0.0,0.0,0.0,0.0,0.0,2,0,41.47449053591652,-91.95298950677146,10000.000018698192,119.85406436662196,-0.0031619102159343,0.0050443846455824,,9225.216264497592,11151.327114366952,150,8,2025-09-10,2025-09-26 15:38:52.674,HA,C,2450893468,AMBUSH51,1,1,48,2,1,1,225,2,1,0,0,9,1,225,2,1,-140568.34341594097,-4794815.502330039,4193803.130239691,2.39102,2.65533,-0.461934,-87.1848,48.491,50.9176,-0.368548,-7.479,6.78653,-3.22492e-05,-0.00235835,-0.00451177,4,0,41.35319056656989,-91.67924430264934,9218.362623572397,-53.450875988786834,-0.1162700905256498,-0.6564654625248254,195.343,9225.216264497592,11151.327114366952,150,True,14.29728883709601,False,172.17543628711977,179.12504430777778,False,7.215823959686407,True,False
8,1970-07-23 09:59:47.336338685,2025-09-10,2025-09-26 15:38:53.633,HA,C,2494776618,JASSM,3,114,76,2,2,1,225,9,2,0,1,26,0,0,0,0,-163109.37048514312,-4785385.852510299,4204038.931120396,-2.36559,-0.397301,0.382249,71.625,-29.875,-31.125,0.0,0.0,0.0,0.0,0.0,0.0,2,0,41.4741344849035,-91.95216482147792,10000.000793489546,119.85461054272238,-0.0024487703859119,0.0050431712614926,,9225.216264497592,11151.327114366952,150,8,2025-09-10,2025-09-26 15:38:53.714,HA,C,2452126234,AMBUSH51,1,1,48,2,1,1,225,2,1,0,0,9,1,225,2,1,-140658.12733700045,-4794765.416552437,4193855.209622225,2.39123,2.65435,-0.462036,-87.3632,48.3187,51.069,-0.0358265,-7.18673,6.45951,-0.00102469,0.00113705,0.00445976,4,0,41.35382446179139,-91.680333798579,9214.4388161836,-53.41062377301992,-0.1446360877268723,-0.6694034918550907,195.306,9225.216264497592,11151.327114366952,150,True,14.193044397789569,False,172.23367702247376,179.1424090277971,False,7.177702805820651,True,False
8,1970-07-23 09:59:47.348767061,2025-09-10,2025-09-26 15:38:54.876,HA,C,2495850360,JASSM,3,114,76,2,2,1,225,9,2,0,1,26,0,0,0,0,-163044.94275076812,-4785412.891572799,4204010.841276646,-2.36559,-0.397301,0.382249,71.625,-29.875,-31.125,0.0,0.0,0.0,0.0,0.0,0.0,2,0,41.47379708791819,-91.95138330078365,10000.00086078127,119.85512812802926,-0.0017729630571373,0.0050420448925152,,9225.216264497592,11151.327114366952,150,8,2025-09-10,2025-09-26 15:38:54.841,HA,C,2453478298,AMBUSH51,1,1,48,2,1,1,225,2,1,0,0,9,1,225,2,1,-140757.9015532338,-4794710.008679174,4193912.935026664,2.38957,2.65614,-0.462194,-87.5296,48.1689,51.1063,-0.122342,-7.41984,6.57514,-0.00379396,0.00170089,0.000506625,4,0,41.35452638138794,-91.68154446049432,9210.38150390113,-53.47313170868436,-0.0749793847427607,-0.7186135017526881,195.502,9225.216264497592,11151.327114366952,150,True,14.084274655198797,False,172.31487727909374,179.1613211184432,False,7.124091906808861,True,False
8,1970-07-23 09:59:47.355572303,2025-09-10,2025-09-26 15:38:55.557,HA,C,2496983896,JASSM,3,114,76,2,2,1,225,9,2,0,1,26,0,0,0,0,-162976.92663748687,-4785441.436494674,4203981.185026646,-2.36559,-0.397301,0.382249,71.625,-29.875,-31.125,0.0,0.0,0.0,0.0,0.0,0.0,2,0,41.47344088122637,-91.95055826121056,9999.999667625016,119.8556745312512,-0.0010595097534242,0.0050408451666238,,9225.216264497592,11151.327114366952,150,8,2025-09-10,2025-09-26 15:38:55.509,HA,C,2454273632,AMBUSH51,1,1,48,2,1,1,225,2,1,0,0,9,1,225,2,1,-140816.35345476354,-4794677.598735308,4193946.8718797257,2.38663,2.65656,-0.461173,-87.6244,48.3636,50.9486,-0.0996039,-7.12884,6.62802,0.000720926,0.00329462,-0.0015927,4,0,41.35493809363805,-91.68225371145216,9208.390036044397,-53.52897416110975,-0.1029927292094302,-0.8761718440053872,195.722,9225.216264497592,11151.327114366952,150,True,14.001513849314993,False,172.34108737984178,179.17130125869514,False,7.128112848346071,True,False
8,1970-07-23 09:59:47.364080759,2025-09-10,2025-09-26 15:38:56.408,HA,C,2498117148,JASSM,3,114,76,2,2,1,225,9,2,0,1,26,0,0,0,0,-162908.92810233062,-4785469.973604049,4203951.536589146,-2.36559,-0.397205,0.382249,71.625,-29.875,-31.125,0.0,0.0,0.0,0.0,0.0,0.0,2,0,41.47308476424752,-91.94973344406831,10000.00097372858,119.85258290161424,-0.0039158980786172,0.0029907843716159,,9225.216264497592,11151.327114366952,150,8,2025-09-10,2025-09-26 15:38:56.274,HA,C,2455188264,AMBUSH51,1,1,48,2,1,1,225,2,1,0,0,9,1,225,2,1,-140883.6329563361,-4794640.555283428,4193985.656878856,2.3823,2.65728,-0.461364,-87.7379,48.0973,51.0071,-0.0720404,-7.4409,6.49019,0.000814553,-0.00215862,0.00168424,4,0,41.35540855432574,-91.68306999545484,9206.143532831804,-53.5492931360458,-0.0693096916502664,-1.106117695326948,195.722,9225.216264497592,11151.327114366952,150,True,13.912830329632262,False,172.4298611327984,179.18240464074887,False,7.051114628616334,True,False
8,1970-07-23 09:59:47.373060337,2025-09-10,2025-09-26 15:38:57.306,HA,C,2499190890,JASSM,3,114,76,2,2,1,225,9,2,0,1,26,0,0,0,0,-162844.49987967435,-4785497.012666549,4203923.442839146,-2.36559,-0.397205,0.382249,71.625,-29.875,-31.125,0.0,0.0,0.0,0.0,0.0,0.0,2,0,41.47274732444089,-91.94895194275148,10000.00157921966,119.85310046339252,-0.0032400738426179,0.0029895944402927,,9225.216264497592,11151.327114366952,150,8,2025-09-10,2025-09-26 15:38:57.442,HA,C,2456580096,AMBUSH51,1,1,48,2,1,1,225,2,1,0,0,9,1,225,2,1,-140985.7563089083,-4794584.53651124,4194044.510631296,2.37511,2.65737,-0.458968,-88.0191,47.9552,50.9583,-0.260602,-7.50738,6.51613,-0.00192559,0.00268709,0.00374195,4,0,41.35612128890989,-91.68430897976997,9203.217471344447,-53.646324344376765,-0.1662459016668713,-1.5152388550708058,195.771,9225.216264497592,11151.327114366952,150,True,13.802642067708163,False,172.5708141375757,179.20005083684754,False,6.941250719597926,True,False
8,1970-07-23 09:59:47.383079145,2025-09-10,2025-09-26 15:38:58.307,HA,C,2500324286,JASSM,3,114,76,2,2,1,225,9,2,0,1,26,0,0,0,0,-162776.49206717435,-4785525.551729049,4203893.788542271,-2.36559,-0.397205,0.382345,71.625,-29.875,-31.125,0.0,0.0,0.0,0.0,0.0,0.0,2,0,41.472391146636376,-91.94812703145172,10000.000499502654,119.85749416455124,-0.0064474979090102,0.0029880503520029,,9225.216264497592,11151.327114366952,150,8,2025-09-10,2025-09-26 15:38:58.207,HA,C,2457494728,AMBUSH51,1,1,48,2,1,1,225,2,1,0,0,9,1,225,2,1,-141053.2913317347,-4794547.593622848,4194083.373090297,2.37454,2.6575,-0.458263,-88.1642,47.7949,50.9778,-0.185297,-7.11964,6.42476,0.00361087,-0.00280152,-0.00100181,4,0,41.35659161600039,-91.6851283093385,9201.414512324967,-53.6790668319359,-0.1907612359356501,-1.5449456466489069,195.844,9225.216264497592,11151.327114366952,150,True,13.713842873224518,False,172.6519373924945,179.21032581392734,False,6.876504444246057,True,False
8,1970-07-23 09:59:47.394738558,2025-09-10,2025-09-26 15:38:59.473,HA,C,2501696286,JASSM,3,114,76,2,2,1,225,9,2,0,1,26,0,0,0,0,-162694.16736014312,-4785560.098604049,4203857.890104771,-2.36559,-0.397205,0.382345,71.625,-29.875,-31.125,0.0,0.0,0.0,0.0,0.0,0.0,2,0,41.47195997080169,-91.94712847331922,10000.00011493792,119.8581554660742,-0.005583953278309,0.0029865968324021,,9225.216264497592,11151.327114366952,150,8,2025-09-10,2025-09-26 15:38:59.641,HA,C,2459204692,AMBUSH51,1,1,48,2,1,1,225,2,1,0,0,9,1,225,2,1,-141180.41358736338,-4794478.678885567,4194155.38138468,2.37372,2.65958,-0.457649,-88.5907,47.8471,50.5351,-0.178837,-7.51413,6.71264,-0.00326549,0.00382517,0.00473439,4,0,41.35746547607663,-91.68667035969462,9197.087674743005,-53.782718630350615,-0.1431558617822191,-1.538505335271119,195.844,9225.216264497592,11151.327114366952,150,True,13.575769536413988,False,172.90726171318383,179.22818866365435,False,6.67830283932961,True,False
8,1970-07-23 09:59:47.405089942,2025-09-10,2025-09-26 15:39:00.508,HA,C,2502948988,JASSM,3,114,76,2,2,1,225,9,2,0,1,26,0,0,0,0,-162619.00134451812,-4785591.639619674,4203825.112761021,-2.36559,-0.397205,0.382345,71.625,-29.875,-31.125,0.0,0.0,0.0,0.0,0.0,0.0,2,0,41.47156628810144,-91.94621675886488,9999.998432809796,119.85875924987778,-0.0047955036400908,0.0029852755365095,,9225.216264497592,11151.327114366952,150,8,2025-09-10,2025-09-26 15:39:00.407,HA,C,2460119324,AMBUSH51,1,1,48,2,1,1,225,2,1,0,0,9,1,225,2,1,-141248.39685081027,-4794441.952192002,4194193.9035932375,2.37428,2.66181,-0.457882,-88.7386,47.5253,50.6295,-0.270734,-7.44366,6.67823,0.00433284,0.00780743,-0.00551046,4,0,41.35793212431967,-91.6874949995468,9195.122760748423,-53.85848699107201,-0.0553659019959871,-1.4501641340437794,195.954,9225.216264497592,11151.327114366952,150,True,13.48238146132348,False,173.00869761079858,179.23618968306295,False,6.584219333282509,True,False
8,1970-07-23 09:59:47.416040344,2025-09-10,2025-09-26 15:39:01.604,HA,C,2504261456,JASSM,3,114,76,2,2,1,225,9,2,0,1,26,0,0,0,0,-162540.24890311187,-4785624.684541549,4203790.770964146,-2.36559,-0.397205,0.382345,71.625,-29.875,-31.125,0.0,0.0,0.0,0.0,0.0,0.0,2,0,41.47115381616812,-91.94526155566815,9999.99725091008,119.85939182908945,-0.0039694358422935,0.0029838931638584,,9225.216264497592,11151.327114366952,150,8,2025-09-10,2025-09-26 15:39:01.540,HA,C,2461471390,AMBUSH51,1,1,48,2,1,1,225,2,1,0,0,9,1,225,2,1,-141349.71758082154,-4794387.478636527,4194251.219459243,2.37117,2.66536,-0.456558,-88.9531,47.2624,50.6222,-0.0475688,-7.43015,6.53548,0.00409357,0.0033508,0.00587456,4,0,41.358625377918834,-91.6887239538101,9192.639204950032,-54.04529782094554,0.0135956367910512,-1.538522892582623,196.04,9225.216264497592,11151.327114366952,150,True,13.36418471310965,False,173.14465073227242,179.24841167562994,False,6.471729691998165,True,False
8,1970-07-23 09:59:47.427060138,2025-09-10,2025-09-26 15:39:02.706,HA,C,2505573686,JASSM,3,114,76,2,2,1,225,9,2,0,1,26,0,0,0,0,-162461.51013358062,-4785657.723604049,4203756.435026646,-2.36559,-0.397205,0.382345,71.625,-29.875,-31.125,0.0,0.0,0.0,0.0,0.0,0.0,2,0,41.4707414079216,-91.94430653045646,9999.999898225136,119.86002428526024,-0.003143511446849,0.002982511011553,,9225.216264497592,11151.327114366952,150,8,2025-09-10,2025-09-26 15:39:02.641,HA,C,2462783688,AMBUSH51,1,1,48,2,1,1,225,2,1,0,0,9,1,225,2,1,-141447.27903903218,-4794335.553212469,4194306.209961895,2.37503,2.66761,-0.457736,-89.2022,47.0921,50.5426,-0.193791,-7.59971,6.78416,0.00590577,0.00414142,-0.00723943,4,0,41.35928842188335,-91.68990714983047,9191.122092093412,-54.08529633898639,0.1425166571703328,-1.260574215055143,196.076,9225.216264497592,11151.327114366952,150,True,13.248690908641896,False,173.28970967091206,179.25911216963405,False,6.353907205278122,True,False
8,1970-07-23 09:59:47.439540958,2025-09-10,2025-09-26 15:39:03.954,HA,C,2506886040,JASSM,3,114,76,2,2,1,225,9,2,0,1,26,0,0,0,0,-162382.76452811187,-4785690.764619674,4203722.093229771,-2.36559,-0.397205,0.382345,71.625,-29.875,-31.125,0.0,0.0,0.0,0.0,0.0,0.0,2,0,41.47032894195283,-91.94335143481004,9999.99839643077,119.86065678290493,-0.0023175085788171,0.0029811164607917,,9225.216264497592,11151.327114366952,150,8,2025-09-10,2025-09-26 15:39:04.041,HA,C,2464453888,AMBUSH51,1,1,48,2,1,1,225,2,1,0,0,9,1,225,2,1,-141572.21274496368,-4794269.688763164,4194376.393082179,2.37382,2.67333,-0.458524,-89.3458,46.6817,50.5039,-0.187517,-7.43993,6.61988,-0.00182988,0.00473856,-0.00668599,4,0,41.36013214051486,-91.69142212163796,9190.228879445242,-54.27152767539305,0.3765718469931424,-1.185587784274471,196.076,9225.216264497592,11151.327114366952,150,True,13.114848505041786,False,173.44698208331857,179.27221477696332,False,6.221498761700555,True,False
8,1970-07-23 09:59:47.449080807,2025-09-10,2025-09-26 15:39:04.908,HA,C,2508198382,JASSM,3,114,76,2,2,1,225,9,2,0,1,26,0,0,0,0,-162304.01941092435,-4785723.803682174,4203687.753386021,-2.36559,-0.397205,0.382345,71.625,-29.875,-31.125,0.0,0.0,0.0,0.0,0.0,0.0,2,0,41.46991649273007,-91.94239635790257,10000.000733576902,119.8612892629676,-0.0014915222615201,0.0029797408270294,,9225.216264497592,11151.327114366952,150,8,2025-09-10,2025-09-26 15:39:04.841,HA,C,2465408286,AMBUSH51,1,1,48,2,1,1,225,2,1,0,0,9,1,225,2,1,-141644.44041316997,-4794231.982084569,4194416.923754199,2.37658,2.67413,-0.458028,-89.467,46.3377,50.6297,-0.327507,-7.57024,6.77239,0.0030824,-0.00631356,-0.0067921,4,0,41.36061740262245,-91.6922978560811,9190.536771755797,-54.32175992841884,0.3846333787713232,-1.0076996225907575,196.076,9225.216264497592,11151.327114366952,150,True,13.01667262186498,False,173.52394421104432,179.27817530339874,False,6.148783307876231,True,False
8,1970-07-23 09:59:47.459081465,2025-09-10,2025-09-26 15:39:05.908,HA,C,2509451088,JASSM,3,114,76,2,2,1,225,9,2,0,1,26,0,0,0,0,-162228.85241873687,-4785755.340791549,4203654.970182896,-2.36559,-0.397109,0.382345,71.625,-29.875,-31.125,0.0,0.0,0.0,0.0,0.0,0.0,2,0,41.46952275633781,-91.94148469061564,9999.997230966695,119.85825537804924,-0.0042727064567319,0.0009290788226146,,9225.216264497592,11151.327114366952,150,8,2025-09-10,2025-09-26 15:39:05.941,HA,C,2466720584,AMBUSH51,1,1,48,2,1,1,225,2,1,0,0,9,1,225,2,1,-141742.37240248563,-4794181.287060071,4194471.609272832,2.37527,2.67788,-0.458358,-89.5562,46.1122,50.4647,-0.151991,-7.73054,6.56031,-0.00269957,0.00180075,0.00686284,4,0,41.36127097012442,-91.6934851148489,9191.437523839331,-54.45079382845177,0.5305765830343318,-0.9885572500637,196.04,9225.216264497592,11151.327114366952,150,True,12.903561395020906,False,173.65810273026293,179.286362104127,False,6.0406650053504825,True,False
8,1970-07-23 09:59:47.474762139,2025-09-10,2025-09-26 15:39:07.476,HA,C,2510703788,JASSM,3,114,76,2,2,1,225,9,2,0,1,26,0,0,0,0,-162153.68591483062,-4785786.877900924,4203622.188932896,-2.36559,-0.397109,0.382345,71.625,-29.875,-31.125,0.0,0.0,0.0,0.0,0.0,0.0,2,0,41.46912902576566,-91.94057304019964,10000.00197918422,119.85885909035912,-0.0034842523238682,0.0009277062808218,,9225.216264497592,11151.327114366952,150,8,2025-09-10,2025-09-26 15:39:07.440,HA,C,2468510082,AMBUSH51,1,1,48,2,1,1,225,2,1,0,0,9,1,225,2,1,-141876.57915410688,-4794112.219175454,4194546.804196727,2.37846,2.68232,-0.459424,-89.5491,45.6976,50.4857,-0.254915,-7.57801,6.65784,0.00575597,0.00318643,0.00104966,4,0,41.36216590867789,-91.69511203871276,9194.230865383968,-54.5771877791233,0.7323037306923831,-0.6948769774638968,195.966,9225.216264497592,11151.327114366952,150,True,12.766085443052146,False,173.74105329748653,179.29780760386566,False,5.981376232117317,True,False
8,1970-07-23 09:59:47.481058953,2025-09-10,2025-09-26 15:39:08.105,HA,C,2512016512,JASSM,3,114,76,2,2,1,225,9,2,0,1,26,0,0,0,0,-162074.91784842435,-4785819.922822799,4203587.835417271,-2.36559,-0.397109,0.382345,71.625,-29.875,-31.125,0.0,0.0,0.0,0.0,0.0,0.0,2,0,41.468716430922186,-91.93961772170792,9999.999763846406,119.85949171544486,-0.0026580250697796,0.0009262751631446,,9225.216264497592,11151.327114366952,150,8,2025-09-10,2025-09-26 15:39:08.174,HA,C,2469384948,AMBUSH51,1,1,48,2,1,1,225,2,1,0,0,9,1,225,2,1,-141942.2423492581,-4794078.589756568,4194583.68236794,2.38054,2.68325,-0.459739,-89.5396,45.6549,50.4161,-0.199577,-7.39829,6.62414,-0.00470735,0.000142521,0.00297213,4,0,41.36260338663429,-91.69590800035836,9196.194936873808,-54.60013530259504,0.7786712231244639,-0.5520775544844793,195.856,9225.216264497592,11151.327114366952,150,True,12.672442867551005,False,173.77145035409458,179.3015792660167,False,5.97187888078714,True,False
8,1970-07-23 09:59:47.492337580,2025-09-10,2025-09-26 15:39:09.233,HA,C,2513388142,JASSM,3,114,76,2,2,1,225,9,2,0,1,26,0,0,0,0,-161992.61511404935,-4785854.452119674,4203551.938932896,-2.36559,-0.397109,0.382441,71.625,-29.875,-31.125,0.0,0.0,0.0,0.0,0.0,0.0,2,0,41.4682852943924,-91.93861954622538,10000.002809821315,119.86400025087788,-0.0057153615420008,0.000924512036043,,9225.216264497592,11151.327114366952,150,8,2025-09-10,2025-09-26 15:39:09.307,HA,C,2470737014,AMBUSH51,1,1,48,2,1,1,225,2,1,0,0,9,1,225,2,1,-142045.01133170264,-4794026.597810747,4194640.969382286,2.38068,2.68356,-0.460436,-89.6343,45.1049,50.6449,-0.212852,-7.51695,6.67782,0.00553126,9.67477e-05,-0.000987242,4,0,41.3632813473273,-91.6971535482962,9199.920244054065,-54.58555099559938,0.8200686592650763,-0.5360502589592292,195.746,9225.216264497592,11151.327114366952,150,True,12.551853802271715,False,173.83391359616093,179.307863497261,False,5.908782019311677,True,False
8,1970-07-23 09:59:47.503061167,2025-09-10,2025-09-26 15:39:10.306,HA,C,2514640842,JASSM,3,114,76,2,2,1,225,9,2,0,1,26,0,0,0,0,-161917.44861014312,-4785885.985322799,4203519.153776646,-2.36559,-0.397109,0.382441,71.625,-29.875,-31.125,0.0,0.0,0.0,0.0,0.0,0.0,2,0,41.46789153795382,-91.93770793206176,10000.001940333275,119.8646039244574,-0.004926906645511,0.0009231890843325,,9225.216264497592,11151.327114366952,150,8,2025-09-10,2025-09-26 15:39:10.407,HA,C,2472049312,AMBUSH51,1,1,48,2,1,1,225,2,1,0,0,9,1,225,2,1,-142143.6880613137,-4793976.8285407815,4194696.21792604,2.38041,2.68711,-0.462438,-89.6147,44.8476,50.6508,-0.132886,-7.44922,6.62401,0.0041331,0.00760145,-0.0068462,4,0,41.36393303225666,-91.69834946858218,9204.40640255397,-54.64081211654208,1.029317469755589,-0.4620045843059914,195.404,9225.216264497592,11151.327114366952,150,True,12.438474826755769,False,173.8758211170072,179.31353886776685,False,5.885791059813388,True,False
8,1970-07-23 09:59:47.514058454,2025-09-10,2025-09-26 15:39:11.405,HA,C,2515953194,JASSM,3,114,76,2,2,1,225,9,2,0,1,26,0,0,0,0,-161838.70251639312,-4785919.018525924,4203484.806120396,-2.36559,-0.397109,0.382441,71.625,-29.875,-31.125,0.0,0.0,0.0,0.0,0.0,0.0,2,0,41.46747902411437,-91.93675291739063,9999.998550963714,119.8652363329258,-0.0041009051686759,0.0009218044925189,,9225.216264497592,11151.327114366952,150,8,2025-09-10,2025-09-26 15:39:11.441,HA,C,2473282078,AMBUSH51,1,1,48,2,1,1,225,2,1,0,0,9,1,225,2,1,-142236.3212764808,-4793930.426324038,4194747.96142488,2.37886,2.68736,-0.464648,-89.5627,44.6944,50.4745,-0.321675,-7.51921,6.67664,-0.0015282,0.00135759,-0.00843369,4,0,41.36454207735844,-91.6994720522882,9209.146822651152,-54.56425908808397,1.1314705883548386,-0.5427133748174304,195.209,9225.216264497592,11151.327114366952,150,True,12.326983967525091,False,173.9537658141943,179.31770755964976,False,5.835141380662216,True,False
8,1970-07-23 09:59:47.525060628,2025-09-10,2025-09-26 15:39:12.506,HA,C,2517265550,JASSM,3,114,76,2,2,1,225,9,2,0,1,26,0,0,0,0,-161759.95642264312,-4785952.051729049,4203450.458464146,-2.36549,-0.397109,0.382441,71.625,-29.875,-31.125,0.0,0.0,0.0,0.0,0.0,0.0,2,0,41.4670665023167,-91.9357979148262,9999.999515041496,119.86586872820496,-0.0032749036323341,0.0064118919588386,,9225.216264497592,11151.327114366952,150,8,2025-09-10,2025-09-26 15:39:12.407,HA,C,2474435310,AMBUSH51,1,1,48,2,1,1,225,2,1,0,0,9,1,225,2,1,-142323.00698016532,-4793887.148352943,4194796.528657205,2.38148,2.68697,-0.46347,-89.5428,44.3827,50.5785,-0.181341,-7.53927,6.55841,0.000229906,-0.00735594,0.00181324,4,0,41.36511213217525,-91.70052252765582,9214.262373516793,-54.5965968435857,1.069549356228778,-0.4032477718913761,194.989,9225.216264497592,11151.327114366952,150,True,12.219473157708086,False,173.96680703346107,179.32091298393942,False,5.831645823562516,True,False
8,1970-07-23 09:59:47.536060323,2025-09-10,2025-09-26 15:39:13.606,HA,C,2518577894,JASSM,3,114,76,2,2,1,225,9,2,0,1,26,0,0,0,0,-161681.21081717435,-4785985.082979049,4203416.110807896,-2.36549,-0.397109,0.382441,71.625,-29.875,-31.125,0.0,0.0,0.0,0.0,0.0,0.0,2,0,41.46665398409573,-91.9348429309966,10000.00007414061,119.86650110590551,-0.0024489120877049,0.0064105148273279,,9225.216264497592,11151.327114366952,150,8,2025-09-10,2025-09-26 15:39:13.540,HA,C,2475787376,AMBUSH51,1,1,48,2,1,1,225,2,1,0,0,9,1,225,2,1,-142424.53485825748,-4793836.730084202,4194853.517697402,2.3815,2.68802,-0.464243,-89.5135,43.2262,51.4499,-0.103887,-7.30049,6.67133,0.000650186,0.00127228,0.000517028,4,0,41.36577889226936,-91.70175279056171,9221.155501878757,-54.60637797065267,1.1398344660844852,-0.3754843793206665,194.83,9225.216264497592,11151.327114366952,150,True,12.102063360404927,False,173.79622398102816,179.32448066953992,False,5.956406011837711,True,False
8,1970-07-23 09:59:47.546058953,2025-09-10,2025-09-26 15:39:14.605,HA,C,2519830930,JASSM,3,114,76,2,2,1,225,9,2,0,1,26,0,0,0,0,-161606.02380545562,-4786016.622041549,4203383.313932896,-2.36549,-0.397109,0.382441,71.625,-29.875,-31.125,0.0,0.0,0.0,0.0,0.0,0.0,2,0,41.4662600878151,-91.93393111493938,10000.002874451684,119.86710489364992,-0.0016602413952129,0.0064091889204859,,9225.216264497592,11151.327114366952,150,8,2025-09-10,2025-09-26 15:39:14.473,HA,C,2476900840,AMBUSH51,1,1,48,2,1,1,225,2,1,0,0,9,1,225,2,1,-142507.41212178575,-4793795.546921605,4194899.85004748,2.38163,2.68882,-0.467395,-89.3992,43.9833,50.5089,-0.193271,-7.54855,6.62933,-0.00975487,0.00281192,0.00523166,4,0,41.36632204877689,-91.70275708235764,9226.315515237464,-54.5132970486692,1.300504110067101,-0.3452540078435941,194.72,9225.216264497592,11151.327114366952,150,True,11.999399664958954,False,174.01959063692956,179.32549509709006,False,5.821442376184431,True,False
8,1970-07-23 09:59:47.557080411,2025-09-10,2025-09-26 15:39:15.708,HA,C,2521142946,JASSM,3,114,76,2,2,1,225,9,2,0,1,26,0,0,0,0,-161527.29773123687,-4786049.641572799,4203348.972136021,-2.36549,-0.397013,0.382441,71.625,-29.875,-31.125,0.0,0.0,0.0,0.0,0.0,0.0,2,0,41.46584765942352,-91.93297639305592,9999.997498465282,119.86409974350356,-0.0044040990019207,0.0043580035085932,,9225.216264497592,11151.327114366952,150,8,2025-09-10,2025-09-26 15:39:15.607,HA,C,2478252906,AMBUSH51,1,1,48,2,1,1,225,2,1,0,0,9,1,225,2,1,-142609.25967947155,-4793745.201694302,4194956.967335243,2.38448,2.68786,-0.469453,-89.2689,43.7944,50.4693,-0.0986923,-7.25148,6.59739,0.00945318,0.00352973,0.00824228,4,0,41.36698915950655,-91.70399118096849,9233.70490919824,-54.39767498493272,1.3540503642875958,-0.2040642587024407,194.292,9225.216264497592,11151.327114366952,150,True,11.881848095679805,False,174.02737392866038,179.32662638699398,False,5.839522578977696,True,False
8,1970-07-23 09:59:47.568058962,2025-09-10,2025-09-26 15:39:16.805,HA,C,2522395644,JASSM,3,114,76,2,2,1,225,9,2,0,1,26,0,0,0,0,-161452.13122733062,-4786081.170869674,4203316.183073521,-2.36549,-0.397013,0.382441,71.625,-29.875,-31.125,0.0,0.0,0.0,0.0,0.0,0.0,2,0,41.46545385502201,-91.93206484875864,10000.003100184362,119.8647033417301,-0.0036156433499712,0.0043566270505683,,9225.216264497592,11151.327114366952,150,8,2025-09-10,2025-09-26 15:39:16.773,HA,C,2479644738,AMBUSH51,1,1,48,2,1,1,225,2,1,0,0,9,1,225,2,1,-142712.64834774518,-4793694.185365367,4195015.151745348,2.38962,2.68713,-0.47178,-89.076,43.6542,50.4414,-0.14191,-7.41932,6.42641,-0.00279528,-0.00577885,-0.00200673,4,0,41.36766718143793,-91.70524394604472,9241.877670889276,-54.279900521305706,1.4268557728812497,0.0742147814736855,193.95,9225.216264497592,11151.327114366952,150,True,11.765483076391993,False,174.00346530608527,179.32676932469667,False,5.893085098889684,True,False
8,1970-07-23 09:59:47.581945070,2025-09-10,2025-09-26 15:39:18.194,HA,C,2523707996,JASSM,3,114,76,2,2,1,225,9,2,0,1,26,0,0,0,0,-161373.38513358062,-4786114.198213424,4203281.831511021,-2.36549,-0.397013,0.382441,71.625,-29.875,-31.125,0.0,0.0,0.0,0.0,0.0,0.0,2,0,41.46504130271539,-91.9311099079916,10000.00255228984,119.86533567078536,-0.0027896474090736,0.0043551963533775,,9225.216264497592,11151.327114366952,150,8,2025-09-10,2025-09-26 15:39:18.342,HA,C,2481513770,AMBUSH51,1,1,48,2,1,1,225,2,1,0,0,9,1,225,2,1,-142852.33382151983,-4793625.052822197,4195094.078503055,2.39598,2.68847,-0.471792,-88.714,43.7244,50.3312,-0.212278,-7.15582,6.30244,0.008261,-0.00662149,-0.00498615,4,0,41.36858656942397,-91.706936634135,9253.110701566033,-54.33031628630667,1.4755407080656466,0.4719455223728898,193.486,9225.216264497592,11151.327114366952,150,True,11.622507240157278,False,173.9258756959809,179.32499191500264,False,6.028069567597093,True,False
8,1970-07-23 09:59:47.589060681,2025-09-10,2025-09-26 15:39:18.906,HA,C,2524960694,JASSM,3,114,76,2,2,1,225,9,2,0,1,26,0,0,0,0,-161298.21814139312,-4786145.723604049,4203249.038542271,-2.36549,-0.397013,0.382536,71.625,-29.875,-31.125,0.0,0.0,0.0,0.0,0.0,0.0,2,0,41.4646474804882,-91.93019838201774,9999.99815148498,119.86978692373852,-0.0059216985948828,0.0043535528080216,,9225.216264497592,11151.327114366952,150,8,2025-09-10,2025-09-26 15:39:18.707,HA,C,2481951202,AMBUSH51,1,1,48,2,1,1,225,2,1,0,0,9,1,225,2,1,-142884.261680079,-4793609.262756749,4195112.145939425,2.38337,2.68973,-0.471258,-88.6623,43.7017,50.3054,-0.203528,-7.20837,6.42853,-0.060022,-0.00320516,-0.00196928,4,0,41.36879682492061,-91.70732353357444,9255.767747931077,-54.39875078796165,1.497975740659514,-0.2194228788547756,193.302,9225.216264497592,11151.327114366952,150,True,11.55388543069074,False,173.92404946017598,179.3219113612993,False,6.041518273545406,True,False
8,1970-07-23 09:59:47.600379207,2025-09-10,2025-09-26 15:39:20.037,HA,C,2526273046,JASSM,3,114,76,2,2,1,225,9,2,0,1,26,0,0,0,0,-161219.47204764312,-4786178.748994674,4203214.685026646,-2.36549,-0.397013,0.382536,71.625,-29.875,-31.125,0.0,0.0,0.0,0.0,0.0,0.0,2,0,41.464234911090166,-91.92924346569946,9999.99707038688,119.87041922658602,-0.0050957021882959,0.0043521758840471,,9225.216264497592,11151.327114366952,150,8,2025-09-10,2025-09-26 15:39:20.206,HA,C,2483740700,AMBUSH51,1,1,48,2,1,1,225,2,1,0,0,9,1,225,2,1,-143017.42503585492,-4793543.7879063785,4195187.059560492,2.30419,2.69301,-0.468657,-88.8604,43.2538,49.8229,-0.214121,-7.24452,6.55037,-0.027494,-0.000161246,-0.00783864,4,0,41.36966848512069,-91.70893708712848,9266.84098360757,-54.62407512225967,1.505779577376727,-4.676490432606943,192.752,9225.216264497592,11151.327114366952,150,True,11.415429392122705,False,174.24460405009705,179.3163445930811,False,5.758624474452084,True,False
8,1970-07-23 09:59:47.612738382,2025-09-10,2025-09-26 15:39:21.273,HA,C,2527525744,JASSM,3,114,76,2,2,1,225,9,2,0,1,26,0,0,0,0,-161144.30505545562,-4786210.274385299,4203181.892057896,-2.36549,-0.397013,0.382536,71.625,-29.875,-31.125,0.0,0.0,0.0,0.0,0.0,0.0,2,0,41.46384107401828,-91.92833196231204,10000.000791860954,119.8710227785092,-0.0043072419692369,0.0043508512521849,,9225.216264497592,11151.327114366952,150,8,2025-09-10,2025-09-26 15:39:21.406,HA,C,2485172298,AMBUSH51,1,1,48,2,1,1,225,2,1,0,0,9,1,225,2,1,-143124.89737923315,-4793492.042002744,4195246.291856404,2.26401,2.70486,-0.459754,-89.3308,42.4748,49.068,-0.261081,-7.2233,6.59172,-0.0410449,-0.00277447,-0.0223945,4,0,41.3703571411901,-91.7102389791586,9275.824382661938,-55.41662202115658,1.5540193193959415,-6.696147663647398,192.606,9225.216264497592,11151.327114366952,150,True,11.296845204139633,False,174.80408844793823,179.30994411361172,False,5.2116784970199745,True,False
8,1970-07-23 09:59:47.624797906,2025-09-10,2025-09-26 15:39:22.479,HA,C,2528897748,JASSM,3,114,76,2,2,1,225,9,2,0,1,26,0,0,0,0,-161061.97937186187,-4786244.797822799,4203145.976042271,-2.36549,-0.397013,0.382536,71.625,-29.875,-31.125,0.0,0.0,0.0,0.0,0.0,0.0,2,0,41.463409746983146,-91.92733366432824,9999.998885845687,119.87168379606072,-0.003443705195897,0.0043494225677603,,9225.216264497592,11151.327114366952,150,8,2025-09-10,2025-09-26 15:39:22.507,HA,C,2486484598,AMBUSH51,1,1,48,2,1,1,225,2,1,0,0,9,1,225,2,1,-143223.05442400547,-4793445.907035453,4195298.980969623,2.23584,2.70425,-0.459193,-89.9802,41.936,47.8749,0.00528209,-7.15407,6.38805,-0.0121912,0.00852316,0.00882068,4,0,41.3709698824884,-91.7114276493892,9283.752058266386,-55.416990823699386,1.510319097110694,-8.325491205369895,192.105,9225.216264497592,11151.327114366952,150,True,11.180444508461179,False,175.55519554701985,179.30291957399638,False,4.492212587380682,True,False
8,1970-07-23 09:59:47.633076972,2025-09-10,2025-09-26 15:39:23.307,HA,C,2530210098,JASSM,3,114,76,2,2,1,225,9,2,0,1,26,0,0,0,0,-160983.23327811187,-4786277.821260299,4203111.618620396,-2.36549,-0.397013,0.382536,71.625,-29.875,-31.125,0.0,0.0,0.0,0.0,0.0,0.0,2,0,41.46299713900453,-91.9263787851137,9999.997579904066,119.8723160588227,-0.0026177017946756,0.0043480324893732,,9225.216264497592,11151.327114366952,150,8,2025-09-10,2025-09-26 15:39:23.306,HA,C,2487438996,AMBUSH51,1,1,48,2,1,1,225,2,1,0,0,9,1,225,2,1,-143295.27688908693,-4793412.543485609,4195336.922809195,2.2318,2.71427,-0.448309,-90.465,41.5255,47.0294,-0.130795,-7.13632,6.26932,-0.00607846,-0.00586416,-0.0365654,4,0,41.37141168155456,-91.7123020608622,9289.230688023772,-56.22146084109171,1.4162902618610946,-8.326163665918212,192.3,9225.216264497592,11151.327114366952,150,True,11.083651390479616,False,176.1000817068932,179.29663668158574,False,3.9670858838992302,True,False
8,1970-07-23 09:59:47.644079834,2025-09-10,2025-09-26 15:39:24.407,HA,C,2531462798,JASSM,3,114,76,2,2,1,225,9,2,0,1,26,0,0,0,0,-160908.06628592435,-4786309.342744674,4203078.823698521,-2.36549,-0.397013,0.382536,71.625,-29.875,-31.125,0.0,0.0,0.0,0.0,0.0,0.0,2,0,41.46260328924169,-91.92546731796516,9999.99992668731,119.87291957193692,-0.0018292474536854,0.0043467159232357,,9225.216264497592,11151.327114366952,150,8,2025-09-10,2025-09-26 15:39:24.540,HA,C,2488910362,AMBUSH51,1,1,48,2,1,1,225,2,1,0,0,9,1,225,2,1,-143408.055244308,-4793361.474676815,4195394.117119593,2.19015,2.7252,-0.436174,-91.3711,40.7579,45.5061,-0.00063172,-7.15254,6.34966,-0.0207591,0.0012494,-0.00216278,4,0,41.3720815636479,-91.71366714523238,9295.8751468246,-57.11281749624828,1.3095825552953029,-10.465280414152398,191.75,9225.216264497592,11151.327114366952,150,False,10.963165095764195,False,177.09591659589935,179.28811975884656,False,2.9941522831082095,True,False
8,1970-07-23 09:59:47.656357315,2025-09-10,2025-09-26 15:39:25.635,HA,C,2532775146,JASSM,3,114,76,2,2,1,225,9,2,0,1,26,0,0,0,0,-160829.32019217435,-4786342.364229049,4203044.466276646,-2.36549,-0.396918,0.382536,71.625,-29.875,-31.125,0.0,0.0,0.0,0.0,0.0,0.0,2,0,41.46219067734536,-91.92451246319725,10000.002330465171,119.86991473291748,-0.0045728854488085,0.0022950469966752,,9225.216264497592,11151.327114366952,150,8,2025-09-10,2025-09-26 15:39:25.806,HA,C,2490421494,AMBUSH51,1,1,48,2,1,1,225,2,1,0,0,9,1,225,2,1,-143523.75296057193,-4793310.650963354,4195450.337461506,2.17985,2.73683,-0.417929,-92.3716,39.9188,43.8452,0.026088,-7.07767,6.30526,-0.0228709,-0.0031365,-0.0204554,4,0,41.37274287392095,-91.71506703378176,9301.235399468756,-58.277284521859166,0.9835791989218604,-10.802674955961171,191.677,9225.216264497592,11151.327114366952,150,False,10.839324776352187,False,178.18104905129204,179.27977531117975,False,1.9239815688184811,True,False
8,1970-07-23 09:59:47.666356401,2025-09-10,2025-09-26 15:39:26.635,HA,C,2534027848,JASSM,3,114,76,2,2,1,225,9,2,0,1,26,0,0,0,0,-160754.15271170562,-4786373.883760299,4203011.669401646,-2.36549,-0.396918,0.382536,71.625,-29.875,-31.125,0.0,0.0,0.0,0.0,0.0,0.0,2,0,41.46179681129732,-91.92360101358084,10000.003716996143,119.87051822485756,-0.0037844270799237,0.0022936809508934,,9225.216264497592,11151.327114366952,150,8,2025-09-10,2025-09-26 15:39:26.606,HA,C,2491375892,AMBUSH51,1,1,48,2,1,1,225,2,1,0,0,9,1,225,2,1,-143598.10278417738,-4793278.935121703,4195484.812549156,2.16456,2.74212,-0.411373,-93.1272,39.3568,42.7054,-0.123198,-7.14505,6.40854,-0.00979648,-0.00204835,-0.00872497,4,0,41.37315105433329,-91.71596630870472,9303.424479468424,-58.73882530679984,0.9096862314208004,-11.564533739274934,191.714,9225.216264497592,11151.327114366952,150,False,10.744810801791775,False,178.92581692703354,179.27368532120207,False,1.1812966950040347,True,False
8,1970-07-23 09:59:47.676077163,2025-09-10,2025-09-26 15:39:27.607,HA,C,2535340198,JASSM,3,114,76,2,2,1,225,9,2,0,1,26,0,0,0,0,-160675.40661795562,-4786406.901338424,4202977.310026646,-2.36549,-0.396918,0.382536,71.625,-29.875,-31.125,0.0,0.0,0.0,0.0,0.0,0.0,2,0,41.46138419394327,-91.92264618404228,10000.000788203495,119.8711504345942,-0.0029584358852457,0.0022922562624412,,9225.216264497592,11151.327114366952,150,8,2025-09-10,2025-09-26 15:39:27.407,HA,C,2492330292,AMBUSH51,1,1,48,2,1,1,225,2,1,0,0,9,1,225,2,1,-143673.063737945,-4793247.729756035,4195518.3940052735,2.15875,2.7497,-0.401079,-93.9059,38.7204,41.5651,-0.0449361,-7.20676,6.55769,0.000725087,0.00164055,-0.0267679,4,0,41.37355004798455,-91.71687271049544,9304.980972063884,-59.43759162589175,0.769523967015158,-11.735985432926496,191.714,9225.216264497592,11151.327114366952,150,False,10.648041128128977,False,179.54483790565206,179.2680321130454,False,0.46714550196834687,True,False
8,1970-07-23 09:59:47.687056450,2025-09-10,2025-09-26 15:39:28.705,HA,C,2536652550,JASSM,3,114,76,2,2,1,225,9,2,0,1,26,0,0,0,0,-160596.66003592435,-4786439.920869674,4202942.948698521,-2.36549,-0.396918,0.382536,71.625,-29.875,-31.125,0.0,0.0,0.0,0.0,0.0,0.0,2,0,41.460971543927656,-91.92169135998668,10000.002729180023,119.87178263552754,-0.0021324280224838,0.0022908125869249,,9225.216264497592,11151.327114366952,150,8,2025-09-10,2025-09-26 15:39:28.641,HA,C,2493801656,AMBUSH51,1,1,48,2,1,1,225,2,1,0,0,9,1,225,2,1,-143790.49674614996,-4793200.479056613,4195568.482802693,2.12505,2.76884,-0.379823,-95.2175,37.532,39.7038,-0.209242,-7.39379,6.60694,-0.0339688,0.00487795,-0.0283408,4,0,41.37414835268567,-91.718292105726,9305.98779530825,-61.01619916644143,0.6204616853666934,-13.268714553005369,191.787,9225.216264497592,11151.327114366952,150,False,10.52530792180293,False,178.76487769925018,179.26273189063133,False,1.0184197445670249,True,False
8,1970-07-23 09:59:47.703168243,2025-09-10,2025-09-26 15:39:30.316,HA,C,2537964900,JASSM,3,114,76,2,2,1,225,9,2,0,1,26,0,0,0,0,-160517.91345389312,-4786472.936494674,4202908.587370396,-2.36549,-0.396918,0.382632,71.625,-29.875,-31.125,0.0,0.0,0.0,0.0,0.0,0.0,2,0,41.4605589092204,-91.92073654960336,9999.999424772255,119.87626263999869,-0.00522680527129,0.0022891690877965,,9225.216264497592,11151.327114366952,150,8,2025-09-10,2025-09-26 15:39:30.207,HA,C,2495670688,AMBUSH51,1,1,48,2,1,1,225,2,1,0,0,9,1,225,2,1,-143941.13046506172,-4793143.457249088,4195628.031549245,2.02342,2.80136,-0.354505,-97.1745,35.0342,37.0067,-0.0112984,-7.98023,7.03918,-0.0524424,0.0162318,-0.0237573,4,0,41.37486270177889,-91.7201115441526,9305.92690077365,-63.271916105411314,0.8377439358385578,-18.451112102643805,191.787,9225.216264497592,11151.327114366952,150,False,10.38349873313454,False,176.60544344324305,179.26108882270964,False,3.1412096975202233,True,False
8,1970-07-23 09:59:47.709076022,2025-09-10,2025-09-26 15:39:30.907,HA,C,2539277674,JASSM,3,114,76,2,2,1,225,9,2,0,1,26,0,0,0,0,-160439.14148123687,-4786505.963838424,4202874.214323521,-2.36549,-0.396918,0.382632,71.625,-29.875,-31.125,0.0,0.0,0.0,0.0,0.0,0.0,2,0,41.46014612280187,-91.91978144303648,10000.001723336334,119.87689501772722,-0.0044005378589227,0.0022877908391101,,9225.216264497592,11151.327114366952,150,8,2025-09-10,2025-09-26 15:39:30.941,HA,C,2496545554,AMBUSH51,1,1,48,2,1,1,225,2,1,0,0,9,1,225,2,1,-144012.7933744297,-4793118.345459897,4195654.304407961,1.98329,2.81734,-0.338056,-98.3328,33.5562,35.2296,-0.0878764,-7.71053,7.03206,-0.0379677,0.00775542,-0.0282305,4,0,41.37517665859277,-91.7209764195024,9306.403227892157,-64.54880142251227,0.7981861142158229,-20.457797764904026,191.714,9225.216264497592,11151.327114366952,150,False,10.290858983775482,False,175.26199135701762,179.26101322048694,False,4.502013396430842,True,False
8,1970-07-23 09:59:47.720057106,2025-09-10,2025-09-26 15:39:32.005,HA,C,2540589602,JASSM,3,114,76,2,2,1,225,9,2,0,1,26,0,0,0,0,-160360.42028983062,-4786538.967744674,4202839.860807896,-2.36549,-0.396918,0.382632,71.625,-29.875,-31.125,0.0,0.0,0.0,0.0,0.0,0.0,2,0,41.45973358959673,-91.91882696515115,9999.997390862078,119.87752697403332,-0.0035748011467519,0.0022864088378906,,9225.216264497592,11151.327114366952,150,8,2025-09-10,2025-09-26 15:39:32.106,HA,C,2497937386,AMBUSH51,1,1,48,2,1,1,225,2,1,0,0,9,1,225,2,1,-144127.91621731973,-4793080.795101406,4195693.346418609,1.9593,2.84007,-0.310602,-100.165,31.1634,32.2786,-0.109044,-7.64294,6.84982,-0.00962795,0.0146984,-0.0275502,4,0,41.37564303952129,-91.72236481324896,9307.18063533191,-66.5391334516647,0.5981106257138443,-21.441417269159047,191.714,9225.216264497592,11151.327114366952,150,False,10.173273575735944,False,173.06653539038828,179.2657321465593,False,6.738386339932034,True,False
8,1970-07-23 09:59:47.731058087,2025-09-10,2025-09-26 15:39:33.105,HA,C,2541901954,JASSM,3,114,76,2,2,1,225,9,2,0,1,26,0,0,0,0,-160281.67370779935,-4786571.983369674,4202805.497526646,-2.36549,-0.396918,0.382632,71.625,-29.875,-31.125,0.0,0.0,0.0,0.0,0.0,0.0,2,0,41.45932091785369,-91.91787219108284,10000.002904087176,119.87815912126828,-0.0027487989955582,0.0022850286611293,,9225.216264497592,11151.327114366952,150,8,2025-09-10,2025-09-26 15:39:33.274,HA,C,2499329218,AMBUSH51,1,1,48,2,1,1,225,2,1,0,0,9,1,225,2,1,-144245.253284083,-4793046.273064798,4195728.606476322,1.96192,2.87033,-0.282684,-101.678,28.5448,29.2375,-0.0513314,-7.71156,6.9049,0.0178297,0.012934,-0.0245396,4,0,41.37606545857111,-91.72377858303442,9307.380725507966,-68.84180196221331,0.7027352414250124,-20.810716588257407,191.799,9225.216264497592,11151.327114366952,150,False,10.055994966925285,False,170.8289267022454,179.27171500497005,False,9.027447833955982,True,False
8,1970-07-23 09:59:47.742758474,2025-09-10,2025-09-26 15:39:34.275,HA,C,2543154652,JASSM,3,114,76,2,2,1,225,9,2,0,1,26,0,0,0,0,-160206.50622733062,-4786603.495088424,4202772.694792271,-2.36549,-0.396918,0.382632,71.625,-29.875,-31.125,0.0,0.0,0.0,0.0,0.0,0.0,2,0,41.45892700600753,-91.9169608249577,10000.001264745506,119.87876252367204,-0.0019603456687048,0.0022837202438038,,9225.216264497592,11151.327114366952,150,8,2025-09-10,2025-09-26 15:39:34.340,HA,C,2500601750,AMBUSH51,1,1,48,2,1,1,225,2,1,0,0,9,1,225,2,1,-144355.25599960695,-4793016.741027861,4195758.178252583,1.97956,2.89084,-0.256849,-103.086,26.4986,26.381,-0.1785,-7.66601,6.96552,0.0146942,0.0126115,-0.0282742,4,0,41.37642108580837,-91.72510298061486,9306.988920804644,-70.697378234192,0.5200914626178388,-19.50648705297433,191.64,9225.216264497592,11151.327114366952,150,False,9.94645499561235,False,168.86116574616136,179.2747976399239,False,11.067837009630393,True,False
8,1970-07-23 09:59:47.753017098,2025-09-10,2025-09-26 15:39:35.301,HA,C,2544526656,JASSM,3,114,76,2,2,1,225,9,2,0,1,26,0,0,0,0,-160124.18005545562,-4786638.006807174,4202736.767057896,-2.36549,-0.396822,0.382632,71.625,-29.875,-31.125,0.0,0.0,0.0,0.0,0.0,0.0,2,0,41.45849557078242,-91.91596267654997,9999.999267244906,119.87578657134829,-0.0046664313139189,0.0002315155701364,,9225.216264497592,11151.327114366952,150,8,2025-09-10,2025-09-26 15:39:35.473,HA,C,2501953814,AMBUSH51,1,1,48,2,1,1,225,2,1,0,0,9,1,225,2,1,-144472.15022755487,-4792988.064787512,4195786.10396544,1.99889,2.91016,-0.233956,-104.291,24.3543,23.8174,0.0614158,-7.44995,6.51634,0.0303632,-0.00325509,-0.0239508,4,0,41.37675925711373,-91.72650939153904,9305.65153549477,-72.39037389256936,0.4179428984558034,-18.144205407581893,191.799,9225.216264497592,11151.327114366952,150,False,9.829751347964123,False,167.0059744821094,179.2712051953194,False,13.00271701523819,True,False
8,1970-07-23 09:59:47.764016075,2025-09-10,2025-09-26 15:39:36.401,HA,C,2545839008,JASSM,3,114,76,2,2,1,225,9,2,0,1,26,0,0,0,0,-160045.43347342435,-4786671.018525924,4202702.399870396,-2.36549,-0.396822,0.382632,71.625,-29.875,-31.125,0.0,0.0,0.0,0.0,0.0,0.0,2,0,41.458082872094685,-91.9150079403594,9999.99975651927,119.87641867807466,-0.0038404285538359,0.0002300796023997,,9225.216264497592,11151.327114366952,150,8,2025-09-10,2025-09-26 15:39:36.540,HA,C,2503226346,AMBUSH51,1,1,48,2,1,1,225,2,1,0,0,9,1,225,2,1,-144584.80473346653,-4792962.690017259,4195810.118203039,2.01517,2.9287,-0.212345,-105.366,22.6525,21.328,-0.184163,-7.428,6.72934,0.0184913,0.00700016,-0.0236928,4,0,41.37705212407337,-91.72786399153658,9303.648623809871,-74.00391689555516,0.34450002226822,-16.986848141592805,191.799,9225.216264497592,11151.327114366952,150,False,9.718693690666665,False,165.34645692414435,179.25740685268346,False,14.75874405832359,True,False
8,1970-07-23 09:59:47.775039812,2025-09-10,2025-09-26 15:39:37.503,HA,C,2547151688,JASSM,3,114,76,2,2,1,225,9,2,0,1,26,0,0,0,0,-159966.66687186187,-4786704.038057174,4202668.022917271,-2.3654,-0.396822,0.382632,71.625,-29.875,-31.125,0.0,0.0,0.0,0.0,0.0,0.0,2,0,41.45767005704799,-91.91405297379016,10000.000941621172,119.8770509321526,-0.0030142141573907,0.0057201122207075,,9225.216264497592,11151.327114366952,150,8,2025-09-10,2025-09-26 15:39:37.673,HA,C,2504578412,AMBUSH51,1,1,48,2,1,1,225,2,1,0,0,9,1,225,2,1,-144704.1365396789,-4792938.161613205,4195832.303240137,2.03824,2.94263,-0.195018,-106.284,20.8477,19.017,-0.214071,-7.50482,6.62007,0.017478,-0.00702721,-0.0226254,4,0,41.377326390222926,-91.72929804792253,9300.264636864522,-75.26535417814495,0.254315843103467,-15.509945670691886,191.995,9225.216264497592,11151.327114366952,150,False,9.605115818681888,False,163.7469267053168,179.22734296412753,False,16.467495032016075,True,False
8,1970-07-23 09:59:47.786014239,2025-09-10,2025-09-26 15:39:38.601,HA,C,2548463708,JASSM,3,114,76,2,2,1,225,9,2,0,1,26,0,0,0,0,-159887.94079764312,-4786737.038057174,4202633.663542271,-2.3654,-0.396822,0.382632,71.625,-29.875,-31.125,0.0,0.0,0.0,0.0,0.0,0.0,2,0,41.4572574608512,-91.91309851169152,9999.999993664314,119.87768284706225,-0.002188432641017,0.0057186855571795,,9225.216264497592,11151.327114366952,150,8,2025-09-10,2025-09-26 15:39:38.640,HA,C,2505731644,AMBUSH51,1,1,48,2,1,1,225,2,1,0,0,9,1,225,2,1,-144807.33396221782,-4792918.5664702775,4195849.715088244,2.06876,2.94828,-0.187344,-106.841,18.5175,18.6715,0.163096,-7.38238,6.5479,0.0408202,-0.0022252,0.00330919,4,0,41.377541966885,-91.73053763784336,9297.476729272566,-75.80523673820723,0.1946947314112404,-13.70193324236188,192.141,9225.216264497592,11151.327114366952,150,False,9.50092587197757,False,162.76198142163133,179.18687322033009,False,17.51793954431167,True,False
8,1970-07-23 09:59:47.800360525,2025-09-10,2025-09-26 15:39:40.036,HA,C,2549597176,JASSM,3,114,76,2,2,1,225,9,2,0,1,26,0,0,0,0,-159819.92663748687,-4786765.547822799,4202603.979948521,-2.3654,-0.396822,0.382728,71.625,-29.875,-31.125,0.0,0.0,0.0,0.0,0.0,0.0,2,0,41.45690100321665,-91.91227392886184,10000.003924160425,119.88207672837976,-0.0053952479686708,0.0057172264309991,,9225.216264497592,11151.327114366952,150,8,2025-09-10,2025-09-26 15:39:40.173,HA,C,2507560908,AMBUSH51,1,1,48,2,1,1,225,2,1,0,0,9,1,225,2,1,-144972.54856760782,-4792889.571519718,4195874.5391496895,2.19575,2.95935,-0.163252,-107.649,18.6639,15.319,-0.0527662,-6.93777,6.30146,0.0420644,-0.00744957,-0.0150292,4,0,41.377852330913896,-91.73252132700873,9292.254302706197,-77.24880531524065,-0.267790922080256,-6.314487993394661,192.679,9225.216264497592,11151.327114366952,150,True,9.371756680665708,False,161.43667216880286,179.09573086663121,False,19.070921177559647,True,False
8,1970-07-23 09:59:47.806364596,2025-09-10,2025-09-26 15:39:40.636,HA,C,2550790150,JASSM,3,114,76,2,2,1,225,9,2,0,1,26,0,0,0,0,-159748.34314139312,-4786795.551729049,4202572.735807896,-2.3654,-0.396822,0.382728,71.625,-29.875,-31.125,0.0,0.0,0.0,0.0,0.0,0.0,2,0,41.45652582592621,-91.91140608306132,10000.000552742042,119.88265128929712,-0.0046443866952539,0.005715977914961,,9225.216264497592,11151.327114366952,150,8,2025-09-10,2025-09-26 15:39:40.506,HA,C,2507958574,AMBUSH51,1,1,48,2,1,1,225,2,1,0,0,9,1,225,2,1,-145007.73968894378,-4792883.558782239,4195879.23961757,2.20739,2.9572,-0.161083,-107.798,18.5307,15.0548,0.0863196,-6.72295,6.20261,0.0450209,-0.00636142,0.00517756,4,0,41.37791349899975,-91.73294380129948,9290.27226184781,-77.25979758372674,-0.4408723572660988,-5.667279595175131,192.496,9225.216264497592,11151.327114366952,150,True,9.308506378370934,False,161.27365868630466,179.06772084872745,False,19.276922438656538,True,False
8,1970-07-23 09:59:47.815558859,2025-09-10,2025-09-26 15:39:41.555,HA,C,2551923544,JASSM,3,114,76,2,2,1,225,9,2,0,1,26,0,0,0,0,-159680.33435233062,-4786824.057588424,4202543.052214146,-2.3654,-0.396822,0.382728,71.625,-29.875,-31.125,0.0,0.0,0.0,0.0,0.0,0.0,2,0,41.45616937830977,-91.91058158454082,10000.0019895516,119.88319714800724,-0.0039310216605572,0.0057147920328545,,9225.216264497592,11151.327114366952,150,8,2025-09-10,2025-09-26 15:39:41.640,HA,C,2509310640,AMBUSH51,1,1,48,2,1,1,225,2,1,0,0,9,1,225,2,1,-145130.86445597152,-4792862.2263792,4195895.642216584,2.29826,2.93933,-0.175649,-108.256,18.9048,14.4361,0.0892051,-6.79597,6.50034,0.104391,-0.00439734,0.00477809,4,0,41.37812896349281,-91.73442204487766,9282.522477801258,-75.96427457306557,-0.6262398781184121,-0.644698823438884,193.913,9225.216264497592,11151.327114366952,150,True,9.20191385570312,False,161.09777151788853,178.9705896470415,False,19.60951527600758,True,False
8,1970-07-23 09:59:47.825964085,2025-09-10,2025-09-26 15:39:42.596,HA,C,2553116590,JASSM,3,114,76,2,2,1,225,9,2,0,1,26,0,0,0,0,-159608.74646170562,-4786854.063447799,4202511.804167271,-2.3654,-0.396822,0.382728,71.625,-29.875,-31.125,0.0,0.0,0.0,0.0,0.0,0.0,2,0,41.45579415109953,-91.90971370492495,10000.001588480942,119.8837717229751,-0.0031801071557789,0.0057135312000969,,9225.216264497592,11151.327114366952,150,8,2025-09-10,2025-09-26 15:39:42.473,HA,C,2510304806,AMBUSH51,1,1,48,2,1,1,225,2,1,0,0,9,1,225,2,1,-145220.54811043193,-4792846.503931919,4195907.693662083,2.36373,2.94806,-0.162402,-108.564,19.3281,14.7589,-0.0682624,-7.06254,6.63734,0.0585115,0.00598275,-0.0144882,4,0,41.37828769070639,-91.7354988658023,9276.65515114086,-76.85834758493108,-0.7711993799816333,3.2020648761673174,194.488,9225.216264497592,11151.327114366952,150,True,9.110385690902843,False,161.32431124403564,178.8905509257151,False,19.49242958939355,True,False
8,1970-07-23 09:59:47.835026340,2025-09-10,2025-09-26 15:39:43.502,HA,C,2554309968,JASSM,3,114,76,2,2,1,225,9,2,0,1,26,0,0,0,0,-159537.13806326812,-4786884.075166549,4202480.548307896,-2.3654,-0.396822,0.382728,71.625,-29.875,-31.125,0.0,0.0,0.0,0.0,0.0,0.0,2,0,41.45541883380122,-91.90884558778563,10000.000536193344,119.8843464509151,-0.0024289901428597,0.0057122903602579,,9225.216264497592,11151.327114366952,150,8,2025-09-10,2025-09-26 15:39:43.506,HA,C,2511537570,AMBUSH51,1,1,48,2,1,1,225,2,1,0,0,9,1,225,2,1,-145332.91154520217,-4792825.705700109,4195922.729442838,2.3785,2.95152,-0.159657,-108.912,20.0431,15.3358,-0.0489788,-7.22632,6.87445,0.0107993,-0.00077086,0.0162255,4,0,41.378492656198986,-91.73684840668284,9266.46663045376,-77.10707598142156,-0.7310520155298101,4.083354501300374,194.414,9225.216264497592,11151.327114366952,150,True,9.006923063812316,False,161.73450813421732,178.7827221628813,False,19.220740439437574,True,False
8,1970-07-23 09:59:47.847133041,2025-09-10,2025-09-26 15:39:44.713,HA,C,2555502684,JASSM,3,114,76,2,2,1,225,9,2,0,1,26,0,0,0,0,-159465.56970389312,-4786914.069307174,4202449.308073521,-2.3654,-0.396726,0.382728,71.625,-29.875,-31.125,0.0,0.0,0.0,0.0,0.0,0.0,2,0,41.4550437120483,-91.90797796636248,9999.997100471532,119.8812843086444,-0.0052479110506907,0.0036598204636844,,9225.216264497592,11151.327114366952,150,8,2025-09-10,2025-09-26 15:39:44.672,HA,C,2512929402,AMBUSH51,1,1,48,2,1,1,225,2,1,0,0,9,1,225,2,1,-145460.2125597358,-4792801.554800032,4195940.900013616,2.4112,2.94397,-0.166874,-109.242,20.5761,16.5685,-0.132323,-7.32089,6.99495,0.0280121,0.00270373,0.0128945,4,0,41.37873601727595,-91.7383775802183,9255.949171707169,-76.51515555269225,-0.7677665326265642,5.878753057153063,195.551,9225.216264497592,11151.327114366952,150,True,8.895422717558924,False,162.34413640566265,178.65584207106326,False,18.75529331987201,True,False
8,1970-07-23 09:59:47.855073615,2025-09-10,2025-09-26 15:39:45.507,HA,C,2556696144,JASSM,3,114,76,2,2,1,225,9,2,0,1,26,0,0,0,0,-159393.95642264312,-4786944.082979049,4202418.048307896,-2.3654,-0.396726,0.382728,71.625,-29.875,-31.125,0.0,0.0,0.0,0.0,0.0,0.0,2,0,41.454668344592974,-91.90710981007888,9999.999161887508,119.8818590540268,-0.0044967371391462,0.0036585218930283,,9225.216264497592,11151.327114366952,150,8,2025-09-10,2025-09-26 15:39:45.639,HA,C,2514082634,AMBUSH51,1,1,48,2,1,1,225,2,1,0,0,9,1,225,2,1,-145566.3534901678,-4792780.541215023,4195957.111995306,2.4323,2.93742,-0.172838,-109.464,21.3592,17.7036,-0.10869,-7.45709,6.91437,0.0175217,0.00185485,0.0222696,4,0,41.37895129706582,-91.73965290125844,9247.331136163226,-76.01414913888597,-0.8105097227786089,7.017517166014088,196.345,9225.216264497592,11151.327114366952,150,True,8.794599568253743,False,162.9978336580079,178.5460095069612,False,18.225811642906915,True,False
8,1970-07-23 09:59:47.865075835,2025-09-10,2025-09-26 15:39:46.507,HA,C,2557889236,JASSM,3,114,76,2,2,1,225,9,2,0,1,26,0,0,0,0,-159322.36560233062,-4786974.086885299,4202386.798307896,-2.3654,-0.396726,0.382728,71.625,-29.875,-31.125,0.0,0.0,0.0,0.0,0.0,0.0,2,0,41.45429309013087,-91.9062419362314,10000.003871950748,119.88243360815012,-0.0037457997838057,0.0036572252399027,,9225.216264497592,11151.327114366952,150,8,2025-09-10,2025-09-26 15:39:46.672,HA,C,2515315400,AMBUSH51,1,1,48,2,1,1,225,2,1,0,0,9,1,225,2,1,-145680.24841853458,-4792757.306428839,4195975.64321667,2.46669,2.92527,-0.183571,-109.602,22.402,19.0111,-0.113958,-7.14674,6.94879,0.0164398,0.000571123,0.00680875,4,0,41.37919403236326,-91.7410216489352,9238.863470906726,-75.09894772745636,-0.9004027934602598,8.850587839184216,197.249,9225.216264497592,11151.327114366952,150,True,8.689386171854574,False,163.8007180951563,178.42671237655412,False,17.557491916272923,True,False
8,1970-07-23 09:59:47.877600031,2025-09-10,2025-09-26 15:39:47.760,HA,C,2559141474,JASSM,3,114,76,2,2,1,225,9,2,0,1,26,0,0,0,0,-159247.22497733062,-4787005.575166549,4202353.995573521,-2.3654,-0.396726,0.382728,71.625,-29.875,-31.125,0.0,0.0,0.0,0.0,0.0,0.0,2,0,41.45389922005644,-91.9053310412722,9999.997451917485,119.8830366387216,-0.0029576274481694,0.0036558622994131,,9225.216264497592,11151.327114366952,150,8,2025-09-10,2025-09-26 15:39:47.739,HA,C,2516587932,AMBUSH51,1,1,48,2,1,1,225,2,1,0,0,9,1,225,2,1,-145796.3721940417,-4792732.196655038,4195995.90460355,2.47874,2.91634,-0.193026,-109.699,23.7571,20.3767,-0.2041,-7.30724,6.98166,0.00836503,0.0029326,0.0134084,4,0,41.37945918243333,-91.742417709737,9229.708434082972,-74.36066452055232,-0.9036470662266698,9.433735401630356,198.264,9225.216264497592,11151.327114366952,150,True,8.580239533147367,False,164.71687261581283,178.30410885919625,False,16.78172870978766,True,False
8,1970-07-23 09:59:47.885075180,2025-09-10,2025-09-26 15:39:48.507,HA,C,2560274944,JASSM,3,114,76,2,2,1,225,9,2,0,1,26,0,0,0,0,-159179.21228201812,-4787034.077119674,4202324.306120396,-2.3654,-0.396726,0.382728,71.625,-29.875,-31.125,0.0,0.0,0.0,0.0,0.0,0.0,2,0,41.45354271325124,-91.9045065641278,10000.00016914896,119.88358245491888,-0.0022442251103083,0.0036546343809346,,9225.216264497592,11151.327114366952,150,8,2025-09-10,2025-09-26 15:39:48.381,HA,C,2517343498,AMBUSH51,1,1,48,2,1,1,225,2,1,0,0,9,1,225,2,1,-145865.81405537258,-4792716.536942434,4196008.664459505,2.47912,2.90917,-0.200692,-109.728,24.6811,21.1469,-0.0573027,-7.21737,6.84793,0.00841913,0.00232298,0.0124284,4,0,41.37962591026665,-91.74325279235087,9224.048174940472,-73.76501466116949,-0.9019853195993176,9.365586104680936,198.814,9225.216264497592,11151.327114366952,150,True,8.500219009314003,False,165.27950028250396,178.227799503244,False,16.307919986223045,True,False
8,1970-07-23 09:59:47.896735948,2025-09-10,2025-09-26 15:39:49.673,HA,C,2561527568,JASSM,3,114,76,2,2,1,225,9,2,0,1,26,0,0,0,0,-159104.04919608062,-4787065.575166549,4202291.493620396,-2.3654,-0.396726,0.382728,71.625,-29.875,-31.125,0.0,0.0,0.0,0.0,0.0,0.0,2,0,41.45314870980916,-91.9035954177475,10000.002255937976,119.88418564295608,-0.0014558160663482,0.0036532694343873,,9225.216264497592,11151.327114366952,150,8,2025-09-10,2025-09-26 15:39:49.772,HA,C,2519013696,AMBUSH51,1,1,48,2,1,1,225,2,1,0,0,9,1,225,2,1,-146019.44356785266,-4792680.37946042,4196039.10109155,2.47439,2.90074,-0.21412,-109.779,26.1653,23.2659,-0.128691,-7.31754,7.21881,-0.00731433,0.00588288,0.0120061,4,0,41.38001865173649,-91.74510085233403,9212.600351180376,-72.8804551843218,-0.7254511640095199,8.982565365886366,199.865,9225.216264497592,11151.327114366952,150,True,8.36980993951257,False,166.50664792455083,178.0701779800898,False,15.247404914856194,True,False
8,1970-07-23 09:59:47.908335604,2025-09-10,2025-09-26 15:39:50.833,HA,C,2562780268,JASSM,3,114,76,2,2,1,225,9,2,0,1,26,0,0,0,0,-159028.88122733062,-4787097.073213424,4202258.677214146,-2.3654,-0.396726,0.382824,71.625,-29.875,-31.125,0.0,0.0,0.0,0.0,0.0,0.0,2,0,41.45275467374109,-91.90268422401736,9999.999426199183,119.88863695789271,-0.0045874516545037,0.0036517277876842,,9225.216264497592,11151.327114366952,150,8,2025-09-10,2025-09-26 15:39:50.772,HA,C,2520206696,AMBUSH51,1,1,48,2,1,1,225,2,1,0,0,9,1,225,2,1,-146129.9721293454,-4792652.975489687,4196062.98200669,2.47169,2.89271,-0.22763,-109.786,26.9695,25.0027,-0.087758,-7.48105,7.16488,0.0013992,0.00909116,0.0159259,4,0,41.38032285360599,-91.74643095817572,9205.252379995462,-72.00852405109507,-0.527123534920082,8.717397557626088,200.891,9225.216264497592,11151.327114366952,150,True,8.26207090075307,False,167.38435331766016,177.95647031271957,False,14.477519355965569,True,False
8,1970-07-23 09:59:47.918332239,2025-09-10,2025-09-26 15:39:51.833,HA,C,2564092810,JASSM,3,114,76,2,2,1,225,9,2,0,1,26,0,0,0,0,-158950.12243826812,-4787130.075166549,4202224.294401646,-2.3654,-0.396726,0.382824,71.625,-29.875,-31.125,0.0,0.0,0.0,0.0,0.0,0.0,2,0,41.45234181962601,-91.90172951413822,10000.001535314888,119.88926897549663,-0.0037613333289498,0.0036503640550422,,9225.216264497592,11151.327114366952,150,8,2025-09-10,2025-09-26 15:39:51.772,HA,C,2521399694,AMBUSH51,1,1,48,2,1,1,225,2,1,0,0,9,1,225,2,1,-146238.85240392643,-4792625.32263172,4196088.026932242,2.46795,2.88593,-0.240604,-109.688,27.8486,26.5215,-0.120882,-7.64549,7.29911,-0.0173511,0.00110792,0.0157657,4,0,41.380636680116496,-91.74774148113178,9199.699732927982,-71.20768137190365,-0.2964017105490117,8.407253647443062,201.588,9225.216264497592,11151.327114366952,150,True,8.152554168858805,False,168.2102621417907,177.8453467922169,False,13.760800335148549,True,False
8,1970-07-23 09:59:47.928093159,2025-09-10,2025-09-26 15:39:52.809,HA,C,2565404962,JASSM,3,114,76,2,2,1,225,9,2,0,1,26,0,0,0,0,-158871.38708670562,-4787163.067354049,4202189.919401646,-2.3654,-0.396726,0.382824,71.625,-29.875,-31.125,0.0,0.0,0.0,0.0,0.0,0.0,2,0,41.45192906377313,-91.90077510044672,10000.002877886089,119.88990079185176,-0.002935452474667,0.003648986267989,,9225.216264497592,11151.327114366952,150,8,2025-09-10,2025-09-26 15:39:52.706,HA,C,2522513160,AMBUSH51,1,1,48,2,1,1,225,2,1,0,0,9,1,225,2,1,-146341.7600619526,-4792598.483044012,4196113.34081976,2.46424,2.88045,-0.253542,-109.545,28.4764,28.0771,-0.214549,-7.60271,7.38486,-0.00575389,0.00407484,0.00543555,4,0,41.38094855634212,-91.74898038431915,9196.289578854636,-70.45894740494673,-0.0119676978714613,8.116268151681924,202.358,9225.216264497592,11151.327114366952,150,True,8.045879335461665,False,168.97270493681856,177.7420623145636,False,13.089644070866854,True,False
8,1970-07-23 09:59:47.940333548,2025-09-10,2025-09-26 15:39:54.033,HA,C,2566717320,JASSM,3,114,76,2,2,1,225,9,2,0,1,26,0,0,0,0,-158792.63903983062,-4787196.061494674,4202155.538542271,-2.3654,-0.396726,0.382824,71.625,-29.875,-31.125,0.0,0.0,0.0,0.0,0.0,0.0,2,0,41.45151625132693,-91.8998205463032,9999.999612051211,119.8905326960104,-0.0021094481883502,0.0036476232523539,,9225.216264497592,11151.327114366952,150,8,2025-09-10,2025-09-26 15:39:54.072,HA,C,2524143592,AMBUSH51,1,1,48,2,1,1,225,2,1,0,0,9,1,225,2,1,-146490.9979152614,-4792558.3095610775,4196152.604075663,2.45696,2.8752,-0.268072,-109.222,29.2458,30.254,-0.0215908,-7.47412,7.0262,-0.0162921,0.0057414,0.00386887,4,0,41.38142549408832,-91.75077753402968,9193.81494684094,-69.65387161412124,0.3463930027763316,7.623773383004642,203.311,9225.216264497592,11151.327114366952,150,True,7.9126946081047995,False,170.0070227189187,177.60225022074997,False,12.16925571551486,True,False
8,1970-07-23 09:59:47.950741752,2025-09-10,2025-09-26 15:39:55.074,HA,C,2567970026,JASSM,3,114,76,2,2,1,225,9,2,0,1,26,0,0,0,0,-158717.47107108062,-4787227.557588424,4202122.720182896,-2.3654,-0.39663,0.382824,71.625,-29.875,-31.125,0.0,0.0,0.0,0.0,0.0,0.0,2,0,41.4511221837037,-91.89890939903552,10000.004173625328,119.8874995917508,-0.0048906028318507,0.0015945751366997,,9225.216264497592,11151.327114366952,150,8,2025-09-10,2025-09-26 15:39:55.073,HA,C,2525336590,AMBUSH51,1,1,48,2,1,1,225,2,1,0,0,9,1,225,2,1,-146599.45669754245,-4792528.229100834,4196182.832435346,2.43555,2.87133,-0.275103,-109.083,29.9971,31.4629,-0.193,-7.51269,7.28665,-0.018639,0.000431723,0.0147587,4,0,41.38178878841595,-91.7520839545,9193.522282003298,-69.21464196992967,0.4671732704629097,6.34074003418361,203.677,9225.216264497592,11151.327114366952,150,True,7.80411555179198,False,170.66539382513747,177.49993138727817,False,11.607023425676257,True,False
