Unnamed: 0_cm,Subject_cm,Timestamp,SampleDate_cm,SampleTime_cm,Configuration_cm,Scenario_cm,DisTime_cm,MarkingTxt_cm,Application_cm,EntId_cm,Site_cm,ExerciseId_cm,ForceId_cm,Category_cm,Country_cm,Domain_cm,Kind_cm,Extra_cm,Specific_cm,Subcategory_cm,AltCategory_cm,AltCountry_cm,AltDomain_cm,AltKind_cm,ECEF_X_cm,ECEF_Y_cm,ECEF_Z_cm,OriPhi_cm,OriPsi_cm,OriTheta_cm,LinVelX_cm,LinVelY_cm,LinVelZ_cm,LinAccX_cm,LinAccY_cm,LinAccZ_cm,AngVelX_cm,AngVelY_cm,AngVelZ_cm,DrAlg_cm,Appearance_cm,Latitude_cm,Longitude_cm,Altitude_cm,Heading_cm,Pitch_cm,Roll_cm,CalibratedAirspeed_cm,CM_Altitude_Lead_cm,CM_Altitude_Wing_cm,CM_Airspeed_cm,Unnamed: 0_ac,Subject_ac,SampleDate_ac,SampleTime_ac,Configuration_ac,Scenario_ac,DisTime_ac,MarkingTxt_ac,Application_ac,EntId_ac,Site_ac,ExerciseId_ac,ForceId_ac,Category_ac,Country_ac,Domain_ac,Kind_ac,Extra_ac,Specific_ac,Subcategory_ac,AltCategory_ac,AltCountry_ac,AltDomain_ac,AltKind_ac,ECEF_X_ac,ECEF_Y_ac,ECEF_Z_ac,OriPhi_ac,OriPsi_ac,OriTheta_ac,LinVelX_ac,LinVelY_ac,LinVelZ_ac,LinAccX_ac,LinAccY_ac,LinAccZ_ac,AngVelX_ac,AngVelY_ac,AngVelZ_ac,DrAlg_ac,Appearance_ac,Latitude_ac,Longitude_ac,Altitude_ac,Heading_ac,Pitch_ac,Roll_ac,CalibratedAirspeed_ac,CM_Altitude_Lead_ac,CM_Altitude_Wing_ac,CM_Airspeed_ac,Bank_Angle_Condition,distance_nm,Distance_Condition,angle_between_vel,angle_between_pos,Cone_Condition,angle_between_pos_nose,Nose_Cone_Condition,Intercept_Criteria
14017,8,1970-07-23 10:02:00.861160951,2025-09-10,2025-09-12 19:21:26.116,AA,C,2070768400,JASSM,3,119,76,2,2,1,225,9,2,0,1,26,0,0,0,0,-188348.43982108065,-4786074.948213424,4202211.405729771,-2.30155,-0.153302,0.128183,92.75,-14.25,-12.0,0.0,0.0,0.0,0.0,0.0,0.0,2,0,41.45218706365032,-92.25362223270064,10000.000255076304,99.8155907699968,-0.0050299322564945,0.0023914841378926,,9258.460327898714,10912.736076441255,150,14018,8,2025-09-10,2025-09-12 19:21:26.120,AA,C,524466184,HAWK11,1,1,73,2,1,1,225,2,1,0,0,12,1,225,2,1,-137786.65466483062,-4795617.145479049,4193766.574675084,2.33127,2.66031,-0.504392,-89.875,37.875,41.5,-0.125,-7.0625,7.20312,0.0332031,0.0,-0.00390625,4,0,41.34865899854701,-91.64575741792068,10913.86571713909,-51.97436490610289,1.8273812654724204,-3.937311156473009,0.0,9258.460327898714,10912.736076441255,150,True,28.03285983375231,False,159.20065208610572,177.19522614988557,False,18.003263163195886,True,False
14029,8,1970-07-23 10:02:00.871119906,2025-09-10,2025-09-12 19:21:27.111,AA,C,2072021100,JASSM,3,119,76,2,2,1,225,9,2,0,1,26,0,0,0,0,-188250.97888358065,-4786090.018525924,4202198.694792271,-2.30155,-0.153302,0.128183,92.75,-14.25,-12.0,0.0,0.0,0.0,0.0,0.0,0.0,2,0,41.45203443642077,-92.25245021170376,10000.001341567398,99.81636664070528,-0.004138331106558,0.0023908516505659,,9258.460327898714,10912.736076441255,150,14030,8,2025-09-10,2025-09-12 19:21:27.118,AA,C,525619416,HAWK11,1,1,73,2,1,1,225,2,1,0,0,12,1,225,2,1,-137873.21911795562,-4795580.622041549,4193805.841276646,2.34296,2.66663,-0.501516,-90.375,37.625,41.375,-0.109375,-6.89062,7.125,0.00195312,0.0,-0.00585938,4,0,41.34912654782415,-91.64680333086604,10915.18220026976,-52.32064830377568,1.921828204019397,-3.10358546662278,0.0,9258.460327898714,10912.736076441255,150,True,27.9274184731172,False,159.4580476780289,177.2241642605589,False,17.77580150937731,True,False
14042,8,1970-07-23 10:02:00.881123491,2025-09-10,2025-09-12 19:21:28.112,AA,C,2073214148,JASSM,3,119,76,2,2,1,225,9,2,0,1,26,0,0,0,0,-188158.1566179556,-4786104.368135299,4202186.589323521,-2.30155,-0.153302,0.128183,92.75,-14.25,-12.0,0.0,0.0,0.0,0.0,0.0,0.0,2,0,41.4518890861198,-92.25133397998934,9999.99973403064,99.81710557706488,-0.0032891710941759,0.0023902723826728,,9258.460327898714,10912.736076441255,150,14044,8,2025-09-10,2025-09-12 19:21:28.212,AA,C,526931714,HAWK11,1,1,73,2,1,1,225,2,1,0,0,12,1,225,2,1,-137973.58239920562,-4795538.374971236,4193851.227995396,2.35418,2.66405,-0.505638,-91.0,37.5,41.5,-0.109375,-6.79688,7.09375,-0.0078125,-0.00195312,-0.00390625,4,0,41.349667089826895,-91.64801595259762,10916.65576089727,-52.065759602652285,2.0087194051404427,-2.5235481297530247,0.0,9258.460327898714,10912.736076441255,150,True,27.81624606359704,False,159.6228409069261,177.25886212886363,False,17.64720950607707,True,False
14054,8,1970-07-23 10:02:00.891099823,2025-09-10,2025-09-12 19:21:29.109,AA,C,2074466846,JASSM,3,119,76,2,2,1,225,9,2,0,1,26,0,0,0,0,-188060.6956804556,-4786119.436494674,4202173.876432896,-2.30155,-0.153302,0.128183,92.75,-14.25,-12.0,0.0,0.0,0.0,0.0,0.0,0.0,2,0,41.45173643402273,-92.25016197063805,10000.001691005871,99.81788143547628,-0.0023975703122194,0.0023896381641229,,9258.460327898714,10912.736076441255,150,14057,8,2025-09-10,2025-09-12 19:21:29.212,AA,C,528124714,HAWK11,1,1,73,2,1,1,225,2,1,0,0,12,1,225,2,1,-138064.17028983062,-4795500.487275924,4193891.741667271,2.34814,2.66635,-0.505926,-91.5,37.625,41.25,-0.03125,-6.79688,6.89062,0.00390625,0.0,-0.00195312,4,0,41.35015046266916,-91.64911039792864,10917.61334539054,-52.14022844240632,2.099889362975329,-2.8082669129969724,0.0,9258.460327898714,10912.736076441255,150,True,27.70848209546982,False,159.8188606994757,177.2891705393922,False,17.480001007120503,True,False
14068,8,1970-07-23 10:02:00.902369551,2025-09-10,2025-09-12 19:21:30.236,AA,C,2075719546,JASSM,3,119,76,2,2,1,225,9,2,0,1,26,0,0,0,0,-187963.23278983065,-4786134.502900924,4202161.163542271,-2.30155,-0.153302,0.128183,92.75,-14.25,-12.0,0.0,0.0,0.0,0.0,0.0,0.0,2,0,41.451583782065214,-92.24898994435408,10000.003736982302,99.81865730274608,-0.0015059550033316,0.0023890186732212,,9258.460327898714,10912.736076441255,150,14070,8,2025-09-10,2025-09-12 19:21:30.362,AA,C,529317712,HAWK11,1,1,73,2,1,1,225,2,1,0,0,12,1,225,2,1,-138156.75036795562,-4795462.043916549,4193932.6391282086,2.3538,2.66913,-0.503913,-92.0,37.5,41.25,0.046875,-6.78125,7.03125,0.015625,0.00390625,0.00195312,4,0,41.350639379039805,-91.65022883320802,10918.181943821624,-52.32178571200456,2.1105918440507887,-2.413626252001265,0.0,9258.460327898714,10912.736076441255,150,True,27.599599301388245,False,159.9916076314453,177.31988954715374,False,17.338868814878673,True,False
14081,8,1970-07-23 10:02:00.913100771,2025-09-10,2025-09-12 19:21:31.310,AA,C,2077031896,JASSM,3,119,76,2,2,1,225,9,2,0,1,26,0,0,0,0,-187861.1292742056,-4786150.284150924,4202147.843229771,-2.30155,-0.153302,0.128183,92.75,-14.25,-12.0,0.0,0.0,0.0,0.0,0.0,0.0,2,0,41.45142384974783,-92.24776211996944,10000.000527613442,99.81947010516517,-0.0005718870764847,0.0023883703358503,,9258.460327898714,10912.736076441255,150,14082,8,2025-09-10,2025-09-12 19:21:31.322,AA,C,530590244,HAWK11,1,1,73,2,1,1,225,2,1,0,0,12,1,225,2,1,-138254.65271170562,-4795421.435518111,4193975.8129563336,2.34191,2.66357,-0.504871,-92.5,37.5,41.25,-0.125,-6.73438,6.90625,0.00976562,0.0,0.00195312,4,0,41.35115561797796,-91.65141156801246,10918.738531594963,-52.08003487163867,1.963022653393016,-3.239996473622885,0.0,9258.460327898714,10912.736076441255,150,True,27.48500268298264,False,160.12866934877815,177.3525934585528,False,17.234752668741294,True,False
14096,8,1970-07-23 10:02:00.923579816,2025-09-10,2025-09-12 19:21:32.357,AA,C,2078284594,JASSM,3,119,76,2,2,1,225,9,2,0,1,26,0,0,0,0,-187763.6683367056,-4786165.348604049,4202135.126432896,-2.30145,-0.153206,0.128279,92.75,-14.25,-12.0,0.0,0.0,0.0,0.0,0.0,0.0,2,0,41.451271158154526,-92.2465901292002,9999.999874120136,99.820700093944,-0.0074036497482172,0.0071767084669095,,9258.460327898714,10912.736076441255,150,14094,8,2025-09-10,2025-09-12 19:21:32.323,AA,C,531823010,HAWK11,1,1,73,2,1,1,225,2,1,0,0,12,1,225,2,1,-138350.13318045562,-4795382.101533736,4194017.536589146,2.3585,2.66683,-0.505926,-92.875,37.625,41.0,-0.046875,-6.90625,7.07812,0.015625,0.00390625,-0.00585938,4,0,41.35165488896302,-91.65256496971678,10919.12377097503,-52.16017907790052,2.119143659880117,-2.201944751835045,0.0,9258.460327898714,10912.736076441255,150,True,27.374466573732096,False,160.2866158592272,177.38435340094154,False,17.107061865517885,True,False
14108,8,1970-07-23 10:02:00.934358911,2025-09-10,2025-09-12 19:21:33.435,AA,C,2079477640,JASSM,3,119,76,2,2,1,225,9,2,0,1,26,0,0,0,0,-187670.8480242056,-4786179.692354049,4202123.017057896,-2.30145,-0.153206,0.128279,92.75,-14.25,-12.0,0.0,0.0,0.0,0.0,0.0,0.0,2,0,41.45112575905134,-92.24547394974805,9999.999748391583,99.82143898459287,-0.0065545102678326,0.0071761403337492,,9258.460327898714,10912.736076441255,150,14106,8,2025-09-10,2025-09-12 19:21:33.324,AA,C,532976242,HAWK11,1,1,73,2,1,1,225,2,1,0,0,12,1,225,2,1,-138441.01794608062,-4795344.883760299,4194057.1000657086,2.36588,2.66529,-0.506885,-93.375,37.75,41.0,-0.15625,-7.09375,7.1875,0.0078125,-0.00195312,-0.00585938,4,0,41.35212776671317,-91.65366279492495,10919.716043422,-52.06708669378156,2.1084184707298514,-1.8180019741231168,0.0,9258.460327898714,10912.736076441255,150,True,27.269264882050077,False,160.38713444492345,177.41452661300863,False,17.036323262702357,True,False
14120,8,1970-07-23 10:02:00.943089696,2025-09-10,2025-09-12 19:21:34.308,AA,C,2080670686,JASSM,3,119,76,2,2,1,225,9,2,0,1,26,0,0,0,0,-187578.02575858065,-4786194.038057174,4202110.903776646,-2.30145,-0.153206,0.128279,92.75,-14.25,-12.0,0.0,0.0,0.0,0.0,0.0,0.0,2,0,41.45098031159434,-92.24435775102076,10000.000354557937,99.82217788587327,-0.0057053464485384,0.0071755382905228,,9258.460327898714,10912.736076441255,150,14121,8,2025-09-10,2025-09-12 19:21:34.322,AA,C,534169240,HAWK11,1,1,73,2,1,1,225,2,1,0,0,12,1,225,2,1,-138533.97888358062,-4795307.082002486,4194097.316862584,2.36454,2.66184,-0.510432,-93.75,37.375,41.25,-0.09375,-6.96875,7.10938,-0.00976562,0.0,0.00585938,4,0,41.35260816173441,-91.65478562341184,10920.440251878224,-51.80293606191096,2.1421477040592465,-1.981256241099592,0.0,9258.460327898714,10912.736076441255,150,True,27.162873468308284,False,160.5005875518769,177.44533710359727,False,16.956952183162326,True,False
14133,8,1970-07-23 10:02:00.953084131,2025-09-10,2025-09-12 19:21:35.308,AA,C,2081863734,JASSM,3,119,76,2,2,1,225,9,2,0,1,26,0,0,0,0,-187485.2034929556,-4786208.381807174,4202098.790495396,-2.30145,-0.153206,0.128279,92.75,-14.25,-12.0,0.0,0.0,0.0,0.0,0.0,0.0,2,0,41.45083486493064,-92.24324155819474,10000.000766353469,99.8229167811135,-0.0048561852669163,0.0071749475453683,,9258.460327898714,10912.736076441255,150,14132,8,2025-09-10,2025-09-12 19:21:35.211,AA,C,535322472,HAWK11,1,1,73,2,1,1,225,2,1,0,0,12,1,225,2,1,-138625.43200858062,-4795269.920869674,4194136.782682896,2.28908,2.66261,-0.510624,-94.25,37.375,41.0,0.078125,-6.98438,7.0625,-0.130859,-0.00585938,-0.00585938,4,0,41.35307992416891,-91.65589024633626,10921.012365175207,-51.82449117195155,2.177113080715201,-6.283539484510476,0.0,9258.460327898714,10912.736076441255,150,True,27.057401471235213,False,160.72393932931132,177.4757054377418,False,16.76311604208634,True,False
14146,8,1970-07-23 10:02:00.964359133,2025-09-10,2025-09-12 19:21:36.435,AA,C,2083056780,JASSM,3,119,76,2,2,1,225,9,2,0,1,26,0,0,0,0,-187392.3831804556,-4786222.723604049,4202086.677214146,-2.30145,-0.153206,0.128279,92.75,-14.25,-12.0,0.0,0.0,0.0,0.0,0.0,0.0,2,0,41.450689418605066,-92.2421253946144,10000.001171659078,99.82365565486064,-0.0040070438862243,0.0071743646643262,,9258.460327898714,10912.736076441255,150,14145,8,2025-09-10,2025-09-12 19:21:36.322,AA,C,536595004,HAWK11,1,1,73,2,1,1,225,2,1,0,0,12,1,225,2,1,-138725.96716483062,-4795230.061494674,4194179.400846959,2.25735,2.66663,-0.508131,-95.25,36.875,40.375,-0.03125,-6.9375,7.0625,0.0410156,0.00585938,-0.015625,4,0,41.35358744639997,-91.65710424286868,10922.427963308786,-52.07039792299372,2.2094063376552566,-7.998492839547748,0.0,9258.460327898714,10912.736076441255,150,True,26.94667183820725,False,161.34785340202924,177.50843783520023,False,16.172446244320174,True,False
14156,8,1970-07-23 10:02:00.973961865,2025-09-10,2025-09-12 19:21:37.396,AA,C,2084190176,JASSM,3,119,76,2,2,1,225,9,2,0,1,26,0,0,0,0,-187304.20153983065,-4786236.346650924,4202075.169401646,-2.30145,-0.153206,0.128279,92.75,-14.25,-12.0,0.0,0.0,0.0,0.0,0.0,0.0,2,0,41.450551243673154,-92.2410650165943,10000.001092814431,99.82435759791755,-0.0032003409936441,0.0071738233501271,,9258.460327898714,10912.736076441255,150,14152,8,2025-09-10,2025-09-12 19:21:37.024,AA,C,537430104,HAWK11,1,1,73,2,1,1,225,2,1,0,0,12,1,225,2,1,-138793.01599295562,-4795203.977510299,4194207.251432896,2.28717,2.67843,-0.497873,-96.0,36.625,40.0,-0.171875,-6.95312,7.0,0.107422,0.00195312,-0.0117188,4,0,41.35391908378703,-91.65791371845222,10923.363767686296,-52.90525135851106,2.181222370992414,-5.996260116296041,0.0,9258.460327898714,10912.736076441255,150,True,26.858532117024073,False,161.74422790308387,177.52828560389295,False,15.796012379116343,True,False
14168,8,1970-07-23 10:02:00.983081825,2025-09-10,2025-09-12 19:21:38.308,AA,C,2085383222,JASSM,3,119,76,2,2,1,225,9,2,0,1,26,0,0,0,0,-187211.38122733065,-4786250.686494674,4202063.052214146,-2.30145,-0.153206,0.128279,92.75,-14.25,-12.0,0.0,0.0,0.0,0.0,0.0,0.0,2,0,41.45040576150053,-92.23994886365108,9999.997194257676,99.82509646046556,-0.0023511977336221,0.007173225764731,,9258.460327898714,10912.736076441255,150,14165,8,2025-09-10,2025-09-12 19:21:38.118,AA,C,538782170,HAWK11,1,1,73,2,1,1,225,2,1,0,0,12,1,225,2,1,-138902.53943045562,-4795161.722627486,4194252.511198521,2.43232,2.68025,-0.502379,-96.375,36.5,40.125,-0.171875,-7.01562,7.125,0.109375,0.0078125,0.0117188,4,0,41.354457119511686,-91.65923588232393,10925.261047172531,-52.796993324998105,2.433643449354865,2.3750079721036497,0.0,9258.460327898714,10912.736076441255,150,True,26.742671607078375,False,161.82829037287107,177.56300779101332,False,15.748337833022411,True,False
14182,8,1970-07-23 10:02:00.993131114,2025-09-10,2025-09-12 19:21:39.313,AA,C,2086576268,JASSM,3,119,76,2,2,1,225,9,2,0,1,26,0,0,0,0,-187118.5589617056,-4786265.026338424,4202050.936979771,-2.30145,-0.153206,0.128279,92.75,-14.25,-12.0,0.0,0.0,0.0,0.0,0.0,0.0,2,0,41.45026028212448,-92.2388326923501,10000.00195452006,99.82583533303227,-0.0015020395367742,0.007172644553354,,9258.460327898714,10912.736076441255,150,14179,8,2025-09-10,2025-09-12 19:21:39.212,AA,C,540014934,HAWK11,1,1,73,2,1,1,225,2,1,0,0,12,1,225,2,1,-139001.35388358062,-4795123.610322799,4194293.399870396,2.49799,2.66433,-0.515993,-96.0,36.75,40.875,-0.15625,-6.90625,7.0,0.0332031,0.0,0.0136719,4,0,41.354942835669256,-91.66042878231517,10927.124564167156,-51.68258051416568,2.4657063686213903,5.741121191663104,0.0,9258.460327898714,10912.736076441255,150,True,26.633171624364554,False,161.39387125437975,177.59418879156,False,16.216076809845777,True,False
14196,8,1970-07-23 10:02:01.005558022,2025-09-10,2025-09-12 19:21:40.555,AA,C,2087769314,JASSM,3,119,76,2,2,1,225,9,2,0,1,26,0,0,0,0,-187025.73669608065,-4786279.364229049,4202038.819792271,-2.30145,-0.15311,0.128279,92.75,-14.25,-12.0,0.0,0.0,0.0,0.0,0.0,0.0,2,0,41.45011479036738,-92.23771652694934,10000.00227847244,99.82293792488775,-0.0047098141258552,0.0064695024223432,,9258.460327898714,10912.736076441255,150,14195,8,2025-09-10,2025-09-12 19:21:40.523,AA,C,541605600,HAWK11,1,1,73,2,1,1,225,2,1,0,0,12,1,225,2,1,-139129.80700858062,-4795072.574189986,4194347.877409458,2.38198,2.65101,-0.525101,-95.75,37.375,41.5,-0.125,-7.01562,7.04688,-0.0625,0.0,0.0,4,0,41.355592037912736,-91.66198002707206,10928.754793490389,-50.84184166555497,2.405050832122147,-1.249365735239799,0.0,9258.460327898714,10912.736076441255,150,True,26.50583762289749,False,160.9373799132106,177.63866388441602,False,16.716193020301535,True,False
14207,8,1970-07-23 10:02:01.013559447,2025-09-10,2025-09-12 19:21:41.355,AA,C,2088962360,JASSM,3,119,76,2,2,1,225,9,2,0,1,26,0,0,0,0,-186932.91638358065,-4786293.700166549,4202026.700651646,-2.30145,-0.15311,0.128279,92.75,-14.25,-12.0,0.0,0.0,0.0,0.0,0.0,0.0,2,0,41.44996928577517,-92.2366003907931,9999.99835355571,99.82367676996944,-0.0038606739078981,0.0064688605194566,,9258.460327898714,10912.736076441255,150,14205,8,2025-09-10,2025-09-12 19:21:41.214,AA,C,542321398,HAWK11,1,1,73,2,1,1,225,2,1,0,0,12,1,225,2,1,-139187.73083670562,-4795049.644502486,4194372.607878208,2.37153,2.64966,-0.52443,-96.0,37.5,41.5,0.046875,-6.92188,6.98438,0.00585938,0.00585938,-0.0078125,4,0,41.35588539021912,-91.66267951625,10930.058011119154,-50.8188716738179,2.332424854880751,-1.8855864994604343,0.0,9258.460327898714,10912.736076441255,150,True,26.420500208806423,False,160.96889167015203,177.65653259357973,False,16.702003728453118,True,False
14220,8,1970-07-23 10:02:01.023111648,2025-09-10,2025-09-12 19:21:42.311,AA,C,2090215058,JASSM,3,119,76,2,2,1,225,9,2,0,1,26,0,0,0,0,-186835.4534929556,-4786308.752900924,4202013.976042271,-2.30145,-0.15311,0.128375,92.75,-14.25,-12.0,0.0,0.0,0.0,0.0,0.0,0.0,2,0,41.44981649795174,-92.23542843452128,10000.000098642828,99.82854312871508,-0.0066354379217368,0.006467849617449,,9258.460327898714,10912.736076441255,150,14218,8,2025-09-10,2025-09-12 19:21:42.117,AA,C,543514398,HAWK11,1,1,73,2,1,1,225,2,1,0,0,12,1,225,2,1,-139284.22302420562,-4795011.498018111,4194413.819792271,2.37384,2.65705,-0.516185,-96.375,37.5,41.625,0.0,-7.09375,7.10938,0.00585938,0.00390625,0.00585938,4,0,41.356373857941854,-91.66384475374082,10932.391254736936,-51.4095398662444,2.231302160963118,-1.5667832084141875,0.0,9258.460327898714,10912.736076441255,150,True,26.309661827329816,False,161.0209590572789,177.68918736970284,False,16.683515257236955,True,False
14234,8,1970-07-23 10:02:01.034076992,2025-09-10,2025-09-12 19:21:43.407,AA,C,2091527410,JASSM,3,119,76,2,2,1,225,9,2,0,1,26,0,0,0,0,-186733.34997733065,-4786324.522432174,4202000.644011021,-2.30145,-0.15311,0.128375,92.75,-14.25,-12.0,0.0,0.0,0.0,0.0,0.0,0.0,2,0,41.4496564115621,-92.23420068226535,10000.004184655756,99.82935585505778,-0.0057013721617369,0.0064672056839308,,9258.460327898714,10912.736076441255,150,14233,8,2025-09-10,2025-09-12 19:21:43.322,AA,C,544945996,HAWK11,1,1,73,2,1,1,225,2,1,0,0,12,1,225,2,1,-139400.37341483062,-4794965.929658736,4194463.589323521,2.43452,2.64698,-0.524334,-96.625,37.375,42.0,-0.234375,-7.0625,7.03125,0.0429688,-0.00195312,0.0117188,4,0,41.35696083780004,-91.66524728465448,10936.419301080445,-50.7255364692304,2.241100966792156,1.6505891269121848,0.0,9258.460327898714,10912.736076441255,150,True,26.18460573379983,False,160.9836507375361,177.7294107335273,False,16.764088127849618,True,False
14247,8,1970-07-23 10:02:01.044077615,2025-09-10,2025-09-12 19:21:44.407,AA,C,2092660806,JASSM,3,119,76,2,2,1,225,9,2,0,1,26,0,0,0,0,-186645.1683367056,-4786338.137666549,4201989.128386021,-2.30145,-0.15311,0.128375,92.75,-14.25,-12.0,0.0,0.0,0.0,0.0,0.0,0.0,2,0,41.44951815736969,-92.23314034153393,9999.999000519369,99.83005775911708,-0.004894670756731,0.0064666639183129,,9258.460327898714,10912.736076441255,150,14248,8,2025-09-10,2025-09-12 19:21:44.523,AA,C,546377594,HAWK11,1,1,73,2,1,1,225,2,1,0,0,12,1,225,2,1,-139516.55310233062,-4794920.080049361,4194513.931120396,2.47028,2.64209,-0.526347,-96.5,37.75,42.625,-0.015625,-7.01562,6.9375,-0.00195312,0.0,0.0136719,4,0,41.357553332536106,-91.66665028771324,10941.006980289154,-50.46909209253863,2.1654010934864023,3.56915913191556,0.0,9258.460327898714,10912.736076441255,150,True,26.06709879425019,False,160.6302347390018,177.77132684472076,False,17.160339403053637,True,False
14258,8,1970-07-23 10:02:01.053099529,2025-09-10,2025-09-12 19:21:45.309,AA,C,2093794198,JASSM,3,119,76,2,2,1,225,9,2,0,1,26,0,0,0,0,-186556.9886492056,-4786351.754854049,4201977.612761021,-2.30145,-0.15311,0.128375,92.75,-14.25,-12.0,0.0,0.0,0.0,0.0,0.0,0.0,2,0,41.449379881320944,-92.2320800277394,10000.002958600717,99.83075964342088,-0.0040879838384411,0.0064661073417249,,9258.460327898714,10912.736076441255,150,14255,8,2025-09-10,2025-09-12 19:21:45.117,AA,C,547093394,HAWK11,1,1,73,2,1,1,225,2,1,0,0,12,1,225,2,1,-139574.43786795562,-4794897.055635299,4194539.330534458,2.46098,2.63317,-0.533634,-96.25,38.0,42.875,-0.078125,-7.17188,6.92188,-0.0429688,-0.00390625,0.0195312,4,0,41.35785174451891,-91.6673493847026,10943.53981309376,-49.86222081912751,2.1822021856680904,2.80120524723113,0.0,9258.460327898714,10912.736076441255,150,True,25.98427512299563,False,160.41152554954692,177.79076761778734,False,17.39818813958927,True,False
14268,8,1970-07-23 10:02:01.063100316,2025-09-10,2025-09-12 19:21:46.310,AA,C,2094927594,JASSM,3,119,76,2,2,1,225,9,2,0,1,26,0,0,0,0,-186468.80700858065,-4786365.370088424,4201966.095182896,-2.30145,-0.15311,0.128375,92.75,-14.25,-12.0,0.0,0.0,0.0,0.0,0.0,0.0,2,0,41.44924159440094,-92.23101969601316,10000.001844289109,99.8314615376686,-0.0032812801449311,0.0064655525197989,,9258.460327898714,10912.736076441255,150,14273,8,2025-09-10,2025-09-12 19:21:46.618,AA,C,548763592,HAWK11,1,1,73,2,1,1,225,2,1,0,0,12,1,225,2,1,-139709.34216483062,-4794843.031221236,4194599.167448521,2.36262,2.6233,-0.53651,-96.25,38.125,43.0,-0.125,-7.3125,6.60938,-0.0449219,0.00585938,-0.0175781,4,0,41.3585536990139,-91.66897882766848,10949.946124063625,-49.38981300380093,1.983165822489276,-3.105819907268863,0.0,9258.460327898714,10912.736076441255,150,True,25.8554504492404,False,160.3347693692747,177.84256263225672,False,17.527008505222447,True,False
14286,8,1970-07-23 10:02:01.074101081,2025-09-10,2025-09-12 19:21:47.410,AA,C,2096120638,JASSM,3,119,76,2,2,1,225,9,2,0,1,26,0,0,0,0,-186375.9847429556,-4786379.700166549,4201953.970182896,-2.30145,-0.15311,0.128375,92.75,-14.25,-12.0,0.0,0.0,0.0,0.0,0.0,0.0,2,0,41.44909602062293,-92.22990356917592,9999.998237045662,99.8322003638124,-0.002432123814239,0.0064649694996054,,9258.460327898714,10912.736076441255,150,14287,8,2025-09-10,2025-09-12 19:21:47.524,AA,C,549956590,HAWK11,1,1,73,2,1,1,225,2,1,0,0,12,1,225,2,1,-139805.66443045562,-4794804.814424361,4194641.610807896,2.34613,2.63078,-0.532483,-96.375,37.625,42.5,-0.09375,-7.51562,6.54688,0.0195312,0.00195312,-0.015625,4,0,41.359050867474245,-91.67014215374375,10954.79845392604,-49.819703576620114,2.056631737991665,-3.8473237961744617,0.0,9258.460327898714,10912.736076441255,150,True,25.74717783684103,False,160.67489869679682,177.87802439034007,False,17.223590312906534,True,False
14291,8,1970-07-23 10:02:01.082099292,2025-09-10,2025-09-12 19:21:48.209,AA,C,2097194382,JASSM,3,119,76,2,2,1,225,9,2,0,1,26,0,0,0,0,-186292.4456804556,-4786392.596650924,4201943.058073521,-2.30145,-0.15311,0.128375,92.75,-14.25,-12.0,0.0,0.0,0.0,0.0,0.0,0.0,2,0,41.44896500085792,-92.22889907123368,9999.998429515945,99.8328652947858,-0.0016678929268228,0.006464449027123,,9258.460327898714,10912.736076441255,150,14289,8,2025-09-10,2025-09-12 19:21:47.916,AA,C,550394024,HAWK11,1,1,73,2,1,1,225,2,1,0,0,12,1,225,2,1,-139840.39099295562,-4794791.169893111,4194656.777800083,2.35811,2.63039,-0.531524,-96.375,37.5,42.375,-0.21875,-7.5,6.29688,0.0410156,0.0,-0.00390625,4,0,41.359228400969215,-91.67056151930667,10956.58577265042,-49.84242279737399,2.0033889768663204,-3.1725412923324323,0.0,9258.460327898714,10912.736076441255,150,True,25.680733827037752,False,160.75207075397057,177.8884848740511,False,17.157262748328943,True,False
14308,8,1970-07-23 10:02:01.093650806,2025-09-10,2025-09-12 19:21:49.365,AA,C,2098327774,JASSM,3,119,76,2,2,1,225,9,2,0,1,26,0,0,0,0,-186204.2659929556,-4786406.209932174,4201931.538542271,-2.30145,-0.153015,0.128375,92.75,-14.25,-12.0,0.0,0.0,0.0,0.0,0.0,0.0,2,0,41.448826682608896,-92.22783877727184,10000.000928241048,99.8299309787297,-0.0049181339133526,0.0057608206740789,,9258.460327898714,10912.736076441255,150,14306,8,2025-09-10,2025-09-12 19:21:49.359,AA,C,551626788,HAWK11,1,1,73,2,1,1,225,2,1,0,0,12,1,225,2,1,-139940.25622733062,-4794751.999971236,4194700.351042271,2.4189,2.63461,-0.538619,-95.875,37.125,42.0,-0.203125,-8.3125,6.98438,0.0859375,0.0292969,-0.0078125,4,0,41.35973823588935,-91.6717675021613,10961.804804258678,-49.72731915338361,2.44605926229572,0.4380525413321086,0.0,9258.460327898714,10912.736076441255,150,True,25.572982479415998,False,160.85509552362052,177.9253040964389,False,17.091931123503752,True,False
14317,8,1970-07-23 10:02:01.100076884,2025-09-10,2025-09-12 19:21:50.007,AA,C,2099401518,JASSM,3,119,76,2,2,1,225,9,2,0,1,26,0,0,0,0,-186120.72497733065,-4786419.104463424,4201920.626432896,-2.30145,-0.153015,0.128375,92.75,-14.25,-12.0,0.0,0.0,0.0,0.0,0.0,0.0,2,0,41.44869565688772,-92.22683426520244,10000.003801389616,99.83059591554044,-0.0041538885168759,0.0057602664045904,,9258.460327898714,10912.736076441255,150,14318,8,2025-09-10,2025-09-12 19:21:50.118,AA,C,553098154,HAWK11,1,1,73,2,1,1,225,2,1,0,0,12,1,225,2,1,-140056.88513358062,-4794707.307588424,4194752.980925083,2.60432,2.63969,-0.562587,-94.375,35.75,43.75,-0.296875,-7.92188,7.17188,0.205078,-0.00195312,0.00585938,4,0,41.36033914793455,-91.67317558076071,10974.277087057477,-48.99391624135871,3.6345958851276174,11.253358840032474,0.0,9258.460327898714,10912.736076441255,150,False,25.457755918766246,False,160.1538636635679,177.97007542004008,False,17.85987992533046,True,False
14326,8,1970-07-23 10:02:01.109558486,2025-09-10,2025-09-12 19:21:50.955,AA,C,2100475278,JASSM,3,119,76,2,2,1,225,9,2,0,1,26,0,0,0,0,-186037.1839617056,-4786431.998994674,4201909.710417271,-2.30145,-0.153015,0.128375,92.75,-14.25,-12.0,0.0,0.0,0.0,0.0,0.0,0.0,2,0,41.4485645960423,-92.22582975717567,10000.001921059056,99.83126084794743,-0.0033896386040516,0.0057596861382259,,9258.460327898714,10912.736076441255,150,14328,8,2025-09-10,2025-09-12 19:21:51.158,AA,C,553416288,HAWK11,1,1,73,2,1,1,225,2,1,0,0,12,1,225,2,1,-140082.45544608062,-4794697.109346236,4194765.277800083,2.66318,2.6325,-0.564601,-93.75,36.25,44.125,-0.203125,-7.51562,6.82812,0.210938,0.00976562,0.03125,4,0,41.36047838837851,-91.67348443770004,10977.672485509696,-48.65729627440261,3.4879128037491407,14.427029627706062,0.0,9258.460327898714,10912.736076441255,150,False,25.396656980559925,False,159.7251155036149,177.97817159780936,False,18.294218989134627,True,False
14348,8,1970-07-23 10:02:01.122357845,2025-09-10,2025-09-12 19:21:52.235,AA,C,2101608668,JASSM,3,119,76,2,2,1,225,9,2,0,1,26,0,0,0,0,-185949.0042742056,-4786445.608369674,4201898.188932896,-2.30145,-0.153015,0.128471,92.75,-14.25,-12.0,0.0,0.0,0.0,0.0,0.0,0.0,2,0,41.44842625957342,-92.22476947806834,10000.002608988076,99.83605330632092,-0.0062492792750774,0.0057587692353922,,9258.460327898714,10912.736076441255,150,14346,8,2025-09-10,2025-09-12 19:21:52.211,AA,C,555603452,HAWK11,1,1,73,2,1,1,225,2,1,0,0,12,1,225,2,1,-140250.09607108062,-4794627.074189986,4194848.132292271,2.94208,2.55226,-0.603717,-89.0,40.0,47.25,-0.1875,-7.0,7.01562,0.0996094,0.00195312,0.0449219,4,0,41.36142520690484,-91.67551046275888,10996.976296964538,-44.283877409345074,2.687344649909674,28.10566556178485,0.0,9258.460327898714,10912.736076441255,150,False,25.247421343738186,False,156.30717548451784,178.055571849735,False,21.776468720648424,True,False
14357,8,1970-07-23 10:02:01.128113152,2025-09-10,2025-09-12 19:21:52.811,AA,C,2102682410,JASSM,3,119,76,2,2,1,225,9,2,0,1,26,0,0,0,0,-185865.46325858065,-4786458.498994674,4201887.272917271,-2.30145,-0.153015,0.128471,92.75,-14.25,-12.0,0.0,0.0,0.0,0.0,0.0,0.0,2,0,41.448295203946,-92.22376498016598,9999.998796752823,99.83671822849932,-0.005485034598647,0.0057582661422893,,9258.460327898714,10912.736076441255,150,14358,8,2025-09-10,2025-09-12 19:21:52.821,AA,C,556080650,HAWK11,1,1,73,2,1,1,225,2,1,0,0,12,1,225,2,1,-140286.08435233062,-4794610.328096236,4194867.488737583,2.98743,2.53509,-0.598924,-88.0,41.375,48.125,-0.25,-6.84375,6.84375,0.0859375,0.00195312,0.0488281,4,0,41.361649234936536,-91.675946005057,11000.313873394263,-43.82991078544394,1.9618969846016447,30.16615444109744,0.0,9258.460327898714,10912.736076441255,150,False,25.179702476443698,False,155.3530714916423,178.07244858414776,False,22.7430764371552,True,False
14383,8,1970-07-23 10:02:01.139095865,2025-09-10,2025-09-12 19:21:53.909,AA,C,2103994746,JASSM,3,119,76,2,2,1,225,9,2,0,1,26,0,0,0,0,-185763.3597429556,-4786474.254854049,4201873.929167271,-2.30145,-0.153015,0.128471,92.75,-14.25,-12.0,0.0,0.0,0.0,0.0,0.0,0.0,2,0,41.44813499537873,-92.2225372916341,9999.996767762032,99.83753088821142,-0.0045509736824153,0.0057576306280296,,9258.460327898714,10912.736076441255,150,14388,8,2025-09-10,2025-09-12 19:21:54.024,AA,C,557671316,HAWK11,1,1,73,2,1,1,225,2,1,0,0,12,1,225,2,1,-140401.70153983062,-4794550.269502486,4194934.200651646,3.10641,2.47316,-0.617619,-83.25,46.375,51.375,-0.28125,-7.39062,7.46875,0.0332031,0.0253906,0.0507812,4,0,41.36243672767932,-91.67734745107346,11005.450275439418,-40.8763462407116,1.012746721574335,35.03176506232198,0.0,9258.460327898714,10912.736076441255,150,False,25.052348136097585,False,151.477647324988,178.14294224267155,False,26.677879664008337,True,False
14402,8,1970-07-23 10:02:01.148119495,2025-09-10,2025-09-12 19:21:54.811,AA,C,2105128140,JASSM,3,119,76,2,2,1,225,9,2,0,1,26,0,0,0,0,-185675.1800554556,-4786487.862275924,4201862.405729771,-2.30145,-0.153015,0.128471,92.75,-14.25,-12.0,0.0,0.0,0.0,0.0,0.0,0.0,2,0,41.447996627006376,-92.2214770274225,10000.001319032935,99.83823272050348,-0.003744290847404,0.0057570848468651,,9258.460327898714,10912.736076441255,150,14408,8,2025-09-10,2025-09-12 19:21:55.023,AA,C,558864314,HAWK11,1,1,73,2,1,1,225,2,1,0,0,12,1,225,2,1,-140484.00036795562,-4794500.929658736,4194987.563932896,-3.10948,2.41851,-0.631329,-79.125,50.25,54.5,-0.25,-8.09375,8.09375,0.0488281,0.0371094,0.0488281,4,0,41.3630761288122,-91.67834735613248,11005.636063247182,-38.362529222318926,0.1495056698073711,37.08261885447041,0.0,9258.460327898714,10912.736076441255,150,False,24.952155221234708,False,148.10779197935565,178.2035458262583,False,30.10457598236348,False,False
14422,8,1970-07-23 10:02:01.160027234,2025-09-10,2025-09-12 19:21:56.002,AA,C,2106261534,JASSM,3,119,76,2,2,1,225,9,2,0,1,26,0,0,0,0,-185586.99841483065,-4786501.467744674,4201850.880339146,-2.30145,-0.153015,0.128471,92.75,-14.25,-12.0,0.0,0.0,0.0,0.0,0.0,0.0,2,0,41.44785824776105,-92.22041674527786,10000.000798729763,99.83893456273896,-0.0029375912336726,0.0057565408204702,,9258.460327898714,10912.736076441255,150,14424,8,2025-09-10,2025-09-12 19:21:56.023,AA,C,560057314,HAWK11,1,1,73,2,1,1,225,2,1,0,0,12,1,225,2,1,-140561.83239920562,-4794447.334932174,4195044.712370396,-3.06192,2.37268,-0.649545,-74.375,54.25,58.25,-0.15625,-8.26562,8.34375,0.0214844,0.0429688,0.0546875,4,0,41.36376715885267,-91.67929543588292,11003.239738252772,-36.03679065486903,-0.1803638943316394,38.23752279562451,0.0,9258.460327898714,10912.736076441255,150,False,24.853642853555826,False,144.31022709466725,178.27273590875205,False,33.96959665458429,False,False
14435,8,1970-07-23 10:02:01.167097752,2025-09-10,2025-09-12 19:21:56.709,AA,C,2107394928,JASSM,3,119,76,2,2,1,225,9,2,0,1,26,0,0,0,0,-185498.8167742056,-4786515.071260299,4201839.354948521,-2.30145,-0.153015,0.128471,92.75,-14.25,-12.0,0.0,0.0,0.0,0.0,0.0,0.0,2,0,41.447719870366825,-92.219356468544,9999.999634729284,99.83963639946528,-0.0021308942555885,0.0057560080961448,,9258.460327898714,10912.736076441255,150,14431,8,2025-09-10,2025-09-12 19:21:56.321,AA,C,560454980,HAWK11,1,1,73,2,1,1,225,2,1,0,0,12,1,225,2,1,-140587.14294608062,-4794428.102510299,4195065.015104771,-3.07362,2.36463,-0.645327,-72.875,56.0,59.625,-0.234375,-8.4375,8.48438,-0.103516,0.0292969,0.0585938,4,0,41.3640142049389,-91.67960438207484,11001.747977387708,-35.863711227978506,-0.5848198480412846,37.2879316107599,0.0,9258.460327898714,10912.736076441255,150,False,24.788704489490204,False,142.95955729309185,178.2962194849528,False,35.342796206027785,False,False
14451,8,1970-07-23 10:02:01.177978635,2025-09-10,2025-09-12 19:21:57.797,AA,C,2108528322,JASSM,3,119,76,2,2,1,225,9,2,0,1,26,0,0,0,0,-185410.63513358065,-4786528.674775924,4201827.827604771,-2.30145,-0.152919,0.128471,92.75,-14.25,-12.0,0.0,0.0,0.0,0.0,0.0,0.0,2,0,41.44758147002207,-92.2182961963161,9999.998384893126,99.83670214694968,-0.0053811169214561,0.0050519010705636,,9258.460327898714,10912.736076441255,150,14450,8,2025-09-10,2025-09-12 19:21:57.757,AA,C,561647978,HAWK11,1,1,73,2,1,1,225,2,1,0,0,12,1,225,2,1,-140658.23278983062,-4794370.078096236,4195126.811003208,3.05837,2.29752,-0.670446,-68.375,58.625,63.375,-0.28125,-8.67188,8.73438,-0.189453,0.0390625,0.0449219,4,0,41.36476412322921,-91.68047353674608,10998.046907902675,-32.52278786694843,-0.9876131543591394,26.22758702319809,0.0,9258.460327898714,10912.736076441255,150,False,24.69300694109289,False,139.630659429215,178.37588630810592,False,38.75253635661187,False,False
14457,8,1970-07-23 10:02:01.186075863,2025-09-10,2025-09-12 19:21:58.607,AA,C,2109602064,JASSM,3,119,76,2,2,1,225,9,2,0,1,26,0,0,0,0,-185327.09607108065,-4786541.561494674,4201816.905729771,-2.30145,-0.152919,0.128471,92.75,-14.25,-12.0,0.0,0.0,0.0,0.0,0.0,0.0,2,0,41.447450341131386,-92.21729174962834,9999.996471474336,99.8373670241238,-0.0046168878867027,0.0050513295621356,,9258.460327898714,10912.736076441255,150,14461,8,2025-09-10,2025-09-12 19:21:58.822,AA,C,563397710,HAWK11,1,1,73,2,1,1,225,2,1,0,0,12,1,225,2,1,-140754.29919608062,-4794282.216768111,4195223.814909458,2.97142,2.26972,-0.708507,-63.0,59.875,68.625,-0.203125,-8.51562,8.5,-0.0253906,0.0214844,0.0273438,4,0,41.36592484622184,-91.68165140371072,10999.05867852338,-30.35810774879883,0.2696870413114526,20.218285580490267,0.0,9258.460327898714,10912.736076441255,150,False,24.581382099185426,False,135.87376814688415,178.50531061882236,False,42.645251285488094,False,False
14474,8,1970-07-23 10:02:01.198378219,2025-09-10,2025-09-12 19:21:59.837,AA,C,2110735458,JASSM,3,119,76,2,2,1,225,9,2,0,1,26,0,0,0,0,-185238.9144304556,-4786555.165010299,4201805.378386021,-2.30145,-0.152919,0.128471,92.75,-14.125,-12.0,0.0,0.0,0.0,0.0,0.0,0.0,2,0,41.44731192175117,-92.21623148617692,10000.003314434392,99.83806884642009,-0.0038101886361218,0.0050507325515882,,9258.460327898714,10912.736076441255,150,14473,8,2025-09-10,2025-09-12 19:21:59.755,AA,C,564033976,HAWK11,1,1,73,2,1,1,225,2,1,0,0,12,1,225,2,1,-140787.28747733062,-4794249.139619674,4195261.046354771,2.9741,2.24805,-0.716177,-61.25,60.75,70.125,-0.15625,-8.26562,8.23438,-0.046875,0.0234375,0.0390625,4,0,41.36636718657008,-91.68205690066866,11000.75802801312,-29.3243143664876,0.1888412933187649,19.56483351794697,0.0,9258.460327898714,10912.736076441255,150,False,24.509904883636874,False,134.578745803665,178.49854600433503,False,43.943107067152795,False,False
14483,8,1970-07-23 10:02:01.205118400,2025-09-10,2025-09-12 19:22:00.511,AA,C,2111868854,JASSM,3,119,76,2,2,1,225,9,2,0,1,26,0,0,0,0,-185150.73278983065,-4786568.764619674,4201793.849089146,-2.30145,-0.152919,0.128471,92.75,-14.125,-12.0,0.0,0.0,0.0,0.0,0.0,0.0,2,0,41.44717350267333,-92.21517122903948,10000.000472525466,99.83877066260798,-0.0030034924225038,0.005050145201286,,9258.460327898714,10912.736076441255,150,14479,8,2025-09-10,2025-09-12 19:22:00.324,AA,C,565266742,HAWK11,1,1,73,2,1,1,225,2,1,0,0,12,1,225,2,1,-140848.22107108062,-4794185.707002486,4195334.373503208,3.02348,2.19436,-0.741776,-57.875,61.5,72.875,-0.03125,-8.0,8.0625,0.00585938,0.015625,0.0253906,4,0,41.36722889259584,-91.68280673900983,11008.033538788615,-26.610104060786355,0.4005965741225568,20.35835593019693,0.0,9258.460327898714,10912.736076441255,150,False,24.418308847030733,False,132.37723999720825,178.59665130346113,False,46.24798581627874,False,False
14497,8,1970-07-23 10:02:01.220037647,2025-09-10,2025-09-12 19:22:02.003,AA,C,2113061900,JASSM,3,119,76,2,2,1,225,9,2,0,1,26,0,0,0,0,-185057.9105242056,-4786583.081025924,4201781.712370396,-2.30145,-0.152919,0.128567,92.75,-14.125,-12.0,0.0,0.0,0.0,0.0,0.0,0.0,2,0,41.44702777742273,-92.21405517943198,10000.003206122306,99.84360006310408,-0.0058206140528317,0.0050492312386549,,9258.460327898714,10912.736076441255,150,14500,8,2025-09-10,2025-09-12 19:22:02.023,AA,C,567215306,HAWK11,1,1,73,2,1,1,225,2,1,0,0,12,1,225,2,1,-140938.15075858062,-4794081.815400924,4195455.840300083,3.00814,2.12917,-0.761526,-52.625,63.5,75.875,0.03125,-7.28125,7.3125,-0.0761719,0.0078125,0.03125,4,0,41.36865118048106,-91.68391704004245,11022.21994209199,-23.66195642791172,0.2299123599607535,16.944567245817677,0.0,9258.460327898714,10912.736076441255,150,False,24.301811762994486,False,129.12451393992052,178.76337130170862,False,49.67153987073622,False,False
14504,8,1970-07-23 10:02:01.224096405,2025-09-10,2025-09-12 19:22:02.409,AA,C,2114195294,JASSM,3,119,76,2,2,1,225,9,2,0,1,26,0,0,0,0,-184969.72888358065,-4786596.678682174,4201770.181120396,-2.30145,-0.152919,0.128567,92.75,-14.125,-12.0,0.0,0.0,0.0,0.0,0.0,0.0,2,0,41.44688933673173,-92.2129949324487,9999.999853318152,99.84430186864458,-0.005013918160995,0.0050486997639518,,9258.460327898714,10912.736076441255,150,14503,8,2025-09-10,2025-09-12 19:22:02.321,AA,C,567612972,HAWK11,1,1,73,2,1,1,225,2,1,0,0,12,1,225,2,1,-140954.88122733062,-4794060.021455611,4195481.026823521,3.00545,2.11181,-0.766703,-51.375,64.125,76.125,-0.0625,-7.29688,7.28125,-0.0546875,0.0078125,0.03125,4,0,41.3689479261283,-91.68412447079002,11024.405559352936,-22.88575581251224,0.2058788715755063,16.105794138385342,0.0,9258.460327898714,10912.736076441255,150,False,24.240878198510806,False,128.424916469064,178.79710918024907,False,50.40454655572618,False,False
14515,8,1970-07-23 10:02:01.233119653,2025-09-10,2025-09-12 19:22:03.311,AA,C,2115269036,JASSM,3,119,76,2,2,1,225,9,2,0,1,26,0,0,0,0,-184886.18982108065,-4786609.561494674,4201759.255339146,-2.30145,-0.152919,0.128567,92.75,-14.125,-12.0,0.0,0.0,0.0,0.0,0.0,0.0,2,0,41.44675815844199,-92.21199050891734,9999.9995425534,99.84496672138772,-0.0042496897991513,0.0050481793567327,,9258.460327898714,10912.736076441255,150,14516,8,2025-09-10,2025-09-12 19:22:03.321,AA,C,568766204,HAWK11,1,1,73,2,1,1,225,2,1,0,0,12,1,225,2,1,-141003.24060233062,-4793997.411104049,4195554.210417271,2.98091,2.08736,-0.769867,-49.25,65.25,77.25,0.03125,-6.82812,6.85938,-0.0429688,-0.00390625,0.015625,4,0,41.369805957228586,-91.68472392394897,11032.50293394716,-21.889807057781944,-0.0271961422222982,13.727762888534183,0.0,9258.460327898714,10912.736076441255,150,False,24.15873776237702,False,127.09641355090525,178.89896546982666,False,51.83712583492333,False,False
14529,8,1970-07-23 10:02:01.243991667,2025-09-10,2025-09-12 19:22:04.399,AA,C,2116402430,JASSM,3,119,76,2,2,1,225,9,2,0,1,26,0,0,0,0,-184798.01013358065,-4786623.159150924,4201747.722136021,-2.30145,-0.152919,0.128567,92.75,-14.125,-12.0,0.0,0.0,0.0,0.0,0.0,0.0,2,0,41.44661968509208,-92.2109302940567,10000.000226271914,99.84566850191204,-0.0034430087801232,0.0050476313933709,,9258.460327898714,10912.736076441255,150,14530,8,2025-09-10,2025-09-12 19:22:04.523,AA,C,570038736,HAWK11,1,1,73,2,1,1,225,2,1,0,0,12,1,225,2,1,-141053.44568045562,-4793926.074189986,4195636.187956333,2.99606,2.05716,-0.778591,-46.875,66.625,77.875,-0.328125,-6.875,6.85938,0.046875,0.0136719,0.0214844,4,0,41.37077493374156,-91.68534849877618,11038.33233055424,-20.555973435818032,-0.0337814914459285,13.385208666419649,0.0,9258.460327898714,10912.736076441255,150,False,24.071766163744822,False,125.72038338395194,179.01554657397202,False,53.33130283416837,False,False
14539,8,1970-07-23 10:02:01.253118239,2025-09-10,2025-09-12 19:22:05.311,AA,C,2117595476,JASSM,3,119,76,2,2,1,225,9,2,0,1,26,0,0,0,0,-184705.18591483065,-4786637.469697799,4201735.581511021,-2.30145,-0.152919,0.128567,92.75,-14.125,-12.0,0.0,0.0,0.0,0.0,0.0,0.0,2,0,41.44647392766237,-92.20981424279148,9999.99739052597,99.84640723974836,-0.0025938434270335,0.0050470740760747,,9258.460327898714,10912.736076441255,150,14537,8,2025-09-10,2025-09-12 19:22:05.117,AA,C,570873836,HAWK11,1,1,73,2,1,1,225,2,1,0,0,12,1,225,2,1,-141085.68396170562,-4793878.769502486,4195690.648893833,3.04025,2.03511,-0.781371,-45.375,67.5,78.5,-0.0625,-6.5625,6.65625,0.0214844,0.0,0.0214844,4,0,41.37141833738309,-91.6857500938779,11042.343102198698,-19.66146210215196,-0.2106046832427184,15.02715952185292,0.0,9258.460327898714,10912.736076441255,150,False,23.995865981422327,False,124.81436978843018,179.09250289701797,False,54.316495478002324,False,False
14551,8,1970-07-23 10:02:01.262378449,2025-09-10,2025-09-12 19:22:06.237,AA,C,2118728870,JASSM,3,119,76,2,2,1,225,9,2,0,1,26,0,0,0,0,-184617.0042742056,-4786651.065400924,4201724.048307896,-2.30145,-0.152823,0.128567,92.75,-14.125,-12.0,0.0,0.0,0.0,0.0,0.0,0.0,2,0,41.446335446324376,-92.2087540147423,10000.001619561695,99.84347303597312,-0.0058440645126573,0.0043424865905358,,9258.460327898714,10912.736076441255,150,14552,8,2025-09-10,2025-09-12 19:22:06.321,AA,C,572305434,HAWK11,1,1,73,2,1,1,225,2,1,0,0,12,1,225,2,1,-141137.79528983062,-4793795.717744674,4195784.232878208,3.00114,1.99523,-0.781563,-42.75,69.375,78.875,-0.1875,-6.53125,6.53125,-0.160156,0.0,0.0292969,4,0,41.37253500637143,-91.68640158137585,11044.661266264362,-18.133996027422995,-0.7544945672271163,11.163600076410848,0.0,9258.460327898714,10912.736076441255,150,False,23.906240375524344,False,123.31460536434251,179.2282150495807,False,55.95491006754078,False,False
14562,8,1970-07-23 10:02:01.273075197,2025-09-10,2025-09-12 19:22:07.307,AA,C,2119921916,JASSM,3,119,76,2,2,1,225,9,2,0,1,26,0,0,0,0,-184524.1800554556,-4786665.373994674,4201711.905729771,-2.30145,-0.152823,0.128567,92.75,-14.125,-12.0,0.0,0.0,0.0,0.0,0.0,0.0,2,0,41.44618966622578,-92.20763797411917,9999.998722069797,99.8442117626436,-0.0049948995546406,0.0043418736623946,,9258.460327898714,10912.736076441255,150,14566,8,2025-09-10,2025-09-12 19:22:07.523,AA,C,573816566,HAWK11,1,1,73,2,1,1,225,2,1,0,0,12,1,225,2,1,-141190.08239920562,-4793705.781221236,4195884.322721958,2.89462,1.9635,-0.788083,-41.0,70.75,79.375,0.046875,-6.79688,6.8125,-0.0976562,-0.00976562,-0.0195312,4,0,41.37373651023744,-91.68705761174132,11044.166893450412,-16.795925052541836,-0.8085783824749252,3.7575314791583847,0.0,9258.460327898714,10912.736076441255,150,True,23.81308787510699,False,122.26807408938839,179.37347107537886,False,57.154503509530116,False,False
14573,8,1970-07-23 10:02:01.282100090,2025-09-10,2025-09-12 19:22:08.210,AA,C,2121055312,JASSM,3,119,76,2,2,1,225,9,2,0,1,26,0,0,0,0,-184435.99841483065,-4786678.967744674,4201700.368620396,-2.30145,-0.152823,0.128567,92.75,-14.125,-12.0,0.0,0.0,0.0,0.0,0.0,0.0,2,0,41.44605115009975,-92.20657775622584,9999.998198793604,99.84491353730104,-0.0041882021286594,0.0043412745027408,,9258.460327898714,10912.736076441255,150,14575,8,2025-09-10,2025-09-12 19:22:08.211,AA,C,574611898,HAWK11,1,1,73,2,1,1,225,2,1,0,0,12,1,225,2,1,-141217.55310233062,-4793658.005830611,4195937.476042271,2.8418,1.96829,-0.783481,-40.875,71.25,79.75,0.078125,-6.875,6.8125,-0.0527344,0.0,0.0,4,0,41.37437471009453,-91.68740247240969,11043.852626279408,-17.06232469110211,-0.9986349537147794,0.9293467718817348,0.0,9258.460327898714,10912.736076441255,150,True,23.74252304371727,False,122.10144481047442,179.44859100296873,False,57.40339396872305,False,False
14587,8,1970-07-23 10:02:01.292109911,2025-09-10,2025-09-12 19:22:09.210,AA,C,2122248356,JASSM,3,119,76,2,2,1,225,9,2,0,1,26,0,0,0,0,-184343.1761492056,-4786693.276338424,4201688.226042271,-2.30145,-0.152823,0.128567,92.75,-14.125,-12.0,0.0,0.0,0.0,0.0,0.0,0.0,2,0,41.44590534843442,-92.2054617486901,10000.00446553141,99.84565223790194,-0.0033390542925979,0.0043406580605274,,9258.460327898714,10912.736076441255,150,14585,8,2025-09-10,2025-09-12 19:22:09.118,AA,C,575725364,HAWK11,1,1,73,2,1,1,225,2,1,0,0,12,1,225,2,1,-141254.78161795562,-4793592.090791549,4196010.690886021,2.85761,1.96637,-0.793643,-40.625,71.75,80.0,-0.140625,-7.14062,7.0625,0.0742188,0.0117188,0.0136719,4,0,41.37525453085591,-91.68787025264491,11043.114891911504,-16.80842293520841,-0.4681341595572267,1.7546068331915017,0.0,9258.460327898714,10912.736076441255,150,True,23.661423690115214,False,121.89576845638864,179.54894972927647,False,57.72352025022669,False,False
14599,8,1970-07-23 10:02:01.301117146,2025-09-10,2025-09-12 19:22:10.111,AA,C,2123381752,JASSM,3,119,76,2,2,1,225,9,2,0,1,26,0,0,0,0,-184254.99450858065,-4786706.866182174,4201676.686979771,-2.30145,-0.152823,0.128567,92.75,-14.125,-12.0,0.0,0.0,0.0,0.0,0.0,0.0,2,0,41.44576682232254,-92.2044015418519,9999.998631660006,99.84635400128036,-0.0025323598777273,0.0043400685217083,,9258.460327898714,10912.736076441255,150,14596,8,2025-09-10,2025-09-12 19:22:10.023,AA,C,576799062,HAWK11,1,1,73,2,1,1,225,2,1,0,0,12,1,225,2,1,-141290.46716483062,-4793527.602510299,4196082.568815708,2.93681,1.96359,-0.796711,-39.875,72.125,80.5,-0.09375,-6.76562,6.6875,0.0644531,-0.0078125,0.00390625,4,0,41.37611710854278,-91.68831911659728,11042.88268432072,-16.648395403842994,-0.3344127752325324,6.177168819023184,0.0,9258.460327898714,10912.736076441255,150,True,23.583985861313042,False,121.43674041358977,179.6393683103044,False,58.29632255474109,False,False
14611,8,1970-07-23 10:02:01.311115506,2025-09-10,2025-09-12 19:22:11.111,AA,C,2124574798,JASSM,3,119,76,2,2,1,225,9,2,0,1,26,0,0,0,0,-184162.1722429556,-4786721.172822799,4201664.540495396,-2.30145,-0.152823,0.128663,92.75,-14.125,-12.0,0.0,0.0,0.0,0.0,0.0,0.0,2,0,41.44562098481401,-92.20328554495984,10000.0005949235,99.85118339177234,-0.0053494326013641,0.0043391863230622,,9258.460327898714,10912.736076441255,150,14613,8,2025-09-10,2025-09-12 19:22:11.211,AA,C,578270428,HAWK11,1,1,73,2,1,1,225,2,1,0,0,12,1,225,2,1,-141338.73669608062,-4793438.054658736,4196181.745573521,2.97669,1.93627,-0.807162,-38.375,72.75,81.125,-0.25,-7.0625,6.96875,-0.0976562,0.00195312,0.0078125,4,0,41.377310828326905,-91.68892710123112,11041.104950861472,-15.43125377986227,-0.0861852448029493,7.332751901985951,0.0,9258.460327898714,10912.736076441255,150,True,23.493577116274313,False,120.58841120246613,179.7345473187032,False,59.303244171298914,False,False
14624,8,1970-07-23 10:02:01.321136936,2025-09-10,2025-09-12 19:22:12.113,AA,C,2125767844,JASSM,3,119,76,2,2,1,225,9,2,0,1,26,0,0,0,0,-184069.34900076807,-4786735.475557174,4201652.394011021,-2.30145,-0.152823,0.128663,92.75,-14.125,-12.0,0.0,0.0,0.0,0.0,0.0,0.0,2,0,41.44547515995157,-92.2021695431896,9999.997471145874,99.85192208228273,-0.0045002795276446,0.0043386401571214,,9258.460327898714,10912.736076441255,150,14626,8,2025-09-10,2025-09-12 19:22:12.211,AA,C,579383894,HAWK11,1,1,73,2,1,1,225,2,1,0,0,12,1,225,2,1,-141373.99646170562,-4793369.824189986,4196257.520964146,2.9556,1.91613,-0.818666,-37.375,73.0,81.5,-0.15625,-7.25,7.23438,0.0175781,0.0,0.0117188,4,0,41.37822204655878,-91.68937222647504,11040.098754985713,-14.485026322079465,0.3238557522216039,5.2884566901282,0.0,9258.460327898714,10912.736076441255,150,True,23.41348243541673,False,120.04683670028855,179.7569170841561,False,59.967405580208556,False,False
14637,8,1970-07-23 10:02:01.331211076,2025-09-10,2025-09-12 19:22:13.121,AA,C,2126960890,JASSM,3,119,76,2,2,1,225,9,2,0,1,26,0,0,0,0,-183976.52575858065,-4786749.780244674,4201640.245573521,-2.30145,-0.152823,0.128663,92.75,-14.125,-12.0,0.0,0.0,0.0,0.0,0.0,0.0,2,0,41.4453292994577,-92.20105354551956,9999.99951039405,99.85266076794343,-0.0036511215256835,0.004338069628825,,9258.460327898714,10912.736076441255,150,14639,8,2025-09-10,2025-09-12 19:22:13.211,AA,C,580576892,HAWK11,1,1,73,2,1,1,225,2,1,0,0,12,1,225,2,1,-141410.93005545562,-4793296.697236861,4196339.128386021,2.86289,1.91939,-0.818762,-36.875,73.125,82.125,0.015625,-7.09375,6.6875,-0.0800781,0.00976562,0.00976562,4,0,41.37920146681616,-91.6898390797756,11039.81952233472,-14.606465792522474,0.3653680616548188,0.1123218155234143,0.0,9258.460327898714,10912.736076441255,150,True,23.33183649517753,False,119.72055100697162,179.7157489055074,False,60.42722969233115,False,False
14651,8,1970-07-23 10:02:01.341139630,2025-09-10,2025-09-12 19:22:14.113,AA,C,2128153938,JASSM,3,119,76,2,2,1,225,9,2,0,1,26,0,0,0,0,-183883.7034929556,-4786764.081025924,4201628.097136021,-2.30145,-0.152823,0.128663,92.75,-14.125,-12.0,0.0,0.0,0.0,0.0,0.0,0.0,2,0,41.445183451163,-92.19993756631408,9999.9966471087,99.85339943924323,-0.0028019773879364,0.0043375200207415,,9258.460327898714,10912.736076441255,150,14652,8,2025-09-10,2025-09-12 19:22:14.118,AA,C,581650590,HAWK11,1,1,73,2,1,1,225,2,1,0,0,12,1,225,2,1,-141443.84997733062,-4793231.390596236,4196412.204557896,2.83873,1.91326,-0.823844,-36.875,73.125,82.125,-0.09375,-7.42188,6.85938,-0.0175781,0.0,-0.0078125,4,0,41.38007747915656,-91.69025525531724,11039.996366897176,-14.296423500856111,0.5803894526205983,-1.526665396044434,0.0,9258.460327898714,10912.736076441255,150,True,23.253606623307558,False,119.72055100697162,179.63848089539627,False,60.54692501265402,False,False
14664,8,1970-07-23 10:02:01.351138320,2025-09-10,2025-09-12 19:22:15.113,AA,C,2129346982,JASSM,3,119,76,2,2,1,225,9,2,0,1,26,0,0,0,0,-183790.88025076807,-4786778.383760299,4201615.948698521,-2.30145,-0.152727,0.128663,92.75,-14.125,-12.0,0.0,0.0,0.0,0.0,0.0,0.0,2,0,41.44503758063636,-92.19882157953856,10000.003096050244,99.85050221968916,-0.0060097333924925,0.0036323947330681,,9258.460327898714,10912.736076441255,150,14666,8,2025-09-10,2025-09-12 19:22:15.211,AA,C,582803822,HAWK11,1,1,73,2,1,1,225,2,1,0,0,12,1,225,2,1,-141479.35388358062,-4793160.980439986,4196491.595182896,2.82646,1.9169,-0.82672,-36.875,71.75,83.125,-0.03125,-7.40625,6.35938,0.00195312,0.00390625,0.0,4,0,41.38102602227765,-91.6907041022814,11041.503513978603,-14.387749714554626,0.7786778698185864,-2.0774129320080745,0.0,9258.460327898714,10912.736076441255,150,True,23.173307906519064,False,119.71721619067208,179.53314422545742,False,60.68476552089514,False,False
14679,8,1970-07-23 10:02:01.362758838,2025-09-10,2025-09-12 19:22:16.275,AA,C,2130540030,JASSM,3,119,76,2,2,1,225,9,2,0,1,26,0,0,0,0,-183698.05700858065,-4786792.682588424,4201603.798307896,-2.30145,-0.152727,0.128663,92.75,-14.125,-12.0,0.0,0.0,0.0,0.0,0.0,0.0,2,0,41.44489170935647,-92.19770559955454,10000.000308804574,99.85124088727282,-0.0051605810630905,0.0036317912314872,,9258.460327898714,10912.736076441255,150,14677,8,2025-09-10,2025-09-12 19:22:16.158,AA,C,583599156,HAWK11,1,1,73,2,1,1,225,2,1,0,0,12,1,225,2,1,-141504.09216483062,-4793111.984346236,4196546.524870396,2.83115,1.9168,-0.828445,-37.0,72.625,81.75,-0.03125,-7.625,6.26562,0.0292969,0.00195312,0.0078125,4,0,41.38168394395991,-91.69101683331236,11041.87390649054,-14.357165114853498,0.8734052874147312,-1.8117843020266289,0.0,9258.460327898714,10912.736076441255,150,True,23.102026542624078,False,119.87401255316735,179.45290228342347,False,60.61566276600383,False,False
14690,8,1970-07-23 10:02:01.373555714,2025-09-10,2025-09-12 19:22:17.355,AA,C,2131792728,JASSM,3,119,76,2,2,1,225,9,2,0,1,26,0,0,0,0,-183600.59314139312,-4786807.698213424,4201591.038542271,-2.30145,-0.152727,0.128663,92.75,-14.125,-12.0,0.0,0.0,0.0,0.0,0.0,0.0,2,0,41.44473850917335,-92.19653383152028,10000.002919135612,99.85201647868854,-0.0042689711543242,0.0036311334608902,,9258.460327898714,10912.736076441255,150,14692,8,2025-09-10,2025-09-12 19:22:17.711,AA,C,586024920,HAWK11,1,1,73,2,1,1,225,2,1,0,0,12,1,225,2,1,-141578.56091483062,-4792966.034150924,4196711.460417271,2.82904,1.90827,-0.837745,-36.625,71.5,81.0,-0.15625,-7.57812,6.10938,0.0,-0.00195312,0.00976562,4,0,41.38365247450028,-91.6919577305081,11045.89414402706,-13.89623099370999,1.2986720631873288,-2.2854778697524027,0.0,9258.460327898714,10912.736076441255,150,True,22.987714880659347,False,119.90053560431234,179.1988268575358,False,60.86297196768977,False,False
14704,8,1970-07-23 10:02:01.382389300,2025-09-10,2025-09-12 19:22:18.238,AA,C,2132866470,JASSM,3,119,76,2,2,1,225,9,2,0,1,26,0,0,0,0,-183517.05212576807,-4786820.565400924,4201580.101042271,-2.30145,-0.152727,0.128663,92.75,-14.125,-12.0,0.0,0.0,0.0,0.0,0.0,0.0,2,0,41.444607201521166,-92.195529458172,9999.999704566257,99.85268126994684,-0.0035047330663013,0.0036305863324063,,9258.460327898714,10912.736076441255,150,14702,8,2025-09-10,2025-09-12 19:22:18.157,AA,C,586502120,HAWK11,1,1,73,2,1,1,225,2,1,0,0,12,1,225,2,1,-141593.01599295562,-4792937.952119674,4196743.265104771,2.82511,1.90444,-0.8388,-36.625,71.5,80.625,0.046875,-7.53125,6.25,-0.0234375,-0.00585938,-0.00585938,4,0,41.38403168358011,-91.69214028635704,11046.831286102217,-13.73855032576044,1.317913394321698,-2.670416034416473,0.0,9258.460327898714,10912.736076441255,150,True,22.93018656444371,False,119.949906636378,179.1467400524345,False,60.86733465808319,False,False
14715,8,1970-07-23 10:02:01.390917823,2025-09-10,2025-09-12 19:22:19.091,AA,C,2133999866,JASSM,3,119,76,2,2,1,225,9,2,0,1,26,0,0,0,0,-183428.86950858065,-4786834.147432174,4201568.556120396,-2.30145,-0.152727,0.128663,92.75,-14.125,-12.0,0.0,0.0,0.0,0.0,0.0,0.0,2,0,41.44446859104643,-92.19446928551024,10000.000788191272,99.85338299269849,-0.0026980337239726,0.0036300109768405,,9258.460327898714,10912.736076441255,150,14714,8,2025-09-10,2025-09-12 19:22:19.023,AA,C,587575818,HAWK11,1,1,73,2,1,1,225,2,1,0,0,12,1,225,2,1,-141625.90271170562,-4792874.215791549,4196815.364714146,2.75733,1.91748,-0.837745,-36.875,70.875,80.0,-0.09375,-7.625,6.1875,-0.0976562,-0.00195312,-0.00195312,4,0,41.3848917600178,-91.6925555726239,11048.781651936337,-14.236228147453122,1.3961467174396769,-6.010316859998625,0.0,9258.460327898714,10912.736076441255,150,True,22.855267213329313,False,120.21274593460416,179.0293963236207,False,60.72630856451231,False,False
14728,8,1970-07-23 10:02:01.400437249,2025-09-10,2025-09-12 19:22:20.043,AA,C,2135133258,JASSM,3,119,76,2,2,1,225,9,2,0,1,26,0,0,0,0,-183340.6878679556,-4786847.729463424,4201557.009245396,-2.30145,-0.152727,0.128663,92.75,-14.125,-12.0,0.0,0.0,0.0,0.0,0.0,0.0,2,0,41.44432995739994,-92.19340912903304,10000.001878196215,99.85408470280748,-0.0018913406894207,0.0036294208855788,,9258.460327898714,10912.736076441255,150,14726,8,2025-09-10,2025-09-12 19:22:19.913,AA,C,588649516,HAWK11,1,1,73,2,1,1,225,2,1,0,0,12,1,225,2,1,-141659.48474295562,-4792810.795869674,4196887.050261021,2.74602,1.92332,-0.835061,-37.625,70.5,79.375,-0.078125,-7.57812,6.25,0.0195312,-0.00195312,-0.00195312,4,0,41.38574703504534,-91.69297906293455,11050.66829379345,-14.495016355026742,1.3116738051356267,-6.41581678953667,0.0,9258.460327898714,10912.736076441255,150,True,22.78013222878806,False,120.6941986648744,178.91116422444549,False,60.366181041697146,False,False
14740,8,1970-07-23 10:02:01.409114469,2025-09-10,2025-09-12 19:22:20.911,AA,C,2136266652,JASSM,3,119,76,2,2,1,225,9,2,0,1,26,0,0,0,0,-183252.50622733065,-4786861.309541549,4201545.462370396,-2.30145,-0.152727,0.128759,92.75,-14.125,-12.0,0.0,0.0,0.0,0.0,0.0,0.0,2,0,41.44419132560642,-92.19234897796292,10000.002324085246,99.8588771539764,-0.0047508220085862,0.0036286337789054,,9258.460327898714,10912.736076441255,150,14738,8,2025-09-10,2025-09-12 19:22:20.821,AA,C,589723216,HAWK11,1,1,73,2,1,1,225,2,1,0,0,12,1,225,2,1,-141693.28552420562,-4792748.006807174,4196958.058073521,2.76395,1.94221,-0.832664,-38.0,70.0,78.625,0.046875,-7.46875,6.07812,0.0332031,-0.0117188,-0.00976562,4,0,41.38659394200585,-91.69340495430164,11052.658268230998,-15.231593529533168,1.3892595495364255,-4.604476891403456,0.0,9258.460327898714,10912.736076441255,150,True,22.705070722334433,False,121.02967015762724,178.79272803400795,False,60.151543825268234,False,False
14753,8,1970-07-23 10:02:01.419604398,2025-09-10,2025-09-12 19:22:21.960,AA,C,2137400048,JASSM,3,119,76,2,2,1,225,9,2,0,1,26,0,0,0,0,-183164.32361014312,-4786874.889619674,4201533.913542271,-2.30145,-0.152727,0.128759,92.75,-14.125,-12.0,0.0,0.0,0.0,0.0,0.0,0.0,2,0,41.44405267108655,-92.19128881973435,10000.002592534098,99.85957886141556,-0.0039441207079444,0.0036281012835434,,9258.460327898714,10912.736076441255,150,14754,8,2025-09-10,2025-09-12 19:22:22.161,AA,C,590439014,HAWK11,1,1,73,2,1,1,225,2,1,0,0,12,1,225,2,1,-141716.25427420562,-4792705.658174361,4197005.790495396,2.77794,1.94154,-0.831609,-38.25,69.75,78.375,-0.125,-7.42188,6.03125,0.0722656,-0.00585938,0.00585938,4,0,41.3871640382439,-91.69369425531848,11053.670050972953,-15.224709467675911,1.3245114518044625,-3.8306806421013775,0.0,9258.460327898714,10912.736076441255,150,True,22.638682994577263,False,121.21137835940458,178.7113643721255,False,60.052814627887116,False,False
14766,8,1970-07-23 10:02:01.429185739,2025-09-10,2025-09-12 19:22:22.918,AA,C,2138473790,JASSM,3,119,76,2,2,1,225,9,2,0,1,26,0,0,0,0,-183080.78259451807,-4786887.752900924,4201522.972136021,-2.30145,-0.152727,0.128759,92.75,-14.125,-12.0,0.0,0.0,0.0,0.0,0.0,0.0,2,0,41.44392131452828,-92.19028446932538,10000.000773585884,99.86024362847192,-0.0031798832807543,0.0036276052599648,,9258.460327898714,10912.736076441255,150,14768,8,2025-09-10,2025-09-12 19:22:23.210,AA,C,592506880,HAWK11,1,1,73,2,1,1,225,2,1,0,0,12,1,225,2,1,-141782.09997733062,-4792586.364229049,4197140.138151646,2.89827,1.93943,-0.835444,-37.625,69.25,77.25,0.078125,-7.32812,6.15625,-0.015625,-0.00585938,0.00585938,4,0,41.38876900739536,-91.69452289208586,11056.372915406557,-15.08339953025434,1.5126906715433404,2.977476530761284,0.0,9258.460327898714,10912.736076441255,150,True,22.54170375674171,False,121.12110320921967,178.48565111334585,False,60.37131012697656,False,False
14777,8,1970-07-23 10:02:01.437135937,2025-09-10,2025-09-12 19:22:23.713,AA,C,2139607184,JASSM,3,119,76,2,2,1,225,9,2,0,1,26,0,0,0,0,-182992.59997733065,-4786901.331025924,4201511.423307896,-2.30145,-0.152631,0.128759,92.75,-14.125,-12.0,0.0,0.0,0.0,0.0,0.0,0.0,2,0,41.44378265260294,-92.1892243207798,10000.004335017911,99.85730952740978,-0.0064300907121171,0.0029220223861156,,9258.460327898714,10912.736076441255,150,14774,8,2025-09-10,2025-09-12 19:22:23.711,AA,C,593103378,HAWK11,1,1,73,2,1,1,225,2,1,0,0,12,1,225,2,1,-141800.99450858062,-4792551.502900924,4197179.136198521,2.9091,1.92649,-0.837554,-37.25,69.0,77.0,-0.34375,-7.26562,5.98438,0.015625,0.0,0.00585938,4,0,41.38923631635033,-91.69476090079586,11056.571760473344,-14.572682583183,1.4865878785911362,3.0611465415267265,0.0,9258.460327898714,10912.736076441255,150,True,22.47867637287297,False,120.9998058752056,178.41670637225366,False,60.56243592012044,False,False
14792,8,1970-07-23 10:02:01.447134920,2025-09-10,2025-09-12 19:22:24.713,AA,C,2140740578,JASSM,3,119,76,2,2,1,225,9,2,0,1,26,0,0,0,0,-182904.4183367056,-4786914.907197799,4201499.872526646,-2.30145,-0.152631,0.128759,92.75,-14.125,-12.0,0.0,0.0,0.0,0.0,0.0,0.0,2,0,41.44364397913247,-92.18816418931232,10000.003102766275,99.8580112114879,-0.0056234010148299,0.0029214465707587,,9258.460327898714,10912.736076441255,150,14797,8,2025-09-10,2025-09-12 19:22:25.023,AA,C,594654278,HAWK11,1,1,73,2,1,1,225,2,1,0,0,12,1,225,2,1,-141848.58044608062,-4792462.563447799,4197278.528776646,2.93297,1.91057,-0.838321,-36.25,69.25,76.5,-0.125,-7.0,6.51562,0.0,-0.00976562,-0.00976562,4,0,41.39042795859413,-91.69536074500742,11056.82297616293,-13.97448991067374,1.361417579270399,3.766187877111202,0.0,9258.460327898714,10912.736076441255,150,True,22.39334150723807,False,120.55166360406196,178.2450330275898,False,61.182687610661624,False,False
14809,8,1970-07-23 10:02:01.457134329,2025-09-10,2025-09-12 19:22:25.713,AA,C,2141933604,JASSM,3,119,76,2,2,1,225,9,2,0,1,26,0,0,0,0,-182811.59607108065,-4786929.196260299,4201487.712370396,-2.30145,-0.152631,0.128759,92.75,-14.125,-12.0,0.0,0.0,0.0,0.0,0.0,0.0,2,0,41.44349799646533,-92.1870482732225,9999.999176254563,99.85874981642954,-0.0047742590292435,0.0029208394890882,,9258.460327898714,10912.736076441255,150,14813,8,2025-09-10,2025-09-12 19:22:25.913,AA,C,595688210,HAWK11,1,1,73,2,1,1,225,2,1,0,0,12,1,225,2,1,-141879.89489920562,-4792402.651338424,4197345.030729771,2.86874,1.90185,-0.839087,-35.875,69.25,76.75,0.0,-7.0625,6.875,-0.078125,0.0,0.00976562,4,0,41.39122776132668,-91.69575598069189,11055.964260816238,-13.640964437342898,1.3150975247588137,-0.2781409811107916,0.0,9258.460327898714,10912.736076441255,150,True,22.31807604839744,False,120.33169084856684,178.12716184694887,False,61.52212808212071,False,False
