Subject_cm,Timestamp,SampleDate_cm,SampleTime_cm,Configuration_cm,Scenario_cm,DisTime_cm,MarkingTxt_cm,Application_cm,EntId_cm,Site_cm,ExerciseId_cm,ForceId_cm,Category_cm,Country_cm,Domain_cm,Kind_cm,Extra_cm,Specific_cm,Subcategory_cm,AltCategory_cm,AltCountry_cm,AltDomain_cm,AltKind_cm,ECEF_X_cm,ECEF_Y_cm,ECEF_Z_cm,OriPhi_cm,OriPsi_cm,OriTheta_cm,LinVelX_cm,LinVelY_cm,LinVelZ_cm,LinAccX_cm,LinAccY_cm,LinAccZ_cm,AngVelX_cm,AngVelY_cm,AngVelZ_cm,DrAlg_cm,Appearance_cm,Latitude_cm,Longitude_cm,Altitude_cm,Heading_cm,Pitch_cm,Roll_cm,CalibratedAirspeed_cm,CM_Altitude_Lead_cm,CM_Altitude_Wing_cm,CM_Airspeed_cm,Subject_ac,SampleDate_ac,SampleTime_ac,Configuration_ac,Scenario_ac,DisTime_ac,MarkingTxt_ac,Application_ac,EntId_ac,Site_ac,ExerciseId_ac,ForceId_ac,Category_ac,Country_ac,Domain_ac,Kind_ac,Extra_ac,Specific_ac,Subcategory_ac,AltCategory_ac,AltCountry_ac,AltDomain_ac,AltKind_ac,ECEF_X_ac,ECEF_Y_ac,ECEF_Z_ac,OriPhi_ac,OriPsi_ac,OriTheta_ac,LinVelX_ac,LinVelY_ac,LinVelZ_ac,LinAccX_ac,LinAccY_ac,LinAccZ_ac,AngVelX_ac,AngVelY_ac,AngVelZ_ac,DrAlg_ac,Appearance_ac,Latitude_ac,Longitude_ac,Altitude_ac,Heading_ac,Pitch_ac,Roll_ac,CalibratedAirspeed_ac,CM_Altitude_Lead_ac,CM_Altitude_Wing_ac,CM_Airspeed_ac,Bank_Angle_Condition,distance_nm,Distance_Condition,angle_between_vel,angle_between_pos,Cone_Condition,angle_between_pos_nose,Nose_Cone_Condition,Intercept_Criteria
11,1970-07-23 11:25:55.631401188,2025-09-16,2025-09-26 15:12:43.140,AA,C,553570016,JASSM,3,137,76,2,2,1,225,9,2,0,1,26,0,0,0,0,-172991.36316092435,-4769805.024385299,4221199.573698521,-2.51458,-0.703426,0.607361,54.375,-46.0,-49.375,0.0,0.0,0.0,0.0,0.0,0.0,2,0,41.68058291930706,-92.07709383103824,10000.003439396009,139.82837601656772,-0.0010276292042602,0.0009614337592464,,8749.224682894945,11121.848502006404,150,11,2025-09-16,2025-09-26 15:12:43.136,AA,C,4199740624,HAWK11,1,1,73,2,1,1,225,2,1,0,0,12,1,225,2,1,-144519.45739920562,-4791496.744111861,4198312.755339146,2.47412,2.58936,-0.54418,-94.5,39.125,40.875,-0.265625,-7.20312,6.29688,-0.0136719,0.0,0.00585938,4,0,41.40268001899736,-91.7276116063328,11120.970708840045,-47.88192166325978,1.281700677206516,2.322324016583094,175.876,8749.224682894945,11121.848502006404,150,True,22.875596026764427,False,159.76573943573186,176.75950314270213,False,17.010212931455705,True,False
11,1970-07-23 11:25:55.641482679,2025-09-16,2025-09-26 15:12:44.148,AA,C,554823114,JASSM,3,137,76,2,2,1,225,9,2,0,1,26,0,0,0,0,-172934.28015311187,-4769853.446260299,4221147.542448521,-2.51458,-0.703426,0.607361,54.375,-46.0,-49.375,0.0,0.0,0.0,0.0,0.0,0.0,2,0,41.6799560041311,-92.07638797933058,9999.992348037393,139.82884538905407,-0.0002085222191843,0.0009598516431845,,8749.224682894945,11121.848502006404,150,11,2025-09-16,2025-09-26 15:12:44.432,AA,C,4201291522,HAWK11,1,1,73,2,1,1,225,2,1,0,0,12,1,225,2,1,-144642.18786795562,-4791445.292939986,4198365.862761021,2.43884,2.57833,-0.552617,-93.875,39.25,40.875,-0.125,-7.3125,6.3125,0.00585938,0.00195312,0.0,4,0,41.40332254767242,-91.72909641401355,11118.7542696775,-47.15887565008648,1.301566708333332,-0.0119035267509361,175.277,8749.224682894945,11121.848502006404,150,True,22.7529829405501,False,159.97065423054954,176.80836962984253,False,16.85356671819949,True,False
11,1970-07-23 11:25:55.653470423,2025-09-16,2025-09-26 15:12:45.347,AA,C,556135148,JASSM,3,137,76,2,2,1,225,9,2,0,1,26,0,0,0,0,-172874.51306326812,-4769904.149385299,4221093.065886021,-2.51458,-0.703426,0.607456,54.375,-46.0,-49.375,0.0,0.0,0.0,0.0,0.0,0.0,2,0,41.67929958810464,-92.0756489507534,9999.998830400216,139.83255875307773,-0.0037978387201914,0.0009580959642103,,8749.224682894945,11121.848502006404,150,11,2025-09-16,2025-09-26 15:12:45.228,AA,C,4202245920,HAWK11,1,1,73,2,1,1,225,2,1,0,0,12,1,225,2,1,-144717.30114920562,-4791413.689424361,4198398.386198521,2.41995,2.57785,-0.551754,-93.75,39.25,40.75,-0.03125,-7.28125,6.25,-0.0410156,0.0078125,0.0,4,0,41.403716598350655,-91.73000519923312,11117.166404193737,-47.17357288722168,1.249497362054566,-1.1085934690719217,174.935,8749.224682894945,11121.848502006404,150,True,22.656607695003427,False,159.9624678512289,176.83539145724845,False,16.8882021444435,True,False
11,1970-07-23 11:25:55.664785058,2025-09-16,2025-09-26 15:12:46.478,AA,C,557446610,JASSM,3,137,76,2,2,1,225,9,2,0,1,26,0,0,0,0,-172814.77185233062,-4769954.825166549,4221038.612761021,-2.51458,-0.703426,0.607456,54.375,-46.0,-49.375,0.0,0.0,0.0,0.0,0.0,0.0,2,0,41.67864348269788,-92.07491025952552,9999.99646791771,139.83304995054405,-0.0029405980199227,0.0009564965170227,,8749.224682894945,11121.848502006404,150,11,2025-09-16,2025-09-26 15:12:46.432,AA,C,4203558220,HAWK11,1,1,73,2,1,1,225,2,1,0,0,12,1,225,2,1,-144819.17419608062,-4791370.204072799,4198442.888151646,2.37834,2.57891,-0.548782,-93.5,39.375,40.375,-0.046875,-7.21875,6.35938,-0.0195312,0.00390625,-0.00585938,4,0,41.4042573710782,-91.73123798982492,11114.337293288669,-47.32375674676547,1.1538556157903712,-3.4639374771428617,174.666,8749.224682894945,11121.848502006404,150,True,22.54391182076116,False,159.94013589067418,176.8744087850048,False,16.946811345280235,True,False
11,1970-07-23 11:25:55.674360016,2025-09-16,2025-09-26 15:12:47.436,AA,C,558699310,JASSM,3,137,76,2,2,1,225,9,2,0,1,26,0,0,0,0,-172757.70788748687,-4770003.231416549,4220986.597136021,-2.51458,-0.703426,0.607456,54.375,-46.0,-49.375,0.0,0.0,0.0,0.0,0.0,0.0,2,0,41.67801674823736,-92.07420468542836,9999.996117076753,139.83351912064091,-0.0021217524986729,0.0009549514763923,,8749.224682894945,11121.848502006404,150,11,2025-09-16,2025-09-26 15:12:47.526,AA,C,4204989818,HAWK11,1,1,73,2,1,1,225,2,1,0,0,12,1,225,2,1,-144930.94958670562,-4791322.894502486,4198491.177214146,2.37326,2.58485,-0.550603,-93.5,39.125,40.0,-0.109375,-7.35938,6.53125,-0.0078125,0.0,-0.00976562,4,0,41.40484466221679,-91.73259048947104,11111.063371790353,-47.47840814369933,1.4225803095005405,-3.580355331037318,174.495,8749.224682894945,11121.848502006404,150,True,22.42781962061772,False,159.73864706082435,176.9193155681441,False,17.19294632005262,True,False
11,1970-07-23 11:25:55.683428257,2025-09-16,2025-09-26 15:12:48.342,AA,C,559774634,JASSM,3,137,76,2,2,1,225,9,2,0,1,26,0,0,0,0,-172708.72253592435,-4770044.782197799,4220941.948698521,-2.51448,-0.70333,0.607456,54.375,-46.0,-49.375,0.0,0.0,0.0,0.0,0.0,0.0,2,0,41.67747877499339,-92.07359901231747,10000.000149795294,139.830270525131,-0.0040645007168866,0.0033108688053627,,8749.224682894945,11121.848502006404,150,11,2025-09-16,2025-09-26 15:12:48.322,AA,C,4205944216,HAWK11,1,1,73,2,1,1,225,2,1,0,0,12,1,225,2,1,-145005.38318045562,-4791291.332002486,4198523.108854771,2.42848,2.57795,-0.5437,-93.375,39.375,39.625,-0.15625,-6.79688,6.14062,0.126953,0.00390625,0.00195312,4,0,41.40523456927215,-91.73349118229196,11108.256891401246,-47.47755911371625,0.9032343323265948,-0.6218534359487965,174.153,8749.224682894945,11121.848502006404,150,True,22.341144957300852,False,159.71635897650089,176.94829602689038,False,17.24114978437228,True,False
11,1970-07-23 11:25:55.692463761,2025-09-16,2025-09-26 15:12:49.246,AA,C,560907708,JASSM,3,137,76,2,2,1,225,9,2,0,1,26,0,0,0,0,-172657.10730154935,-4770088.563447799,4220894.897917271,-2.51448,-0.70333,0.607456,54.375,-46.0,-49.375,0.0,0.0,0.0,0.0,0.0,0.0,2,0,41.67691188203125,-92.07296083339077,9999.995579873495,139.8306948715337,-0.0033238468822533,0.0033094266792732,,8749.224682894945,11121.848502006404,150,11,2025-09-16,2025-09-26 15:12:49.134,AA,C,4206898616,HAWK11,1,1,73,2,1,1,225,2,1,0,0,12,1,225,2,1,-145080.11169608062,-4791259.645479049,4198554.727995396,2.58332,2.5768,-0.545522,-93.125,39.875,39.75,-0.234375,-6.6875,6.5625,0.216797,0.00195312,0.00976562,4,0,41.40562304474971,-91.73439545455228,11104.493110242269,-47.36769057122866,0.947278313521006,8.217407905889553,174.055,8749.224682894945,11121.848502006404,150,True,22.252170783565408,False,159.9717787902633,176.97766406480906,False,17.013278623067055,True,False
11,1970-07-23 11:25:55.703321134,2025-09-16,2025-09-26 15:12:50.332,AA,C,562100562,JASSM,3,137,76,2,2,1,225,9,2,0,1,26,0,0,0,0,-172602.76843436187,-4770134.657197799,4220845.366667271,-2.51448,-0.70333,0.607456,54.375,-46.0,-49.375,0.0,0.0,0.0,0.0,0.0,0.0,2,0,41.676315073417,-92.07228899016208,10000.00509121948,139.8311415973347,-0.0025441112381713,0.0033079103105319,,8749.224682894945,11121.848502006404,150,11,2025-09-16,2025-09-26 15:12:50.322,AA,C,4208330214,HAWK11,1,1,73,2,1,1,225,2,1,0,0,12,1,225,2,1,-145191.80896170562,-4791209.882783736,4198603.190886021,2.80853,2.53625,-0.563546,-91.75,42.125,41.125,-0.15625,-6.57812,7.03125,0.0996094,0.0136719,0.0429688,4,0,41.40622608085632,-91.73574796683997,11095.577228590371,-45.18822734424455,0.4845778058370066,19.924705772879516,174.752,8749.224682894945,11121.848502006404,150,False,22.137754662026136,False,161.4614198045445,177.02255547614428,False,15.564076841946502,True,False
11,1970-07-23 11:25:55.712789831,2025-09-16,2025-09-26 15:12:51.278,AA,C,563233188,JASSM,3,137,76,2,2,1,225,9,2,0,1,26,0,0,0,0,-172551.17370779935,-4770178.418916549,4220798.331511021,-2.51448,-0.70333,0.607456,54.375,-46.0,-49.375,0.0,0.0,0.0,0.0,0.0,0.0,2,0,41.67574839045069,-92.07165108870409,9999.995769376868,139.83156574952503,-0.0018037459728836,0.003306463117511,,8749.224682894945,11121.848502006404,150,11,2025-09-16,2025-09-26 15:12:51.322,AA,C,4209562980,HAWK11,1,1,73,2,1,1,225,2,1,0,0,12,1,225,2,1,-145286.77185233062,-4791164.289033736,4198646.897917271,2.91619,2.49099,-0.570641,-90.0,45.125,43.5,-0.296875,-7.09375,7.625,0.0996094,0.015625,0.03125,4,0,41.40677521749984,-91.73689905831412,11085.3560140463,-43.22112031281049,-0.5513386922731577,24.69964202851685,176.683,8749.224682894945,11121.848502006404,150,False,22.03421964737113,False,163.58419481843708,177.05678989175914,False,13.47289308804942,True,False
11,1970-07-23 11:25:55.721422449,2025-09-16,2025-09-26 15:12:52.142,AA,C,564307418,JASSM,3,137,76,2,2,1,225,9,2,0,1,26,0,0,0,0,-172502.23913748687,-4770219.926729049,4220753.726042271,-2.51448,-0.70333,0.607456,54.375,-46.0,-49.375,0.0,0.0,0.0,0.0,0.0,0.0,2,0,41.675210938327794,-92.07104608590922,10000.006080963632,139.83196802242892,-0.0011015651899772,0.0033051019093105,,8749.224682894945,11121.848502006404,150,11,2025-09-16,2025-09-26 15:12:52.026,AA,C,4210358312,HAWK11,1,1,73,2,1,1,225,2,1,0,0,12,1,225,2,1,-145345.62341483062,-4791133.744111861,4198676.060026646,2.98225,2.46607,-0.585789,-88.125,47.0,45.125,-0.140625,-7.10938,7.64062,0.0761719,0.0214844,0.0214844,4,0,41.40714315647507,-91.737613266725,11077.898589175356,-41.74412954048292,-0.5829816994183311,27.689332718514247,177.648,8749.224682894945,11121.848502006404,150,False,21.95426542421594,False,165.17642790213998,177.0733483945932,False,11.897040395337145,True,False
11,1970-07-23 11:25:55.731463545,2025-09-16,2025-09-26 15:12:53.146,AA,C,565441236,JASSM,3,137,76,2,2,1,225,9,2,0,1,26,0,0,0,0,-172450.58972342435,-4770263.731416549,4220706.644011021,-2.51448,-0.70333,0.607552,54.375,-46.0,-49.375,0.0,0.0,0.0,0.0,0.0,0.0,2,0,41.67464368814914,-92.07040753162606,10000.001698207734,139.83561678349193,-0.0048099885046581,0.0033035329148301,,8749.224682894945,11121.848502006404,150,11,2025-09-16,2025-09-26 15:12:53.026,AA,C,4211591078,HAWK11,1,1,73,2,1,1,225,2,1,0,0,12,1,225,2,1,-145437.90857108062,-4791081.700166549,4198725.474089146,3.03997,2.44056,-0.582817,-85.625,50.875,48.375,-0.15625,-7.125,7.5625,0.0585938,0.0195312,0.0585938,4,0,41.40776965437383,-91.73873473830209,11064.007870782889,-40.86494466843376,-1.4423881695105234,30.174843560895138,179.212,8749.224682894945,11121.848502006404,150,False,21.848196194295962,False,167.95733554466494,177.09744652916572,False,9.147867675367408,True,False
11,1970-07-23 11:25:55.740367673,2025-09-16,2025-09-26 15:12:54.036,AA,C,566574856,JASSM,3,137,76,2,2,1,225,9,2,0,1,26,0,0,0,0,-172398.94909842435,-4770307.532197799,4220659.565886021,-2.51448,-0.70333,0.607552,54.375,-46.0,-49.375,0.0,0.0,0.0,0.0,0.0,0.0,2,0,41.67407648208267,-92.0697690956762,10000.000548415424,139.83604127721716,-0.0040689578981702,0.003302120711413,,8749.224682894945,11121.848502006404,150,11,2025-09-16,2025-09-26 15:12:53.932,AA,C,4212585244,HAWK11,1,1,73,2,1,1,225,2,1,0,0,12,1,225,2,1,-145509.08044608062,-4791037.448213424,4198767.325651646,3.12194,2.40193,-0.589528,-83.125,53.75,51.375,-0.15625,-7.5,7.98438,0.0703125,0.0195312,0.0410156,4,0,41.40830255515385,-91.73960114503762,11051.30090432489,-39.13816899812055,-2.1952484327275337,33.592120667914415,180.96,8749.224682894945,11121.848502006404,150,False,21.754026692316867,False,170.36930371515575,177.10967679030009,False,6.766425826013669,True,False
11,1970-07-23 11:25:55.750381585,2025-09-16,2025-09-26 15:12:55.038,AA,C,567767370,JASSM,3,137,76,2,2,1,225,9,2,0,1,26,0,0,0,0,-172344.62634451812,-4770353.606416549,4220610.046354771,-2.51448,-0.70333,0.607552,54.375,-46.0,-49.375,0.0,0.0,0.0,0.0,0.0,0.0,2,0,41.67347984660076,-92.06909751316552,10000.007623998355,139.83648780485342,-0.0032894657699151,0.0033006568373795,,8749.224682894945,11121.848502006404,150,11,2025-09-16,2025-09-26 15:12:55.141,AA,C,4214016842,HAWK11,1,1,73,2,1,1,225,2,1,0,0,12,1,225,2,1,-145607.40075858062,-4790968.946260299,4198831.698698521,-3.0694,2.34699,-0.610141,-78.5,58.625,55.625,-0.125,-7.875,8.3125,0.046875,0.0332031,0.0644531,4,0,41.40912682826214,-91.74080074302844,11029.856872131964,-36.320462209693154,-2.6568191612295315,36.95820080787893,182.903,8749.224682894945,11121.848502006404,150,False,21.634584720501557,False,174.07245408042328,177.1196492854288,False,3.3250687831141934,True,False
11,1970-07-23 11:25:55.759443594,2025-09-16,2025-09-26 15:12:55.944,AA,C,568899856,JASSM,3,137,76,2,2,1,225,9,2,0,1,26,0,0,0,0,-172293.03747733062,-4770397.360322799,4220563.015104771,-2.51448,-0.70333,0.607552,54.375,-46.0,-49.375,0.0,0.0,0.0,0.0,0.0,0.0,2,0,41.67291321734979,-92.06845974136218,10000.005685450968,139.83691184727792,-0.0025491903482345,0.0032992554000427,,8749.224682894945,11121.848502006404,150,11,2025-09-16,2025-09-26 15:12:56.026,AA,C,4215130308,HAWK11,1,1,73,2,1,1,225,2,1,0,0,12,1,225,2,1,-145679.66052420562,-4790911.457979049,4198885.442839146,-3.01744,2.29426,-0.617811,-74.5,62.875,59.375,-0.015625,-8.20312,8.65625,0.03125,0.0332031,0.0703125,4,0,41.409818538518174,-91.74168499460676,11010.49550441462,-33.98884210763966,-3.5874335280473053,38.06771043923571,184.821,8749.224682894945,11121.848502006404,150,False,21.53293053137984,False,176.61188684748626,177.11672141936992,False,2.611552252139564,True,False
11,1970-07-23 11:25:55.769344708,2025-09-16,2025-09-26 15:12:56.934,AA,C,569973598,JASSM,3,137,76,2,2,1,225,9,2,0,1,26,0,0,0,0,-172244.12536795562,-4770438.840791549,4220518.425261021,-2.51448,-0.70333,0.607552,54.375,-46.0,-49.375,0.0,0.0,0.0,0.0,0.0,0.0,2,0,41.6723760118501,-92.06785507292706,10000.00167551744,139.83731387553013,-0.0018473461574555,0.0032979431187646,,8749.224682894945,11121.848502006404,150,11,2025-09-16,2025-09-26 15:12:57.118,AA,C,4216283540,HAWK11,1,1,73,2,1,1,225,2,1,0,0,12,1,225,2,1,-145751.01208670562,-4790846.886689986,4198945.960417271,-2.98551,2.24613,-0.632767,-69.75,67.0,63.75,-0.125,-8.59375,9.07812,-0.00195312,0.0390625,0.0546875,4,0,41.410598266342745,-91.74256098973788,10988.35079957711,-31.620144744937875,-3.9652455636124913,38.126665605477605,187.229,8749.224682894945,11121.848502006404,150,False,21.429955090280586,False,176.71704967807972,177.1038740630676,False,5.256916684501055,True,False
11,1970-07-23 11:25:55.779363493,2025-09-16,2025-09-26 15:12:57.936,AA,C,571227352,JASSM,3,137,76,2,2,1,225,9,2,0,1,26,0,0,0,0,-172187.01159842435,-4770487.278291549,4220466.354948521,-2.51448,-0.70333,0.607552,54.375,-46.0,-49.375,0.0,0.0,0.0,0.0,0.0,0.0,2,0,41.67174868968063,-92.06714902479553,9999.996895910555,139.83778330311574,-0.0010277899153156,0.0032963897905573,,8749.224682894945,11121.848502006404,150,11,2025-09-16,2025-09-26 15:12:57.932,AA,C,4217397004,HAWK11,1,1,73,2,1,1,225,2,1,0,0,12,1,225,2,1,-145814.88513358062,-4790781.183564986,4199008.304167271,-2.92463,2.17892,-0.66383,-64.25,70.375,68.0,-0.296875,-9.21875,9.54688,0.0292969,0.0585938,0.0605469,4,0,41.41139840303185,-91.74334806210705,10966.832288809685,-28.067415967686284,-3.828249103366732,39.04736281908295,188.426,8749.224682894945,11121.848502006404,150,False,21.32175512384946,False,173.91943066674673,177.07977432295058,False,8.717957914178857,True,False
11,1970-07-23 11:25:55.790380448,2025-09-16,2025-09-26 15:12:59.038,AA,C,572539698,JASSM,3,137,76,2,2,1,225,9,2,0,1,26,0,0,0,0,-172127.22937186187,-4770537.977510299,4220411.854948521,-2.51448,-0.703234,0.607552,54.375,-46.0,-49.375,0.0,0.0,0.0,0.0,0.0,0.0,2,0,41.67109208240159,-92.066410004115,9999.999956833071,139.8346214332744,-0.0028172747467582,0.0001580691286389,,8749.224682894945,11121.848502006404,150,11,2025-09-16,2025-09-26 15:12:59.136,AA,C,4218550238,HAWK11,1,1,73,2,1,1,225,2,1,0,0,12,1,225,2,1,-145874.49841483062,-4790710.674775924,4199076.556120396,-2.85877,2.10357,-0.692784,-57.75,73.625,72.875,-0.203125,-9.67188,10.0156,0.0273438,0.0585938,0.0625,4,0,41.41226777692268,-91.7440860052976,10946.00395010086,-24.31210703769814,-3.7542084319981615,39.86258700139192,190.87,8749.224682894945,11121.848502006404,150,False,21.209727373200728,False,170.09049606966462,177.043075023367,False,12.754522343046322,True,False
11,1970-07-23 11:25:55.800418612,2025-09-16,2025-09-26 15:13:00.041,AA,C,573793162,JASSM,3,137,76,2,2,1,225,9,2,0,1,26,0,0,0,0,-172070.12976248687,-4770586.403291549,4220359.796354771,-2.51448,-0.703234,0.607552,54.375,-46.0,-49.375,0.0,0.0,0.0,0.0,0.0,0.0,2,0,41.67046489700712,-92.06570415895833,10000.002049647574,139.8350907141233,-0.0019979141082689,0.0001564576794424,,8749.224682894945,11121.848502006404,150,11,2025-09-16,2025-09-26 15:13:00.026,AA,C,4219783002,HAWK11,1,1,73,2,1,1,225,2,1,0,0,12,1,225,2,1,-145930.65661795562,-4790631.286104049,4199155.159636021,-2.76577,2.0051,-0.7296,-49.5,76.5,77.875,-0.390625,-10.5,10.7031,0.0292969,0.0761719,0.0585938,4,0,41.41326047392731,-91.74478591752444,10925.549982995077,-19.55387016909032,-3.372281809024397,41.21042476260239,192.594,8749.224682894945,11121.848502006404,150,False,21.095756952434197,False,165.47428358653158,176.98922898186936,False,17.4867710760851,True,False
11,1970-07-23 11:25:55.812443632,2025-09-16,2025-09-26 15:13:01.244,AA,C,575165184,JASSM,3,137,76,2,2,1,225,9,2,0,1,26,0,0,0,0,-172007.62878592435,-4770639.403291549,4220302.815886021,-2.51448,-0.703234,0.607552,54.375,-46.0,-49.375,0.0,0.0,0.0,0.0,0.0,0.0,2,0,41.66977843506921,-92.06493156259371,9999.99872175508,139.8356043678408,-0.0011010907959466,0.0001547291679279,,8749.224682894945,11121.848502006404,150,11,2025-09-16,2025-09-26 15:13:01.228,AA,C,4221174834,HAWK11,1,1,73,2,1,1,225,2,1,0,0,12,1,225,2,1,-145981.83825858062,-4790539.552705611,4199248.821745396,-2.65762,1.87615,-0.77025,-38.625,78.75,83.25,-0.46875,-10.8438,11.2031,0.015625,0.0800781,0.0546875,4,0,41.41442915521202,-91.74543088215437,10907.052859292124,-13.6974373215163,-2.7272992698529253,42.05441919346247,194.598,8749.224682894945,11121.848502006404,150,False,20.971138389683052,False,159.76249992993667,176.90945376685983,False,23.308502287440483,True,False
11,1970-07-23 11:25:55.824462655,2025-09-16,2025-09-26 15:13:02.446,AA,C,576536528,JASSM,3,137,76,2,2,1,225,9,2,0,1,26,0,0,0,0,-171945.15905936187,-4770692.379854049,4220245.858854771,-2.51448,-0.703234,0.607648,54.375,-46.0,-49.375,0.0,0.0,0.0,0.0,0.0,0.0,2,0,41.66909225881328,-92.06415936760034,9999.99699690467,139.8393401724824,-0.0046512744329243,0.0001528319777418,,8749.224682894945,11121.848502006404,150,11,2025-09-16,2025-09-26 15:13:02.432,AA,C,4222606432,HAWK11,1,1,73,2,1,1,225,2,1,0,0,12,1,225,2,1,-146019.55505545562,-4790441.139619674,4199352.198698521,-2.53519,1.73349,-0.804285,-25.75,80.5,88.5,-0.28125,-11.3906,11.5938,0.0195312,0.0878906,0.0566406,4,0,41.41570558789622,-91.74591740828768,10892.213865269152,-7.656448519274441,-1.9473905743790865,43.02639343679333,195.661,8749.224682894945,11121.848502006404,150,False,20.84672733540716,False,153.2794004865719,176.80220217688208,False,29.91130322258726,True,False
11,1970-07-23 11:25:55.835340896,2025-09-16,2025-09-26 15:13:03.534,AA,C,577849188,JASSM,3,137,76,2,2,1,225,9,2,0,1,26,0,0,0,0,-171885.3624285025,-4770743.086885299,4220191.339323521,-2.51448,-0.703234,0.607648,54.375,-46.0,-49.375,0.0,0.0,0.0,0.0,0.0,0.0,2,0,41.66843545710314,-92.063420231537,9999.994292359715,139.83983156741135,-0.0037932306674211,0.0001512057508614,,8749.224682894945,11121.848502006404,150,11,2025-09-16,2025-09-26 15:13:03.321,AA,C,4223839198,HAWK11,1,1,73,2,1,1,225,2,1,0,0,12,1,225,2,1,-146039.06482108062,-4790355.748994674,4199445.528776646,-2.41362,1.59611,-0.824706,-14.0,80.75,92.0,-0.3125,-11.0469,11.2344,0.0117188,0.0722656,0.0527344,4,0,41.41684002872763,-91.7461816438051,10886.240388756054,-2.1695520494361697,-1.2855780623075443,44.10667246798121,195.966,8749.224682894945,11121.848502006404,150,False,20.737717686084633,False,147.62742554188182,176.68979084672876,False,35.68049425185297,False,False
11,1970-07-23 11:25:55.846358887,2025-09-16,2025-09-26 15:13:04.635,AA,C,579160054,JASSM,3,137,76,2,2,1,225,9,2,0,1,26,0,0,0,0,-171825.6475847525,-4770793.723604049,4220136.897917271,-2.51448,-0.703234,0.607648,54.375,-46.0,-49.375,0.0,0.0,0.0,0.0,0.0,0.0,2,0,41.66777957854743,-92.0626821218382,10000.001683501514,139.84032227364764,-0.0029363832405487,0.0001496005929476,,8749.224682894945,11121.848502006404,150,11,2025-09-16,2025-09-26 15:13:04.525,AA,C,4224992430,HAWK11,1,1,73,2,1,1,225,2,1,0,0,12,1,225,2,1,-146045.98864920562,-4790275.726533736,4199534.655729771,-2.33568,1.46572,-0.832664,-2.375,80.875,93.75,-0.484375,-11.7031,11.9062,-0.0898438,0.0683594,0.0507812,4,0,41.41791644339832,-91.74629353402084,10883.4103302944,2.8749666690225264,-0.793532930574166,42.97127267132921,196.956,8749.224682894945,11121.848502006404,150,False,20.636081801799218,False,142.18511575479806,176.56893546983687,False,41.24454679809419,False,False
11,1970-07-23 11:25:55.856781156,2025-09-16,2025-09-26 15:13:05.678,AA,C,580414288,JASSM,3,137,76,2,2,1,225,9,2,0,1,26,0,0,0,0,-171768.51257498687,-4770842.172822799,4220084.804167271,-2.51439,-0.703234,0.607648,54.375,-46.0,-49.375,0.0,0.0,0.0,0.0,0.0,0.0,2,0,41.66715200104915,-92.06197591433404,10000.003976217324,139.8407917649032,-0.0021165307159986,0.0056395174916218,,8749.224682894945,11121.848502006404,150,11,2025-09-16,2025-09-26 15:13:05.727,AA,C,4226583096,HAWK11,1,1,73,2,1,1,225,2,1,0,0,12,1,225,2,1,-146038.76013358062,-4790167.132783736,4199660.704557896,-2.42359,1.30053,-0.838896,10.625,78.375,96.375,-0.453125,-10.9844,11.1719,-0.179688,0.0664062,0.0351562,4,0,41.41941461480873,-91.74624671734882,10889.404568075272,9.1325638727724,0.3061536722592061,30.87919864631516,197.298,8749.224682894945,11121.848502006404,150,False,20.5233149543366,False,136.1053761325484,176.3840869565612,False,47.51047075430016,False,False
11,1970-07-23 11:25:55.867420608,2025-09-16,2025-09-26 15:13:06.742,AA,C,581725262,JASSM,3,137,76,2,2,1,225,9,2,0,1,26,0,0,0,0,-171708.79260428375,-4770892.813447799,4220030.351042271,-2.51439,-0.703234,0.607648,54.375,-46.0,-49.375,0.0,0.0,0.0,0.0,0.0,0.0,2,0,41.66649601203985,-92.06123777077605,10000.004079075306,139.84128248125117,-0.0012595754460574,0.0056378831925611,,8749.224682894945,11121.848502006404,150,11,2025-09-16,2025-09-26 15:13:06.634,AA,C,4227656794,HAWK11,1,1,73,2,1,1,225,2,1,0,0,12,1,225,2,1,-146024.24841483062,-4790095.275361861,4199746.745573521,-2.50911,1.24233,-0.85251,17.625,76.25,97.875,0.09375,-9.9375,10.1719,-0.115234,0.0449219,0.0195312,4,0,41.42042550320515,-91.7460994791296,10898.36547323516,11.144423155829212,1.5119180845076496,23.51535663156675,197.372,8749.224682894945,11121.848502006404,150,False,20.432777660078834,False,132.81980435550025,176.24414234633366,False,50.93454565790354,False,False
11,1970-07-23 11:25:55.877469967,2025-09-16,2025-09-26 15:13:07.746,AA,C,582979326,JASSM,3,137,76,2,2,1,225,9,2,0,1,26,0,0,0,0,-171651.6651628775,-4770941.250947799,4219978.261198521,-2.51439,-0.703234,0.607648,54.375,-46.0,-49.375,0.0,0.0,0.0,0.0,0.0,0.0,2,0,41.66586852022352,-92.06053168715547,9999.99561651224,139.84175187828646,-0.000439841279076,0.005636334303532,,8749.224682894945,11121.848502006404,150,11,2025-09-16,2025-09-26 15:13:07.821,AA,C,4229167926,HAWK11,1,1,73,2,1,1,225,2,1,0,0,12,1,225,2,1,-145995.39099295562,-4789998.995088424,4199868.147917271,-2.52052,1.16563,-0.864015,24.625,73.25,99.125,0.046875,-9.09375,9.35938,0.00390625,0.0117188,0.0292969,4,0,41.42182296107395,-91.74578969560856,10922.95595601321,13.766467462110857,2.86308461768014,19.635714288213205,196.431,8749.224682894945,11121.848502006404,150,False,20.332927494627377,False,129.47445192994078,176.0429933788088,False,54.47710249260172,False,False
11,1970-07-23 11:25:55.889301551,2025-09-16,2025-09-26 15:13:08.930,AA,C,584291590,JASSM,3,137,76,2,2,1,225,9,2,0,1,26,0,0,0,0,-171591.88635428375,-4770991.938447799,4219923.753386021,-2.51439,-0.703138,0.607648,54.375,-46.0,-49.375,0.0,0.0,0.0,0.0,0.0,0.0,2,0,41.66521188654008,-92.05979284701378,9999.995230972792,139.8385924910387,-0.0022277394061415,0.002499471324582,,8749.224682894945,11121.848502006404,150,11,2025-09-16,2025-09-26 15:13:09.026,AA,C,4230400692,HAWK11,1,1,73,2,1,1,225,2,1,0,0,12,1,225,2,1,-145966.82458670562,-4789922.590791549,4199968.130339146,-2.47537,1.11405,-0.870342,29.375,71.5,98.75,-0.3125,-7.875,8.09375,-0.107422,0.00585938,0.0175781,4,0,41.42295753191048,-91.74547613889489,10949.960460244303,15.491544698093508,3.770687513892944,20.06919961098322,195.086,8749.224682894945,11121.848502006404,150,False,20.242497246821923,False,127.17792161438555,175.86998549692282,False,56.945286271478956,False,False
11,1970-07-23 11:25:55.900342343,2025-09-16,2025-09-26 15:13:10.034,AA,C,585663300,JASSM,3,137,76,2,2,1,225,9,2,0,1,26,0,0,0,0,-171529.3995378775,-4771044.918916549,4219866.776823521,-2.51439,-0.703138,0.607648,54.375,-46.0,-49.375,0.0,0.0,0.0,0.0,0.0,0.0,2,0,41.66452552423324,-92.0590205544986,9999.99305133568,139.8391058898599,-0.0013311081554849,0.0024977243936049,,8749.224682894945,11121.848502006404,150,11,2025-09-16,2025-09-26 15:13:09.932,AA,C,4231673224,HAWK11,1,1,73,2,1,1,225,2,1,0,0,12,1,225,2,1,-145933.30896170562,-4789845.452119674,4200071.364714146,-2.51822,1.04924,-0.862385,33.125,70.125,98.375,-0.21875,-7.42188,7.625,-0.0761719,0.00976562,0.03125,4,0,41.42411931062754,-91.74510369218892,10981.855930488276,17.916756877484826,4.142223085995274,14.951199623799935,194.598,8749.224682894945,11121.848502006404,150,False,20.150606889808543,False,125.35479086079232,175.68617616604678,False,58.95127046694321,False,False
11,1970-07-23 11:25:55.911982402,2025-09-16,2025-09-26 15:13:11.198,AA,C,586974636,JASSM,3,137,76,2,2,1,225,9,2,0,1,26,0,0,0,0,-171469.66296561187,-4771095.571260299,4219812.308073521,-2.51439,-0.703138,0.607744,54.375,-46.0,-49.375,0.0,0.0,0.0,0.0,0.0,0.0,2,0,41.66386934440604,-92.05828226677605,10000.005057034316,139.84282134993546,-0.0049231104823708,0.0024958894386586,,8749.224682894945,11121.848502006404,150,11,2025-09-16,2025-09-26 15:13:11.432,AA,C,4233383188,HAWK11,1,1,73,2,1,1,225,2,1,0,0,12,1,225,2,1,-145882.47888358062,-4789742.937471236,4200209.936979771,-2.61419,1.01847,-0.857112,36.5,69.25,97.5,-0.09375,-6.73438,7.07812,-0.0839844,0.0,0.0136719,4,0,41.42567370079816,-91.74453354451,11026.776820845804,19.10201010350356,4.282246926938853,8.203598279179534,193.327,8749.224682894945,11121.848502006404,150,True,20.050691227185133,False,123.71620544581245,175.43574151608283,False,60.84093510906611,False,False
11,1970-07-23 11:25:55.922379437,2025-09-16,2025-09-26 15:13:12.237,AA,C,588228568,JASSM,3,137,76,2,2,1,225,9,2,0,1,26,0,0,0,0,-171412.54138358062,-4771144.000947799,4219760.222136021,-2.51439,-0.703138,0.607744,54.375,-46.0,-49.375,0.0,0.0,0.0,0.0,0.0,0.0,2,0,41.66324190585743,-92.05757631418702,10000.00441869945,139.84329063578468,-0.0041034662355442,0.0024943385486296,,8749.224682894945,11121.848502006404,150,11,2025-09-16,2025-09-26 15:13:12.038,AA,C,4233661554,HAWK11,1,1,73,2,1,1,225,2,1,0,0,12,1,225,2,1,-145874.34216483062,-4789726.866182174,4200231.843229771,-2.6372,1.01636,-0.85529,36.75,69.125,97.5,0.0,-6.67188,6.875,-0.101562,-0.00390625,0.00390625,4,0,41.42591864246047,-91.74444215140304,11034.203494220452,19.21497557342393,4.215505761300445,6.802341782414698,192.972,8749.224682894945,11121.848502006404,150,True,19.99416471484162,False,123.59209414238869,175.38626850531173,False,61.01436211001584,False,False
11,1970-07-23 11:25:55.932421323,2025-09-16,2025-09-26 15:13:13.242,AA,C,589481636,JASSM,3,137,76,2,2,1,225,9,2,0,1,26,0,0,0,0,-171355.45886404935,-4771192.395479049,4219708.171354771,-2.51439,-0.703138,0.607744,54.375,-46.0,-49.375,0.0,0.0,0.0,0.0,0.0,0.0,2,0,41.662614901053466,-92.05687085893264,10000.002057613316,139.84375958523609,-0.0032843897678039,0.0024927940428133,,8749.224682894945,11121.848502006404,150,11,2025-09-16,2025-09-26 15:13:13.228,AA,C,4235490820,HAWK11,1,1,73,2,1,1,225,2,1,0,0,12,1,225,2,1,-145816.41052420562,-4789618.815400924,4200377.999479771,-2.68293,1.00811,-0.840142,38.375,70.0,96.0,0.046875,-5.82812,6.1875,-0.00976562,-0.0136719,-0.00390625,4,0,41.42755843078975,-91.7437891157569,11081.46322491906,19.834818114059804,3.5323194790721,3.869828698675156,192.508,8749.224682894945,11121.848502006404,150,True,19.895971225715535,False,122.87507230159304,175.1148960207834,False,62.00653737798657,False,False
11,1970-07-23 11:25:55.943461035,2025-09-16,2025-09-26 15:13:14.346,AA,C,590851946,JASSM,3,137,76,2,2,1,225,9,2,0,1,26,0,0,0,0,-171293.03576834625,-4771245.321260299,4219651.245573521,-2.51439,-0.703138,0.607744,54.375,-45.875,-49.375,0.0,0.0,0.0,0.0,0.0,0.0,2,0,41.66192917347803,-92.0560994162354,10000.001659307904,139.844272393034,-0.0023886378937207,0.0024910698378536,,8749.224682894945,11121.848502006404,150,11,2025-09-16,2025-09-26 15:13:14.431,AA,C,4237001952,HAWK11,1,1,73,2,1,1,225,2,1,0,0,12,1,225,2,1,-145767.17614920562,-4789529.028291549,4200495.929167271,-2.6535,1.00677,-0.830267,39.5,71.25,94.0,-0.015625,-5.29688,5.65625,0.0390625,-0.0078125,0.00976562,4,0,41.42889747340646,-91.74323335392964,11113.021103115178,20.09920578835756,3.030419326556916,5.514389957998297,191.97,8749.224682894945,11121.848502006404,150,True,19.803298453917943,False,122.33841165603864,174.91477269043415,False,62.7467955251584,False,False
11,1970-07-23 11:25:55.957181030,2025-09-16,2025-09-26 15:13:15.718,AA,C,592164262,JASSM,3,137,76,2,2,1,225,9,2,0,1,26,0,0,0,0,-171233.25427420562,-4771296.000947799,4219596.733854771,-2.51439,-0.703138,0.607744,54.375,-45.875,-49.375,0.0,0.0,0.0,0.0,0.0,0.0,2,0,41.661272531876,-92.05536063731292,10000.001513284587,139.8447634814652,-0.001530848807173,0.0024894637446617,,8749.224682894945,11121.848502006404,150,11,2025-09-16,2025-09-26 15:13:15.727,AA,C,4238592616,HAWK11,1,1,73,2,1,1,225,2,1,0,0,12,1,225,2,1,-145713.37927420562,-4789430.801729049,4200618.866667271,-2.81505,1.01636,-0.793835,40.625,74.25,91.625,0.203125,-4.54688,4.96875,-0.142578,-0.0117188,0.0175781,4,0,41.43032135617747,-91.74262610927524,11134.371790655388,20.54021836297274,0.9567912948914664,-3.327494911898604,192.08,8749.224682894945,11121.848502006404,150,True,19.71126885134565,False,121.98274662500899,174.66939545697016,False,63.3451115886394,False,False
11,1970-07-23 11:25:55.965981182,2025-09-16,2025-09-26 15:13:16.598,AA,C,593418756,JASSM,3,137,76,2,2,1,225,9,2,0,1,26,0,0,0,0,-171176.10705740875,-4771344.450166549,4219544.616667271,-2.51439,-0.703138,0.607744,54.375,-45.875,-49.375,0.0,0.0,0.0,0.0,0.0,0.0,2,0,41.66064475373455,-92.05465442561078,9999.996032759667,139.84523291555624,-0.0007108064079525,0.0024878858613266,,8749.224682894945,11121.848502006404,150,11,2025-09-16,2025-09-26 15:13:16.728,AA,C,4239825382,HAWK11,1,1,73,2,1,1,225,2,1,0,0,12,1,225,2,1,-145671.62536795562,-4789352.315400924,4200711.745573521,-2.86222,1.02921,-0.774085,40.5,77.0,90.0,-0.078125,-4.76562,5.10938,-0.00585938,-0.0253906,-0.0273438,4,0,41.4314227463511,-91.74215560247134,11139.91416150375,20.476298837866175,-0.2862521456090299,-5.5106791205347925,193.058,8749.224682894945,11121.848502006404,150,True,19.631027801040542,False,122.18492989913207,174.47562999226434,False,63.32977364056261,False,False
11,1970-07-23 11:25:55.977359596,2025-09-16,2025-09-26 15:13:17.735,AA,C,594789842,JASSM,3,137,76,2,2,1,225,9,2,0,1,26,0,0,0,0,-171113.64831717435,-4771397.399385299,4219487.659636021,-2.51439,-0.703138,0.607744,54.375,-45.875,-49.375,0.0,0.0,0.0,0.0,0.0,0.0,2,0,41.65995866847375,-92.05388259238512,9999.996455683406,139.84574596304645,0.0001854184075632,0.0024861905135427,,8749.224682894945,11121.848502006404,150,11,2025-09-16,2025-09-26 15:13:17.728,AA,C,4240978614,HAWK11,1,1,73,2,1,1,225,2,1,0,0,12,1,225,2,1,-145632.69372733062,-4789277.229463424,4200796.499479771,-2.83815,1.06382,-0.767757,40.5,79.375,88.75,0.078125,-5.10938,5.51562,0.0996094,-0.00585938,-0.00390625,4,0,41.43244856346138,-91.74171757672426,11136.396526883307,19.275887351108743,-1.129572463528265,-2.735175098894598,193.828,8749.224682894945,11121.848502006404,150,True,19.548597668823014,False,122.30957787770572,174.29167568826304,False,63.38014622954506,False,False
11,1970-07-23 11:25:55.988399675,2025-09-16,2025-09-26 15:13:18.839,AA,C,596102408,JASSM,3,137,76,2,2,1,225,9,2,0,1,26,0,0,0,0,-171053.85534842435,-4771448.090791549,4219433.132292271,-2.51439,-0.703043,0.607744,54.375,-45.875,-49.375,0.0,0.0,0.0,0.0,0.0,0.0,2,0,41.65930183974927,-92.0531437158554,10000.00400454811,139.8425846620301,-0.0016039499867442,-0.0006531011710771,,8749.224682894945,11121.848502006404,150,11,2025-09-16,2025-09-26 15:13:18.727,AA,C,4242211378,HAWK11,1,1,73,2,1,1,225,2,1,0,0,12,1,225,2,1,-145590.36755545562,-4789193.370088424,4200887.679167271,-2.76088,1.05404,-0.748007,40.875,81.625,87.875,-0.03125,-5.48438,5.75,0.0273438,0.0,0.0078125,4,0,41.433570570771096,-91.74124215180056,11125.013290660549,20.05113941574617,-2.048192760329067,1.285708252917945,195.319,8749.224682894945,11121.848502006404,150,True,19.46583728072702,False,122.28457958770007,174.09151176888713,False,63.595377788504784,False,False
11,1970-07-23 11:25:55.998422107,2025-09-16,2025-09-26 15:13:19.842,AA,C,597415642,JASSM,3,137,76,2,2,1,225,9,2,0,1,26,0,0,0,0,-170994.03210623687,-4771498.801729049,4219378.573698521,-2.51439,-0.703043,0.60784,54.375,-45.875,-49.375,0.0,0.0,0.0,0.0,0.0,0.0,2,0,41.658644685819446,-92.05240448289314,9999.993282675236,139.84629894048757,-0.0051917810333084,-0.0006549534409896,,8749.224682894945,11121.848502006404,150,11,2025-09-16,2025-09-26 15:13:19.728,AA,C,4243444144,HAWK11,1,1,73,2,1,1,225,2,1,0,0,12,1,225,2,1,-145547.86950858062,-4789107.998994674,4200977.667448521,-2.75206,1.05001,-0.744364,41.625,83.125,87.5,-0.15625,-6.15625,6.4375,-0.03125,-0.00585938,0.0078125,4,0,41.43469356871616,-91.74076520476028,11107.322685815596,20.283658559155445,-2.182761584740577,1.6259329649365073,196.883,8749.224682894945,11121.848502006404,150,True,19.383301049539217,False,122.07203431254572,173.8895207568827,False,64.00336023154182,False,False
11,1970-07-23 11:25:56.009442828,2025-09-16,2025-09-26 15:13:20.944,AA,C,598726018,JASSM,3,137,76,2,2,1,225,9,2,0,1,26,0,0,0,0,-170934.33874686187,-4771549.403291549,4219324.136198521,-2.51439,-0.703043,0.60784,54.375,-45.875,-49.375,0.0,0.0,0.0,0.0,0.0,0.0,2,0,41.657988967258014,-92.05166686955592,9999.994797715284,139.84678922261375,-0.0043352407850809,-0.0006565780725465,,8749.224682894945,11121.848502006404,150,11,2025-09-16,2025-09-26 15:13:21.025,AA,C,4244875742,HAWK11,1,1,73,2,1,1,225,2,1,0,0,12,1,225,2,1,-145498.21325858062,-4789007.587861861,4201081.942839146,-2.89865,1.04991,-0.744652,41.625,84.375,87.875,-0.046875,-6.60938,6.875,-0.0332031,0.0078125,-0.00390625,4,0,41.43600378057241,-91.74020814064774,11083.150486596109,20.28197829651427,-2.1645460339968663,-6.776690631923346,199.29,8749.224682894945,11121.848502006404,150,True,19.295963752876027,False,122.23300644414503,173.654562034017,False,64.07468311503376,False,False
11,1970-07-23 11:25:56.020460895,2025-09-16,2025-09-26 15:13:22.046,AA,C,599979646,JASSM,3,137,76,2,2,1,225,9,2,0,1,26,0,0,0,0,-170877.230592565,-4771597.813447799,4219272.054167271,-2.51429,-0.703043,0.60784,54.375,-45.875,-49.375,0.0,0.0,0.0,0.0,0.0,0.0,2,0,41.65736162758812,-92.05096121482408,9999.99613460016,139.84725825633956,-0.0035157844521735,0.004833330369684,,8749.224682894945,11121.848502006404,150,11,2025-09-16,2025-09-26 15:13:22.037,AA,C,4245830142,HAWK11,1,1,73,2,1,1,225,2,1,0,0,12,1,225,2,1,-145465.22107108062,-4788940.153291549,4201151.993620396,-2.88877,1.06545,-0.75328,41.125,84.875,88.625,-0.125,-7.125,7.29688,0.0390625,0.0078125,-0.0175781,4,0,41.43688377620342,-91.73983826921103,11066.99583682849,19.498609630125603,-1.9271527866179916,-5.576954580285187,201.038,8749.224682894945,11121.848502006404,150,True,19.222823133474392,False,122.57048347969695,173.49086804796934,False,63.902577295351314,False,False
11,1970-07-23 11:25:56.031577054,2025-09-16,2025-09-26 15:13:23.157,AA,C,601293024,JASSM,3,137,76,2,2,1,225,9,2,0,1,26,0,0,0,0,-170817.40051444,-4771648.532197799,4219217.487761021,-2.51429,-0.703043,0.60784,54.375,-45.875,-49.375,0.0,0.0,0.0,0.0,0.0,0.0,2,0,41.65670436163259,-92.0502219409027,10000.000779470818,139.8477496298121,-0.0026572543490775,0.0048316789798582,,8749.224682894945,11121.848502006404,150,11,2025-09-16,2025-09-26 15:13:22.931,AA,C,4247261740,HAWK11,1,1,73,2,1,1,225,2,1,0,0,12,1,225,2,1,-145416.19568045562,-4788838.073213424,4201258.366667271,-2.951,1.06698,-0.762005,40.125,85.25,89.75,0.0,-7.85938,7.10938,-0.00195312,0.0136719,0.0273438,4,0,41.43821796104119,-91.7392893122981,11043.342525583868,19.26767812777596,-1.477979546331954,-9.074699691933183,201.954,8749.224682894945,11121.848502006404,150,True,19.134679412771245,False,123.140757686603,173.24955708179027,False,63.577648643422066,False,False
11,1970-07-23 11:25:56.043342836,2025-09-16,2025-09-26 15:13:24.334,AA,C,602664932,JASSM,3,137,76,2,2,1,225,9,2,0,1,26,0,0,0,0,-170754.90417654935,-4771701.504854049,4219160.491667271,-2.51429,-0.703043,0.60784,54.375,-45.875,-49.375,0.0,0.0,0.0,0.0,0.0,0.0,2,0,41.656017851435095,-92.04944974083868,9999.999538355116,139.8482628815229,-0.0017605051809795,0.0048299854530781,,8749.224682894945,11121.848502006404,150,11,2025-09-16,2025-09-26 15:13:24.431,AA,C,4248971706,HAWK11,1,1,73,2,1,1,225,2,1,0,0,12,1,225,2,1,-145359.93786795562,-4788716.459932174,4201387.444792271,-2.95828,1.09852,-0.778783,38.375,85.0,90.75,-0.234375,-7.85938,6.84375,-0.0195312,0.00976562,-0.0136719,4,0,41.4398229128032,-91.73866096520828,11020.4432470605,17.725581503339008,-0.9990697492853056,-8.20006638425637,202.37,8749.224682894945,11121.848502006404,150,True,19.03613834238727,False,123.95190795134883,172.96210717646224,False,63.05979423030106,False,False
11,1970-07-23 11:25:56.054363015,2025-09-16,2025-09-26 15:13:25.436,AA,C,603977008,JASSM,3,137,76,2,2,1,225,9,2,0,1,26,0,0,0,0,-170695.13342459625,-4771752.168916549,4219105.976042271,-2.51429,-0.703043,0.60784,54.375,-45.875,-49.375,0.0,0.0,0.0,0.0,0.0,0.0,2,0,41.65536123126389,-92.04871123254674,9999.995749735985,139.84875373311593,-0.0009028300789308,0.0048283370920876,,8749.224682894945,11121.848502006404,150,11,2025-09-16,2025-09-26 15:13:25.431,AA,C,4250164704,HAWK11,1,1,73,2,1,1,225,2,1,0,0,12,1,225,2,1,-145322.17419608062,-4788631.739229049,4201478.462370396,-2.93575,1.09124,-0.783193,37.125,84.75,91.375,0.078125,-7.73438,6.625,0.0488281,0.00585938,0.0078125,4,0,41.44094812616823,-91.73824028189075,11006.988827443223,17.924832470789223,-0.6629664810811727,-7.205916603800955,202.553,8749.224682894945,11121.848502006404,150,True,18.953087572851015,False,124.51583264972918,172.75520626816518,False,62.70653302024465,False,False
11,1970-07-23 11:25:56.065400666,2025-09-16,2025-09-26 15:13:26.540,AA,C,605289606,JASSM,3,137,76,2,2,1,225,9,2,0,1,26,0,0,0,0,-170635.33874686187,-4771802.852510299,4219051.440886021,-2.51429,-0.703043,0.60784,54.375,-45.875,-49.375,0.0,0.0,0.0,0.0,0.0,0.0,2,0,41.65470436331208,-92.0479724439668,9999.999810531704,139.84924476465122,-4.482690951001805e-05,0.0048267006802578,,8749.224682894945,11121.848502006404,150,11,2025-09-16,2025-09-26 15:13:26.633,AA,C,4251357702,HAWK11,1,1,73,2,1,1,225,2,1,0,0,12,1,225,2,1,-145285.45739920562,-4788547.186494674,4201569.874479771,-2.9486,1.11012,-0.790767,36.125,84.625,91.75,-0.046875,-7.84375,6.54688,-0.0234375,0.00195312,-0.0136719,4,0,41.44207481164504,-91.73783203709672,10994.890802679887,17.062533239437116,-0.4943814005572381,-7.166822193675932,202.04,8749.224682894945,11121.848502006404,150,True,18.86979746655522,False,124.9620687158036,172.54737575981184,False,62.47036455661724,False,False
11,1970-07-23 11:25:56.075417708,2025-09-16,2025-09-26 15:13:27.541,AA,C,606601252,JASSM,3,137,76,2,2,1,225,9,2,0,1,26,0,0,0,0,-170575.58728201812,-4771853.497041549,4218996.944792271,-2.51429,-0.702947,0.60784,54.375,-45.875,-49.375,0.0,0.0,0.0,0.0,0.0,0.0,2,0,41.6540479774529,-92.0472342053402,10000.001829931216,139.84608564786774,-0.0018331909338598,0.0016889497119428,,8749.224682894945,11121.848502006404,150,11,2025-09-16,2025-09-26 15:13:27.822,AA,C,4252789302,HAWK11,1,1,73,2,1,1,225,2,1,0,0,12,1,225,2,1,-145242.79138358062,-4788446.184541549,4201679.895964146,-2.91284,1.1129,-0.80093,34.875,84.25,92.0,-0.1875,-8.0,6.65625,0.107422,0.00976562,0.00195312,4,0,41.44342604097405,-91.73735862295152,10982.332606354708,16.7753954564429,0.0255116918674816,-5.002816245627349,201.967,8749.224682894945,11121.848502006404,150,True,18.779887907698573,False,125.48359920177478,172.30139648266984,False,62.197489210206655,False,False
11,1970-07-23 11:25:56.087341943,2025-09-16,2025-09-26 15:13:28.734,AA,C,607972128,JASSM,3,137,76,2,2,1,225,9,2,0,1,26,0,0,0,0,-170513.1378191275,-4771906.426729049,4218939.983854771,-2.51429,-0.702947,0.607936,54.375,-45.875,-49.375,0.0,0.0,0.0,0.0,0.0,0.0,2,0,41.65336193008809,-92.0464626492478,9999.995914935747,139.84982360722316,-0.0053859232221627,0.0016870010572683,,8749.224682894945,11121.848502006404,150,11,2025-09-16,2025-09-26 15:13:28.821,AA,C,4254220900,HAWK11,1,1,73,2,1,1,225,2,1,0,0,12,1,225,2,1,-145201.41833670562,-4788346.407197799,4201789.919401646,-2.84304,1.12249,-0.810901,34.375,83.5,92.25,-0.203125,-7.92188,6.60938,0.0078125,0.00195312,0.0,4,0,41.44476975829628,-91.73690020169064,10972.897748426463,16.238050324840245,0.4535045061498359,-0.6096704387154448,201.038,8749.224682894945,11121.848502006404,150,True,18.687835709918435,False,125.65597211881966,172.05437234310818,False,62.27576623246173,False,False
11,1970-07-23 11:25:56.098785546,2025-09-16,2025-09-26 15:13:29.878,AA,C,609226264,JASSM,3,137,76,2,2,1,225,9,2,0,1,26,0,0,0,0,-170456.00622733062,-4771954.848604049,4218887.874479771,-2.51429,-0.702947,0.607936,54.375,-45.875,-49.375,0.0,0.0,0.0,0.0,0.0,0.0,2,0,41.652734309063966,-92.04575680945148,9999.995849642331,139.85029272139602,-0.0045661381692558,0.0016854340365477,,8749.224682894945,11121.848502006404,150,11,2025-09-16,2025-09-26 15:13:30.117,AA,C,4252431402,HAWK11,1,1,73,2,1,1,225,2,1,0,0,12,1,225,2,1,-145253.80700858062,-4788471.983369674,4201651.653776646,-2.94189,1.11233,-0.795561,35.125,84.5,92.0,-0.125,-7.89062,6.6875,0.0507812,0.00390625,-0.00195312,4,0,41.4430799355368,-91.73748095305996,10985.244967438784,16.89285817318377,-0.2600471990234879,-6.691110021372364,200.366,8749.224682894945,11121.848502006404,150,True,18.687981989129092,False,125.39788234896699,172.3167218475669,False,62.26678295658232,False,False
11,1970-07-23 11:25:56.109385734,2025-09-16,2025-09-26 15:13:30.938,AA,C,610538268,JASSM,3,137,76,2,2,1,225,9,2,0,1,26,0,0,0,0,-170396.238405065,-4772005.504854049,4218833.358854771,-2.51429,-0.702947,0.607936,54.375,-45.875,-49.375,0.0,0.0,0.0,0.0,0.0,0.0,2,0,41.6520777108643,-92.04501841464764,9999.996620217064,139.850783466022,-0.0037085163423657,0.0016837869116453,,8749.224682894945,11121.848502006404,150,11,2025-09-16,2025-09-26 15:13:30.822,AA,C,4256606898,HAWK11,1,1,73,2,1,1,225,2,1,0,0,12,1,225,2,1,-145133.26599295562,-4788180.713838424,4201975.079557896,-3.06173,1.11885,-0.809079,32.75,82.875,92.625,0.0,-7.67188,6.375,-0.109375,0.00585938,-0.0214844,4,0,41.44701761397612,-91.7361455018546,10962.62273044971,16.407492177685175,0.4004153270281707,-13.289425852152164,200.561,8749.224682894945,11121.848502006404,150,False,18.523661161601353,False,126.33272792450877,171.6317692358434,False,62.02505073771652,False,False
11,1970-07-23 11:25:56.119447960,2025-09-16,2025-09-26 15:13:31.944,AA,C,611849528,JASSM,3,137,76,2,2,1,225,9,2,0,1,26,0,0,0,0,-170336.50451834625,-4772056.129854049,4218778.874479771,-2.51429,-0.702947,0.607936,54.375,-45.875,-49.375,0.0,0.0,0.0,0.0,0.0,0.0,2,0,41.65142149752499,-92.04428045514558,9999.99662526784,139.8512739149997,-0.00285139477041,0.0016821509600883,,8749.224682894945,11121.848502006404,150,11,2025-09-16,2025-09-26 15:13:31.760,AA,C,4257322696,HAWK11,1,1,73,2,1,1,225,2,1,0,0,12,1,225,2,1,-145113.49255545562,-4788130.932588424,4202031.110807896,-3.11283,1.14713,-0.813777,31.5,82.75,92.75,-0.15625,-7.73438,6.625,-0.0175781,-0.00195312,-0.0292969,4,0,41.44769554418076,-91.73592714522772,10960.466315826512,15.26239768299178,0.3266961046008913,-15.049191969539615,199.584,8749.224682894945,11121.848502006404,150,False,18.453237063079662,False,126.87238197392662,171.49388226902332,False,61.62414489077118,False,False
11,1970-07-23 11:25:56.130469129,2025-09-16,2025-09-26 15:13:33.046,AA,C,613102228,JASSM,3,137,76,2,2,1,225,9,2,0,1,26,0,0,0,0,-170279.43811209625,-4772104.493135299,4218726.823698521,-2.51429,-0.702947,0.607936,54.375,-45.875,-49.375,0.0,0.0,0.0,0.0,0.0,0.0,2,0,41.65079459320978,-92.04357546443332,9999.99970831538,139.8517424469494,-0.0020325563401032,0.0016805939896668,,8749.224682894945,11121.848502006404,150,11,2025-09-16,2025-09-26 15:13:33.042,AA,C,4259032662,HAWK11,1,1,73,2,1,1,225,2,1,0,0,12,1,225,2,1,-145070.90466483062,-4788013.237275924,4202163.433073521,-3.05473,1.18759,-0.824227,28.25,82.875,92.875,-0.265625,-7.9375,6.64062,0.130859,0.0175781,-0.0078125,4,0,41.44929657924254,-91.735460629755,10955.365324799528,13.576227112099764,0.4716719709237263,-10.038591663624802,199.18,8749.224682894945,11121.848502006404,150,False,18.357016563873945,False,128.30597061036198,171.2036760139604,False,60.48123464552225,False,False
11,1970-07-23 11:25:56.141610260,2025-09-16,2025-09-26 15:13:34.161,AA,C,614356448,JASSM,3,137,76,2,2,1,225,9,2,0,1,26,0,0,0,0,-170222.30261404935,-4772152.915010299,4218674.706511021,-2.51429,-0.702947,0.607936,54.375,-45.875,-49.375,0.0,0.0,0.0,0.0,0.0,0.0,2,0,41.65016690247596,-92.0428696338488,9999.999786518369,139.85221153127625,-0.0012127088354456,0.001679020283005,,8749.224682894945,11121.848502006404,150,11,2025-09-16,2025-09-26 15:13:34.120,AA,C,4260146126,HAWK11,1,1,73,2,1,1,225,2,1,0,0,12,1,225,2,1,-145045.15075858062,-4787936.401338424,4202249.915495396,-3.002,1.20657,-0.832376,27.0,82.625,92.875,-0.21875,-7.79688,6.46875,0.0703125,0.00976562,0.0,4,0,41.45034208220692,-91.735180556536,10952.408662816635,12.74694944294644,0.7389228393193115,-6.224704141703565,198.239,8749.224682894945,11121.848502006404,150,True,18.27674537644876,False,128.8365955064932,171.00629871870925,False,60.14891327681821,False,False
11,1970-07-23 11:25:56.152826777,2025-09-16,2025-09-26 15:13:35.282,AA,C,615726952,JASSM,3,137,76,2,2,1,225,9,2,0,1,26,0,0,0,0,-170159.86975272125,-4772205.825166549,4218617.757292271,-2.51429,-0.702947,0.607936,54.375,-45.875,-49.375,0.0,0.0,0.0,0.0,0.0,0.0,2,0,41.64948101735501,-92.04209837779604,10000.001971105425,139.85272408974748,-0.0003168543865784,0.0016773051806152,,8749.224682894945,11121.848502006404,150,11,2025-09-16,2025-09-26 15:13:35.636,AA,C,4262412824,HAWK11,1,1,73,2,1,1,225,2,1,0,0,12,1,225,2,1,-144995.59802420562,-4787780.286104049,4202426.618620396,-3.07467,1.21875,-0.834677,25.0,82.125,92.75,-0.09375,-7.46875,6.53125,-0.0722656,-0.0078125,-0.00976562,4,0,41.45247249791421,-91.73464464272328,10948.776302897286,12.260316765584523,0.7558233278461897,-9.878344558866118,197.372,8749.224682894945,11121.848502006404,150,True,18.158444718691268,False,129.67851713508722,170.62610595952262,False,59.68860337970593,False,False
11,1970-07-23 11:25:56.163390340,2025-09-16,2025-09-26 15:13:36.339,AA,C,617040132,JASSM,3,137,76,2,2,1,225,9,2,0,1,26,0,0,0,0,-170100.04821951812,-4772256.520479049,4218563.186979771,-2.51429,-0.702947,0.607936,54.375,-45.875,-49.375,0.0,0.0,0.0,0.0,0.0,0.0,2,0,41.64882380550858,-92.04135939656275,9999.9977418772,139.85321519264238,0.0005415370712149,0.001675655057529,,8749.224682894945,11121.848502006404,150,11,2025-09-16,2025-09-26 15:13:36.230,AA,C,4262890024,HAWK11,1,1,73,2,1,1,225,2,1,0,0,12,1,225,2,1,-144985.92810233062,-4787748.022432174,4202463.114714146,-3.11417,1.2292,-0.833814,24.25,82.375,92.5,-0.109375,-7.1875,6.375,-0.0546875,-0.00195312,-0.00976562,4,0,41.45291252758249,-91.73454070946596,10948.023213204331,11.88079140058493,0.6143489590498418,-11.70249704216069,197.139,8749.224682894945,11121.848502006404,150,False,18.09410991250372,False,130.0139486041731,170.52632889215073,False,59.451770800490706,False,False
11,1970-07-23 11:25:56.174407540,2025-09-16,2025-09-26 15:13:37.440,AA,C,618293840,JASSM,3,137,76,2,2,1,225,9,2,0,1,26,0,0,0,0,-170042.93591483062,-4772304.918916549,4218511.089323521,-2.51429,-0.702851,0.608032,54.375,-45.875,-49.375,0.0,0.0,0.0,0.0,0.0,0.0,2,0,41.64819636743379,-92.04065389711911,9999.998455390092,139.8532557843372,-0.0057322551178427,-0.0014646497078101,,8749.224682894945,11121.848502006404,150,11,2025-09-16,2025-09-26 15:13:37.324,AA,C,4264440922,HAWK11,1,1,73,2,1,1,225,2,1,0,0,12,1,225,2,1,-144956.08630545562,-4787641.081025924,4202583.347136021,3.08138,1.26966,-0.839663,21.625,83.125,92.875,-0.125,-7.0,6.92188,-0.00585938,0.0,-0.00390625,4,0,41.45436567771897,-91.7342226275952,10944.098075863638,10.292373522421464,0.6089905234701765,-15.018922856426103,197.897,8749.224682894945,11121.848502006404,150,False,18.00010317369007,False,131.25121542401845,170.2603795578657,False,58.479648555515254,False,False
11,1970-07-23 11:25:56.184429651,2025-09-16,2025-09-26 15:13:38.442,AA,C,619604332,JASSM,3,137,76,2,2,1,225,9,2,0,1,26,0,0,0,0,-169983.23669608062,-4772355.508760299,4218456.628386021,-2.51429,-0.702851,0.608032,54.375,-45.875,-49.5,0.0,0.0,0.0,0.0,0.0,0.0,2,0,41.64754048598243,-92.03991645690849,9999.994142810328,139.85374585092637,-0.004875615935945,-0.0014663059149252,,8749.224682894945,11121.848502006404,150,11,2025-09-16,2025-09-26 15:13:38.136,AA,C,4265395322,HAWK11,1,1,73,2,1,1,225,2,1,0,0,12,1,225,2,1,-144939.51989920562,-4787574.483369674,4202658.009245396,3.0903,1.29612,-0.844073,19.875,83.5,93.625,-0.1875,-7.125,7.26562,0.0117188,0.0078125,-0.0214844,4,0,41.45526882812947,-91.73404865823387,10941.349204310316,9.25293608670282,0.6650732815626912,-13.388703721354169,198.166,8749.224682894945,11121.848502006404,150,False,17.920575364326506,False,132.12873948836162,170.0423478093569,False,57.81884451082876,False,False
11,1970-07-23 11:25:56.195468256,2025-09-16,2025-09-26 15:13:39.546,AA,C,620917700,JASSM,3,137,76,2,2,1,225,9,2,0,1,26,0,0,0,0,-169923.406373815,-4772406.207979049,4218402.050261021,-2.51419,-0.702851,0.608032,54.375,-45.875,-49.5,0.0,0.0,0.0,0.0,0.0,0.0,2,0,41.64688318587397,-92.03917741297283,9999.99554912274,139.8542369769178,-0.0040171160482899,0.0040371833651345,,8749.224682894945,11121.848502006404,150,11,2025-09-16,2025-09-26 15:13:39.434,AA,C,4266866686,HAWK11,1,1,73,2,1,1,225,2,1,0,0,12,1,225,2,1,-144916.61950858062,-4787470.961885299,4202774.550261021,2.96614,1.32114,-0.850784,16.875,84.125,94.5,0.265625,-7.0625,7.26562,-0.0644531,0.00976562,-0.00390625,4,0,41.456675462802544,-91.73381231367414,10938.349945739808,8.251970535187919,0.8817731754211946,-19.44111608325248,199.547,8749.224682894945,11121.848502006404,150,False,17.823897056052832,False,133.53265498357143,169.7846061178656,False,56.6736830870527,False,False
11,1970-07-23 11:25:56.206807360,2025-09-16,2025-09-26 15:13:40.680,AA,C,622229034,JASSM,3,137,76,2,2,1,225,9,2,0,1,26,0,0,0,0,-169863.66882498687,-4772456.829072799,4218347.554167271,-2.51419,-0.702851,0.608032,54.375,-45.875,-49.5,0.0,0.0,0.0,0.0,0.0,0.0,2,0,41.64622687976739,-92.03843952978488,9999.99717458318,139.85472732519872,-0.0031599315670713,0.0040355296624654,,8749.224682894945,11121.848502006404,150,11,2025-09-16,2025-09-26 15:13:40.731,AA,C,4268417584,HAWK11,1,1,73,2,1,1,225,2,1,0,0,12,1,225,2,1,-144897.34997733062,-4787361.094697799,4202897.999479771,2.93201,1.38921,-0.849921,12.875,85.25,95.25,-0.078125,-6.98438,7.14062,0.0527344,0.015625,-0.0390625,4,0,41.4581658251996,-91.73362167014892,10935.043613374592,5.710681422794029,0.4789679930804133,-18.49532012074405,200.818,8749.224682894945,11121.848502006404,150,False,17.72288375873854,False,135.3810609922612,169.515846448063,False,55.09313698252028,False,False
11,1970-07-23 11:25:56.218494651,2025-09-16,2025-09-26 15:13:41.849,AA,C,623541384,JASSM,3,137,76,2,2,1,225,9,2,0,1,26,0,0,0,0,-169803.8847673697,-4772507.489229049,4218293.015104771,-2.51419,-0.702851,0.608032,54.375,-45.875,-49.5,0.0,0.0,0.0,0.0,0.0,0.0,2,0,41.64557005632278,-92.03770108725942,10000.0014561983,139.85521803883026,-0.0023020785100793,0.0040338735586595,,8749.224682894945,11121.848502006404,150,11,2025-09-16,2025-09-26 15:13:41.824,AA,C,4269809416,HAWK11,1,1,73,2,1,1,225,2,1,0,0,12,1,225,2,1,-144884.40661795562,-4787261.938447799,4203008.708464146,2.97228,1.43207,-0.8597,9.625,85.75,96.125,-0.171875,-7.71875,7.73438,0.0527344,0.0234375,-0.00390625,4,0,41.45950533460294,-91.7335027866103,10930.870845542177,4.052281494874721,0.8814407214751034,-14.355208779883874,202.15,8749.224682894945,11121.848502006404,150,False,17.625468145527556,False,136.8571246183744,169.27334732659537,False,53.86106702556585,False,False
11,1970-07-23 11:25:56.228367360,2025-09-16,2025-09-26 15:13:42.836,AA,C,624798436,JASSM,3,137,76,2,2,1,225,9,2,0,1,26,0,0,0,0,-169746.61987479156,-4772556.008760299,4218240.772917271,-2.51419,-0.702851,0.608032,54.375,-45.875,-49.5,0.0,0.0,0.0,0.0,0.0,0.0,2,0,41.6449409322052,-92.03699377762248,9999.992662951545,139.85568805791914,-0.0014803950454145,0.0040323030430377,,8749.224682894945,11121.848502006404,150,11,2025-09-16,2025-09-26 15:13:42.824,AA,C,4270883116,HAWK11,1,1,73,2,1,1,225,2,1,0,0,12,1,225,2,1,-144876.71130545562,-4787184.452119674,4203095.985807896,3.03258,1.45393,-0.865069,7.625,85.5,97.0,-0.09375,-7.17188,7.21875,0.0683594,-0.00195312,-0.0214844,4,0,41.46055681348186,-91.73343881066496,10929.455474910425,3.2170532125533238,1.1297980423858904,-9.963531767917845,202.846,8749.224682894945,11121.848502006404,150,True,17.539483143497645,False,137.74663430022213,169.07825083101562,False,53.17001608093605,False,False
11,1970-07-23 11:25:56.239408044,2025-09-16,2025-09-26 15:13:43.940,AA,C,626107774,JASSM,3,137,76,2,2,1,225,9,2,0,1,26,0,0,0,0,-169686.97302420562,-4772606.549775924,4218186.358854771,-2.51419,-0.702851,0.608032,54.375,-45.875,-49.5,0.0,0.0,0.0,0.0,0.0,0.0,2,0,41.64428562282404,-92.0362570603616,9999.998680389444,139.85617761267162,-0.0006245234529021,0.00403066032202,,8749.224682894945,11121.848502006404,150,11,2025-09-16,2025-09-26 15:13:43.825,AA,C,4272195414,HAWK11,1,1,73,2,1,1,225,2,1,0,0,12,1,225,2,1,-144869.22302420562,-4787090.795869674,4203201.997526646,3.0253,1.4871,-0.871205,6.0,85.625,97.625,-0.1875,-7.82812,7.48438,-0.0234375,0.00390625,0.0,4,0,41.46183090445041,-91.73338315974756,10929.021306832075,1.9717841690846163,1.417699953861938,-8.95818542735246,202.956,8749.224682894945,11121.848502006404,150,True,17.44301910733799,False,138.47132867036564,168.84663731549352,False,52.678244656058176,False,False
11,1970-07-23 11:25:56.251408705,2025-09-16,2025-09-26 15:13:45.140,AA,C,627478438,JASSM,3,137,76,2,2,1,225,9,2,0,1,26,0,0,0,0,-169624.5324724478,-4772659.456025924,4218129.394011021,-2.51419,-0.702851,0.608032,54.375,-45.875,-49.5,0.0,0.0,0.0,0.0,0.0,0.0,2,0,41.643599612541685,-92.0354858540431,10000.000414473634,139.85669007891784,0.0002714367470585,0.004028938345173,,8749.224682894945,11121.848502006404,150,11,2025-09-16,2025-09-26 15:13:45.026,AA,C,4273547480,HAWK11,1,1,73,2,1,1,225,2,1,0,0,12,1,225,2,1,-144863.31482108062,-4786993.122041549,4203313.378386021,3.02098,1.48278,-0.8783,4.125,85.5,97.875,-0.125,-7.15625,6.95312,0.015625,0.0,-0.0195312,4,0,41.463164847609335,-91.73334785522836,10930.50563286446,2.113287343617429,1.831779178159446,-9.391043333043257,203.934,8749.224682894945,11121.848502006404,150,True,17.34153623206883,False,139.29454169586023,168.6034824995156,False,52.09918358171873,False,False
11,1970-07-23 11:25:56.261446897,2025-09-16,2025-09-26 15:13:46.144,AA,C,628732728,JASSM,3,137,76,2,2,1,225,9,2,0,1,26,0,0,0,0,-169567.39319022125,-4772707.870088424,4218077.265104771,-2.51419,-0.702851,0.608128,54.375,-45.875,-49.5,0.0,0.0,0.0,0.0,0.0,0.0,2,0,41.64297184004299,-92.03478013846652,10000.004571389913,139.86038442867542,-0.0033573251156234,0.0040272982659989,,8749.224682894945,11121.848502006404,150,11,2025-09-16,2025-09-26 15:13:46.230,AA,C,4274899544,HAWK11,1,1,73,2,1,1,225,2,1,0,0,12,1,225,2,1,-144859.80700858062,-4786896.665010299,4203423.479948521,2.95378,1.52257,-0.874848,2.25,85.375,97.875,-0.09375,-7.42188,6.40625,-0.0566406,0.00585938,-0.00585938,4,0,41.46448248300636,-91.73334081363706,10932.39080039939,0.6604023130884809,1.594052013878607,-11.533027011729182,203.787,8749.224682894945,11121.848502006404,150,False,17.24444631092444,False,140.11801721159674,168.3657017654778,False,51.51396648319176,False,False
11,1970-07-23 11:25:56.272466217,2025-09-16,2025-09-26 15:13:47.246,AA,C,630043488,JASSM,3,137,76,2,2,1,225,9,2,0,1,26,0,0,0,0,-169507.68152029935,-4772758.461885299,4218022.784636021,-2.51419,-0.702755,0.608128,54.375,-45.875,-49.5,0.0,0.0,0.0,0.0,0.0,0.0,2,0,41.64231577993724,-92.03404266728153,9999.998633129711,139.85722571073055,-0.0051461147841854,0.0008884767515399,,8749.224682894945,11121.848502006404,150,11,2025-09-16,2025-09-26 15:13:47.161,AA,C,4267781318,HAWK11,1,1,73,2,1,1,225,2,1,0,0,12,1,225,2,1,-144904.68200858062,-4787406.315400924,4202847.362761021,2.94093,1.34952,-0.851743,14.5,84.75,95.125,0.046875,-7.0625,7.14062,0.0371094,0.0117188,-0.0371094,4,0,41.4575536839896,-91.7336929743532,10936.736717634332,7.184569578268166,0.7732830202403894,-19.67824533583703,202.92,8749.224682894945,11121.848502006404,150,False,17.443027502107494,False,134.63701512506105,169.4309236097414,False,55.92304739778429,False,False
11,1970-07-23 11:25:56.283502029,2025-09-16,2025-09-26 15:13:48.350,AA,C,631356758,JASSM,3,137,76,2,2,1,225,9,2,0,1,26,0,0,0,0,-169447.85534842435,-4772809.149385299,4217968.202604771,-2.51419,-0.702755,0.608128,54.375,-45.875,-49.5,0.0,0.0,0.0,0.0,0.0,0.0,2,0,41.64165848435444,-92.03330379749708,10000.000503749829,139.85771667065077,-0.0042876732904079,0.0008868233631967,,8749.224682894945,11121.848502006404,150,11,2025-09-16,2025-09-26 15:13:48.324,AA,C,4277563908,HAWK11,1,1,73,2,1,1,225,2,1,0,0,12,1,225,2,1,-144859.35583670562,-4786705.791963424,4203641.472136021,2.91169,1.57214,-0.877437,-1.75,84.75,97.0,0.0,-7.45312,6.28125,0.0546875,0.0,0.00390625,4,0,41.467089502428415,-91.73340449409392,10936.89453042076,-1.157440737959417,1.7542314347629462,-11.815535661650562,201.881,8749.224682894945,11121.848502006404,150,False,17.04504740526401,False,141.88938792124014,167.89051462972475,False,50.217988211665244,False,False
