Subject_cm,Timestamp,SampleDate_cm,SampleTime_cm,Configuration_cm,Scenario_cm,DisTime_cm,MarkingTxt_cm,Application_cm,EntId_cm,Site_cm,ExerciseId_cm,ForceId_cm,Category_cm,Country_cm,Domain_cm,Kind_cm,Extra_cm,Specific_cm,Subcategory_cm,AltCategory_cm,AltCountry_cm,AltDomain_cm,AltKind_cm,ECEF_X_cm,ECEF_Y_cm,ECEF_Z_cm,OriPhi_cm,OriPsi_cm,OriTheta_cm,LinVelX_cm,LinVelY_cm,LinVelZ_cm,LinAccX_cm,LinAccY_cm,LinAccZ_cm,AngVelX_cm,AngVelY_cm,AngVelZ_cm,DrAlg_cm,Appearance_cm,Latitude_cm,Longitude_cm,Altitude_cm,Heading_cm,Pitch_cm,Roll_cm,CalibratedAirspeed_cm,CM_Altitude_Lead_cm,CM_Altitude_Wing_cm,CM_Airspeed_cm,Subject_ac,SampleDate_ac,SampleTime_ac,Configuration_ac,Scenario_ac,DisTime_ac,MarkingTxt_ac,Application_ac,EntId_ac,Site_ac,ExerciseId_ac,ForceId_ac,Category_ac,Country_ac,Domain_ac,Kind_ac,Extra_ac,Specific_ac,Subcategory_ac,AltCategory_ac,AltCountry_ac,AltDomain_ac,AltKind_ac,ECEF_X_ac,ECEF_Y_ac,ECEF_Z_ac,OriPhi_ac,OriPsi_ac,OriTheta_ac,LinVelX_ac,LinVelY_ac,LinVelZ_ac,LinAccX_ac,LinAccY_ac,LinAccZ_ac,AngVelX_ac,AngVelY_ac,AngVelZ_ac,DrAlg_ac,Appearance_ac,Latitude_ac,Longitude_ac,Altitude_ac,Heading_ac,Pitch_ac,Roll_ac,CalibratedAirspeed_ac,CM_Altitude_Lead_ac,CM_Altitude_Wing_ac,CM_Airspeed_ac,Bank_Angle_Condition,distance_nm,Distance_Condition,angle_between_vel,angle_between_pos,Cone_Condition,angle_between_pos_nose,Nose_Cone_Condition,Intercept_Criteria
11,1970-07-23 11:25:40.682335530,2025-09-16,2025-09-26 14:47:48.233,HA,C,3065053276,JASSM,3,116,76,2,2,1,225,9,2,0,1,26,0,0,0,0,-188265.3402117056,-4786087.797822799,4202200.567839146,-2.30155,-0.153302,0.128183,86.0,-13.125,-11.125,0.0,0.0,0.0,0.0,0.0,0.0,2,0,41.45205692784568,-92.25262291418218,10000.000875429434,99.81625231287184,-0.004269712800767,0.0023909451807385,,8736.853420967655,11026.390928219933,150,11,2025-09-16,2025-09-26 14:47:48.169,HA,C,3100076134,AMBUSH51,1,1,48,2,1,1,225,2,1,0,0,9,1,225,2,1,-146427.4511356108,-4791982.873298991,4196596.880883643,2.36564,2.77628,-0.380022,-106.745,39.1713,43.8588,-0.185091,-7.47072,6.9381,0.00850235,0.00417263,0.0097403,4,0,41.387859431292455,-91.7502285482212,8736.853420967655,-61.30906286899558,0.9363816869179216,0.6701857641581072,195.539,8736.853420967655,11026.390928219933,150,True,22.91897029794733,False,162.2916106229455,179.29574158398307,False,17.905928510990872,True,False
11,1970-07-23 11:25:40.693355968,2025-09-16,2025-09-26 14:47:49.335,HA,C,3066425178,JASSM,3,116,76,2,2,1,225,9,2,0,1,26,0,0,0,0,-188166.38903983065,-4786103.096650924,4202187.661589146,-2.30155,-0.153302,0.128183,86.0,-13.125,-11.125,0.0,0.0,0.0,0.0,0.0,0.0,2,0,41.45190196140263,-92.25143297800396,9999.999625480224,99.8170400412676,-0.0033644800451557,0.0023903077725883,,8736.853420967655,11026.390928219933,150,11,2025-09-16,2025-09-26 14:47:49.403,HA,C,3101547500,AMBUSH51,1,1,48,2,1,1,225,2,1,0,0,9,1,225,2,1,-146559.34402763908,-4791934.321656735,4196651.240342054,2.36592,2.77853,-0.387122,-106.45,38.9536,44.2609,-0.053736,-7.61688,6.82362,-0.000446288,0.000695959,0.00966124,4,0,41.38849128314408,-91.751821803316,8745.236047517696,-61.10593243349346,1.3093289344168515,0.7386116409783815,196.064,8736.853420967655,11026.390928219933,150,True,22.787721864943272,False,162.14219570222002,179.27261223540606,False,18.11159504319682,True,False
11,1970-07-23 11:25:40.704415191,2025-09-16,2025-09-26 14:47:50.441,HA,C,3067736870,JASSM,3,116,76,2,2,1,225,9,2,0,1,26,0,0,0,0,-188071.77966483065,-4786117.721650924,4202175.321745396,-2.30155,-0.153302,0.128183,86.0,-13.125,-11.125,0.0,0.0,0.0,0.0,0.0,0.0,2,0,41.45175379893033,-92.25029526054544,9999.997299257577,99.8177931990155,-0.0024989708116085,0.0023897137438692,,8736.853420967655,11026.390928219933,150,11,2025-09-16,2025-09-26 14:47:50.369,HA,C,3102700732,AMBUSH51,1,1,48,2,1,1,225,2,1,0,0,9,1,225,2,1,-146661.2498996241,-4791896.906951683,4196693.7681787,2.36529,2.77984,-0.391816,-106.197,38.7377,44.6121,-0.104624,-7.60963,6.74102,0.00716869,0.00129309,-0.00346315,4,0,41.38898243949159,-91.75305280203692,8753.106827197313,-60.964618843946894,1.54901417159804,0.7346229110957426,195.49,8736.853420967655,11026.390928219933,150,True,22.676348996033695,False,162.01684958821926,179.25121656464424,False,18.28045970290214,True,False
11,1970-07-23 11:25:40.715432597,2025-09-16,2025-09-26 14:47:51.543,HA,C,3069048040,JASSM,3,116,76,2,2,1,225,9,2,0,1,26,0,0,0,0,-187977.20935233065,-4786132.342744674,4202162.985807896,-2.30155,-0.153302,0.128183,86.0,-13.125,-11.125,0.0,0.0,0.0,0.0,0.0,0.0,2,0,41.45160566567255,-92.24915801700334,10000.002412252286,99.81854604082316,-0.0016338146378726,0.0023890996380539,,8736.853420967655,11026.390928219933,150,11,2025-09-16,2025-09-26 14:47:51.570,HA,C,3104132330,AMBUSH51,1,1,48,2,1,1,225,2,1,0,0,9,1,225,2,1,-146789.10902723,-4791850.311469372,4196747.467011284,2.36923,2.78244,-0.397268,-105.873,38.3818,44.9919,-0.135699,-7.4456,6.89694,0.00398122,0.00672136,0.00256225,4,0,41.38959889027839,-91.75459720749232,8764.585709802388,-60.84084263391627,1.8681350229157947,1.0212714414072406,195.453,8736.853420967655,11026.390928219933,150,True,22.54987291937614,False,161.8957184123924,179.22128274739705,False,18.45611445908051,True,False
11,1970-07-23 11:25:40.726797311,2025-09-16,2025-09-26 14:47:52.679,HA,C,3070300738,JASSM,3,116,76,2,2,1,225,9,2,0,1,26,0,0,0,0,-187886.8558367056,-4786146.307588424,4202151.198698521,-2.30155,-0.153302,0.128183,86.0,-13.125,-11.125,0.0,0.0,0.0,0.0,0.0,0.0,2,0,41.45146414445868,-92.24807148888456,9999.99852441124,99.81926530755142,-0.0008072393701312,0.0023885297936691,,8736.853420967655,11026.390928219933,150,11,2025-09-16,2025-09-26 14:47:52.669,HA,C,3105444628,AMBUSH51,1,1,48,2,1,1,225,2,1,0,0,9,1,225,2,1,-146904.73590319094,-4791808.16743507,4196796.488829006,2.37204,2.78064,-0.402038,-105.574,38.3464,45.1651,-0.206851,-7.43586,6.77955,0.00527951,0.0044015,0.00767219,4,0,41.39015949283747,-91.75599388603835,8775.958885256883,-60.58038474710532,1.9940044370460253,1.1506362453250134,195.196,8736.853420967655,11026.390928219933,150,True,22.43284033998833,False,161.77557872713535,179.19046167156142,False,18.632781753819426,True,False
11,1970-07-23 11:25:40.736337235,2025-09-16,2025-09-26 14:47:53.633,HA,C,3071554434,JASSM,3,116,76,2,2,1,225,9,2,0,1,26,0,0,0,0,-187796.43200858065,-4786160.284150924,4202139.401823521,-2.30145,-0.153206,0.128183,86.0,-13.125,-11.125,0.0,0.0,0.0,0.0,0.0,0.0,2,0,41.45132249376828,-92.24698411956582,9999.999805914813,99.81634875939478,-0.0040369566452719,0.0071773430684524,,8736.853420967655,11026.390928219933,150,11,2025-09-16,2025-09-26 14:47:53.701,HA,C,3106677394,AMBUSH51,1,1,48,2,1,1,225,2,1,0,0,9,1,225,2,1,-147014.2772315676,-4791768.238871754,4196843.174548264,2.32238,2.78338,-0.406165,-105.272,38.2316,45.1694,-0.196026,-7.41335,6.71719,-0.236931,0.00549589,-0.00409981,4,0,41.39069223691654,-91.75731707781544,8787.26459850994,-60.51495385406346,2.26426581927303,-1.629953595737909,195.038,8736.853420967655,11026.390928219933,150,True,22.31932583968066,False,161.73063546661544,179.15807931244757,False,18.73271794084034,True,False
11,1970-07-23 11:25:40.747976096,2025-09-16,2025-09-26 14:47:54.797,HA,C,3072866398,JASSM,3,116,76,2,2,1,225,9,2,0,1,26,0,0,0,0,-187701.80310233065,-4786174.909150924,4202127.056120396,-2.30145,-0.153206,0.128279,86.0,-13.125,-11.125,0.0,0.0,0.0,0.0,0.0,0.0,2,0,41.451174252320016,-92.2458461889066,10000.001578354948,99.8211925692259,-0.0068376940058843,0.0071763320373894,,8736.853420967655,11026.390928219933,150,11,2025-09-16,2025-09-26 14:47:54.670,HA,C,3107830626,AMBUSH51,1,1,48,2,1,1,225,2,1,0,0,9,1,225,2,1,-147115.7028695549,-4791731.684223283,4196886.037536636,2.08786,2.77525,-0.409733,-105.755,37.6332,44.2295,0.198846,-7.12758,6.45652,-0.177216,0.00139088,-0.00313025,4,0,41.39118056742357,-91.75854210258063,8797.973221160697,-60.0691819564304,2.1058203626157046,-15.234594535655637,195.306,8736.853420967655,11026.390928219933,150,False,22.20831559726705,False,162.30439413856172,179.12588264570869,False,18.21217218677407,True,False
11,1970-07-23 11:25:40.758794087,2025-09-16,2025-09-26 14:47:55.879,HA,C,3074120114,JASSM,3,116,76,2,2,1,225,9,2,0,1,26,0,0,0,0,-187611.37732108065,-4786188.883760299,4202115.255339146,-2.30145,-0.153206,0.128279,86.0,-13.125,-11.125,0.0,0.0,0.0,0.0,0.0,0.0,2,0,41.45103256632262,-92.24475880684084,9999.99833183096,99.8219123951708,-0.0060104545960778,0.0071757481126826,,8736.853420967655,11026.390928219933,150,11,2025-09-16,2025-09-26 14:47:55.868,HA,C,3109262224,AMBUSH51,1,1,48,2,1,1,225,2,1,0,0,9,1,225,2,1,-147243.50297169838,-4791687.570012724,4196937.97895284,2.01657,2.81412,-0.377212,-107.239,35.5984,42.0563,-0.135122,-8.20581,7.56362,-0.0799645,0.0216704,-0.0502516,4,0,41.391770327393374,-91.7600849896217,8811.778649273492,-62.84268609553656,2.2689818953640377,-18.571437012294545,195.196,8736.853420967655,11026.390928219933,150,False,22.084540146250767,False,163.86547597136843,179.08573411808632,False,16.704524074558243,True,False
11,1970-07-23 11:25:40.769573520,2025-09-16,2025-09-26 14:47:56.957,HA,C,3075490490,JASSM,3,116,76,2,2,1,225,9,2,0,1,26,0,0,0,0,-187512.5355242056,-4786204.157197799,4202102.358854771,-2.30145,-0.153206,0.128279,86.0,-13.125,-11.125,0.0,0.0,0.0,0.0,0.0,0.0,2,0,41.45087771002544,-92.24357022732312,10000.001015680877,99.82269920955844,-0.0051062286383625,0.0071751375890784,,8736.853420967655,11026.390928219933,150,11,2025-09-16,2025-09-26 14:47:57.135,HA,C,3110773356,AMBUSH51,1,1,48,2,1,1,225,2,1,0,0,9,1,225,2,1,-147380.29207801595,-4791644.7138980925,4196989.412671449,1.92248,2.85034,-0.356188,-109.023,31.9988,39.282,-0.0214387,-7.76731,7.13468,-0.0248995,0.00913693,-0.0254696,4,0,41.392347509904816,-91.7617348241248,8828.268708292444,-65.05604835412699,2.8354729166100747,-23.31676313287844,194.891,8736.853420967655,11026.390928219933,150,False,21.951549469534058,False,166.05198377422576,179.0461505199572,False,14.542602837642024,True,False
11,1970-07-23 11:25:40.780434992,2025-09-16,2025-09-26 14:47:58.043,HA,C,3076743338,JASSM,3,116,76,2,2,1,225,9,2,0,1,26,0,0,0,0,-187422.17028983065,-4786218.120088424,4202090.565886021,-2.30145,-0.153206,0.128279,86.0,-13.125,-11.125,0.0,0.0,0.0,0.0,0.0,0.0,2,0,41.45073611085424,-92.24248358434356,10000.000914225377,99.8234185420091,-0.0042795461978065,0.0071745670930554,,8736.853420967655,11026.390928219933,150,11,2025-09-16,2025-09-26 14:47:57.935,HA,C,3111727756,AMBUSH51,1,1,48,2,1,1,225,2,1,0,0,9,1,225,2,1,-147467.90799940674,-4791620.133877363,4197019.574762832,1.89836,2.87993,-0.321535,-110.026,29.7761,37.3059,-0.0816747,-7.6671,6.97773,-0.0159426,0.0145943,-0.0548892,4,0,41.39268133595718,-91.76279053201483,8839.862473421286,-67.60145480100002,2.640984917665313,-24.256116938452745,194.732,8736.853420967655,11026.390928219933,150,False,21.85193250568446,False,167.46800838253563,179.0232008323964,False,13.13571755835031,True,False
11,1970-07-23 11:25:40.790298060,2025-09-16,2025-09-26 14:47:59.029,HA,C,3077997356,JASSM,3,116,76,2,2,1,225,9,2,0,1,26,0,0,0,0,-187331.7230242056,-4786232.094697799,4202078.761198521,-2.30145,-0.153206,0.128279,86.0,-13.125,-11.125,0.0,0.0,0.0,0.0,0.0,0.0,2,0,41.450594371719085,-92.24139596011726,10000.000631870853,99.8241385219985,-0.0034521134313216,0.007173994856993,,8736.853420967655,11026.390928219933,150,11,2025-09-16,2025-09-26 14:47:58.902,HA,C,3112880988,AMBUSH51,1,1,48,2,1,1,225,2,1,0,0,9,1,225,2,1,-147575.76020087453,-4791591.948471032,4197053.4463805305,1.84497,2.90843,-0.287849,-111.503,27.6882,33.343,-0.0224681,-7.70281,7.06775,-0.0448566,0.0137829,-0.0174551,4,0,41.39305793705677,-91.76408932327084,8852.171828685077,-70.07899612516803,2.47205087628639,-26.93592878921982,194.084,8736.853420967655,11026.390928219933,150,False,21.741077083028433,False,169.71951459055185,178.99799056653143,False,10.925523374911673,True,False
11,1970-07-23 11:25:40.801996563,2025-09-16,2025-09-26 14:48:00.199,HA,C,3079309774,JASSM,3,116,76,2,2,1,225,9,2,0,1,26,0,0,0,0,-187237.06091483065,-4786246.719697799,4202066.405729771,-2.30145,-0.153206,0.128279,86.0,-13.125,-11.125,0.0,0.0,0.0,0.0,0.0,0.0,2,0,41.45044601683655,-92.24025765804546,10000.001505749671,99.82489204728324,-0.0025861226044598,0.0071733961729061,,8736.853420967655,11026.390928219933,150,11,2025-09-16,2025-09-26 14:48:00.169,HA,C,3114392120,AMBUSH51,1,1,48,2,1,1,225,2,1,0,0,9,1,225,2,1,-147717.39595037667,-4791559.550247072,4197092.327136463,1.82682,2.94655,-0.249595,-113.236,23.9781,28.7723,-0.22082,-8.06422,7.25814,-0.0144154,0.0173969,-0.0597932,4,0,41.393487208637616,-91.76579326743844,8867.552896833033,-73.12134682902396,2.549590783494865,-27.529307275510664,194.121,8736.853420967655,11026.390928219933,150,False,21.609427872038136,False,172.59126631719215,178.9720397243123,False,8.046977165865455,True,False
11,1970-07-23 11:25:40.813174391,2025-09-16,2025-09-26 14:48:01.317,HA,C,3080620590,JASSM,3,116,76,2,2,1,225,9,2,0,1,26,0,0,0,0,-187142.5159929556,-4786261.325166549,4202054.063932896,-2.30145,-0.153206,0.128279,86.0,-13.125,-11.125,0.0,0.0,0.0,0.0,0.0,0.0,2,0,41.45029783190226,-92.2391207709852,10000.000128186652,99.82564463365443,-0.0017212038858317,0.0071727956752756,,8736.853420967655,11026.390928219933,150,11,2025-09-16,2025-09-26 14:48:01.202,HA,C,3115624884,AMBUSH51,1,1,48,2,1,1,225,2,1,0,0,9,1,225,2,1,-147835.52354888798,-4791536.04836581,4197119.873453966,1.79972,2.97677,-0.2074,-114.35,21.2381,24.6803,-0.0795375,-7.97875,7.17377,-0.0165917,0.0244459,-0.0302654,4,0,41.393791322638485,-91.76721311575324,8878.457766961057,-76.04942274665427,2.1832490511136067,-28.81011367937504,193.51,8736.853420967655,11026.390928219933,150,False,21.491651858755063,False,174.96712527147085,178.9554072033174,False,5.652587580822644,True,False
11,1970-07-23 11:25:40.823975002,2025-09-16,2025-09-26 14:48:02.397,HA,C,3081934190,JASSM,3,116,76,2,2,1,225,9,2,0,1,26,0,0,0,0,-187047.7698992056,-4786275.959932174,4202041.694792271,-2.30145,-0.15311,0.128279,86.0,-13.125,-11.125,0.0,0.0,0.0,0.0,0.0,0.0,2,0,41.45014932368051,-92.23798147088904,9999.996813084566,99.8227625404823,-0.0049113783430231,0.0064696505521556,,8736.853420967655,11026.390928219933,150,11,2025-09-16,2025-09-26 14:48:02.403,HA,C,3117056484,AMBUSH51,1,1,48,2,1,1,225,2,1,0,0,9,1,225,2,1,-147973.37399806347,-4791513.011946891,4197146.254955858,1.79523,3.01407,-0.165961,-115.546,17.3146,19.923,-0.0580767,-8.17517,7.24557,-0.00246655,0.0152768,-0.0458469,4,0,41.394081162623166,-91.76886842062548,8889.486859813027,-79.22237426422583,2.1684123038434207,-28.791457335788323,193.4,8736.853420967655,11026.390928219933,150,False,21.36344659831176,False,177.60545906681463,178.94373291834373,False,2.7432610573983567,True,False
11,1970-07-23 11:25:40.834394160,2025-09-16,2025-09-26 14:48:03.439,HA,C,3083245804,JASSM,3,116,76,2,2,1,225,9,2,0,1,26,0,0,0,0,-186953.16638358065,-4786290.573213424,4202029.345182896,-2.30145,-0.15311,0.128279,86.0,-13.125,-11.125,0.0,0.0,0.0,0.0,0.0,0.0,2,0,41.45000103066242,-92.23684389019544,10000.001606300735,99.82351558163084,-0.0040459250880524,0.0064690007763683,,8736.853420967655,11026.390928219933,150,11,2025-09-16,2025-09-26 14:48:03.302,HA,C,3118130182,AMBUSH51,1,1,48,2,1,1,225,2,1,0,0,9,1,225,2,1,-148077.7779400269,-4791498.8480930375,4197162.211642839,1.79269,3.03965,-0.133287,-116.315,14.3607,16.2991,-0.116178,-8.0295,7.57514,0.0003485,0.020318,-0.0330034,4,0,41.39425396449373,-91.77012089710836,8897.1943352242,-81.58701662997912,2.010983112630142,-28.80481997073965,193.168,8736.853420967655,11026.390928219933,150,False,21.254315874345366,False,178.25753102045644,178.93980587243877,False,1.0280998199403861,True,False
11,1970-07-23 11:25:40.845414105,2025-09-16,2025-09-26 14:48:04.541,HA,C,3084499342,JASSM,3,116,76,2,2,1,225,9,2,0,1,26,0,0,0,0,-186862.75232108065,-4786304.538057174,4202017.540495396,-2.30145,-0.15311,0.128375,86.0,-13.125,-11.125,0.0,0.0,0.0,0.0,0.0,0.0,2,0,41.44985928860861,-92.23575669194712,10000.003184134785,99.82832583406818,-0.0068851717718871,0.0064680134827671,,8736.853420967655,11026.390928219933,150,11,2025-09-16,2025-09-26 14:48:04.634,HA,C,3119720846,AMBUSH51,1,1,48,2,1,1,225,2,1,0,0,9,1,225,2,1,-148232.78455767565,-4791482.704081807,4197179.770535683,1.79417,3.06536,-0.090862,-117.133,10.2488,11.1354,-0.112801,-7.06399,6.44653,-0.0229833,-0.0107723,-0.0425159,4,0,41.39444003849147,-91.7719786311655,8907.362721220752,-84.38007720205891,1.4990494901799143,-28.6406410104598,192.777,8736.853420967655,11026.390928219933,150,False,21.120476300547292,False,175.89182889882795,178.94411543000317,False,3.1033267565773612,True,False
11,1970-07-23 11:25:40.856453358,2025-09-16,2025-09-26 14:48:05.645,HA,C,3085869994,JASSM,3,116,76,2,2,1,225,9,2,0,1,26,0,0,0,0,-186763.8909929556,-4786319.805635299,4202004.630339146,-2.30145,-0.15311,0.128375,86.0,-13.125,-11.125,0.0,0.0,0.0,0.0,0.0,0.0,2,0,41.44970428646817,-92.2345679245542,9999.999451492782,99.82911275458927,-0.0059807662267971,0.0064673872612871,,8736.853420967655,11026.390928219933,150,11,2025-09-16,2025-09-26 14:48:05.635,HA,C,3120913846,AMBUSH51,1,1,48,2,1,1,225,2,1,0,0,9,1,225,2,1,-148350.33014493992,-4791473.275244247,4197187.930750795,1.79122,3.08035,-0.0550615,-117.597,8.39781,6.73943,-0.0923404,-7.03493,6.33097,-0.00024655,-0.000856165,-0.0451146,4,0,41.39452958068964,-91.77338636484843,8910.81986577193,-86.48628540367935,0.7852102847764072,-28.78889285472353,192.667,8736.853420967655,11026.390928219933,150,False,21.00290166074856,False,173.91468601465127,178.9519817142233,False,5.203414806788234,True,False
11,1970-07-23 11:25:40.867596336,2025-09-16,2025-09-26 14:48:06.759,HA,C,3087123316,JASSM,3,116,76,2,2,1,225,9,2,0,1,26,0,0,0,0,-186673.4925554556,-4786333.764619674,4201992.827604771,-2.30145,-0.15311,0.128375,86.0,-13.125,-11.125,0.0,0.0,0.0,0.0,0.0,0.0,2,0,41.44956256732569,-92.2334809257048,10000.001516663991,99.82983230593724,-0.0051537859079087,0.0064668391450982,,8736.853420967655,11026.390928219933,150,11,2025-09-16,2025-09-26 14:48:06.734,HA,C,3122226144,AMBUSH51,1,1,48,2,1,1,225,2,1,0,0,9,1,225,2,1,-148481.26916147972,-4791464.77561333,4197192.01426326,1.79902,3.10261,-0.0145361,-118.032,6.349,1.96517,-0.0600053,-7.55941,6.77993,0.00334248,0.024498,-0.0369191,4,0,41.39458358491802,-91.77495376140008,8908.746914065288,-89.07214457982477,0.2068983403959812,-28.31985364462114,192.74,8736.853420967655,11026.390928219933,150,False,20.88321452100853,False,171.5573482371896,178.96560707403071,False,7.654790563418146,True,False
11,1970-07-23 11:25:40.878316270,2025-09-16,2025-09-26 14:48:07.831,HA,C,3088435044,JASSM,3,116,76,2,2,1,225,9,2,0,1,26,0,0,0,0,-186578.88122733065,-4786348.373994674,4201980.470182896,-2.30145,-0.15311,0.128375,86.0,-13.125,-11.125,0.0,0.0,0.0,0.0,0.0,0.0,2,0,41.44941420215658,-92.23234327395645,9999.9979194671,99.83058538538766,-0.004288260185655,0.0064662354762282,,8736.853420967655,11026.390928219933,150,11,2025-09-16,2025-09-26 14:48:07.735,HA,C,3123419144,AMBUSH51,1,1,48,2,1,1,225,2,1,0,0,9,1,225,2,1,-148599.37390265084,-4791459.881200291,4197191.215649224,1.80708,3.12961,0.0186937,-118.256,3.40748,-2.06805,-0.118336,-7.69329,7.1671,0.0124014,0.0135894,-0.0373332,4,0,41.39458552758772,-91.77636650156354,8903.981072457354,-91.52404035674672,0.1091119991228657,-27.868430474637798,193.058,8736.853420967655,11026.390928219933,150,False,20.768581233510012,False,169.14428529034714,178.9825475970156,False,10.100888420844923,True,False
11,1970-07-23 11:25:40.889600653,2025-09-16,2025-09-26 14:48:08.960,HA,C,3089747896,JASSM,3,116,76,2,2,1,225,9,2,0,1,26,0,0,0,0,-186484.1878679556,-4786362.995088424,4201968.102995396,-2.30145,-0.15311,0.128375,86.0,-13.125,-11.125,0.0,0.0,0.0,0.0,0.0,0.0,2,0,41.44926570912428,-92.23120464145718,9999.998840012882,99.83133911183462,-0.0034219863829673,0.0064656430506534,,8736.853420967655,11026.390928219933,150,11,2025-09-16,2025-09-26 14:48:09.034,HA,C,3124970042,AMBUSH51,1,1,48,2,1,1,225,2,1,0,0,9,1,225,2,1,-148753.17634555866,-4791457.867465908,4197184.443037769,1.83576,-3.12284,0.0619837,-118.323,-0.347567,-7.06908,-0.158695,-7.78377,7.03794,0.0200871,0.012339,-0.0335881,4,0,41.39452339121953,-91.77820463297395,8896.074774581079,-94.54910230403333,-0.2119007970140624,-26.293273115133417,193.706,8736.853420967655,11026.390928219933,150,False,20.63563062647545,False,166.123600153025,179.01265084001713,False,13.170296544634912,True,False
11,1970-07-23 11:25:40.906054918,2025-09-16,2025-09-26 14:48:10.605,HA,C,3091060938,JASSM,3,116,76,2,2,1,225,9,2,0,1,26,0,0,0,0,-186389.48278983065,-4786377.616182174,4201955.733854771,-2.30145,-0.15311,0.128375,86.0,-13.125,-11.125,0.0,0.0,0.0,0.0,0.0,0.0,2,0,41.44911719436013,-92.23006587408318,9999.999189732463,99.8320929253413,-0.0025556073271414,0.0064650582048266,,8736.853420967655,11026.390928219933,150,11,2025-09-16,2025-09-26 14:48:10.641,HA,C,3126878840,AMBUSH51,1,1,48,2,1,1,225,2,1,0,0,9,1,225,2,1,-148941.3593089416,-4791461.692955719,4197167.139179879,1.86704,-3.09033,0.108486,-118.04,-4.40632,-13.1434,-0.0122911,-7.63621,6.91301,0.025557,0.0197958,-0.0398923,4,0,41.3943490309918,-91.78045131613769,8882.327309762763,-97.77563807389572,-0.5878396779782281,-24.63710696384993,194.317,8736.853420967655,11026.390928219933,150,False,20.485628063175294,False,162.61144121959197,179.05933477037502,False,16.766082537604145,True,False
11,1970-07-23 11:25:40.912050034,2025-09-16,2025-09-26 14:48:11.205,HA,C,3092374038,JASSM,3,116,76,2,2,1,225,9,2,0,1,26,0,0,0,0,-186294.77185233065,-4786392.237275924,4201943.362761021,-2.30145,-0.15311,0.128375,86.0,-13.125,-11.125,0.0,0.0,0.0,0.0,0.0,0.0,2,0,41.448968656502416,-92.22892704186978,9999.999530756037,99.83284677954728,-0.0016891745085159,0.006464470636534,,8736.853420967655,11026.390928219933,150,11,2025-09-16,2025-09-26 14:48:11.307,HA,C,3127674172,AMBUSH51,1,1,48,2,1,1,225,2,1,0,0,9,1,225,2,1,-149020.00979483142,-4791465.207457287,4197157.236795912,1.89186,-3.07552,0.127974,-117.898,-6.2197,-15.2384,-0.196516,-7.65474,6.95456,0.0456576,0.012237,-0.0437955,4,0,41.39424672049032,-91.7813895959631,8875.506614258587,-99.1705642273243,-0.6996861133668115,-23.2992619574351,194.585,8736.853420967655,11026.390928219933,150,False,20.39302875451746,False,161.27928301071756,179.07955417886137,False,18.129456008611363,True,False
11,1970-07-23 11:25:40.922473400,2025-09-16,2025-09-26 14:48:12.247,HA,C,3093745010,JASSM,3,116,76,2,2,1,225,9,2,0,1,26,0,0,0,0,-186195.8870867056,-4786407.502900924,4201930.444792271,-2.30145,-0.153015,0.128375,86.0,-13.125,-11.125,0.0,0.0,0.0,0.0,0.0,0.0,2,0,41.4488135481202,-92.22773802777203,10000.00180128266,99.82999766994322,-0.0048414836903472,0.0057607715598978,,8736.853420967655,11026.390928219933,150,11,2025-09-16,2025-09-26 14:48:12.275,HA,C,3128827404,AMBUSH51,1,1,48,2,1,1,225,2,1,0,0,9,1,225,2,1,-149134.72530646776,-4791472.236899219,4197140.332729056,1.93019,-3.05755,0.152864,-117.646,-8.52833,-18.3884,0.00691405,-7.73178,6.82082,0.0341665,0.0149688,-0.0199123,4,0,41.39406954408427,-91.78275741024808,8864.907616610775,-100.91463376461124,-0.8875791637862208,-21.223142797007736,195.27,8736.853420967655,11026.390928219933,150,False,20.279811381454994,False,159.40672757576556,179.11164306132787,False,20.059737531098715,True,False
11,1970-07-23 11:25:40.933534948,2025-09-16,2025-09-26 14:48:13.353,HA,C,3094997906,JASSM,3,116,76,2,2,1,225,9,2,0,1,26,0,0,0,0,-186105.51794608065,-4786421.450166549,4201918.638151646,-2.30145,-0.153015,0.128375,86.0,-13.125,-11.125,0.0,0.0,0.0,0.0,0.0,0.0,2,0,41.44867180105192,-92.2266514142778,9999.99682761051,99.83071695353271,-0.0040147721744384,0.0057601612938205,,8736.853420967655,11026.390928219933,150,11,2025-09-16,2025-09-26 14:48:13.307,HA,C,3130060170,AMBUSH51,1,1,48,2,1,1,225,2,1,0,0,9,1,225,2,1,-149255.33331867776,-4791482.091630452,4197119.580151787,1.97067,-3.0378,0.173579,-117.318,-11.1048,-20.9313,-0.235777,-7.87849,7.285,0.0317218,0.0189241,-0.0296037,4,0,41.39384846934277,-91.78419456044148,8853.368444671905,-102.54456533233989,-0.8481210855432808,-19.06319773556501,195.942,8736.853420967655,11026.390928219933,150,False,20.168636181353424,False,157.68229446744814,179.14677662934702,False,21.84212065909893,True,False
11,1970-07-23 11:25:40.945510323,2025-09-16,2025-09-26 14:48:14.551,HA,C,3096309152,JASSM,3,116,76,2,2,1,225,9,2,0,1,26,0,0,0,0,-186010.9417742056,-4786436.047822799,4201906.282682896,-2.30145,-0.153015,0.128375,86.0,-13.125,-11.125,0.0,0.0,0.0,0.0,0.0,0.0,2,0,41.44852344312564,-92.22551421930238,10000.0007522553,99.83146971735648,-0.0031495734902315,0.0057595216634061,,8736.853420967655,11026.390928219933,150,11,2025-09-16,2025-09-26 14:48:14.674,HA,C,3131690602,AMBUSH51,1,1,48,2,1,1,225,2,1,0,0,9,1,225,2,1,-149415.16906364504,-4791499.003162095,4197088.194262948,2.03042,-3.01062,0.198655,-116.754,-14.064,-24.1115,0.484733,-8.06005,7.18187,0.120062,0.00669223,-0.0272631,4,0,41.3935063309025,-91.78609769609952,8839.138183309336,-104.6381369997808,-0.6742966471146467,-15.900191423873538,196.626,8736.853420967655,11026.390928219933,150,False,20.03570367449893,False,155.5996171826731,179.19329241764513,False,24.016409719327793,True,False
11,1970-07-23 11:25:40.954432275,2025-09-16,2025-09-26 14:48:15.443,HA,C,3097562522,JASSM,3,116,76,2,2,1,225,9,2,0,1,26,0,0,0,0,-185920.5394304556,-4786450.000947799,4201894.470182896,-2.30145,-0.153015,0.128471,86.0,-13.125,-11.125,0.0,0.0,0.0,0.0,0.0,0.0,2,0,41.44838160831807,-92.22442721591293,10000.003214909984,99.8362798651741,-0.0059888792304653,0.0057586000176845,,8736.853420967655,11026.390928219933,150,11,2025-09-16,2025-09-26 14:48:15.406,HA,C,3132565466,AMBUSH51,1,1,48,2,1,1,225,2,1,0,0,9,1,225,2,1,-149500.83142060856,-4791509.734920654,4197069.998339941,2.2735,-2.99968,0.211535,-116.709,-15.3425,-24.5878,-0.326995,-7.41642,6.76724,0.374242,0.0033508,-0.0218993,4,0,41.39330374563265,-91.7871170335347,8832.638297878013,-105.59760034466404,-0.71635175280663,-2.089019939618463,197.188,8736.853420967655,11026.390928219933,150,True,19.942921851660596,False,155.04449993309152,179.21567852926904,False,24.616732284618077,True,False
11,1970-07-23 11:25:40.965462725,2025-09-16,2025-09-26 14:48:16.546,HA,C,3098875190,JASSM,3,116,76,2,2,1,225,9,2,0,1,26,0,0,0,0,-185825.8597429556,-4786464.612275924,4201882.097136021,-2.30145,-0.153015,0.128471,86.0,-13.125,-11.125,0.0,0.0,0.0,0.0,0.0,0.0,2,0,41.448233052359285,-92.22328878747356,10000.00203506052,99.83703344118076,-0.0051227319435915,0.0057580078763845,,8736.853420967655,11026.390928219933,150,11,2025-09-16,2025-09-26 14:48:16.613,HA,C,3133997066,AMBUSH51,1,1,48,2,1,1,225,2,1,0,0,9,1,225,2,1,-149641.1962865808,-4791527.451050594,4197039.539274903,2.44319,-3.00118,0.198991,-117.201,-15.2869,-23.9651,-0.213302,-8.06116,7.3204,0.0590005,0.00565818,0.0547561,4,0,41.39296664724908,-91.78878724105203,8820.923165708442,-105.01099210802622,-0.2928357834523803,7.646129068945759,197.078,8736.853420967655,11026.390928219933,150,True,19.82029957957779,False,155.3352089483332,179.24640509638076,False,24.413718140808637,True,False
11,1970-07-23 11:25:40.976449538,2025-09-16,2025-09-26 14:48:17.644,HA,C,3100187646,JASSM,3,116,76,2,2,1,225,9,2,0,1,26,0,0,0,0,-185731.19372733065,-4786479.219697799,4201869.726042271,-2.30145,-0.153015,0.128471,86.0,-13.125,-11.125,0.0,0.0,0.0,0.0,0.0,0.0,2,0,41.44808451840126,-92.22215052945086,10000.001592450064,99.83778690215928,-0.0042567123414043,0.0057574273130273,,8736.853420967655,11026.390928219933,150,11,2025-09-16,2025-09-26 14:48:17.816,HA,C,3135428664,AMBUSH51,1,1,48,2,1,1,225,2,1,0,0,9,1,225,2,1,-149782.28955985417,-4791544.835842895,4197010.982660148,2.45819,-3.02103,0.184921,-117.905,-14.3537,-22.4904,-0.205811,-7.33439,6.63281,-0.0216975,0.00547925,-0.00905787,4,0,41.39264420485501,-91.79046625846956,8812.586749201335,-103.66490651398448,-0.5761479580026703,8.712210253219832,197.909,8736.853420967655,11026.390928219933,150,True,19.697198035504005,False,156.20845228801667,179.26771539511503,False,23.62859441564212,True,False
11,1970-07-23 11:25:40.988111304,2025-09-16,2025-09-26 14:48:18.811,HA,C,3101499498,JASSM,3,116,76,2,2,1,225,9,2,0,1,26,0,0,0,0,-185636.5745867056,-4786493.819307174,4201857.360807896,-2.30145,-0.153015,0.128471,86.0,-13.125,-11.125,0.0,0.0,0.0,0.0,0.0,0.0,2,0,41.44793604838686,-92.2210128405074,10000.003933660037,99.8385399842211,-0.0033911220176456,0.0057568485882081,,8736.853420967655,11026.390928219933,150,11,2025-09-16,2025-09-26 14:48:18.841,HA,C,3136661430,AMBUSH51,1,1,48,2,1,1,225,2,1,0,0,9,1,225,2,1,-149905.48080259567,-4791558.744142011,4196987.652305115,2.43201,-3.02061,0.183629,-118.584,-13.5502,-21.4013,-0.0895589,-7.55081,6.77604,-0.000939389,0.00183821,0.0204949,4,0,41.392381035456005,-91.7919327031996,8805.668254627424,-103.62660010491076,-0.5081409480502045,7.207729117347346,197.946,8736.853420967655,11026.390928219933,150,True,19.582987308700986,False,156.90054168690563,179.27678646573628,False,23.012723814308956,True,False
11,1970-07-23 11:25:41.008428587,2025-09-16,2025-09-26 14:48:20.842,HA,C,3104005348,JASSM,3,116,76,2,2,1,225,9,2,0,1,26,0,0,0,0,-185455.8323992056,-4786521.704072799,4201833.735807896,-2.30145,-0.152919,0.128471,86.0,-13.125,-11.125,0.0,0.0,0.0,0.0,0.0,0.0,2,0,41.44765239688162,-92.21883963465967,10000.002557853944,99.8363424260428,-0.0057945859715988,0.0050521962098609,,8736.853420967655,11026.390928219933,150,11,2025-09-16,2025-09-26 14:48:21.008,HA,C,3139246260,AMBUSH51,1,1,48,2,1,1,225,2,1,0,0,9,1,225,2,1,-150162.3572388551,-4791585.131624768,4196942.808012545,2.41422,-3.03657,0.167005,-119.45,-11.9333,-19.3486,-0.198947,-7.21271,6.54054,-0.00904331,-0.00665478,0.00168216,4,0,41.39187344895085,-91.79499145423516,8793.0894029327,-102.3182163297672,-0.5361769477302479,6.335645107746381,198.765,8736.853420967655,11026.390928219933,150,True,19.35356431271014,False,158.18803268737142,179.27026338139802,False,21.881428081595626,True,False
11,1970-07-23 11:25:41.015769728,2025-09-16,2025-09-26 14:48:21.576,HA,C,3102752566,JASSM,3,116,76,2,2,1,225,9,2,0,1,26,0,0,0,0,-185546.19372733065,-4786507.762666549,4201845.546354771,-2.30145,-0.153015,0.128471,86.0,-13.125,-11.125,0.0,0.0,0.0,0.0,0.0,0.0,2,0,41.44779421103255,-92.21992611804303,9999.998291268928,99.83925932744953,-0.0025643036594003,0.005756288459885,,8736.853420967655,11026.390928219933,150,11,2025-09-16,2025-09-26 14:48:21.740,HA,C,3140121126,AMBUSH51,1,1,48,2,1,1,225,2,1,0,0,9,1,225,2,1,-150249.97198475242,-4791593.401114769,4196928.433474414,2.4073,-3.0427,0.161309,-119.71,-11.2577,-18.9607,-0.118969,-7.41434,6.60091,0.00187566,-0.00621994,0.015258,4,0,41.39171086759386,-91.79603498873084,8789.007124091175,-101.84469356666952,-0.5745838836156838,5.992038212001104,198.838,8736.853420967655,11026.390928219933,150,True,19.358592072595776,False,158.55129497961886,179.26367090620727,False,21.575160044259768,True,False
11,1970-07-23 11:25:41.019493094,2025-09-16,2025-09-26 14:48:21.949,HA,C,3105258442,JASSM,3,116,76,2,2,1,225,9,2,0,1,26,0,0,0,0,-185365.4495867056,-4786535.645479049,4201821.921354771,-2.30145,-0.152919,0.128471,86.0,-13.125,-11.125,0.0,0.0,0.0,0.0,0.0,0.0,2,0,41.44751055106839,-92.21775289922174,10000.000660473575,99.83706177385324,-0.004967753099891,0.0050515983044396,,8736.853420967655,11026.390928219933,150,11,2025-09-16,2025-09-26 14:48:22.073,HA,C,3140518792,AMBUSH51,1,1,48,2,1,1,225,2,1,0,0,9,1,225,2,1,-150290.69394378524,-4791597.052171277,4196921.920964839,2.41419,-3.04453,0.157714,-119.845,-10.993,-18.6901,-0.197621,-7.33224,6.68476,0.0221823,0.00841705,0.0104144,4,0,41.39163758198111,-91.79652007767412,8787.003268045766,-101.62258575004329,-0.5135798726598739,6.401498228764406,199.058,8736.853420967655,11026.390928219933,150,True,19.23874782081211,False,158.7375312352888,179.25466497046142,False,21.413784981696868,True,False
11,1970-07-23 11:25:41.030468862,2025-09-16,2025-09-26 14:48:23.046,HA,C,3106570386,JASSM,3,116,76,2,2,1,225,9,2,0,1,26,0,0,0,0,-185270.82263358065,-4786550.243135299,4201809.550261021,-2.30145,-0.152919,0.128471,86.0,-13.125,-11.125,0.0,0.0,0.0,0.0,0.0,0.0,2,0,41.44736201145089,-92.21661513786168,10000.003229273983,99.83781489531948,-0.0041020899752882,0.0050509506085026,,8736.853420967655,11026.390928219933,150,11,2025-09-16,2025-09-26 14:48:23.041,HA,C,3141672024,AMBUSH51,1,1,48,2,1,1,225,2,1,0,0,9,1,225,2,1,-150406.5888753304,-4791607.638797674,4196904.160664052,2.41834,-3.04568,0.151085,-120.081,-12.5418,-16.3573,-0.0759482,-7.3977,6.60733,-0.00248527,0.00328838,0.00990883,4,0,41.39143306379988,-91.7979005647821,8783.466303616899,-101.29735793229428,-0.3072988158594082,6.646743930782817,199.29,8736.853420967655,11026.390928219933,150,True,19.12786700189411,False,159.06709735666047,179.2349011781449,False,21.107735797351154,True,False
11,1970-07-23 11:25:41.044230843,2025-09-16,2025-09-26 14:48:24.423,HA,C,3107823528,JASSM,3,116,76,2,2,1,225,9,2,0,1,26,0,0,0,0,-185180.43591483065,-4786564.184541549,4201797.731901646,-2.30145,-0.152919,0.128471,86.0,-13.125,-11.125,0.0,0.0,0.0,0.0,0.0,0.0,2,0,41.4472201191661,-92.21552836542682,10000.001414056564,99.83853426347407,-0.003275218231851,0.005050333525567,,8736.853420967655,11026.390928219933,150,11,2025-09-16,2025-09-26 14:48:24.607,HA,C,3143541056,AMBUSH51,1,1,48,2,1,1,225,2,1,0,0,9,1,225,2,1,-150594.7137649521,-4791622.214493651,4196876.976021133,2.47401,-3.05795,0.137362,-120.833,-9.22475,-15.9154,-0.122228,-7.38571,6.69197,-0.0126677,0.00584335,0.019438,4,0,41.391127668704,-91.80014238396916,8774.88935287771,-100.24899827738768,-0.2988898135626938,9.932113291864743,199.474,8736.853420967655,11026.390928219933,150,True,18.9822844296525,False,160.31983765011728,179.19237346247712,False,20.001333386931798,True,False
11,1970-07-23 11:25:41.052603679,2025-09-16,2025-09-26 14:48:25.260,HA,C,3109135682,JASSM,3,116,76,2,2,1,225,9,2,0,1,26,0,0,0,0,-185085.7933367056,-4786578.780244674,4201785.356901646,-2.30145,-0.152919,0.128471,86.0,-13.125,-11.125,0.0,0.0,0.0,0.0,0.0,0.0,2,0,41.44707154641287,-92.21439042836506,9999.998572046805,99.83928749689932,-0.002409415903992,0.0050496985865847,,8736.853420967655,11026.390928219933,150,11,2025-09-16,2025-09-26 14:48:25.274,HA,C,3144336388,AMBUSH51,1,1,48,2,1,1,225,2,1,0,0,9,1,225,2,1,-150675.36035783784,-4791627.839923013,4196866.469622799,2.47305,-3.06597,0.128249,-121.123,-8.23141,-15.1495,-0.196604,-7.51576,6.85264,0.0165355,0.000483738,0.0194629,4,0,41.39100818856809,-91.80110364964752,8772.17443716627,-99.55688508905672,-0.2897645409227516,9.934551568385135,199.584,8736.853420967655,11026.390928219933,150,True,18.889109095733133,False,160.91016801307856,179.170190488998,False,19.46117743961347,True,False
11,1970-07-23 11:25:41.065770072,2025-09-16,2025-09-26 14:48:26.577,HA,C,3110507730,JASSM,3,116,76,2,2,1,225,9,2,0,1,26,0,0,0,0,-184986.83044608065,-4786594.041963424,4201772.417448521,-2.30145,-0.152919,0.128567,86.0,-13.125,-11.125,0.0,0.0,0.0,0.0,0.0,0.0,2,0,41.44691618404046,-92.2132005516064,10000.001059142596,99.84416576403268,-0.0051703647744284,0.0050488008509152,,8736.853420967655,11026.390928219933,150,11,2025-09-16,2025-09-26 14:48:26.740,HA,C,3146086120,AMBUSH51,1,1,48,2,1,1,225,2,1,0,0,9,1,225,2,1,-150853.21498817182,-4791639.22610743,4196845.126484893,2.46947,-3.07704,0.11013,-121.578,-6.9547,-13.1497,-0.187439,-7.49492,6.72107,-0.0247435,0.0124139,0.0219638,4,0,41.39076306762135,-91.80322395685856,8767.653795661667,-98.36414604235034,-0.0674053358689267,9.801014964420917,199.95,8736.853420967655,11026.390928219933,150,True,18.74364581605654,False,162.02566962748924,179.11899067411474,False,18.43690921076917,True,False
11,1970-07-23 11:25:41.079271141,2025-09-16,2025-09-26 14:48:27.927,HA,C,3111878408,JASSM,3,116,76,2,2,1,225,9,2,0,1,26,0,0,0,0,-184887.9652117056,-4786609.288057174,4201759.487761021,-2.30145,-0.152919,0.128567,86.0,-13.125,-11.125,0.0,0.0,0.0,0.0,0.0,0.0,2,0,41.44676094579077,-92.2120118549442,10000.000860710994,99.8449525919434,-0.004265931131907,0.005048189873604,,8736.853420967655,11026.390928219933,150,11,2025-09-16,2025-09-26 14:48:28.040,HA,C,3147637018,AMBUSH51,1,1,48,2,1,1,225,2,1,0,0,9,1,225,2,1,-151012.3828041224,-4791647.350414961,4196829.11867321,2.43809,-3.09447,0.0982718,-121.968,-7.76789,-10.0683,-0.256157,-7.33893,6.62252,-0.018071,-0.00523998,0.0105164,4,0,41.39057683692292,-91.80512225271404,8765.249789672685,-97.19762533084348,-0.3569286737173523,8.102250067184423,199.877,8736.853420967655,11026.390928219933,150,True,18.607468838029313,False,162.82121609267486,179.06992998967948,False,17.668674998081364,True,False
11,1970-07-23 11:25:41.087233816,2025-09-16,2025-09-26 14:48:28.723,HA,C,3113132984,JASSM,3,116,76,2,2,1,225,9,2,0,1,26,0,0,0,0,-184797.47497733065,-4786623.241182174,4201747.653776646,-2.30145,-0.152919,0.128567,86.0,-13.125,-11.125,0.0,0.0,0.0,0.0,0.0,0.0,2,0,41.44661885863401,-92.21092385992893,10000.002584430858,99.84567276080205,-0.0034381156445278,0.0050476417897419,,8736.853420967655,11026.390928219933,150,11,2025-09-16,2025-09-26 14:48:28.741,HA,C,3148472116,AMBUSH51,1,1,48,2,1,1,225,2,1,0,0,9,1,225,2,1,-151097.13021843077,-4791650.6472835615,4196820.703978494,2.42552,-3.09609,0.0940353,-122.188,-4.88996,-11.0043,-0.134507,-7.31593,6.66251,-0.0185995,-0.00145538,0.00348188,4,0,41.390484519490926,-91.80613336588556,8761.679479745182,-96.95546230724352,-0.2640960691991898,7.3898655735706225,199.914,8736.853420967655,11026.390928219933,150,True,18.514128797623993,False,163.43804869419426,179.0404031885284,False,17.154502975321122,True,False
11,1970-07-23 11:25:41.096430054,2025-09-16,2025-09-26 14:48:29.643,HA,C,3114443458,JASSM,3,116,76,2,2,1,225,9,2,0,1,26,0,0,0,0,-184702.9534929556,-4786637.813447799,4201735.290495396,-2.30145,-0.152919,0.128567,86.0,-13.125,-11.125,0.0,0.0,0.0,0.0,0.0,0.0,2,0,41.446470431074026,-92.20978740202014,9999.998448988776,99.84642500619348,-0.0025734226887763,0.0050470695249092,,8736.853420967655,11026.390928219933,150,11,2025-09-16,2025-09-26 14:48:29.774,HA,C,3149704882,AMBUSH51,1,1,48,2,1,1,225,2,1,0,0,9,1,225,2,1,-151224.30357449065,-4791655.217860879,4196809.597530733,2.4064,-3.1003,0.0838131,-122.432,-4.189,-9.91159,-0.134251,-7.43156,6.84219,-0.0062345,0.00672552,0.011669,4,0,41.39035847921493,-91.80765079616413,8758.700880684451,-96.35902237655355,-0.0538784981496793,6.3140125609455175,200.024,8736.853420967655,11026.390928219933,150,True,18.396571113927944,False,164.04395980129237,178.99706997055682,False,16.60835149661401,True,False
11,1970-07-23 11:25:41.106476483,2025-09-16,2025-09-26 14:48:30.647,HA,C,3115696424,JASSM,3,116,76,2,2,1,225,9,2,0,1,26,0,0,0,0,-184612.5784929556,-4786651.747041549,4201723.468229771,-2.30145,-0.152823,0.128567,86.0,-13.125,-11.125,0.0,0.0,0.0,0.0,0.0,0.0,2,0,41.44632849173259,-92.20870080301168,9999.997494413665,99.84350825779067,-0.0058035765228782,0.0043424532302698,,8736.853420967655,11026.390928219933,150,11,2025-09-16,2025-09-26 14:48:30.540,HA,C,3150619514,AMBUSH51,1,1,48,2,1,1,225,2,1,0,0,9,1,225,2,1,-151318.05110935657,-4791658.015350191,4196802.356197515,2.40152,-3.10219,0.0754664,-122.508,-3.82995,-8.9324,-0.202949,-7.5348,6.78523,-0.00954265,-9.25865e-05,0.00926801,4,0,41.39027534205621,-91.80876960233748,8757.155847689752,-95.9302671459216,0.1833992342279353,6.043618653114435,199.987,8736.853420967655,11026.390928219933,150,True,18.298458206813887,False,164.4963999086445,178.96424015660938,False,16.193571258597245,True,False
11,1970-07-23 11:25:41.117492491,2025-09-16,2025-09-26 14:48:31.749,HA,C,3116950740,JASSM,3,116,76,2,2,1,225,9,2,0,1,26,0,0,0,0,-184522.10778983065,-4786665.694307174,4201711.634245396,-2.30145,-0.152823,0.128567,86.0,-13.125,-11.125,0.0,0.0,0.0,0.0,0.0,0.0,2,0,41.44618640364872,-92.207613058586,9999.99998741883,99.84422825464397,-0.0049759406062144,0.0043418521798935,,8736.853420967655,11026.390928219933,150,11,2025-09-16,2025-09-26 14:48:31.674,HA,C,3151971580,AMBUSH51,1,1,48,2,1,1,225,2,1,0,0,9,1,225,2,1,-151455.98494136948,-4791661.796572511,4196792.651937937,2.39501,-3.10587,0.0666776,-122.576,-2.94107,-8.06403,-0.194232,-7.27607,6.66831,-0.00695855,0.000207019,0.00681083,4,0,41.39016140687546,-91.81041586019924,8756.128260708752,-95.4149749214084,0.3611838811461865,5.68825983831991,200.097,8736.853420967655,11026.390928219933,150,True,18.177332395226664,False,165.0756061457079,178.91635164543743,False,15.68283446259918,True,False
11,1970-07-23 11:25:41.128354902,2025-09-16,2025-09-26 14:48:32.835,HA,C,3118320858,JASSM,3,116,76,2,2,1,225,9,2,0,1,26,0,0,0,0,-184423.28357108065,-4786680.928682174,4201698.706511021,-2.30145,-0.152823,0.128567,86.0,-13.125,-11.125,0.0,0.0,0.0,0.0,0.0,0.0,2,0,41.4460311811729,-92.20642488418716,10000.003670503347,99.84501472551352,-0.0040718854988312,0.0043411925076757,,8736.853420967655,11026.390928219933,150,11,2025-09-16,2025-09-26 14:48:32.873,HA,C,3153403178,AMBUSH51,1,1,48,2,1,1,225,2,1,0,0,9,1,225,2,1,-151604.18350463462,-4791665.143758818,4196783.144143191,2.39034,-3.11402,0.0587636,-122.754,-2.32036,-7.19697,-0.258123,-7.61705,6.72849,0.00724567,0.00633437,0.00998581,4,0,41.39004942467955,-91.81218489309904,8755.26783206763,-94.76769266153303,0.3141282860466279,5.453533836091973,200.207,8736.853420967655,11026.390928219933,150,True,18.04620231815576,False,165.57326335449685,178.86353999017194,False,15.252752163347932,True,False
11,1970-07-23 11:25:41.139386011,2025-09-16,2025-09-26 14:48:33.938,HA,C,3119633210,JASSM,3,116,76,2,2,1,225,9,2,0,1,26,0,0,0,0,-184328.6253679556,-4786695.518525924,4201686.321745396,-2.30145,-0.152823,0.128567,86.0,-13.125,-11.125,0.0,0.0,0.0,0.0,0.0,0.0,2,0,41.44588249092728,-92.20528680462635,10000.00204052379,99.8457680355687,-0.0032059423726082,0.0043405606710772,,8736.853420967655,11026.390928219933,150,11,2025-09-16,2025-09-26 14:48:34.006,HA,C,3154755244,AMBUSH51,1,1,48,2,1,1,225,2,1,0,0,9,1,225,2,1,-151742.426480001,-4791667.326174583,4196775.200787058,2.39207,-3.12003,0.0563074,-122.805,-1.60773,-6.43171,-0.101398,-7.13263,6.29839,0.00907035,-0.00308656,0.00705842,4,0,41.389956781802745,-91.8138354372566,8754.171210813856,-94.43533340044392,0.1507938396494993,5.57378355756544,200.317,8736.853420967655,11026.390928219933,150,True,17.922401131814137,False,166.0609822841605,178.8133924364943,False,14.83008050528368,True,False
11,1970-07-23 11:25:41.153229770,2025-09-16,2025-09-26 14:48:35.322,HA,C,3120887020,JASSM,3,116,76,2,2,1,225,9,2,0,1,26,0,0,0,0,-184238.1917742056,-4786709.456025924,4201674.487761021,-2.30145,-0.152823,0.128567,86.0,-13.125,-11.125,0.0,0.0,0.0,0.0,0.0,0.0,2,0,41.44574042018148,-92.20419952312648,9999.99777437877,99.8464877196326,-0.00237864576557,0.0043399509638304,,8736.853420967655,11026.390928219933,150,11,2025-09-16,2025-09-26 14:48:35.274,HA,C,3156266376,AMBUSH51,1,1,48,2,1,1,225,2,1,0,0,9,1,225,2,1,-151898.98401356634,-4791668.383054687,4196767.145486586,2.41487,-3.12818,0.0482592,-122.956,-0.333274,-5.71104,-0.287772,-7.31462,6.65089,0.0329056,0.00721862,0.011694,4,0,41.38986660083607,-91.81570517728942,8751.50085769433,-93.78257332700984,0.1085214303270595,6.90624478070517,200.317,8736.853420967655,11026.390928219933,150,True,17.791229243281993,False,166.70981802308748,178.75641097423522,False,14.264787266748103,True,False
11,1970-07-23 11:25:41.161431369,2025-09-16,2025-09-26 14:48:36.143,HA,C,3122257910,JASSM,3,116,76,2,2,1,225,9,2,0,1,26,0,0,0,0,-184139.31091483065,-4786724.694307174,4201661.550261021,-2.30145,-0.152823,0.128663,86.0,-13.125,-11.125,0.0,0.0,0.0,0.0,0.0,0.0,2,0,41.44558508627824,-92.20301068623552,9999.99949017567,99.85136532316044,-0.005140298713727,0.0043390670123199,,8736.853420967655,11026.390928219933,150,11,2025-09-16,2025-09-26 14:48:36.140,HA,C,3157300308,AMBUSH51,1,1,48,2,1,1,225,2,1,0,0,9,1,225,2,1,-152006.44028934813,-4791668.458049156,4196762.160685728,2.43133,-3.13796,0.0429867,-123.202,0.375445,-4.97964,-0.19513,-7.40921,6.44771,0.0289504,-0.00423505,0.00471359,4,0,41.38981222828964,-91.8169887530948,8749.255490652537,-93.18633208316572,-0.1103429124911651,7.874745777571441,200.439,8736.853420967655,11026.390928219933,150,True,17.680930208807478,False,167.18643845346153,178.71561779248572,False,13.838704745586151,True,False
11,1970-07-23 11:25:41.173227902,2025-09-16,2025-09-26 14:48:37.322,HA,C,3123512142,JASSM,3,116,76,2,2,1,225,9,2,0,1,26,0,0,0,0,-184048.84607108065,-4786738.635713424,4201649.710417271,-2.30145,-0.152823,0.128663,86.0,-13.125,-11.125,0.0,0.0,0.0,0.0,0.0,0.0,2,0,41.44544293838655,-92.20192303937029,9999.998296114982,99.85208524484769,-0.0043127153364519,0.0043385096165925,,8736.853420967655,11026.390928219933,150,11,2025-09-16,2025-09-26 14:48:37.440,HA,C,3158851206,AMBUSH51,1,1,48,2,1,1,225,2,1,0,0,9,1,225,2,1,-152165.61806421206,-4791667.194337422,4196756.39746609,2.45159,3.13057,0.030445,-123.456,1.63515,-3.54772,-0.196134,-7.41279,6.67821,-0.00403531,0.00550421,0.0203264,4,0,41.38975078019645,-91.81889066539436,8746.074152276547,-92.09355527896366,-0.2628940752713634,9.06265877946574,200.952,8736.853420967655,11026.390928219933,150,True,17.548037508273186,False,168.07411727651007,178.65840816488435,False,13.020220600218035,True,False
11,1970-07-23 11:25:41.182831412,2025-09-16,2025-09-26 14:48:38.283,HA,C,3124765166,JASSM,3,116,76,2,2,1,225,9,2,0,1,26,0,0,0,0,-183958.46716483065,-4786752.561494674,4201637.882292271,-2.30145,-0.152823,0.128663,86.0,-13.125,-11.125,0.0,0.0,0.0,0.0,0.0,0.0,2,0,41.44530093261224,-92.20083643155512,9999.996642522365,99.85280447675086,-0.0034859218830091,0.0043379696697384,,8736.853420967655,11026.390928219933,150,11,2025-09-16,2025-09-26 14:48:38.240,HA,C,3159805604,AMBUSH51,1,1,48,2,1,1,225,2,1,0,0,9,1,225,2,1,-152264.4176355518,-4791665.423338512,4196753.863160294,2.44638,3.12507,0.0215569,-123.55,2.50376,-2.59247,-0.203187,-7.30927,6.63848,-0.00552918,0.00466989,0.0163691,4,0,41.38972553417199,-91.82007153058191,8743.941007045007,-91.50414629745936,-0.1613869972669564,8.770138301110416,200.842,8736.853420967655,11026.390928219933,150,True,17.446630775563182,False,168.67306190223434,178.62251909365136,False,12.46431797615285,True,False
11,1970-07-23 11:25:41.193369031,2025-09-16,2025-09-26 14:48:39.336,HA,C,3126075662,JASSM,3,116,76,2,2,1,225,9,2,0,1,26,0,0,0,0,-183863.94372733065,-4786767.125947799,4201625.511198521,-2.30145,-0.152823,0.128663,86.0,-13.125,-11.125,0.0,0.0,0.0,0.0,0.0,0.0,2,0,41.44515239962004,-92.19969999989158,9999.99854093244,99.85355668517523,-0.0026212131551789,0.0043374007521267,,8736.853420967655,11026.390928219933,150,11,2025-09-16,2025-09-26 14:48:39.406,HA,C,3161197436,AMBUSH51,1,1,48,2,1,1,225,2,1,0,0,9,1,225,2,1,-152409.97224237202,-4791662.047119274,4196751.325855862,2.44071,3.11432,0.0114842,-123.751,3.36688,-1.11572,-0.192797,-7.43418,6.80563,-0.00217526,0.00276199,0.0103978,4,0,41.38970095937155,-91.82181150820992,8741.515349015459,-90.66490272594108,-0.2407376043008611,8.452608152932,201.026,8736.853420967655,11026.390928219933,150,True,17.31827375653454,False,169.4491111542301,178.57218702524585,False,11.73698179386451,True,False
11,1970-07-23 11:25:41.204391599,2025-09-16,2025-09-26 14:48:40.439,HA,C,3127388012,JASSM,3,116,76,2,2,1,225,9,2,0,1,26,0,0,0,0,-183769.2855242056,-4786781.709932174,4201613.120573521,-2.30145,-0.152727,0.128663,86.0,-13.125,-11.125,0.0,0.0,0.0,0.0,0.0,0.0,2,0,41.44500363817706,-92.19856195373572,9999.998083594375,99.85067406630024,-0.00581218245299,0.0036322470076209,,8736.853420967655,11026.390928219933,150,11,2025-09-16,2025-09-26 14:48:40.474,HA,C,3162469968,AMBUSH51,1,1,48,2,1,1,225,2,1,0,0,9,1,225,2,1,-152540.73505803125,-4791657.80457362,4196750.631540626,2.43138,3.10748,0.00236892,-123.838,4.54425,0.0032429,-0.0824704,-7.46631,6.61161,-0.00196512,0.00476768,0.015102,4,0,41.38969675617462,-91.82337512209126,8739.808620618227,-90.01510788286409,-0.1881411934665957,7.918516280337824,201.062,8736.853420967655,11026.390928219933,150,True,17.19740700497969,False,170.19735646850043,178.5284350853192,False,11.044595875166491,True,False
11,1970-07-23 11:25:41.215408546,2025-09-16,2025-09-26 14:48:41.540,HA,C,3128700362,JASSM,3,116,76,2,2,1,225,9,2,0,1,26,0,0,0,0,-183674.62829764312,-4786796.291963424,4201600.729948521,-2.30145,-0.152727,0.128663,86.0,-13.125,-11.125,0.0,0.0,0.0,0.0,0.0,0.0,2,0,41.44485487687532,-92.19742392534644,9999.9977071451,99.85142732720333,-0.0049462515929672,0.0036316264438639,,8736.853420967655,11026.390928219933,150,11,2025-09-16,2025-09-26 14:48:41.540,HA,C,3163742500,AMBUSH51,1,1,48,2,1,1,225,2,1,0,0,9,1,225,2,1,-152673.97690358892,-4791652.538673534,4196751.2297218,2.40434,3.10008,-0.00683471,-123.867,5.25423,1.25676,-0.112021,-7.48857,6.70499,-0.0378387,-0.00298253,0.0112092,4,0,41.389706875859495,-91.8249687382409,8738.591113100683,-89.3401466092606,-0.1564363354179447,6.366214000871529,201.246,8736.853420967655,11026.390928219933,150,True,17.075063117310744,False,170.84619210249429,178.48542824297013,False,10.434433288268204,True,False
11,1970-07-23 11:25:41.226411649,2025-09-16,2025-09-26 14:48:42.641,HA,C,3129954968,JASSM,3,116,76,2,2,1,225,9,2,0,1,26,0,0,0,0,-183584.13513358065,-4786810.233369674,4201588.884245396,-2.30145,-0.152727,0.128663,86.0,-13.125,-11.125,0.0,0.0,0.0,0.0,0.0,0.0,2,0,41.44471264308585,-92.19633596439132,10000.003585981542,99.85214744639632,-0.0041184125097115,0.0036310271677809,,8736.853420967655,11026.390928219933,150,11,2025-09-16,2025-09-26 14:48:42.808,HA,C,3165253632,AMBUSH51,1,1,48,2,1,1,225,2,1,0,0,9,1,225,2,1,-152831.08035160985,-4791645.466530262,4196753.079549989,2.38077,3.09266,-0.0154192,-124.011,5.92491,2.25207,-0.22233,-7.40138,6.65196,-0.0134542,-0.00319683,0.00593282,4,0,41.38973164167604,-91.82684807672672,8737.526426391798,-88.69149145534588,-0.1484846598955718,5.008840890581844,201.429,8736.853420967655,11026.390928219933,150,True,16.94223845493991,False,171.3903914814813,178.4367578951619,False,9.939107939895488,True,False
11,1970-07-23 11:25:41.237448197,2025-09-16,2025-09-26 14:48:43.744,HA,C,3131325066,JASSM,3,116,76,2,2,1,225,9,2,0,1,26,0,0,0,0,-183485.31189139312,-4786825.454072799,4201575.944792271,-2.30145,-0.152727,0.128663,86.0,-13.125,-11.125,0.0,0.0,0.0,0.0,0.0,0.0,2,0,41.44455730620778,-92.19514786171652,9999.997853186753,99.8529338468718,-0.0032143707834637,0.0036303739967901,,8736.853420967655,11026.390928219933,150,11,2025-09-16,2025-09-26 14:48:43.874,HA,C,3166526164,AMBUSH51,1,1,48,2,1,1,225,2,1,0,0,9,1,225,2,1,-152962.61976716097,-4791638.771796491,4196755.663108684,2.43617,3.08643,-0.0215737,-124.092,6.54119,3.14651,-0.113729,-7.36294,6.70205,0.246589,0.0107827,0.0128279,4,0,41.38976394061865,-91.82842190349912,8736.986717025684,-88.19174517605623,-0.182082535779022,8.175130920086282,201.612,8736.853420967655,11026.390928219933,150,True,16.818248056965196,False,171.88271870635913,178.39604663831858,False,9.48651071554274,True,False
11,1970-07-23 11:25:41.248466601,2025-09-16,2025-09-26 14:48:44.846,HA,C,3132639070,JASSM,3,116,76,2,2,1,225,9,2,0,1,26,0,0,0,0,-183390.5355242056,-4786840.051729049,4201563.536589146,-2.30145,-0.152727,0.128663,86.0,-13.125,-11.125,0.0,0.0,0.0,0.0,0.0,0.0,2,0,41.44440832670144,-92.19400841781528,10000.000851633042,99.85368803801862,-0.0023473513639286,0.0036297551874005,,8736.853420967655,11026.390928219933,150,11,2025-09-16,2025-09-26 14:48:44.908,HA,C,3167758930,AMBUSH51,1,1,48,2,1,1,225,2,1,0,0,9,1,225,2,1,-153090.1537239731,-4791631.009995169,4196759.571878138,2.60018,3.08812,-0.0351521,-123.947,8.0357,5.04502,-0.230864,-7.78057,6.99161,0.0661639,0.00231882,0.0242712,4,0,41.38981227399254,-91.82994829285369,8736.390640138095,-87.67343511529477,0.4064332780946346,17.575992341914738,201.209,8736.853420967655,11026.390928219933,150,False,16.698389987289772,False,172.9923359061105,178.3587186917732,False,8.411583553772775,True,False
11,1970-07-23 11:25:41.260509052,2025-09-16,2025-09-26 14:48:46.050,HA,C,3134010720,JASSM,3,116,76,2,2,1,225,9,2,0,1,26,0,0,0,0,-183291.59997733065,-4786855.288057174,4201550.581511021,-2.30145,-0.152727,0.128663,86.0,-13.125,-11.125,0.0,0.0,0.0,0.0,0.0,0.0,2,0,41.44425279296001,-92.1928189768409,9999.999243833508,99.85447531955184,-0.0014422834247659,0.0036291047728398,,8736.853420967655,11026.390928219933,150,11,2025-09-16,2025-09-26 14:48:45.973,HA,C,3169031462,AMBUSH51,1,1,48,2,1,1,225,2,1,0,0,9,1,225,2,1,-153222.50084842695,-4791620.776083173,4196766.253587943,2.74391,3.05284,-0.0710877,-123.603,10.6779,8.02603,-0.252822,-7.99902,7.07576,0.148589,0.0129049,0.0297744,4,0,41.38989309876454,-91.83153312344994,8736.115025571533,-84.79504720648669,0.2572710591175937,25.72054236288993,201.466,8736.853420967655,11026.390928219933,150,False,16.57329863012911,False,174.83157342793947,178.3246193141082,False,6.609487312877849,True,False
11,1970-07-23 11:25:41.271349344,2025-09-16,2025-09-26 14:48:47.134,HA,C,3135323342,JASSM,3,116,76,2,2,1,225,9,2,0,1,26,0,0,0,0,-183196.9222429556,-4786869.868135299,4201538.183073521,-2.30145,-0.152727,0.128759,86.0,-13.125,-11.125,0.0,0.0,0.0,0.0,0.0,0.0,2,0,41.444103938423375,-92.191680730481,9999.99933841103,99.85931946009104,-0.0042423375605014,0.0036283074416606,,8736.853420967655,11026.390928219933,150,11,2025-09-16,2025-09-26 14:48:47.273,HA,C,3170582360,AMBUSH51,1,1,48,2,1,1,225,2,1,0,0,9,1,225,2,1,-153382.62099683535,-4791603.344672546,4196779.360252921,2.8736,3.01822,-0.106619,-122.741,15.6514,12.6533,-0.323748,-8.01468,7.08481,-0.0027391,0.0219055,0.0644599,4,0,41.39005480617231,-91.83345246677888,8734.265950279982,-81.96233198018555,0.1315218813992836,32.9847918630152,201.026,8736.853420967655,11026.390928219933,150,False,16.434841262321093,False,177.9846734887773,178.29463492093575,False,3.5718255250315973,True,False
11,1970-07-23 11:25:41.282367199,2025-09-16,2025-09-26 14:48:48.236,HA,C,3136693774,JASSM,3,116,76,2,2,1,225,9,2,0,1,26,0,0,0,0,-183098.07556326807,-4786885.090791549,4201525.237761021,-2.30145,-0.152727,0.128759,86.0,-13.125,-11.125,0.0,0.0,0.0,0.0,0.0,0.0,2,0,41.4439485076356,-92.19049236900116,10000.003928667316,99.8601060224019,-0.0033380803113886,0.0036277095637151,,8736.853420967655,11026.390928219933,150,11,2025-09-16,2025-09-26 14:48:48.306,HA,C,3171815126,AMBUSH51,1,1,48,2,1,1,225,2,1,0,0,9,1,225,2,1,-153509.83674706906,-4791584.866844838,4196794.115736941,2.85966,2.9688,-0.139073,-121.81,19.8992,16.617,-0.122454,-8.02757,7.13,-0.0125241,0.0174531,0.0338565,4,0,41.39024010925556,-91.83497916690486,8730.839027086206,-78.70344055717902,-0.721240440974567,31.82227480189665,201.429,8736.853420967655,11026.390928219933,150,False,16.31113324350975,False,179.29329942785117,178.2785909250655,False,1.3299026909027838,True,False
11,1970-07-23 11:25:41.293410168,2025-09-16,2025-09-26 14:48:49.341,HA,C,3137947094,JASSM,3,116,76,2,2,1,225,9,2,0,1,26,0,0,0,0,-183007.67517264312,-4786899.008760299,4201513.395964146,-2.30145,-0.152631,0.128759,86.0,-13.125,-11.125,0.0,0.0,0.0,0.0,0.0,0.0,2,0,41.44380635302384,-92.1894055578543,9999.997291267391,99.85718956929357,-0.0065679987662506,0.0029221151411981,,8736.853420967655,11026.390928219933,150,11,2025-09-16,2025-09-26 14:48:49.273,HA,C,3172968358,AMBUSH51,1,1,48,2,1,1,225,2,1,0,0,9,1,225,2,1,-153626.232903876,-4791563.500667175,4196811.684785691,2.82254,2.94136,-0.162296,-120.76,23.7913,20.1363,-0.142612,-8.03099,6.9602,-0.0658768,0.0177756,0.0346762,4,0,41.39046363251403,-91.83637773857564,8725.56498782192,-76.67457612522112,-0.9794439131042044,29.429336175172267,201.649,8736.853420967655,11026.390928219933,150,False,16.197252798432935,False,176.84097583641037,178.27265871628066,False,2.120379779749455,True,False
11,1970-07-23 11:25:41.305407075,2025-09-16,2025-09-26 14:48:50.540,HA,C,3139258824,JASSM,3,116,76,2,2,1,225,9,2,0,1,26,0,0,0,0,-182913.06189139312,-4786913.575166549,4201501.003386021,-2.30145,-0.152631,0.128759,86.0,-13.125,-11.125,0.0,0.0,0.0,0.0,0.0,0.0,2,0,41.44365757095264,-92.18826810367432,9999.99692902934,99.8579424323177,-0.0057024728535204,0.002921501587909,,8736.853420967655,11026.390928219933,150,11,2025-09-16,2025-09-26 14:48:50.406,HA,C,3174320424,AMBUSH51,1,1,48,2,1,1,225,2,1,0,0,9,1,225,2,1,-153763.05416639487,-4791534.539572616,4196836.339872623,2.78325,2.90461,-0.20006,-119.446,27.4438,24.0704,-0.201251,-8.39665,7.45919,-0.018252,0.0299054,0.0349259,4,0,41.39077625994085,-91.8380232177984,8718.598020222535,-73.68082618840221,-1.0433187583263004,26.74589860785565,201.979,8736.853420967655,11026.390928219933,150,False,16.06911976353063,False,174.31500809942045,178.27485888884834,False,4.418690848961776,True,False
11,1970-07-23 11:25:41.316028376,2025-09-16,2025-09-26 14:48:51.602,HA,C,3140512516,JASSM,3,116,76,2,2,1,225,9,2,0,1,26,0,0,0,0,-182822.63415701807,-4786927.497041549,4201489.157682896,-2.30145,-0.152631,0.128759,86.0,-13.125,-11.125,0.0,0.0,0.0,0.0,0.0,0.0,2,0,41.44351535193383,-92.18718097364678,9999.99778089925,99.85866198449985,-0.0048752350831673,0.0029209069274463,,8736.853420967655,11026.390928219933,150,11,2025-09-16,2025-09-26 14:48:51.507,HA,C,3175632722,AMBUSH51,1,1,48,2,1,1,225,2,1,0,0,9,1,225,2,1,-153893.06048598263,-4791502.320474981,4196864.957439751,2.77677,2.88091,-0.228436,-118.074,30.9577,28.1437,-0.190208,-8.39746,7.52904,-0.0184538,0.0191425,0.0267533,4,0,41.39113629926465,-91.83958855623362,8711.683757299876,-71.5872658146973,-0.9080363089085568,26.05008997834172,202.089,8736.853420967655,11026.390928219933,150,False,15.946254319657045,False,171.78637597507182,178.28801587425838,False,6.888346777799405,True,False
11,1970-07-23 11:25:41.326427282,2025-09-16,2025-09-26 14:48:52.642,HA,C,3141823874,JASSM,3,116,76,2,2,1,225,9,2,0,1,26,0,0,0,0,-182728.04821951807,-4786942.057588424,4201476.767057896,-2.30145,-0.152631,0.128759,86.0,-13.125,-11.125,0.0,0.0,0.0,0.0,0.0,0.0,2,0,41.44336658970106,-92.1860438591105,9999.999181629226,99.85941461837206,-0.0040099596248458,0.0029202922214169,,8736.853420967655,11026.390928219933,150,11,2025-09-16,2025-09-26 14:48:52.506,HA,C,3176825720,AMBUSH51,1,1,48,2,1,1,225,2,1,0,0,9,1,225,2,1,-154010.96921034253,-4791469.541312257,4196895.284195634,2.77058,2.85015,-0.261719,-116.538,33.5765,32.0576,-0.221045,-8.25185,7.61045,-0.00475104,0.0257983,0.0373872,4,0,41.39151350224831,-91.84100961585378,8706.15244689743,-69.02773520550245,-0.8441472600887736,25.22838697560293,202.419,8736.853420967655,11026.390928219933,150,False,15.827270716615173,False,169.55350316793903,178.30850197193507,False,9.090224065479974,True,False
11,1970-07-23 11:25:41.336828270,2025-09-16,2025-09-26 14:48:53.682,HA,C,3143077634,JASSM,3,116,76,2,2,1,225,9,2,0,1,26,0,0,0,0,-182637.61560233065,-4786955.977510299,4201464.919401646,-2.30145,-0.152631,0.128759,86.0,-13.125,-11.125,0.0,0.0,0.0,0.0,0.0,0.0,2,0,41.44322434921533,-92.18495668132988,9999.999475631394,99.86013419800416,-0.0031826792955644,0.0029197044221913,,8736.853420967655,11026.390928219933,150,11,2025-09-16,2025-09-26 14:48:53.840,HA,C,3178416386,AMBUSH51,1,1,48,2,1,1,225,2,1,0,0,9,1,225,2,1,-154164.89401498935,-4791422.004294414,4196941.220659449,2.75606,2.8169,-0.297565,-114.325,37.2153,36.8115,-0.191026,-8.32423,7.48282,-0.0225068,0.0136456,0.0315782,4,0,41.39207697250318,-91.84286659819084,8701.037362982519,-66.27889461501367,-0.743206785912408,23.83251872173897,202.419,8736.853420967655,11026.390928219933,150,False,15.689153265155815,False,166.65208928687989,178.350316405546,False,12.01776272346039,True,False
